{"data": {"bikes": [{"lon": -76.98382983333333, "rental_uris": {"android": "https://dc.lft.to/lastmile_qr_scan", "ios": "https://dc.lft.to/lastmile_qr_scan"}, "fusion_lon": 0.0, "is_reserved": 0, "is_disabled": 0, "fusion_lat": 0.0, "type": "electric_scooter", "name": "141f0e875076169c00fbd778a92f72bb", "lat": 38.91497066666667, "bike_id": "141f0e875076169c00fbd778a92f72bb"}, {"lon": -77.00590033333333, "rental_uris": {"android": "https://dc.lft.to/lastmile_qr_scan", "ios": "https://dc.lft.to/lastmile_qr_scan"}, "fusion_lon": 0.0, "is_reserved": 0, "is_disabled": 0, "fusion_lat": 0.0, "type": "electric_scooter", "name": "2e510887459e48dece02a34c74dbe8ba", "lat": 38.905658333333335, "bike_id": "2e510887459e48dece02a34c74dbe8ba"}, {"lon": -76.993808, "rental_uris": {"android": "https://dc.lft.to/lastmile_qr_scan", "ios": "https://dc.lft.to/lastmile_qr_scan"}, "fusion_lon": 0.0, "is_reserved": 0, "is_disabled": 0, "fusion_lat": 0.0, "type": "electric_scooter", "name": "c04a5ef840f3dde34db2921ad7f3f7d8", "lat": 38.89337716666667, "bike_id": "c04a5ef840f3dde34db2921ad7f3f7d8"}, {"lon": -77.055611, "rental_uris": {"android": "https://dc.lft.to/lastmile_qr_scan", "ios": "https://dc.lft.to/lastmile_qr_scan"}, "fusion_lon": 0.0, "is_reserved": 0, "is_disabled": 0, "fusion_lat": 0.0, "type": "electric_scooter", "name": "cad55f90e4556b929a5d3f1dc85fbe64", "lat": 38.930306333333334, "bike_id": "cad55f90e4556b929a5d3f1dc85fbe64"}, {"lon": -77.03333633333334, "rental_uris": {"android": "https://dc.lft.to/lastmile_qr_scan", "ios": "https://dc.lft.to/lastmile_qr_scan"}, "fusion_lon": 0.0, "is_reserved": 0, "is_disabled": 0, "fusion_lat": 0.0, "type": "electric_bike", "name": "b52530fa27206a95e32bf00f0b8a4554", "lat": 38.9613535, "bike_id": "b52530fa27206a95e32bf00f0b8a4554"}, {"lon": -77.02240233333333, "rental_uris": {"android": "https://dc.lft.to/lastmile_qr_scan", "ios": "https://dc.lft.to/lastmile_qr_scan"}, "fusion_lon": 0.0, "is_reserved": 0, "is_disabled": 0, "fusion_lat": 0.0, "type": "electric_scooter", "name": "be053f226c6034214558f7e1c7ff9b33", "lat": 38.88771533333333, "bike_id": "be053f226c6034214558f7e1c7ff9b33"}, {"lon": -77.03826966666666, "rental_uris": {"android": "https://dc.lft.to/lastmile_qr_scan", "ios": "https://dc.lft.to/lastmile_qr_scan"}, "fusion_lon": 0.0, "is_reserved": 0, "is_disabled": 0, "fusion_lat": 0.0, "type": "electric_scooter", "name": "4087ea672f0eaf80e0b23a0209297ede", "lat": 38.907778666666665, "bike_id": "4087ea672f0eaf80e0b23a0209297ede"}, {"lon": -77.04489333333333, "rental_uris": {"android": "https://dc.lft.to/lastmile_qr_scan", "ios": "https://dc.lft.to/lastmile_qr_scan"}, "fusion_lon": 0.0, "is_reserved": 0, "is_disabled": 0, "fusion_lat": 0.0, "type": "electric_scooter", "name": "2c2ada1523190867530b3a4cf20920cd", "lat": 38.903228666666664, "bike_id": "2c2ada1523190867530b3a4cf20920cd"}, {"lon": -77.0068105, "rental_uris": {"android": "https://dc.lft.to/lastmile_qr_scan", "ios": "https://dc.lft.to/lastmile_qr_scan"}, "fusion_lon": 0.0, "is_reserved": 0, "is_disabled": 0, "fusion_lat": 0.0, "type": "electric_scooter", "name": "542398b397e42324b0bf08c36aac02c0", "lat": 38.8771895, "bike_id": "542398b397e42324b0bf08c36aac02c0"}, {"lon": -77.029725, "rental_uris": {"android": "https://dc.lft.to/lastmile_qr_scan", "ios": "https://dc.lft.to/lastmile_qr_scan"}, "fusion_lon": 0.0, "is_reserved": 0, "is_disabled": 0, "fusion_lat": 0.0, "type": "electric_scooter", "name": "7637096233d08c9058d921e2bf4a2123", "lat": 38.922874, "bike_id": "7637096233d08c9058d921e2bf4a2123"}, {"lon": -77.0489675, "rental_uris": {"android": "https://dc.lft.to/lastmile_qr_scan", "ios": "https://dc.lft.to/lastmile_qr_scan"}, "fusion_lon": 0.0, "is_reserved": 0, "is_disabled": 0, "fusion_lat": 0.0, "type": "electric_scooter", "name": "1c7b07c1057d4272af9fda9cc87a5e9b", "lat": 38.9058065, "bike_id": "1c7b07c1057d4272af9fda9cc87a5e9b"}, {"lon": -77.02653883333333, "rental_uris": {"android": "https://dc.lft.to/lastmile_qr_scan", "ios": "https://dc.lft.to/lastmile_qr_scan"}, "fusion_lon": 0.0, "is_reserved": 0, "is_disabled": 0, "fusion_lat": 0.0, "type": "electric_scooter", "name": "1d2bb5ffb48c0e97b645d67a88c87b64", "lat": 38.88122033333333, "bike_id": "1d2bb5ffb48c0e97b645d67a88c87b64"}, {"lon": -77.040193, "rental_uris": {"android": "https://dc.lft.to/lastmile_qr_scan", "ios": "https://dc.lft.to/lastmile_qr_scan"}, "fusion_lon": 0.0, "is_reserved": 0, "is_disabled": 0, "fusion_lat": 0.0, "type": "electric_scooter", "name": "5997ea2f416cf9ab35baf5251a5d58e2", "lat": 38.91798083333333, "bike_id": "5997ea2f416cf9ab35baf5251a5d58e2"}, {"lon": -77.0470415, "rental_uris": {"android": "https://dc.lft.to/lastmile_qr_scan", "ios": "https://dc.lft.to/lastmile_qr_scan"}, "fusion_lon": 0.0, "is_reserved": 0, "is_disabled": 0, "fusion_lat": 0.0, "type": "electric_scooter", "name": "96e5219adb4c7270fbe5857edd7dd79c", "lat": 38.92138283333333, "bike_id": "96e5219adb4c7270fbe5857edd7dd79c"}, {"lon": -77.04349233333333, "rental_uris": {"android": "https://dc.lft.to/lastmile_qr_scan", "ios": "https://dc.lft.to/lastmile_qr_scan"}, "fusion_lon": 0.0, "is_reserved": 0, "is_disabled": 0, "fusion_lat": 0.0, "type": "electric_scooter", "name": "41da1cfb48ef835f48f56388fcbb7dea", "lat": 38.90700183333333, "bike_id": "41da1cfb48ef835f48f56388fcbb7dea"}, {"lon": -77.00825083333334, "rental_uris": {"android": "https://dc.lft.to/lastmile_qr_scan", "ios": "https://dc.lft.to/lastmile_qr_scan"}, "fusion_lon": 0.0, "is_reserved": 0, "is_disabled": 0, "fusion_lat": 0.0, "type": "electric_scooter", "name": "d7a9b809d5943919649a9c6cbdf24ff1", "lat": 38.90640333333333, "bike_id": "d7a9b809d5943919649a9c6cbdf24ff1"}, {"lon": -77.04500216666666, "rental_uris": {"android": "https://dc.lft.to/lastmile_qr_scan", "ios": "https://dc.lft.to/lastmile_qr_scan"}, "fusion_lon": 0.0, "is_reserved": 0, "is_disabled": 0, "fusion_lat": 0.0, "type": "electric_scooter", "name": "26813a86e6b51d94d57397f8d1b2aa29", "lat": 38.89953666666667, "bike_id": "26813a86e6b51d94d57397f8d1b2aa29"}, {"lon": -77.01829166666667, "rental_uris": {"android": "https://dc.lft.to/lastmile_qr_scan", "ios": "https://dc.lft.to/lastmile_qr_scan"}, "fusion_lon": 0.0, "is_reserved": 0, "is_disabled": 0, "fusion_lat": 0.0, "type": "electric_scooter", "name": "1f1b92132473c7764f2afcd6877873a1", "lat": 38.9223955, "bike_id": "1f1b92132473c7764f2afcd6877873a1"}, {"lon": -77.01806583333334, "rental_uris": {"android": "https://dc.lft.to/lastmile_qr_scan", "ios": "https://dc.lft.to/lastmile_qr_scan"}, "fusion_lon": 0.0, "is_reserved": 0, "is_disabled": 0, "fusion_lat": 0.0, "type": "electric_scooter", "name": "10f039eb9a83784bfd19ee466201547b", "lat": 38.901136, "bike_id": "10f039eb9a83784bfd19ee466201547b"}, {"lon": -77.02117383333334, "rental_uris": {"android": "https://dc.lft.to/lastmile_qr_scan", "ios": "https://dc.lft.to/lastmile_qr_scan"}, "fusion_lon": 0.0, "is_reserved": 0, "is_disabled": 0, "fusion_lat": 0.0, "type": "electric_scooter", "name": "360d019fc1aee8f3b1aa6aec2f55bd6f", "lat": 38.9267455, "bike_id": "360d019fc1aee8f3b1aa6aec2f55bd6f"}, {"lon": -77.03667433333334, "rental_uris": {"android": "https://dc.lft.to/lastmile_qr_scan", "ios": "https://dc.lft.to/lastmile_qr_scan"}, "fusion_lon": 0.0, "is_reserved": 0, "is_disabled": 0, "fusion_lat": 0.0, "type": "electric_scooter", "name": "400db569115f18d626974a5b804fc447", "lat": 38.91725983333333, "bike_id": "400db569115f18d626974a5b804fc447"}, {"lon": -77.04514683333333, "rental_uris": {"android": "https://dc.lft.to/lastmile_qr_scan", "ios": "https://dc.lft.to/lastmile_qr_scan"}, "fusion_lon": 0.0, "is_reserved": 0, "is_disabled": 0, "fusion_lat": 0.0, "type": "electric_scooter", "name": "4c6f30d7ca29e16b61d3b7eaac94594c", "lat": 38.9038435, "bike_id": "4c6f30d7ca29e16b61d3b7eaac94594c"}, {"lon": -77.03287233333333, "rental_uris": {"android": "https://dc.lft.to/lastmile_qr_scan", "ios": "https://dc.lft.to/lastmile_qr_scan"}, "fusion_lon": 0.0, "is_reserved": 0, "is_disabled": 0, "fusion_lat": 0.0, "type": "electric_scooter", "name": "7234319eb491bf8def735975926342e6", "lat": 38.9376, "bike_id": "7234319eb491bf8def735975926342e6"}, {"lon": -77.01904566666667, "rental_uris": {"android": "https://dc.lft.to/lastmile_qr_scan", "ios": "https://dc.lft.to/lastmile_qr_scan"}, "fusion_lon": 0.0, "is_reserved": 0, "is_disabled": 0, "fusion_lat": 0.0, "type": "electric_scooter", "name": "890165959ae88f92d3314f6d0a85abb4", "lat": 38.919180833333336, "bike_id": "890165959ae88f92d3314f6d0a85abb4"}, {"lon": -77.04191666666667, "rental_uris": {"android": "https://dc.lft.to/lastmile_qr_scan", "ios": "https://dc.lft.to/lastmile_qr_scan"}, "fusion_lon": 0.0, "is_reserved": 0, "is_disabled": 0, "fusion_lat": 0.0, "type": "electric_scooter", "name": "d8b0d59ab0716530a9ede160a96c06ca", "lat": 38.92219983333333, "bike_id": "d8b0d59ab0716530a9ede160a96c06ca"}, {"lon": -77.0344585, "rental_uris": {"android": "https://dc.lft.to/lastmile_qr_scan", "ios": "https://dc.lft.to/lastmile_qr_scan"}, "fusion_lon": 0.0, "is_reserved": 0, "is_disabled": 0, "fusion_lat": 0.0, "type": "electric_scooter", "name": "e17df97e848b7a8502919a54aa99e2d3", "lat": 38.907037833333334, "bike_id": "e17df97e848b7a8502919a54aa99e2d3"}, {"lon": -77.0628995, "rental_uris": {"android": "https://dc.lft.to/lastmile_qr_scan", "ios": "https://dc.lft.to/lastmile_qr_scan"}, "fusion_lon": 0.0, "is_reserved": 0, "is_disabled": 0, "fusion_lat": 0.0, "type": "electric_scooter", "name": "0386d057ba717b9e884a3c96f7e41461", "lat": 38.91246733333333, "bike_id": "0386d057ba717b9e884a3c96f7e41461"}, {"lon": -76.97669366666666, "rental_uris": {"android": "https://dc.lft.to/lastmile_qr_scan", "ios": "https://dc.lft.to/lastmile_qr_scan"}, "fusion_lon": 0.0, "is_reserved": 0, "is_disabled": 0, "fusion_lat": 0.0, "type": "electric_scooter", "name": "7a8e150fbb36c2d7de3d5e9700ecc3da", "lat": 38.840547666666666, "bike_id": "7a8e150fbb36c2d7de3d5e9700ecc3da"}, {"lon": -77.063716, "rental_uris": {"android": "https://dc.lft.to/lastmile_qr_scan", "ios": "https://dc.lft.to/lastmile_qr_scan"}, "fusion_lon": 0.0, "is_reserved": 0, "is_disabled": 0, "fusion_lat": 0.0, "type": "electric_scooter", "name": "061a32a13e7cb3854fc96a1847e5e842", "lat": 38.9051005, "bike_id": "061a32a13e7cb3854fc96a1847e5e842"}, {"lon": -77.05174833333334, "rental_uris": {"android": "https://dc.lft.to/lastmile_qr_scan", "ios": "https://dc.lft.to/lastmile_qr_scan"}, "fusion_lon": 0.0, "is_reserved": 0, "is_disabled": 0, "fusion_lat": 0.0, "type": "electric_scooter", "name": "95c121efd8355a61a998e966de774f0f", "lat": 38.92344466666667, "bike_id": "95c121efd8355a61a998e966de774f0f"}, {"lon": -77.0448915, "rental_uris": {"android": "https://dc.lft.to/lastmile_qr_scan", "ios": "https://dc.lft.to/lastmile_qr_scan"}, "fusion_lon": 0.0, "is_reserved": 0, "is_disabled": 0, "fusion_lat": 0.0, "type": "electric_scooter", "name": "93675bea6ee0cec03a251f60514f5fb1", "lat": 38.91096, "bike_id": "93675bea6ee0cec03a251f60514f5fb1"}, {"lon": -77.0666325, "rental_uris": {"android": "https://dc.lft.to/lastmile_qr_scan", "ios": "https://dc.lft.to/lastmile_qr_scan"}, "fusion_lon": 0.0, "is_reserved": 0, "is_disabled": 0, "fusion_lat": 0.0, "type": "electric_bike", "name": "3103009da74ac514054ca5b1354f481f", "lat": 38.950858333333336, "bike_id": "3103009da74ac514054ca5b1354f481f"}, {"lon": -77.05210583333333, "rental_uris": {"android": "https://dc.lft.to/lastmile_qr_scan", "ios": "https://dc.lft.to/lastmile_qr_scan"}, "fusion_lon": 0.0, "is_reserved": 0, "is_disabled": 0, "fusion_lat": 0.0, "type": "electric_scooter", "name": "3f3258e28019017aa69dfc9ee1676014", "lat": 38.924755833333336, "bike_id": "3f3258e28019017aa69dfc9ee1676014"}, {"lon": -77.0452135, "rental_uris": {"android": "https://dc.lft.to/lastmile_qr_scan", "ios": "https://dc.lft.to/lastmile_qr_scan"}, "fusion_lon": 0.0, "is_reserved": 0, "is_disabled": 0, "fusion_lat": 0.0, "type": "electric_scooter", "name": "9b85dd356ad8df7486bf6a80047ac3c4", "lat": 38.9037225, "bike_id": "9b85dd356ad8df7486bf6a80047ac3c4"}, {"lon": -77.048593, "rental_uris": {"android": "https://dc.lft.to/lastmile_qr_scan", "ios": "https://dc.lft.to/lastmile_qr_scan"}, "fusion_lon": 0.0, "is_reserved": 0, "is_disabled": 0, "fusion_lat": 0.0, "type": "electric_scooter", "name": "8a2db0b1c13e477784aa1916c9e1758b", "lat": 38.9002605, "bike_id": "8a2db0b1c13e477784aa1916c9e1758b"}, {"lon": -77.00207966666666, "rental_uris": {"android": "https://dc.lft.to/lastmile_qr_scan", "ios": "https://dc.lft.to/lastmile_qr_scan"}, "fusion_lon": 0.0, "is_reserved": 0, "is_disabled": 0, "fusion_lat": 0.0, "type": "electric_scooter", "name": "dcd5f0f9e136364f187cc9f44d4fe9f9", "lat": 38.9023865, "bike_id": "dcd5f0f9e136364f187cc9f44d4fe9f9"}, {"lon": -76.94212483333334, "rental_uris": {"android": "https://dc.lft.to/lastmile_qr_scan", "ios": "https://dc.lft.to/lastmile_qr_scan"}, "fusion_lon": 0.0, "is_reserved": 0, "is_disabled": 0, "fusion_lat": 0.0, "type": "electric_scooter", "name": "ec81f969b884a31e7a5c4b94de1926ff", "lat": 38.884185, "bike_id": "ec81f969b884a31e7a5c4b94de1926ff"}, {"lon": -76.97641716666666, "rental_uris": {"android": "https://dc.lft.to/lastmile_qr_scan", "ios": "https://dc.lft.to/lastmile_qr_scan"}, "fusion_lon": 0.0, "is_reserved": 0, "is_disabled": 0, "fusion_lat": 0.0, "type": "electric_scooter", "name": "9839ef771a4e77c7bcf96797c079fb61", "lat": 38.88689633333333, "bike_id": "9839ef771a4e77c7bcf96797c079fb61"}, {"lon": -77.07458266666667, "rental_uris": {"android": "https://dc.lft.to/lastmile_qr_scan", "ios": "https://dc.lft.to/lastmile_qr_scan"}, "fusion_lon": 0.0, "is_reserved": 0, "is_disabled": 0, "fusion_lat": 0.0, "type": "electric_scooter", "name": "92aff3267f7b34229f97d4c46c1bae09", "lat": 38.92075916666667, "bike_id": "92aff3267f7b34229f97d4c46c1bae09"}, {"lon": -77.03198033333334, "rental_uris": {"android": "https://dc.lft.to/lastmile_qr_scan", "ios": "https://dc.lft.to/lastmile_qr_scan"}, "fusion_lon": 0.0, "is_reserved": 0, "is_disabled": 0, "fusion_lat": 0.0, "type": "electric_scooter", "name": "c535f52993a885c9692c381304e318b1", "lat": 38.90307133333334, "bike_id": "c535f52993a885c9692c381304e318b1"}, {"lon": -77.03871333333333, "rental_uris": {"android": "https://dc.lft.to/lastmile_qr_scan", "ios": "https://dc.lft.to/lastmile_qr_scan"}, "fusion_lon": 0.0, "is_reserved": 0, "is_disabled": 0, "fusion_lat": 0.0, "type": "electric_scooter", "name": "6e3aa7b9a13f965a4ecfd5f850d4d704", "lat": 38.912657833333334, "bike_id": "6e3aa7b9a13f965a4ecfd5f850d4d704"}, {"lon": -77.11511533333334, "rental_uris": {"android": "https://dc.lft.to/lastmile_qr_scan", "ios": "https://dc.lft.to/lastmile_qr_scan"}, "fusion_lon": 0.0, "is_reserved": 0, "is_disabled": 0, "fusion_lat": 0.0, "type": "electric_bike", "name": "02da0826bd71befec37584c01ee40174", "lat": 39.070537333333334, "bike_id": "02da0826bd71befec37584c01ee40174"}, {"lon": -77.048785, "rental_uris": {"android": "https://dc.lft.to/lastmile_qr_scan", "ios": "https://dc.lft.to/lastmile_qr_scan"}, "fusion_lon": 0.0, "is_reserved": 0, "is_disabled": 0, "fusion_lat": 0.0, "type": "electric_scooter", "name": "ea1f9ec7969311335a7667bb1f5df9bf", "lat": 38.91233833333333, "bike_id": "ea1f9ec7969311335a7667bb1f5df9bf"}, {"lon": -77.02407883333333, "rental_uris": {"android": "https://dc.lft.to/lastmile_qr_scan", "ios": "https://dc.lft.to/lastmile_qr_scan"}, "fusion_lon": 0.0, "is_reserved": 0, "is_disabled": 0, "fusion_lat": 0.0, "type": "electric_scooter", "name": "104c15e2447017eb6f41b4a94e7a3053", "lat": 38.957066, "bike_id": "104c15e2447017eb6f41b4a94e7a3053"}, {"lon": -76.96505883333333, "rental_uris": {"android": "https://dc.lft.to/lastmile_qr_scan", "ios": "https://dc.lft.to/lastmile_qr_scan"}, "fusion_lon": 0.0, "is_reserved": 0, "is_disabled": 0, "fusion_lat": 0.0, "type": "electric_scooter", "name": "c42231efd142499afb3d05c881787559", "lat": 38.8764605, "bike_id": "c42231efd142499afb3d05c881787559"}, {"lon": -77.04722533333333, "rental_uris": {"android": "https://dc.lft.to/lastmile_qr_scan", "ios": "https://dc.lft.to/lastmile_qr_scan"}, "fusion_lon": 0.0, "is_reserved": 0, "is_disabled": 0, "fusion_lat": 0.0, "type": "electric_scooter", "name": "3ca72d9467d0fb6ee46935d70f55a4cf", "lat": 38.918979, "bike_id": "3ca72d9467d0fb6ee46935d70f55a4cf"}, {"lon": -77.03259133333333, "rental_uris": {"android": "https://dc.lft.to/lastmile_qr_scan", "ios": "https://dc.lft.to/lastmile_qr_scan"}, "fusion_lon": 0.0, "is_reserved": 0, "is_disabled": 0, "fusion_lat": 0.0, "type": "electric_scooter", "name": "8cc4cecf17d7f953e54affe2e2e42a5f", "lat": 38.91258416666667, "bike_id": "8cc4cecf17d7f953e54affe2e2e42a5f"}, {"lon": -76.97333383333333, "rental_uris": {"android": "https://dc.lft.to/lastmile_qr_scan", "ios": "https://dc.lft.to/lastmile_qr_scan"}, "fusion_lon": 0.0, "is_reserved": 0, "is_disabled": 0, "fusion_lat": 0.0, "type": "electric_scooter", "name": "46424830d03496395c3125e0d7b5d6c4", "lat": 38.904107833333335, "bike_id": "46424830d03496395c3125e0d7b5d6c4"}, {"lon": -77.04334433333334, "rental_uris": {"android": "https://dc.lft.to/lastmile_qr_scan", "ios": "https://dc.lft.to/lastmile_qr_scan"}, "fusion_lon": 0.0, "is_reserved": 0, "is_disabled": 0, "fusion_lat": 0.0, "type": "electric_scooter", "name": "5a706140204c08ce652fb22b547a39fc", "lat": 38.892231333333335, "bike_id": "5a706140204c08ce652fb22b547a39fc"}, {"lon": -76.99552833333334, "rental_uris": {"android": "https://dc.lft.to/lastmile_qr_scan", "ios": "https://dc.lft.to/lastmile_qr_scan"}, "fusion_lon": 0.0, "is_reserved": 0, "is_disabled": 0, "fusion_lat": 0.0, "type": "electric_scooter", "name": "b85f7028047ff61b887fc58ab46144e4", "lat": 38.862306833333335, "bike_id": "b85f7028047ff61b887fc58ab46144e4"}, {"lon": -77.04864683333334, "rental_uris": {"android": "https://dc.lft.to/lastmile_qr_scan", "ios": "https://dc.lft.to/lastmile_qr_scan"}, "fusion_lon": 0.0, "is_reserved": 0, "is_disabled": 0, "fusion_lat": 0.0, "type": "electric_scooter", "name": "06abd5a55557484d89d08553504408cd", "lat": 38.8988935, "bike_id": "06abd5a55557484d89d08553504408cd"}, {"lon": -77.017673, "rental_uris": {"android": "https://dc.lft.to/lastmile_qr_scan", "ios": "https://dc.lft.to/lastmile_qr_scan"}, "fusion_lon": 0.0, "is_reserved": 0, "is_disabled": 0, "fusion_lat": 0.0, "type": "electric_scooter", "name": "7527031a0ddc27b650648c39baeeadb3", "lat": 38.93896516666667, "bike_id": "7527031a0ddc27b650648c39baeeadb3"}, {"lon": -76.96979433333334, "rental_uris": {"android": "https://dc.lft.to/lastmile_qr_scan", "ios": "https://dc.lft.to/lastmile_qr_scan"}, "fusion_lon": 0.0, "is_reserved": 0, "is_disabled": 0, "fusion_lat": 0.0, "type": "electric_scooter", "name": "d15747a8c236ba103287b112e3798f09", "lat": 38.87386166666667, "bike_id": "d15747a8c236ba103287b112e3798f09"}, {"lon": -77.06311033333333, "rental_uris": {"android": "https://dc.lft.to/lastmile_qr_scan", "ios": "https://dc.lft.to/lastmile_qr_scan"}, "fusion_lon": 0.0, "is_reserved": 0, "is_disabled": 0, "fusion_lat": 0.0, "type": "electric_bike", "name": "50f7eb4c3286bc0326a7cfc8b62ca692", "lat": 38.84127683333333, "bike_id": "50f7eb4c3286bc0326a7cfc8b62ca692"}, {"lon": -77.05344033333333, "rental_uris": {"android": "https://dc.lft.to/lastmile_qr_scan", "ios": "https://dc.lft.to/lastmile_qr_scan"}, "fusion_lon": 0.0, "is_reserved": 0, "is_disabled": 0, "fusion_lat": 0.0, "type": "electric_scooter", "name": "55257a4d9f285eafde405bd61fbe8912", "lat": 38.89881533333333, "bike_id": "55257a4d9f285eafde405bd61fbe8912"}, {"lon": -77.04351533333333, "rental_uris": {"android": "https://dc.lft.to/lastmile_qr_scan", "ios": "https://dc.lft.to/lastmile_qr_scan"}, "fusion_lon": 0.0, "is_reserved": 0, "is_disabled": 0, "fusion_lat": 0.0, "type": "electric_scooter", "name": "615cdc3bcd4ed31a3c8952b74f7be5d9", "lat": 38.903687166666664, "bike_id": "615cdc3bcd4ed31a3c8952b74f7be5d9"}, {"lon": -77.02485533333333, "rental_uris": {"android": "https://dc.lft.to/lastmile_qr_scan", "ios": "https://dc.lft.to/lastmile_qr_scan"}, "fusion_lon": 0.0, "is_reserved": 0, "is_disabled": 0, "fusion_lat": 0.0, "type": "electric_scooter", "name": "50f9c244daae34fa0a4800e592c3e46b", "lat": 38.916668666666666, "bike_id": "50f9c244daae34fa0a4800e592c3e46b"}, {"lon": -76.998986, "rental_uris": {"android": "https://dc.lft.to/lastmile_qr_scan", "ios": "https://dc.lft.to/lastmile_qr_scan"}, "fusion_lon": 0.0, "is_reserved": 0, "is_disabled": 0, "fusion_lat": 0.0, "type": "electric_scooter", "name": "76c28d51f9bae79154b17bced1c3a2da", "lat": 38.9001105, "bike_id": "76c28d51f9bae79154b17bced1c3a2da"}, {"lon": -77.06351366666667, "rental_uris": {"android": "https://dc.lft.to/lastmile_qr_scan", "ios": "https://dc.lft.to/lastmile_qr_scan"}, "fusion_lon": 0.0, "is_reserved": 0, "is_disabled": 0, "fusion_lat": 0.0, "type": "electric_scooter", "name": "1bce64b6745ddce1bd8ce797ace3a4c2", "lat": 38.94453, "bike_id": "1bce64b6745ddce1bd8ce797ace3a4c2"}, {"lon": -77.032135, "rental_uris": {"android": "https://dc.lft.to/lastmile_qr_scan", "ios": "https://dc.lft.to/lastmile_qr_scan"}, "fusion_lon": 0.0, "is_reserved": 0, "is_disabled": 0, "fusion_lat": 0.0, "type": "electric_scooter", "name": "c1af448d092d35ddc8373743caacfa47", "lat": 38.900248166666664, "bike_id": "c1af448d092d35ddc8373743caacfa47"}, {"lon": -76.9821805, "rental_uris": {"android": "https://dc.lft.to/lastmile_qr_scan", "ios": "https://dc.lft.to/lastmile_qr_scan"}, "fusion_lon": 0.0, "is_reserved": 0, "is_disabled": 0, "fusion_lat": 0.0, "type": "electric_scooter", "name": "492220027591ccfc68ef1e3c06307a3b", "lat": 38.8954845, "bike_id": "492220027591ccfc68ef1e3c06307a3b"}, {"lon": -77.076664, "rental_uris": {"android": "https://dc.lft.to/lastmile_qr_scan", "ios": "https://dc.lft.to/lastmile_qr_scan"}, "fusion_lon": 0.0, "is_reserved": 0, "is_disabled": 0, "fusion_lat": 0.0, "type": "electric_bike", "name": "08fe42c6aaac91ee350255747c71e259", "lat": 38.8097895, "bike_id": "08fe42c6aaac91ee350255747c71e259"}, {"lon": -77.028906, "rental_uris": {"android": "https://dc.lft.to/lastmile_qr_scan", "ios": "https://dc.lft.to/lastmile_qr_scan"}, "fusion_lon": 0.0, "is_reserved": 0, "is_disabled": 0, "fusion_lat": 0.0, "type": "electric_scooter", "name": "3a827a5abe4242de6bc676d86908eb0a", "lat": 38.912751666666665, "bike_id": "3a827a5abe4242de6bc676d86908eb0a"}, {"lon": -77.03996966666666, "rental_uris": {"android": "https://dc.lft.to/lastmile_qr_scan", "ios": "https://dc.lft.to/lastmile_qr_scan"}, "fusion_lon": 0.0, "is_reserved": 0, "is_disabled": 0, "fusion_lat": 0.0, "type": "electric_scooter", "name": "5d384e217e07d295fa9703769e79e71d", "lat": 38.924558, "bike_id": "5d384e217e07d295fa9703769e79e71d"}, {"lon": -76.97228033333333, "rental_uris": {"android": "https://dc.lft.to/lastmile_qr_scan", "ios": "https://dc.lft.to/lastmile_qr_scan"}, "fusion_lon": 0.0, "is_reserved": 0, "is_disabled": 0, "fusion_lat": 0.0, "type": "electric_bike", "name": "a59a4c63d5ca6a1f85180465fd40f387", "lat": 38.900404333333334, "bike_id": "a59a4c63d5ca6a1f85180465fd40f387"}, {"lon": -77.01952916666667, "rental_uris": {"android": "https://dc.lft.to/lastmile_qr_scan", "ios": "https://dc.lft.to/lastmile_qr_scan"}, "fusion_lon": 0.0, "is_reserved": 0, "is_disabled": 0, "fusion_lat": 0.0, "type": "electric_scooter", "name": "7cd0d8dea0b0d94181aecbab8b1d7278", "lat": 38.92329816666667, "bike_id": "7cd0d8dea0b0d94181aecbab8b1d7278"}, {"lon": -76.99158266666667, "rental_uris": {"android": "https://dc.lft.to/lastmile_qr_scan", "ios": "https://dc.lft.to/lastmile_qr_scan"}, "fusion_lon": 0.0, "is_reserved": 0, "is_disabled": 0, "fusion_lat": 0.0, "type": "electric_scooter", "name": "bbd5e3f0b48b37f71af3170c0ad3d37d", "lat": 38.92958766666667, "bike_id": "bbd5e3f0b48b37f71af3170c0ad3d37d"}, {"lon": -76.92897266666667, "rental_uris": {"android": "https://dc.lft.to/lastmile_qr_scan", "ios": "https://dc.lft.to/lastmile_qr_scan"}, "fusion_lon": 0.0, "is_reserved": 0, "is_disabled": 0, "fusion_lat": 0.0, "type": "electric_bike", "name": "83239d80c42054d276223845730f98cb", "lat": 38.9782755, "bike_id": "83239d80c42054d276223845730f98cb"}, {"lon": -77.03363933333333, "rental_uris": {"android": "https://dc.lft.to/lastmile_qr_scan", "ios": "https://dc.lft.to/lastmile_qr_scan"}, "fusion_lon": 0.0, "is_reserved": 0, "is_disabled": 0, "fusion_lat": 0.0, "type": "electric_scooter", "name": "f472a36a1e080300a00be0ee073b04e4", "lat": 38.91919333333333, "bike_id": "f472a36a1e080300a00be0ee073b04e4"}, {"lon": -77.01676833333333, "rental_uris": {"android": "https://dc.lft.to/lastmile_qr_scan", "ios": "https://dc.lft.to/lastmile_qr_scan"}, "fusion_lon": 0.0, "is_reserved": 0, "is_disabled": 0, "fusion_lat": 0.0, "type": "electric_scooter", "name": "dc4a0b1b92ba1ae7f4be6ad5a3df1c74", "lat": 38.920401166666664, "bike_id": "dc4a0b1b92ba1ae7f4be6ad5a3df1c74"}, {"lon": -76.952387, "rental_uris": {"android": "https://dc.lft.to/lastmile_qr_scan", "ios": "https://dc.lft.to/lastmile_qr_scan"}, "fusion_lon": 0.0, "is_reserved": 0, "is_disabled": 0, "fusion_lat": 0.0, "type": "electric_bike", "name": "ab3a37b2ba4b9ef052eecbabdd37f845", "lat": 38.884639, "bike_id": "ab3a37b2ba4b9ef052eecbabdd37f845"}, {"lon": -77.01516166666667, "rental_uris": {"android": "https://dc.lft.to/lastmile_qr_scan", "ios": "https://dc.lft.to/lastmile_qr_scan"}, "fusion_lon": 0.0, "is_reserved": 0, "is_disabled": 0, "fusion_lat": 0.0, "type": "electric_scooter", "name": "72a267ad95222d21b1d6abda75159e0b", "lat": 38.9267295, "bike_id": "72a267ad95222d21b1d6abda75159e0b"}, {"lon": -77.12734016666667, "rental_uris": {"android": "https://dc.lft.to/lastmile_qr_scan", "ios": "https://dc.lft.to/lastmile_qr_scan"}, "fusion_lon": 0.0, "is_reserved": 0, "is_disabled": 0, "fusion_lat": 0.0, "type": "electric_bike", "name": "7861fb31ea8410cbf6b0eeb48ae2cfe0", "lat": 38.895636833333334, "bike_id": "7861fb31ea8410cbf6b0eeb48ae2cfe0"}, {"lon": -77.029646, "rental_uris": {"android": "https://dc.lft.to/lastmile_qr_scan", "ios": "https://dc.lft.to/lastmile_qr_scan"}, "fusion_lon": 0.0, "is_reserved": 0, "is_disabled": 0, "fusion_lat": 0.0, "type": "electric_scooter", "name": "0addd2d34ffa8e4b4b77d3adbb07169c", "lat": 38.91896666666667, "bike_id": "0addd2d34ffa8e4b4b77d3adbb07169c"}, {"lon": -77.0220825, "rental_uris": {"android": "https://dc.lft.to/lastmile_qr_scan", "ios": "https://dc.lft.to/lastmile_qr_scan"}, "fusion_lon": 0.0, "is_reserved": 0, "is_disabled": 0, "fusion_lat": 0.0, "type": "electric_scooter", "name": "61ae15208348ccd70f94b9d35d5c69d7", "lat": 38.8872065, "bike_id": "61ae15208348ccd70f94b9d35d5c69d7"}, {"lon": -76.93398683333334, "rental_uris": {"android": "https://dc.lft.to/lastmile_qr_scan", "ios": "https://dc.lft.to/lastmile_qr_scan"}, "fusion_lon": 0.0, "is_reserved": 0, "is_disabled": 0, "fusion_lat": 0.0, "type": "electric_scooter", "name": "4aaf9acadf4a58a29ec3b6718551e60c", "lat": 38.902899, "bike_id": "4aaf9acadf4a58a29ec3b6718551e60c"}, {"lon": -77.0080475, "rental_uris": {"android": "https://dc.lft.to/lastmile_qr_scan", "ios": "https://dc.lft.to/lastmile_qr_scan"}, "fusion_lon": 0.0, "is_reserved": 0, "is_disabled": 0, "fusion_lat": 0.0, "type": "electric_bike", "name": "838704197e80e2f478ea3bb0f26ae6a5", "lat": 38.949222166666665, "bike_id": "838704197e80e2f478ea3bb0f26ae6a5"}, {"lon": -77.03590116666666, "rental_uris": {"android": "https://dc.lft.to/lastmile_qr_scan", "ios": "https://dc.lft.to/lastmile_qr_scan"}, "fusion_lon": 0.0, "is_reserved": 0, "is_disabled": 0, "fusion_lat": 0.0, "type": "electric_bike", "name": "5dd65a3f0b4032167f1b369c2a77d4b5", "lat": 38.992275, "bike_id": "5dd65a3f0b4032167f1b369c2a77d4b5"}, {"lon": -77.0726785, "rental_uris": {"android": "https://dc.lft.to/lastmile_qr_scan", "ios": "https://dc.lft.to/lastmile_qr_scan"}, "fusion_lon": 0.0, "is_reserved": 0, "is_disabled": 0, "fusion_lat": 0.0, "type": "electric_scooter", "name": "d2fa80322e7829725e5c77b2ca1f070d", "lat": 38.90917816666666, "bike_id": "d2fa80322e7829725e5c77b2ca1f070d"}, {"lon": -77.053304, "rental_uris": {"android": "https://dc.lft.to/lastmile_qr_scan", "ios": "https://dc.lft.to/lastmile_qr_scan"}, "fusion_lon": 0.0, "is_reserved": 0, "is_disabled": 0, "fusion_lat": 0.0, "type": "electric_scooter", "name": "997085c9d576d9b5f9d99300de327f02", "lat": 38.902547166666665, "bike_id": "997085c9d576d9b5f9d99300de327f02"}, {"lon": -77.0489775, "rental_uris": {"android": "https://dc.lft.to/lastmile_qr_scan", "ios": "https://dc.lft.to/lastmile_qr_scan"}, "fusion_lon": 0.0, "is_reserved": 0, "is_disabled": 0, "fusion_lat": 0.0, "type": "electric_scooter", "name": "4f0a97903ce4327a9ca8f6dcde09a09d", "lat": 38.892286166666665, "bike_id": "4f0a97903ce4327a9ca8f6dcde09a09d"}, {"lon": -76.98727, "rental_uris": {"android": "https://dc.lft.to/lastmile_qr_scan", "ios": "https://dc.lft.to/lastmile_qr_scan"}, "fusion_lon": 0.0, "is_reserved": 0, "is_disabled": 0, "fusion_lat": 0.0, "type": "electric_bike", "name": "b8ab74e5a065d688a445ab050dc24742", "lat": 38.86331766666667, "bike_id": "b8ab74e5a065d688a445ab050dc24742"}, {"lon": -77.03845633333333, "rental_uris": {"android": "https://dc.lft.to/lastmile_qr_scan", "ios": "https://dc.lft.to/lastmile_qr_scan"}, "fusion_lon": 0.0, "is_reserved": 0, "is_disabled": 0, "fusion_lat": 0.0, "type": "electric_scooter", "name": "86227708db41790324065a045089044c", "lat": 38.9058525, "bike_id": "86227708db41790324065a045089044c"}, {"lon": -77.23680966666667, "rental_uris": {"android": "https://dc.lft.to/lastmile_qr_scan", "ios": "https://dc.lft.to/lastmile_qr_scan"}, "fusion_lon": 0.0, "is_reserved": 0, "is_disabled": 0, "fusion_lat": 0.0, "type": "electric_bike", "name": "be373118d8d011bdd0c55d0728f523fc", "lat": 38.921109, "bike_id": "be373118d8d011bdd0c55d0728f523fc"}, {"lon": -77.02433266666667, "rental_uris": {"android": "https://dc.lft.to/lastmile_qr_scan", "ios": "https://dc.lft.to/lastmile_qr_scan"}, "fusion_lon": 0.0, "is_reserved": 0, "is_disabled": 0, "fusion_lat": 0.0, "type": "electric_scooter", "name": "576052845a220be9e7b3ac1bdf0d04c1", "lat": 38.956289166666664, "bike_id": "576052845a220be9e7b3ac1bdf0d04c1"}, {"lon": -77.02513766666667, "rental_uris": {"android": "https://dc.lft.to/lastmile_qr_scan", "ios": "https://dc.lft.to/lastmile_qr_scan"}, "fusion_lon": 0.0, "is_reserved": 0, "is_disabled": 0, "fusion_lat": 0.0, "type": "electric_scooter", "name": "66ebc66a452bf3dce49ed70d800be9ef", "lat": 38.919140166666665, "bike_id": "66ebc66a452bf3dce49ed70d800be9ef"}, {"lon": -77.00877216666666, "rental_uris": {"android": "https://dc.lft.to/lastmile_qr_scan", "ios": "https://dc.lft.to/lastmile_qr_scan"}, "fusion_lon": 0.0, "is_reserved": 0, "is_disabled": 0, "fusion_lat": 0.0, "type": "electric_scooter", "name": "dbc8e4e5e1f10965aa58114a2834bf92", "lat": 38.905712, "bike_id": "dbc8e4e5e1f10965aa58114a2834bf92"}, {"lon": -77.03771516666667, "rental_uris": {"android": "https://dc.lft.to/lastmile_qr_scan", "ios": "https://dc.lft.to/lastmile_qr_scan"}, "fusion_lon": 0.0, "is_reserved": 0, "is_disabled": 0, "fusion_lat": 0.0, "type": "electric_scooter", "name": "eecfb17fee6be3b1aaa50599dd77e2a7", "lat": 38.902331, "bike_id": "eecfb17fee6be3b1aaa50599dd77e2a7"}, {"lon": -77.023445, "rental_uris": {"android": "https://dc.lft.to/lastmile_qr_scan", "ios": "https://dc.lft.to/lastmile_qr_scan"}, "fusion_lon": 0.0, "is_reserved": 0, "is_disabled": 0, "fusion_lat": 0.0, "type": "electric_scooter", "name": "701d9c8496305e137157ecedc05baeae", "lat": 38.93062783333333, "bike_id": "701d9c8496305e137157ecedc05baeae"}, {"lon": -77.00341316666666, "rental_uris": {"android": "https://dc.lft.to/lastmile_qr_scan", "ios": "https://dc.lft.to/lastmile_qr_scan"}, "fusion_lon": 0.0, "is_reserved": 0, "is_disabled": 0, "fusion_lat": 0.0, "type": "electric_scooter", "name": "85136f11ff802d30a3cb5dfecaa08bec", "lat": 38.87660016666667, "bike_id": "85136f11ff802d30a3cb5dfecaa08bec"}, {"lon": -77.033815, "rental_uris": {"android": "https://dc.lft.to/lastmile_qr_scan", "ios": "https://dc.lft.to/lastmile_qr_scan"}, "fusion_lon": 0.0, "is_reserved": 0, "is_disabled": 0, "fusion_lat": 0.0, "type": "electric_scooter", "name": "dea3f8ad7d4a991116ea3b1cc3cdbb29", "lat": 38.93838366666667, "bike_id": "dea3f8ad7d4a991116ea3b1cc3cdbb29"}, {"lon": -77.0397945, "rental_uris": {"android": "https://dc.lft.to/lastmile_qr_scan", "ios": "https://dc.lft.to/lastmile_qr_scan"}, "fusion_lon": 0.0, "is_reserved": 0, "is_disabled": 0, "fusion_lat": 0.0, "type": "electric_scooter", "name": "bf611a9a2fa79cacb37aeb687f3c672f", "lat": 38.90153266666667, "bike_id": "bf611a9a2fa79cacb37aeb687f3c672f"}, {"lon": -77.04498783333334, "rental_uris": {"android": "https://dc.lft.to/lastmile_qr_scan", "ios": "https://dc.lft.to/lastmile_qr_scan"}, "fusion_lon": 0.0, "is_reserved": 0, "is_disabled": 0, "fusion_lat": 0.0, "type": "electric_bike", "name": "1e04f34942f4c4e9b519ea8836733c58", "lat": 39.01415133333333, "bike_id": "1e04f34942f4c4e9b519ea8836733c58"}, {"lon": -77.01141883333334, "rental_uris": {"android": "https://dc.lft.to/lastmile_qr_scan", "ios": "https://dc.lft.to/lastmile_qr_scan"}, "fusion_lon": 0.0, "is_reserved": 0, "is_disabled": 0, "fusion_lat": 0.0, "type": "electric_scooter", "name": "8bd66cdbfae9b364ea1d00852b85cc2c", "lat": 38.883304, "bike_id": "8bd66cdbfae9b364ea1d00852b85cc2c"}, {"lon": -77.04488883333333, "rental_uris": {"android": "https://dc.lft.to/lastmile_qr_scan", "ios": "https://dc.lft.to/lastmile_qr_scan"}, "fusion_lon": 0.0, "is_reserved": 0, "is_disabled": 0, "fusion_lat": 0.0, "type": "electric_bike", "name": "cfeddb5b2845e526479b1a4b63463b92", "lat": 38.897189166666664, "bike_id": "cfeddb5b2845e526479b1a4b63463b92"}, {"lon": -77.01581316666666, "rental_uris": {"android": "https://dc.lft.to/lastmile_qr_scan", "ios": "https://dc.lft.to/lastmile_qr_scan"}, "fusion_lon": 0.0, "is_reserved": 0, "is_disabled": 0, "fusion_lat": 0.0, "type": "electric_scooter", "name": "d54a0b7eca5e336b5354e1b7d6a1cc80", "lat": 38.8765035, "bike_id": "d54a0b7eca5e336b5354e1b7d6a1cc80"}, {"lon": -77.03911516666666, "rental_uris": {"android": "https://dc.lft.to/lastmile_qr_scan", "ios": "https://dc.lft.to/lastmile_qr_scan"}, "fusion_lon": 0.0, "is_reserved": 0, "is_disabled": 0, "fusion_lat": 0.0, "type": "electric_scooter", "name": "ccfe3e62657b2ca60d00d123cafcb9a5", "lat": 38.916926333333336, "bike_id": "ccfe3e62657b2ca60d00d123cafcb9a5"}, {"lon": -77.03680783333333, "rental_uris": {"android": "https://dc.lft.to/lastmile_qr_scan", "ios": "https://dc.lft.to/lastmile_qr_scan"}, "fusion_lon": 0.0, "is_reserved": 0, "is_disabled": 0, "fusion_lat": 0.0, "type": "electric_scooter", "name": "010030231f82a7b51ecc8aedf33bce9d", "lat": 38.9027175, "bike_id": "010030231f82a7b51ecc8aedf33bce9d"}, {"lon": -77.0197115, "rental_uris": {"android": "https://dc.lft.to/lastmile_qr_scan", "ios": "https://dc.lft.to/lastmile_qr_scan"}, "fusion_lon": 0.0, "is_reserved": 0, "is_disabled": 0, "fusion_lat": 0.0, "type": "electric_scooter", "name": "658b49ff1a2a5f678bc654b44b532207", "lat": 38.90851166666667, "bike_id": "658b49ff1a2a5f678bc654b44b532207"}, {"lon": -77.00336633333333, "rental_uris": {"android": "https://dc.lft.to/lastmile_qr_scan", "ios": "https://dc.lft.to/lastmile_qr_scan"}, "fusion_lon": 0.0, "is_reserved": 0, "is_disabled": 0, "fusion_lat": 0.0, "type": "electric_scooter", "name": "ed868d2fe082fb57a6031271263484d5", "lat": 38.87663333333333, "bike_id": "ed868d2fe082fb57a6031271263484d5"}, {"lon": -77.01450933333334, "rental_uris": {"android": "https://dc.lft.to/lastmile_qr_scan", "ios": "https://dc.lft.to/lastmile_qr_scan"}, "fusion_lon": 0.0, "is_reserved": 0, "is_disabled": 0, "fusion_lat": 0.0, "type": "electric_scooter", "name": "8b43911c6ffd75ff81cdbe9fca127864", "lat": 38.9159955, "bike_id": "8b43911c6ffd75ff81cdbe9fca127864"}, {"lon": -77.0244225, "rental_uris": {"android": "https://dc.lft.to/lastmile_qr_scan", "ios": "https://dc.lft.to/lastmile_qr_scan"}, "fusion_lon": 0.0, "is_reserved": 0, "is_disabled": 0, "fusion_lat": 0.0, "type": "electric_scooter", "name": "ad2b04a634521fa32586666b166e8569", "lat": 38.92344833333333, "bike_id": "ad2b04a634521fa32586666b166e8569"}, {"lon": -77.035996, "rental_uris": {"android": "https://dc.lft.to/lastmile_qr_scan", "ios": "https://dc.lft.to/lastmile_qr_scan"}, "fusion_lon": 0.0, "is_reserved": 0, "is_disabled": 0, "fusion_lat": 0.0, "type": "electric_scooter", "name": "9fb7eb682cb29b493f3ac7065ca9142b", "lat": 38.917793833333334, "bike_id": "9fb7eb682cb29b493f3ac7065ca9142b"}, {"lon": -76.97980966666667, "rental_uris": {"android": "https://dc.lft.to/lastmile_qr_scan", "ios": "https://dc.lft.to/lastmile_qr_scan"}, "fusion_lon": 0.0, "is_reserved": 0, "is_disabled": 0, "fusion_lat": 0.0, "type": "electric_scooter", "name": "f692b7b149a065e9d9406d49d976b3ec", "lat": 38.9073175, "bike_id": "f692b7b149a065e9d9406d49d976b3ec"}, {"lon": -77.03545033333333, "rental_uris": {"android": "https://dc.lft.to/lastmile_qr_scan", "ios": "https://dc.lft.to/lastmile_qr_scan"}, "fusion_lon": 0.0, "is_reserved": 0, "is_disabled": 0, "fusion_lat": 0.0, "type": "electric_scooter", "name": "68ff210893f92e9754c1165db802a86a", "lat": 38.9183755, "bike_id": "68ff210893f92e9754c1165db802a86a"}, {"lon": -77.03101516666666, "rental_uris": {"android": "https://dc.lft.to/lastmile_qr_scan", "ios": "https://dc.lft.to/lastmile_qr_scan"}, "fusion_lon": 0.0, "is_reserved": 0, "is_disabled": 0, "fusion_lat": 0.0, "type": "electric_scooter", "name": "18e8e9702e6b1da488884f9cd62a8983", "lat": 38.91060383333333, "bike_id": "18e8e9702e6b1da488884f9cd62a8983"}, {"lon": -77.03217666666667, "rental_uris": {"android": "https://dc.lft.to/lastmile_qr_scan", "ios": "https://dc.lft.to/lastmile_qr_scan"}, "fusion_lon": 0.0, "is_reserved": 0, "is_disabled": 0, "fusion_lat": 0.0, "type": "electric_scooter", "name": "d14ed170fb61ad0d24368f93a8cca058", "lat": 38.89221466666667, "bike_id": "d14ed170fb61ad0d24368f93a8cca058"}, {"lon": -77.03141416666666, "rental_uris": {"android": "https://dc.lft.to/lastmile_qr_scan", "ios": "https://dc.lft.to/lastmile_qr_scan"}, "fusion_lon": 0.0, "is_reserved": 0, "is_disabled": 0, "fusion_lat": 0.0, "type": "electric_scooter", "name": "c1973c58e61f97f7e53fc717b8da6fce", "lat": 38.89934783333333, "bike_id": "c1973c58e61f97f7e53fc717b8da6fce"}, {"lon": -77.02302116666667, "rental_uris": {"android": "https://dc.lft.to/lastmile_qr_scan", "ios": "https://dc.lft.to/lastmile_qr_scan"}, "fusion_lon": 0.0, "is_reserved": 0, "is_disabled": 0, "fusion_lat": 0.0, "type": "electric_bike", "name": "d4458420bb846c530f1d01e50c080252", "lat": 38.92893183333333, "bike_id": "d4458420bb846c530f1d01e50c080252"}, {"lon": -76.95826616666666, "rental_uris": {"android": "https://dc.lft.to/lastmile_qr_scan", "ios": "https://dc.lft.to/lastmile_qr_scan"}, "fusion_lon": 0.0, "is_reserved": 0, "is_disabled": 0, "fusion_lat": 0.0, "type": "electric_bike", "name": "288ccdd535aad407ef2794aa7b5f477b", "lat": 38.919917, "bike_id": "288ccdd535aad407ef2794aa7b5f477b"}, {"lon": -77.01813833333334, "rental_uris": {"android": "https://dc.lft.to/lastmile_qr_scan", "ios": "https://dc.lft.to/lastmile_qr_scan"}, "fusion_lon": 0.0, "is_reserved": 0, "is_disabled": 0, "fusion_lat": 0.0, "type": "electric_scooter", "name": "a7bca3dc2bfe28fd8e0ac51f0c753fc1", "lat": 38.920974666666666, "bike_id": "a7bca3dc2bfe28fd8e0ac51f0c753fc1"}, {"lon": -76.99320733333333, "rental_uris": {"android": "https://dc.lft.to/lastmile_qr_scan", "ios": "https://dc.lft.to/lastmile_qr_scan"}, "fusion_lon": 0.0, "is_reserved": 0, "is_disabled": 0, "fusion_lat": 0.0, "type": "electric_bike", "name": "24a256f23fb9839cef6a59209ac69115", "lat": 38.9384845, "bike_id": "24a256f23fb9839cef6a59209ac69115"}, {"lon": -77.00212433333333, "rental_uris": {"android": "https://dc.lft.to/lastmile_qr_scan", "ios": "https://dc.lft.to/lastmile_qr_scan"}, "fusion_lon": 0.0, "is_reserved": 0, "is_disabled": 0, "fusion_lat": 0.0, "type": "electric_scooter", "name": "bdcbae73c997bf7bebe78964e95b6a42", "lat": 38.900343166666666, "bike_id": "bdcbae73c997bf7bebe78964e95b6a42"}, {"lon": -77.0393475, "rental_uris": {"android": "https://dc.lft.to/lastmile_qr_scan", "ios": "https://dc.lft.to/lastmile_qr_scan"}, "fusion_lon": 0.0, "is_reserved": 0, "is_disabled": 0, "fusion_lat": 0.0, "type": "electric_scooter", "name": "866d4502d2df64697643158846cc9485", "lat": 38.91409483333333, "bike_id": "866d4502d2df64697643158846cc9485"}, {"lon": -77.05742383333333, "rental_uris": {"android": "https://dc.lft.to/lastmile_qr_scan", "ios": "https://dc.lft.to/lastmile_qr_scan"}, "fusion_lon": 0.0, "is_reserved": 0, "is_disabled": 0, "fusion_lat": 0.0, "type": "electric_scooter", "name": "4fc3f3fe545a68382f151b65658ac917", "lat": 38.933948666666666, "bike_id": "4fc3f3fe545a68382f151b65658ac917"}, {"lon": -77.0281095, "rental_uris": {"android": "https://dc.lft.to/lastmile_qr_scan", "ios": "https://dc.lft.to/lastmile_qr_scan"}, "fusion_lon": 0.0, "is_reserved": 0, "is_disabled": 0, "fusion_lat": 0.0, "type": "electric_scooter", "name": "08e2551a817df26f70808852a8bf7e6d", "lat": 38.91674733333333, "bike_id": "08e2551a817df26f70808852a8bf7e6d"}, {"lon": -77.03129083333333, "rental_uris": {"android": "https://dc.lft.to/lastmile_qr_scan", "ios": "https://dc.lft.to/lastmile_qr_scan"}, "fusion_lon": 0.0, "is_reserved": 0, "is_disabled": 0, "fusion_lat": 0.0, "type": "electric_scooter", "name": "ef2d329d2325a4a288c151045ff0f32f", "lat": 38.92020316666667, "bike_id": "ef2d329d2325a4a288c151045ff0f32f"}, {"lon": -76.99890433333333, "rental_uris": {"android": "https://dc.lft.to/lastmile_qr_scan", "ios": "https://dc.lft.to/lastmile_qr_scan"}, "fusion_lon": 0.0, "is_reserved": 0, "is_disabled": 0, "fusion_lat": 0.0, "type": "electric_scooter", "name": "d1dbe2d3de8544b65cf2c60def21909e", "lat": 38.89606283333333, "bike_id": "d1dbe2d3de8544b65cf2c60def21909e"}, {"lon": -77.00337233333333, "rental_uris": {"android": "https://dc.lft.to/lastmile_qr_scan", "ios": "https://dc.lft.to/lastmile_qr_scan"}, "fusion_lon": 0.0, "is_reserved": 0, "is_disabled": 0, "fusion_lat": 0.0, "type": "electric_scooter", "name": "dc959655ad993f5d49553aaaddfd37f9", "lat": 38.89358466666667, "bike_id": "dc959655ad993f5d49553aaaddfd37f9"}, {"lon": -76.9870925, "rental_uris": {"android": "https://dc.lft.to/lastmile_qr_scan", "ios": "https://dc.lft.to/lastmile_qr_scan"}, "fusion_lon": 0.0, "is_reserved": 0, "is_disabled": 0, "fusion_lat": 0.0, "type": "electric_scooter", "name": "719fb3d746a4ca10a5cd028be6dff661", "lat": 38.865368, "bike_id": "719fb3d746a4ca10a5cd028be6dff661"}, {"lon": -77.024343, "rental_uris": {"android": "https://dc.lft.to/lastmile_qr_scan", "ios": "https://dc.lft.to/lastmile_qr_scan"}, "fusion_lon": 0.0, "is_reserved": 0, "is_disabled": 0, "fusion_lat": 0.0, "type": "electric_scooter", "name": "c04522831636e76d0223ba54270e58e9", "lat": 38.8997145, "bike_id": "c04522831636e76d0223ba54270e58e9"}, {"lon": -77.02602366666666, "rental_uris": {"android": "https://dc.lft.to/lastmile_qr_scan", "ios": "https://dc.lft.to/lastmile_qr_scan"}, "fusion_lon": 0.0, "is_reserved": 0, "is_disabled": 0, "fusion_lat": 0.0, "type": "electric_scooter", "name": "092a7fffb59fef859fec22bd4c05ccd0", "lat": 38.916905666666665, "bike_id": "092a7fffb59fef859fec22bd4c05ccd0"}, {"lon": -76.99532466666666, "rental_uris": {"android": "https://dc.lft.to/lastmile_qr_scan", "ios": "https://dc.lft.to/lastmile_qr_scan"}, "fusion_lon": 0.0, "is_reserved": 0, "is_disabled": 0, "fusion_lat": 0.0, "type": "electric_scooter", "name": "5e032977c6ecaf13af733ce9551e61da", "lat": 38.86267733333333, "bike_id": "5e032977c6ecaf13af733ce9551e61da"}, {"lon": -77.00302783333333, "rental_uris": {"android": "https://dc.lft.to/lastmile_qr_scan", "ios": "https://dc.lft.to/lastmile_qr_scan"}, "fusion_lon": 0.0, "is_reserved": 0, "is_disabled": 0, "fusion_lat": 0.0, "type": "electric_scooter", "name": "5b64775d8ec89b39535ff422f2be28cf", "lat": 38.908798166666664, "bike_id": "5b64775d8ec89b39535ff422f2be28cf"}, {"lon": -77.03176133333334, "rental_uris": {"android": "https://dc.lft.to/lastmile_qr_scan", "ios": "https://dc.lft.to/lastmile_qr_scan"}, "fusion_lon": 0.0, "is_reserved": 0, "is_disabled": 0, "fusion_lat": 0.0, "type": "electric_scooter", "name": "cd2c1c5a27436d0d7635ae3d4e9ae6ba", "lat": 38.9179435, "bike_id": "cd2c1c5a27436d0d7635ae3d4e9ae6ba"}, {"lon": -77.03221933333333, "rental_uris": {"android": "https://dc.lft.to/lastmile_qr_scan", "ios": "https://dc.lft.to/lastmile_qr_scan"}, "fusion_lon": 0.0, "is_reserved": 0, "is_disabled": 0, "fusion_lat": 0.0, "type": "electric_scooter", "name": "e7bef75ead1b57eeb787f7aaf996fdec", "lat": 38.90856433333333, "bike_id": "e7bef75ead1b57eeb787f7aaf996fdec"}, {"lon": -77.04486916666667, "rental_uris": {"android": "https://dc.lft.to/lastmile_qr_scan", "ios": "https://dc.lft.to/lastmile_qr_scan"}, "fusion_lon": 0.0, "is_reserved": 0, "is_disabled": 0, "fusion_lat": 0.0, "type": "electric_scooter", "name": "1c16db6842c0ecce6c826eb7718150c4", "lat": 38.89237883333333, "bike_id": "1c16db6842c0ecce6c826eb7718150c4"}, {"lon": -77.05743116666666, "rental_uris": {"android": "https://dc.lft.to/lastmile_qr_scan", "ios": "https://dc.lft.to/lastmile_qr_scan"}, "fusion_lon": 0.0, "is_reserved": 0, "is_disabled": 0, "fusion_lat": 0.0, "type": "electric_scooter", "name": "e225399e2d77f19ab77320619ad1abaf", "lat": 38.9339735, "bike_id": "e225399e2d77f19ab77320619ad1abaf"}, {"lon": -77.0224625, "rental_uris": {"android": "https://dc.lft.to/lastmile_qr_scan", "ios": "https://dc.lft.to/lastmile_qr_scan"}, "fusion_lon": 0.0, "is_reserved": 0, "is_disabled": 0, "fusion_lat": 0.0, "type": "electric_scooter", "name": "1c81b1960e7c27672d25fe63b4351a4e", "lat": 38.913639333333336, "bike_id": "1c81b1960e7c27672d25fe63b4351a4e"}, {"lon": -77.03866716666667, "rental_uris": {"android": "https://dc.lft.to/lastmile_qr_scan", "ios": "https://dc.lft.to/lastmile_qr_scan"}, "fusion_lon": 0.0, "is_reserved": 0, "is_disabled": 0, "fusion_lat": 0.0, "type": "electric_scooter", "name": "d3bfc4f6396afe6dad9cb4c7605f7ad4", "lat": 38.911115333333335, "bike_id": "d3bfc4f6396afe6dad9cb4c7605f7ad4"}, {"lon": -77.02748183333334, "rental_uris": {"android": "https://dc.lft.to/lastmile_qr_scan", "ios": "https://dc.lft.to/lastmile_qr_scan"}, "fusion_lon": 0.0, "is_reserved": 0, "is_disabled": 0, "fusion_lat": 0.0, "type": "electric_scooter", "name": "9a461a09b96f66f95a4786a0284254a9", "lat": 38.966076666666666, "bike_id": "9a461a09b96f66f95a4786a0284254a9"}, {"lon": -77.02449066666667, "rental_uris": {"android": "https://dc.lft.to/lastmile_qr_scan", "ios": "https://dc.lft.to/lastmile_qr_scan"}, "fusion_lon": 0.0, "is_reserved": 0, "is_disabled": 0, "fusion_lat": 0.0, "type": "electric_scooter", "name": "9a945d1fc315ad36b2eefae9fd4e0fb1", "lat": 38.949783833333335, "bike_id": "9a945d1fc315ad36b2eefae9fd4e0fb1"}, {"lon": -77.06368266666666, "rental_uris": {"android": "https://dc.lft.to/lastmile_qr_scan", "ios": "https://dc.lft.to/lastmile_qr_scan"}, "fusion_lon": 0.0, "is_reserved": 0, "is_disabled": 0, "fusion_lat": 0.0, "type": "electric_scooter", "name": "4bbf8cb96a7249c21c70db7b92ca7c58", "lat": 38.944773833333336, "bike_id": "4bbf8cb96a7249c21c70db7b92ca7c58"}, {"lon": -77.01496683333333, "rental_uris": {"android": "https://dc.lft.to/lastmile_qr_scan", "ios": "https://dc.lft.to/lastmile_qr_scan"}, "fusion_lon": 0.0, "is_reserved": 0, "is_disabled": 0, "fusion_lat": 0.0, "type": "electric_scooter", "name": "10f420c2131d177039d08a4e145576fc", "lat": 38.95764766666667, "bike_id": "10f420c2131d177039d08a4e145576fc"}, {"lon": -77.032289, "rental_uris": {"android": "https://dc.lft.to/lastmile_qr_scan", "ios": "https://dc.lft.to/lastmile_qr_scan"}, "fusion_lon": 0.0, "is_reserved": 0, "is_disabled": 0, "fusion_lat": 0.0, "type": "electric_scooter", "name": "682f2206c78c712b230ad3923affd5cf", "lat": 38.914049, "bike_id": "682f2206c78c712b230ad3923affd5cf"}, {"lon": -77.03407683333333, "rental_uris": {"android": "https://dc.lft.to/lastmile_qr_scan", "ios": "https://dc.lft.to/lastmile_qr_scan"}, "fusion_lon": 0.0, "is_reserved": 0, "is_disabled": 0, "fusion_lat": 0.0, "type": "electric_scooter", "name": "a8f8ee74e8765cfa029454e49a633a2e", "lat": 38.902641, "bike_id": "a8f8ee74e8765cfa029454e49a633a2e"}, {"lon": -77.03873933333334, "rental_uris": {"android": "https://dc.lft.to/lastmile_qr_scan", "ios": "https://dc.lft.to/lastmile_qr_scan"}, "fusion_lon": 0.0, "is_reserved": 0, "is_disabled": 0, "fusion_lat": 0.0, "type": "electric_scooter", "name": "b932f93b330d99b881b3e85c877e2e91", "lat": 38.924480833333334, "bike_id": "b932f93b330d99b881b3e85c877e2e91"}, {"lon": -77.03359616666667, "rental_uris": {"android": "https://dc.lft.to/lastmile_qr_scan", "ios": "https://dc.lft.to/lastmile_qr_scan"}, "fusion_lon": 0.0, "is_reserved": 0, "is_disabled": 0, "fusion_lat": 0.0, "type": "electric_scooter", "name": "1f7aa6a9bf70959015504cf30bb6cf5d", "lat": 38.897727833333335, "bike_id": "1f7aa6a9bf70959015504cf30bb6cf5d"}, {"lon": -77.03211716666667, "rental_uris": {"android": "https://dc.lft.to/lastmile_qr_scan", "ios": "https://dc.lft.to/lastmile_qr_scan"}, "fusion_lon": 0.0, "is_reserved": 0, "is_disabled": 0, "fusion_lat": 0.0, "type": "electric_scooter", "name": "b7bd3865dc0a652ea36b197b7fb762df", "lat": 38.917724, "bike_id": "b7bd3865dc0a652ea36b197b7fb762df"}, {"lon": -77.048739, "rental_uris": {"android": "https://dc.lft.to/lastmile_qr_scan", "ios": "https://dc.lft.to/lastmile_qr_scan"}, "fusion_lon": 0.0, "is_reserved": 0, "is_disabled": 0, "fusion_lat": 0.0, "type": "electric_scooter", "name": "90e98577b7a70bcda8bf4d9a3b5a624f", "lat": 38.9161755, "bike_id": "90e98577b7a70bcda8bf4d9a3b5a624f"}, {"lon": -76.99887916666667, "rental_uris": {"android": "https://dc.lft.to/lastmile_qr_scan", "ios": "https://dc.lft.to/lastmile_qr_scan"}, "fusion_lon": 0.0, "is_reserved": 0, "is_disabled": 0, "fusion_lat": 0.0, "type": "electric_scooter", "name": "1df72b054b86cd783ddf9854e8c9fccc", "lat": 38.879244166666666, "bike_id": "1df72b054b86cd783ddf9854e8c9fccc"}, {"lon": -77.04045833333333, "rental_uris": {"android": "https://dc.lft.to/lastmile_qr_scan", "ios": "https://dc.lft.to/lastmile_qr_scan"}, "fusion_lon": 0.0, "is_reserved": 0, "is_disabled": 0, "fusion_lat": 0.0, "type": "electric_scooter", "name": "055096c07d85bd3be108be3602f9a66f", "lat": 38.905907, "bike_id": "055096c07d85bd3be108be3602f9a66f"}, {"lon": -77.04443716666667, "rental_uris": {"android": "https://dc.lft.to/lastmile_qr_scan", "ios": "https://dc.lft.to/lastmile_qr_scan"}, "fusion_lon": 0.0, "is_reserved": 0, "is_disabled": 0, "fusion_lat": 0.0, "type": "electric_bike", "name": "62c769a485292cf72c4be738ffba365b", "lat": 38.900101666666664, "bike_id": "62c769a485292cf72c4be738ffba365b"}, {"lon": -77.0344615, "rental_uris": {"android": "https://dc.lft.to/lastmile_qr_scan", "ios": "https://dc.lft.to/lastmile_qr_scan"}, "fusion_lon": 0.0, "is_reserved": 0, "is_disabled": 0, "fusion_lat": 0.0, "type": "electric_scooter", "name": "2b078aa36efb859d36d05e24e77e9a77", "lat": 38.903781, "bike_id": "2b078aa36efb859d36d05e24e77e9a77"}, {"lon": -77.027232, "rental_uris": {"android": "https://dc.lft.to/lastmile_qr_scan", "ios": "https://dc.lft.to/lastmile_qr_scan"}, "fusion_lon": 0.0, "is_reserved": 0, "is_disabled": 0, "fusion_lat": 0.0, "type": "electric_scooter", "name": "21ca7c2253d8387fb3c623742afb2ddf", "lat": 38.90668133333333, "bike_id": "21ca7c2253d8387fb3c623742afb2ddf"}, {"lon": -77.04003416666667, "rental_uris": {"android": "https://dc.lft.to/lastmile_qr_scan", "ios": "https://dc.lft.to/lastmile_qr_scan"}, "fusion_lon": 0.0, "is_reserved": 0, "is_disabled": 0, "fusion_lat": 0.0, "type": "electric_scooter", "name": "932b378507487185443533a5cee8d0a5", "lat": 38.934268333333335, "bike_id": "932b378507487185443533a5cee8d0a5"}, {"lon": -77.0281435, "rental_uris": {"android": "https://dc.lft.to/lastmile_qr_scan", "ios": "https://dc.lft.to/lastmile_qr_scan"}, "fusion_lon": 0.0, "is_reserved": 0, "is_disabled": 0, "fusion_lat": 0.0, "type": "electric_scooter", "name": "1d2cf168ce1d56ca0ffefe513e4736eb", "lat": 38.8979835, "bike_id": "1d2cf168ce1d56ca0ffefe513e4736eb"}, {"lon": -76.95433516666667, "rental_uris": {"android": "https://dc.lft.to/lastmile_qr_scan", "ios": "https://dc.lft.to/lastmile_qr_scan"}, "fusion_lon": 0.0, "is_reserved": 0, "is_disabled": 0, "fusion_lat": 0.0, "type": "electric_scooter", "name": "4a2f714175113a8938d74fe8af78334e", "lat": 38.8899685, "bike_id": "4a2f714175113a8938d74fe8af78334e"}, {"lon": -77.03189333333333, "rental_uris": {"android": "https://dc.lft.to/lastmile_qr_scan", "ios": "https://dc.lft.to/lastmile_qr_scan"}, "fusion_lon": 0.0, "is_reserved": 0, "is_disabled": 0, "fusion_lat": 0.0, "type": "electric_scooter", "name": "05a3efc43c921fbf1eca9626954c7b76", "lat": 38.90349583333333, "bike_id": "05a3efc43c921fbf1eca9626954c7b76"}, {"lon": -77.032264, "rental_uris": {"android": "https://dc.lft.to/lastmile_qr_scan", "ios": "https://dc.lft.to/lastmile_qr_scan"}, "fusion_lon": 0.0, "is_reserved": 0, "is_disabled": 0, "fusion_lat": 0.0, "type": "electric_scooter", "name": "e1a6d18d7ec0a05c7a3e89d6a756abe1", "lat": 38.928715333333336, "bike_id": "e1a6d18d7ec0a05c7a3e89d6a756abe1"}, {"lon": -77.02725483333333, "rental_uris": {"android": "https://dc.lft.to/lastmile_qr_scan", "ios": "https://dc.lft.to/lastmile_qr_scan"}, "fusion_lon": 0.0, "is_reserved": 0, "is_disabled": 0, "fusion_lat": 0.0, "type": "electric_scooter", "name": "9f625005f91122129380ed52be4dd7ec", "lat": 38.940154, "bike_id": "9f625005f91122129380ed52be4dd7ec"}, {"lon": -76.993592, "rental_uris": {"android": "https://dc.lft.to/lastmile_qr_scan", "ios": "https://dc.lft.to/lastmile_qr_scan"}, "fusion_lon": 0.0, "is_reserved": 0, "is_disabled": 0, "fusion_lat": 0.0, "type": "electric_scooter", "name": "4ca3a44cf1dc4a8c4f54449a5860dd3c", "lat": 38.87783066666667, "bike_id": "4ca3a44cf1dc4a8c4f54449a5860dd3c"}, {"lon": -77.0328545, "rental_uris": {"android": "https://dc.lft.to/lastmile_qr_scan", "ios": "https://dc.lft.to/lastmile_qr_scan"}, "fusion_lon": 0.0, "is_reserved": 0, "is_disabled": 0, "fusion_lat": 0.0, "type": "electric_scooter", "name": "274ad2b59828f085e13aec950103b916", "lat": 38.898906, "bike_id": "274ad2b59828f085e13aec950103b916"}, {"lon": -77.00605933333334, "rental_uris": {"android": "https://dc.lft.to/lastmile_qr_scan", "ios": "https://dc.lft.to/lastmile_qr_scan"}, "fusion_lon": 0.0, "is_reserved": 0, "is_disabled": 0, "fusion_lat": 0.0, "type": "electric_scooter", "name": "7641aa91c8e555d8bf43d4dd20567909", "lat": 38.906519333333335, "bike_id": "7641aa91c8e555d8bf43d4dd20567909"}, {"lon": -77.01353766666666, "rental_uris": {"android": "https://dc.lft.to/lastmile_qr_scan", "ios": "https://dc.lft.to/lastmile_qr_scan"}, "fusion_lon": 0.0, "is_reserved": 0, "is_disabled": 0, "fusion_lat": 0.0, "type": "electric_scooter", "name": "abf5c6d598a6e88a220024811f5d7e1d", "lat": 38.942136833333336, "bike_id": "abf5c6d598a6e88a220024811f5d7e1d"}, {"lon": -77.03017516666667, "rental_uris": {"android": "https://dc.lft.to/lastmile_qr_scan", "ios": "https://dc.lft.to/lastmile_qr_scan"}, "fusion_lon": 0.0, "is_reserved": 0, "is_disabled": 0, "fusion_lat": 0.0, "type": "electric_bike", "name": "34bd538b7f8e4753b43fed0ce6f20442", "lat": 38.895709, "bike_id": "34bd538b7f8e4753b43fed0ce6f20442"}, {"lon": -76.98669966666667, "rental_uris": {"android": "https://dc.lft.to/lastmile_qr_scan", "ios": "https://dc.lft.to/lastmile_qr_scan"}, "fusion_lon": 0.0, "is_reserved": 0, "is_disabled": 0, "fusion_lat": 0.0, "type": "electric_bike", "name": "ebbbe05e617eacbe84316a10df079bae", "lat": 38.83512983333333, "bike_id": "ebbbe05e617eacbe84316a10df079bae"}, {"lon": -77.01678383333333, "rental_uris": {"android": "https://dc.lft.to/lastmile_qr_scan", "ios": "https://dc.lft.to/lastmile_qr_scan"}, "fusion_lon": 0.0, "is_reserved": 0, "is_disabled": 0, "fusion_lat": 0.0, "type": "electric_scooter", "name": "26e14e6e9d66ec1b1192847f12186f30", "lat": 38.912672666666666, "bike_id": "26e14e6e9d66ec1b1192847f12186f30"}, {"lon": -77.03296516666667, "rental_uris": {"android": "https://dc.lft.to/lastmile_qr_scan", "ios": "https://dc.lft.to/lastmile_qr_scan"}, "fusion_lon": 0.0, "is_reserved": 0, "is_disabled": 0, "fusion_lat": 0.0, "type": "electric_scooter", "name": "8f33f9e97368466ddf71458cbd1d891b", "lat": 38.927555, "bike_id": "8f33f9e97368466ddf71458cbd1d891b"}, {"lon": -77.04155633333333, "rental_uris": {"android": "https://dc.lft.to/lastmile_qr_scan", "ios": "https://dc.lft.to/lastmile_qr_scan"}, "fusion_lon": 0.0, "is_reserved": 0, "is_disabled": 0, "fusion_lat": 0.0, "type": "electric_scooter", "name": "61184868ea6390adb555073be94df2ea", "lat": 38.90523066666667, "bike_id": "61184868ea6390adb555073be94df2ea"}, {"lon": -76.979291, "rental_uris": {"android": "https://dc.lft.to/lastmile_qr_scan", "ios": "https://dc.lft.to/lastmile_qr_scan"}, "fusion_lon": 0.0, "is_reserved": 0, "is_disabled": 0, "fusion_lat": 0.0, "type": "electric_scooter", "name": "94e28a146eca8561091dddbc8a75af49", "lat": 38.902536833333336, "bike_id": "94e28a146eca8561091dddbc8a75af49"}, {"lon": -77.0404165, "rental_uris": {"android": "https://dc.lft.to/lastmile_qr_scan", "ios": "https://dc.lft.to/lastmile_qr_scan"}, "fusion_lon": 0.0, "is_reserved": 0, "is_disabled": 0, "fusion_lat": 0.0, "type": "electric_scooter", "name": "aa02f7164b8105f04d1bdc6a653cdbfb", "lat": 38.92460533333333, "bike_id": "aa02f7164b8105f04d1bdc6a653cdbfb"}, {"lon": -77.0228595, "rental_uris": {"android": "https://dc.lft.to/lastmile_qr_scan", "ios": "https://dc.lft.to/lastmile_qr_scan"}, "fusion_lon": 0.0, "is_reserved": 0, "is_disabled": 0, "fusion_lat": 0.0, "type": "electric_scooter", "name": "c0b57e633521102e98df0e413f08ead6", "lat": 38.8998805, "bike_id": "c0b57e633521102e98df0e413f08ead6"}, {"lon": -77.00469033333333, "rental_uris": {"android": "https://dc.lft.to/lastmile_qr_scan", "ios": "https://dc.lft.to/lastmile_qr_scan"}, "fusion_lon": 0.0, "is_reserved": 0, "is_disabled": 0, "fusion_lat": 0.0, "type": "electric_scooter", "name": "e8baf213f8aacaf52c4a1950157e8100", "lat": 38.91192816666667, "bike_id": "e8baf213f8aacaf52c4a1950157e8100"}, {"lon": -77.02612516666667, "rental_uris": {"android": "https://dc.lft.to/lastmile_qr_scan", "ios": "https://dc.lft.to/lastmile_qr_scan"}, "fusion_lon": 0.0, "is_reserved": 0, "is_disabled": 0, "fusion_lat": 0.0, "type": "electric_scooter", "name": "29fa4dd421177e171e29cc47ccec6568", "lat": 38.916743333333336, "bike_id": "29fa4dd421177e171e29cc47ccec6568"}, {"lon": -77.02802216666667, "rental_uris": {"android": "https://dc.lft.to/lastmile_qr_scan", "ios": "https://dc.lft.to/lastmile_qr_scan"}, "fusion_lon": 0.0, "is_reserved": 0, "is_disabled": 0, "fusion_lat": 0.0, "type": "electric_scooter", "name": "dfacedabe9cd1263a7f5b42b26044420", "lat": 38.8979535, "bike_id": "dfacedabe9cd1263a7f5b42b26044420"}, {"lon": -77.03322783333333, "rental_uris": {"android": "https://dc.lft.to/lastmile_qr_scan", "ios": "https://dc.lft.to/lastmile_qr_scan"}, "fusion_lon": 0.0, "is_reserved": 0, "is_disabled": 0, "fusion_lat": 0.0, "type": "electric_scooter", "name": "eb90a4ba6f8a009d240e63ee9992f1ce", "lat": 38.90968516666667, "bike_id": "eb90a4ba6f8a009d240e63ee9992f1ce"}, {"lon": -76.97721633333333, "rental_uris": {"android": "https://dc.lft.to/lastmile_qr_scan", "ios": "https://dc.lft.to/lastmile_qr_scan"}, "fusion_lon": 0.0, "is_reserved": 0, "is_disabled": 0, "fusion_lat": 0.0, "type": "electric_scooter", "name": "ea3d0c569f05e3111f174f23558aa646", "lat": 38.88823466666667, "bike_id": "ea3d0c569f05e3111f174f23558aa646"}, {"lon": -77.02216366666667, "rental_uris": {"android": "https://dc.lft.to/lastmile_qr_scan", "ios": "https://dc.lft.to/lastmile_qr_scan"}, "fusion_lon": 0.0, "is_reserved": 0, "is_disabled": 0, "fusion_lat": 0.0, "type": "electric_scooter", "name": "b5f14770954091bb03da69bf761b6590", "lat": 38.92085066666667, "bike_id": "b5f14770954091bb03da69bf761b6590"}, {"lon": -77.030505, "rental_uris": {"android": "https://dc.lft.to/lastmile_qr_scan", "ios": "https://dc.lft.to/lastmile_qr_scan"}, "fusion_lon": 0.0, "is_reserved": 0, "is_disabled": 0, "fusion_lat": 0.0, "type": "electric_scooter", "name": "56227b3837e4d2886fea5c3ac37637a8", "lat": 38.923138, "bike_id": "56227b3837e4d2886fea5c3ac37637a8"}, {"lon": -77.02213083333334, "rental_uris": {"android": "https://dc.lft.to/lastmile_qr_scan", "ios": "https://dc.lft.to/lastmile_qr_scan"}, "fusion_lon": 0.0, "is_reserved": 0, "is_disabled": 0, "fusion_lat": 0.0, "type": "electric_scooter", "name": "81c5b8c45d556fb214240170895ba2a9", "lat": 38.91547766666667, "bike_id": "81c5b8c45d556fb214240170895ba2a9"}, {"lon": -77.00933283333333, "rental_uris": {"android": "https://dc.lft.to/lastmile_qr_scan", "ios": "https://dc.lft.to/lastmile_qr_scan"}, "fusion_lon": 0.0, "is_reserved": 0, "is_disabled": 0, "fusion_lat": 0.0, "type": "electric_scooter", "name": "75d455658d44bed5726862b9c00d7b8b", "lat": 38.896506, "bike_id": "75d455658d44bed5726862b9c00d7b8b"}, {"lon": -77.02090933333334, "rental_uris": {"android": "https://dc.lft.to/lastmile_qr_scan", "ios": "https://dc.lft.to/lastmile_qr_scan"}, "fusion_lon": 0.0, "is_reserved": 0, "is_disabled": 0, "fusion_lat": 0.0, "type": "electric_scooter", "name": "bb5e3a4abb144ff47f80c5d7a2607b9e", "lat": 38.932613833333335, "bike_id": "bb5e3a4abb144ff47f80c5d7a2607b9e"}, {"lon": -77.04862616666666, "rental_uris": {"android": "https://dc.lft.to/lastmile_qr_scan", "ios": "https://dc.lft.to/lastmile_qr_scan"}, "fusion_lon": 0.0, "is_reserved": 0, "is_disabled": 0, "fusion_lat": 0.0, "type": "electric_scooter", "name": "be2c86754dbc6e8484c8a781af43d163", "lat": 38.9047415, "bike_id": "be2c86754dbc6e8484c8a781af43d163"}, {"lon": -77.01029333333334, "rental_uris": {"android": "https://dc.lft.to/lastmile_qr_scan", "ios": "https://dc.lft.to/lastmile_qr_scan"}, "fusion_lon": 0.0, "is_reserved": 0, "is_disabled": 0, "fusion_lat": 0.0, "type": "electric_bike", "name": "2bc66216cebf2ad7645029ac9c23efc4", "lat": 38.95597866666667, "bike_id": "2bc66216cebf2ad7645029ac9c23efc4"}, {"lon": -77.02417216666667, "rental_uris": {"android": "https://dc.lft.to/lastmile_qr_scan", "ios": "https://dc.lft.to/lastmile_qr_scan"}, "fusion_lon": 0.0, "is_reserved": 0, "is_disabled": 0, "fusion_lat": 0.0, "type": "electric_scooter", "name": "2946185c15bfe972cb4161872b790bc3", "lat": 38.892189333333334, "bike_id": "2946185c15bfe972cb4161872b790bc3"}, {"lon": -77.00375283333334, "rental_uris": {"android": "https://dc.lft.to/lastmile_qr_scan", "ios": "https://dc.lft.to/lastmile_qr_scan"}, "fusion_lon": 0.0, "is_reserved": 0, "is_disabled": 0, "fusion_lat": 0.0, "type": "electric_scooter", "name": "9320cf5308e0b66b31f5a0fca4e1ee50", "lat": 38.89739733333333, "bike_id": "9320cf5308e0b66b31f5a0fca4e1ee50"}, {"lon": -77.03447916666667, "rental_uris": {"android": "https://dc.lft.to/lastmile_qr_scan", "ios": "https://dc.lft.to/lastmile_qr_scan"}, "fusion_lon": 0.0, "is_reserved": 0, "is_disabled": 0, "fusion_lat": 0.0, "type": "electric_scooter", "name": "73970792c80a8a9b461e025a72a1f366", "lat": 38.91798466666667, "bike_id": "73970792c80a8a9b461e025a72a1f366"}, {"lon": -77.04411066666667, "rental_uris": {"android": "https://dc.lft.to/lastmile_qr_scan", "ios": "https://dc.lft.to/lastmile_qr_scan"}, "fusion_lon": 0.0, "is_reserved": 0, "is_disabled": 0, "fusion_lat": 0.0, "type": "electric_scooter", "name": "c8343d8231e0b0c33e0f4b83c04594ab", "lat": 38.90895966666667, "bike_id": "c8343d8231e0b0c33e0f4b83c04594ab"}, {"lon": -76.98357933333334, "rental_uris": {"android": "https://dc.lft.to/lastmile_qr_scan", "ios": "https://dc.lft.to/lastmile_qr_scan"}, "fusion_lon": 0.0, "is_reserved": 0, "is_disabled": 0, "fusion_lat": 0.0, "type": "electric_scooter", "name": "20bd63b353026d5b7bda48b90714462b", "lat": 38.88728233333333, "bike_id": "20bd63b353026d5b7bda48b90714462b"}, {"lon": -77.03211533333334, "rental_uris": {"android": "https://dc.lft.to/lastmile_qr_scan", "ios": "https://dc.lft.to/lastmile_qr_scan"}, "fusion_lon": 0.0, "is_reserved": 0, "is_disabled": 0, "fusion_lat": 0.0, "type": "electric_scooter", "name": "75c0cf64b8fc93657e53a69bd3d24f77", "lat": 38.925800333333335, "bike_id": "75c0cf64b8fc93657e53a69bd3d24f77"}, {"lon": -77.02674483333334, "rental_uris": {"android": "https://dc.lft.to/lastmile_qr_scan", "ios": "https://dc.lft.to/lastmile_qr_scan"}, "fusion_lon": 0.0, "is_reserved": 0, "is_disabled": 0, "fusion_lat": 0.0, "type": "electric_scooter", "name": "54be4827c0d508c1898364c858058148", "lat": 38.94601433333333, "bike_id": "54be4827c0d508c1898364c858058148"}, {"lon": -77.01401383333334, "rental_uris": {"android": "https://dc.lft.to/lastmile_qr_scan", "ios": "https://dc.lft.to/lastmile_qr_scan"}, "fusion_lon": 0.0, "is_reserved": 0, "is_disabled": 0, "fusion_lat": 0.0, "type": "electric_scooter", "name": "9dcd4e5c148b9193753821d78da7801b", "lat": 38.97470716666667, "bike_id": "9dcd4e5c148b9193753821d78da7801b"}, {"lon": -76.917217, "rental_uris": {"android": "https://dc.lft.to/lastmile_qr_scan", "ios": "https://dc.lft.to/lastmile_qr_scan"}, "fusion_lon": 0.0, "is_reserved": 0, "is_disabled": 0, "fusion_lat": 0.0, "type": "electric_bike", "name": "b95a6a7e4a816d03baf48721e2f5b453", "lat": 38.8802885, "bike_id": "b95a6a7e4a816d03baf48721e2f5b453"}, {"lon": -76.99162316666667, "rental_uris": {"android": "https://dc.lft.to/lastmile_qr_scan", "ios": "https://dc.lft.to/lastmile_qr_scan"}, "fusion_lon": 0.0, "is_reserved": 0, "is_disabled": 0, "fusion_lat": 0.0, "type": "electric_scooter", "name": "2a1abdbf85030174a8572e445b23aeb4", "lat": 38.897796166666666, "bike_id": "2a1abdbf85030174a8572e445b23aeb4"}, {"lon": -77.02123516666667, "rental_uris": {"android": "https://dc.lft.to/lastmile_qr_scan", "ios": "https://dc.lft.to/lastmile_qr_scan"}, "fusion_lon": 0.0, "is_reserved": 0, "is_disabled": 0, "fusion_lat": 0.0, "type": "electric_scooter", "name": "99bca4c1471a86ab793578a5767205c2", "lat": 38.92226383333333, "bike_id": "99bca4c1471a86ab793578a5767205c2"}, {"lon": -77.02183666666667, "rental_uris": {"android": "https://dc.lft.to/lastmile_qr_scan", "ios": "https://dc.lft.to/lastmile_qr_scan"}, "fusion_lon": 0.0, "is_reserved": 0, "is_disabled": 0, "fusion_lat": 0.0, "type": "electric_scooter", "name": "1fe42d908de6a38c5ca209b62a4bd167", "lat": 38.892337, "bike_id": "1fe42d908de6a38c5ca209b62a4bd167"}, {"lon": -77.06741266666667, "rental_uris": {"android": "https://dc.lft.to/lastmile_qr_scan", "ios": "https://dc.lft.to/lastmile_qr_scan"}, "fusion_lon": 0.0, "is_reserved": 0, "is_disabled": 0, "fusion_lat": 0.0, "type": "electric_scooter", "name": "27c91da13bae1091bb937806b27bde40", "lat": 38.9051055, "bike_id": "27c91da13bae1091bb937806b27bde40"}, {"lon": -77.05346866666666, "rental_uris": {"android": "https://dc.lft.to/lastmile_qr_scan", "ios": "https://dc.lft.to/lastmile_qr_scan"}, "fusion_lon": 0.0, "is_reserved": 0, "is_disabled": 0, "fusion_lat": 0.0, "type": "electric_scooter", "name": "8ed4fc5fd08627285dec01393a338862", "lat": 38.904661, "bike_id": "8ed4fc5fd08627285dec01393a338862"}, {"lon": -77.05056566666667, "rental_uris": {"android": "https://dc.lft.to/lastmile_qr_scan", "ios": "https://dc.lft.to/lastmile_qr_scan"}, "fusion_lon": 0.0, "is_reserved": 0, "is_disabled": 0, "fusion_lat": 0.0, "type": "electric_scooter", "name": "6574e400d495906abf3b2f03d9785528", "lat": 38.92354916666667, "bike_id": "6574e400d495906abf3b2f03d9785528"}, {"lon": -77.0779555, "rental_uris": {"android": "https://dc.lft.to/lastmile_qr_scan", "ios": "https://dc.lft.to/lastmile_qr_scan"}, "fusion_lon": 0.0, "is_reserved": 0, "is_disabled": 0, "fusion_lat": 0.0, "type": "electric_bike", "name": "87504be00ffbdfc6e9eb1fde110d1049", "lat": 38.994950333333335, "bike_id": "87504be00ffbdfc6e9eb1fde110d1049"}, {"lon": -77.04360683333333, "rental_uris": {"android": "https://dc.lft.to/lastmile_qr_scan", "ios": "https://dc.lft.to/lastmile_qr_scan"}, "fusion_lon": 0.0, "is_reserved": 0, "is_disabled": 0, "fusion_lat": 0.0, "type": "electric_scooter", "name": "a0926ee433b7096e40969bc0eb32d4ea", "lat": 38.9215115, "bike_id": "a0926ee433b7096e40969bc0eb32d4ea"}, {"lon": -77.03856416666666, "rental_uris": {"android": "https://dc.lft.to/lastmile_qr_scan", "ios": "https://dc.lft.to/lastmile_qr_scan"}, "fusion_lon": 0.0, "is_reserved": 0, "is_disabled": 0, "fusion_lat": 0.0, "type": "electric_scooter", "name": "d7eaa3612693f71bcac5e83e97cf971f", "lat": 38.90277066666667, "bike_id": "d7eaa3612693f71bcac5e83e97cf971f"}, {"lon": -77.042438, "rental_uris": {"android": "https://dc.lft.to/lastmile_qr_scan", "ios": "https://dc.lft.to/lastmile_qr_scan"}, "fusion_lon": 0.0, "is_reserved": 0, "is_disabled": 0, "fusion_lat": 0.0, "type": "electric_scooter", "name": "01f14d61922934066ec68c5b16d772f0", "lat": 38.923536, "bike_id": "01f14d61922934066ec68c5b16d772f0"}, {"lon": -77.04118633333333, "rental_uris": {"android": "https://dc.lft.to/lastmile_qr_scan", "ios": "https://dc.lft.to/lastmile_qr_scan"}, "fusion_lon": 0.0, "is_reserved": 0, "is_disabled": 0, "fusion_lat": 0.0, "type": "electric_scooter", "name": "1b2020ffe6a34afcdda8e764a6843047", "lat": 38.898593166666664, "bike_id": "1b2020ffe6a34afcdda8e764a6843047"}, {"lon": -77.0264315, "rental_uris": {"android": "https://dc.lft.to/lastmile_qr_scan", "ios": "https://dc.lft.to/lastmile_qr_scan"}, "fusion_lon": 0.0, "is_reserved": 0, "is_disabled": 0, "fusion_lat": 0.0, "type": "electric_scooter", "name": "9a4eb2f0ed37f95d3a876efaf1165676", "lat": 38.941115333333336, "bike_id": "9a4eb2f0ed37f95d3a876efaf1165676"}, {"lon": -77.02008116666667, "rental_uris": {"android": "https://dc.lft.to/lastmile_qr_scan", "ios": "https://dc.lft.to/lastmile_qr_scan"}, "fusion_lon": 0.0, "is_reserved": 0, "is_disabled": 0, "fusion_lat": 0.0, "type": "electric_scooter", "name": "0f044dfd842b3a34dd66f9ca02db7cd5", "lat": 38.924058333333335, "bike_id": "0f044dfd842b3a34dd66f9ca02db7cd5"}, {"lon": -76.96913633333334, "rental_uris": {"android": "https://dc.lft.to/lastmile_qr_scan", "ios": "https://dc.lft.to/lastmile_qr_scan"}, "fusion_lon": 0.0, "is_reserved": 0, "is_disabled": 0, "fusion_lat": 0.0, "type": "electric_bike", "name": "4c161583d08afce991715fcd8e77a5fa", "lat": 38.846183833333335, "bike_id": "4c161583d08afce991715fcd8e77a5fa"}, {"lon": -77.04522183333333, "rental_uris": {"android": "https://dc.lft.to/lastmile_qr_scan", "ios": "https://dc.lft.to/lastmile_qr_scan"}, "fusion_lon": 0.0, "is_reserved": 0, "is_disabled": 0, "fusion_lat": 0.0, "type": "electric_scooter", "name": "04ec6fa16cc7df1db7ddcbbd330514bc", "lat": 38.9028235, "bike_id": "04ec6fa16cc7df1db7ddcbbd330514bc"}, {"lon": -77.02088183333333, "rental_uris": {"android": "https://dc.lft.to/lastmile_qr_scan", "ios": "https://dc.lft.to/lastmile_qr_scan"}, "fusion_lon": 0.0, "is_reserved": 0, "is_disabled": 0, "fusion_lat": 0.0, "type": "electric_scooter", "name": "f4cb6b31147cb87506df9bb6403c4554", "lat": 38.894064666666665, "bike_id": "f4cb6b31147cb87506df9bb6403c4554"}, {"lon": -77.04325816666666, "rental_uris": {"android": "https://dc.lft.to/lastmile_qr_scan", "ios": "https://dc.lft.to/lastmile_qr_scan"}, "fusion_lon": 0.0, "is_reserved": 0, "is_disabled": 0, "fusion_lat": 0.0, "type": "electric_scooter", "name": "1d8d43ca0aef90ea04080890984c4135", "lat": 38.892232666666665, "bike_id": "1d8d43ca0aef90ea04080890984c4135"}, {"lon": -77.0217695, "rental_uris": {"android": "https://dc.lft.to/lastmile_qr_scan", "ios": "https://dc.lft.to/lastmile_qr_scan"}, "fusion_lon": 0.0, "is_reserved": 0, "is_disabled": 0, "fusion_lat": 0.0, "type": "electric_scooter", "name": "3d88e7dde266f951643347604c40a506", "lat": 38.919901833333334, "bike_id": "3d88e7dde266f951643347604c40a506"}, {"lon": -76.985977, "rental_uris": {"android": "https://dc.lft.to/lastmile_qr_scan", "ios": "https://dc.lft.to/lastmile_qr_scan"}, "fusion_lon": 0.0, "is_reserved": 0, "is_disabled": 0, "fusion_lat": 0.0, "type": "electric_scooter", "name": "b874945b0584a9da8db11b886449e137", "lat": 38.89472466666667, "bike_id": "b874945b0584a9da8db11b886449e137"}, {"lon": -77.036609, "rental_uris": {"android": "https://dc.lft.to/lastmile_qr_scan", "ios": "https://dc.lft.to/lastmile_qr_scan"}, "fusion_lon": 0.0, "is_reserved": 0, "is_disabled": 0, "fusion_lat": 0.0, "type": "electric_scooter", "name": "3e85c75fa8a54307d2ebb310fd12aeff", "lat": 38.92286033333333, "bike_id": "3e85c75fa8a54307d2ebb310fd12aeff"}, {"lon": -77.0449275, "rental_uris": {"android": "https://dc.lft.to/lastmile_qr_scan", "ios": "https://dc.lft.to/lastmile_qr_scan"}, "fusion_lon": 0.0, "is_reserved": 0, "is_disabled": 0, "fusion_lat": 0.0, "type": "electric_scooter", "name": "6c6a3a6137fbbd5a430a83c296f605fc", "lat": 38.906041, "bike_id": "6c6a3a6137fbbd5a430a83c296f605fc"}, {"lon": -77.00569683333333, "rental_uris": {"android": "https://dc.lft.to/lastmile_qr_scan", "ios": "https://dc.lft.to/lastmile_qr_scan"}, "fusion_lon": 0.0, "is_reserved": 0, "is_disabled": 0, "fusion_lat": 0.0, "type": "electric_scooter", "name": "e79d2a4f670fb057b78368367d147684", "lat": 38.872323, "bike_id": "e79d2a4f670fb057b78368367d147684"}, {"lon": -77.02548283333333, "rental_uris": {"android": "https://dc.lft.to/lastmile_qr_scan", "ios": "https://dc.lft.to/lastmile_qr_scan"}, "fusion_lon": 0.0, "is_reserved": 0, "is_disabled": 0, "fusion_lat": 0.0, "type": "electric_scooter", "name": "ee0b560b366627fd0fe945bef506ec6c", "lat": 38.93076466666667, "bike_id": "ee0b560b366627fd0fe945bef506ec6c"}, {"lon": -77.01850683333333, "rental_uris": {"android": "https://dc.lft.to/lastmile_qr_scan", "ios": "https://dc.lft.to/lastmile_qr_scan"}, "fusion_lon": 0.0, "is_reserved": 0, "is_disabled": 0, "fusion_lat": 0.0, "type": "electric_scooter", "name": "68deb1c77559b38d07b49e1594b8388d", "lat": 38.9542935, "bike_id": "68deb1c77559b38d07b49e1594b8388d"}, {"lon": -77.03322433333334, "rental_uris": {"android": "https://dc.lft.to/lastmile_qr_scan", "ios": "https://dc.lft.to/lastmile_qr_scan"}, "fusion_lon": 0.0, "is_reserved": 0, "is_disabled": 0, "fusion_lat": 0.0, "type": "electric_scooter", "name": "f2e85ae95722a68c665c2e2d9204e9b9", "lat": 38.89879833333333, "bike_id": "f2e85ae95722a68c665c2e2d9204e9b9"}, {"lon": -77.024321, "rental_uris": {"android": "https://dc.lft.to/lastmile_qr_scan", "ios": "https://dc.lft.to/lastmile_qr_scan"}, "fusion_lon": 0.0, "is_reserved": 0, "is_disabled": 0, "fusion_lat": 0.0, "type": "electric_scooter", "name": "661721b465beeac5a2981b934da34e75", "lat": 38.96798066666667, "bike_id": "661721b465beeac5a2981b934da34e75"}, {"lon": -76.95762683333334, "rental_uris": {"android": "https://dc.lft.to/lastmile_qr_scan", "ios": "https://dc.lft.to/lastmile_qr_scan"}, "fusion_lon": 0.0, "is_reserved": 0, "is_disabled": 0, "fusion_lat": 0.0, "type": "electric_scooter", "name": "29018715225265df8f76dfdada697c44", "lat": 38.88434866666667, "bike_id": "29018715225265df8f76dfdada697c44"}, {"lon": -76.9834005, "rental_uris": {"android": "https://dc.lft.to/lastmile_qr_scan", "ios": "https://dc.lft.to/lastmile_qr_scan"}, "fusion_lon": 0.0, "is_reserved": 0, "is_disabled": 0, "fusion_lat": 0.0, "type": "electric_scooter", "name": "50fcb869d7b5e74a48bac56f0596b9f9", "lat": 38.89545066666667, "bike_id": "50fcb869d7b5e74a48bac56f0596b9f9"}, {"lon": -77.02116033333333, "rental_uris": {"android": "https://dc.lft.to/lastmile_qr_scan", "ios": "https://dc.lft.to/lastmile_qr_scan"}, "fusion_lon": 0.0, "is_reserved": 0, "is_disabled": 0, "fusion_lat": 0.0, "type": "electric_scooter", "name": "f14f9faf3c488b8109b74e4db460612e", "lat": 38.93628983333333, "bike_id": "f14f9faf3c488b8109b74e4db460612e"}, {"lon": -77.02159433333334, "rental_uris": {"android": "https://dc.lft.to/lastmile_qr_scan", "ios": "https://dc.lft.to/lastmile_qr_scan"}, "fusion_lon": 0.0, "is_reserved": 0, "is_disabled": 0, "fusion_lat": 0.0, "type": "electric_scooter", "name": "d3fbbf9cfc7e902f071a53039125248d", "lat": 38.897229333333335, "bike_id": "d3fbbf9cfc7e902f071a53039125248d"}, {"lon": -77.03678766666667, "rental_uris": {"android": "https://dc.lft.to/lastmile_qr_scan", "ios": "https://dc.lft.to/lastmile_qr_scan"}, "fusion_lon": 0.0, "is_reserved": 0, "is_disabled": 0, "fusion_lat": 0.0, "type": "electric_scooter", "name": "e31624304cfe21de7e4fa923d2002d8d", "lat": 38.9320705, "bike_id": "e31624304cfe21de7e4fa923d2002d8d"}, {"lon": -77.04376916666666, "rental_uris": {"android": "https://dc.lft.to/lastmile_qr_scan", "ios": "https://dc.lft.to/lastmile_qr_scan"}, "fusion_lon": 0.0, "is_reserved": 0, "is_disabled": 0, "fusion_lat": 0.0, "type": "electric_scooter", "name": "2bff1ff32349eccdcfde484855e441a3", "lat": 38.902359, "bike_id": "2bff1ff32349eccdcfde484855e441a3"}, {"lon": -76.9344375, "rental_uris": {"android": "https://dc.lft.to/lastmile_qr_scan", "ios": "https://dc.lft.to/lastmile_qr_scan"}, "fusion_lon": 0.0, "is_reserved": 0, "is_disabled": 0, "fusion_lat": 0.0, "type": "electric_scooter", "name": "a25d151d5302812b52c31fec7d751fd0", "lat": 38.908443166666665, "bike_id": "a25d151d5302812b52c31fec7d751fd0"}, {"lon": -76.99815333333333, "rental_uris": {"android": "https://dc.lft.to/lastmile_qr_scan", "ios": "https://dc.lft.to/lastmile_qr_scan"}, "fusion_lon": 0.0, "is_reserved": 0, "is_disabled": 0, "fusion_lat": 0.0, "type": "electric_bike", "name": "68fc27520365c8be58f69bbebdb8639a", "lat": 38.837416833333336, "bike_id": "68fc27520365c8be58f69bbebdb8639a"}, {"lon": -77.03057216666667, "rental_uris": {"android": "https://dc.lft.to/lastmile_qr_scan", "ios": "https://dc.lft.to/lastmile_qr_scan"}, "fusion_lon": 0.0, "is_reserved": 0, "is_disabled": 0, "fusion_lat": 0.0, "type": "electric_bike", "name": "5695856fac658fc6665f0deacc11ad40", "lat": 38.9596135, "bike_id": "5695856fac658fc6665f0deacc11ad40"}, {"lon": -77.04857833333334, "rental_uris": {"android": "https://dc.lft.to/lastmile_qr_scan", "ios": "https://dc.lft.to/lastmile_qr_scan"}, "fusion_lon": 0.0, "is_reserved": 0, "is_disabled": 0, "fusion_lat": 0.0, "type": "electric_scooter", "name": "9a491f80e9c3fc844814b8423a2a3527", "lat": 38.904734, "bike_id": "9a491f80e9c3fc844814b8423a2a3527"}, {"lon": -77.03175516666667, "rental_uris": {"android": "https://dc.lft.to/lastmile_qr_scan", "ios": "https://dc.lft.to/lastmile_qr_scan"}, "fusion_lon": 0.0, "is_reserved": 0, "is_disabled": 0, "fusion_lat": 0.0, "type": "electric_scooter", "name": "d07bf86d63783066cc60c731566b4380", "lat": 38.88408833333333, "bike_id": "d07bf86d63783066cc60c731566b4380"}, {"lon": -76.98249583333333, "rental_uris": {"android": "https://dc.lft.to/lastmile_qr_scan", "ios": "https://dc.lft.to/lastmile_qr_scan"}, "fusion_lon": 0.0, "is_reserved": 0, "is_disabled": 0, "fusion_lat": 0.0, "type": "electric_bike", "name": "81435acf665b3f38df96eb7916b80650", "lat": 38.95326633333333, "bike_id": "81435acf665b3f38df96eb7916b80650"}, {"lon": -77.02420816666667, "rental_uris": {"android": "https://dc.lft.to/lastmile_qr_scan", "ios": "https://dc.lft.to/lastmile_qr_scan"}, "fusion_lon": 0.0, "is_reserved": 0, "is_disabled": 0, "fusion_lat": 0.0, "type": "electric_scooter", "name": "8aa92d24ec76f6e71b67ed0d205cb950", "lat": 38.89220366666667, "bike_id": "8aa92d24ec76f6e71b67ed0d205cb950"}, {"lon": -77.05271283333333, "rental_uris": {"android": "https://dc.lft.to/lastmile_qr_scan", "ios": "https://dc.lft.to/lastmile_qr_scan"}, "fusion_lon": 0.0, "is_reserved": 0, "is_disabled": 0, "fusion_lat": 0.0, "type": "electric_bike", "name": "635d82a8568e026b346d41c691d72e58", "lat": 38.961847666666664, "bike_id": "635d82a8568e026b346d41c691d72e58"}, {"lon": -77.04155083333333, "rental_uris": {"android": "https://dc.lft.to/lastmile_qr_scan", "ios": "https://dc.lft.to/lastmile_qr_scan"}, "fusion_lon": 0.0, "is_reserved": 0, "is_disabled": 0, "fusion_lat": 0.0, "type": "electric_scooter", "name": "c732c1a6e3e27c9da96129b3e1690544", "lat": 38.89238133333333, "bike_id": "c732c1a6e3e27c9da96129b3e1690544"}, {"lon": -77.03360433333333, "rental_uris": {"android": "https://dc.lft.to/lastmile_qr_scan", "ios": "https://dc.lft.to/lastmile_qr_scan"}, "fusion_lon": 0.0, "is_reserved": 0, "is_disabled": 0, "fusion_lat": 0.0, "type": "electric_scooter", "name": "682631d754b5623fd3fdb99755486aa4", "lat": 38.902856666666665, "bike_id": "682631d754b5623fd3fdb99755486aa4"}, {"lon": -77.04052933333334, "rental_uris": {"android": "https://dc.lft.to/lastmile_qr_scan", "ios": "https://dc.lft.to/lastmile_qr_scan"}, "fusion_lon": 0.0, "is_reserved": 0, "is_disabled": 0, "fusion_lat": 0.0, "type": "electric_scooter", "name": "e2788349146a9d7b3a71d03fdd0c872f", "lat": 38.924601833333334, "bike_id": "e2788349146a9d7b3a71d03fdd0c872f"}, {"lon": -77.07142966666666, "rental_uris": {"android": "https://dc.lft.to/lastmile_qr_scan", "ios": "https://dc.lft.to/lastmile_qr_scan"}, "fusion_lon": 0.0, "is_reserved": 0, "is_disabled": 0, "fusion_lat": 0.0, "type": "electric_scooter", "name": "d931dc7376da496fe4e6f91b5d442170", "lat": 38.9202995, "bike_id": "d931dc7376da496fe4e6f91b5d442170"}, {"lon": -77.0329885, "rental_uris": {"android": "https://dc.lft.to/lastmile_qr_scan", "ios": "https://dc.lft.to/lastmile_qr_scan"}, "fusion_lon": 0.0, "is_reserved": 0, "is_disabled": 0, "fusion_lat": 0.0, "type": "electric_scooter", "name": "e91e13fa7ef7817dafecc3c282fea841", "lat": 38.92851116666667, "bike_id": "e91e13fa7ef7817dafecc3c282fea841"}, {"lon": -77.04264566666667, "rental_uris": {"android": "https://dc.lft.to/lastmile_qr_scan", "ios": "https://dc.lft.to/lastmile_qr_scan"}, "fusion_lon": 0.0, "is_reserved": 0, "is_disabled": 0, "fusion_lat": 0.0, "type": "electric_scooter", "name": "25787b36b9ff77b50a5e12f1dcf6af33", "lat": 38.90845083333333, "bike_id": "25787b36b9ff77b50a5e12f1dcf6af33"}, {"lon": -77.02109933333334, "rental_uris": {"android": "https://dc.lft.to/lastmile_qr_scan", "ios": "https://dc.lft.to/lastmile_qr_scan"}, "fusion_lon": 0.0, "is_reserved": 0, "is_disabled": 0, "fusion_lat": 0.0, "type": "electric_scooter", "name": "d02ab0bacca278cf27cb34264cdaa31e", "lat": 38.904703, "bike_id": "d02ab0bacca278cf27cb34264cdaa31e"}, {"lon": -77.03203116666667, "rental_uris": {"android": "https://dc.lft.to/lastmile_qr_scan", "ios": "https://dc.lft.to/lastmile_qr_scan"}, "fusion_lon": 0.0, "is_reserved": 0, "is_disabled": 0, "fusion_lat": 0.0, "type": "electric_scooter", "name": "71b154a471e8bcfdc46ad9093d73fffb", "lat": 38.91789133333333, "bike_id": "71b154a471e8bcfdc46ad9093d73fffb"}, {"lon": -77.02228116666667, "rental_uris": {"android": "https://dc.lft.to/lastmile_qr_scan", "ios": "https://dc.lft.to/lastmile_qr_scan"}, "fusion_lon": 0.0, "is_reserved": 0, "is_disabled": 0, "fusion_lat": 0.0, "type": "electric_scooter", "name": "ec4936c15b5eb255e10ed9c5afcdd4ab", "lat": 38.892207, "bike_id": "ec4936c15b5eb255e10ed9c5afcdd4ab"}, {"lon": -77.03301733333333, "rental_uris": {"android": "https://dc.lft.to/lastmile_qr_scan", "ios": "https://dc.lft.to/lastmile_qr_scan"}, "fusion_lon": 0.0, "is_reserved": 0, "is_disabled": 0, "fusion_lat": 0.0, "type": "electric_scooter", "name": "b0a63b980c920a961ad61311c79f5ff8", "lat": 38.9035985, "bike_id": "b0a63b980c920a961ad61311c79f5ff8"}, {"lon": -77.00591116666666, "rental_uris": {"android": "https://dc.lft.to/lastmile_qr_scan", "ios": "https://dc.lft.to/lastmile_qr_scan"}, "fusion_lon": 0.0, "is_reserved": 0, "is_disabled": 0, "fusion_lat": 0.0, "type": "electric_scooter", "name": "4d267b7b9eed96c2a6f232f44ca947e0", "lat": 38.905599333333335, "bike_id": "4d267b7b9eed96c2a6f232f44ca947e0"}, {"lon": -77.04351066666666, "rental_uris": {"android": "https://dc.lft.to/lastmile_qr_scan", "ios": "https://dc.lft.to/lastmile_qr_scan"}, "fusion_lon": 0.0, "is_reserved": 0, "is_disabled": 0, "fusion_lat": 0.0, "type": "electric_scooter", "name": "df9afd8c12580a3339cbd202bff7f063", "lat": 38.9053015, "bike_id": "df9afd8c12580a3339cbd202bff7f063"}, {"lon": -77.03038516666666, "rental_uris": {"android": "https://dc.lft.to/lastmile_qr_scan", "ios": "https://dc.lft.to/lastmile_qr_scan"}, "fusion_lon": 0.0, "is_reserved": 0, "is_disabled": 0, "fusion_lat": 0.0, "type": "electric_scooter", "name": "c4ba73ab31067eb3c76200537ef3c546", "lat": 38.91684383333333, "bike_id": "c4ba73ab31067eb3c76200537ef3c546"}, {"lon": -76.9971645, "rental_uris": {"android": "https://dc.lft.to/lastmile_qr_scan", "ios": "https://dc.lft.to/lastmile_qr_scan"}, "fusion_lon": 0.0, "is_reserved": 0, "is_disabled": 0, "fusion_lat": 0.0, "type": "electric_scooter", "name": "16c86d5a65817430e7ab79847d72bcd3", "lat": 38.9344215, "bike_id": "16c86d5a65817430e7ab79847d72bcd3"}, {"lon": -77.03457783333333, "rental_uris": {"android": "https://dc.lft.to/lastmile_qr_scan", "ios": "https://dc.lft.to/lastmile_qr_scan"}, "fusion_lon": 0.0, "is_reserved": 0, "is_disabled": 0, "fusion_lat": 0.0, "type": "electric_scooter", "name": "9d55e5ff75ef842c2c1ac7606d3f7381", "lat": 38.9056765, "bike_id": "9d55e5ff75ef842c2c1ac7606d3f7381"}, {"lon": -77.02427016666667, "rental_uris": {"android": "https://dc.lft.to/lastmile_qr_scan", "ios": "https://dc.lft.to/lastmile_qr_scan"}, "fusion_lon": 0.0, "is_reserved": 0, "is_disabled": 0, "fusion_lat": 0.0, "type": "electric_scooter", "name": "be727f74d30d3c7b0cd8310a27bd1170", "lat": 38.937196166666666, "bike_id": "be727f74d30d3c7b0cd8310a27bd1170"}, {"lon": -77.0011445, "rental_uris": {"android": "https://dc.lft.to/lastmile_qr_scan", "ios": "https://dc.lft.to/lastmile_qr_scan"}, "fusion_lon": 0.0, "is_reserved": 0, "is_disabled": 0, "fusion_lat": 0.0, "type": "electric_scooter", "name": "7a7ccc4436f303c88e5cc0868df3c901", "lat": 38.87393816666667, "bike_id": "7a7ccc4436f303c88e5cc0868df3c901"}, {"lon": -77.08069866666666, "rental_uris": {"android": "https://dc.lft.to/lastmile_qr_scan", "ios": "https://dc.lft.to/lastmile_qr_scan"}, "fusion_lon": 0.0, "is_reserved": 0, "is_disabled": 0, "fusion_lat": 0.0, "type": "electric_bike", "name": "69573c9b56dff9210e76f4ad8a4eeffd", "lat": 39.052523666666666, "bike_id": "69573c9b56dff9210e76f4ad8a4eeffd"}, {"lon": -76.98549933333334, "rental_uris": {"android": "https://dc.lft.to/lastmile_qr_scan", "ios": "https://dc.lft.to/lastmile_qr_scan"}, "fusion_lon": 0.0, "is_reserved": 0, "is_disabled": 0, "fusion_lat": 0.0, "type": "electric_scooter", "name": "857a0182adf944e7758d8f35df5b59fe", "lat": 38.899756, "bike_id": "857a0182adf944e7758d8f35df5b59fe"}, {"lon": -76.985244, "rental_uris": {"android": "https://dc.lft.to/lastmile_qr_scan", "ios": "https://dc.lft.to/lastmile_qr_scan"}, "fusion_lon": 0.0, "is_reserved": 0, "is_disabled": 0, "fusion_lat": 0.0, "type": "electric_bike", "name": "06c5cc185fe6a636c7f6188fb6573ac6", "lat": 38.86893716666667, "bike_id": "06c5cc185fe6a636c7f6188fb6573ac6"}, {"lon": -77.04620583333333, "rental_uris": {"android": "https://dc.lft.to/lastmile_qr_scan", "ios": "https://dc.lft.to/lastmile_qr_scan"}, "fusion_lon": 0.0, "is_reserved": 0, "is_disabled": 0, "fusion_lat": 0.0, "type": "electric_scooter", "name": "13d9f411fa4218e219b6ff5a474c6b35", "lat": 38.89615083333333, "bike_id": "13d9f411fa4218e219b6ff5a474c6b35"}, {"lon": -76.93744683333334, "rental_uris": {"android": "https://dc.lft.to/lastmile_qr_scan", "ios": "https://dc.lft.to/lastmile_qr_scan"}, "fusion_lon": 0.0, "is_reserved": 0, "is_disabled": 0, "fusion_lat": 0.0, "type": "electric_scooter", "name": "c20bcd183265d7f7b6c34a39329130fd", "lat": 38.890042666666666, "bike_id": "c20bcd183265d7f7b6c34a39329130fd"}, {"lon": -77.00612683333334, "rental_uris": {"android": "https://dc.lft.to/lastmile_qr_scan", "ios": "https://dc.lft.to/lastmile_qr_scan"}, "fusion_lon": 0.0, "is_reserved": 0, "is_disabled": 0, "fusion_lat": 0.0, "type": "electric_scooter", "name": "83f4aef68b370274bf34509554114366", "lat": 38.9055315, "bike_id": "83f4aef68b370274bf34509554114366"}, {"lon": -77.02662283333333, "rental_uris": {"android": "https://dc.lft.to/lastmile_qr_scan", "ios": "https://dc.lft.to/lastmile_qr_scan"}, "fusion_lon": 0.0, "is_reserved": 0, "is_disabled": 0, "fusion_lat": 0.0, "type": "electric_bike", "name": "1c843da5f469c23e846446ad70e17b79", "lat": 38.994322833333335, "bike_id": "1c843da5f469c23e846446ad70e17b79"}, {"lon": -77.0123185, "rental_uris": {"android": "https://dc.lft.to/lastmile_qr_scan", "ios": "https://dc.lft.to/lastmile_qr_scan"}, "fusion_lon": 0.0, "is_reserved": 0, "is_disabled": 0, "fusion_lat": 0.0, "type": "electric_scooter", "name": "40022534a0cc98cf4c76958a26a8fdd9", "lat": 38.916929833333334, "bike_id": "40022534a0cc98cf4c76958a26a8fdd9"}, {"lon": -77.07866933333334, "rental_uris": {"android": "https://dc.lft.to/lastmile_qr_scan", "ios": "https://dc.lft.to/lastmile_qr_scan"}, "fusion_lon": 0.0, "is_reserved": 0, "is_disabled": 0, "fusion_lat": 0.0, "type": "electric_scooter", "name": "568507e8b9c768d668f6663662124bc7", "lat": 38.8929715, "bike_id": "568507e8b9c768d668f6663662124bc7"}, {"lon": -77.0467735, "rental_uris": {"android": "https://dc.lft.to/lastmile_qr_scan", "ios": "https://dc.lft.to/lastmile_qr_scan"}, "fusion_lon": 0.0, "is_reserved": 0, "is_disabled": 0, "fusion_lat": 0.0, "type": "electric_scooter", "name": "be3044f139851aa91a94ffa0b4e43837", "lat": 38.89554, "bike_id": "be3044f139851aa91a94ffa0b4e43837"}, {"lon": -77.03824083333333, "rental_uris": {"android": "https://dc.lft.to/lastmile_qr_scan", "ios": "https://dc.lft.to/lastmile_qr_scan"}, "fusion_lon": 0.0, "is_reserved": 0, "is_disabled": 0, "fusion_lat": 0.0, "type": "electric_scooter", "name": "6f89da5c7e7000b99016ce58f53625c5", "lat": 38.907757, "bike_id": "6f89da5c7e7000b99016ce58f53625c5"}, {"lon": -77.03642883333333, "rental_uris": {"android": "https://dc.lft.to/lastmile_qr_scan", "ios": "https://dc.lft.to/lastmile_qr_scan"}, "fusion_lon": 0.0, "is_reserved": 0, "is_disabled": 0, "fusion_lat": 0.0, "type": "electric_scooter", "name": "a9f458b7bb400f87ff6798bf4814fd58", "lat": 38.90569816666667, "bike_id": "a9f458b7bb400f87ff6798bf4814fd58"}, {"lon": -77.09966466666667, "rental_uris": {"android": "https://dc.lft.to/lastmile_qr_scan", "ios": "https://dc.lft.to/lastmile_qr_scan"}, "fusion_lon": 0.0, "is_reserved": 0, "is_disabled": 0, "fusion_lat": 0.0, "type": "electric_scooter", "name": "0b0b8b190a78fcf9911a9ccbffda93a4", "lat": 38.949743, "bike_id": "0b0b8b190a78fcf9911a9ccbffda93a4"}, {"lon": -77.040027, "rental_uris": {"android": "https://dc.lft.to/lastmile_qr_scan", "ios": "https://dc.lft.to/lastmile_qr_scan"}, "fusion_lon": 0.0, "is_reserved": 0, "is_disabled": 0, "fusion_lat": 0.0, "type": "electric_scooter", "name": "b5137c519062c39817d6acfcee2001e4", "lat": 38.934211833333336, "bike_id": "b5137c519062c39817d6acfcee2001e4"}, {"lon": -77.04487016666667, "rental_uris": {"android": "https://dc.lft.to/lastmile_qr_scan", "ios": "https://dc.lft.to/lastmile_qr_scan"}, "fusion_lon": 0.0, "is_reserved": 0, "is_disabled": 0, "fusion_lat": 0.0, "type": "electric_scooter", "name": "f451e65fb8f5461a54ac4836ec85881f", "lat": 38.89238266666667, "bike_id": "f451e65fb8f5461a54ac4836ec85881f"}, {"lon": -77.00937366666666, "rental_uris": {"android": "https://dc.lft.to/lastmile_qr_scan", "ios": "https://dc.lft.to/lastmile_qr_scan"}, "fusion_lon": 0.0, "is_reserved": 0, "is_disabled": 0, "fusion_lat": 0.0, "type": "electric_scooter", "name": "acf811d6da84abf27e4215439bbb253f", "lat": 38.895476333333335, "bike_id": "acf811d6da84abf27e4215439bbb253f"}, {"lon": -77.031694, "rental_uris": {"android": "https://dc.lft.to/lastmile_qr_scan", "ios": "https://dc.lft.to/lastmile_qr_scan"}, "fusion_lon": 0.0, "is_reserved": 0, "is_disabled": 0, "fusion_lat": 0.0, "type": "electric_scooter", "name": "9d233d973e9ea0a1c91a991b0c64c70a", "lat": 38.914171833333334, "bike_id": "9d233d973e9ea0a1c91a991b0c64c70a"}, {"lon": -77.03209216666667, "rental_uris": {"android": "https://dc.lft.to/lastmile_qr_scan", "ios": "https://dc.lft.to/lastmile_qr_scan"}, "fusion_lon": 0.0, "is_reserved": 0, "is_disabled": 0, "fusion_lat": 0.0, "type": "electric_scooter", "name": "3dcc920dacce12fe0413ad8017ef3fc0", "lat": 38.9099455, "bike_id": "3dcc920dacce12fe0413ad8017ef3fc0"}, {"lon": -77.0383235, "rental_uris": {"android": "https://dc.lft.to/lastmile_qr_scan", "ios": "https://dc.lft.to/lastmile_qr_scan"}, "fusion_lon": 0.0, "is_reserved": 0, "is_disabled": 0, "fusion_lat": 0.0, "type": "electric_scooter", "name": "70e806650ca6b6610667d591abb81342", "lat": 38.90778783333333, "bike_id": "70e806650ca6b6610667d591abb81342"}, {"lon": -77.01222666666666, "rental_uris": {"android": "https://dc.lft.to/lastmile_qr_scan", "ios": "https://dc.lft.to/lastmile_qr_scan"}, "fusion_lon": 0.0, "is_reserved": 0, "is_disabled": 0, "fusion_lat": 0.0, "type": "electric_scooter", "name": "65d3d4cb404e0b44023d38f67a357464", "lat": 38.920307333333334, "bike_id": "65d3d4cb404e0b44023d38f67a357464"}, {"lon": -77.00741316666667, "rental_uris": {"android": "https://dc.lft.to/lastmile_qr_scan", "ios": "https://dc.lft.to/lastmile_qr_scan"}, "fusion_lon": 0.0, "is_reserved": 0, "is_disabled": 0, "fusion_lat": 0.0, "type": "electric_scooter", "name": "0a6254255e1a8866d0d4bbd9e2f9c66c", "lat": 38.87849683333334, "bike_id": "0a6254255e1a8866d0d4bbd9e2f9c66c"}, {"lon": -77.0652685, "rental_uris": {"android": "https://dc.lft.to/lastmile_qr_scan", "ios": "https://dc.lft.to/lastmile_qr_scan"}, "fusion_lon": 0.0, "is_reserved": 0, "is_disabled": 0, "fusion_lat": 0.0, "type": "electric_scooter", "name": "dadd1f746ad8c6c3963155c19fb8118e", "lat": 38.924190833333334, "bike_id": "dadd1f746ad8c6c3963155c19fb8118e"}, {"lon": -77.04001133333334, "rental_uris": {"android": "https://dc.lft.to/lastmile_qr_scan", "ios": "https://dc.lft.to/lastmile_qr_scan"}, "fusion_lon": 0.0, "is_reserved": 0, "is_disabled": 0, "fusion_lat": 0.0, "type": "electric_scooter", "name": "683a5dac9868ab693ef600aadacf6809", "lat": 38.934299833333334, "bike_id": "683a5dac9868ab693ef600aadacf6809"}, {"lon": -77.02246883333333, "rental_uris": {"android": "https://dc.lft.to/lastmile_qr_scan", "ios": "https://dc.lft.to/lastmile_qr_scan"}, "fusion_lon": 0.0, "is_reserved": 0, "is_disabled": 0, "fusion_lat": 0.0, "type": "electric_bike", "name": "5a481497cd5b7337357e480f40b4005f", "lat": 38.96448783333334, "bike_id": "5a481497cd5b7337357e480f40b4005f"}, {"lon": -77.02197216666667, "rental_uris": {"android": "https://dc.lft.to/lastmile_qr_scan", "ios": "https://dc.lft.to/lastmile_qr_scan"}, "fusion_lon": 0.0, "is_reserved": 0, "is_disabled": 0, "fusion_lat": 0.0, "type": "electric_scooter", "name": "4ff4616e52c3863540dc814993140f29", "lat": 38.90196566666667, "bike_id": "4ff4616e52c3863540dc814993140f29"}, {"lon": -77.02928633333333, "rental_uris": {"android": "https://dc.lft.to/lastmile_qr_scan", "ios": "https://dc.lft.to/lastmile_qr_scan"}, "fusion_lon": 0.0, "is_reserved": 0, "is_disabled": 0, "fusion_lat": 0.0, "type": "electric_scooter", "name": "5e688c88af92e21bb2c4ae6ca46f1ddd", "lat": 38.89979, "bike_id": "5e688c88af92e21bb2c4ae6ca46f1ddd"}, {"lon": -77.03727683333334, "rental_uris": {"android": "https://dc.lft.to/lastmile_qr_scan", "ios": "https://dc.lft.to/lastmile_qr_scan"}, "fusion_lon": 0.0, "is_reserved": 0, "is_disabled": 0, "fusion_lat": 0.0, "type": "electric_scooter", "name": "3b09ffc5e4be11cb81f7b86ba1d06530", "lat": 38.93354983333333, "bike_id": "3b09ffc5e4be11cb81f7b86ba1d06530"}, {"lon": -77.18307266666666, "rental_uris": {"android": "https://dc.lft.to/lastmile_qr_scan", "ios": "https://dc.lft.to/lastmile_qr_scan"}, "fusion_lon": 0.0, "is_reserved": 0, "is_disabled": 0, "fusion_lat": 0.0, "type": "electric_bike", "name": "fb68df1e0ec1d4b64f883c970ffc17a7", "lat": 39.09968933333333, "bike_id": "fb68df1e0ec1d4b64f883c970ffc17a7"}, {"lon": -77.00303666666667, "rental_uris": {"android": "https://dc.lft.to/lastmile_qr_scan", "ios": "https://dc.lft.to/lastmile_qr_scan"}, "fusion_lon": 0.0, "is_reserved": 0, "is_disabled": 0, "fusion_lat": 0.0, "type": "electric_scooter", "name": "02192df7031bf8b4a6f36cb9ccdc6442", "lat": 38.892291666666665, "bike_id": "02192df7031bf8b4a6f36cb9ccdc6442"}, {"lon": -77.019477, "rental_uris": {"android": "https://dc.lft.to/lastmile_qr_scan", "ios": "https://dc.lft.to/lastmile_qr_scan"}, "fusion_lon": 0.0, "is_reserved": 0, "is_disabled": 0, "fusion_lat": 0.0, "type": "electric_scooter", "name": "adc2c7b3d4d2b0aae19b8d77dcb5ccde", "lat": 38.90859733333333, "bike_id": "adc2c7b3d4d2b0aae19b8d77dcb5ccde"}, {"lon": -77.01677616666667, "rental_uris": {"android": "https://dc.lft.to/lastmile_qr_scan", "ios": "https://dc.lft.to/lastmile_qr_scan"}, "fusion_lon": 0.0, "is_reserved": 0, "is_disabled": 0, "fusion_lat": 0.0, "type": "electric_scooter", "name": "5e7668e79f1909a8c070b85fec5cdc5e", "lat": 38.920439333333334, "bike_id": "5e7668e79f1909a8c070b85fec5cdc5e"}, {"lon": -76.937417, "rental_uris": {"android": "https://dc.lft.to/lastmile_qr_scan", "ios": "https://dc.lft.to/lastmile_qr_scan"}, "fusion_lon": 0.0, "is_reserved": 0, "is_disabled": 0, "fusion_lat": 0.0, "type": "electric_scooter", "name": "bb5cb91154ace7aecd164e1e7f06afb7", "lat": 38.890110166666666, "bike_id": "bb5cb91154ace7aecd164e1e7f06afb7"}, {"lon": -77.04053666666667, "rental_uris": {"android": "https://dc.lft.to/lastmile_qr_scan", "ios": "https://dc.lft.to/lastmile_qr_scan"}, "fusion_lon": 0.0, "is_reserved": 0, "is_disabled": 0, "fusion_lat": 0.0, "type": "electric_scooter", "name": "c99f766b01370c42160c2f1a2a8664f5", "lat": 38.927951166666666, "bike_id": "c99f766b01370c42160c2f1a2a8664f5"}, {"lon": -77.02973683333333, "rental_uris": {"android": "https://dc.lft.to/lastmile_qr_scan", "ios": "https://dc.lft.to/lastmile_qr_scan"}, "fusion_lon": 0.0, "is_reserved": 0, "is_disabled": 0, "fusion_lat": 0.0, "type": "electric_scooter", "name": "75988a85a5f1a45c4b551ab4106e6bd0", "lat": 38.90041766666667, "bike_id": "75988a85a5f1a45c4b551ab4106e6bd0"}, {"lon": -77.00654433333334, "rental_uris": {"android": "https://dc.lft.to/lastmile_qr_scan", "ios": "https://dc.lft.to/lastmile_qr_scan"}, "fusion_lon": 0.0, "is_reserved": 0, "is_disabled": 0, "fusion_lat": 0.0, "type": "electric_scooter", "name": "31f31c11c95ff18da599c21f3b28ecc1", "lat": 38.900881, "bike_id": "31f31c11c95ff18da599c21f3b28ecc1"}, {"lon": -77.04847166666667, "rental_uris": {"android": "https://dc.lft.to/lastmile_qr_scan", "ios": "https://dc.lft.to/lastmile_qr_scan"}, "fusion_lon": 0.0, "is_reserved": 0, "is_disabled": 0, "fusion_lat": 0.0, "type": "electric_scooter", "name": "fcbf722e10764b386cbc4e267f431b22", "lat": 38.900228, "bike_id": "fcbf722e10764b386cbc4e267f431b22"}, {"lon": -77.0185505, "rental_uris": {"android": "https://dc.lft.to/lastmile_qr_scan", "ios": "https://dc.lft.to/lastmile_qr_scan"}, "fusion_lon": 0.0, "is_reserved": 0, "is_disabled": 0, "fusion_lat": 0.0, "type": "electric_scooter", "name": "093346a25c64e614de7d55237a967b22", "lat": 38.9227045, "bike_id": "093346a25c64e614de7d55237a967b22"}, {"lon": -77.03407533333333, "rental_uris": {"android": "https://dc.lft.to/lastmile_qr_scan", "ios": "https://dc.lft.to/lastmile_qr_scan"}, "fusion_lon": 0.0, "is_reserved": 0, "is_disabled": 0, "fusion_lat": 0.0, "type": "electric_scooter", "name": "eeb2ae03ccd2a21343c6d34ebdbc33cd", "lat": 38.90257233333333, "bike_id": "eeb2ae03ccd2a21343c6d34ebdbc33cd"}, {"lon": -77.00704783333333, "rental_uris": {"android": "https://dc.lft.to/lastmile_qr_scan", "ios": "https://dc.lft.to/lastmile_qr_scan"}, "fusion_lon": 0.0, "is_reserved": 0, "is_disabled": 0, "fusion_lat": 0.0, "type": "electric_scooter", "name": "f438aad1a802b9af3e8a397ca07692c5", "lat": 38.91555983333333, "bike_id": "f438aad1a802b9af3e8a397ca07692c5"}, {"lon": -77.02454016666667, "rental_uris": {"android": "https://dc.lft.to/lastmile_qr_scan", "ios": "https://dc.lft.to/lastmile_qr_scan"}, "fusion_lon": 0.0, "is_reserved": 0, "is_disabled": 0, "fusion_lat": 0.0, "type": "electric_scooter", "name": "c6a114df8361ca727f89483a76f2921c", "lat": 38.931007666666666, "bike_id": "c6a114df8361ca727f89483a76f2921c"}, {"lon": -77.02721566666666, "rental_uris": {"android": "https://dc.lft.to/lastmile_qr_scan", "ios": "https://dc.lft.to/lastmile_qr_scan"}, "fusion_lon": 0.0, "is_reserved": 0, "is_disabled": 0, "fusion_lat": 0.0, "type": "electric_bike", "name": "c06bcbe42c23deece983262c4e5d1527", "lat": 38.91070366666667, "bike_id": "c06bcbe42c23deece983262c4e5d1527"},