{"data": {"bikes": [{"fusion_lon": 0.0, "bike_id": "8919bc589cc31661ffd8f63231b9056a", "name": "8919bc589cc31661ffd8f63231b9056a", "type": "electric_scooter", "lon": -77.03075783333334, "rental_uris": {"android": "https://dc.lft.to/lastmile_qr_scan", "ios": "https://dc.lft.to/lastmile_qr_scan"}, "lat": 38.923788333333334, "is_reserved": 0, "is_disabled": 0, "fusion_lat": 0.0}, {"fusion_lon": 0.0, "bike_id": "77d3589ca0c764e94ba8941b2c7a1211", "name": "77d3589ca0c764e94ba8941b2c7a1211", "type": "electric_scooter", "lon": -77.00931583333333, "rental_uris": {"android": "https://dc.lft.to/lastmile_qr_scan", "ios": "https://dc.lft.to/lastmile_qr_scan"}, "lat": 38.87684216666667, "is_reserved": 0, "is_disabled": 0, "fusion_lat": 0.0}, {"fusion_lon": 0.0, "bike_id": "ea14e55d5d04a43da588493deff09d85", "name": "ea14e55d5d04a43da588493deff09d85", "type": "electric_scooter", "lon": -77.03253033333333, "rental_uris": {"android": "https://dc.lft.to/lastmile_qr_scan", "ios": "https://dc.lft.to/lastmile_qr_scan"}, "lat": 38.91334783333333, "is_reserved": 0, "is_disabled": 0, "fusion_lat": 0.0}, {"fusion_lon": 0.0, "bike_id": "54fa1f2b3cbce8d6d8f6a105a578f1ce", "name": "54fa1f2b3cbce8d6d8f6a105a578f1ce", "type": "electric_scooter", "lon": -77.032618, "rental_uris": {"android": "https://dc.lft.to/lastmile_qr_scan", "ios": "https://dc.lft.to/lastmile_qr_scan"}, "lat": 38.93523283333333, "is_reserved": 0, "is_disabled": 0, "fusion_lat": 0.0}, {"fusion_lon": 0.0, "bike_id": "1def6d9a7e938bdcaa6079268e6533b0", "name": "1def6d9a7e938bdcaa6079268e6533b0", "type": "electric_bike", "lon": -76.97621983333333, "rental_uris": {"android": "https://dc.lft.to/lastmile_qr_scan", "ios": "https://dc.lft.to/lastmile_qr_scan"}, "lat": 38.8929285, "is_reserved": 0, "is_disabled": 0, "fusion_lat": 0.0}, {"fusion_lon": 0.0, "bike_id": "f1c1cacc6596ad9fc7f1e8fed9187d89", "name": "f1c1cacc6596ad9fc7f1e8fed9187d89", "type": "electric_scooter", "lon": -77.00374316666667, "rental_uris": {"android": "https://dc.lft.to/lastmile_qr_scan", "ios": "https://dc.lft.to/lastmile_qr_scan"}, "lat": 38.9060845, "is_reserved": 0, "is_disabled": 0, "fusion_lat": 0.0}, {"fusion_lon": 0.0, "bike_id": "23b3277fdaf5d16622d172ba6f560b04", "name": "23b3277fdaf5d16622d172ba6f560b04", "type": "electric_scooter", "lon": -77.00565166666667, "rental_uris": {"android": "https://dc.lft.to/lastmile_qr_scan", "ios": "https://dc.lft.to/lastmile_qr_scan"}, "lat": 38.90564283333333, "is_reserved": 0, "is_disabled": 0, "fusion_lat": 0.0}, {"fusion_lon": 0.0, "bike_id": "9b0daf44a2e8a338b7314ac2474c8622", "name": "9b0daf44a2e8a338b7314ac2474c8622", "type": "electric_scooter", "lon": -77.02997066666667, "rental_uris": {"android": "https://dc.lft.to/lastmile_qr_scan", "ios": "https://dc.lft.to/lastmile_qr_scan"}, "lat": 38.928627666666664, "is_reserved": 0, "is_disabled": 0, "fusion_lat": 0.0}, {"fusion_lon": 0.0, "bike_id": "301976c48e8045ea77f72341e01c9b88", "name": "301976c48e8045ea77f72341e01c9b88", "type": "electric_scooter", "lon": -77.00057616666666, "rental_uris": {"android": "https://dc.lft.to/lastmile_qr_scan", "ios": "https://dc.lft.to/lastmile_qr_scan"}, "lat": 38.875411, "is_reserved": 0, "is_disabled": 0, "fusion_lat": 0.0}, {"fusion_lon": 0.0, "bike_id": "6e0156c680e39c4cf76375c5097ba947", "name": "6e0156c680e39c4cf76375c5097ba947", "type": "electric_bike", "lon": -76.92336616666667, "rental_uris": {"android": "https://dc.lft.to/lastmile_qr_scan", "ios": "https://dc.lft.to/lastmile_qr_scan"}, "lat": 38.887928333333335, "is_reserved": 0, "is_disabled": 0, "fusion_lat": 0.0}, {"fusion_lon": 0.0, "bike_id": "ab8ae23422ad95d225582373e91d6441", "name": "ab8ae23422ad95d225582373e91d6441", "type": "electric_scooter", "lon": -76.94246133333333, "rental_uris": {"android": "https://dc.lft.to/lastmile_qr_scan", "ios": "https://dc.lft.to/lastmile_qr_scan"}, "lat": 38.88998133333333, "is_reserved": 0, "is_disabled": 0, "fusion_lat": 0.0}, {"fusion_lon": 0.0, "bike_id": "9a50dfa1fbd9708a52aa6db2311e14ef", "name": "9a50dfa1fbd9708a52aa6db2311e14ef", "type": "electric_scooter", "lon": -77.036501, "rental_uris": {"android": "https://dc.lft.to/lastmile_qr_scan", "ios": "https://dc.lft.to/lastmile_qr_scan"}, "lat": 38.93632016666667, "is_reserved": 0, "is_disabled": 0, "fusion_lat": 0.0}, {"fusion_lon": 0.0, "bike_id": "b29b54549a81ed6d51418a34bc7eb1ab", "name": "b29b54549a81ed6d51418a34bc7eb1ab", "type": "electric_scooter", "lon": -77.06265533333334, "rental_uris": {"android": "https://dc.lft.to/lastmile_qr_scan", "ios": "https://dc.lft.to/lastmile_qr_scan"}, "lat": 38.905268, "is_reserved": 0, "is_disabled": 0, "fusion_lat": 0.0}, {"fusion_lon": 0.0, "bike_id": "d6eb44f66ceffaa34fdacc315101ca0b", "name": "d6eb44f66ceffaa34fdacc315101ca0b", "type": "electric_bike", "lon": -76.909566, "rental_uris": {"android": "https://dc.lft.to/lastmile_qr_scan", "ios": "https://dc.lft.to/lastmile_qr_scan"}, "lat": 38.854024833333334, "is_reserved": 0, "is_disabled": 0, "fusion_lat": 0.0}, {"fusion_lon": 0.0, "bike_id": "1bdeb32b2a248698cd1403b5f1f49b15", "name": "1bdeb32b2a248698cd1403b5f1f49b15", "type": "electric_scooter", "lon": -77.0609535, "rental_uris": {"android": "https://dc.lft.to/lastmile_qr_scan", "ios": "https://dc.lft.to/lastmile_qr_scan"}, "lat": 38.94368683333333, "is_reserved": 0, "is_disabled": 0, "fusion_lat": 0.0}, {"fusion_lon": 0.0, "bike_id": "6434a3f18704e58553fe0b2fdee27afb", "name": "6434a3f18704e58553fe0b2fdee27afb", "type": "electric_scooter", "lon": -77.04169483333334, "rental_uris": {"android": "https://dc.lft.to/lastmile_qr_scan", "ios": "https://dc.lft.to/lastmile_qr_scan"}, "lat": 38.91346383333333, "is_reserved": 0, "is_disabled": 0, "fusion_lat": 0.0}, {"fusion_lon": 0.0, "bike_id": "9079201b275826f5fb1454795e095ce2", "name": "9079201b275826f5fb1454795e095ce2", "type": "electric_scooter", "lon": -77.03856633333334, "rental_uris": {"android": "https://dc.lft.to/lastmile_qr_scan", "ios": "https://dc.lft.to/lastmile_qr_scan"}, "lat": 38.91290816666667, "is_reserved": 0, "is_disabled": 0, "fusion_lat": 0.0}, {"fusion_lon": 0.0, "bike_id": "271ae5fbe7782c11e48ff832895b460f", "name": "271ae5fbe7782c11e48ff832895b460f", "type": "electric_scooter", "lon": -77.00754916666666, "rental_uris": {"android": "https://dc.lft.to/lastmile_qr_scan", "ios": "https://dc.lft.to/lastmile_qr_scan"}, "lat": 38.90381383333333, "is_reserved": 0, "is_disabled": 0, "fusion_lat": 0.0}, {"fusion_lon": 0.0, "bike_id": "b74451bacbf6ee3bcbf9160a39f6fe3b", "name": "b74451bacbf6ee3bcbf9160a39f6fe3b", "type": "electric_scooter", "lon": -77.03205533333333, "rental_uris": {"android": "https://dc.lft.to/lastmile_qr_scan", "ios": "https://dc.lft.to/lastmile_qr_scan"}, "lat": 38.88737883333334, "is_reserved": 0, "is_disabled": 0, "fusion_lat": 0.0}, {"fusion_lon": 0.0, "bike_id": "bcd34b9dfcb878b44857d193d9b0617c", "name": "bcd34b9dfcb878b44857d193d9b0617c", "type": "electric_scooter", "lon": -77.03056233333334, "rental_uris": {"android": "https://dc.lft.to/lastmile_qr_scan", "ios": "https://dc.lft.to/lastmile_qr_scan"}, "lat": 38.901275, "is_reserved": 0, "is_disabled": 0, "fusion_lat": 0.0}, {"fusion_lon": 0.0, "bike_id": "58b63a75fe2f20fa7d2317f380f57ceb", "name": "58b63a75fe2f20fa7d2317f380f57ceb", "type": "electric_scooter", "lon": -77.00954016666667, "rental_uris": {"android": "https://dc.lft.to/lastmile_qr_scan", "ios": "https://dc.lft.to/lastmile_qr_scan"}, "lat": 38.876659333333336, "is_reserved": 0, "is_disabled": 0, "fusion_lat": 0.0}, {"fusion_lon": 0.0, "bike_id": "1387249f1454b399a13e0c1f9c59a699", "name": "1387249f1454b399a13e0c1f9c59a699", "type": "electric_scooter", "lon": -77.01412583333334, "rental_uris": {"android": "https://dc.lft.to/lastmile_qr_scan", "ios": "https://dc.lft.to/lastmile_qr_scan"}, "lat": 38.928455, "is_reserved": 0, "is_disabled": 0, "fusion_lat": 0.0}, {"fusion_lon": 0.0, "bike_id": "b1fd80da53fc77ec22d0ec25fd8ed9ae", "name": "b1fd80da53fc77ec22d0ec25fd8ed9ae", "type": "electric_scooter", "lon": -77.03774016666667, "rental_uris": {"android": "https://dc.lft.to/lastmile_qr_scan", "ios": "https://dc.lft.to/lastmile_qr_scan"}, "lat": 38.936094833333335, "is_reserved": 0, "is_disabled": 0, "fusion_lat": 0.0}, {"fusion_lon": 0.0, "bike_id": "2976829074f4a9841b910c559a17f882", "name": "2976829074f4a9841b910c559a17f882", "type": "electric_scooter", "lon": -77.05133966666666, "rental_uris": {"android": "https://dc.lft.to/lastmile_qr_scan", "ios": "https://dc.lft.to/lastmile_qr_scan"}, "lat": 38.907131666666665, "is_reserved": 0, "is_disabled": 0, "fusion_lat": 0.0}, {"fusion_lon": 0.0, "bike_id": "5467dcd1b0ab60ffa646107afb61a077", "name": "5467dcd1b0ab60ffa646107afb61a077", "type": "electric_scooter", "lon": -77.0034615, "rental_uris": {"android": "https://dc.lft.to/lastmile_qr_scan", "ios": "https://dc.lft.to/lastmile_qr_scan"}, "lat": 38.92271316666667, "is_reserved": 0, "is_disabled": 0, "fusion_lat": 0.0}, {"fusion_lon": 0.0, "bike_id": "79936b028ad5484e17c9ae50837019f8", "name": "79936b028ad5484e17c9ae50837019f8", "type": "electric_scooter", "lon": -77.02589383333333, "rental_uris": {"android": "https://dc.lft.to/lastmile_qr_scan", "ios": "https://dc.lft.to/lastmile_qr_scan"}, "lat": 38.927919, "is_reserved": 0, "is_disabled": 0, "fusion_lat": 0.0}, {"fusion_lon": 0.0, "bike_id": "2353dc9196d6ae67e7ffcc473a512dc8", "name": "2353dc9196d6ae67e7ffcc473a512dc8", "type": "electric_scooter", "lon": -77.06409933333333, "rental_uris": {"android": "https://dc.lft.to/lastmile_qr_scan", "ios": "https://dc.lft.to/lastmile_qr_scan"}, "lat": 38.94328266666667, "is_reserved": 0, "is_disabled": 0, "fusion_lat": 0.0}, {"fusion_lon": 0.0, "bike_id": "750902e4c98ea1d0a7fb6dde8123fbaf", "name": "750902e4c98ea1d0a7fb6dde8123fbaf", "type": "electric_scooter", "lon": -77.00939016666666, "rental_uris": {"android": "https://dc.lft.to/lastmile_qr_scan", "ios": "https://dc.lft.to/lastmile_qr_scan"}, "lat": 38.8766255, "is_reserved": 0, "is_disabled": 0, "fusion_lat": 0.0}, {"fusion_lon": 0.0, "bike_id": "7b860d92ed290f0566406361c2fcf366", "name": "7b860d92ed290f0566406361c2fcf366", "type": "electric_scooter", "lon": -77.02589633333334, "rental_uris": {"android": "https://dc.lft.to/lastmile_qr_scan", "ios": "https://dc.lft.to/lastmile_qr_scan"}, "lat": 38.91280316666667, "is_reserved": 0, "is_disabled": 0, "fusion_lat": 0.0}, {"fusion_lon": 0.0, "bike_id": "9c69bff7bc27a8674b992cbdc6d85cd7", "name": "9c69bff7bc27a8674b992cbdc6d85cd7", "type": "electric_scooter", "lon": -76.98842566666667, "rental_uris": {"android": "https://dc.lft.to/lastmile_qr_scan", "ios": "https://dc.lft.to/lastmile_qr_scan"}, "lat": 38.90027833333333, "is_reserved": 0, "is_disabled": 0, "fusion_lat": 0.0}, {"fusion_lon": 0.0, "bike_id": "038de426576fdd179f990a2ea42924f1", "name": "038de426576fdd179f990a2ea42924f1", "type": "electric_scooter", "lon": -76.98376816666666, "rental_uris": {"android": "https://dc.lft.to/lastmile_qr_scan", "ios": "https://dc.lft.to/lastmile_qr_scan"}, "lat": 38.90648233333334, "is_reserved": 0, "is_disabled": 0, "fusion_lat": 0.0}, {"fusion_lon": 0.0, "bike_id": "e7e9d2059d5e45a747b3b0bec1cfaab7", "name": "e7e9d2059d5e45a747b3b0bec1cfaab7", "type": "electric_scooter", "lon": -76.93536566666667, "rental_uris": {"android": "https://dc.lft.to/lastmile_qr_scan", "ios": "https://dc.lft.to/lastmile_qr_scan"}, "lat": 38.896819666666666, "is_reserved": 0, "is_disabled": 0, "fusion_lat": 0.0}, {"fusion_lon": 0.0, "bike_id": "aa9ef308ca7fc70c63a66de76b5fc9e5", "name": "aa9ef308ca7fc70c63a66de76b5fc9e5", "type": "electric_bike", "lon": -76.98118533333333, "rental_uris": {"android": "https://dc.lft.to/lastmile_qr_scan", "ios": "https://dc.lft.to/lastmile_qr_scan"}, "lat": 38.8966895, "is_reserved": 0, "is_disabled": 0, "fusion_lat": 0.0}, {"fusion_lon": 0.0, "bike_id": "bcd463722ac3841717f6ab39e9cf8a48", "name": "bcd463722ac3841717f6ab39e9cf8a48", "type": "electric_bike", "lon": -77.1018205, "rental_uris": {"android": "https://dc.lft.to/lastmile_qr_scan", "ios": "https://dc.lft.to/lastmile_qr_scan"}, "lat": 38.918138166666665, "is_reserved": 0, "is_disabled": 0, "fusion_lat": 0.0}, {"fusion_lon": 0.0, "bike_id": "a482c0580b0dcfc5c3445c5b48f0122c", "name": "a482c0580b0dcfc5c3445c5b48f0122c", "type": "electric_scooter", "lon": -77.02155066666667, "rental_uris": {"android": "https://dc.lft.to/lastmile_qr_scan", "ios": "https://dc.lft.to/lastmile_qr_scan"}, "lat": 38.92604816666667, "is_reserved": 0, "is_disabled": 0, "fusion_lat": 0.0}, {"fusion_lon": 0.0, "bike_id": "bd051efd47cae3c0f06b54eaffc39f27", "name": "bd051efd47cae3c0f06b54eaffc39f27", "type": "electric_bike", "lon": -76.98332166666667, "rental_uris": {"android": "https://dc.lft.to/lastmile_qr_scan", "ios": "https://dc.lft.to/lastmile_qr_scan"}, "lat": 38.966050833333334, "is_reserved": 0, "is_disabled": 0, "fusion_lat": 0.0}, {"fusion_lon": 0.0, "bike_id": "e30e0188d4f45ef8b36ac5712cdfec1e", "name": "e30e0188d4f45ef8b36ac5712cdfec1e", "type": "electric_scooter", "lon": -77.0326485, "rental_uris": {"android": "https://dc.lft.to/lastmile_qr_scan", "ios": "https://dc.lft.to/lastmile_qr_scan"}, "lat": 38.933329666666666, "is_reserved": 0, "is_disabled": 0, "fusion_lat": 0.0}, {"fusion_lon": 0.0, "bike_id": "7cb4f6a80649ccaced2b7282770c67b3", "name": "7cb4f6a80649ccaced2b7282770c67b3", "type": "electric_bike", "lon": -77.1122385, "rental_uris": {"android": "https://dc.lft.to/lastmile_qr_scan", "ios": "https://dc.lft.to/lastmile_qr_scan"}, "lat": 38.81227, "is_reserved": 0, "is_disabled": 0, "fusion_lat": 0.0}, {"fusion_lon": 0.0, "bike_id": "4aa586d2b2b2080f3f530249a36fa7ed", "name": "4aa586d2b2b2080f3f530249a36fa7ed", "type": "electric_scooter", "lon": -76.99612966666666, "rental_uris": {"android": "https://dc.lft.to/lastmile_qr_scan", "ios": "https://dc.lft.to/lastmile_qr_scan"}, "lat": 38.8861635, "is_reserved": 0, "is_disabled": 0, "fusion_lat": 0.0}, {"fusion_lon": 0.0, "bike_id": "36e415566fb2f68679bb5ffc651c4310", "name": "36e415566fb2f68679bb5ffc651c4310", "type": "electric_scooter", "lon": -77.07247416666667, "rental_uris": {"android": "https://dc.lft.to/lastmile_qr_scan", "ios": "https://dc.lft.to/lastmile_qr_scan"}, "lat": 38.9226255, "is_reserved": 0, "is_disabled": 0, "fusion_lat": 0.0}, {"fusion_lon": 0.0, "bike_id": "a83f5fe5390fd3e6d38dcc8bc7b313fc", "name": "a83f5fe5390fd3e6d38dcc8bc7b313fc", "type": "electric_scooter", "lon": -77.00193033333333, "rental_uris": {"android": "https://dc.lft.to/lastmile_qr_scan", "ios": "https://dc.lft.to/lastmile_qr_scan"}, "lat": 38.90233216666667, "is_reserved": 0, "is_disabled": 0, "fusion_lat": 0.0}, {"fusion_lon": 0.0, "bike_id": "51a97d5a2df327e2a4e3b0c5248d6332", "name": "51a97d5a2df327e2a4e3b0c5248d6332", "type": "electric_scooter", "lon": -76.97615833333333, "rental_uris": {"android": "https://dc.lft.to/lastmile_qr_scan", "ios": "https://dc.lft.to/lastmile_qr_scan"}, "lat": 38.931446666666666, "is_reserved": 0, "is_disabled": 0, "fusion_lat": 0.0}, {"fusion_lon": 0.0, "bike_id": "d1221ffcd1737ef904e9c82489054cbe", "name": "d1221ffcd1737ef904e9c82489054cbe", "type": "electric_scooter", "lon": -76.990509, "rental_uris": {"android": "https://dc.lft.to/lastmile_qr_scan", "ios": "https://dc.lft.to/lastmile_qr_scan"}, "lat": 38.85899333333333, "is_reserved": 0, "is_disabled": 0, "fusion_lat": 0.0}, {"fusion_lon": 0.0, "bike_id": "b9998b3d8e355cee59934cebc90e3785", "name": "b9998b3d8e355cee59934cebc90e3785", "type": "electric_scooter", "lon": -77.01986883333333, "rental_uris": {"android": "https://dc.lft.to/lastmile_qr_scan", "ios": "https://dc.lft.to/lastmile_qr_scan"}, "lat": 38.8836545, "is_reserved": 0, "is_disabled": 0, "fusion_lat": 0.0}, {"fusion_lon": 0.0, "bike_id": "2313c29739e449a27899155b01e0aa12", "name": "2313c29739e449a27899155b01e0aa12", "type": "electric_scooter", "lon": -77.0372565, "rental_uris": {"android": "https://dc.lft.to/lastmile_qr_scan", "ios": "https://dc.lft.to/lastmile_qr_scan"}, "lat": 38.92663183333333, "is_reserved": 0, "is_disabled": 0, "fusion_lat": 0.0}, {"fusion_lon": 0.0, "bike_id": "110ae66ace820dd6e34e3579c75a3409", "name": "110ae66ace820dd6e34e3579c75a3409", "type": "electric_scooter", "lon": -77.05752083333333, "rental_uris": {"android": "https://dc.lft.to/lastmile_qr_scan", "ios": "https://dc.lft.to/lastmile_qr_scan"}, "lat": 38.9241555, "is_reserved": 0, "is_disabled": 0, "fusion_lat": 0.0}, {"fusion_lon": 0.0, "bike_id": "3b8f80ebedacf610f5ba889c395e6687", "name": "3b8f80ebedacf610f5ba889c395e6687", "type": "electric_scooter", "lon": -76.97720866666667, "rental_uris": {"android": "https://dc.lft.to/lastmile_qr_scan", "ios": "https://dc.lft.to/lastmile_qr_scan"}, "lat": 38.8724555, "is_reserved": 0, "is_disabled": 0, "fusion_lat": 0.0}, {"fusion_lon": 0.0, "bike_id": "d220bc6218ac432d1ea84d19bdbdf035", "name": "d220bc6218ac432d1ea84d19bdbdf035", "type": "electric_scooter", "lon": -77.02413616666666, "rental_uris": {"android": "https://dc.lft.to/lastmile_qr_scan", "ios": "https://dc.lft.to/lastmile_qr_scan"}, "lat": 38.91964483333334, "is_reserved": 0, "is_disabled": 0, "fusion_lat": 0.0}, {"fusion_lon": 0.0, "bike_id": "6938db75d6f7f0e68622a8833e773035", "name": "6938db75d6f7f0e68622a8833e773035", "type": "electric_scooter", "lon": -76.99482533333334, "rental_uris": {"android": "https://dc.lft.to/lastmile_qr_scan", "ios": "https://dc.lft.to/lastmile_qr_scan"}, "lat": 38.86218983333333, "is_reserved": 0, "is_disabled": 0, "fusion_lat": 0.0}, {"fusion_lon": 0.0, "bike_id": "b10f5e3518d692d0e46c6d409c0fca98", "name": "b10f5e3518d692d0e46c6d409c0fca98", "type": "electric_scooter", "lon": -77.00443266666667, "rental_uris": {"android": "https://dc.lft.to/lastmile_qr_scan", "ios": "https://dc.lft.to/lastmile_qr_scan"}, "lat": 38.87674783333333, "is_reserved": 0, "is_disabled": 0, "fusion_lat": 0.0}, {"fusion_lon": 0.0, "bike_id": "2afd6dc07c265b6d7f218622f8cb0575", "name": "2afd6dc07c265b6d7f218622f8cb0575", "type": "electric_scooter", "lon": -77.072282, "rental_uris": {"android": "https://dc.lft.to/lastmile_qr_scan", "ios": "https://dc.lft.to/lastmile_qr_scan"}, "lat": 38.934609, "is_reserved": 0, "is_disabled": 0, "fusion_lat": 0.0}, {"fusion_lon": 0.0, "bike_id": "438bea331f4e809078fef6c48e84244e", "name": "438bea331f4e809078fef6c48e84244e", "type": "electric_bike", "lon": -76.95465383333334, "rental_uris": {"android": "https://dc.lft.to/lastmile_qr_scan", "ios": "https://dc.lft.to/lastmile_qr_scan"}, "lat": 38.93569016666667, "is_reserved": 0, "is_disabled": 0, "fusion_lat": 0.0}, {"fusion_lon": 0.0, "bike_id": "b5691a7d4829fb28f8b37877b4a9a453", "name": "b5691a7d4829fb28f8b37877b4a9a453", "type": "electric_scooter", "lon": -77.02333883333333, "rental_uris": {"android": "https://dc.lft.to/lastmile_qr_scan", "ios": "https://dc.lft.to/lastmile_qr_scan"}, "lat": 38.915518, "is_reserved": 0, "is_disabled": 0, "fusion_lat": 0.0}, {"fusion_lon": 0.0, "bike_id": "fce06b6ecfab9d5114e9aa77bd7b7f4e", "name": "fce06b6ecfab9d5114e9aa77bd7b7f4e", "type": "electric_scooter", "lon": -77.03390916666666, "rental_uris": {"android": "https://dc.lft.to/lastmile_qr_scan", "ios": "https://dc.lft.to/lastmile_qr_scan"}, "lat": 38.9191905, "is_reserved": 0, "is_disabled": 0, "fusion_lat": 0.0}, {"fusion_lon": 0.0, "bike_id": "57ba889110c097e8a1c312c65478fd40", "name": "57ba889110c097e8a1c312c65478fd40", "type": "electric_scooter", "lon": -77.00195783333334, "rental_uris": {"android": "https://dc.lft.to/lastmile_qr_scan", "ios": "https://dc.lft.to/lastmile_qr_scan"}, "lat": 38.91478083333333, "is_reserved": 0, "is_disabled": 0, "fusion_lat": 0.0}, {"fusion_lon": 0.0, "bike_id": "81c39b5cfb839c0cb138dc2254ed33a3", "name": "81c39b5cfb839c0cb138dc2254ed33a3", "type": "electric_scooter", "lon": -77.02097616666667, "rental_uris": {"android": "https://dc.lft.to/lastmile_qr_scan", "ios": "https://dc.lft.to/lastmile_qr_scan"}, "lat": 38.9345305, "is_reserved": 0, "is_disabled": 0, "fusion_lat": 0.0}, {"fusion_lon": 0.0, "bike_id": "b848c573c037dcc040622af5c7eb94ab", "name": "b848c573c037dcc040622af5c7eb94ab", "type": "electric_scooter", "lon": -77.0569615, "rental_uris": {"android": "https://dc.lft.to/lastmile_qr_scan", "ios": "https://dc.lft.to/lastmile_qr_scan"}, "lat": 38.9105695, "is_reserved": 0, "is_disabled": 0, "fusion_lat": 0.0}, {"fusion_lon": 0.0, "bike_id": "4cce116008a36757ab87b3a753d7432c", "name": "4cce116008a36757ab87b3a753d7432c", "type": "electric_scooter", "lon": -77.02786466666667, "rental_uris": {"android": "https://dc.lft.to/lastmile_qr_scan", "ios": "https://dc.lft.to/lastmile_qr_scan"}, "lat": 38.898382833333336, "is_reserved": 0, "is_disabled": 0, "fusion_lat": 0.0}, {"fusion_lon": 0.0, "bike_id": "9ee49d9a35c34bad6bea1b00820e376a", "name": "9ee49d9a35c34bad6bea1b00820e376a", "type": "electric_scooter", "lon": -76.99608433333333, "rental_uris": {"android": "https://dc.lft.to/lastmile_qr_scan", "ios": "https://dc.lft.to/lastmile_qr_scan"}, "lat": 38.880358333333334, "is_reserved": 0, "is_disabled": 0, "fusion_lat": 0.0}, {"fusion_lon": 0.0, "bike_id": "b3fbf626fee6a7115c57153a6526000d", "name": "b3fbf626fee6a7115c57153a6526000d", "type": "electric_scooter", "lon": -77.0362295, "rental_uris": {"android": "https://dc.lft.to/lastmile_qr_scan", "ios": "https://dc.lft.to/lastmile_qr_scan"}, "lat": 38.924593, "is_reserved": 0, "is_disabled": 0, "fusion_lat": 0.0}, {"fusion_lon": 0.0, "bike_id": "59c16d18b567d2126ae9385ee2d4628d", "name": "59c16d18b567d2126ae9385ee2d4628d", "type": "electric_scooter", "lon": -77.03854383333334, "rental_uris": {"android": "https://dc.lft.to/lastmile_qr_scan", "ios": "https://dc.lft.to/lastmile_qr_scan"}, "lat": 38.9183795, "is_reserved": 0, "is_disabled": 0, "fusion_lat": 0.0}, {"fusion_lon": 0.0, "bike_id": "a937f2f9991118073e1073bd22e8a30b", "name": "a937f2f9991118073e1073bd22e8a30b", "type": "electric_scooter", "lon": -77.00045533333333, "rental_uris": {"android": "https://dc.lft.to/lastmile_qr_scan", "ios": "https://dc.lft.to/lastmile_qr_scan"}, "lat": 38.919026333333335, "is_reserved": 0, "is_disabled": 0, "fusion_lat": 0.0}, {"fusion_lon": 0.0, "bike_id": "8d32c9c21cca47daaea55e2c04710fae", "name": "8d32c9c21cca47daaea55e2c04710fae", "type": "electric_scooter", "lon": -77.08195516666666, "rental_uris": {"android": "https://dc.lft.to/lastmile_qr_scan", "ios": "https://dc.lft.to/lastmile_qr_scan"}, "lat": 38.935649833333336, "is_reserved": 0, "is_disabled": 0, "fusion_lat": 0.0}, {"fusion_lon": 0.0, "bike_id": "fa7cf16168c0400c3cf338a7ef77b164", "name": "fa7cf16168c0400c3cf338a7ef77b164", "type": "electric_scooter", "lon": -77.04155133333333, "rental_uris": {"android": "https://dc.lft.to/lastmile_qr_scan", "ios": "https://dc.lft.to/lastmile_qr_scan"}, "lat": 38.91720016666667, "is_reserved": 0, "is_disabled": 0, "fusion_lat": 0.0}, {"fusion_lon": 0.0, "bike_id": "13a46e3958793cc0690be8e90a236349", "name": "13a46e3958793cc0690be8e90a236349", "type": "electric_scooter", "lon": -77.01373916666667, "rental_uris": {"android": "https://dc.lft.to/lastmile_qr_scan", "ios": "https://dc.lft.to/lastmile_qr_scan"}, "lat": 38.8922045, "is_reserved": 0, "is_disabled": 0, "fusion_lat": 0.0}, {"fusion_lon": 0.0, "bike_id": "7e501f7d09141b7b6001a3eadb7dfc21", "name": "7e501f7d09141b7b6001a3eadb7dfc21", "type": "electric_scooter", "lon": -77.0025755, "rental_uris": {"android": "https://dc.lft.to/lastmile_qr_scan", "ios": "https://dc.lft.to/lastmile_qr_scan"}, "lat": 38.910981666666665, "is_reserved": 0, "is_disabled": 0, "fusion_lat": 0.0}, {"fusion_lon": 0.0, "bike_id": "b893cbb6909505e947799b1db5dde0b2", "name": "b893cbb6909505e947799b1db5dde0b2", "type": "electric_scooter", "lon": -77.04874233333334, "rental_uris": {"android": "https://dc.lft.to/lastmile_qr_scan", "ios": "https://dc.lft.to/lastmile_qr_scan"}, "lat": 38.90912566666667, "is_reserved": 0, "is_disabled": 0, "fusion_lat": 0.0}, {"fusion_lon": 0.0, "bike_id": "99263238b398ba717b0c90261ded9c79", "name": "99263238b398ba717b0c90261ded9c79", "type": "electric_scooter", "lon": -77.0346925, "rental_uris": {"android": "https://dc.lft.to/lastmile_qr_scan", "ios": "https://dc.lft.to/lastmile_qr_scan"}, "lat": 38.918149, "is_reserved": 0, "is_disabled": 0, "fusion_lat": 0.0}, {"fusion_lon": 0.0, "bike_id": "c4b4d57c1a5107b5a7b017c5633ad69a", "name": "c4b4d57c1a5107b5a7b017c5633ad69a", "type": "electric_scooter", "lon": -77.0187315, "rental_uris": {"android": "https://dc.lft.to/lastmile_qr_scan", "ios": "https://dc.lft.to/lastmile_qr_scan"}, "lat": 38.900479, "is_reserved": 0, "is_disabled": 0, "fusion_lat": 0.0}, {"fusion_lon": 0.0, "bike_id": "602650bdef4f10254c144d8061664b0a", "name": "602650bdef4f10254c144d8061664b0a", "type": "electric_bike", "lon": -76.90535383333334, "rental_uris": {"android": "https://dc.lft.to/lastmile_qr_scan", "ios": "https://dc.lft.to/lastmile_qr_scan"}, "lat": 38.8973665, "is_reserved": 0, "is_disabled": 0, "fusion_lat": 0.0}, {"fusion_lon": 0.0, "bike_id": "1b530c93744c5a003b9c0dba0bcd6e66", "name": "1b530c93744c5a003b9c0dba0bcd6e66", "type": "electric_scooter", "lon": -77.031811, "rental_uris": {"android": "https://dc.lft.to/lastmile_qr_scan", "ios": "https://dc.lft.to/lastmile_qr_scan"}, "lat": 38.91352466666667, "is_reserved": 0, "is_disabled": 0, "fusion_lat": 0.0}, {"fusion_lon": 0.0, "bike_id": "56b3aad0a98f216483eaa712f55653b9", "name": "56b3aad0a98f216483eaa712f55653b9", "type": "electric_scooter", "lon": -77.01369333333334, "rental_uris": {"android": "https://dc.lft.to/lastmile_qr_scan", "ios": "https://dc.lft.to/lastmile_qr_scan"}, "lat": 38.8864925, "is_reserved": 0, "is_disabled": 0, "fusion_lat": 0.0}, {"fusion_lon": 0.0, "bike_id": "74c2b27b679a030bdf841392f99b55ef", "name": "74c2b27b679a030bdf841392f99b55ef", "type": "electric_scooter", "lon": -77.038278, "rental_uris": {"android": "https://dc.lft.to/lastmile_qr_scan", "ios": "https://dc.lft.to/lastmile_qr_scan"}, "lat": 38.90976783333333, "is_reserved": 0, "is_disabled": 0, "fusion_lat": 0.0}, {"fusion_lon": 0.0, "bike_id": "6225dd5bce584f87790e4b4e8fe2af36", "name": "6225dd5bce584f87790e4b4e8fe2af36", "type": "electric_scooter", "lon": -77.0384555, "rental_uris": {"android": "https://dc.lft.to/lastmile_qr_scan", "ios": "https://dc.lft.to/lastmile_qr_scan"}, "lat": 38.91215166666667, "is_reserved": 0, "is_disabled": 0, "fusion_lat": 0.0}, {"fusion_lon": 0.0, "bike_id": "b1f37d39ce6af032176a40a00cb872d1", "name": "b1f37d39ce6af032176a40a00cb872d1", "type": "electric_scooter", "lon": -77.01645266666667, "rental_uris": {"android": "https://dc.lft.to/lastmile_qr_scan", "ios": "https://dc.lft.to/lastmile_qr_scan"}, "lat": 38.90136733333333, "is_reserved": 0, "is_disabled": 0, "fusion_lat": 0.0}, {"fusion_lon": 0.0, "bike_id": "e00b16a31e05fb1c5f74ffa62499d65b", "name": "e00b16a31e05fb1c5f74ffa62499d65b", "type": "electric_scooter", "lon": -77.0137035, "rental_uris": {"android": "https://dc.lft.to/lastmile_qr_scan", "ios": "https://dc.lft.to/lastmile_qr_scan"}, "lat": 38.928864833333336, "is_reserved": 0, "is_disabled": 0, "fusion_lat": 0.0}, {"fusion_lon": 0.0, "bike_id": "0c37aaaa050a707fe3e84dd77e44141e", "name": "0c37aaaa050a707fe3e84dd77e44141e", "type": "electric_bike", "lon": -77.0156235, "rental_uris": {"android": "https://dc.lft.to/lastmile_qr_scan", "ios": "https://dc.lft.to/lastmile_qr_scan"}, "lat": 38.950158, "is_reserved": 0, "is_disabled": 0, "fusion_lat": 0.0}, {"fusion_lon": 0.0, "bike_id": "f506d77cd4206d9ce57437b906a2541b", "name": "f506d77cd4206d9ce57437b906a2541b", "type": "electric_scooter", "lon": -77.02850966666666, "rental_uris": {"android": "https://dc.lft.to/lastmile_qr_scan", "ios": "https://dc.lft.to/lastmile_qr_scan"}, "lat": 38.932663, "is_reserved": 0, "is_disabled": 0, "fusion_lat": 0.0}, {"fusion_lon": 0.0, "bike_id": "a51b5ba494db09ef16a3d970a6febec8", "name": "a51b5ba494db09ef16a3d970a6febec8", "type": "electric_scooter", "lon": -77.0576205, "rental_uris": {"android": "https://dc.lft.to/lastmile_qr_scan", "ios": "https://dc.lft.to/lastmile_qr_scan"}, "lat": 38.925019666666664, "is_reserved": 0, "is_disabled": 0, "fusion_lat": 0.0}, {"fusion_lon": 0.0, "bike_id": "c6817ca539fda8cba21b6d8c7e444f2e", "name": "c6817ca539fda8cba21b6d8c7e444f2e", "type": "electric_scooter", "lon": -77.06917383333334, "rental_uris": {"android": "https://dc.lft.to/lastmile_qr_scan", "ios": "https://dc.lft.to/lastmile_qr_scan"}, "lat": 38.91338583333334, "is_reserved": 0, "is_disabled": 0, "fusion_lat": 0.0}, {"fusion_lon": 0.0, "bike_id": "89864fa21945146c4ffc24450ea8e452", "name": "89864fa21945146c4ffc24450ea8e452", "type": "electric_bike", "lon": -77.01454833333334, "rental_uris": {"android": "https://dc.lft.to/lastmile_qr_scan", "ios": "https://dc.lft.to/lastmile_qr_scan"}, "lat": 38.87676733333333, "is_reserved": 0, "is_disabled": 0, "fusion_lat": 0.0}, {"fusion_lon": 0.0, "bike_id": "95f5a66868a83c8855d1f9ed9427bb39", "name": "95f5a66868a83c8855d1f9ed9427bb39", "type": "electric_scooter", "lon": -77.031976, "rental_uris": {"android": "https://dc.lft.to/lastmile_qr_scan", "ios": "https://dc.lft.to/lastmile_qr_scan"}, "lat": 38.92057583333333, "is_reserved": 0, "is_disabled": 0, "fusion_lat": 0.0}, {"fusion_lon": 0.0, "bike_id": "44ca621e207493d57880a747f996e2cf", "name": "44ca621e207493d57880a747f996e2cf", "type": "electric_scooter", "lon": -77.0234515, "rental_uris": {"android": "https://dc.lft.to/lastmile_qr_scan", "ios": "https://dc.lft.to/lastmile_qr_scan"}, "lat": 38.922618666666665, "is_reserved": 0, "is_disabled": 0, "fusion_lat": 0.0}, {"fusion_lon": 0.0, "bike_id": "673ef642cbb0b59363714711f365cb82", "name": "673ef642cbb0b59363714711f365cb82", "type": "electric_scooter", "lon": -77.0249805, "rental_uris": {"android": "https://dc.lft.to/lastmile_qr_scan", "ios": "https://dc.lft.to/lastmile_qr_scan"}, "lat": 38.9206565, "is_reserved": 0, "is_disabled": 0, "fusion_lat": 0.0}, {"fusion_lon": 0.0, "bike_id": "dffabcf436dfe4a7000ff7a38c2aaa30", "name": "dffabcf436dfe4a7000ff7a38c2aaa30", "type": "electric_scooter", "lon": -77.0296235, "rental_uris": {"android": "https://dc.lft.to/lastmile_qr_scan", "ios": "https://dc.lft.to/lastmile_qr_scan"}, "lat": 38.92844083333333, "is_reserved": 0, "is_disabled": 0, "fusion_lat": 0.0}, {"fusion_lon": 0.0, "bike_id": "651903b5c3dd1d17e63c7d9690f201a4", "name": "651903b5c3dd1d17e63c7d9690f201a4", "type": "electric_scooter", "lon": -77.04341616666666, "rental_uris": {"android": "https://dc.lft.to/lastmile_qr_scan", "ios": "https://dc.lft.to/lastmile_qr_scan"}, "lat": 38.898323166666664, "is_reserved": 0, "is_disabled": 0, "fusion_lat": 0.0}, {"fusion_lon": 0.0, "bike_id": "538da13dbdd7e5bdd13032cb4d41fcc1", "name": "538da13dbdd7e5bdd13032cb4d41fcc1", "type": "electric_scooter", "lon": -77.01015016666666, "rental_uris": {"android": "https://dc.lft.to/lastmile_qr_scan", "ios": "https://dc.lft.to/lastmile_qr_scan"}, "lat": 38.9063, "is_reserved": 0, "is_disabled": 0, "fusion_lat": 0.0}, {"fusion_lon": 0.0, "bike_id": "c1bc0c9a3dbb0e82f5b825908b731dbe", "name": "c1bc0c9a3dbb0e82f5b825908b731dbe", "type": "electric_scooter", "lon": -77.024834, "rental_uris": {"android": "https://dc.lft.to/lastmile_qr_scan", "ios": "https://dc.lft.to/lastmile_qr_scan"}, "lat": 38.938446, "is_reserved": 0, "is_disabled": 0, "fusion_lat": 0.0}, {"fusion_lon": 0.0, "bike_id": "837e5131cc7a50d771efdaa74b487e8e", "name": "837e5131cc7a50d771efdaa74b487e8e", "type": "electric_scooter", "lon": -77.04483183333333, "rental_uris": {"android": "https://dc.lft.to/lastmile_qr_scan", "ios": "https://dc.lft.to/lastmile_qr_scan"}, "lat": 38.9187175, "is_reserved": 0, "is_disabled": 0, "fusion_lat": 0.0}, {"fusion_lon": 0.0, "bike_id": "848b7349f0b44593d3e4eafa2cae62bf", "name": "848b7349f0b44593d3e4eafa2cae62bf", "type": "electric_bike", "lon": -77.08806083333333, "rental_uris": {"android": "https://dc.lft.to/lastmile_qr_scan", "ios": "https://dc.lft.to/lastmile_qr_scan"}, "lat": 38.83176916666667, "is_reserved": 0, "is_disabled": 0, "fusion_lat": 0.0}, {"fusion_lon": 0.0, "bike_id": "79c66f46b9f8930bcd289a22591b2e95", "name": "79c66f46b9f8930bcd289a22591b2e95", "type": "electric_scooter", "lon": -77.04662166666667, "rental_uris": {"android": "https://dc.lft.to/lastmile_qr_scan", "ios": "https://dc.lft.to/lastmile_qr_scan"}, "lat": 38.9032725, "is_reserved": 0, "is_disabled": 0, "fusion_lat": 0.0}, {"fusion_lon": 0.0, "bike_id": "211afefcfed4d6571c4a9d4d82ae6383", "name": "211afefcfed4d6571c4a9d4d82ae6383", "type": "electric_scooter", "lon": -76.9872905, "rental_uris": {"android": "https://dc.lft.to/lastmile_qr_scan", "ios": "https://dc.lft.to/lastmile_qr_scan"}, "lat": 38.867095166666665, "is_reserved": 0, "is_disabled": 0, "fusion_lat": 0.0}, {"fusion_lon": 0.0, "bike_id": "18cb638f0908f576f74dfe0e8a5ecdd9", "name": "18cb638f0908f576f74dfe0e8a5ecdd9", "type": "electric_scooter", "lon": -77.02418166666666, "rental_uris": {"android": "https://dc.lft.to/lastmile_qr_scan", "ios": "https://dc.lft.to/lastmile_qr_scan"}, "lat": 38.93494966666667, "is_reserved": 0, "is_disabled": 0, "fusion_lat": 0.0}, {"fusion_lon": 0.0, "bike_id": "27963da26e168ea7f6bddaf0ae5b05f2", "name": "27963da26e168ea7f6bddaf0ae5b05f2", "type": "electric_scooter", "lon": -77.046282, "rental_uris": {"android": "https://dc.lft.to/lastmile_qr_scan", "ios": "https://dc.lft.to/lastmile_qr_scan"}, "lat": 38.91808966666667, "is_reserved": 0, "is_disabled": 0, "fusion_lat": 0.0}, {"fusion_lon": 0.0, "bike_id": "4fc056095af0458d7a6ebd4e54cd30fd", "name": "4fc056095af0458d7a6ebd4e54cd30fd", "type": "electric_scooter", "lon": -76.98774816666666, "rental_uris": {"android": "https://dc.lft.to/lastmile_qr_scan", "ios": "https://dc.lft.to/lastmile_qr_scan"}, "lat": 38.898305, "is_reserved": 0, "is_disabled": 0, "fusion_lat": 0.0}, {"fusion_lon": 0.0, "bike_id": "0093a553f999b581e0ab5fe602ff4922", "name": "0093a553f999b581e0ab5fe602ff4922", "type": "electric_bike", "lon": -76.9520235, "rental_uris": {"android": "https://dc.lft.to/lastmile_qr_scan", "ios": "https://dc.lft.to/lastmile_qr_scan"}, "lat": 38.93666483333333, "is_reserved": 0, "is_disabled": 0, "fusion_lat": 0.0}, {"fusion_lon": 0.0, "bike_id": "450446c69452e597b826b9799cc71995", "name": "450446c69452e597b826b9799cc71995", "type": "electric_scooter", "lon": -77.038237, "rental_uris": {"android": "https://dc.lft.to/lastmile_qr_scan", "ios": "https://dc.lft.to/lastmile_qr_scan"}, "lat": 38.931341333333336, "is_reserved": 0, "is_disabled": 0, "fusion_lat": 0.0}, {"fusion_lon": 0.0, "bike_id": "a70d0b53e609f621c2936d235957d92d", "name": "a70d0b53e609f621c2936d235957d92d", "type": "electric_scooter", "lon": -77.0710975, "rental_uris": {"android": "https://dc.lft.to/lastmile_qr_scan", "ios": "https://dc.lft.to/lastmile_qr_scan"}, "lat": 38.919798666666665, "is_reserved": 0, "is_disabled": 0, "fusion_lat": 0.0}, {"fusion_lon": 0.0, "bike_id": "72cbc869405d498622694a15c89ff81c", "name": "72cbc869405d498622694a15c89ff81c", "type": "electric_bike", "lon": -77.02303216666667, "rental_uris": {"android": "https://dc.lft.to/lastmile_qr_scan", "ios": "https://dc.lft.to/lastmile_qr_scan"}, "lat": 38.965636833333335, "is_reserved": 0, "is_disabled": 0, "fusion_lat": 0.0}, {"fusion_lon": 0.0, "bike_id": "bf1cca6d82ceb113511180a21195b9a9", "name": "bf1cca6d82ceb113511180a21195b9a9", "type": "electric_scooter", "lon": -77.04885633333333, "rental_uris": {"android": "https://dc.lft.to/lastmile_qr_scan", "ios": "https://dc.lft.to/lastmile_qr_scan"}, "lat": 38.903627666666665, "is_reserved": 0, "is_disabled": 0, "fusion_lat": 0.0}, {"fusion_lon": 0.0, "bike_id": "35fa01f9c624873cdea3b6f180d894ef", "name": "35fa01f9c624873cdea3b6f180d894ef", "type": "electric_scooter", "lon": -76.949966, "rental_uris": {"android": "https://dc.lft.to/lastmile_qr_scan", "ios": "https://dc.lft.to/lastmile_qr_scan"}, "lat": 38.893928833333334, "is_reserved": 0, "is_disabled": 0, "fusion_lat": 0.0}, {"fusion_lon": 0.0, "bike_id": "f59da7f76216af41adbc2dc915a4d70d", "name": "f59da7f76216af41adbc2dc915a4d70d", "type": "electric_bike", "lon": -77.12266666666666, "rental_uris": {"android": "https://dc.lft.to/lastmile_qr_scan", "ios": "https://dc.lft.to/lastmile_qr_scan"}, "lat": 38.89734583333333, "is_reserved": 0, "is_disabled": 0, "fusion_lat": 0.0}, {"fusion_lon": 0.0, "bike_id": "b7fc2fe2a9c4c4c167e4192541edcf65", "name": "b7fc2fe2a9c4c4c167e4192541edcf65", "type": "electric_bike", "lon": -76.91657033333334, "rental_uris": {"android": "https://dc.lft.to/lastmile_qr_scan", "ios": "https://dc.lft.to/lastmile_qr_scan"}, "lat": 38.868599333333336, "is_reserved": 0, "is_disabled": 0, "fusion_lat": 0.0}, {"fusion_lon": 0.0, "bike_id": "41940245ad8735ff94e8a62f2ae5a5bf", "name": "41940245ad8735ff94e8a62f2ae5a5bf", "type": "electric_scooter", "lon": -76.94251166666666, "rental_uris": {"android": "https://dc.lft.to/lastmile_qr_scan", "ios": "https://dc.lft.to/lastmile_qr_scan"}, "lat": 38.896849, "is_reserved": 0, "is_disabled": 0, "fusion_lat": 0.0}, {"fusion_lon": 0.0, "bike_id": "e34044de83328a63ac460f94807061c3", "name": "e34044de83328a63ac460f94807061c3", "type": "electric_scooter", "lon": -77.002164, "rental_uris": {"android": "https://dc.lft.to/lastmile_qr_scan", "ios": "https://dc.lft.to/lastmile_qr_scan"}, "lat": 38.8909385, "is_reserved": 0, "is_disabled": 0, "fusion_lat": 0.0}, {"fusion_lon": 0.0, "bike_id": "ca6fc59196254ad78eb58436e96bb96a", "name": "ca6fc59196254ad78eb58436e96bb96a", "type": "electric_scooter", "lon": -77.02400116666666, "rental_uris": {"android": "https://dc.lft.to/lastmile_qr_scan", "ios": "https://dc.lft.to/lastmile_qr_scan"}, "lat": 38.915108833333335, "is_reserved": 0, "is_disabled": 0, "fusion_lat": 0.0}, {"fusion_lon": 0.0, "bike_id": "a8ee82872e26cd1603ab9a9c88794a8e", "name": "a8ee82872e26cd1603ab9a9c88794a8e", "type": "electric_scooter", "lon": -77.0398175, "rental_uris": {"android": "https://dc.lft.to/lastmile_qr_scan", "ios": "https://dc.lft.to/lastmile_qr_scan"}, "lat": 38.913325, "is_reserved": 0, "is_disabled": 0, "fusion_lat": 0.0}, {"fusion_lon": 0.0, "bike_id": "56e28413735133dc76ea08618253f057", "name": "56e28413735133dc76ea08618253f057", "type": "electric_scooter", "lon": -77.02597233333333, "rental_uris": {"android": "https://dc.lft.to/lastmile_qr_scan", "ios": "https://dc.lft.to/lastmile_qr_scan"}, "lat": 38.89507783333333, "is_reserved": 0, "is_disabled": 0, "fusion_lat": 0.0}, {"fusion_lon": 0.0, "bike_id": "f4ae93582b08f28faa45b99c5f26468e", "name": "f4ae93582b08f28faa45b99c5f26468e", "type": "electric_scooter", "lon": -77.04195483333334, "rental_uris": {"android": "https://dc.lft.to/lastmile_qr_scan", "ios": "https://dc.lft.to/lastmile_qr_scan"}, "lat": 38.92344633333333, "is_reserved": 0, "is_disabled": 0, "fusion_lat": 0.0}, {"fusion_lon": 0.0, "bike_id": "6385f7889d1adebe2af7f070b6b9eb38", "name": "6385f7889d1adebe2af7f070b6b9eb38", "type": "electric_scooter", "lon": -77.03657583333333, "rental_uris": {"android": "https://dc.lft.to/lastmile_qr_scan", "ios": "https://dc.lft.to/lastmile_qr_scan"}, "lat": 38.93628666666667, "is_reserved": 0, "is_disabled": 0, "fusion_lat": 0.0}, {"fusion_lon": 0.0, "bike_id": "b32504569194fbbf639137ae2ebc4a95", "name": "b32504569194fbbf639137ae2ebc4a95", "type": "electric_scooter", "lon": -76.95486666666666, "rental_uris": {"android": "https://dc.lft.to/lastmile_qr_scan", "ios": "https://dc.lft.to/lastmile_qr_scan"}, "lat": 38.8881205, "is_reserved": 0, "is_disabled": 0, "fusion_lat": 0.0}, {"fusion_lon": 0.0, "bike_id": "4845ababd23f934b06690c85247cf250", "name": "4845ababd23f934b06690c85247cf250", "type": "electric_bike", "lon": -77.02712316666667, "rental_uris": {"android": "https://dc.lft.to/lastmile_qr_scan", "ios": "https://dc.lft.to/lastmile_qr_scan"}, "lat": 38.9229925, "is_reserved": 0, "is_disabled": 0, "fusion_lat": 0.0}, {"fusion_lon": 0.0, "bike_id": "be038c75c2da61e1dc648aa040edc128", "name": "be038c75c2da61e1dc648aa040edc128", "type": "electric_scooter", "lon": -76.946517, "rental_uris": {"android": "https://dc.lft.to/lastmile_qr_scan", "ios": "https://dc.lft.to/lastmile_qr_scan"}, "lat": 38.898283666666664, "is_reserved": 0, "is_disabled": 0, "fusion_lat": 0.0}, {"fusion_lon": 0.0, "bike_id": "e3c0be6f496379c992cdac29b1991914", "name": "e3c0be6f496379c992cdac29b1991914", "type": "electric_scooter", "lon": -77.0019135, "rental_uris": {"android": "https://dc.lft.to/lastmile_qr_scan", "ios": "https://dc.lft.to/lastmile_qr_scan"}, "lat": 38.90380783333333, "is_reserved": 0, "is_disabled": 0, "fusion_lat": 0.0}, {"fusion_lon": 0.0, "bike_id": "66f8ba3ee019a3d5c362dea5ee9c8907", "name": "66f8ba3ee019a3d5c362dea5ee9c8907", "type": "electric_scooter", "lon": -77.06390783333333, "rental_uris": {"android": "https://dc.lft.to/lastmile_qr_scan", "ios": "https://dc.lft.to/lastmile_qr_scan"}, "lat": 38.929058833333336, "is_reserved": 0, "is_disabled": 0, "fusion_lat": 0.0}, {"fusion_lon": 0.0, "bike_id": "c592421a4b98b9a0b7f3a2c1d92d7a3a", "name": "c592421a4b98b9a0b7f3a2c1d92d7a3a", "type": "electric_scooter", "lon": -77.02318483333333, "rental_uris": {"android": "https://dc.lft.to/lastmile_qr_scan", "ios": "https://dc.lft.to/lastmile_qr_scan"}, "lat": 38.91782116666667, "is_reserved": 0, "is_disabled": 0, "fusion_lat": 0.0}, {"fusion_lon": 0.0, "bike_id": "a5a649e56092d48e5774efafbad1ac5b", "name": "a5a649e56092d48e5774efafbad1ac5b", "type": "electric_bike", "lon": -77.129813, "rental_uris": {"android": "https://dc.lft.to/lastmile_qr_scan", "ios": "https://dc.lft.to/lastmile_qr_scan"}, "lat": 38.79988516666667, "is_reserved": 0, "is_disabled": 0, "fusion_lat": 0.0}, {"fusion_lon": 0.0, "bike_id": "ec114b0ac005455bfb8338eaabfd43e5", "name": "ec114b0ac005455bfb8338eaabfd43e5", "type": "electric_scooter", "lon": -77.03170066666667, "rental_uris": {"android": "https://dc.lft.to/lastmile_qr_scan", "ios": "https://dc.lft.to/lastmile_qr_scan"}, "lat": 38.90102016666667, "is_reserved": 0, "is_disabled": 0, "fusion_lat": 0.0}, {"fusion_lon": 0.0, "bike_id": "941ac66188f0375703989e10330ebd05", "name": "941ac66188f0375703989e10330ebd05", "type": "electric_bike", "lon": -77.12814016666667, "rental_uris": {"android": "https://dc.lft.to/lastmile_qr_scan", "ios": "https://dc.lft.to/lastmile_qr_scan"}, "lat": 38.86539766666667, "is_reserved": 0, "is_disabled": 0, "fusion_lat": 0.0}, {"fusion_lon": 0.0, "bike_id": "9c2c43018741948490d9bf09ae9dcd77", "name": "9c2c43018741948490d9bf09ae9dcd77", "type": "electric_bike", "lon": -77.07045366666667, "rental_uris": {"android": "https://dc.lft.to/lastmile_qr_scan", "ios": "https://dc.lft.to/lastmile_qr_scan"}, "lat": 38.824459166666664, "is_reserved": 0, "is_disabled": 0, "fusion_lat": 0.0}, {"fusion_lon": 0.0, "bike_id": "edb8227a625fb1e43febffb56edb764f", "name": "edb8227a625fb1e43febffb56edb764f", "type": "electric_scooter", "lon": -76.98709266666667, "rental_uris": {"android": "https://dc.lft.to/lastmile_qr_scan", "ios": "https://dc.lft.to/lastmile_qr_scan"}, "lat": 38.8653905, "is_reserved": 0, "is_disabled": 0, "fusion_lat": 0.0}, {"fusion_lon": 0.0, "bike_id": "6032e416fb54f2bf5e0bd7eac1b4ae45", "name": "6032e416fb54f2bf5e0bd7eac1b4ae45", "type": "electric_scooter", "lon": -76.994455, "rental_uris": {"android": "https://dc.lft.to/lastmile_qr_scan", "ios": "https://dc.lft.to/lastmile_qr_scan"}, "lat": 38.9050715, "is_reserved": 0, "is_disabled": 0, "fusion_lat": 0.0}, {"fusion_lon": 0.0, "bike_id": "1e396aa3c220ec8cc8fe9e368db888d5", "name": "1e396aa3c220ec8cc8fe9e368db888d5", "type": "electric_scooter", "lon": -77.04224183333334, "rental_uris": {"android": "https://dc.lft.to/lastmile_qr_scan", "ios": "https://dc.lft.to/lastmile_qr_scan"}, "lat": 38.92170083333333, "is_reserved": 0, "is_disabled": 0, "fusion_lat": 0.0}, {"fusion_lon": 0.0, "bike_id": "ed21d7f125c1266202d904f7e6782acf", "name": "ed21d7f125c1266202d904f7e6782acf", "type": "electric_scooter", "lon": -77.0238255, "rental_uris": {"android": "https://dc.lft.to/lastmile_qr_scan", "ios": "https://dc.lft.to/lastmile_qr_scan"}, "lat": 38.9174395, "is_reserved": 0, "is_disabled": 0, "fusion_lat": 0.0}, {"fusion_lon": 0.0, "bike_id": "6b1e4839aaa8c01acdc5a477f40b7b76", "name": "6b1e4839aaa8c01acdc5a477f40b7b76", "type": "electric_scooter", "lon": -77.0075255, "rental_uris": {"android": "https://dc.lft.to/lastmile_qr_scan", "ios": "https://dc.lft.to/lastmile_qr_scan"}, "lat": 38.876590666666665, "is_reserved": 0, "is_disabled": 0, "fusion_lat": 0.0}, {"fusion_lon": 0.0, "bike_id": "82771f5128e15061768189d0027ce6d0", "name": "82771f5128e15061768189d0027ce6d0", "type": "electric_scooter", "lon": -77.037556, "rental_uris": {"android": "https://dc.lft.to/lastmile_qr_scan", "ios": "https://dc.lft.to/lastmile_qr_scan"}, "lat": 38.91262433333333, "is_reserved": 0, "is_disabled": 0, "fusion_lat": 0.0}, {"fusion_lon": 0.0, "bike_id": "f26d229cde771b049ab93690118bf71b", "name": "f26d229cde771b049ab93690118bf71b", "type": "electric_scooter", "lon": -77.011089, "rental_uris": {"android": "https://dc.lft.to/lastmile_qr_scan", "ios": "https://dc.lft.to/lastmile_qr_scan"}, "lat": 38.9035965, "is_reserved": 0, "is_disabled": 0, "fusion_lat": 0.0}, {"fusion_lon": 0.0, "bike_id": "44c57b9558efac6b624e89b3ec7b9157", "name": "44c57b9558efac6b624e89b3ec7b9157", "type": "electric_scooter", "lon": -77.03027666666667, "rental_uris": {"android": "https://dc.lft.to/lastmile_qr_scan", "ios": "https://dc.lft.to/lastmile_qr_scan"}, "lat": 38.93118033333333, "is_reserved": 0, "is_disabled": 0, "fusion_lat": 0.0}, {"fusion_lon": 0.0, "bike_id": "774f81159d3bd276b363f21f8bea6afa", "name": "774f81159d3bd276b363f21f8bea6afa", "type": "electric_scooter", "lon": -77.015039, "rental_uris": {"android": "https://dc.lft.to/lastmile_qr_scan", "ios": "https://dc.lft.to/lastmile_qr_scan"}, "lat": 38.899472, "is_reserved": 0, "is_disabled": 0, "fusion_lat": 0.0}, {"fusion_lon": 0.0, "bike_id": "309a35d3f60a11ebf13821ee25eae455", "name": "309a35d3f60a11ebf13821ee25eae455", "type": "electric_bike", "lon": -76.9496125, "rental_uris": {"android": "https://dc.lft.to/lastmile_qr_scan", "ios": "https://dc.lft.to/lastmile_qr_scan"}, "lat": 38.9350245, "is_reserved": 0, "is_disabled": 0, "fusion_lat": 0.0}, {"fusion_lon": 0.0, "bike_id": "c22b55a6878379ccfc36d2b97364e789", "name": "c22b55a6878379ccfc36d2b97364e789", "type": "electric_scooter", "lon": -77.00878983333334, "rental_uris": {"android": "https://dc.lft.to/lastmile_qr_scan", "ios": "https://dc.lft.to/lastmile_qr_scan"}, "lat": 38.88266316666667, "is_reserved": 0, "is_disabled": 0, "fusion_lat": 0.0}, {"fusion_lon": 0.0, "bike_id": "a9ab663765cbdf5d4a9cdc95e4b68bff", "name": "a9ab663765cbdf5d4a9cdc95e4b68bff", "type": "electric_scooter", "lon": -76.99961683333333, "rental_uris": {"android": "https://dc.lft.to/lastmile_qr_scan", "ios": "https://dc.lft.to/lastmile_qr_scan"}, "lat": 38.84286216666667, "is_reserved": 0, "is_disabled": 0, "fusion_lat": 0.0}, {"fusion_lon": 0.0, "bike_id": "4e3ef00d6e8efb0b1509de6e74fc6c9d", "name": "4e3ef00d6e8efb0b1509de6e74fc6c9d", "type": "electric_scooter", "lon": -77.05790333333333, "rental_uris": {"android": "https://dc.lft.to/lastmile_qr_scan", "ios": "https://dc.lft.to/lastmile_qr_scan"}, "lat": 38.93481516666667, "is_reserved": 0, "is_disabled": 0, "fusion_lat": 0.0}, {"fusion_lon": 0.0, "bike_id": "add06a0eec944e90ad4c03775dcfd666", "name": "add06a0eec944e90ad4c03775dcfd666", "type": "electric_scooter", "lon": -76.96530966666667, "rental_uris": {"android": "https://dc.lft.to/lastmile_qr_scan", "ios": "https://dc.lft.to/lastmile_qr_scan"}, "lat": 38.87481016666667, "is_reserved": 0, "is_disabled": 0, "fusion_lat": 0.0}, {"fusion_lon": 0.0, "bike_id": "3a7d768021e4824f5745649c1fba93db", "name": "3a7d768021e4824f5745649c1fba93db", "type": "electric_scooter", "lon": -77.0383365, "rental_uris": {"android": "https://dc.lft.to/lastmile_qr_scan", "ios": "https://dc.lft.to/lastmile_qr_scan"}, "lat": 38.911110666666666, "is_reserved": 0, "is_disabled": 0, "fusion_lat": 0.0}, {"fusion_lon": 0.0, "bike_id": "abeb3223e09aa68b30e24a98ad679a71", "name": "abeb3223e09aa68b30e24a98ad679a71", "type": "electric_scooter", "lon": -77.03758083333334, "rental_uris": {"android": "https://dc.lft.to/lastmile_qr_scan", "ios": "https://dc.lft.to/lastmile_qr_scan"}, "lat": 38.929056833333334, "is_reserved": 0, "is_disabled": 0, "fusion_lat": 0.0}, {"fusion_lon": 0.0, "bike_id": "dcfe225be26fc4e30b70357656c61456", "name": "dcfe225be26fc4e30b70357656c61456", "type": "electric_scooter", "lon": -77.02302083333333, "rental_uris": {"android": "https://dc.lft.to/lastmile_qr_scan", "ios": "https://dc.lft.to/lastmile_qr_scan"}, "lat": 38.91790833333334, "is_reserved": 0, "is_disabled": 0, "fusion_lat": 0.0}, {"fusion_lon": 0.0, "bike_id": "f38f386ac48c2ec6edbe88f46a6f0b57", "name": "f38f386ac48c2ec6edbe88f46a6f0b57", "type": "electric_scooter", "lon": -77.03463816666667, "rental_uris": {"android": "https://dc.lft.to/lastmile_qr_scan", "ios": "https://dc.lft.to/lastmile_qr_scan"}, "lat": 38.917252833333336, "is_reserved": 0, "is_disabled": 0, "fusion_lat": 0.0}, {"fusion_lon": 0.0, "bike_id": "852b4895004f0206f63ea732337450d6", "name": "852b4895004f0206f63ea732337450d6", "type": "electric_scooter", "lon": -77.04180783333334, "rental_uris": {"android": "https://dc.lft.to/lastmile_qr_scan", "ios": "https://dc.lft.to/lastmile_qr_scan"}, "lat": 38.91265283333333, "is_reserved": 0, "is_disabled": 0, "fusion_lat": 0.0}, {"fusion_lon": 0.0, "bike_id": "289abc360dabdfd8dac7b5c9fffc07fd", "name": "289abc360dabdfd8dac7b5c9fffc07fd", "type": "electric_scooter", "lon": -77.03930316666667, "rental_uris": {"android": "https://dc.lft.to/lastmile_qr_scan", "ios": "https://dc.lft.to/lastmile_qr_scan"}, "lat": 38.9249235, "is_reserved": 0, "is_disabled": 0, "fusion_lat": 0.0}, {"fusion_lon": 0.0, "bike_id": "c7594663dbee8567910716cd1618448c", "name": "c7594663dbee8567910716cd1618448c", "type": "electric_scooter", "lon": -77.02886883333333, "rental_uris": {"android": "https://dc.lft.to/lastmile_qr_scan", "ios": "https://dc.lft.to/lastmile_qr_scan"}, "lat": 38.92471166666667, "is_reserved": 0, "is_disabled": 0, "fusion_lat": 0.0}, {"fusion_lon": 0.0, "bike_id": "fc68d8857f35ebe9311e7bca5b0e130d", "name": "fc68d8857f35ebe9311e7bca5b0e130d", "type": "electric_scooter", "lon": -77.019675, "rental_uris": {"android": "https://dc.lft.to/lastmile_qr_scan", "ios": "https://dc.lft.to/lastmile_qr_scan"}, "lat": 38.930400166666665, "is_reserved": 0, "is_disabled": 0, "fusion_lat": 0.0}, {"fusion_lon": 0.0, "bike_id": "ed874471ae46b3f0e222081c38f2cf3e", "name": "ed874471ae46b3f0e222081c38f2cf3e", "type": "electric_bike", "lon": -76.968817, "rental_uris": {"android": "https://dc.lft.to/lastmile_qr_scan", "ios": "https://dc.lft.to/lastmile_qr_scan"}, "lat": 38.846005, "is_reserved": 0, "is_disabled": 0, "fusion_lat": 0.0}, {"fusion_lon": 0.0, "bike_id": "16fea0684917f8c31ddf6aeefe6f2bbb", "name": "16fea0684917f8c31ddf6aeefe6f2bbb", "type": "electric_scooter", "lon": -77.04240866666666, "rental_uris": {"android": "https://dc.lft.to/lastmile_qr_scan", "ios": "https://dc.lft.to/lastmile_qr_scan"}, "lat": 38.94550616666667, "is_reserved": 0, "is_disabled": 0, "fusion_lat": 0.0}, {"fusion_lon": 0.0, "bike_id": "e3f082f022b70617fbf0ef8a12004110", "name": "e3f082f022b70617fbf0ef8a12004110", "type": "electric_scooter", "lon": -76.94631833333334, "rental_uris": {"android": "https://dc.lft.to/lastmile_qr_scan", "ios": "https://dc.lft.to/lastmile_qr_scan"}, "lat": 38.898352333333335, "is_reserved": 0, "is_disabled": 0, "fusion_lat": 0.0}, {"fusion_lon": 0.0, "bike_id": "6abb26382bb134ab7b1e3e2545b63b6e", "name": "6abb26382bb134ab7b1e3e2545b63b6e", "type": "electric_scooter", "lon": -76.9985485, "rental_uris": {"android": "https://dc.lft.to/lastmile_qr_scan", "ios": "https://dc.lft.to/lastmile_qr_scan"}, "lat": 38.90886666666667, "is_reserved": 0, "is_disabled": 0, "fusion_lat": 0.0}, {"fusion_lon": 0.0, "bike_id": "d9755a5398e4e991319ba4194324c134", "name": "d9755a5398e4e991319ba4194324c134", "type": "electric_scooter", "lon": -77.034789, "rental_uris": {"android": "https://dc.lft.to/lastmile_qr_scan", "ios": "https://dc.lft.to/lastmile_qr_scan"}, "lat": 38.92873083333333, "is_reserved": 0, "is_disabled": 0, "fusion_lat": 0.0}, {"fusion_lon": 0.0, "bike_id": "891ad41b7b71a16bf0f329494900aad4", "name": "891ad41b7b71a16bf0f329494900aad4", "type": "electric_scooter", "lon": -77.02434766666667, "rental_uris": {"android": "https://dc.lft.to/lastmile_qr_scan", "ios": "https://dc.lft.to/lastmile_qr_scan"}, "lat": 38.926480166666664, "is_reserved": 0, "is_disabled": 0, "fusion_lat": 0.0}, {"fusion_lon": 0.0, "bike_id": "acd48e47bd91e596456366d175d2df8c", "name": "acd48e47bd91e596456366d175d2df8c", "type": "electric_scooter", "lon": -77.06389166666666, "rental_uris": {"android": "https://dc.lft.to/lastmile_qr_scan", "ios": "https://dc.lft.to/lastmile_qr_scan"}, "lat": 38.929077666666664, "is_reserved": 0, "is_disabled": 0, "fusion_lat": 0.0}, {"fusion_lon": 0.0, "bike_id": "04616552a53de0b482cb2a237170665c", "name": "04616552a53de0b482cb2a237170665c", "type": "electric_scooter", "lon": -77.02755783333333, "rental_uris": {"android": "https://dc.lft.to/lastmile_qr_scan", "ios": "https://dc.lft.to/lastmile_qr_scan"}, "lat": 38.954154, "is_reserved": 0, "is_disabled": 0, "fusion_lat": 0.0}, {"fusion_lon": 0.0, "bike_id": "26642b3c10a9ede38e67d18b231e1d59", "name": "26642b3c10a9ede38e67d18b231e1d59", "type": "electric_scooter", "lon": -77.00701683333334, "rental_uris": {"android": "https://dc.lft.to/lastmile_qr_scan", "ios": "https://dc.lft.to/lastmile_qr_scan"}, "lat": 38.896750833333336, "is_reserved": 0, "is_disabled": 0, "fusion_lat": 0.0}, {"fusion_lon": 0.0, "bike_id": "f8565be3d0cd783b33dcbd2fbca9d3ab", "name": "f8565be3d0cd783b33dcbd2fbca9d3ab", "type": "electric_scooter", "lon": -77.045071, "rental_uris": {"android": "https://dc.lft.to/lastmile_qr_scan", "ios": "https://dc.lft.to/lastmile_qr_scan"}, "lat": 38.912816666666664, "is_reserved": 0, "is_disabled": 0, "fusion_lat": 0.0}, {"fusion_lon": 0.0, "bike_id": "cdeb48a5bff796ed6313293685b3fa8e", "name": "cdeb48a5bff796ed6313293685b3fa8e", "type": "electric_scooter", "lon": -77.02298616666667, "rental_uris": {"android": "https://dc.lft.to/lastmile_qr_scan", "ios": "https://dc.lft.to/lastmile_qr_scan"}, "lat": 38.9161335, "is_reserved": 0, "is_disabled": 0, "fusion_lat": 0.0}, {"fusion_lon": 0.0, "bike_id": "16e35e457d3f6fb34c8d29493225ee7f", "name": "16e35e457d3f6fb34c8d29493225ee7f", "type": "electric_scooter", "lon": -77.02711966666666, "rental_uris": {"android": "https://dc.lft.to/lastmile_qr_scan", "ios": "https://dc.lft.to/lastmile_qr_scan"}, "lat": 38.91803016666667, "is_reserved": 0, "is_disabled": 0, "fusion_lat": 0.0}, {"fusion_lon": 0.0, "bike_id": "8b6afdfa95a228dab1c5abdf79aa0bae", "name": "8b6afdfa95a228dab1c5abdf79aa0bae", "type": "electric_scooter", "lon": -77.0604305, "rental_uris": {"android": "https://dc.lft.to/lastmile_qr_scan", "ios": "https://dc.lft.to/lastmile_qr_scan"}, "lat": 38.9391445, "is_reserved": 0, "is_disabled": 0, "fusion_lat": 0.0}, {"fusion_lon": 0.0, "bike_id": "589cae02d2bb9683edeedc5da66ff5a5", "name": "589cae02d2bb9683edeedc5da66ff5a5", "type": "electric_scooter", "lon": -77.0326135, "rental_uris": {"android": "https://dc.lft.to/lastmile_qr_scan", "ios": "https://dc.lft.to/lastmile_qr_scan"}, "lat": 38.93753133333333, "is_reserved": 0, "is_disabled": 0, "fusion_lat": 0.0}, {"fusion_lon": 0.0, "bike_id": "4248ad16c564f88d1f635216134c32c9", "name": "4248ad16c564f88d1f635216134c32c9", "type": "electric_bike", "lon": -76.92915966666666, "rental_uris": {"android": "https://dc.lft.to/lastmile_qr_scan", "ios": "https://dc.lft.to/lastmile_qr_scan"}, "lat": 38.980286666666665, "is_reserved": 0, "is_disabled": 0, "fusion_lat": 0.0}, {"fusion_lon": 0.0, "bike_id": "d4b236cdb1bba9692b29c712baa396c5", "name": "d4b236cdb1bba9692b29c712baa396c5", "type": "electric_scooter", "lon": -76.9944635, "rental_uris": {"android": "https://dc.lft.to/lastmile_qr_scan", "ios": "https://dc.lft.to/lastmile_qr_scan"}, "lat": 38.90506383333334, "is_reserved": 0, "is_disabled": 0, "fusion_lat": 0.0}, {"fusion_lon": 0.0, "bike_id": "085da824d71e77593537cf26fe3520fb", "name": "085da824d71e77593537cf26fe3520fb", "type": "electric_scooter", "lon": -77.04495416666667, "rental_uris": {"android": "https://dc.lft.to/lastmile_qr_scan", "ios": "https://dc.lft.to/lastmile_qr_scan"}, "lat": 38.9067455, "is_reserved": 0, "is_disabled": 0, "fusion_lat": 0.0}, {"fusion_lon": 0.0, "bike_id": "b20acee9df04307a261b6e1c2c480643", "name": "b20acee9df04307a261b6e1c2c480643", "type": "electric_scooter", "lon": -77.0417275, "rental_uris": {"android": "https://dc.lft.to/lastmile_qr_scan", "ios": "https://dc.lft.to/lastmile_qr_scan"}, "lat": 38.91340483333333, "is_reserved": 0, "is_disabled": 0, "fusion_lat": 0.0}, {"fusion_lon": 0.0, "bike_id": "e8c93cd271dab9904d1c961101f42d7f", "name": "e8c93cd271dab9904d1c961101f42d7f", "type": "electric_scooter", "lon": -76.955165, "rental_uris": {"android": "https://dc.lft.to/lastmile_qr_scan", "ios": "https://dc.lft.to/lastmile_qr_scan"}, "lat": 38.89055666666667, "is_reserved": 0, "is_disabled": 0, "fusion_lat": 0.0}, {"fusion_lon": 0.0, "bike_id": "14b9e51ddd4bfb0cd617481e5cdd5f51", "name": "14b9e51ddd4bfb0cd617481e5cdd5f51", "type": "electric_scooter", "lon": -76.94471966666667, "rental_uris": {"android": "https://dc.lft.to/lastmile_qr_scan", "ios": "https://dc.lft.to/lastmile_qr_scan"}, "lat": 38.90285466666667, "is_reserved": 0, "is_disabled": 0, "fusion_lat": 0.0}, {"fusion_lon": 0.0, "bike_id": "e615c469f3f1a6d2bcd406fac659bb5c", "name": "e615c469f3f1a6d2bcd406fac659bb5c", "type": "electric_scooter", "lon": -77.02603583333334, "rental_uris": {"android": "https://dc.lft.to/lastmile_qr_scan", "ios": "https://dc.lft.to/lastmile_qr_scan"}, "lat": 38.91428766666667, "is_reserved": 0, "is_disabled": 0, "fusion_lat": 0.0}, {"fusion_lon": 0.0, "bike_id": "11c10f3ce729479416315b91470fd4f3", "name": "11c10f3ce729479416315b91470fd4f3", "type": "electric_scooter", "lon": -77.041376, "rental_uris": {"android": "https://dc.lft.to/lastmile_qr_scan", "ios": "https://dc.lft.to/lastmile_qr_scan"}, "lat": 38.91683916666667, "is_reserved": 0, "is_disabled": 0, "fusion_lat": 0.0}, {"fusion_lon": 0.0, "bike_id": "1013aaf48cf741185c2cc967f81f8d63", "name": "1013aaf48cf741185c2cc967f81f8d63", "type": "electric_scooter", "lon": -77.0249475, "rental_uris": {"android": "https://dc.lft.to/lastmile_qr_scan", "ios": "https://dc.lft.to/lastmile_qr_scan"}, "lat": 38.91753533333333, "is_reserved": 0, "is_disabled": 0, "fusion_lat": 0.0}, {"fusion_lon": 0.0, "bike_id": "7be4f0e9ecdd654881fb2e069a862c52", "name": "7be4f0e9ecdd654881fb2e069a862c52", "type": "electric_scooter", "lon": -77.03168, "rental_uris": {"android": "https://dc.lft.to/lastmile_qr_scan", "ios": "https://dc.lft.to/lastmile_qr_scan"}, "lat": 38.92100716666667, "is_reserved": 0, "is_disabled": 0, "fusion_lat": 0.0}, {"fusion_lon": 0.0, "bike_id": "ab2ac40b76c7132341e74cc3888eab2e", "name": "ab2ac40b76c7132341e74cc3888eab2e", "type": "electric_scooter", "lon": -77.0506055, "rental_uris": {"android": "https://dc.lft.to/lastmile_qr_scan", "ios": "https://dc.lft.to/lastmile_qr_scan"}, "lat": 38.900508, "is_reserved": 0, "is_disabled": 0, "fusion_lat": 0.0}, {"fusion_lon": 0.0, "bike_id": "79fe4b7e5142e663d860bb8040fdc62f", "name": "79fe4b7e5142e663d860bb8040fdc62f", "type": "electric_scooter", "lon": -77.03441433333333, "rental_uris": {"android": "https://dc.lft.to/lastmile_qr_scan", "ios": "https://dc.lft.to/lastmile_qr_scan"}, "lat": 38.91040383333333, "is_reserved": 0, "is_disabled": 0, "fusion_lat": 0.0}, {"fusion_lon": 0.0, "bike_id": "8a35bcd71b075f9ea2a3522ac28c3f25", "name": "8a35bcd71b075f9ea2a3522ac28c3f25", "type": "electric_scooter", "lon": -77.024918, "rental_uris": {"android": "https://dc.lft.to/lastmile_qr_scan", "ios": "https://dc.lft.to/lastmile_qr_scan"}, "lat": 38.941857166666665, "is_reserved": 0, "is_disabled": 0, "fusion_lat": 0.0}, {"fusion_lon": 0.0, "bike_id": "737f8f8efca546413ba1e3b5e1f25baa", "name": "737f8f8efca546413ba1e3b5e1f25baa", "type": "electric_scooter", "lon": -77.0431055, "rental_uris": {"android": "https://dc.lft.to/lastmile_qr_scan", "ios": "https://dc.lft.to/lastmile_qr_scan"}, "lat": 38.91881433333333, "is_reserved": 0, "is_disabled": 0, "fusion_lat": 0.0}, {"fusion_lon": 0.0, "bike_id": "e93b818cea4ea317bff3471ab4ed1989", "name": "e93b818cea4ea317bff3471ab4ed1989", "type": "electric_scooter", "lon": -76.99809583333334, "rental_uris": {"android": "https://dc.lft.to/lastmile_qr_scan", "ios": "https://dc.lft.to/lastmile_qr_scan"}, "lat": 38.876698166666664, "is_reserved": 0, "is_disabled": 0, "fusion_lat": 0.0}, {"fusion_lon": 0.0, "bike_id": "5cc182a06b47d964b8a1682d7b1ec1d3", "name": "5cc182a06b47d964b8a1682d7b1ec1d3", "type": "electric_scooter", "lon": -76.99414416666667, "rental_uris": {"android": "https://dc.lft.to/lastmile_qr_scan", "ios": "https://dc.lft.to/lastmile_qr_scan"}, "lat": 38.933099166666665, "is_reserved": 0, "is_disabled": 0, "fusion_lat": 0.0}, {"fusion_lon": 0.0, "bike_id": "214792d7e291b8cff7658953b13cfd92", "name": "214792d7e291b8cff7658953b13cfd92", "type": "electric_scooter", "lon": -76.94636183333333, "rental_uris": {"android": "https://dc.lft.to/lastmile_qr_scan", "ios": "https://dc.lft.to/lastmile_qr_scan"}, "lat": 38.89844566666667, "is_reserved": 0, "is_disabled": 0, "fusion_lat": 0.0}, {"fusion_lon": 0.0, "bike_id": "8f83b101b3a45a9c4ed1d2f6d3d7d0f4", "name": "8f83b101b3a45a9c4ed1d2f6d3d7d0f4", "type": "electric_scooter", "lon": -77.05790983333333, "rental_uris": {"android": "https://dc.lft.to/lastmile_qr_scan", "ios": "https://dc.lft.to/lastmile_qr_scan"}, "lat": 38.93478533333333, "is_reserved": 0, "is_disabled": 0, "fusion_lat": 0.0}, {"fusion_lon": 0.0, "bike_id": "33c26735789d17ed7776aedcd022e639", "name": "33c26735789d17ed7776aedcd022e639", "type": "electric_scooter", "lon": -77.00285166666667, "rental_uris": {"android": "https://dc.lft.to/lastmile_qr_scan", "ios": "https://dc.lft.to/lastmile_qr_scan"}, "lat": 38.90908783333333, "is_reserved": 0, "is_disabled": 0, "fusion_lat": 0.0}, {"fusion_lon": 0.0, "bike_id": "835e44c5c070ca84e69def69d7a00ed3", "name": "835e44c5c070ca84e69def69d7a00ed3", "type": "electric_scooter", "lon": -77.0665755, "rental_uris": {"android": "https://dc.lft.to/lastmile_qr_scan", "ios": "https://dc.lft.to/lastmile_qr_scan"}, "lat": 38.949756, "is_reserved": 0, "is_disabled": 0, "fusion_lat": 0.0}, {"fusion_lon": 0.0, "bike_id": "6ef2c7dcca10834a8a2c5ccd8506939d", "name": "6ef2c7dcca10834a8a2c5ccd8506939d", "type": "electric_scooter", "lon": -77.045157, "rental_uris": {"android": "https://dc.lft.to/lastmile_qr_scan", "ios": "https://dc.lft.to/lastmile_qr_scan"}, "lat": 38.921367000000004, "is_reserved": 0, "is_disabled": 0, "fusion_lat": 0.0}, {"fusion_lon": 0.0, "bike_id": "fe9216b9455c18bceaf5a265ced7604f", "name": "fe9216b9455c18bceaf5a265ced7604f", "type": "electric_scooter", "lon": -77.018862, "rental_uris": {"android": "https://dc.lft.to/lastmile_qr_scan", "ios": "https://dc.lft.to/lastmile_qr_scan"}, "lat": 38.9464335, "is_reserved": 0, "is_disabled": 0, "fusion_lat": 0.0}, {"fusion_lon": 0.0, "bike_id": "d42246ddaf9a24200198dee0f62cf995", "name": "d42246ddaf9a24200198dee0f62cf995", "type": "electric_scooter", "lon": -77.02713633333333, "rental_uris": {"android": "https://dc.lft.to/lastmile_qr_scan", "ios": "https://dc.lft.to/lastmile_qr_scan"}, "lat": 38.9098565, "is_reserved": 0, "is_disabled": 0, "fusion_lat": 0.0}, {"fusion_lon": 0.0, "bike_id": "210d072a621a5ed2fba1b99aedbb4b25", "name": "210d072a621a5ed2fba1b99aedbb4b25", "type": "electric_scooter", "lon": -77.01345933333333, "rental_uris": {"android": "https://dc.lft.to/lastmile_qr_scan", "ios": "https://dc.lft.to/lastmile_qr_scan"}, "lat": 38.90721716666667, "is_reserved": 0, "is_disabled": 0, "fusion_lat": 0.0}, {"fusion_lon": 0.0, "bike_id": "13e7d0d8480638ad3f138938d830c114", "name": "13e7d0d8480638ad3f138938d830c114", "type": "electric_scooter", "lon": -76.98953066666667, "rental_uris": {"android": "https://dc.lft.to/lastmile_qr_scan", "ios": "https://dc.lft.to/lastmile_qr_scan"}, "lat": 38.84401183333333, "is_reserved": 0, "is_disabled": 0, "fusion_lat": 0.0}, {"fusion_lon": 0.0, "bike_id": "6cb094de93637c00ec22fd7e21cf5065", "name": "6cb094de93637c00ec22fd7e21cf5065", "type": "electric_bike", "lon": -76.997644, "rental_uris": {"android": "https://dc.lft.to/lastmile_qr_scan", "ios": "https://dc.lft.to/lastmile_qr_scan"}, "lat": 39.00596183333333, "is_reserved": 0, "is_disabled": 0, "fusion_lat": 0.0}, {"fusion_lon": 0.0, "bike_id": "452e35ebbd210db06aa491ae6861ce70", "name": "452e35ebbd210db06aa491ae6861ce70", "type": "electric_bike", "lon": -77.1142845, "rental_uris": {"android": "https://dc.lft.to/lastmile_qr_scan", "ios": "https://dc.lft.to/lastmile_qr_scan"}, "lat": 38.85247666666667, "is_reserved": 0, "is_disabled": 0, "fusion_lat": 0.0}, {"fusion_lon": 0.0, "bike_id": "201cef81e6c915b785532bb8da68131e", "name": "201cef81e6c915b785532bb8da68131e", "type": "electric_scooter", "lon": -77.02389483333333, "rental_uris": {"android": "https://dc.lft.to/lastmile_qr_scan", "ios": "https://dc.lft.to/lastmile_qr_scan"}, "lat": 38.920762333333336, "is_reserved": 0, "is_disabled": 0, "fusion_lat": 0.0}, {"fusion_lon": 0.0, "bike_id": "7f7bb20c715868abfd60f86c6cae1278", "name": "7f7bb20c715868abfd60f86c6cae1278", "type": "electric_scooter", "lon": -77.05517366666666, "rental_uris": {"android": "https://dc.lft.to/lastmile_qr_scan", "ios": "https://dc.lft.to/lastmile_qr_scan"}, "lat": 38.91058733333333, "is_reserved": 0, "is_disabled": 0, "fusion_lat": 0.0}, {"fusion_lon": 0.0, "bike_id": "1f7544088e1e622d0dc8ec1648fa1fb7", "name": "1f7544088e1e622d0dc8ec1648fa1fb7", "type": "electric_scooter", "lon": -77.0385255, "rental_uris": {"android": "https://dc.lft.to/lastmile_qr_scan", "ios": "https://dc.lft.to/lastmile_qr_scan"}, "lat": 38.918389166666664, "is_reserved": 0, "is_disabled": 0, "fusion_lat": 0.0}, {"fusion_lon": 0.0, "bike_id": "2483beb80514b957236be05bfbec441d", "name": "2483beb80514b957236be05bfbec441d", "type": "electric_scooter", "lon": -76.9825665, "rental_uris": {"android": "https://dc.lft.to/lastmile_qr_scan", "ios": "https://dc.lft.to/lastmile_qr_scan"}, "lat": 38.863599, "is_reserved": 0, "is_disabled": 0, "fusion_lat": 0.0}, {"fusion_lon": 0.0, "bike_id": "219086ffea023b9d2932b9fa452eb8d3", "name": "219086ffea023b9d2932b9fa452eb8d3", "type": "electric_scooter", "lon": -77.02177483333334, "rental_uris": {"android": "https://dc.lft.to/lastmile_qr_scan", "ios": "https://dc.lft.to/lastmile_qr_scan"}, "lat": 38.919832166666666, "is_reserved": 0, "is_disabled": 0, "fusion_lat": 0.0}, {"fusion_lon": 0.0, "bike_id": "918d62727a9f04d79888d3d95285e225", "name": "918d62727a9f04d79888d3d95285e225", "type": "electric_scooter", "lon": -76.982693, "rental_uris": {"android": "https://dc.lft.to/lastmile_qr_scan", "ios": "https://dc.lft.to/lastmile_qr_scan"}, "lat": 38.8853275, "is_reserved": 0, "is_disabled": 0, "fusion_lat": 0.0}, {"fusion_lon": 0.0, "bike_id": "9619f181e3bdb7e92cff0c540e5dfd66", "name": "9619f181e3bdb7e92cff0c540e5dfd66", "type": "electric_scooter", "lon": -77.03214983333334, "rental_uris": {"android": "https://dc.lft.to/lastmile_qr_scan", "ios": "https://dc.lft.to/lastmile_qr_scan"}, "lat": 38.9258495, "is_reserved": 0, "is_disabled": 0, "fusion_lat": 0.0}, {"fusion_lon": 0.0, "bike_id": "0a2f1f1bdf494a263ea55f4f9f005c6d", "name": "0a2f1f1bdf494a263ea55f4f9f005c6d", "type": "electric_scooter", "lon": -77.0477845, "rental_uris": {"android": "https://dc.lft.to/lastmile_qr_scan", "ios": "https://dc.lft.to/lastmile_qr_scan"}, "lat": 38.90241816666666, "is_reserved": 0, "is_disabled": 0, "fusion_lat": 0.0}, {"fusion_lon": 0.0, "bike_id": "aee679d9b7db3ec60b681097788c8bdb", "name": "aee679d9b7db3ec60b681097788c8bdb", "type": "electric_scooter", "lon": -77.00116266666667, "rental_uris": {"android": "https://dc.lft.to/lastmile_qr_scan", "ios": "https://dc.lft.to/lastmile_qr_scan"}, "lat": 38.9076245, "is_reserved": 0, "is_disabled": 0, "fusion_lat": 0.0}, {"fusion_lon": 0.0, "bike_id": "7ad011476675b97adb44aa39f08dfa02", "name": "7ad011476675b97adb44aa39f08dfa02", "type": "electric_scooter", "lon": -77.07107233333333, "rental_uris": {"android": "https://dc.lft.to/lastmile_qr_scan", "ios": "https://dc.lft.to/lastmile_qr_scan"}, "lat": 38.919730666666666, "is_reserved": 0, "is_disabled": 0, "fusion_lat": 0.0}, {"fusion_lon": 0.0, "bike_id": "b334130338bbbb3e931be1d8dc4cbc06", "name": "b334130338bbbb3e931be1d8dc4cbc06", "type": "electric_bike", "lon": -76.94620466666667, "rental_uris": {"android": "https://dc.lft.to/lastmile_qr_scan", "ios": "https://dc.lft.to/lastmile_qr_scan"}, "lat": 38.832300000000004, "is_reserved": 0, "is_disabled": 0, "fusion_lat": 0.0}, {"fusion_lon": 0.0, "bike_id": "adc61481cabbffaace0a5f401bc84107", "name": "adc61481cabbffaace0a5f401bc84107", "type": "electric_scooter", "lon": -76.99455433333333, "rental_uris": {"android": "https://dc.lft.to/lastmile_qr_scan", "ios": "https://dc.lft.to/lastmile_qr_scan"}, "lat": 38.9228365, "is_reserved": 0, "is_disabled": 0, "fusion_lat": 0.0}, {"fusion_lon": 0.0, "bike_id": "98346f4ad5eaf1e96d20b15bcf4e0be3", "name": "98346f4ad5eaf1e96d20b15bcf4e0be3", "type": "electric_scooter", "lon": -77.0467395, "rental_uris": {"android": "https://dc.lft.to/lastmile_qr_scan", "ios": "https://dc.lft.to/lastmile_qr_scan"}, "lat": 38.9071965, "is_reserved": 0, "is_disabled": 0, "fusion_lat": 0.0}, {"fusion_lon": 0.0, "bike_id": "9b93e0b753cad68d883e3b1429c67f5f", "name": "9b93e0b753cad68d883e3b1429c67f5f", "type": "electric_scooter", "lon": -77.0366295, "rental_uris": {"android": "https://dc.lft.to/lastmile_qr_scan", "ios": "https://dc.lft.to/lastmile_qr_scan"}, "lat": 38.927038333333336, "is_reserved": 0, "is_disabled": 0, "fusion_lat": 0.0}, {"fusion_lon": 0.0, "bike_id": "396768291031c3f597d8a006268bd455", "name": "396768291031c3f597d8a006268bd455", "type": "electric_scooter", "lon": -76.991626, "rental_uris": {"android": "https://dc.lft.to/lastmile_qr_scan", "ios": "https://dc.lft.to/lastmile_qr_scan"}, "lat": 38.897752833333335, "is_reserved": 0, "is_disabled": 0, "fusion_lat": 0.0}, {"fusion_lon": 0.0, "bike_id": "1804309b5b15c08d92c23cba532b27a4", "name": "1804309b5b15c08d92c23cba532b27a4", "type": "electric_scooter", "lon": -77.03789233333333, "rental_uris": {"android": "https://dc.lft.to/lastmile_qr_scan", "ios": "https://dc.lft.to/lastmile_qr_scan"}, "lat": 38.9332205, "is_reserved": 0, "is_disabled": 0, "fusion_lat": 0.0}, {"fusion_lon": 0.0, "bike_id": "aada47776b18cb61b03ab9885cfe4ebd", "name": "aada47776b18cb61b03ab9885cfe4ebd", "type": "electric_scooter", "lon": -76.98769533333333, "rental_uris": {"android": "https://dc.lft.to/lastmile_qr_scan", "ios": "https://dc.lft.to/lastmile_qr_scan"}, "lat": 38.88313266666667, "is_reserved": 0, "is_disabled": 0, "fusion_lat": 0.0}, {"fusion_lon": 0.0, "bike_id": "8a75db9e0dcd9f8a3dfc472b1a170b27", "name": "8a75db9e0dcd9f8a3dfc472b1a170b27", "type": "electric_scooter", "lon": -77.03436783333333, "rental_uris": {"android": "https://dc.lft.to/lastmile_qr_scan", "ios": "https://dc.lft.to/lastmile_qr_scan"}, "lat": 38.907288333333334, "is_reserved": 0, "is_disabled": 0, "fusion_lat": 0.0}, {"fusion_lon": 0.0, "bike_id": "a960376f274dde0c3f54d7772277414d", "name": "a960376f274dde0c3f54d7772277414d", "type": "electric_scooter", "lon": -77.029439, "rental_uris": {"android": "https://dc.lft.to/lastmile_qr_scan", "ios": "https://dc.lft.to/lastmile_qr_scan"}, "lat": 38.90507483333333, "is_reserved": 0, "is_disabled": 0, "fusion_lat": 0.0}, {"fusion_lon": 0.0, "bike_id": "9b5ffc00903da5fb8e69f9f8b90b8ac6", "name": "9b5ffc00903da5fb8e69f9f8b90b8ac6", "type": "electric_scooter", "lon": -77.013694, "rental_uris": {"android": "https://dc.lft.to/lastmile_qr_scan", "ios": "https://dc.lft.to/lastmile_qr_scan"}, "lat": 38.892263, "is_reserved": 0, "is_disabled": 0, "fusion_lat": 0.0}, {"fusion_lon": 0.0, "bike_id": "2f8c64f7abdab00eabaad78c3d7cf974", "name": "2f8c64f7abdab00eabaad78c3d7cf974", "type": "electric_scooter", "lon": -77.04404416666667, "rental_uris": {"android": "https://dc.lft.to/lastmile_qr_scan", "ios": "https://dc.lft.to/lastmile_qr_scan"}, "lat": 38.893974666666665, "is_reserved": 0, "is_disabled": 0, "fusion_lat": 0.0}, {"fusion_lon": 0.0, "bike_id": "1e7e64e84d060b91361831863d40522b", "name": "1e7e64e84d060b91361831863d40522b", "type": "electric_scooter", "lon": -77.04610233333334, "rental_uris": {"android": "https://dc.lft.to/lastmile_qr_scan", "ios": "https://dc.lft.to/lastmile_qr_scan"}, "lat": 38.90064916666667, "is_reserved": 0, "is_disabled": 0, "fusion_lat": 0.0}, {"fusion_lon": 0.0, "bike_id": "76a111c9352d629bfbad3805c18ca3a8", "name": "76a111c9352d629bfbad3805c18ca3a8", "type": "electric_scooter", "lon": -77.037084, "rental_uris": {"android": "https://dc.lft.to/lastmile_qr_scan", "ios": "https://dc.lft.to/lastmile_qr_scan"}, "lat": 38.926362166666664, "is_reserved": 0, "is_disabled": 0, "fusion_lat": 0.0}, {"fusion_lon": 0.0, "bike_id": "06277a948ea895309944f1d5c020abe0", "name": "06277a948ea895309944f1d5c020abe0", "type": "electric_bike", "lon": -76.989553, "rental_uris": {"android": "https://dc.lft.to/lastmile_qr_scan", "ios": "https://dc.lft.to/lastmile_qr_scan"}, "lat": 38.889092, "is_reserved": 0, "is_disabled": 0, "fusion_lat": 0.0}, {"fusion_lon": 0.0, "bike_id": "5ff22d0beeb34927e21aab5a659fd36b", "name": "5ff22d0beeb34927e21aab5a659fd36b", "type": "electric_scooter", "lon": -77.00524116666666, "rental_uris": {"android": "https://dc.lft.to/lastmile_qr_scan", "ios": "https://dc.lft.to/lastmile_qr_scan"}, "lat": 38.87956633333334, "is_reserved": 0, "is_disabled": 0, "fusion_lat": 0.0}, {"fusion_lon": 0.0, "bike_id": "bfbb02e39dfc9cb250f6e3dd23a4204e", "name": "bfbb02e39dfc9cb250f6e3dd23a4204e", "type": "electric_scooter", "lon": -77.020317, "rental_uris": {"android": "https://dc.lft.to/lastmile_qr_scan", "ios": "https://dc.lft.to/lastmile_qr_scan"}, "lat": 38.88125133333333, "is_reserved": 0, "is_disabled": 0, "fusion_lat": 0.0}, {"fusion_lon": 0.0, "bike_id": "59fb740d1f5f4be54b1ee6a2a4e302d8", "name": "59fb740d1f5f4be54b1ee6a2a4e302d8", "type": "electric_scooter", "lon": -77.02589866666666, "rental_uris": {"android": "https://dc.lft.to/lastmile_qr_scan", "ios": "https://dc.lft.to/lastmile_qr_scan"}, "lat": 38.904924, "is_reserved": 0, "is_disabled": 0, "fusion_lat": 0.0}, {"fusion_lon": 0.0, "bike_id": "b60e7dc5adbb127e715d911e5b46e76b", "name": "b60e7dc5adbb127e715d911e5b46e76b", "type": "electric_scooter", "lon": -77.03209033333333, "rental_uris": {"android": "https://dc.lft.to/lastmile_qr_scan", "ios": "https://dc.lft.to/lastmile_qr_scan"}, "lat": 38.91750066666667, "is_reserved": 0, "is_disabled": 0, "fusion_lat": 0.0}, {"fusion_lon": 0.0, "bike_id": "b31c2bcde12e018e28fc4d86658e38fa", "name": "b31c2bcde12e018e28fc4d86658e38fa", "type": "electric_scooter", "lon": -76.98683466666667, "rental_uris": {"android": "https://dc.lft.to/lastmile_qr_scan", "ios": "https://dc.lft.to/lastmile_qr_scan"}, "lat": 38.8853065, "is_reserved": 0, "is_disabled": 0, "fusion_lat": 0.0}, {"fusion_lon": 0.0, "bike_id": "fbef7e9008a0b6e25c4af80b159e1afc", "name": "fbef7e9008a0b6e25c4af80b159e1afc", "type": "electric_scooter", "lon": -77.03487116666666, "rental_uris": {"android": "https://dc.lft.to/lastmile_qr_scan", "ios": "https://dc.lft.to/lastmile_qr_scan"}, "lat": 38.92485116666667, "is_reserved": 0, "is_disabled": 0, "fusion_lat": 0.0}, {"fusion_lon": 0.0, "bike_id": "9865c2b15479467936171166acf7813d", "name": "9865c2b15479467936171166acf7813d", "type": "electric_bike", "lon": -76.971943, "rental_uris": {"android": "https://dc.lft.to/lastmile_qr_scan", "ios": "https://dc.lft.to/lastmile_qr_scan"}, "lat": 38.89250116666667, "is_reserved": 0, "is_disabled": 0, "fusion_lat": 0.0}, {"fusion_lon": 0.0, "bike_id": "075e3261457bd57390dac3e524594766", "name": "075e3261457bd57390dac3e524594766", "type": "electric_scooter", "lon": -77.02517883333333, "rental_uris": {"android": "https://dc.lft.to/lastmile_qr_scan", "ios": "https://dc.lft.to/lastmile_qr_scan"}, "lat": 38.920956333333336, "is_reserved": 0, "is_disabled": 0, "fusion_lat": 0.0}, {"fusion_lon": 0.0, "bike_id": "ce3cd0165fa3c5622563e2f1253d6a6d", "name": "ce3cd0165fa3c5622563e2f1253d6a6d", "type": "electric_scooter", "lon": -77.02753766666666, "rental_uris": {"android": "https://dc.lft.to/lastmile_qr_scan", "ios": "https://dc.lft.to/lastmile_qr_scan"}, "lat": 38.954144, "is_reserved": 0, "is_disabled": 0, "fusion_lat": 0.0}, {"fusion_lon": 0.0, "bike_id": "a1bfbc2406eb5d6053f5e6ab12370952", "name": "a1bfbc2406eb5d6053f5e6ab12370952", "type": "electric_scooter", "lon": -77.0465915, "rental_uris": {"android": "https://dc.lft.to/lastmile_qr_scan", "ios": "https://dc.lft.to/lastmile_qr_scan"}, "lat": 38.9036435, "is_reserved": 0, "is_disabled": 0, "fusion_lat": 0.0}, {"fusion_lon": 0.0, "bike_id": "ef3cff94add618834d96ffe7ee1edaeb", "name": "ef3cff94add618834d96ffe7ee1edaeb", "type": "electric_scooter", "lon": -77.0318465, "rental_uris": {"android": "https://dc.lft.to/lastmile_qr_scan", "ios": "https://dc.lft.to/lastmile_qr_scan"}, "lat": 38.89232333333333, "is_reserved": 0, "is_disabled": 0, "fusion_lat": 0.0}, {"fusion_lon": 0.0, "bike_id": "bcc5668adf8b6f044506d82d49ac2b73", "name": "bcc5668adf8b6f044506d82d49ac2b73", "type": "electric_scooter", "lon": -77.03860166666666, "rental_uris": {"android": "https://dc.lft.to/lastmile_qr_scan", "ios": "https://dc.lft.to/lastmile_qr_scan"}, "lat": 38.918398, "is_reserved": 0, "is_disabled": 0, "fusion_lat": 0.0}, {"fusion_lon": 0.0, "bike_id": "5cd9c9fcac6e1c2b51c89251aa30687e", "name": "5cd9c9fcac6e1c2b51c89251aa30687e", "type": "electric_scooter", "lon": -77.0282335, "rental_uris": {"android": "https://dc.lft.to/lastmile_qr_scan", "ios": "https://dc.lft.to/lastmile_qr_scan"}, "lat": 38.94830566666667, "is_reserved": 0, "is_disabled": 0, "fusion_lat": 0.0}, {"fusion_lon": 0.0, "bike_id": "40255a7d02bb5cec4a4e2d4973dab7e9", "name": "40255a7d02bb5cec4a4e2d4973dab7e9", "type": "electric_scooter", "lon": -77.05918266666667, "rental_uris": {"android": "https://dc.lft.to/lastmile_qr_scan", "ios": "https://dc.lft.to/lastmile_qr_scan"}, "lat": 38.936530166666664, "is_reserved": 0, "is_disabled": 0, "fusion_lat": 0.0}, {"fusion_lon": 0.0, "bike_id": "962ba09d342a120ca1b77682422110b1", "name": "962ba09d342a120ca1b77682422110b1", "type": "electric_scooter", "lon": -77.041637, "rental_uris": {"android": "https://dc.lft.to/lastmile_qr_scan", "ios": "https://dc.lft.to/lastmile_qr_scan"}, "lat": 38.916168, "is_reserved": 0, "is_disabled": 0, "fusion_lat": 0.0}, {"fusion_lon": 0.0, "bike_id": "c483fd92b55e16b8f7ad29a85aa5f8d2", "name": "c483fd92b55e16b8f7ad29a85aa5f8d2", "type": "electric_scooter", "lon": -77.0573795, "rental_uris": {"android": "https://dc.lft.to/lastmile_qr_scan", "ios": "https://dc.lft.to/lastmile_qr_scan"}, "lat": 38.9243385, "is_reserved": 0, "is_disabled": 0, "fusion_lat": 0.0}, {"fusion_lon": 0.0, "bike_id": "ada413d5a59cfa6715070c5eaf40e1ae", "name": "ada413d5a59cfa6715070c5eaf40e1ae", "type": "electric_scooter", "lon": -76.93841266666666, "rental_uris": {"android": "https://dc.lft.to/lastmile_qr_scan", "ios": "https://dc.lft.to/lastmile_qr_scan"}, "lat": 38.890176833333335, "is_reserved": 0, "is_disabled": 0, "fusion_lat": 0.0}, {"fusion_lon": 0.0, "bike_id": "28662bec375bfb8866889192f6e4c7f1", "name": "28662bec375bfb8866889192f6e4c7f1", "type": "electric_scooter", "lon": -76.99481266666666, "rental_uris": {"android": "https://dc.lft.to/lastmile_qr_scan", "ios": "https://dc.lft.to/lastmile_qr_scan"}, "lat": 38.862204166666665, "is_reserved": 0, "is_disabled": 0, "fusion_lat": 0.0}, {"fusion_lon": 0.0, "bike_id": "f2d2d7e1c5ee9898d9ac3a78f5d81310", "name": "f2d2d7e1c5ee9898d9ac3a78f5d81310", "type": "electric_scooter", "lon": -77.03946983333333, "rental_uris": {"android": "https://dc.lft.to/lastmile_qr_scan", "ios": "https://dc.lft.to/lastmile_qr_scan"}, "lat": 38.918188666666666, "is_reserved": 0, "is_disabled": 0, "fusion_lat": 0.0}, {"fusion_lon": 0.0, "bike_id": "fd76ed885f36cd30326287a090a7680f", "name": "fd76ed885f36cd30326287a090a7680f", "type": "electric_scooter", "lon": -77.03549883333334, "rental_uris": {"android": "https://dc.lft.to/lastmile_qr_scan", "ios": "https://dc.lft.to/lastmile_qr_scan"}, "lat": 38.924107, "is_reserved": 0, "is_disabled": 0, "fusion_lat": 0.0}, {"fusion_lon": 0.0, "bike_id": "4634a9a4f3bb83489df0c181148fe702", "name": "4634a9a4f3bb83489df0c181148fe702", "type": "electric_scooter", "lon": -77.0466785, "rental_uris": {"android": "https://dc.lft.to/lastmile_qr_scan", "ios": "https://dc.lft.to/lastmile_qr_scan"}, "lat": 38.9033385, "is_reserved": 0, "is_disabled": 0, "fusion_lat": 0.0}, {"fusion_lon": 0.0, "bike_id": "3da94cf1bab80c9e3dd60ea725e9167a", "name": "3da94cf1bab80c9e3dd60ea725e9167a", "type": "electric_bike", "lon": -77.125091, "rental_uris": {"android": "https://dc.lft.to/lastmile_qr_scan", "ios": "https://dc.lft.to/lastmile_qr_scan"}, "lat": 39.02428316666666, "is_reserved": 0, "is_disabled": 0, "fusion_lat": 0.0}, {"fusion_lon": 0.0, "bike_id": "0a75ad79005de545706964a873d04609", "name": "0a75ad79005de545706964a873d04609", "type": "electric_scooter", "lon": -77.03372783333333, "rental_uris": {"android": "https://dc.lft.to/lastmile_qr_scan", "ios": "https://dc.lft.to/lastmile_qr_scan"}, "lat": 38.9323, "is_reserved": 0, "is_disabled": 0, "fusion_lat": 0.0}, {"fusion_lon": 0.0, "bike_id": "f8aa749031d8793dca1f4ef052e756a8", "name": "f8aa749031d8793dca1f4ef052e756a8", "type": "electric_scooter", "lon": -77.01608466666667, "rental_uris": {"android": "https://dc.lft.to/lastmile_qr_scan", "ios": "https://dc.lft.to/lastmile_qr_scan"}, "lat": 38.87688033333333, "is_reserved": 0, "is_disabled": 0, "fusion_lat": 0.0}, {"fusion_lon": 0.0, "bike_id": "960da0e960dc0b11892dba76d3ed26b2", "name": "960da0e960dc0b11892dba76d3ed26b2", "type": "electric_bike", "lon": -77.02784016666666, "rental_uris": {"android": "https://dc.lft.to/lastmile_qr_scan", "ios": "https://dc.lft.to/lastmile_qr_scan"}, "lat": 38.9394925, "is_reserved": 0, "is_disabled": 0, "fusion_lat": 0.0}, {"fusion_lon": 0.0, "bike_id": "79ffec945e5bf00a6a3fe803dc35e8be", "name": "79ffec945e5bf00a6a3fe803dc35e8be", "type": "electric_scooter", "lon": -77.02960066666667, "rental_uris": {"android": "https://dc.lft.to/lastmile_qr_scan", "ios": "https://dc.lft.to/lastmile_qr_scan"}, "lat": 38.92071033333333, "is_reserved": 0, "is_disabled": 0, "fusion_lat": 0.0}, {"fusion_lon": 0.0, "bike_id": "f8921da3d86012122e103fdddabc8477", "name": "f8921da3d86012122e103fdddabc8477", "type": "electric_bike", "lon": -76.951624, "rental_uris": {"android": "https://dc.lft.to/lastmile_qr_scan", "ios": "https://dc.lft.to/lastmile_qr_scan"}, "lat": 38.885244, "is_reserved": 0, "is_disabled": 0, "fusion_lat": 0.0}, {"fusion_lon": 0.0, "bike_id": "ce466a4284e59e769ed3d615a60bbafd", "name": "ce466a4284e59e769ed3d615a60bbafd", "type": "electric_scooter", "lon": -77.023755, "rental_uris": {"android": "https://dc.lft.to/lastmile_qr_scan", "ios": "https://dc.lft.to/lastmile_qr_scan"}, "lat": 38.9072935, "is_reserved": 0, "is_disabled": 0, "fusion_lat": 0.0}, {"fusion_lon": 0.0, "bike_id": "5ad5be080dfdccedd05a269f68dfea18", "name": "5ad5be080dfdccedd05a269f68dfea18", "type": "electric_scooter", "lon": -77.021901, "rental_uris": {"android": "https://dc.lft.to/lastmile_qr_scan", "ios": "https://dc.lft.to/lastmile_qr_scan"}, "lat": 38.907939666666664, "is_reserved": 0, "is_disabled": 0, "fusion_lat": 0.0}, {"fusion_lon": 0.0, "bike_id": "955cc1bebd911b80bc993b7f5f883956", "name": "955cc1bebd911b80bc993b7f5f883956", "type": "electric_scooter", "lon": -77.03291383333334, "rental_uris": {"android": "https://dc.lft.to/lastmile_qr_scan", "ios": "https://dc.lft.to/lastmile_qr_scan"}, "lat": 38.938752, "is_reserved": 0, "is_disabled": 0, "fusion_lat": 0.0}, {"fusion_lon": 0.0, "bike_id": "fa04bafd5e9a68061c06963c878e884b", "name": "fa04bafd5e9a68061c06963c878e884b", "type": "electric_scooter", "lon": -77.0345975, "rental_uris": {"android": "https://dc.lft.to/lastmile_qr_scan", "ios": "https://dc.lft.to/lastmile_qr_scan"}, "lat": 38.921509, "is_reserved": 0, "is_disabled": 0, "fusion_lat": 0.0}, {"fusion_lon": 0.0, "bike_id": "5909d09dd1022d59b141a1bb76f7c2b4", "name": "5909d09dd1022d59b141a1bb76f7c2b4", "type": "electric_scooter", "lon": -77.03735016666667, "rental_uris": {"android": "https://dc.lft.to/lastmile_qr_scan", "ios": "https://dc.lft.to/lastmile_qr_scan"}, "lat": 38.92853733333333, "is_reserved": 0, "is_disabled": 0, "fusion_lat": 0.0}, {"fusion_lon": 0.0, "bike_id": "6deb4a2e5ecb3fe8334d93f7521a63f0", "name": "6deb4a2e5ecb3fe8334d93f7521a63f0", "type": "electric_scooter", "lon": -77.03827683333333, "rental_uris": {"android": "https://dc.lft.to/lastmile_qr_scan", "ios": "https://dc.lft.to/lastmile_qr_scan"}, "lat": 38.911098, "is_reserved": 0, "is_disabled": 0, "fusion_lat": 0.0}, {"fusion_lon": 0.0, "bike_id": "67dedc287cd6e3d3fa3db39b26ffdc6a", "name": "67dedc287cd6e3d3fa3db39b26ffdc6a", "type": "electric_scooter", "lon": -77.044204, "rental_uris": {"android": "https://dc.lft.to/lastmile_qr_scan", "ios": "https://dc.lft.to/lastmile_qr_scan"}, "lat": 38.89408266666667, "is_reserved": 0, "is_disabled": 0, "fusion_lat": 0.0}, {"fusion_lon": 0.0, "bike_id": "d29b4f8c35374868891c375cca840822", "name": "d29b4f8c35374868891c375cca840822", "type": "electric_scooter", "lon": -76.98992916666667, "rental_uris": {"android": "https://dc.lft.to/lastmile_qr_scan", "ios": "https://dc.lft.to/lastmile_qr_scan"}, "lat": 38.864429, "is_reserved": 0, "is_disabled": 0, "fusion_lat": 0.0}, {"fusion_lon": 0.0, "bike_id": "7d46942e30c193d456e3f4699d08688d", "name": "7d46942e30c193d456e3f4699d08688d", "type": "electric_scooter", "lon": -76.94632116666666, "rental_uris": {"android": "https://dc.lft.to/lastmile_qr_scan", "ios": "https://dc.lft.to/lastmile_qr_scan"}, "lat": 38.89846, "is_reserved": 0, "is_disabled": 0, "fusion_lat": 0.0}, {"fusion_lon": 0.0, "bike_id": "cacc0b660b28d4a0236f8abfd662e8b2", "name": "cacc0b660b28d4a0236f8abfd662e8b2", "type": "electric_scooter", "lon": -77.02694766666667, "rental_uris": {"android": "https://dc.lft.to/lastmile_qr_scan", "ios": "https://dc.lft.to/lastmile_qr_scan"}, "lat": 38.93636016666667, "is_reserved": 0, "is_disabled": 0, "fusion_lat": 0.0}, {"fusion_lon": 0.0, "bike_id": "6061d25d7f8720357fd21aeea0536963", "name": "6061d25d7f8720357fd21aeea0536963", "type": "electric_scooter", "lon": -77.04983333333334, "rental_uris": {"android": "https://dc.lft.to/lastmile_qr_scan", "ios": "https://dc.lft.to/lastmile_qr_scan"}, "lat": 38.8968205, "is_reserved": 0, "is_disabled": 0, "fusion_lat": 0.0}, {"fusion_lon": 0.0, "bike_id": "df3fc4449bccbef9c2cddad358a33b9c", "name": "df3fc4449bccbef9c2cddad358a33b9c", "type": "electric_scooter", "lon": -77.004548, "rental_uris": {"android": "https://dc.lft.to/lastmile_qr_scan", "ios": "https://dc.lft.to/lastmile_qr_scan"}, "lat": 38.9117555, "is_reserved": 0, "is_disabled": 0, "fusion_lat": 0.0}, {"fusion_lon": 0.0, "bike_id": "74ed83cfff7913c21ef779bf26d2cd28", "name": "74ed83cfff7913c21ef779bf26d2cd28", "type": "electric_scooter", "lon": -77.04165116666667, "rental_uris": {"android": "https://dc.lft.to/lastmile_qr_scan", "ios": "https://dc.lft.to/lastmile_qr_scan"}, "lat": 38.911026666666665, "is_reserved": 0, "is_disabled": 0, "fusion_lat": 0.0}, {"fusion_lon": 0.0, "bike_id": "0b3f09498f916d6efc7982a615cf68cd", "name": "0b3f09498f916d6efc7982a615cf68cd", "type": "electric_bike", "lon": -77.01378433333333, "rental_uris": {"android": "https://dc.lft.to/lastmile_qr_scan", "ios": "https://dc.lft.to/lastmile_qr_scan"}, "lat": 38.942416, "is_reserved": 0, "is_disabled": 0, "fusion_lat": 0.0}, {"fusion_lon": 0.0, "bike_id": "ffb6c97538dd8891bd69d2084f3a29de", "name": "ffb6c97538dd8891bd69d2084f3a29de", "type": "electric_scooter", "lon": -76.99375883333333, "rental_uris": {"android": "https://dc.lft.to/lastmile_qr_scan", "ios": "https://dc.lft.to/lastmile_qr_scan"}, "lat": 38.92413366666667, "is_reserved": 0, "is_disabled": 0, "fusion_lat": 0.0}, {"fusion_lon": 0.0, "bike_id": "650309264ac233bf7cea5d8d89b1ea23", "name": "650309264ac233bf7cea5d8d89b1ea23", "type": "electric_scooter", "lon": -77.04154533333333, "rental_uris": {"android": "https://dc.lft.to/lastmile_qr_scan", "ios": "https://dc.lft.to/lastmile_qr_scan"}, "lat": 38.9175035, "is_reserved": 0, "is_disabled": 0, "fusion_lat": 0.0}, {"fusion_lon": 0.0, "bike_id": "ede5f0c3346d28b3a9afcf02e4035852", "name": "ede5f0c3346d28b3a9afcf02e4035852", "type": "electric_scooter", "lon": -77.01553833333334, "rental_uris": {"android": "https://dc.lft.to/lastmile_qr_scan", "ios": "https://dc.lft.to/lastmile_qr_scan"}, "lat": 38.913718, "is_reserved": 0, "is_disabled": 0, "fusion_lat": 0.0}, {"fusion_lon": 0.0, "bike_id": "3b1e5957bdc7237fc2b0f904b617c72a", "name": "3b1e5957bdc7237fc2b0f904b617c72a", "type": "electric_scooter", "lon": -76.9920755, "rental_uris": {"android": "https://dc.lft.to/lastmile_qr_scan", "ios": "https://dc.lft.to/lastmile_qr_scan"}, "lat": 38.89518, "is_reserved": 0, "is_disabled": 0, "fusion_lat": 0.0}, {"fusion_lon": 0.0, "bike_id": "1def2054845a128c6e9de84d49159b26", "name": "1def2054845a128c6e9de84d49159b26", "type": "electric_scooter", "lon": -77.06601883333333, "rental_uris": {"android": "https://dc.lft.to/lastmile_qr_scan", "ios": "https://dc.lft.to/lastmile_qr_scan"}, "lat": 38.90455466666667, "is_reserved": 0, "is_disabled": 0, "fusion_lat": 0.0}, {"fusion_lon": 0.0, "bike_id": "e7d72f6282551955ad571aa5a0d2bc0f", "name": "e7d72f6282551955ad571aa5a0d2bc0f", "type": "electric_scooter", "lon": -77.021019, "rental_uris": {"android": "https://dc.lft.to/lastmile_qr_scan", "ios": "https://dc.lft.to/lastmile_qr_scan"}, "lat": 38.897550333333335, "is_reserved": 0, "is_disabled": 0, "fusion_lat": 0.0}, {"fusion_lon": 0.0, "bike_id": "13f72be1d2a4c6385d9ecd878c751035", "name": "13f72be1d2a4c6385d9ecd878c751035", "type": "electric_scooter", "lon": -77.031837, "rental_uris": {"android": "https://dc.lft.to/lastmile_qr_scan", "ios": "https://dc.lft.to/lastmile_qr_scan"}, "lat": 38.913556, "is_reserved": 0, "is_disabled": 0, "fusion_lat": 0.0}, {"fusion_lon": 0.0, "bike_id": "509a7af76ba43985a87495aeba5473d3", "name": "509a7af76ba43985a87495aeba5473d3", "type": "electric_scooter", "lon": -77.0054665, "rental_uris": {"android": "https://dc.lft.to/lastmile_qr_scan", "ios": "https://dc.lft.to/lastmile_qr_scan"}, "lat": 38.902476666666665, "is_reserved": 0, "is_disabled": 0, "fusion_lat": 0.0}, {"fusion_lon": 0.0, "bike_id": "c0d6e36889505d7a77981e7e96ab8d01", "name": "c0d6e36889505d7a77981e7e96ab8d01", "type": "electric_scooter", "lon": -77.01381666666667, "rental_uris": {"android": "https://dc.lft.to/lastmile_qr_scan", "ios": "https://dc.lft.to/lastmile_qr_scan"}, "lat": 38.91016783333333, "is_reserved": 0, "is_disabled": 0, "fusion_lat": 0.0}, {"fusion_lon": 0.0, "bike_id": "b87f5e923ec20f37addc028477e4bf31", "name": "b87f5e923ec20f37addc028477e4bf31", "type": "electric_scooter", "lon": -77.0218255, "rental_uris": {"android": "https://dc.lft.to/lastmile_qr_scan", "ios": "https://dc.lft.to/lastmile_qr_scan"}, "lat": 38.879210666666665, "is_reserved": 0, "is_disabled": 0, "fusion_lat": 0.0}, {"fusion_lon": 0.0, "bike_id": "e874b61eb821b1124a11b5940a8a2071", "name": "e874b61eb821b1124a11b5940a8a2071", "type": "electric_scooter", "lon": -77.02152866666667, "rental_uris": {"android": "https://dc.lft.to/lastmile_qr_scan", "ios": "https://dc.lft.to/lastmile_qr_scan"}, "lat": 38.926039833333334, "is_reserved": 0, "is_disabled": 0, "fusion_lat": 0.0}, {"fusion_lon": 0.0, "bike_id": "8c42b649a645968783a2d6cae451ff8f", "name": "8c42b649a645968783a2d6cae451ff8f", "type": "electric_scooter", "lon": -77.00480566666667, "rental_uris": {"android": "https://dc.lft.to/lastmile_qr_scan", "ios": "https://dc.lft.to/lastmile_qr_scan"}, "lat": 38.925933, "is_reserved": 0, "is_disabled": 0, "fusion_lat": 0.0}, {"fusion_lon": 0.0, "bike_id": "ef2e26a393b25715a3b198f1f64c92c9", "name": "ef2e26a393b25715a3b198f1f64c92c9", "type": "electric_bike", "lon": -77.12747783333333, "rental_uris": {"android": "https://dc.lft.to/lastmile_qr_scan", "ios": "https://dc.lft.to/lastmile_qr_scan"}, "lat": 38.8882325, "is_reserved": 0, "is_disabled": 0, "fusion_lat": 0.0}, {"fusion_lon": 0.0, "bike_id": "22879cfb816837b2ba0046bc4394af84", "name": "22879cfb816837b2ba0046bc4394af84", "type": "electric_scooter", "lon": -77.03871216666667, "rental_uris": {"android": "https://dc.lft.to/lastmile_qr_scan", "ios": "https://dc.lft.to/lastmile_qr_scan"}, "lat": 38.915623, "is_reserved": 0, "is_disabled": 0, "fusion_lat": 0.0}, {"fusion_lon": 0.0, "bike_id": "e6ccd30b372a320379dcdf69f4b549e1", "name": "e6ccd30b372a320379dcdf69f4b549e1", "type": "electric_scooter", "lon": -77.0634775, "rental_uris": {"android": "https://dc.lft.to/lastmile_qr_scan", "ios": "https://dc.lft.to/lastmile_qr_scan"}, "lat": 38.944448666666666, "is_reserved": 0, "is_disabled": 0, "fusion_lat": 0.0}, {"fusion_lon": 0.0, "bike_id": "36a3609a83f95221c368513b14c8a1ac", "name": "36a3609a83f95221c368513b14c8a1ac", "type": "electric_scooter", "lon": -77.02284166666666, "rental_uris": {"android": "https://dc.lft.to/lastmile_qr_scan", "ios": "https://dc.lft.to/lastmile_qr_scan"}, "lat": 38.9081945, "is_reserved": 0, "is_disabled": 0, "fusion_lat": 0.0}, {"fusion_lon": 0.0, "bike_id": "1885f36fbe51e2a6cf716f0d6029ad73", "name": "1885f36fbe51e2a6cf716f0d6029ad73", "type": "electric_scooter", "lon": -77.02097616666667, "rental_uris": {"android": "https://dc.lft.to/lastmile_qr_scan", "ios": "https://dc.lft.to/lastmile_qr_scan"}, "lat": 38.89739766666667, "is_reserved": 0, "is_disabled": 0, "fusion_lat": 0.0}, {"fusion_lon": 0.0, "bike_id": "f1abde2f68cf28a79f04129047d7b211", "name": "f1abde2f68cf28a79f04129047d7b211", "type": "electric_scooter", "lon": -77.02466583333333, "rental_uris": {"android": "https://dc.lft.to/lastmile_qr_scan", "ios": "https://dc.lft.to/lastmile_qr_scan"}, "lat": 38.93769566666667, "is_reserved": 0, "is_disabled": 0, "fusion_lat": 0.0}, {"fusion_lon": 0.0, "bike_id": "4521d5e848ddebe182787ed669919267", "name": "4521d5e848ddebe182787ed669919267", "type": "electric_scooter", "lon": -76.9867535, "rental_uris": {"android": "https://dc.lft.to/lastmile_qr_scan", "ios": "https://dc.lft.to/lastmile_qr_scan"}, "lat": 38.855703, "is_reserved": 0, "is_disabled": 0, "fusion_lat": 0.0}, {"fusion_lon": 0.0, "bike_id": "ed219942480315c6ae0ffdfdef94444e", "name": "ed219942480315c6ae0ffdfdef94444e", "type": "electric_scooter", "lon": -77.0153225, "rental_uris": {"android": "https://dc.lft.to/lastmile_qr_scan", "ios": "https://dc.lft.to/lastmile_qr_scan"}, "lat": 38.884868833333336, "is_reserved": 0, "is_disabled": 0, "fusion_lat": 0.0}, {"fusion_lon": 0.0, "bike_id": "39645c7570a73a7781e1920457f12ab5", "name": "39645c7570a73a7781e1920457f12ab5", "type": "electric_scooter", "lon": -77.0125615, "rental_uris": {"android": "https://dc.lft.to/lastmile_qr_scan", "ios": "https://dc.lft.to/lastmile_qr_scan"}, "lat": 38.874832833333336, "is_reserved": 0, "is_disabled": 0, "fusion_lat": 0.0}, {"fusion_lon": 0.0, "bike_id": "b1f92236f47c18670a349e1d9d85a4c7", "name": "b1f92236f47c18670a349e1d9d85a4c7", "type": "electric_scooter", "lon": -77.00760733333334, "rental_uris": {"android": "https://dc.lft.to/lastmile_qr_scan", "ios": "https://dc.lft.to/lastmile_qr_scan"}, "lat": 38.90055683333333, "is_reserved": 0, "is_disabled": 0, "fusion_lat": 0.0}, {"fusion_lon": 0.0, "bike_id": "f561048e6a63246cb09263e410aa824c", "name": "f561048e6a63246cb09263e410aa824c", "type": "electric_scooter", "lon": -76.98772083333333, "rental_uris": {"android": "https://dc.lft.to/lastmile_qr_scan", "ios": "https://dc.lft.to/lastmile_qr_scan"}, "lat": 38.912035, "is_reserved": 0, "is_disabled": 0, "fusion_lat": 0.0}, {"fusion_lon": 0.0, "bike_id": "1308f35e39eae4870e4618ed4398eaa3", "name": "1308f35e39eae4870e4618ed4398eaa3", "type": "electric_scooter", "lon": -77.02722266666666, "rental_uris": {"android": "https://dc.lft.to/lastmile_qr_scan", "ios": "https://dc.lft.to/lastmile_qr_scan"}, "lat": 38.924815833333334, "is_reserved": 0, "is_disabled": 0, "fusion_lat": 0.0}, {"fusion_lon": 0.0, "bike_id": "8142a453fa5b973bf9b3b89bee46ea16", "name": "8142a453fa5b973bf9b3b89bee46ea16", "type": "electric_scooter", "lon": -77.02465766666667, "rental_uris": {"android": "https://dc.lft.to/lastmile_qr_scan", "ios": "https://dc.lft.to/lastmile_qr_scan"}, "lat": 38.90326133333333, "is_reserved": 0, "is_disabled": 0, "fusion_lat": 0.0}, {"fusion_lon": 0.0, "bike_id": "7fb94259699b32262c98f9c5fba97005", "name": "7fb94259699b32262c98f9c5fba97005", "type": "electric_scooter", "lon": -76.94118266666666, "rental_uris": {"android": "https://dc.lft.to/lastmile_qr_scan", "ios": "https://dc.lft.to/lastmile_qr_scan"}, "lat": 38.907948166666664, "is_reserved": 0, "is_disabled": 0, "fusion_lat": 0.0}, {"fusion_lon": 0.0, "bike_id": "6d421518c4b26830cc53310b7f2bc2dc", "name": "6d421518c4b26830cc53310b7f2bc2dc", "type": "electric_scooter", "lon": -77.03159616666667, "rental_uris": {"android": "https://dc.lft.to/lastmile_qr_scan", "ios": "https://dc.lft.to/lastmile_qr_scan"}, "lat": 38.90771383333333, "is_reserved": 0, "is_disabled": 0, "fusion_lat": 0.0}, {"fusion_lon": 0.0, "bike_id": "da98930a4efc012d1f24e1d634cc9788", "name": "da98930a4efc012d1f24e1d634cc9788", "type": "electric_scooter", "lon": -77.0366205, "rental_uris": {"android": "https://dc.lft.to/lastmile_qr_scan", "ios": "https://dc.lft.to/lastmile_qr_scan"}, "lat": 38.9113885, "is_reserved": 0, "is_disabled": 0, "fusion_lat": 0.0}, {"fusion_lon": 0.0, "bike_id": "863dd49ed0d0b3ffd2468042b1d93c1d", "name": "863dd49ed0d0b3ffd2468042b1d93c1d", "type": "electric_scooter", "lon": -77.0395795, "rental_uris": {"android": "https://dc.lft.to/lastmile_qr_scan", "ios": "https://dc.lft.to/lastmile_qr_scan"}, "lat": 38.92611933333333, "is_reserved": 0, "is_disabled": 0, "fusion_lat": 0.0}, {"fusion_lon": 0.0, "bike_id": "c26a0a2b5a7b80ee790a555c8303158e", "name": "c26a0a2b5a7b80ee790a555c8303158e", "type": "electric_scooter", "lon": -77.004418, "rental_uris": {"android": "https://dc.lft.to/lastmile_qr_scan", "ios": "https://dc.lft.to/lastmile_qr_scan"}, "lat": 38.92889483333333, "is_reserved": 0, "is_disabled": 0, "fusion_lat": 0.0}, {"fusion_lon": 0.0, "bike_id": "99431422ebdedc64cfb48cbe12d477b9", "name": "99431422ebdedc64cfb48cbe12d477b9", "type": "electric_scooter", "lon": -77.032649, "rental_uris": {"android": "https://dc.lft.to/lastmile_qr_scan", "ios": "https://dc.lft.to/lastmile_qr_scan"}, "lat": 38.93525016666667, "is_reserved": 0, "is_disabled": 0, "fusion_lat": 0.0}, {"fusion_lon": 0.0, "bike_id": "2e83677f67c1a36715ad87d95d3b143e", "name": "2e83677f67c1a36715ad87d95d3b143e", "type": "electric_scooter", "lon": -77.04791883333333, "rental_uris": {"android": "https://dc.lft.to/lastmile_qr_scan", "ios": "https://dc.lft.to/lastmile_qr_scan"}, "lat": 38.897791833333336, "is_reserved": 0, "is_disabled": 0, "fusion_lat": 0.0}, {"fusion_lon": 0.0, "bike_id": "ab51ccefc6638870cc941e26f11b2304", "name": "ab51ccefc6638870cc941e26f11b2304", "type": "electric_scooter", "lon": -77.04685333333333, "rental_uris": {"android": "https://dc.lft.to/lastmile_qr_scan", "ios": "https://dc.lft.to/lastmile_qr_scan"}, "lat": 38.9158765, "is_reserved": 0, "is_disabled": 0, "fusion_lat": 0.0}, {"fusion_lon": 0.0, "bike_id": "ef0b9f32d3ac107c175cb5c75612bc3f", "name": "ef0b9f32d3ac107c175cb5c75612bc3f", "type": "electric_scooter", "lon": -77.03634183333334, "rental_uris": {"android": "https://dc.lft.to/lastmile_qr_scan", "ios": "https://dc.lft.to/lastmile_qr_scan"}, "lat": 38.93668066666667, "is_reserved": 0, "is_disabled": 0, "fusion_lat": 0.0}, {"fusion_lon": 0.0, "bike_id": "423de00f838a4daf9499e92794032ad9", "name": "423de00f838a4daf9499e92794032ad9", "type": "electric_scooter", "lon": -77.02798066666666, "rental_uris": {"android": "https://dc.lft.to/lastmile_qr_scan", "ios": "https://dc.lft.to/lastmile_qr_scan"},