{"data": {"bikes": [{"bike_id": "a3a953a1c05625256401b5dc88c3caee", "type": "electric_scooter", "is_disabled": 0, "lat": 38.92372316666667, "rental_uris": {"ios": "https://dc.lft.to/lastmile_qr_scan", "android": "https://dc.lft.to/lastmile_qr_scan"}, "is_reserved": 0, "fusion_lon": 0.0, "fusion_lat": 0.0, "lon": -77.05148466666667, "name": "a3a953a1c05625256401b5dc88c3caee"}, {"bike_id": "b2cff6e4f8a1819a483050503ac5bab4", "type": "electric_scooter", "is_disabled": 0, "lat": 38.911216833333334, "rental_uris": {"ios": "https://dc.lft.to/lastmile_qr_scan", "android": "https://dc.lft.to/lastmile_qr_scan"}, "is_reserved": 0, "fusion_lon": 0.0, "fusion_lat": 0.0, "lon": -77.03208066666667, "name": "b2cff6e4f8a1819a483050503ac5bab4"}, {"bike_id": "10f0afb53f494a4539bd198457721804", "type": "electric_scooter", "is_disabled": 0, "lat": 38.926566, "rental_uris": {"ios": "https://dc.lft.to/lastmile_qr_scan", "android": "https://dc.lft.to/lastmile_qr_scan"}, "is_reserved": 0, "fusion_lon": 0.0, "fusion_lat": 0.0, "lon": -77.0240805, "name": "10f0afb53f494a4539bd198457721804"}, {"bike_id": "d576bc246eb856d71a608d0e43284bea", "type": "electric_scooter", "is_disabled": 0, "lat": 38.876565, "rental_uris": {"ios": "https://dc.lft.to/lastmile_qr_scan", "android": "https://dc.lft.to/lastmile_qr_scan"}, "is_reserved": 0, "fusion_lon": 0.0, "fusion_lat": 0.0, "lon": -77.0044385, "name": "d576bc246eb856d71a608d0e43284bea"}, {"bike_id": "bfcfe46eba585669fe022473e6683c44", "type": "electric_scooter", "is_disabled": 0, "lat": 38.918142833333334, "rental_uris": {"ios": "https://dc.lft.to/lastmile_qr_scan", "android": "https://dc.lft.to/lastmile_qr_scan"}, "is_reserved": 0, "fusion_lon": 0.0, "fusion_lat": 0.0, "lon": -77.024755, "name": "bfcfe46eba585669fe022473e6683c44"}, {"bike_id": "d7767bf5900341e0d98b877f29827f86", "type": "electric_scooter", "is_disabled": 0, "lat": 38.92152216666667, "rental_uris": {"ios": "https://dc.lft.to/lastmile_qr_scan", "android": "https://dc.lft.to/lastmile_qr_scan"}, "is_reserved": 0, "fusion_lon": 0.0, "fusion_lat": 0.0, "lon": -77.03519233333333, "name": "d7767bf5900341e0d98b877f29827f86"}, {"bike_id": "9d4ed45ceb7c7d7d97ae3aa7b1b9000c", "type": "electric_scooter", "is_disabled": 0, "lat": 38.92596666666667, "rental_uris": {"ios": "https://dc.lft.to/lastmile_qr_scan", "android": "https://dc.lft.to/lastmile_qr_scan"}, "is_reserved": 0, "fusion_lon": 0.0, "fusion_lat": 0.0, "lon": -77.07332033333333, "name": "9d4ed45ceb7c7d7d97ae3aa7b1b9000c"}, {"bike_id": "fe05be37b3ef73336fc52ebab6915130", "type": "electric_scooter", "is_disabled": 0, "lat": 38.887491, "rental_uris": {"ios": "https://dc.lft.to/lastmile_qr_scan", "android": "https://dc.lft.to/lastmile_qr_scan"}, "is_reserved": 0, "fusion_lon": 0.0, "fusion_lat": 0.0, "lon": -77.01726416666666, "name": "fe05be37b3ef73336fc52ebab6915130"}, {"bike_id": "fb8466b981afb7c6fbb08bc57e632758", "type": "electric_scooter", "is_disabled": 0, "lat": 38.89842516666667, "rental_uris": {"ios": "https://dc.lft.to/lastmile_qr_scan", "android": "https://dc.lft.to/lastmile_qr_scan"}, "is_reserved": 0, "fusion_lon": 0.0, "fusion_lat": 0.0, "lon": -76.94634833333333, "name": "fb8466b981afb7c6fbb08bc57e632758"}, {"bike_id": "d765c392675587bc1cecbaf91bbd6e29", "type": "electric_scooter", "is_disabled": 0, "lat": 38.91683716666667, "rental_uris": {"ios": "https://dc.lft.to/lastmile_qr_scan", "android": "https://dc.lft.to/lastmile_qr_scan"}, "is_reserved": 0, "fusion_lon": 0.0, "fusion_lat": 0.0, "lon": -77.029621, "name": "d765c392675587bc1cecbaf91bbd6e29"}, {"bike_id": "819ccf5aae87bae80df3b99e5f05abde", "type": "electric_bike", "is_disabled": 0, "lat": 38.90204583333333, "rental_uris": {"ios": "https://dc.lft.to/lastmile_qr_scan", "android": "https://dc.lft.to/lastmile_qr_scan"}, "is_reserved": 0, "fusion_lon": 0.0, "fusion_lat": 0.0, "lon": -76.974103, "name": "819ccf5aae87bae80df3b99e5f05abde"}, {"bike_id": "1ac0af099652f7e85bff4ab4301fbc71", "type": "electric_scooter", "is_disabled": 0, "lat": 38.906434833333336, "rental_uris": {"ios": "https://dc.lft.to/lastmile_qr_scan", "android": "https://dc.lft.to/lastmile_qr_scan"}, "is_reserved": 0, "fusion_lon": 0.0, "fusion_lat": 0.0, "lon": -77.00986116666667, "name": "1ac0af099652f7e85bff4ab4301fbc71"}, {"bike_id": "a027b29b9942674584fedb9321d13deb", "type": "electric_bike", "is_disabled": 0, "lat": 38.926441, "rental_uris": {"ios": "https://dc.lft.to/lastmile_qr_scan", "android": "https://dc.lft.to/lastmile_qr_scan"}, "is_reserved": 0, "fusion_lon": 0.0, "fusion_lat": 0.0, "lon": -76.98423566666666, "name": "a027b29b9942674584fedb9321d13deb"}, {"bike_id": "64c30aa2f3170ea938e2f0d8e9e29124", "type": "electric_bike", "is_disabled": 0, "lat": 38.924460333333336, "rental_uris": {"ios": "https://dc.lft.to/lastmile_qr_scan", "android": "https://dc.lft.to/lastmile_qr_scan"}, "is_reserved": 0, "fusion_lon": 0.0, "fusion_lat": 0.0, "lon": -77.225637, "name": "64c30aa2f3170ea938e2f0d8e9e29124"}, {"bike_id": "ffc5698e3d496baf336d7bdd561bba78", "type": "electric_scooter", "is_disabled": 0, "lat": 38.94193966666667, "rental_uris": {"ios": "https://dc.lft.to/lastmile_qr_scan", "android": "https://dc.lft.to/lastmile_qr_scan"}, "is_reserved": 0, "fusion_lon": 0.0, "fusion_lat": 0.0, "lon": -77.02435033333333, "name": "ffc5698e3d496baf336d7bdd561bba78"}, {"bike_id": "857ad1b4a15391b3e58d1f25b7f01170", "type": "electric_scooter", "is_disabled": 0, "lat": 38.906836, "rental_uris": {"ios": "https://dc.lft.to/lastmile_qr_scan", "android": "https://dc.lft.to/lastmile_qr_scan"}, "is_reserved": 0, "fusion_lon": 0.0, "fusion_lat": 0.0, "lon": -77.02388183333333, "name": "857ad1b4a15391b3e58d1f25b7f01170"}, {"bike_id": "c851772ca9380b70639b6b38bc7dd6b1", "type": "electric_scooter", "is_disabled": 0, "lat": 38.903749, "rental_uris": {"ios": "https://dc.lft.to/lastmile_qr_scan", "android": "https://dc.lft.to/lastmile_qr_scan"}, "is_reserved": 0, "fusion_lon": 0.0, "fusion_lat": 0.0, "lon": -77.02922733333334, "name": "c851772ca9380b70639b6b38bc7dd6b1"}, {"bike_id": "cafac466f817abfd91d1994e73a6784a", "type": "electric_bike", "is_disabled": 0, "lat": 38.93672566666667, "rental_uris": {"ios": "https://dc.lft.to/lastmile_qr_scan", "android": "https://dc.lft.to/lastmile_qr_scan"}, "is_reserved": 0, "fusion_lon": 0.0, "fusion_lat": 0.0, "lon": -76.95206166666667, "name": "cafac466f817abfd91d1994e73a6784a"}, {"bike_id": "57c3f4e068319248d519ccaa791e45a9", "type": "electric_scooter", "is_disabled": 0, "lat": 38.914577333333334, "rental_uris": {"ios": "https://dc.lft.to/lastmile_qr_scan", "android": "https://dc.lft.to/lastmile_qr_scan"}, "is_reserved": 0, "fusion_lon": 0.0, "fusion_lat": 0.0, "lon": -77.02291, "name": "57c3f4e068319248d519ccaa791e45a9"}, {"bike_id": "25f02ea83df2427a52edf87888341d45", "type": "electric_scooter", "is_disabled": 0, "lat": 38.92766833333334, "rental_uris": {"ios": "https://dc.lft.to/lastmile_qr_scan", "android": "https://dc.lft.to/lastmile_qr_scan"}, "is_reserved": 0, "fusion_lon": 0.0, "fusion_lat": 0.0, "lon": -77.027362, "name": "25f02ea83df2427a52edf87888341d45"}, {"bike_id": "23cc0fc12254b0338ebdf6e8e1e72545", "type": "electric_scooter", "is_disabled": 0, "lat": 38.90471183333333, "rental_uris": {"ios": "https://dc.lft.to/lastmile_qr_scan", "android": "https://dc.lft.to/lastmile_qr_scan"}, "is_reserved": 0, "fusion_lon": 0.0, "fusion_lat": 0.0, "lon": -77.00918433333334, "name": "23cc0fc12254b0338ebdf6e8e1e72545"}, {"bike_id": "b69d8175f825eda7c1bd7ad4b3ee51cb", "type": "electric_scooter", "is_disabled": 0, "lat": 38.89737516666667, "rental_uris": {"ios": "https://dc.lft.to/lastmile_qr_scan", "android": "https://dc.lft.to/lastmile_qr_scan"}, "is_reserved": 0, "fusion_lon": 0.0, "fusion_lat": 0.0, "lon": -76.947228, "name": "b69d8175f825eda7c1bd7ad4b3ee51cb"}, {"bike_id": "bfba0d131b207aff432240bb40807b86", "type": "electric_bike", "is_disabled": 0, "lat": 38.85892616666667, "rental_uris": {"ios": "https://dc.lft.to/lastmile_qr_scan", "android": "https://dc.lft.to/lastmile_qr_scan"}, "is_reserved": 0, "fusion_lon": 0.0, "fusion_lat": 0.0, "lon": -77.11866383333333, "name": "bfba0d131b207aff432240bb40807b86"}, {"bike_id": "4987e6297c0027b1fd5884f4c148ce52", "type": "electric_scooter", "is_disabled": 0, "lat": 38.880633, "rental_uris": {"ios": "https://dc.lft.to/lastmile_qr_scan", "android": "https://dc.lft.to/lastmile_qr_scan"}, "is_reserved": 0, "fusion_lon": 0.0, "fusion_lat": 0.0, "lon": -77.0255685, "name": "4987e6297c0027b1fd5884f4c148ce52"}, {"bike_id": "a520ed7f4cd9ffd5028ca81d9b97220e", "type": "electric_scooter", "is_disabled": 0, "lat": 38.91590933333333, "rental_uris": {"ios": "https://dc.lft.to/lastmile_qr_scan", "android": "https://dc.lft.to/lastmile_qr_scan"}, "is_reserved": 0, "fusion_lon": 0.0, "fusion_lat": 0.0, "lon": -77.00202183333333, "name": "a520ed7f4cd9ffd5028ca81d9b97220e"}, {"bike_id": "51119816d66973b2c13af907451627ae", "type": "electric_scooter", "is_disabled": 0, "lat": 38.905288666666664, "rental_uris": {"ios": "https://dc.lft.to/lastmile_qr_scan", "android": "https://dc.lft.to/lastmile_qr_scan"}, "is_reserved": 0, "fusion_lon": 0.0, "fusion_lat": 0.0, "lon": -77.05813733333333, "name": "51119816d66973b2c13af907451627ae"}, {"bike_id": "0889a3929f9dff0d7e8525d211575f2a", "type": "electric_scooter", "is_disabled": 0, "lat": 38.908102166666666, "rental_uris": {"ios": "https://dc.lft.to/lastmile_qr_scan", "android": "https://dc.lft.to/lastmile_qr_scan"}, "is_reserved": 0, "fusion_lon": 0.0, "fusion_lat": 0.0, "lon": -77.04970466666667, "name": "0889a3929f9dff0d7e8525d211575f2a"}, {"bike_id": "abdc04477e2de95778d797b1cb88b734", "type": "electric_scooter", "is_disabled": 0, "lat": 38.899715666666665, "rental_uris": {"ios": "https://dc.lft.to/lastmile_qr_scan", "android": "https://dc.lft.to/lastmile_qr_scan"}, "is_reserved": 0, "fusion_lon": 0.0, "fusion_lat": 0.0, "lon": -76.98306016666666, "name": "abdc04477e2de95778d797b1cb88b734"}, {"bike_id": "6ed31e6722aeea82bb1b3a711fc4e588", "type": "electric_scooter", "is_disabled": 0, "lat": 38.90274633333333, "rental_uris": {"ios": "https://dc.lft.to/lastmile_qr_scan", "android": "https://dc.lft.to/lastmile_qr_scan"}, "is_reserved": 0, "fusion_lon": 0.0, "fusion_lat": 0.0, "lon": -77.03574616666667, "name": "6ed31e6722aeea82bb1b3a711fc4e588"}, {"bike_id": "a1b8f27f2e65be4fcf1b67c66a014496", "type": "electric_scooter", "is_disabled": 0, "lat": 38.900511, "rental_uris": {"ios": "https://dc.lft.to/lastmile_qr_scan", "android": "https://dc.lft.to/lastmile_qr_scan"}, "is_reserved": 0, "fusion_lon": 0.0, "fusion_lat": 0.0, "lon": -77.05072233333334, "name": "a1b8f27f2e65be4fcf1b67c66a014496"}, {"bike_id": "567c0fcef1445122da207b521ffd2583", "type": "electric_scooter", "is_disabled": 0, "lat": 38.897015, "rental_uris": {"ios": "https://dc.lft.to/lastmile_qr_scan", "android": "https://dc.lft.to/lastmile_qr_scan"}, "is_reserved": 0, "fusion_lon": 0.0, "fusion_lat": 0.0, "lon": -76.92998616666667, "name": "567c0fcef1445122da207b521ffd2583"}, {"bike_id": "1986bb1685b41d4f9113688f97096490", "type": "electric_bike", "is_disabled": 0, "lat": 38.86512466666667, "rental_uris": {"ios": "https://dc.lft.to/lastmile_qr_scan", "android": "https://dc.lft.to/lastmile_qr_scan"}, "is_reserved": 0, "fusion_lon": 0.0, "fusion_lat": 0.0, "lon": -77.12937983333333, "name": "1986bb1685b41d4f9113688f97096490"}, {"bike_id": "b9ac6c208e22423b034e283c84e7f99e", "type": "electric_bike", "is_disabled": 0, "lat": 38.8039365, "rental_uris": {"ios": "https://dc.lft.to/lastmile_qr_scan", "android": "https://dc.lft.to/lastmile_qr_scan"}, "is_reserved": 0, "fusion_lon": 0.0, "fusion_lat": 0.0, "lon": -77.05560966666667, "name": "b9ac6c208e22423b034e283c84e7f99e"}, {"bike_id": "f6f8a8afe1061021b76e0ca47628da04", "type": "electric_scooter", "is_disabled": 0, "lat": 38.9446885, "rental_uris": {"ios": "https://dc.lft.to/lastmile_qr_scan", "android": "https://dc.lft.to/lastmile_qr_scan"}, "is_reserved": 0, "fusion_lon": 0.0, "fusion_lat": 0.0, "lon": -77.02342566666667, "name": "f6f8a8afe1061021b76e0ca47628da04"}, {"bike_id": "6a8eac8b4c9e855eee27272c7ba1754d", "type": "electric_bike", "is_disabled": 0, "lat": 38.91902266666666, "rental_uris": {"ios": "https://dc.lft.to/lastmile_qr_scan", "android": "https://dc.lft.to/lastmile_qr_scan"}, "is_reserved": 0, "fusion_lon": 0.0, "fusion_lat": 0.0, "lon": -77.00062, "name": "6a8eac8b4c9e855eee27272c7ba1754d"}, {"bike_id": "341a00636237619ed390043ae6dfd3ce", "type": "electric_scooter", "is_disabled": 0, "lat": 38.90847616666667, "rental_uris": {"ios": "https://dc.lft.to/lastmile_qr_scan", "android": "https://dc.lft.to/lastmile_qr_scan"}, "is_reserved": 0, "fusion_lon": 0.0, "fusion_lat": 0.0, "lon": -77.02062583333333, "name": "341a00636237619ed390043ae6dfd3ce"}, {"bike_id": "29ce6b998e3ca239c58e598eb0505278", "type": "electric_scooter", "is_disabled": 0, "lat": 38.89958216666667, "rental_uris": {"ios": "https://dc.lft.to/lastmile_qr_scan", "android": "https://dc.lft.to/lastmile_qr_scan"}, "is_reserved": 0, "fusion_lon": 0.0, "fusion_lat": 0.0, "lon": -77.015099, "name": "29ce6b998e3ca239c58e598eb0505278"}, {"bike_id": "1f2d887e127681ffbad22f46ed54570b", "type": "electric_scooter", "is_disabled": 0, "lat": 38.915537, "rental_uris": {"ios": "https://dc.lft.to/lastmile_qr_scan", "android": "https://dc.lft.to/lastmile_qr_scan"}, "is_reserved": 0, "fusion_lon": 0.0, "fusion_lat": 0.0, "lon": -77.0213325, "name": "1f2d887e127681ffbad22f46ed54570b"}, {"bike_id": "2d4b246982381630423bb5bb1e05e4ab", "type": "electric_scooter", "is_disabled": 0, "lat": 38.914983166666666, "rental_uris": {"ios": "https://dc.lft.to/lastmile_qr_scan", "android": "https://dc.lft.to/lastmile_qr_scan"}, "is_reserved": 0, "fusion_lon": 0.0, "fusion_lat": 0.0, "lon": -77.03192183333333, "name": "2d4b246982381630423bb5bb1e05e4ab"}, {"bike_id": "afa6515f1af86be82e97bdc315668efc", "type": "electric_scooter", "is_disabled": 0, "lat": 38.929459333333334, "rental_uris": {"ios": "https://dc.lft.to/lastmile_qr_scan", "android": "https://dc.lft.to/lastmile_qr_scan"}, "is_reserved": 0, "fusion_lon": 0.0, "fusion_lat": 0.0, "lon": -77.0375145, "name": "afa6515f1af86be82e97bdc315668efc"}, {"bike_id": "8b92e89ab8c09d479061641b85ac9573", "type": "electric_scooter", "is_disabled": 0, "lat": 38.901918, "rental_uris": {"ios": "https://dc.lft.to/lastmile_qr_scan", "android": "https://dc.lft.to/lastmile_qr_scan"}, "is_reserved": 0, "fusion_lon": 0.0, "fusion_lat": 0.0, "lon": -76.99680066666667, "name": "8b92e89ab8c09d479061641b85ac9573"}, {"bike_id": "adf97391def837273a9701727d441b0c", "type": "electric_scooter", "is_disabled": 0, "lat": 38.882135, "rental_uris": {"ios": "https://dc.lft.to/lastmile_qr_scan", "android": "https://dc.lft.to/lastmile_qr_scan"}, "is_reserved": 0, "fusion_lon": 0.0, "fusion_lat": 0.0, "lon": -77.02908333333333, "name": "adf97391def837273a9701727d441b0c"}, {"bike_id": "846bf53aec9d523db5b47b2320bd18a7", "type": "electric_scooter", "is_disabled": 0, "lat": 38.895629166666666, "rental_uris": {"ios": "https://dc.lft.to/lastmile_qr_scan", "android": "https://dc.lft.to/lastmile_qr_scan"}, "is_reserved": 0, "fusion_lon": 0.0, "fusion_lat": 0.0, "lon": -77.03147816666667, "name": "846bf53aec9d523db5b47b2320bd18a7"}, {"bike_id": "549aebf67bc1124d104e31ae56a4efc4", "type": "electric_scooter", "is_disabled": 0, "lat": 38.878853666666664, "rental_uris": {"ios": "https://dc.lft.to/lastmile_qr_scan", "android": "https://dc.lft.to/lastmile_qr_scan"}, "is_reserved": 0, "fusion_lon": 0.0, "fusion_lat": 0.0, "lon": -76.99155416666666, "name": "549aebf67bc1124d104e31ae56a4efc4"}, {"bike_id": "4df4fda1b93e76519d2ef74021e04f49", "type": "electric_scooter", "is_disabled": 0, "lat": 38.930385333333334, "rental_uris": {"ios": "https://dc.lft.to/lastmile_qr_scan", "android": "https://dc.lft.to/lastmile_qr_scan"}, "is_reserved": 0, "fusion_lon": 0.0, "fusion_lat": 0.0, "lon": -77.01827166666666, "name": "4df4fda1b93e76519d2ef74021e04f49"}, {"bike_id": "5b937ef3e6f40686b8535aaf40dee3fa", "type": "electric_scooter", "is_disabled": 0, "lat": 38.884341666666664, "rental_uris": {"ios": "https://dc.lft.to/lastmile_qr_scan", "android": "https://dc.lft.to/lastmile_qr_scan"}, "is_reserved": 0, "fusion_lon": 0.0, "fusion_lat": 0.0, "lon": -76.95756833333333, "name": "5b937ef3e6f40686b8535aaf40dee3fa"}, {"bike_id": "24fe04bce73c4b52fa492fff1aa8aca1", "type": "electric_scooter", "is_disabled": 0, "lat": 38.90816866666667, "rental_uris": {"ios": "https://dc.lft.to/lastmile_qr_scan", "android": "https://dc.lft.to/lastmile_qr_scan"}, "is_reserved": 0, "fusion_lon": 0.0, "fusion_lat": 0.0, "lon": -77.0260115, "name": "24fe04bce73c4b52fa492fff1aa8aca1"}, {"bike_id": "d272be4b6261c06dd10223a23a9bddc7", "type": "electric_scooter", "is_disabled": 0, "lat": 38.887078, "rental_uris": {"ios": "https://dc.lft.to/lastmile_qr_scan", "android": "https://dc.lft.to/lastmile_qr_scan"}, "is_reserved": 0, "fusion_lon": 0.0, "fusion_lat": 0.0, "lon": -77.0220505, "name": "d272be4b6261c06dd10223a23a9bddc7"}, {"bike_id": "b3c42ba71f870ed0afcd7fdcd8dd41cc", "type": "electric_scooter", "is_disabled": 0, "lat": 38.933443833333335, "rental_uris": {"ios": "https://dc.lft.to/lastmile_qr_scan", "android": "https://dc.lft.to/lastmile_qr_scan"}, "is_reserved": 0, "fusion_lon": 0.0, "fusion_lat": 0.0, "lon": -77.06200783333334, "name": "b3c42ba71f870ed0afcd7fdcd8dd41cc"}, {"bike_id": "866d404f3c85b0d7b0158c7108ea9919", "type": "electric_scooter", "is_disabled": 0, "lat": 38.9170195, "rental_uris": {"ios": "https://dc.lft.to/lastmile_qr_scan", "android": "https://dc.lft.to/lastmile_qr_scan"}, "is_reserved": 0, "fusion_lon": 0.0, "fusion_lat": 0.0, "lon": -77.02469666666667, "name": "866d404f3c85b0d7b0158c7108ea9919"}, {"bike_id": "0b31283d97202b93afeb4ee302c8760f", "type": "electric_scooter", "is_disabled": 0, "lat": 38.90487616666667, "rental_uris": {"ios": "https://dc.lft.to/lastmile_qr_scan", "android": "https://dc.lft.to/lastmile_qr_scan"}, "is_reserved": 0, "fusion_lon": 0.0, "fusion_lat": 0.0, "lon": -77.0294425, "name": "0b31283d97202b93afeb4ee302c8760f"}, {"bike_id": "3386d827f09480c4c2b493c7e293a3f3", "type": "electric_scooter", "is_disabled": 0, "lat": 38.937640333333334, "rental_uris": {"ios": "https://dc.lft.to/lastmile_qr_scan", "android": "https://dc.lft.to/lastmile_qr_scan"}, "is_reserved": 0, "fusion_lon": 0.0, "fusion_lat": 0.0, "lon": -76.99145283333333, "name": "3386d827f09480c4c2b493c7e293a3f3"}, {"bike_id": "a8315b05ab038df34640f2507d3dd744", "type": "electric_scooter", "is_disabled": 0, "lat": 38.9002135, "rental_uris": {"ios": "https://dc.lft.to/lastmile_qr_scan", "android": "https://dc.lft.to/lastmile_qr_scan"}, "is_reserved": 0, "fusion_lon": 0.0, "fusion_lat": 0.0, "lon": -77.00033866666666, "name": "a8315b05ab038df34640f2507d3dd744"}, {"bike_id": "74b339cf4c82e54145f949d1f15069b2", "type": "electric_scooter", "is_disabled": 0, "lat": 38.910432, "rental_uris": {"ios": "https://dc.lft.to/lastmile_qr_scan", "android": "https://dc.lft.to/lastmile_qr_scan"}, "is_reserved": 0, "fusion_lon": 0.0, "fusion_lat": 0.0, "lon": -77.03846, "name": "74b339cf4c82e54145f949d1f15069b2"}, {"bike_id": "4e008c2ddc8de4419c39b216f7b8b507", "type": "electric_scooter", "is_disabled": 0, "lat": 38.86684966666667, "rental_uris": {"ios": "https://dc.lft.to/lastmile_qr_scan", "android": "https://dc.lft.to/lastmile_qr_scan"}, "is_reserved": 0, "fusion_lon": 0.0, "fusion_lat": 0.0, "lon": -76.9857635, "name": "4e008c2ddc8de4419c39b216f7b8b507"}, {"bike_id": "6b4cee7bdbe7ca8d69181bf20c6d1141", "type": "electric_scooter", "is_disabled": 0, "lat": 38.9222725, "rental_uris": {"ios": "https://dc.lft.to/lastmile_qr_scan", "android": "https://dc.lft.to/lastmile_qr_scan"}, "is_reserved": 0, "fusion_lon": 0.0, "fusion_lat": 0.0, "lon": -77.039029, "name": "6b4cee7bdbe7ca8d69181bf20c6d1141"}, {"bike_id": "8019e7a529c5066a72415f93e785d427", "type": "electric_scooter", "is_disabled": 0, "lat": 38.908449833333336, "rental_uris": {"ios": "https://dc.lft.to/lastmile_qr_scan", "android": "https://dc.lft.to/lastmile_qr_scan"}, "is_reserved": 0, "fusion_lon": 0.0, "fusion_lat": 0.0, "lon": -77.026966, "name": "8019e7a529c5066a72415f93e785d427"}, {"bike_id": "2de187e3036bb9384433474580cf5fe4", "type": "electric_bike", "is_disabled": 0, "lat": 38.948971, "rental_uris": {"ios": "https://dc.lft.to/lastmile_qr_scan", "android": "https://dc.lft.to/lastmile_qr_scan"}, "is_reserved": 0, "fusion_lon": 0.0, "fusion_lat": 0.0, "lon": -76.96373816666667, "name": "2de187e3036bb9384433474580cf5fe4"}, {"bike_id": "7816191c6ccb728badc5e51644f3aad9", "type": "electric_scooter", "is_disabled": 0, "lat": 38.92150783333334, "rental_uris": {"ios": "https://dc.lft.to/lastmile_qr_scan", "android": "https://dc.lft.to/lastmile_qr_scan"}, "is_reserved": 0, "fusion_lon": 0.0, "fusion_lat": 0.0, "lon": -77.03386783333333, "name": "7816191c6ccb728badc5e51644f3aad9"}, {"bike_id": "8a4ac170a21ffb85c206f33a70258dd6", "type": "electric_scooter", "is_disabled": 0, "lat": 38.91787083333333, "rental_uris": {"ios": "https://dc.lft.to/lastmile_qr_scan", "android": "https://dc.lft.to/lastmile_qr_scan"}, "is_reserved": 0, "fusion_lon": 0.0, "fusion_lat": 0.0, "lon": -77.04559966666666, "name": "8a4ac170a21ffb85c206f33a70258dd6"}, {"bike_id": "548eb0608de9ba2551fa8c3a0d5395df", "type": "electric_scooter", "is_disabled": 0, "lat": 38.866868833333335, "rental_uris": {"ios": "https://dc.lft.to/lastmile_qr_scan", "android": "https://dc.lft.to/lastmile_qr_scan"}, "is_reserved": 0, "fusion_lon": 0.0, "fusion_lat": 0.0, "lon": -76.98588316666667, "name": "548eb0608de9ba2551fa8c3a0d5395df"}, {"bike_id": "9013cbebc6e40da0e4e786a8938ea86c", "type": "electric_scooter", "is_disabled": 0, "lat": 38.91759733333333, "rental_uris": {"ios": "https://dc.lft.to/lastmile_qr_scan", "android": "https://dc.lft.to/lastmile_qr_scan"}, "is_reserved": 0, "fusion_lon": 0.0, "fusion_lat": 0.0, "lon": -77.047775, "name": "9013cbebc6e40da0e4e786a8938ea86c"}, {"bike_id": "f3f078373ab3c664fe36be76c6351741", "type": "electric_scooter", "is_disabled": 0, "lat": 38.898811333333335, "rental_uris": {"ios": "https://dc.lft.to/lastmile_qr_scan", "android": "https://dc.lft.to/lastmile_qr_scan"}, "is_reserved": 0, "fusion_lon": 0.0, "fusion_lat": 0.0, "lon": -76.93176533333333, "name": "f3f078373ab3c664fe36be76c6351741"}, {"bike_id": "5f036c3e5bbc1f3f4d34333ed2ea0e6c", "type": "electric_scooter", "is_disabled": 0, "lat": 38.91312083333333, "rental_uris": {"ios": "https://dc.lft.to/lastmile_qr_scan", "android": "https://dc.lft.to/lastmile_qr_scan"}, "is_reserved": 0, "fusion_lon": 0.0, "fusion_lat": 0.0, "lon": -77.0366215, "name": "5f036c3e5bbc1f3f4d34333ed2ea0e6c"}, {"bike_id": "b4a85b80cc4430fa565146eb8436953d", "type": "electric_scooter", "is_disabled": 0, "lat": 38.867021666666666, "rental_uris": {"ios": "https://dc.lft.to/lastmile_qr_scan", "android": "https://dc.lft.to/lastmile_qr_scan"}, "is_reserved": 0, "fusion_lon": 0.0, "fusion_lat": 0.0, "lon": -76.98716583333334, "name": "b4a85b80cc4430fa565146eb8436953d"}, {"bike_id": "e2ee23ee56b5b53f6268de83aa312fd8", "type": "electric_scooter", "is_disabled": 0, "lat": 38.862125166666665, "rental_uris": {"ios": "https://dc.lft.to/lastmile_qr_scan", "android": "https://dc.lft.to/lastmile_qr_scan"}, "is_reserved": 0, "fusion_lon": 0.0, "fusion_lat": 0.0, "lon": -76.994716, "name": "e2ee23ee56b5b53f6268de83aa312fd8"}, {"bike_id": "e997455c1bcfc128600f3d98003c9e70", "type": "electric_bike", "is_disabled": 0, "lat": 38.96920866666667, "rental_uris": {"ios": "https://dc.lft.to/lastmile_qr_scan", "android": "https://dc.lft.to/lastmile_qr_scan"}, "is_reserved": 0, "fusion_lon": 0.0, "fusion_lat": 0.0, "lon": -76.957907, "name": "e997455c1bcfc128600f3d98003c9e70"}, {"bike_id": "b217572a6ee1af1154e35d1f71dbbe12", "type": "electric_scooter", "is_disabled": 0, "lat": 38.92140116666667, "rental_uris": {"ios": "https://dc.lft.to/lastmile_qr_scan", "android": "https://dc.lft.to/lastmile_qr_scan"}, "is_reserved": 0, "fusion_lon": 0.0, "fusion_lat": 0.0, "lon": -77.04360033333333, "name": "b217572a6ee1af1154e35d1f71dbbe12"}, {"bike_id": "0f7245be92b0f8d60c573a686c06e9f0", "type": "electric_scooter", "is_disabled": 0, "lat": 38.89551633333333, "rental_uris": {"ios": "https://dc.lft.to/lastmile_qr_scan", "android": "https://dc.lft.to/lastmile_qr_scan"}, "is_reserved": 0, "fusion_lon": 0.0, "fusion_lat": 0.0, "lon": -76.94936316666667, "name": "0f7245be92b0f8d60c573a686c06e9f0"}, {"bike_id": "ac75872ea77b6078c51d3dc94fcbca8f", "type": "electric_scooter", "is_disabled": 0, "lat": 38.892207166666665, "rental_uris": {"ios": "https://dc.lft.to/lastmile_qr_scan", "android": "https://dc.lft.to/lastmile_qr_scan"}, "is_reserved": 0, "fusion_lon": 0.0, "fusion_lat": 0.0, "lon": -77.022638, "name": "ac75872ea77b6078c51d3dc94fcbca8f"}, {"bike_id": "819cdf0c7094642968bbace74657585e", "type": "electric_scooter", "is_disabled": 0, "lat": 38.867029, "rental_uris": {"ios": "https://dc.lft.to/lastmile_qr_scan", "android": "https://dc.lft.to/lastmile_qr_scan"}, "is_reserved": 0, "fusion_lon": 0.0, "fusion_lat": 0.0, "lon": -76.98713716666667, "name": "819cdf0c7094642968bbace74657585e"}, {"bike_id": "8fe2645ac949aa26883ff00f8f00775d", "type": "electric_bike", "is_disabled": 0, "lat": 39.013724333333336, "rental_uris": {"ios": "https://dc.lft.to/lastmile_qr_scan", "android": "https://dc.lft.to/lastmile_qr_scan"}, "is_reserved": 0, "fusion_lon": 0.0, "fusion_lat": 0.0, "lon": -76.92136316666667, "name": "8fe2645ac949aa26883ff00f8f00775d"}, {"bike_id": "a5a6cb0429162d269229b413a5bcaba3", "type": "electric_scooter", "is_disabled": 0, "lat": 38.884388333333334, "rental_uris": {"ios": "https://dc.lft.to/lastmile_qr_scan", "android": "https://dc.lft.to/lastmile_qr_scan"}, "is_reserved": 0, "fusion_lon": 0.0, "fusion_lat": 0.0, "lon": -77.02975966666666, "name": "a5a6cb0429162d269229b413a5bcaba3"}, {"bike_id": "a5b0c3c3a48583b31cce924c5a74baa6", "type": "electric_scooter", "is_disabled": 0, "lat": 38.923322666666664, "rental_uris": {"ios": "https://dc.lft.to/lastmile_qr_scan", "android": "https://dc.lft.to/lastmile_qr_scan"}, "is_reserved": 0, "fusion_lon": 0.0, "fusion_lat": 0.0, "lon": -77.02300066666666, "name": "a5b0c3c3a48583b31cce924c5a74baa6"}, {"bike_id": "c2ae9ca87447976ecc1f1173a601794a", "type": "electric_scooter", "is_disabled": 0, "lat": 38.91418783333334, "rental_uris": {"ios": "https://dc.lft.to/lastmile_qr_scan", "android": "https://dc.lft.to/lastmile_qr_scan"}, "is_reserved": 0, "fusion_lon": 0.0, "fusion_lat": 0.0, "lon": -77.01987866666667, "name": "c2ae9ca87447976ecc1f1173a601794a"}, {"bike_id": "0f4b0ae31f7dd14be980f195376f979a", "type": "electric_scooter", "is_disabled": 0, "lat": 38.91256083333333, "rental_uris": {"ios": "https://dc.lft.to/lastmile_qr_scan", "android": "https://dc.lft.to/lastmile_qr_scan"}, "is_reserved": 0, "fusion_lon": 0.0, "fusion_lat": 0.0, "lon": -77.01230683333333, "name": "0f4b0ae31f7dd14be980f195376f979a"}, {"bike_id": "79f3448b7470a71a2fb8273ea537b56b", "type": "electric_scooter", "is_disabled": 0, "lat": 38.915604, "rental_uris": {"ios": "https://dc.lft.to/lastmile_qr_scan", "android": "https://dc.lft.to/lastmile_qr_scan"}, "is_reserved": 0, "fusion_lon": 0.0, "fusion_lat": 0.0, "lon": -77.020241, "name": "79f3448b7470a71a2fb8273ea537b56b"}, {"bike_id": "fa83857dfbb9618fab04010889b4126a", "type": "electric_scooter", "is_disabled": 0, "lat": 38.92233183333333, "rental_uris": {"ios": "https://dc.lft.to/lastmile_qr_scan", "android": "https://dc.lft.to/lastmile_qr_scan"}, "is_reserved": 0, "fusion_lon": 0.0, "fusion_lat": 0.0, "lon": -77.04250566666667, "name": "fa83857dfbb9618fab04010889b4126a"}, {"bike_id": "cfa1a36b2e203ac448c49069931fc074", "type": "electric_scooter", "is_disabled": 0, "lat": 38.885369, "rental_uris": {"ios": "https://dc.lft.to/lastmile_qr_scan", "android": "https://dc.lft.to/lastmile_qr_scan"}, "is_reserved": 0, "fusion_lon": 0.0, "fusion_lat": 0.0, "lon": -76.9982695, "name": "cfa1a36b2e203ac448c49069931fc074"}, {"bike_id": "c6aed3a16b5767779483e15c2b9f0d53", "type": "electric_scooter", "is_disabled": 0, "lat": 38.92072983333333, "rental_uris": {"ios": "https://dc.lft.to/lastmile_qr_scan", "android": "https://dc.lft.to/lastmile_qr_scan"}, "is_reserved": 0, "fusion_lon": 0.0, "fusion_lat": 0.0, "lon": -77.04203583333333, "name": "c6aed3a16b5767779483e15c2b9f0d53"}, {"bike_id": "469a892bad5edb021e3481dc0ec9b6f5", "type": "electric_scooter", "is_disabled": 0, "lat": 38.89835266666667, "rental_uris": {"ios": "https://dc.lft.to/lastmile_qr_scan", "android": "https://dc.lft.to/lastmile_qr_scan"}, "is_reserved": 0, "fusion_lon": 0.0, "fusion_lat": 0.0, "lon": -77.02764616666667, "name": "469a892bad5edb021e3481dc0ec9b6f5"}, {"bike_id": "7c44f9f1f74f05c96c0ff8c0fa1858b0", "type": "electric_scooter", "is_disabled": 0, "lat": 38.932106833333336, "rental_uris": {"ios": "https://dc.lft.to/lastmile_qr_scan", "android": "https://dc.lft.to/lastmile_qr_scan"}, "is_reserved": 0, "fusion_lon": 0.0, "fusion_lat": 0.0, "lon": -77.02386333333334, "name": "7c44f9f1f74f05c96c0ff8c0fa1858b0"}, {"bike_id": "bffa3ff945de00324ef35fb51a1a8211", "type": "electric_scooter", "is_disabled": 0, "lat": 38.90820883333333, "rental_uris": {"ios": "https://dc.lft.to/lastmile_qr_scan", "android": "https://dc.lft.to/lastmile_qr_scan"}, "is_reserved": 0, "fusion_lon": 0.0, "fusion_lat": 0.0, "lon": -76.99710533333334, "name": "bffa3ff945de00324ef35fb51a1a8211"}, {"bike_id": "a7d7c483392534e1847e3cbaee17bbe7", "type": "electric_scooter", "is_disabled": 0, "lat": 38.8871, "rental_uris": {"ios": "https://dc.lft.to/lastmile_qr_scan", "android": "https://dc.lft.to/lastmile_qr_scan"}, "is_reserved": 0, "fusion_lon": 0.0, "fusion_lat": 0.0, "lon": -77.017818, "name": "a7d7c483392534e1847e3cbaee17bbe7"}, {"bike_id": "e5c981a11371cbbe3fd0ee195cd1f07b", "type": "electric_scooter", "is_disabled": 0, "lat": 38.923267833333334, "rental_uris": {"ios": "https://dc.lft.to/lastmile_qr_scan", "android": "https://dc.lft.to/lastmile_qr_scan"}, "is_reserved": 0, "fusion_lon": 0.0, "fusion_lat": 0.0, "lon": -77.0462005, "name": "e5c981a11371cbbe3fd0ee195cd1f07b"}, {"bike_id": "82e39470d49fbba339550799a4d99353", "type": "electric_scooter", "is_disabled": 0, "lat": 38.91772066666667, "rental_uris": {"ios": "https://dc.lft.to/lastmile_qr_scan", "android": "https://dc.lft.to/lastmile_qr_scan"}, "is_reserved": 0, "fusion_lon": 0.0, "fusion_lat": 0.0, "lon": -77.029607, "name": "82e39470d49fbba339550799a4d99353"}, {"bike_id": "7dcb34e61aa910d1592e743d506ee156", "type": "electric_scooter", "is_disabled": 0, "lat": 38.8840925, "rental_uris": {"ios": "https://dc.lft.to/lastmile_qr_scan", "android": "https://dc.lft.to/lastmile_qr_scan"}, "is_reserved": 0, "fusion_lon": 0.0, "fusion_lat": 0.0, "lon": -76.94828516666666, "name": "7dcb34e61aa910d1592e743d506ee156"}, {"bike_id": "1f3f0e4070d846e324b9a8f1f5bd3946", "type": "electric_scooter", "is_disabled": 0, "lat": 38.901820666666666, "rental_uris": {"ios": "https://dc.lft.to/lastmile_qr_scan", "android": "https://dc.lft.to/lastmile_qr_scan"}, "is_reserved": 0, "fusion_lon": 0.0, "fusion_lat": 0.0, "lon": -77.020049, "name": "1f3f0e4070d846e324b9a8f1f5bd3946"}, {"bike_id": "85c68312eddf185c9a02ba616fcb2fa5", "type": "electric_scooter", "is_disabled": 0, "lat": 38.9006045, "rental_uris": {"ios": "https://dc.lft.to/lastmile_qr_scan", "android": "https://dc.lft.to/lastmile_qr_scan"}, "is_reserved": 0, "fusion_lon": 0.0, "fusion_lat": 0.0, "lon": -77.0501975, "name": "85c68312eddf185c9a02ba616fcb2fa5"}, {"bike_id": "73b3960c32ee47fc3de48e5fd09c3fcf", "type": "electric_scooter", "is_disabled": 0, "lat": 38.9339595, "rental_uris": {"ios": "https://dc.lft.to/lastmile_qr_scan", "android": "https://dc.lft.to/lastmile_qr_scan"}, "is_reserved": 0, "fusion_lon": 0.0, "fusion_lat": 0.0, "lon": -77.05743116666666, "name": "73b3960c32ee47fc3de48e5fd09c3fcf"}, {"bike_id": "b245b052a2ed7d8430a55bc870d950b8", "type": "electric_scooter", "is_disabled": 0, "lat": 38.90069033333333, "rental_uris": {"ios": "https://dc.lft.to/lastmile_qr_scan", "android": "https://dc.lft.to/lastmile_qr_scan"}, "is_reserved": 0, "fusion_lon": 0.0, "fusion_lat": 0.0, "lon": -77.0482075, "name": "b245b052a2ed7d8430a55bc870d950b8"}, {"bike_id": "0de3a3fd0578dc206480222b5606bd7c", "type": "electric_scooter", "is_disabled": 0, "lat": 38.90670083333333, "rental_uris": {"ios": "https://dc.lft.to/lastmile_qr_scan", "android": "https://dc.lft.to/lastmile_qr_scan"}, "is_reserved": 0, "fusion_lon": 0.0, "fusion_lat": 0.0, "lon": -77.0271985, "name": "0de3a3fd0578dc206480222b5606bd7c"}, {"bike_id": "1827eec47de44b972dadc69d4535dc54", "type": "electric_scooter", "is_disabled": 0, "lat": 38.921276666666664, "rental_uris": {"ios": "https://dc.lft.to/lastmile_qr_scan", "android": "https://dc.lft.to/lastmile_qr_scan"}, "is_reserved": 0, "fusion_lon": 0.0, "fusion_lat": 0.0, "lon": -77.02721483333333, "name": "1827eec47de44b972dadc69d4535dc54"}, {"bike_id": "f777576e9d408f34342c7bd86a4716fb", "type": "electric_scooter", "is_disabled": 0, "lat": 38.917351833333335, "rental_uris": {"ios": "https://dc.lft.to/lastmile_qr_scan", "android": "https://dc.lft.to/lastmile_qr_scan"}, "is_reserved": 0, "fusion_lon": 0.0, "fusion_lat": 0.0, "lon": -77.03200133333333, "name": "f777576e9d408f34342c7bd86a4716fb"}, {"bike_id": "c7c47989e0cfe6955f9fe49ede62de62", "type": "electric_scooter", "is_disabled": 0, "lat": 38.902329, "rental_uris": {"ios": "https://dc.lft.to/lastmile_qr_scan", "android": "https://dc.lft.to/lastmile_qr_scan"}, "is_reserved": 0, "fusion_lon": 0.0, "fusion_lat": 0.0, "lon": -77.02973666666666, "name": "c7c47989e0cfe6955f9fe49ede62de62"}, {"bike_id": "f2a5dc50bd717e36d9f154d39fc59568", "type": "electric_scooter", "is_disabled": 0, "lat": 38.9644075, "rental_uris": {"ios": "https://dc.lft.to/lastmile_qr_scan", "android": "https://dc.lft.to/lastmile_qr_scan"}, "is_reserved": 0, "fusion_lon": 0.0, "fusion_lat": 0.0, "lon": -77.02061883333333, "name": "f2a5dc50bd717e36d9f154d39fc59568"}, {"bike_id": "b41936a38f7783c4f18d96a57e05501c", "type": "electric_scooter", "is_disabled": 0, "lat": 38.901505, "rental_uris": {"ios": "https://dc.lft.to/lastmile_qr_scan", "android": "https://dc.lft.to/lastmile_qr_scan"}, "is_reserved": 0, "fusion_lon": 0.0, "fusion_lat": 0.0, "lon": -77.022936, "name": "b41936a38f7783c4f18d96a57e05501c"}, {"bike_id": "6d6f784ffaab9ea06e58f60d5b550b35", "type": "electric_scooter", "is_disabled": 0, "lat": 38.91634033333333, "rental_uris": {"ios": "https://dc.lft.to/lastmile_qr_scan", "android": "https://dc.lft.to/lastmile_qr_scan"}, "is_reserved": 0, "fusion_lon": 0.0, "fusion_lat": 0.0, "lon": -77.02549916666666, "name": "6d6f784ffaab9ea06e58f60d5b550b35"}, {"bike_id": "e4b9c9cb1d07871d7bc4d408e29b9f1e", "type": "electric_bike", "is_disabled": 0, "lat": 39.05120066666667, "rental_uris": {"ios": "https://dc.lft.to/lastmile_qr_scan", "android": "https://dc.lft.to/lastmile_qr_scan"}, "is_reserved": 0, "fusion_lon": 0.0, "fusion_lat": 0.0, "lon": -77.11731433333334, "name": "e4b9c9cb1d07871d7bc4d408e29b9f1e"}, {"bike_id": "c367e8adabf6da6ba3d08484ef235eca", "type": "electric_scooter", "is_disabled": 0, "lat": 38.933151333333335, "rental_uris": {"ios": "https://dc.lft.to/lastmile_qr_scan", "android": "https://dc.lft.to/lastmile_qr_scan"}, "is_reserved": 0, "fusion_lon": 0.0, "fusion_lat": 0.0, "lon": -77.02752083333333, "name": "c367e8adabf6da6ba3d08484ef235eca"}, {"bike_id": "37bcd288c71625d5240602577d499e5d", "type": "electric_scooter", "is_disabled": 0, "lat": 38.89502933333333, "rental_uris": {"ios": "https://dc.lft.to/lastmile_qr_scan", "android": "https://dc.lft.to/lastmile_qr_scan"}, "is_reserved": 0, "fusion_lon": 0.0, "fusion_lat": 0.0, "lon": -77.04357983333334, "name": "37bcd288c71625d5240602577d499e5d"}, {"bike_id": "8d177fe44a1884743175a096ae15c4c8", "type": "electric_scooter", "is_disabled": 0, "lat": 38.89979683333333, "rental_uris": {"ios": "https://dc.lft.to/lastmile_qr_scan", "android": "https://dc.lft.to/lastmile_qr_scan"}, "is_reserved": 0, "fusion_lon": 0.0, "fusion_lat": 0.0, "lon": -77.02716183333334, "name": "8d177fe44a1884743175a096ae15c4c8"}, {"bike_id": "9332c3e5d62ff81f7e1e2bae612d0e41", "type": "electric_scooter", "is_disabled": 0, "lat": 38.92231066666667, "rental_uris": {"ios": "https://dc.lft.to/lastmile_qr_scan", "android": "https://dc.lft.to/lastmile_qr_scan"}, "is_reserved": 0, "fusion_lon": 0.0, "fusion_lat": 0.0, "lon": -76.97534166666667, "name": "9332c3e5d62ff81f7e1e2bae612d0e41"}, {"bike_id": "3102692bc76f334b00059d74b35453a3", "type": "electric_scooter", "is_disabled": 0, "lat": 38.903611, "rental_uris": {"ios": "https://dc.lft.to/lastmile_qr_scan", "android": "https://dc.lft.to/lastmile_qr_scan"}, "is_reserved": 0, "fusion_lon": 0.0, "fusion_lat": 0.0, "lon": -76.99216566666666, "name": "3102692bc76f334b00059d74b35453a3"}, {"bike_id": "819d8ff756310f56bbe03d1e5e825dd7", "type": "electric_scooter", "is_disabled": 0, "lat": 38.911374333333335, "rental_uris": {"ios": "https://dc.lft.to/lastmile_qr_scan", "android": "https://dc.lft.to/lastmile_qr_scan"}, "is_reserved": 0, "fusion_lon": 0.0, "fusion_lat": 0.0, "lon": -77.04495833333333, "name": "819d8ff756310f56bbe03d1e5e825dd7"}, {"bike_id": "f824466cd0950d9dd1817b6a98d29d5a", "type": "electric_scooter", "is_disabled": 0, "lat": 38.88706833333333, "rental_uris": {"ios": "https://dc.lft.to/lastmile_qr_scan", "android": "https://dc.lft.to/lastmile_qr_scan"}, "is_reserved": 0, "fusion_lon": 0.0, "fusion_lat": 0.0, "lon": -77.02204933333333, "name": "f824466cd0950d9dd1817b6a98d29d5a"}, {"bike_id": "3fd1959b48a3f60305f867f4d20bd97e", "type": "electric_bike", "is_disabled": 0, "lat": 38.88043166666667, "rental_uris": {"ios": "https://dc.lft.to/lastmile_qr_scan", "android": "https://dc.lft.to/lastmile_qr_scan"}, "is_reserved": 0, "fusion_lon": 0.0, "fusion_lat": 0.0, "lon": -77.0252645, "name": "3fd1959b48a3f60305f867f4d20bd97e"}, {"bike_id": "5ef738fa5613395f0c714017f2affef7", "type": "electric_scooter", "is_disabled": 0, "lat": 38.956372333333334, "rental_uris": {"ios": "https://dc.lft.to/lastmile_qr_scan", "android": "https://dc.lft.to/lastmile_qr_scan"}, "is_reserved": 0, "fusion_lon": 0.0, "fusion_lat": 0.0, "lon": -77.0362935, "name": "5ef738fa5613395f0c714017f2affef7"}, {"bike_id": "c3be1e1d9c5134d0f729b7a859328a0b", "type": "electric_scooter", "is_disabled": 0, "lat": 38.87294716666667, "rental_uris": {"ios": "https://dc.lft.to/lastmile_qr_scan", "android": "https://dc.lft.to/lastmile_qr_scan"}, "is_reserved": 0, "fusion_lon": 0.0, "fusion_lat": 0.0, "lon": -77.00982216666667, "name": "c3be1e1d9c5134d0f729b7a859328a0b"}, {"bike_id": "66dce1273aa211e9d85f48924eb8507a", "type": "electric_scooter", "is_disabled": 0, "lat": 38.901704, "rental_uris": {"ios": "https://dc.lft.to/lastmile_qr_scan", "android": "https://dc.lft.to/lastmile_qr_scan"}, "is_reserved": 0, "fusion_lon": 0.0, "fusion_lat": 0.0, "lon": -76.926607, "name": "66dce1273aa211e9d85f48924eb8507a"}, {"bike_id": "66a09882e60d0d953c9aa0614c8c3da2", "type": "electric_scooter", "is_disabled": 0, "lat": 38.9155545, "rental_uris": {"ios": "https://dc.lft.to/lastmile_qr_scan", "android": "https://dc.lft.to/lastmile_qr_scan"}, "is_reserved": 0, "fusion_lon": 0.0, "fusion_lat": 0.0, "lon": -77.03270633333334, "name": "66a09882e60d0d953c9aa0614c8c3da2"}, {"bike_id": "3a9d758518c6b5378cd9b1fd9a66be33", "type": "electric_scooter", "is_disabled": 0, "lat": 38.91044466666666, "rental_uris": {"ios": "https://dc.lft.to/lastmile_qr_scan", "android": "https://dc.lft.to/lastmile_qr_scan"}, "is_reserved": 0, "fusion_lon": 0.0, "fusion_lat": 0.0, "lon": -77.03373883333333, "name": "3a9d758518c6b5378cd9b1fd9a66be33"}, {"bike_id": "2945b3883872df853accaa26738b5785", "type": "electric_scooter", "is_disabled": 0, "lat": 38.901285, "rental_uris": {"ios": "https://dc.lft.to/lastmile_qr_scan", "android": "https://dc.lft.to/lastmile_qr_scan"}, "is_reserved": 0, "fusion_lon": 0.0, "fusion_lat": 0.0, "lon": -77.02399383333334, "name": "2945b3883872df853accaa26738b5785"}, {"bike_id": "ff5c0a53ccc36cd94d1a8d815a38db2c", "type": "electric_scooter", "is_disabled": 0, "lat": 38.906716833333334, "rental_uris": {"ios": "https://dc.lft.to/lastmile_qr_scan", "android": "https://dc.lft.to/lastmile_qr_scan"}, "is_reserved": 0, "fusion_lon": 0.0, "fusion_lat": 0.0, "lon": -77.02720483333333, "name": "ff5c0a53ccc36cd94d1a8d815a38db2c"}, {"bike_id": "b7f15c721fd89bb23358a683ed418a57", "type": "electric_scooter", "is_disabled": 0, "lat": 38.88182966666667, "rental_uris": {"ios": "https://dc.lft.to/lastmile_qr_scan", "android": "https://dc.lft.to/lastmile_qr_scan"}, "is_reserved": 0, "fusion_lon": 0.0, "fusion_lat": 0.0, "lon": -77.020865, "name": "b7f15c721fd89bb23358a683ed418a57"}, {"bike_id": "3e7f195c99e3be83f5e3810bb665a02d", "type": "electric_scooter", "is_disabled": 0, "lat": 38.9161095, "rental_uris": {"ios": "https://dc.lft.to/lastmile_qr_scan", "android": "https://dc.lft.to/lastmile_qr_scan"}, "is_reserved": 0, "fusion_lon": 0.0, "fusion_lat": 0.0, "lon": -77.02310383333334, "name": "3e7f195c99e3be83f5e3810bb665a02d"}, {"bike_id": "3b4f50de7ada6dee7ec856e081782f61", "type": "electric_scooter", "is_disabled": 0, "lat": 38.930700333333334, "rental_uris": {"ios": "https://dc.lft.to/lastmile_qr_scan", "android": "https://dc.lft.to/lastmile_qr_scan"}, "is_reserved": 0, "fusion_lon": 0.0, "fusion_lat": 0.0, "lon": -77.021477, "name": "3b4f50de7ada6dee7ec856e081782f61"}, {"bike_id": "90784688a271b39a96d0270102b0845c", "type": "electric_scooter", "is_disabled": 0, "lat": 38.907156, "rental_uris": {"ios": "https://dc.lft.to/lastmile_qr_scan", "android": "https://dc.lft.to/lastmile_qr_scan"}, "is_reserved": 0, "fusion_lon": 0.0, "fusion_lat": 0.0, "lon": -77.05020866666666, "name": "90784688a271b39a96d0270102b0845c"}, {"bike_id": "8aa729aca77f913411f816ac06464e15", "type": "electric_scooter", "is_disabled": 0, "lat": 38.956878333333336, "rental_uris": {"ios": "https://dc.lft.to/lastmile_qr_scan", "android": "https://dc.lft.to/lastmile_qr_scan"}, "is_reserved": 0, "fusion_lon": 0.0, "fusion_lat": 0.0, "lon": -77.0240385, "name": "8aa729aca77f913411f816ac06464e15"}, {"bike_id": "c086ac8171099bebb11c0615231a9747", "type": "electric_scooter", "is_disabled": 0, "lat": 38.900704, "rental_uris": {"ios": "https://dc.lft.to/lastmile_qr_scan", "android": "https://dc.lft.to/lastmile_qr_scan"}, "is_reserved": 0, "fusion_lon": 0.0, "fusion_lat": 0.0, "lon": -77.018249, "name": "c086ac8171099bebb11c0615231a9747"}, {"bike_id": "402dabc1b98ca02d8fb24b8d3f13c0f1", "type": "electric_scooter", "is_disabled": 0, "lat": 38.90979216666667, "rental_uris": {"ios": "https://dc.lft.to/lastmile_qr_scan", "android": "https://dc.lft.to/lastmile_qr_scan"}, "is_reserved": 0, "fusion_lon": 0.0, "fusion_lat": 0.0, "lon": -77.033783, "name": "402dabc1b98ca02d8fb24b8d3f13c0f1"}, {"bike_id": "10fc21c555fdee43c43c609fafd4aa41", "type": "electric_scooter", "is_disabled": 0, "lat": 38.91402733333334, "rental_uris": {"ios": "https://dc.lft.to/lastmile_qr_scan", "android": "https://dc.lft.to/lastmile_qr_scan"}, "is_reserved": 0, "fusion_lon": 0.0, "fusion_lat": 0.0, "lon": -77.03214616666666, "name": "10fc21c555fdee43c43c609fafd4aa41"}, {"bike_id": "8d9b326488a6b4a0b94087cf9322030d", "type": "electric_scooter", "is_disabled": 0, "lat": 38.892301833333335, "rental_uris": {"ios": "https://dc.lft.to/lastmile_qr_scan", "android": "https://dc.lft.to/lastmile_qr_scan"}, "is_reserved": 0, "fusion_lon": 0.0, "fusion_lat": 0.0, "lon": -77.0467705, "name": "8d9b326488a6b4a0b94087cf9322030d"}, {"bike_id": "2c1c8809019d28d5bf7b638a1534859a", "type": "electric_scooter", "is_disabled": 0, "lat": 38.904521833333334, "rental_uris": {"ios": "https://dc.lft.to/lastmile_qr_scan", "android": "https://dc.lft.to/lastmile_qr_scan"}, "is_reserved": 0, "fusion_lon": 0.0, "fusion_lat": 0.0, "lon": -77.05343116666667, "name": "2c1c8809019d28d5bf7b638a1534859a"}, {"bike_id": "758617078199324e480d0200b1e626f2", "type": "electric_scooter", "is_disabled": 0, "lat": 38.90025766666667, "rental_uris": {"ios": "https://dc.lft.to/lastmile_qr_scan", "android": "https://dc.lft.to/lastmile_qr_scan"}, "is_reserved": 0, "fusion_lon": 0.0, "fusion_lat": 0.0, "lon": -76.99154933333334, "name": "758617078199324e480d0200b1e626f2"}, {"bike_id": "39d0c3d1d51a0539a6249bc6bcbfd6dc", "type": "electric_scooter", "is_disabled": 0, "lat": 38.92819033333333, "rental_uris": {"ios": "https://dc.lft.to/lastmile_qr_scan", "android": "https://dc.lft.to/lastmile_qr_scan"}, "is_reserved": 0, "fusion_lon": 0.0, "fusion_lat": 0.0, "lon": -77.02259216666667, "name": "39d0c3d1d51a0539a6249bc6bcbfd6dc"}, {"bike_id": "2c388b0eecec46ecc76640c71eab6e2f", "type": "electric_scooter", "is_disabled": 0, "lat": 38.89221766666667, "rental_uris": {"ios": "https://dc.lft.to/lastmile_qr_scan", "android": "https://dc.lft.to/lastmile_qr_scan"}, "is_reserved": 0, "fusion_lon": 0.0, "fusion_lat": 0.0, "lon": -77.04801216666667, "name": "2c388b0eecec46ecc76640c71eab6e2f"}, {"bike_id": "faefbda27adf72010967c2cd53e8e774", "type": "electric_bike", "is_disabled": 0, "lat": 38.83604916666667, "rental_uris": {"ios": "https://dc.lft.to/lastmile_qr_scan", "android": "https://dc.lft.to/lastmile_qr_scan"}, "is_reserved": 0, "fusion_lon": 0.0, "fusion_lat": 0.0, "lon": -77.00382766666667, "name": "faefbda27adf72010967c2cd53e8e774"}, {"bike_id": "068b99c82c9c4f8d213c729370b58c68", "type": "electric_scooter", "is_disabled": 0, "lat": 38.921617, "rental_uris": {"ios": "https://dc.lft.to/lastmile_qr_scan", "android": "https://dc.lft.to/lastmile_qr_scan"}, "is_reserved": 0, "fusion_lon": 0.0, "fusion_lat": 0.0, "lon": -77.03843716666667, "name": "068b99c82c9c4f8d213c729370b58c68"}, {"bike_id": "38dfad6e11e82f50d6895058018fc27d", "type": "electric_scooter", "is_disabled": 0, "lat": 38.8968975, "rental_uris": {"ios": "https://dc.lft.to/lastmile_qr_scan", "android": "https://dc.lft.to/lastmile_qr_scan"}, "is_reserved": 0, "fusion_lon": 0.0, "fusion_lat": 0.0, "lon": -76.99964233333333, "name": "38dfad6e11e82f50d6895058018fc27d"}, {"bike_id": "12c2c8e40f42d77bf0456effc64863e7", "type": "electric_scooter", "is_disabled": 0, "lat": 38.884863833333334, "rental_uris": {"ios": "https://dc.lft.to/lastmile_qr_scan", "android": "https://dc.lft.to/lastmile_qr_scan"}, "is_reserved": 0, "fusion_lon": 0.0, "fusion_lat": 0.0, "lon": -77.03477733333334, "name": "12c2c8e40f42d77bf0456effc64863e7"}, {"bike_id": "eb254bdf2b30dde4560d7e5d8421e78d", "type": "electric_scooter", "is_disabled": 0, "lat": 38.9180645, "rental_uris": {"ios": "https://dc.lft.to/lastmile_qr_scan", "android": "https://dc.lft.to/lastmile_qr_scan"}, "is_reserved": 0, "fusion_lon": 0.0, "fusion_lat": 0.0, "lon": -77.02709616666667, "name": "eb254bdf2b30dde4560d7e5d8421e78d"}, {"bike_id": "3a3246f4b8faa7195b2f9c2c5f2402c6", "type": "electric_scooter", "is_disabled": 0, "lat": 38.9170135, "rental_uris": {"ios": "https://dc.lft.to/lastmile_qr_scan", "android": "https://dc.lft.to/lastmile_qr_scan"}, "is_reserved": 0, "fusion_lon": 0.0, "fusion_lat": 0.0, "lon": -77.0316585, "name": "3a3246f4b8faa7195b2f9c2c5f2402c6"}, {"bike_id": "d7fd1a76a1ace0321a6f853f93daf28b", "type": "electric_bike", "is_disabled": 0, "lat": 38.8729375, "rental_uris": {"ios": "https://dc.lft.to/lastmile_qr_scan", "android": "https://dc.lft.to/lastmile_qr_scan"}, "is_reserved": 0, "fusion_lon": 0.0, "fusion_lat": 0.0, "lon": -77.13924633333333, "name": "d7fd1a76a1ace0321a6f853f93daf28b"}, {"bike_id": "c86dd2aee150aaa203b512675ad00905", "type": "electric_scooter", "is_disabled": 0, "lat": 38.906713333333336, "rental_uris": {"ios": "https://dc.lft.to/lastmile_qr_scan", "android": "https://dc.lft.to/lastmile_qr_scan"}, "is_reserved": 0, "fusion_lon": 0.0, "fusion_lat": 0.0, "lon": -77.0271525, "name": "c86dd2aee150aaa203b512675ad00905"}, {"bike_id": "d64663acc28127fae44e8ddc7d58c344", "type": "electric_scooter", "is_disabled": 0, "lat": 38.9156335, "rental_uris": {"ios": "https://dc.lft.to/lastmile_qr_scan", "android": "https://dc.lft.to/lastmile_qr_scan"}, "is_reserved": 0, "fusion_lon": 0.0, "fusion_lat": 0.0, "lon": -77.0271125, "name": "d64663acc28127fae44e8ddc7d58c344"}, {"bike_id": "c9be34226862fd63656c889951ddfbe0", "type": "electric_scooter", "is_disabled": 0, "lat": 38.92077883333333, "rental_uris": {"ios": "https://dc.lft.to/lastmile_qr_scan", "android": "https://dc.lft.to/lastmile_qr_scan"}, "is_reserved": 0, "fusion_lon": 0.0, "fusion_lat": 0.0, "lon": -77.02404633333333, "name": "c9be34226862fd63656c889951ddfbe0"}, {"bike_id": "c08542768ecdd17e7177da2d7f0a5b65", "type": "electric_scooter", "is_disabled": 0, "lat": 38.9242545, "rental_uris": {"ios": "https://dc.lft.to/lastmile_qr_scan", "android": "https://dc.lft.to/lastmile_qr_scan"}, "is_reserved": 0, "fusion_lon": 0.0, "fusion_lat": 0.0, "lon": -77.04248783333334, "name": "c08542768ecdd17e7177da2d7f0a5b65"}, {"bike_id": "0da66be65f475a1465f5bd9c25890422", "type": "electric_scooter", "is_disabled": 0, "lat": 38.89603283333334, "rental_uris": {"ios": "https://dc.lft.to/lastmile_qr_scan", "android": "https://dc.lft.to/lastmile_qr_scan"}, "is_reserved": 0, "fusion_lon": 0.0, "fusion_lat": 0.0, "lon": -77.04483233333333, "name": "0da66be65f475a1465f5bd9c25890422"}, {"bike_id": "b9ff80c2ef5d8fa1b40a841e8cf66a4a", "type": "electric_scooter", "is_disabled": 0, "lat": 38.911394666666666, "rental_uris": {"ios": "https://dc.lft.to/lastmile_qr_scan", "android": "https://dc.lft.to/lastmile_qr_scan"}, "is_reserved": 0, "fusion_lon": 0.0, "fusion_lat": 0.0, "lon": -76.9901245, "name": "b9ff80c2ef5d8fa1b40a841e8cf66a4a"}, {"bike_id": "7d50626adfe7930f93496221b20f0265", "type": "electric_bike", "is_disabled": 0, "lat": 38.93141816666667, "rental_uris": {"ios": "https://dc.lft.to/lastmile_qr_scan", "android": "https://dc.lft.to/lastmile_qr_scan"}, "is_reserved": 0, "fusion_lon": 0.0, "fusion_lat": 0.0, "lon": -77.0007685, "name": "7d50626adfe7930f93496221b20f0265"}, {"bike_id": "cf1405840ebf1306f72c42b26503a16a", "type": "electric_scooter", "is_disabled": 0, "lat": 38.91819383333333, "rental_uris": {"ios": "https://dc.lft.to/lastmile_qr_scan", "android": "https://dc.lft.to/lastmile_qr_scan"}, "is_reserved": 0, "fusion_lon": 0.0, "fusion_lat": 0.0, "lon": -77.02529, "name": "cf1405840ebf1306f72c42b26503a16a"}, {"bike_id": "c612037ca06a7c4dd9ee26f9009fbd61", "type": "electric_scooter", "is_disabled": 0, "lat": 38.86644833333333, "rental_uris": {"ios": "https://dc.lft.to/lastmile_qr_scan", "android": "https://dc.lft.to/lastmile_qr_scan"}, "is_reserved": 0, "fusion_lon": 0.0, "fusion_lat": 0.0, "lon": -76.98817233333334, "name": "c612037ca06a7c4dd9ee26f9009fbd61"}, {"bike_id": "9a43be37ba16ca87baef324d7e1b5749", "type": "electric_scooter", "is_disabled": 0, "lat": 38.86689666666667, "rental_uris": {"ios": "https://dc.lft.to/lastmile_qr_scan", "android": "https://dc.lft.to/lastmile_qr_scan"}, "is_reserved": 0, "fusion_lon": 0.0, "fusion_lat": 0.0, "lon": -76.98575466666667, "name": "9a43be37ba16ca87baef324d7e1b5749"}, {"bike_id": "046498475c85955779e9113e552b4f5b", "type": "electric_scooter", "is_disabled": 0, "lat": 38.907015, "rental_uris": {"ios": "https://dc.lft.to/lastmile_qr_scan", "android": "https://dc.lft.to/lastmile_qr_scan"}, "is_reserved": 0, "fusion_lon": 0.0, "fusion_lat": 0.0, "lon": -77.02415783333333, "name": "046498475c85955779e9113e552b4f5b"}, {"bike_id": "0db09c5f36e52dc585b97c16b144b8bd", "type": "electric_scooter", "is_disabled": 0, "lat": 38.927509, "rental_uris": {"ios": "https://dc.lft.to/lastmile_qr_scan", "android": "https://dc.lft.to/lastmile_qr_scan"}, "is_reserved": 0, "fusion_lon": 0.0, "fusion_lat": 0.0, "lon": -77.02536316666666, "name": "0db09c5f36e52dc585b97c16b144b8bd"}, {"bike_id": "b8cbebe2e4f8636427fbbb438d09a1d7", "type": "electric_scooter", "is_disabled": 0, "lat": 38.913382166666665, "rental_uris": {"ios": "https://dc.lft.to/lastmile_qr_scan", "android": "https://dc.lft.to/lastmile_qr_scan"}, "is_reserved": 0, "fusion_lon": 0.0, "fusion_lat": 0.0, "lon": -77.03978933333333, "name": "b8cbebe2e4f8636427fbbb438d09a1d7"}, {"bike_id": "362adb15c99a7805d8c5ec54ad03bc92", "type": "electric_scooter", "is_disabled": 0, "lat": 38.907593, "rental_uris": {"ios": "https://dc.lft.to/lastmile_qr_scan", "android": "https://dc.lft.to/lastmile_qr_scan"}, "is_reserved": 0, "fusion_lon": 0.0, "fusion_lat": 0.0, "lon": -77.04353016666667, "name": "362adb15c99a7805d8c5ec54ad03bc92"}, {"bike_id": "dacb7724355db05e8e6420bb50ee09a1", "type": "electric_scooter", "is_disabled": 0, "lat": 38.934596166666665, "rental_uris": {"ios": "https://dc.lft.to/lastmile_qr_scan", "android": "https://dc.lft.to/lastmile_qr_scan"}, "is_reserved": 0, "fusion_lon": 0.0, "fusion_lat": 0.0, "lon": -77.0276595, "name": "dacb7724355db05e8e6420bb50ee09a1"}, {"bike_id": "f05a90650d14905110ca84e7956fda33", "type": "electric_scooter", "is_disabled": 0, "lat": 38.9525815, "rental_uris": {"ios": "https://dc.lft.to/lastmile_qr_scan", "android": "https://dc.lft.to/lastmile_qr_scan"}, "is_reserved": 0, "fusion_lon": 0.0, "fusion_lat": 0.0, "lon": -77.01960983333333, "name": "f05a90650d14905110ca84e7956fda33"}, {"bike_id": "5fe7dbaf4f84f5e1a72ca46eb20fc358", "type": "electric_bike", "is_disabled": 0, "lat": 38.9846055, "rental_uris": {"ios": "https://dc.lft.to/lastmile_qr_scan", "android": "https://dc.lft.to/lastmile_qr_scan"}, "is_reserved": 0, "fusion_lon": 0.0, "fusion_lat": 0.0, "lon": -76.97059633333333, "name": "5fe7dbaf4f84f5e1a72ca46eb20fc358"}, {"bike_id": "d5d0b8d3ec7503cf253dc26e51ac04b5", "type": "electric_scooter", "is_disabled": 0, "lat": 38.917032, "rental_uris": {"ios": "https://dc.lft.to/lastmile_qr_scan", "android": "https://dc.lft.to/lastmile_qr_scan"}, "is_reserved": 0, "fusion_lon": 0.0, "fusion_lat": 0.0, "lon": -77.0323715, "name": "d5d0b8d3ec7503cf253dc26e51ac04b5"}, {"bike_id": "7988b048df9c7f56d172d8023b14f72c", "type": "electric_scooter", "is_disabled": 0, "lat": 38.8973825, "rental_uris": {"ios": "https://dc.lft.to/lastmile_qr_scan", "android": "https://dc.lft.to/lastmile_qr_scan"}, "is_reserved": 0, "fusion_lon": 0.0, "fusion_lat": 0.0, "lon": -77.04608816666666, "name": "7988b048df9c7f56d172d8023b14f72c"}, {"bike_id": "6799db080ed61aa56bb694dda6017937", "type": "electric_scooter", "is_disabled": 0, "lat": 38.9058115, "rental_uris": {"ios": "https://dc.lft.to/lastmile_qr_scan", "android": "https://dc.lft.to/lastmile_qr_scan"}, "is_reserved": 0, "fusion_lon": 0.0, "fusion_lat": 0.0, "lon": -77.00585116666667, "name": "6799db080ed61aa56bb694dda6017937"}, {"bike_id": "3c8b5f4c05efa85099a88511dffabd44", "type": "electric_scooter", "is_disabled": 0, "lat": 38.9235445, "rental_uris": {"ios": "https://dc.lft.to/lastmile_qr_scan", "android": "https://dc.lft.to/lastmile_qr_scan"}, "is_reserved": 0, "fusion_lon": 0.0, "fusion_lat": 0.0, "lon": -77.0504935, "name": "3c8b5f4c05efa85099a88511dffabd44"}, {"bike_id": "960bf2acabedc21ae0e290f801905fca", "type": "electric_scooter", "is_disabled": 0, "lat": 38.90569266666667, "rental_uris": {"ios": "https://dc.lft.to/lastmile_qr_scan", "android": "https://dc.lft.to/lastmile_qr_scan"}, "is_reserved": 0, "fusion_lon": 0.0, "fusion_lat": 0.0, "lon": -77.05154933333333, "name": "960bf2acabedc21ae0e290f801905fca"}, {"bike_id": "71821399324e0131fcf0f41e1b92b935", "type": "electric_scooter", "is_disabled": 0, "lat": 38.884882833333336, "rental_uris": {"ios": "https://dc.lft.to/lastmile_qr_scan", "android": "https://dc.lft.to/lastmile_qr_scan"}, "is_reserved": 0, "fusion_lon": 0.0, "fusion_lat": 0.0, "lon": -77.03475283333333, "name": "71821399324e0131fcf0f41e1b92b935"}, {"bike_id": "2f24d304ef72128b208a13f09ca4c8a7", "type": "electric_scooter", "is_disabled": 0, "lat": 38.90417983333333, "rental_uris": {"ios": "https://dc.lft.to/lastmile_qr_scan", "android": "https://dc.lft.to/lastmile_qr_scan"}, "is_reserved": 0, "fusion_lon": 0.0, "fusion_lat": 0.0, "lon": -77.04882633333334, "name": "2f24d304ef72128b208a13f09ca4c8a7"}, {"bike_id": "9d71affdc2f54f09cd9f2b76afd19ed9", "type": "electric_scooter", "is_disabled": 0, "lat": 38.9199425, "rental_uris": {"ios": "https://dc.lft.to/lastmile_qr_scan", "android": "https://dc.lft.to/lastmile_qr_scan"}, "is_reserved": 0, "fusion_lon": 0.0, "fusion_lat": 0.0, "lon": -77.01779383333333, "name": "9d71affdc2f54f09cd9f2b76afd19ed9"}, {"bike_id": "78744025ba9ab7b43bd26e5355cbcc91", "type": "electric_scooter", "is_disabled": 0, "lat": 38.92297216666667, "rental_uris": {"ios": "https://dc.lft.to/lastmile_qr_scan", "android": "https://dc.lft.to/lastmile_qr_scan"}, "is_reserved": 0, "fusion_lon": 0.0, "fusion_lat": 0.0, "lon": -77.0730025, "name": "78744025ba9ab7b43bd26e5355cbcc91"}, {"bike_id": "5d5b509004b4ecec7f0ddcb66db41cee", "type": "electric_scooter", "is_disabled": 0, "lat": 38.922175, "rental_uris": {"ios": "https://dc.lft.to/lastmile_qr_scan", "android": "https://dc.lft.to/lastmile_qr_scan"}, "is_reserved": 0, "fusion_lon": 0.0, "fusion_lat": 0.0, "lon": -77.04236416666667, "name": "5d5b509004b4ecec7f0ddcb66db41cee"}, {"bike_id": "58becfaeedee690efdbfd806de849f3d", "type": "electric_scooter", "is_disabled": 0, "lat": 38.900914666666665, "rental_uris": {"ios": "https://dc.lft.to/lastmile_qr_scan", "android": "https://dc.lft.to/lastmile_qr_scan"}, "is_reserved": 0, "fusion_lon": 0.0, "fusion_lat": 0.0, "lon": -77.0499035, "name": "58becfaeedee690efdbfd806de849f3d"}, {"bike_id": "c101f830b286fbe751e7984831646dff", "type": "electric_scooter", "is_disabled": 0, "lat": 38.8971955, "rental_uris": {"ios": "https://dc.lft.to/lastmile_qr_scan", "android": "https://dc.lft.to/lastmile_qr_scan"}, "is_reserved": 0, "fusion_lon": 0.0, "fusion_lat": 0.0, "lon": -77.02717216666667, "name": "c101f830b286fbe751e7984831646dff"}, {"bike_id": "084124f97a35a4d499c1c42154fdef58", "type": "electric_scooter", "is_disabled": 0, "lat": 38.9214865, "rental_uris": {"ios": "https://dc.lft.to/lastmile_qr_scan", "android": "https://dc.lft.to/lastmile_qr_scan"}, "is_reserved": 0, "fusion_lon": 0.0, "fusion_lat": 0.0, "lon": -77.03872316666667, "name": "084124f97a35a4d499c1c42154fdef58"}, {"bike_id": "94ee26bf711c22a902f5d2409cee7007", "type": "electric_scooter", "is_disabled": 0, "lat": 38.91835833333333, "rental_uris": {"ios": "https://dc.lft.to/lastmile_qr_scan", "android": "https://dc.lft.to/lastmile_qr_scan"}, "is_reserved": 0, "fusion_lon": 0.0, "fusion_lat": 0.0, "lon": -77.039417, "name": "94ee26bf711c22a902f5d2409cee7007"}, {"bike_id": "03c2e4e94b2418c3960b11ccb5a5c21c", "type": "electric_scooter", "is_disabled": 0, "lat": 38.91702516666667, "rental_uris": {"ios": "https://dc.lft.to/lastmile_qr_scan", "android": "https://dc.lft.to/lastmile_qr_scan"}, "is_reserved": 0, "fusion_lon": 0.0, "fusion_lat": 0.0, "lon": -77.02807416666667, "name": "03c2e4e94b2418c3960b11ccb5a5c21c"}, {"bike_id": "8c55f786ffdf49835b54648cb9317fa9", "type": "electric_scooter", "is_disabled": 0, "lat": 38.924553833333334, "rental_uris": {"ios": "https://dc.lft.to/lastmile_qr_scan", "android": "https://dc.lft.to/lastmile_qr_scan"}, "is_reserved": 0, "fusion_lon": 0.0, "fusion_lat": 0.0, "lon": -77.05225916666667, "name": "8c55f786ffdf49835b54648cb9317fa9"}, {"bike_id": "b017e6f00495fa068a909df1bb9a7adb", "type": "electric_scooter", "is_disabled": 0, "lat": 38.899866333333335, "rental_uris": {"ios": "https://dc.lft.to/lastmile_qr_scan", "android": "https://dc.lft.to/lastmile_qr_scan"}, "is_reserved": 0, "fusion_lon": 0.0, "fusion_lat": 0.0, "lon": -76.95000883333333, "name": "b017e6f00495fa068a909df1bb9a7adb"}, {"bike_id": "adc209a560893d4529084ea674e15ad6", "type": "electric_scooter", "is_disabled": 0, "lat": 38.91557483333333, "rental_uris": {"ios": "https://dc.lft.to/lastmile_qr_scan", "android": "https://dc.lft.to/lastmile_qr_scan"}, "is_reserved": 0, "fusion_lon": 0.0, "fusion_lat": 0.0, "lon": -77.031373, "name": "adc209a560893d4529084ea674e15ad6"}, {"bike_id": "60615586a9954dbd4954fb87a7771bb5", "type": "electric_scooter", "is_disabled": 0, "lat": 38.8589665, "rental_uris": {"ios": "https://dc.lft.to/lastmile_qr_scan", "android": "https://dc.lft.to/lastmile_qr_scan"}, "is_reserved": 0, "fusion_lon": 0.0, "fusion_lat": 0.0, "lon": -76.997304, "name": "60615586a9954dbd4954fb87a7771bb5"}, {"bike_id": "5a3d2b4787c2de880705bc21aa5b077f", "type": "electric_scooter", "is_disabled": 0, "lat": 38.878134333333335, "rental_uris": {"ios": "https://dc.lft.to/lastmile_qr_scan", "android": "https://dc.lft.to/lastmile_qr_scan"}, "is_reserved": 0, "fusion_lon": 0.0, "fusion_lat": 0.0, "lon": -76.97176083333333, "name": "5a3d2b4787c2de880705bc21aa5b077f"}, {"bike_id": "b2bddda909b7bc26d9cd20f2d02b9c0e", "type": "electric_scooter", "is_disabled": 0, "lat": 38.877371833333335, "rental_uris": {"ios": "https://dc.lft.to/lastmile_qr_scan", "android": "https://dc.lft.to/lastmile_qr_scan"}, "is_reserved": 0, "fusion_lon": 0.0, "fusion_lat": 0.0, "lon": -77.00454983333333, "name": "b2bddda909b7bc26d9cd20f2d02b9c0e"}, {"bike_id": "a1ae632973832970d9fe0fb2f21f7083", "type": "electric_scooter", "is_disabled": 0, "lat": 38.92107383333333, "rental_uris": {"ios": "https://dc.lft.to/lastmile_qr_scan", "android": "https://dc.lft.to/lastmile_qr_scan"}, "is_reserved": 0, "fusion_lon": 0.0, "fusion_lat": 0.0, "lon": -77.01766666666667, "name": "a1ae632973832970d9fe0fb2f21f7083"}, {"bike_id": "f72ce5568be4ebcb13338d7d1192db01", "type": "electric_scooter", "is_disabled": 0, "lat": 38.9376775, "rental_uris": {"ios": "https://dc.lft.to/lastmile_qr_scan", "android": "https://dc.lft.to/lastmile_qr_scan"}, "is_reserved": 0, "fusion_lon": 0.0, "fusion_lat": 0.0, "lon": -77.019721, "name": "f72ce5568be4ebcb13338d7d1192db01"}, {"bike_id": "1e18d1a2ebf948870695804f505cba88", "type": "electric_scooter", "is_disabled": 0, "lat": 38.91496633333333, "rental_uris": {"ios": "https://dc.lft.to/lastmile_qr_scan", "android": "https://dc.lft.to/lastmile_qr_scan"}, "is_reserved": 0, "fusion_lon": 0.0, "fusion_lat": 0.0, "lon": -77.03194683333334, "name": "1e18d1a2ebf948870695804f505cba88"}, {"bike_id": "82e157891b0feeb4e8b9bfce47fa7171", "type": "electric_scooter", "is_disabled": 0, "lat": 38.911033333333336, "rental_uris": {"ios": "https://dc.lft.to/lastmile_qr_scan", "android": "https://dc.lft.to/lastmile_qr_scan"}, "is_reserved": 0, "fusion_lon": 0.0, "fusion_lat": 0.0, "lon": -77.0021385, "name": "82e157891b0feeb4e8b9bfce47fa7171"}, {"bike_id": "c6090ac120d64a0ee0600e3c6f8b3315", "type": "electric_scooter", "is_disabled": 0, "lat": 38.89847916666667, "rental_uris": {"ios": "https://dc.lft.to/lastmile_qr_scan", "android": "https://dc.lft.to/lastmile_qr_scan"}, "is_reserved": 0, "fusion_lon": 0.0, "fusion_lat": 0.0, "lon": -77.02273483333333, "name": "c6090ac120d64a0ee0600e3c6f8b3315"}, {"bike_id": "2c66b8d14caeb279447ef685415e399a", "type": "electric_scooter", "is_disabled": 0, "lat": 38.883126833333336, "rental_uris": {"ios": "https://dc.lft.to/lastmile_qr_scan", "android": "https://dc.lft.to/lastmile_qr_scan"}, "is_reserved": 0, "fusion_lon": 0.0, "fusion_lat": 0.0, "lon": -77.0034325, "name": "2c66b8d14caeb279447ef685415e399a"}, {"bike_id": "334983e2bb27b34e80bf695ee15690ad", "type": "electric_scooter", "is_disabled": 0, "lat": 38.898212666666666, "rental_uris": {"ios": "https://dc.lft.to/lastmile_qr_scan", "android": "https://dc.lft.to/lastmile_qr_scan"}, "is_reserved": 0, "fusion_lon": 0.0, "fusion_lat": 0.0, "lon": -77.03314816666666, "name": "334983e2bb27b34e80bf695ee15690ad"}, {"bike_id": "bf274a12be0fe8831a1c46d60b4a9e3c", "type": "electric_scooter", "is_disabled": 0, "lat": 38.87627233333333, "rental_uris": {"ios": "https://dc.lft.to/lastmile_qr_scan", "android": "https://dc.lft.to/lastmile_qr_scan"}, "is_reserved": 0, "fusion_lon": 0.0, "fusion_lat": 0.0, "lon": -76.965261, "name": "bf274a12be0fe8831a1c46d60b4a9e3c"}, {"bike_id": "35dbecec015f63c1148fc194a93762ec", "type": "electric_bike", "is_disabled": 0, "lat": 38.88637116666666, "rental_uris": {"ios": "https://dc.lft.to/lastmile_qr_scan", "android": "https://dc.lft.to/lastmile_qr_scan"}, "is_reserved": 0, "fusion_lon": 0.0, "fusion_lat": 0.0, "lon": -77.12986816666667, "name": "35dbecec015f63c1148fc194a93762ec"}, {"bike_id": "57f963e1dd09b9dc2b5c7cd91337b381", "type": "electric_scooter", "is_disabled": 0, "lat": 38.90035433333333, "rental_uris": {"ios": "https://dc.lft.to/lastmile_qr_scan", "android": "https://dc.lft.to/lastmile_qr_scan"}, "is_reserved": 0, "fusion_lon": 0.0, "fusion_lat": 0.0, "lon": -77.01314483333333, "name": "57f963e1dd09b9dc2b5c7cd91337b381"}, {"bike_id": "799fe6845f097c91a5efe591af7e99ed", "type": "electric_scooter", "is_disabled": 0, "lat": 38.901890333333334, "rental_uris": {"ios": "https://dc.lft.to/lastmile_qr_scan", "android": "https://dc.lft.to/lastmile_qr_scan"}, "is_reserved": 0, "fusion_lon": 0.0, "fusion_lat": 0.0, "lon": -77.02030533333334, "name": "799fe6845f097c91a5efe591af7e99ed"}, {"bike_id": "56cb52e98835b92f28531e1eaa2f81f5", "type": "electric_scooter", "is_disabled": 0, "lat": 38.90510916666667, "rental_uris": {"ios": "https://dc.lft.to/lastmile_qr_scan", "android": "https://dc.lft.to/lastmile_qr_scan"}, "is_reserved": 0, "fusion_lon": 0.0, "fusion_lat": 0.0, "lon": -77.068467, "name": "56cb52e98835b92f28531e1eaa2f81f5"}, {"bike_id": "acc863aedbadc0b5a609ffbe52838fd7", "type": "electric_bike", "is_disabled": 0, "lat": 38.952352833333336, "rental_uris": {"ios": "https://dc.lft.to/lastmile_qr_scan", "android": "https://dc.lft.to/lastmile_qr_scan"}, "is_reserved": 0, "fusion_lon": 0.0, "fusion_lat": 0.0, "lon": -76.979579, "name": "acc863aedbadc0b5a609ffbe52838fd7"}, {"bike_id": "c8c2afad276eafd33b08854d21c8416e", "type": "electric_scooter", "is_disabled": 0, "lat": 38.87667066666667, "rental_uris": {"ios": "https://dc.lft.to/lastmile_qr_scan", "android": "https://dc.lft.to/lastmile_qr_scan"}, "is_reserved": 0, "fusion_lon": 0.0, "fusion_lat": 0.0, "lon": -77.000582, "name": "c8c2afad276eafd33b08854d21c8416e"}, {"bike_id": "da83fc57fc63200b673f76041d83c3af", "type": "electric_scooter", "is_disabled": 0, "lat": 38.9006205, "rental_uris": {"ios": "https://dc.lft.to/lastmile_qr_scan", "android": "https://dc.lft.to/lastmile_qr_scan"}, "is_reserved": 0, "fusion_lon": 0.0, "fusion_lat": 0.0, "lon": -76.927415, "name": "da83fc57fc63200b673f76041d83c3af"}, {"bike_id": "c0d8e435e7e5b30c04293939c756b1e5", "type": "electric_scooter", "is_disabled": 0, "lat": 38.939357333333334, "rental_uris": {"ios": "https://dc.lft.to/lastmile_qr_scan", "android": "https://dc.lft.to/lastmile_qr_scan"}, "is_reserved": 0, "fusion_lon": 0.0, "fusion_lat": 0.0, "lon": -77.03665716666667, "name": "c0d8e435e7e5b30c04293939c756b1e5"}, {"bike_id": "9fdc2a1a7cc9a13b250baa838ccc1b41", "type": "electric_scooter", "is_disabled": 0, "lat": 38.949929833333336, "rental_uris": {"ios": "https://dc.lft.to/lastmile_qr_scan", "android": "https://dc.lft.to/lastmile_qr_scan"}, "is_reserved": 0, "fusion_lon": 0.0, "fusion_lat": 0.0, "lon": -77.01828833333333, "name": "9fdc2a1a7cc9a13b250baa838ccc1b41"}, {"bike_id": "f0fbbab77570c7b548afea7957362616", "type": "electric_scooter", "is_disabled": 0, "lat": 38.905678333333334, "rental_uris": {"ios": "https://dc.lft.to/lastmile_qr_scan", "android": "https://dc.lft.to/lastmile_qr_scan"}, "is_reserved": 0, "fusion_lon": 0.0, "fusion_lat": 0.0, "lon": -77.05152283333334, "name": "f0fbbab77570c7b548afea7957362616"}, {"bike_id": "e9fb13a02f1d4ae6027e94c42ecbfabb", "type": "electric_scooter", "is_disabled": 0, "lat": 38.91252333333333, "rental_uris": {"ios": "https://dc.lft.to/lastmile_qr_scan", "android": "https://dc.lft.to/lastmile_qr_scan"}, "is_reserved": 0, "fusion_lon": 0.0, "fusion_lat": 0.0, "lon": -77.02425166666667, "name": "e9fb13a02f1d4ae6027e94c42ecbfabb"}, {"bike_id": "9b0673b4e2891317a0c7721f96997a01", "type": "electric_scooter", "is_disabled": 0, "lat": 38.93193383333333, "rental_uris": {"ios": "https://dc.lft.to/lastmile_qr_scan", "android": "https://dc.lft.to/lastmile_qr_scan"}, "is_reserved": 0, "fusion_lon": 0.0, "fusion_lat": 0.0, "lon": -77.02397816666667, "name": "9b0673b4e2891317a0c7721f96997a01"}, {"bike_id": "d8422a6de7a8d9dadfd2f3067cc145a1", "type": "electric_scooter", "is_disabled": 0, "lat": 38.90738433333333, "rental_uris": {"ios": "https://dc.lft.to/lastmile_qr_scan", "android": "https://dc.lft.to/lastmile_qr_scan"}, "is_reserved": 0, "fusion_lon": 0.0, "fusion_lat": 0.0, "lon": -77.02183816666667, "name": "d8422a6de7a8d9dadfd2f3067cc145a1"}, {"bike_id": "23a2386604c1d06dc41b9154378cdd57", "type": "electric_scooter", "is_disabled": 0, "lat": 38.89738666666667, "rental_uris": {"ios": "https://dc.lft.to/lastmile_qr_scan", "android": "https://dc.lft.to/lastmile_qr_scan"}, "is_reserved": 0, "fusion_lon": 0.0, "fusion_lat": 0.0, "lon": -77.00351633333334, "name": "23a2386604c1d06dc41b9154378cdd57"}, {"bike_id": "daacf5a1d73361395a8c3fafabb5d416", "type": "electric_scooter", "is_disabled": 0, "lat": 38.9239175, "rental_uris": {"ios": "https://dc.lft.to/lastmile_qr_scan", "android": "https://dc.lft.to/lastmile_qr_scan"}, "is_reserved": 0, "fusion_lon": 0.0, "fusion_lat": 0.0, "lon": -77.04449733333334, "name": "daacf5a1d73361395a8c3fafabb5d416"}, {"bike_id": "2996cbb4433fd260af7ec8cb52fe5f1e", "type": "electric_scooter", "is_disabled": 0, "lat": 38.92052916666667, "rental_uris": {"ios": "https://dc.lft.to/lastmile_qr_scan", "android": "https://dc.lft.to/lastmile_qr_scan"}, "is_reserved": 0, "fusion_lon": 0.0, "fusion_lat": 0.0, "lon": -77.0324805, "name": "2996cbb4433fd260af7ec8cb52fe5f1e"}, {"bike_id": "2dffb130bfda2507f42fea07a98c4fbb", "type": "electric_scooter", "is_disabled": 0, "lat": 38.902064333333335, "rental_uris": {"ios": "https://dc.lft.to/lastmile_qr_scan", "android": "https://dc.lft.to/lastmile_qr_scan"}, "is_reserved": 0, "fusion_lon": 0.0, "fusion_lat": 0.0, "lon": -77.02180816666667, "name": "2dffb130bfda2507f42fea07a98c4fbb"}, {"bike_id": "7fad99472e59447c7985c7937964c27e", "type": "electric_scooter", "is_disabled": 0, "lat": 38.94289666666667, "rental_uris": {"ios": "https://dc.lft.to/lastmile_qr_scan", "android": "https://dc.lft.to/lastmile_qr_scan"}, "is_reserved": 0, "fusion_lon": 0.0, "fusion_lat": 0.0, "lon": -77.02173933333333, "name": "7fad99472e59447c7985c7937964c27e"}, {"bike_id": "0cd650a62024d4cf227ca80b14f8583a", "type": "electric_scooter", "is_disabled": 0, "lat": 38.907239, "rental_uris": {"ios": "https://dc.lft.to/lastmile_qr_scan", "android": "https://dc.lft.to/lastmile_qr_scan"}, "is_reserved": 0, "fusion_lon": 0.0, "fusion_lat": 0.0, "lon": -77.04028016666666, "name": "0cd650a62024d4cf227ca80b14f8583a"}, {"bike_id": "cc7f88af88a70abbefd2c250d8db0fb2", "type": "electric_bike", "is_disabled": 0, "lat": 38.853535666666666, "rental_uris": {"ios": "https://dc.lft.to/lastmile_qr_scan", "android": "https://dc.lft.to/lastmile_qr_scan"}, "is_reserved": 0, "fusion_lon": 0.0, "fusion_lat": 0.0, "lon": -77.13472766666666, "name": "cc7f88af88a70abbefd2c250d8db0fb2"}, {"bike_id": "5d1b1e2f3acff8ad21185147ed7ec7dd", "type": "electric_scooter", "is_disabled": 0, "lat": 38.897440833333334, "rental_uris": {"ios": "https://dc.lft.to/lastmile_qr_scan", "android": "https://dc.lft.to/lastmile_qr_scan"}, "is_reserved": 0, "fusion_lon": 0.0, "fusion_lat": 0.0, "lon": -76.9797275, "name": "5d1b1e2f3acff8ad21185147ed7ec7dd"}, {"bike_id": "4de17f561ddd6c95c5de2615d9eed122", "type": "electric_scooter", "is_disabled": 0, "lat": 38.924942333333334, "rental_uris": {"ios": "https://dc.lft.to/lastmile_qr_scan", "android": "https://dc.lft.to/lastmile_qr_scan"}, "is_reserved": 0, "fusion_lon": 0.0, "fusion_lat": 0.0, "lon": -77.05116166666667, "name": "4de17f561ddd6c95c5de2615d9eed122"}, {"bike_id": "b8c9573c6896ff6723356b342160d914", "type": "electric_scooter", "is_disabled": 0, "lat": 38.91762666666666, "rental_uris": {"ios": "https://dc.lft.to/lastmile_qr_scan", "android": "https://dc.lft.to/lastmile_qr_scan"}, "is_reserved": 0, "fusion_lon": 0.0, "fusion_lat": 0.0, "lon": -77.02282633333333, "name": "b8c9573c6896ff6723356b342160d914"}, {"bike_id": "45d7fa5a358cc3ced2758b18848d9ac0", "type": "electric_scooter", "is_disabled": 0, "lat": 38.91703166666667, "rental_uris": {"ios": "https://dc.lft.to/lastmile_qr_scan", "android": "https://dc.lft.to/lastmile_qr_scan"}, "is_reserved": 0, "fusion_lon": 0.0, "fusion_lat": 0.0, "lon": -77.037707, "name": "45d7fa5a358cc3ced2758b18848d9ac0"}, {"bike_id": "b03bb90e7fd2235f2840b064764e75bf", "type": "electric_scooter", "is_disabled": 0, "lat": 38.9008335, "rental_uris": {"ios": "https://dc.lft.to/lastmile_qr_scan", "android": "https://dc.lft.to/lastmile_qr_scan"}, "is_reserved": 0, "fusion_lon": 0.0, "fusion_lat": 0.0, "lon": -77.01697933333334, "name": "b03bb90e7fd2235f2840b064764e75bf"}, {"bike_id": "71df9bedf2c7e81874c0757e02145608", "type": "electric_scooter", "is_disabled": 0, "lat": 38.92068883333334, "rental_uris": {"ios": "https://dc.lft.to/lastmile_qr_scan", "android": "https://dc.lft.to/lastmile_qr_scan"}, "is_reserved": 0, "fusion_lon": 0.0, "fusion_lat": 0.0, "lon": -77.04250883333333, "name": "71df9bedf2c7e81874c0757e02145608"}, {"bike_id": "72436479c469c8aefe6838b108466b60", "type": "electric_scooter", "is_disabled": 0, "lat": 38.90728466666667, "rental_uris": {"ios": "https://dc.lft.to/lastmile_qr_scan", "android": "https://dc.lft.to/lastmile_qr_scan"}, "is_reserved": 0, "fusion_lon": 0.0, "fusion_lat": 0.0, "lon": -77.02885766666667, "name": "72436479c469c8aefe6838b108466b60"}, {"bike_id": "95ee8c9e95fc50683d410dc8dba413c9", "type": "electric_scooter", "is_disabled": 0, "lat": 38.9274755, "rental_uris": {"ios": "https://dc.lft.to/lastmile_qr_scan", "android": "https://dc.lft.to/lastmile_qr_scan"}, "is_reserved": 0, "fusion_lon": 0.0, "fusion_lat": 0.0, "lon": -77.02534583333333, "name": "95ee8c9e95fc50683d410dc8dba413c9"}, {"bike_id": "80ee06ba23f879c9f1303ffe6f886324", "type": "electric_scooter", "is_disabled": 0, "lat": 38.911159833333336, "rental_uris": {"ios": "https://dc.lft.to/lastmile_qr_scan", "android": "https://dc.lft.to/lastmile_qr_scan"}, "is_reserved": 0, "fusion_lon": 0.0, "fusion_lat": 0.0, "lon": -77.0472405, "name": "80ee06ba23f879c9f1303ffe6f886324"}, {"bike_id": "6765e7249a2e0ffdf4d26458c48fff21", "type": "electric_scooter", "is_disabled": 0, "lat": 38.91103116666667, "rental_uris": {"ios": "https://dc.lft.to/lastmile_qr_scan", "android": "https://dc.lft.to/lastmile_qr_scan"}, "is_reserved": 0, "fusion_lon": 0.0, "fusion_lat": 0.0, "lon": -77.002164, "name": "6765e7249a2e0ffdf4d26458c48fff21"}, {"bike_id": "28e399104a5a0b0e5a1cdff61f892107", "type": "electric_scooter", "is_disabled": 0, "lat": 38.915192166666664, "rental_uris": {"ios": "https://dc.lft.to/lastmile_qr_scan", "android": "https://dc.lft.to/lastmile_qr_scan"}, "is_reserved": 0, "fusion_lon": 0.0, "fusion_lat": 0.0, "lon": -77.01980183333333, "name": "28e399104a5a0b0e5a1cdff61f892107"}, {"bike_id": "08f22864e8ad66fef752b96df65dc6a2", "type": "electric_scooter", "is_disabled": 0, "lat": 38.903807666666665, "rental_uris": {"ios": "https://dc.lft.to/lastmile_qr_scan", "android": "https://dc.lft.to/lastmile_qr_scan"}, "is_reserved": 0, "fusion_lon": 0.0, "fusion_lat": 0.0, "lon": -76.98206483333334, "name": "08f22864e8ad66fef752b96df65dc6a2"}, {"bike_id": "b5c7e122b9cd913edadb1fba65bf37b1", "type": "electric_scooter", "is_disabled": 0, "lat": 38.92028, "rental_uris": {"ios": "https://dc.lft.to/lastmile_qr_scan", "android": "https://dc.lft.to/lastmile_qr_scan"}, "is_reserved": 0, "fusion_lon": 0.0, "fusion_lat": 0.0, "lon": -77.0019285, "name": "b5c7e122b9cd913edadb1fba65bf37b1"}, {"bike_id": "e3ecc3079b4fda251284045eaecb52d4", "type": "electric_scooter", "is_disabled": 0, "lat": 38.906538166666664, "rental_uris": {"ios": "https://dc.lft.to/lastmile_qr_scan", "android": "https://dc.lft.to/lastmile_qr_scan"}, "is_reserved": 0, "fusion_lon": 0.0, "fusion_lat": 0.0, "lon": -77.04288133333333, "name": "e3ecc3079b4fda251284045eaecb52d4"}, {"bike_id": "d08688470738db4a700ab6e98564a305", "type": "electric_scooter", "is_disabled": 0, "lat": 38.927580666666664, "rental_uris": {"ios": "https://dc.lft.to/lastmile_qr_scan", "android": "https://dc.lft.to/lastmile_qr_scan"}, "is_reserved": 0, "fusion_lon": 0.0, "fusion_lat": 0.0, "lon": -77.056423, "name": "d08688470738db4a700ab6e98564a305"}, {"bike_id": "0ed6499a0a3b70732c3722ea2cd0bbbb", "type": "electric_scooter", "is_disabled": 0, "lat": 38.896718, "rental_uris": {"ios": "https://dc.lft.to/lastmile_qr_scan", "android": "https://dc.lft.to/lastmile_qr_scan"}, "is_reserved": 0, "fusion_lon": 0.0, "fusion_lat": 0.0, "lon": -77.0051845, "name": "0ed6499a0a3b70732c3722ea2cd0bbbb"}, {"bike_id": "eae4010abfcfd14bd57213cc9e975184", "type": "electric_scooter", "is_disabled": 0, "lat": 38.908438833333335, "rental_uris": {"ios": "https://dc.lft.to/lastmile_qr_scan", "android": "https://dc.lft.to/lastmile_qr_scan"}, "is_reserved": 0, "fusion_lon": 0.0, "fusion_lat": 0.0, "lon": -77.02697033333334, "name": "eae4010abfcfd14bd57213cc9e975184"}, {"bike_id": "97fa41a27f075a5764c60f094a57dbfc", "type": "electric_scooter", "is_disabled": 0, "lat": 38.91413433333334, "rental_uris": {"ios": "https://dc.lft.to/lastmile_qr_scan", "android": "https://dc.lft.to/lastmile_qr_scan"}, "is_reserved": 0, "fusion_lon": 0.0, "fusion_lat": 0.0, "lon": -77.02814233333334, "name": "97fa41a27f075a5764c60f094a57dbfc"}, {"bike_id": "a20c7a364aca52f4a988b1c5ca832388", "type": "electric_scooter", "is_disabled": 0, "lat": 38.887405, "rental_uris": {"ios": "https://dc.lft.to/lastmile_qr_scan", "android": "https://dc.lft.to/lastmile_qr_scan"}, "is_reserved": 0, "fusion_lon": 0.0, "fusion_lat": 0.0, "lon": -77.01535166666666, "name": "a20c7a364aca52f4a988b1c5ca832388"}, {"bike_id": "175d529987925feed275ba8d3a3aea43", "type": "electric_scooter", "is_disabled": 0, "lat": 38.90763183333333, "rental_uris": {"ios": "https://dc.lft.to/lastmile_qr_scan", "android": "https://dc.lft.to/lastmile_qr_scan"}, "is_reserved": 0, "fusion_lon": 0.0, "fusion_lat": 0.0, "lon": -77.04351066666666, "name": "175d529987925feed275ba8d3a3aea43"}, {"bike_id": "6fbbeec7729cf67b943c2271f5be31b5", "type": "electric_scooter", "is_disabled": 0, "lat": 38.93070083333333, "rental_uris": {"ios": "https://dc.lft.to/lastmile_qr_scan", "android": "https://dc.lft.to/lastmile_qr_scan"}, "is_reserved": 0, "fusion_lon": 0.0, "fusion_lat": 0.0, "lon": -77.02131183333333, "name": "6fbbeec7729cf67b943c2271f5be31b5"}, {"bike_id": "ddf59dde8eb9bdb6817739ed74ebaa26", "type": "electric_scooter", "is_disabled": 0, "lat": 38.92244183333333, "rental_uris": {"ios": "https://dc.lft.to/lastmile_qr_scan", "android": "https://dc.lft.to/lastmile_qr_scan"}, "is_reserved": 0, "fusion_lon": 0.0, "fusion_lat": 0.0, "lon": -77.04013166666667, "name": "ddf59dde8eb9bdb6817739ed74ebaa26"}, {"bike_id": "5303f1da035941a25317ae494a6b3337", "type": "electric_scooter", "is_disabled": 0, "lat": 38.91857983333333, "rental_uris": {"ios": "https://dc.lft.to/lastmile_qr_scan", "android": "https://dc.lft.to/lastmile_qr_scan"}, "is_reserved": 0, "fusion_lon": 0.0, "fusion_lat": 0.0, "lon": -77.04174633333334, "name": "5303f1da035941a25317ae494a6b3337"}, {"bike_id": "ed76475259624ad4a0c9f03d69c6cec4", "type": "electric_scooter", "is_disabled": 0, "lat": 38.90541983333333, "rental_uris": {"ios": "https://dc.lft.to/lastmile_qr_scan", "android": "https://dc.lft.to/lastmile_qr_scan"}, "is_reserved": 0, "fusion_lon": 0.0, "fusion_lat": 0.0, "lon": -77.03114116666667, "name": "ed76475259624ad4a0c9f03d69c6cec4"}, {"bike_id": "f61ea051fdb4879807619917f84c9ab0", "type": "electric_scooter", "is_disabled": 0, "lat": 38.89132266666667, "rental_uris": {"ios": "https://dc.lft.to/lastmile_qr_scan", "android": "https://dc.lft.to/lastmile_qr_scan"}, "is_reserved": 0, "fusion_lon": 0.0, "fusion_lat": 0.0, "lon": -76.95184266666666, "name": "f61ea051fdb4879807619917f84c9ab0"}, {"bike_id": "be41b5bb282083ebc5128f2ff84fac71", "type": "electric_scooter", "is_disabled": 0, "lat": 38.917116, "rental_uris": {"ios": "https://dc.lft.to/lastmile_qr_scan", "android": "https://dc.lft.to/lastmile_qr_scan"}, "is_reserved": 0, "fusion_lon": 0.0, "fusion_lat": 0.0, "lon": -77.03831033333333, "name": "be41b5bb282083ebc5128f2ff84fac71"}, {"bike_id": "9713d697e18479b11b6f6f200b48ef0e", "type": "electric_scooter", "is_disabled": 0, "lat": 38.913677666666665, "rental_uris": {"ios": "https://dc.lft.to/lastmile_qr_scan", "android": "https://dc.lft.to/lastmile_qr_scan"}, "is_reserved": 0, "fusion_lon": 0.0, "fusion_lat": 0.0, "lon": -77.0122775, "name": "9713d697e18479b11b6f6f200b48ef0e"}, {"bike_id": "8b94aa35034ebe7ea51bd21fa92e1b14", "type": "electric_scooter", "is_disabled": 0, "lat": 38.91684433333333, "rental_uris": {"ios": "https://dc.lft.to/lastmile_qr_scan", "android": "https://dc.lft.to/lastmile_qr_scan"}, "is_reserved": 0, "fusion_lon": 0.0, "fusion_lat": 0.0, "lon": -77.029558, "name": "8b94aa35034ebe7ea51bd21fa92e1b14"}, {"bike_id": "4b01bb75e8ebe63d36f50526ee653056", "type": "electric_scooter", "is_disabled": 0, "lat": 38.913153666666666, "rental_uris": {"ios": "https://dc.lft.to/lastmile_qr_scan", "android": "https://dc.lft.to/lastmile_qr_scan"}, "is_reserved": 0, "fusion_lon": 0.0, "fusion_lat": 0.0, "lon": -77.038582, "name": "4b01bb75e8ebe63d36f50526ee653056"}, {"bike_id": "adb461963008978eb929040c87f91964", "type": "electric_scooter", "is_disabled": 0, "lat": 38.958554, "rental_uris": {"ios": "https://dc.lft.to/lastmile_qr_scan", "android": "https://dc.lft.to/lastmile_qr_scan"}, "is_reserved": 0, "fusion_lon": 0.0, "fusion_lat": 0.0, "lon": -77.02792933333333, "name": "adb461963008978eb929040c87f91964"}, {"bike_id": "a239d20c3069279dbefad5c145a1d882", "type": "electric_scooter", "is_disabled": 0, "lat": 38.90560383333333, "rental_uris": {"ios": "https://dc.lft.to/lastmile_qr_scan", "android": "https://dc.lft.to/lastmile_qr_scan"}, "is_reserved": 0, "fusion_lon": 0.0, "fusion_lat": 0.0, "lon": -77.02816733333333, "name": "a239d20c3069279dbefad5c145a1d882"}, {"bike_id": "77f43bd856ce8d7dc533ce5e93696ebb", "type": "electric_scooter", "is_disabled": 0, "lat": 38.90908616666667, "rental_uris": {"ios": "https://dc.lft.to/lastmile_qr_scan", "android": "https://dc.lft.to/lastmile_qr_scan"}, "is_reserved": 0, "fusion_lon": 0.0, "fusion_lat": 0.0, "lon": -77.031978, "name": "77f43bd856ce8d7dc533ce5e93696ebb"}, {"bike_id": "0412628ed29e926306548f946439401c", "type": "electric_scooter", "is_disabled": 0, "lat": 38.89365816666667, "rental_uris": {"ios": "https://dc.lft.to/lastmile_qr_scan", "android": "https://dc.lft.to/lastmile_qr_scan"}, "is_reserved": 0, "fusion_lon": 0.0, "fusion_lat": 0.0, "lon": -76.94705983333333, "name": "0412628ed29e926306548f946439401c"}, {"bike_id": "924d6af0b44d4aa0d6507d7170e8fca8", "type": "electric_scooter", "is_disabled": 0, "lat": 38.97368983333333, "rental_uris": {"ios": "https://dc.lft.to/lastmile_qr_scan", "android": "https://dc.lft.to/lastmile_qr_scan"}, "is_reserved": 0, "fusion_lon": 0.0, "fusion_lat": 0.0, "lon": -77.01862383333334, "name": "924d6af0b44d4aa0d6507d7170e8fca8"}, {"bike_id": "c3e68e35320887959c6cd273f4cf67f7", "type": "electric_scooter", "is_disabled": 0, "lat": 38.91267216666667, "rental_uris": {"ios": "https://dc.lft.to/lastmile_qr_scan", "android": "https://dc.lft.to/lastmile_qr_scan"}, "is_reserved": 0, "fusion_lon": 0.0, "fusion_lat": 0.0, "lon": -77.02957383333333, "name": "c3e68e35320887959c6cd273f4cf67f7"}, {"bike_id": "64deaeb1f2d5cf405349dab4bbd523ae", "type": "electric_scooter", "is_disabled": 0, "lat": 38.89710316666667, "rental_uris": {"ios": "https://dc.lft.to/lastmile_qr_scan", "android": "https://dc.lft.to/lastmile_qr_scan"}, "is_reserved": 0, "fusion_lon": 0.0, "fusion_lat": 0.0, "lon": -77.04887333333333, "name": "64deaeb1f2d5cf405349dab4bbd523ae"}, {"bike_id": "f3bb3781296ba30e3e8d8009f0d64f7a", "type": "electric_scooter", "is_disabled": 0, "lat": 38.9152955, "rental_uris": {"ios": "https://dc.lft.to/lastmile_qr_scan", "android": "https://dc.lft.to/lastmile_qr_scan"}, "is_reserved": 0, "fusion_lon": 0.0, "fusion_lat": 0.0, "lon": -77.0320165, "name": "f3bb3781296ba30e3e8d8009f0d64f7a"}, {"bike_id": "0261ae07317513623f2e42c49bdec0d5", "type": "electric_scooter", "is_disabled": 0, "lat": 38.8918985, "rental_uris": {"ios": "https://dc.lft.to/lastmile_qr_scan", "android": "https://dc.lft.to/lastmile_qr_scan"}, "is_reserved": 0, "fusion_lon": 0.0, "fusion_lat": 0.0, "lon": -77.03638583333333, "name": "0261ae07317513623f2e42c49bdec0d5"}, {"bike_id": "5bd97a8cc2bfdf2a1ca006e12cb9862b", "type": "electric_scooter", "is_disabled": 0, "lat": 38.947941666666665, "rental_uris": {"ios": "https://dc.lft.to/lastmile_qr_scan", "android": "https://dc.lft.to/lastmile_qr_scan"}, "is_reserved": 0, "fusion_lon": 0.0, "fusion_lat": 0.0, "lon": -77.0213195, "name": "5bd97a8cc2bfdf2a1ca006e12cb9862b"}, {"bike_id": "c6c3f2f5d18762d7029ddd5d4fd7921b", "type": "electric_scooter", "is_disabled": 0, "lat": 38.882776166666666, "rental_uris": {"ios": "https://dc.lft.to/lastmile_qr_scan", "android": "https://dc.lft.to/lastmile_qr_scan"}, "is_reserved": 0, "fusion_lon": 0.0, "fusion_lat": 0.0, "lon": -77.02147733333334, "name": "c6c3f2f5d18762d7029ddd5d4fd7921b"}, {"bike_id": "5b54418fb2bd9b7af5b63f33d67c73fe", "type": "electric_scooter", "is_disabled": 0, "lat": 38.8991525, "rental_uris": {"ios": "https://dc.lft.to/lastmile_qr_scan", "android": "https://dc.lft.to/lastmile_qr_scan"}, "is_reserved": 0, "fusion_lon": 0.0, "fusion_lat": 0.0, "lon": -76.93370933333334, "name": "5b54418fb2bd9b7af5b63f33d67c73fe"}, {"bike_id": "bf5c8df43db8b1e63fe16af51d21a68f", "type": "electric_scooter", "is_disabled": 0, "lat": 38.92250083333333, "rental_uris": {"ios": "https://dc.lft.to/lastmile_qr_scan", "android": "https://dc.lft.to/lastmile_qr_scan"}, "is_reserved": 0, "fusion_lon": 0.0, "fusion_lat": 0.0, "lon": -77.04206416666666, "name": "bf5c8df43db8b1e63fe16af51d21a68f"}, {"bike_id": "7a32d371a557570407f6376d0bb6d2d9", "type": "electric_scooter", "is_disabled": 0, "lat": 38.91714433333333, "rental_uris": {"ios": "https://dc.lft.to/lastmile_qr_scan", "android": "https://dc.lft.to/lastmile_qr_scan"}, "is_reserved": 0, "fusion_lon": 0.0, "fusion_lat": 0.0, "lon": -77.02394166666667, "name": "7a32d371a557570407f6376d0bb6d2d9"}, {"bike_id": "3917b511a348e6227ea46e248eeb7c58", "type": "electric_scooter", "is_disabled": 0, "lat": 38.904862666666666, "rental_uris": {"ios": "https://dc.lft.to/lastmile_qr_scan", "android": "https://dc.lft.to/lastmile_qr_scan"}, "is_reserved": 0, "fusion_lon": 0.0, "fusion_lat": 0.0, "lon": -77.02962583333333, "name": "3917b511a348e6227ea46e248eeb7c58"}, {"bike_id": "cc95f317369cd10bf50c65daff9b75be", "type": "electric_bike", "is_disabled": 0, "lat": 38.85722583333333, "rental_uris": {"ios": "https://dc.lft.to/lastmile_qr_scan", "android": "https://dc.lft.to/lastmile_qr_scan"}, "is_reserved": 0, "fusion_lon": 0.0, "fusion_lat": 0.0, "lon": -77.0796325, "name": "cc95f317369cd10bf50c65daff9b75be"}, {"bike_id": "2c06b2f0c1584394721c75bca729aed5", "type": "electric_bike", "is_disabled": 0, "lat": 38.922346166666664, "rental_uris": {"ios": "https://dc.lft.to/lastmile_qr_scan", "android": "https://dc.lft.to/lastmile_qr_scan"}, "is_reserved": 0, "fusion_lon": 0.0, "fusion_lat": 0.0, "lon": -77.04484516666666, "name": "2c06b2f0c1584394721c75bca729aed5"}, {"bike_id": "e9708406957532c9a1325e490b990182", "type": "electric_scooter", "is_disabled": 0, "lat": 38.920786166666666, "rental_uris": {"ios": "https://dc.lft.to/lastmile_qr_scan", "android": "https://dc.lft.to/lastmile_qr_scan"}, "is_reserved": 0, "fusion_lon": 0.0, "fusion_lat": 0.0, "lon": -77.02412133333333, "name": "e9708406957532c9a1325e490b990182"}, {"bike_id": "1572b3713b00003293f77acf92b1b7f4", "type": "electric_scooter", "is_disabled": 0, "lat": 38.934639, "rental_uris": {"ios": "https://dc.lft.to/lastmile_qr_scan", "android": "https://dc.lft.to/lastmile_qr_scan"}, "is_reserved": 0, "fusion_lon": 0.0, "fusion_lat": 0.0, "lon": -77.0452835, "name": "1572b3713b00003293f77acf92b1b7f4"}, {"bike_id": "4ebc659526f432fa446269faf6c00f6c", "type": "electric_scooter", "is_disabled": 0, "lat": 38.9195215, "rental_uris": {"ios": "https://dc.lft.to/lastmile_qr_scan", "android": "https://dc.lft.to/lastmile_qr_scan"}, "is_reserved": 0, "fusion_lon": 0.0, "fusion_lat": 0.0, "lon": -77.04159516666667, "name": "4ebc659526f432fa446269faf6c00f6c"}, {"bike_id": "ef9091a92c5473fa159441a22a078de4", "type": "electric_scooter", "is_disabled": 0, "lat": 38.91362616666667, "rental_uris": {"ios": "https://dc.lft.to/lastmile_qr_scan", "android": "https://dc.lft.to/lastmile_qr_scan"}, "is_reserved": 0, "fusion_lon": 0.0, "fusion_lat": 0.0, "lon": -77.01993133333333, "name": "ef9091a92c5473fa159441a22a078de4"}, {"bike_id": "722d89111867d69ed72b760fa3a3746e", "type": "electric_scooter", "is_disabled": 0, "lat": 38.903599666666665, "rental_uris": {"ios": "https://dc.lft.to/lastmile_qr_scan", "android": "https://dc.lft.to/lastmile_qr_scan"}, "is_reserved": 0, "fusion_lon": 0.0, "fusion_lat": 0.0, "lon": -77.0220625, "name": "722d89111867d69ed72b760fa3a3746e"}, {"bike_id": "609aefc834a79ef688202cfe04b99406", "type": "electric_scooter", "is_disabled": 0, "lat": 38.917088166666666, "rental_uris": {"ios": "https://dc.lft.to/lastmile_qr_scan", "android": "https://dc.lft.to/lastmile_qr_scan"}, "is_reserved": 0, "fusion_lon": 0.0, "fusion_lat": 0.0, "lon": -77.02956966666666, "name": "609aefc834a79ef688202cfe04b99406"}, {"bike_id": "fb43758f91d1e1726d87a7cd1682205f", "type": "electric_scooter", "is_disabled": 0, "lat": 38.921571666666665, "rental_uris": {"ios": "https://dc.lft.to/lastmile_qr_scan", "android": "https://dc.lft.to/lastmile_qr_scan"}, "is_reserved": 0, "fusion_lon": 0.0, "fusion_lat": 0.0, "lon": -77.0333245, "name": "fb43758f91d1e1726d87a7cd1682205f"}, {"bike_id": "a78cee9e02d2b48b662103c09a88a32f", "type": "electric_scooter", "is_disabled": 0, "lat": 38.90582166666667, "rental_uris": {"ios": "https://dc.lft.to/lastmile_qr_scan", "android": "https://dc.lft.to/lastmile_qr_scan"}, "is_reserved": 0, "fusion_lon": 0.0, "fusion_lat": 0.0, "lon": -77.0569805, "name": "a78cee9e02d2b48b662103c09a88a32f"}, {"bike_id": "39ac73a5e095a27969844a872b4c3ad0", "type": "electric_scooter", "is_disabled": 0, "lat": 38.90592683333333, "rental_uris": {"ios": "https://dc.lft.to/lastmile_qr_scan", "android": "https://dc.lft.to/lastmile_qr_scan"}, "is_reserved": 0, "fusion_lon": 0.0, "fusion_lat": 0.0, "lon": -77.02711883333333, "name": "39ac73a5e095a27969844a872b4c3ad0"}, {"bike_id": "d42d16d495c79c41da99cef7f5a97b44", "type": "electric_scooter", "is_disabled": 0, "lat": 38.9140865, "rental_uris": {"ios": "https://dc.lft.to/lastmile_qr_scan", "android": "https://dc.lft.to/lastmile_qr_scan"}, "is_reserved": 0, "fusion_lon": 0.0, "fusion_lat": 0.0, "lon": -77.02408433333333, "name": "d42d16d495c79c41da99cef7f5a97b44"}, {"bike_id": "bb3eda5148bb00a40319b9c3b15f110a", "type": "electric_scooter", "is_disabled": 0, "lat": 38.915009166666664, "rental_uris": {"ios": "https://dc.lft.to/lastmile_qr_scan", "android": "https://dc.lft.to/lastmile_qr_scan"}, "is_reserved": 0, "fusion_lon": 0.0, "fusion_lat": 0.0, "lon": -77.01776683333334, "name": "bb3eda5148bb00a40319b9c3b15f110a"}, {"bike_id": "7f34dc9e14ce25b17086487c71133f7e", "type": "electric_scooter", "is_disabled": 0, "lat": 38.903929166666664, "rental_uris": {"ios": "https://dc.lft.to/lastmile_qr_scan", "android": "https://dc.lft.to/lastmile_qr_scan"}, "is_reserved": 0, "fusion_lon": 0.0, "fusion_lat": 0.0, "lon": -77.06784766666667, "name": "7f34dc9e14ce25b17086487c71133f7e"}, {"bike_id": "80f396ba05b4a464dadf766c030f9819", "type": "electric_scooter", "is_disabled": 0, "lat": 38.904082, "rental_uris": {"ios": "https://dc.lft.to/lastmile_qr_scan", "android": "https://dc.lft.to/lastmile_qr_scan"}, "is_reserved": 0, "fusion_lon": 0.0, "fusion_lat": 0.0, "lon": -76.9733205, "name": "80f396ba05b4a464dadf766c030f9819"}, {"bike_id": "80ef68437d24a74d15c333543756417d", "type": "electric_scooter", "is_disabled": 0, "lat": 38.866565666666666, "rental_uris": {"ios": "https://dc.lft.to/lastmile_qr_scan", "android": "https://dc.lft.to/lastmile_qr_scan"}, "is_reserved": 0, "fusion_lon": 0.0, "fusion_lat": 0.0, "lon": -76.9888565, "name": "80ef68437d24a74d15c333543756417d"}, {"bike_id": "3a9aacbee160f9e7b143c0ae5947daee", "type": "electric_scooter", "is_disabled": 0, "lat": 38.92236883333333, "rental_uris": {"ios": "https://dc.lft.to/lastmile_qr_scan", "android": "https://dc.lft.to/lastmile_qr_scan"}, "is_reserved": 0, "fusion_lon": 0.0, "fusion_lat": 0.0, "lon": -77.03713566666667, "name": "3a9aacbee160f9e7b143c0ae5947daee"}, {"bike_id": "f2d83dab2c0fe793ede915924c9b9e45", "type": "electric_bike", "is_disabled": 0, "lat": 38.94733466666667, "rental_uris": {"ios": "https://dc.lft.to/lastmile_qr_scan", "android": "https://dc.lft.to/lastmile_qr_scan"}, "is_reserved": 0, "fusion_lon": 0.0, "fusion_lat": 0.0, "lon": -76.99586333333333, "name": "f2d83dab2c0fe793ede915924c9b9e45"}, {"bike_id": "203bac5510b9db39f8e782ddf3f58adb", "type": "electric_scooter", "is_disabled": 0, "lat": 38.905291, "rental_uris": {"ios": "https://dc.lft.to/lastmile_qr_scan", "android": "https://dc.lft.to/lastmile_qr_scan"}, "is_reserved": 0, "fusion_lon": 0.0, "fusion_lat": 0.0, "lon": -76.98619866666667, "name": "203bac5510b9db39f8e782ddf3f58adb"}, {"bike_id": "1bebb876a13f15daef31840df13a2308", "type": "electric_scooter", "is_disabled": 0, "lat": 38.93346, "rental_uris": {"ios": "https://dc.lft.to/lastmile_qr_scan", "android": "https://dc.lft.to/lastmile_qr_scan"}, "is_reserved": 0, "fusion_lon": 0.0, "fusion_lat": 0.0, "lon": -77.06199883333333, "name": "1bebb876a13f15daef31840df13a2308"}, {"bike_id": "e68a18e0c905985db1f8f97eeb2dc1b9", "type": "electric_scooter", "is_disabled": 0, "lat": 38.941785333333335, "rental_uris": {"ios": "https://dc.lft.to/lastmile_qr_scan", "android": "https://dc.lft.to/lastmile_qr_scan"}, "is_reserved": 0, "fusion_lon": 0.0, "fusion_lat": 0.0, "lon": -77.02534616666667, "name": "e68a18e0c905985db1f8f97eeb2dc1b9"}, {"bike_id": "6697f130678bd01e2da2a8aac57a5413", "type": "electric_scooter", "is_disabled": 0, "lat": 38.93509516666667, "rental_uris": {"ios": "https://dc.lft.to/lastmile_qr_scan", "android": "https://dc.lft.to/lastmile_qr_scan"}, "is_reserved": 0, "fusion_lon": 0.0, "fusion_lat": 0.0, "lon": -77.032935, "name": "6697f130678bd01e2da2a8aac57a5413"}, {"bike_id": "8793956af3c2950da355dc7aae52052e", "type": "electric_bike", "is_disabled": 0, "lat": 38.9308175, "rental_uris": {"ios": "https://dc.lft.to/lastmile_qr_scan", "android": "https://dc.lft.to/lastmile_qr_scan"}, "is_reserved": 0, "fusion_lon": 0.0, "fusion_lat": 0.0, "lon": -77.019987, "name": "8793956af3c2950da355dc7aae52052e"}, {"bike_id": "67bfda68b1da73f33cfea10469ca39ad", "type": "electric_scooter", "is_disabled": 0, "lat": 38.8669425, "rental_uris": {"ios": "https://dc.lft.to/lastmile_qr_scan", "android": "https://dc.lft.to/lastmile_qr_scan"}, "is_reserved": 0, "fusion_lon": 0.0, "fusion_lat": 0.0, "lon": -76.98714366666667, "name": "67bfda68b1da73f33cfea10469ca39ad"}, {"bike_id": "4ad98bcf98c0e4584455110532e6011e", "type": "electric_scooter", "is_disabled": 0, "lat": 38.85839466666667, "rental_uris": {"ios": "https://dc.lft.to/lastmile_qr_scan", "android": "https://dc.lft.to/lastmile_qr_scan"}, "is_reserved": 0, "fusion_lon": 0.0, "fusion_lat": 0.0, "lon": -76.98730466666666, "name": "4ad98bcf98c0e4584455110532e6011e"}, {"bike_id": "9a88f6899cc1d586c82a25463d1ac966", "type": "electric_scooter", "is_disabled": 0, "lat": 38.90598, "rental_uris": {"ios": "https://dc.lft.to/lastmile_qr_scan", "android": "https://dc.lft.to/lastmile_qr_scan"}, "is_reserved": 0, "fusion_lon": 0.0, "fusion_lat": 0.0, "lon": -77.0398485, "name": "9a88f6899cc1d586c82a25463d1ac966"}, {"bike_id": "18e997b4f73976906e26da390abec5d3", "type": "electric_scooter", "is_disabled": 0, "lat": 38.92162866666666, "rental_uris": {"ios": "https://dc.lft.to/lastmile_qr_scan", "android": "https://dc.lft.to/lastmile_qr_scan"}, "is_reserved": 0, "fusion_lon": 0.0, "fusion_lat": 0.0, "lon": -77.03851116666667, "name": "18e997b4f73976906e26da390abec5d3"}, {"bike_id": "35e1722fdb0965e21a6f91f650455ffa", "type": "electric_scooter", "is_disabled": 0, "lat": 38.9311195, "rental_uris": {"ios": "https://dc.lft.to/lastmile_qr_scan", "android": "https://dc.lft.to/lastmile_qr_scan"}, "is_reserved": 0, "fusion_lon": 0.0, "fusion_lat": 0.0, "lon": -77.0303225, "name": "35e1722fdb0965e21a6f91f650455ffa"}, {"bike_id": "a40133c0d0c13a835eb60a36347123de", "type": "electric_scooter", "is_disabled": 0, "lat": 38.89721133333333, "rental_uris": {"ios": "https://dc.lft.to/lastmile_qr_scan", "android": "https://dc.lft.to/lastmile_qr_scan"}, "is_reserved": 0, "fusion_lon": 0.0, "fusion_lat": 0.0, "lon": -76.9883865, "name": "a40133c0d0c13a835eb60a36347123de"}, {"bike_id": "8941497479ee2bec7180beab10639a5b", "type": "electric_scooter", "is_disabled": 0, "lat": 38.908193, "rental_uris": {"ios": "https://dc.lft.to/lastmile_qr_scan", "android": "https://dc.lft.to/lastmile_qr_scan"}, "is_reserved": 0, "fusion_lon": 0.0, "fusion_lat": 0.0, "lon": -77.063736, "name": "8941497479ee2bec7180beab10639a5b"}, {"bike_id": "7019d09ce892718c7650ba57ead63786", "type": "electric_scooter", "is_disabled": 0, "lat": 38.92263916666667, "rental_uris": {"ios": "https://dc.lft.to/lastmile_qr_scan", "android": "https://dc.lft.to/lastmile_qr_scan"}, "is_reserved": 0, "fusion_lon": 0.0, "fusion_lat": 0.0, "lon": -77.01969316666667, "name": "7019d09ce892718c7650ba57ead63786"}, {"bike_id": "e30bfa12d8d1b066a38c418688b4dc75", "type": "electric_scooter", "is_disabled": 0, "lat": 38.894800333333336, "rental_uris": {"ios": "https://dc.lft.to/lastmile_qr_scan", "android": "https://dc.lft.to/lastmile_qr_scan"}, "is_reserved": 0, "fusion_lon": 0.0, "fusion_lat": 0.0, "lon": -76.99521333333334, "name": "e30bfa12d8d1b066a38c418688b4dc75"}, {"bike_id": "5d3f1bf5cedd42ffdd33b7cd64c6a9d0", "type": "electric_scooter", "is_disabled": 0, "lat": 38.85763, "rental_uris": {"ios": "https://dc.lft.to/lastmile_qr_scan", "android": "https://dc.lft.to/lastmile_qr_scan"}, "is_reserved": 0, "fusion_lon": 0.0, "fusion_lat": 0.0, "lon": -76.99295666666667, "name": "5d3f1bf5cedd42ffdd33b7cd64c6a9d0"}, {"bike_id": "1c7380833c18ad2fb86b6cc307f26842", "type": "electric_scooter", "is_disabled": 0, "lat": 38.910328166666666, "rental_uris": {"ios": "https://dc.lft.to/lastmile_qr_scan", "android": "https://dc.lft.to/lastmile_qr_scan"}, "is_reserved": 0, "fusion_lon": 0.0, "fusion_lat": 0.0, "lon": -77.04329483333333, "name": "1c7380833c18ad2fb86b6cc307f26842"}, {"bike_id": "28781c3610b9df0d75b805ca64127b5c", "type": "electric_scooter", "is_disabled": 0, "lat": 38.88129216666667, "rental_uris": {"ios": "https://dc.lft.to/lastmile_qr_scan", "android": "https://dc.lft.to/lastmile_qr_scan"}, "is_reserved": 0, "fusion_lon": 0.0, "fusion_lat": 0.0, "lon": -77.00211083333333, "name": "28781c3610b9df0d75b805ca64127b5c"}, {"bike_id": "a7783cc826b34f62e112901ce3a646fd", "type": "electric_scooter", "is_disabled": 0, "lat": 38.904194333333336, "rental_uris": {"ios": "https://dc.lft.to/lastmile_qr_scan", "android": "https://dc.lft.to/lastmile_qr_scan"}, "is_reserved": 0, "fusion_lon": 0.0, "fusion_lat": 0.0, "lon": -76.97377433333334, "name": "a7783cc826b34f62e112901ce3a646fd"}, {"bike_id": "037d9af044e9b2b84937d57fa6c131c7", "type": "electric_scooter", "is_disabled": 0, "lat": 38.89528283333333, "rental_uris": {"ios": "https://dc.lft.to/lastmile_qr_scan", "android": "https://dc.lft.to/lastmile_qr_scan"}, "is_reserved": 0, "fusion_lon": 0.0, "fusion_lat": 0.0, "lon": -77.0321125, "name": "037d9af044e9b2b84937d57fa6c131c7"}, {"bike_id": "8a3dfc90c9a9b0725ef5514430f7899b", "type": "electric_scooter", "is_disabled": 0, "lat": 38.90062483333333, "rental_uris": {"ios": "https://dc.lft.to/lastmile_qr_scan", "android": "https://dc.lft.to/lastmile_qr_scan"}, "is_reserved": 0, "fusion_lon": 0.0, "fusion_lat": 0.0, "lon": -77.045394, "name": "8a3dfc90c9a9b0725ef5514430f7899b"},