{"data": {"bikes": [{"lat": 38.90180066666667, "is_disabled": 0, "type": "electric_scooter", "lon": -77.0499335, "bike_id": "213a2b744d96969c050ec14488836e1e", "fusion_lat": 0.0, "name": "213a2b744d96969c050ec14488836e1e", "is_reserved": 0, "rental_uris": {"android": "https://dc.lft.to/lastmile_qr_scan", "ios": "https://dc.lft.to/lastmile_qr_scan"}, "fusion_lon": 0.0}, {"lat": 38.92254483333333, "is_disabled": 0, "type": "electric_scooter", "lon": -77.042941, "bike_id": "3e4d4f5aff522fa54a1d9c8f64baca25", "fusion_lat": 0.0, "name": "3e4d4f5aff522fa54a1d9c8f64baca25", "is_reserved": 0, "rental_uris": {"android": "https://dc.lft.to/lastmile_qr_scan", "ios": "https://dc.lft.to/lastmile_qr_scan"}, "fusion_lon": 0.0}, {"lat": 38.915319333333336, "is_disabled": 0, "type": "electric_scooter", "lon": -77.0318385, "bike_id": "08caffcc0edaf266ee914328d0c07cfe", "fusion_lat": 0.0, "name": "08caffcc0edaf266ee914328d0c07cfe", "is_reserved": 0, "rental_uris": {"android": "https://dc.lft.to/lastmile_qr_scan", "ios": "https://dc.lft.to/lastmile_qr_scan"}, "fusion_lon": 0.0}, {"lat": 38.872301666666665, "is_disabled": 0, "type": "electric_bike", "lon": -77.01169066666667, "bike_id": "79b6616eeeb48219e3ba88766911759f", "fusion_lat": 0.0, "name": "79b6616eeeb48219e3ba88766911759f", "is_reserved": 0, "rental_uris": {"android": "https://dc.lft.to/lastmile_qr_scan", "ios": "https://dc.lft.to/lastmile_qr_scan"}, "fusion_lon": 0.0}, {"lat": 38.917664, "is_disabled": 0, "type": "electric_scooter", "lon": -77.02888366666667, "bike_id": "fa37a59c1110030597d22a2e01005785", "fusion_lat": 0.0, "name": "fa37a59c1110030597d22a2e01005785", "is_reserved": 0, "rental_uris": {"android": "https://dc.lft.to/lastmile_qr_scan", "ios": "https://dc.lft.to/lastmile_qr_scan"}, "fusion_lon": 0.0}, {"lat": 38.9220165, "is_disabled": 0, "type": "electric_scooter", "lon": -76.95663133333333, "bike_id": "dd4809e3a96df75b03cdba40febf12e8", "fusion_lat": 0.0, "name": "dd4809e3a96df75b03cdba40febf12e8", "is_reserved": 0, "rental_uris": {"android": "https://dc.lft.to/lastmile_qr_scan", "ios": "https://dc.lft.to/lastmile_qr_scan"}, "fusion_lon": 0.0}, {"lat": 38.928590666666665, "is_disabled": 0, "type": "electric_bike", "lon": -77.2220395, "bike_id": "79ccbb1631a7dac1625c657c5052872b", "fusion_lat": 0.0, "name": "79ccbb1631a7dac1625c657c5052872b", "is_reserved": 0, "rental_uris": {"android": "https://dc.lft.to/lastmile_qr_scan", "ios": "https://dc.lft.to/lastmile_qr_scan"}, "fusion_lon": 0.0}, {"lat": 39.0885475, "is_disabled": 0, "type": "electric_bike", "lon": -77.178434, "bike_id": "21fc8a98bc09f376998a0dc406b7efb5", "fusion_lat": 0.0, "name": "21fc8a98bc09f376998a0dc406b7efb5", "is_reserved": 0, "rental_uris": {"android": "https://dc.lft.to/lastmile_qr_scan", "ios": "https://dc.lft.to/lastmile_qr_scan"}, "fusion_lon": 0.0}, {"lat": 38.96557, "is_disabled": 0, "type": "electric_bike", "lon": -77.02042433333334, "bike_id": "e1681cde8170de99be357bea064b3a12", "fusion_lat": 0.0, "name": "e1681cde8170de99be357bea064b3a12", "is_reserved": 0, "rental_uris": {"android": "https://dc.lft.to/lastmile_qr_scan", "ios": "https://dc.lft.to/lastmile_qr_scan"}, "fusion_lon": 0.0}, {"lat": 38.90634716666667, "is_disabled": 0, "type": "electric_scooter", "lon": -77.03148816666666, "bike_id": "7e5ce853783fa856a5527deafde1c85e", "fusion_lat": 0.0, "name": "7e5ce853783fa856a5527deafde1c85e", "is_reserved": 0, "rental_uris": {"android": "https://dc.lft.to/lastmile_qr_scan", "ios": "https://dc.lft.to/lastmile_qr_scan"}, "fusion_lon": 0.0}, {"lat": 38.90314933333333, "is_disabled": 0, "type": "electric_scooter", "lon": -77.0289555, "bike_id": "00260dcf5627b82709570cb614126a03", "fusion_lat": 0.0, "name": "00260dcf5627b82709570cb614126a03", "is_reserved": 0, "rental_uris": {"android": "https://dc.lft.to/lastmile_qr_scan", "ios": "https://dc.lft.to/lastmile_qr_scan"}, "fusion_lon": 0.0}, {"lat": 38.96217383333333, "is_disabled": 0, "type": "electric_bike", "lon": -77.02630433333333, "bike_id": "5cd5110d67e219643646a2e0a3e3eb0e", "fusion_lat": 0.0, "name": "5cd5110d67e219643646a2e0a3e3eb0e", "is_reserved": 0, "rental_uris": {"android": "https://dc.lft.to/lastmile_qr_scan", "ios": "https://dc.lft.to/lastmile_qr_scan"}, "fusion_lon": 0.0}, {"lat": 38.902014333333334, "is_disabled": 0, "type": "electric_scooter", "lon": -76.99950466666667, "bike_id": "861250d0580238dacb01b26ccd5384e8", "fusion_lat": 0.0, "name": "861250d0580238dacb01b26ccd5384e8", "is_reserved": 0, "rental_uris": {"android": "https://dc.lft.to/lastmile_qr_scan", "ios": "https://dc.lft.to/lastmile_qr_scan"}, "fusion_lon": 0.0}, {"lat": 38.91686166666667, "is_disabled": 0, "type": "electric_scooter", "lon": -77.03215183333333, "bike_id": "a415fec4b343bbc28939b0035a9be7c0", "fusion_lat": 0.0, "name": "a415fec4b343bbc28939b0035a9be7c0", "is_reserved": 0, "rental_uris": {"android": "https://dc.lft.to/lastmile_qr_scan", "ios": "https://dc.lft.to/lastmile_qr_scan"}, "fusion_lon": 0.0}, {"lat": 38.90235033333333, "is_disabled": 0, "type": "electric_scooter", "lon": -77.01618316666666, "bike_id": "aec0b5fdd5443392c2d4863b727655cc", "fusion_lat": 0.0, "name": "aec0b5fdd5443392c2d4863b727655cc", "is_reserved": 0, "rental_uris": {"android": "https://dc.lft.to/lastmile_qr_scan", "ios": "https://dc.lft.to/lastmile_qr_scan"}, "fusion_lon": 0.0}, {"lat": 38.932343833333334, "is_disabled": 0, "type": "electric_bike", "lon": -76.9742, "bike_id": "3ea172574abeb9c5ad0f8739d2fc6cd6", "fusion_lat": 0.0, "name": "3ea172574abeb9c5ad0f8739d2fc6cd6", "is_reserved": 0, "rental_uris": {"android": "https://dc.lft.to/lastmile_qr_scan", "ios": "https://dc.lft.to/lastmile_qr_scan"}, "fusion_lon": 0.0}, {"lat": 38.870824, "is_disabled": 0, "type": "electric_scooter", "lon": -77.01114583333333, "bike_id": "9933e5a95d7daa02f5e456af33aad37d", "fusion_lat": 0.0, "name": "9933e5a95d7daa02f5e456af33aad37d", "is_reserved": 0, "rental_uris": {"android": "https://dc.lft.to/lastmile_qr_scan", "ios": "https://dc.lft.to/lastmile_qr_scan"}, "fusion_lon": 0.0}, {"lat": 38.920951, "is_disabled": 0, "type": "electric_scooter", "lon": -77.025583, "bike_id": "625c7d54a27a63a5e2eadfcc52e01cee", "fusion_lat": 0.0, "name": "625c7d54a27a63a5e2eadfcc52e01cee", "is_reserved": 0, "rental_uris": {"android": "https://dc.lft.to/lastmile_qr_scan", "ios": "https://dc.lft.to/lastmile_qr_scan"}, "fusion_lon": 0.0}, {"lat": 38.948230333333335, "is_disabled": 0, "type": "electric_scooter", "lon": -76.99907966666666, "bike_id": "ea29e18eb9dc3b6b1338f7acdaeddcb5", "fusion_lat": 0.0, "name": "ea29e18eb9dc3b6b1338f7acdaeddcb5", "is_reserved": 0, "rental_uris": {"android": "https://dc.lft.to/lastmile_qr_scan", "ios": "https://dc.lft.to/lastmile_qr_scan"}, "fusion_lon": 0.0}, {"lat": 38.9141375, "is_disabled": 0, "type": "electric_scooter", "lon": -77.02213283333333, "bike_id": "828eb9ff82d692ee817f125a1172056b", "fusion_lat": 0.0, "name": "828eb9ff82d692ee817f125a1172056b", "is_reserved": 0, "rental_uris": {"android": "https://dc.lft.to/lastmile_qr_scan", "ios": "https://dc.lft.to/lastmile_qr_scan"}, "fusion_lon": 0.0}, {"lat": 38.876656, "is_disabled": 0, "type": "electric_scooter", "lon": -76.99615283333333, "bike_id": "cd1a697283ec464c16a5f65b3b184fef", "fusion_lat": 0.0, "name": "cd1a697283ec464c16a5f65b3b184fef", "is_reserved": 0, "rental_uris": {"android": "https://dc.lft.to/lastmile_qr_scan", "ios": "https://dc.lft.to/lastmile_qr_scan"}, "fusion_lon": 0.0}, {"lat": 38.9082655, "is_disabled": 0, "type": "electric_scooter", "lon": -77.04347033333333, "bike_id": "e2f87306befd4d23c1c0b3b880e36ec2", "fusion_lat": 0.0, "name": "e2f87306befd4d23c1c0b3b880e36ec2", "is_reserved": 0, "rental_uris": {"android": "https://dc.lft.to/lastmile_qr_scan", "ios": "https://dc.lft.to/lastmile_qr_scan"}, "fusion_lon": 0.0}, {"lat": 38.91549116666667, "is_disabled": 0, "type": "electric_scooter", "lon": -77.0123625, "bike_id": "93f0fcf91c98691aa481eba2932ddb5e", "fusion_lat": 0.0, "name": "93f0fcf91c98691aa481eba2932ddb5e", "is_reserved": 0, "rental_uris": {"android": "https://dc.lft.to/lastmile_qr_scan", "ios": "https://dc.lft.to/lastmile_qr_scan"}, "fusion_lon": 0.0}, {"lat": 38.91322066666667, "is_disabled": 0, "type": "electric_scooter", "lon": -77.03665633333334, "bike_id": "a450246f02b875b0ab1cae3c8f168301", "fusion_lat": 0.0, "name": "a450246f02b875b0ab1cae3c8f168301", "is_reserved": 0, "rental_uris": {"android": "https://dc.lft.to/lastmile_qr_scan", "ios": "https://dc.lft.to/lastmile_qr_scan"}, "fusion_lon": 0.0}, {"lat": 38.90245683333333, "is_disabled": 0, "type": "electric_scooter", "lon": -77.01948116666667, "bike_id": "8907af4790ab3a5784e2e1f59feabff8", "fusion_lat": 0.0, "name": "8907af4790ab3a5784e2e1f59feabff8", "is_reserved": 0, "rental_uris": {"android": "https://dc.lft.to/lastmile_qr_scan", "ios": "https://dc.lft.to/lastmile_qr_scan"}, "fusion_lon": 0.0}, {"lat": 38.96091766666667, "is_disabled": 0, "type": "electric_scooter", "lon": -77.08289316666666, "bike_id": "94e2bf07b468fa9df886909c43447f93", "fusion_lat": 0.0, "name": "94e2bf07b468fa9df886909c43447f93", "is_reserved": 0, "rental_uris": {"android": "https://dc.lft.to/lastmile_qr_scan", "ios": "https://dc.lft.to/lastmile_qr_scan"}, "fusion_lon": 0.0}, {"lat": 38.922133, "is_disabled": 0, "type": "electric_scooter", "lon": -77.032943, "bike_id": "7d8cbdbffe0d52b18f2a3e9bcf330cd5", "fusion_lat": 0.0, "name": "7d8cbdbffe0d52b18f2a3e9bcf330cd5", "is_reserved": 0, "rental_uris": {"android": "https://dc.lft.to/lastmile_qr_scan", "ios": "https://dc.lft.to/lastmile_qr_scan"}, "fusion_lon": 0.0}, {"lat": 38.90133733333333, "is_disabled": 0, "type": "electric_scooter", "lon": -77.00075, "bike_id": "76ae52b9979c09ddd3d7251f22380b81", "fusion_lat": 0.0, "name": "76ae52b9979c09ddd3d7251f22380b81", "is_reserved": 0, "rental_uris": {"android": "https://dc.lft.to/lastmile_qr_scan", "ios": "https://dc.lft.to/lastmile_qr_scan"}, "fusion_lon": 0.0}, {"lat": 38.91813483333333, "is_disabled": 0, "type": "electric_scooter", "lon": -77.02479366666667, "bike_id": "29a0885ae4450d31dff0f4aac13003ce", "fusion_lat": 0.0, "name": "29a0885ae4450d31dff0f4aac13003ce", "is_reserved": 0, "rental_uris": {"android": "https://dc.lft.to/lastmile_qr_scan", "ios": "https://dc.lft.to/lastmile_qr_scan"}, "fusion_lon": 0.0}, {"lat": 38.906086, "is_disabled": 0, "type": "electric_scooter", "lon": -77.063544, "bike_id": "a1bc0e5171772d1e01e9956eccedcfa0", "fusion_lat": 0.0, "name": "a1bc0e5171772d1e01e9956eccedcfa0", "is_reserved": 0, "rental_uris": {"android": "https://dc.lft.to/lastmile_qr_scan", "ios": "https://dc.lft.to/lastmile_qr_scan"}, "fusion_lon": 0.0}, {"lat": 38.992489666666664, "is_disabled": 0, "type": "electric_scooter", "lon": -77.03668116666667, "bike_id": "e0009cda1e6a5f1dd5dcde5665e1ce23", "fusion_lat": 0.0, "name": "e0009cda1e6a5f1dd5dcde5665e1ce23", "is_reserved": 0, "rental_uris": {"android": "https://dc.lft.to/lastmile_qr_scan", "ios": "https://dc.lft.to/lastmile_qr_scan"}, "fusion_lon": 0.0}, {"lat": 38.90526633333333, "is_disabled": 0, "type": "electric_scooter", "lon": -77.06308066666666, "bike_id": "472e1240aa5beb0b0cde794415b08a7a", "fusion_lat": 0.0, "name": "472e1240aa5beb0b0cde794415b08a7a", "is_reserved": 0, "rental_uris": {"android": "https://dc.lft.to/lastmile_qr_scan", "ios": "https://dc.lft.to/lastmile_qr_scan"}, "fusion_lon": 0.0}, {"lat": 38.898561, "is_disabled": 0, "type": "electric_scooter", "lon": -77.02379583333334, "bike_id": "99aba13b67a082a4f9a40906209e20f9", "fusion_lat": 0.0, "name": "99aba13b67a082a4f9a40906209e20f9", "is_reserved": 0, "rental_uris": {"android": "https://dc.lft.to/lastmile_qr_scan", "ios": "https://dc.lft.to/lastmile_qr_scan"}, "fusion_lon": 0.0}, {"lat": 38.890708333333336, "is_disabled": 0, "type": "electric_scooter", "lon": -76.98838333333333, "bike_id": "895849b5b7cdbb351017bc02004c277b", "fusion_lat": 0.0, "name": "895849b5b7cdbb351017bc02004c277b", "is_reserved": 0, "rental_uris": {"android": "https://dc.lft.to/lastmile_qr_scan", "ios": "https://dc.lft.to/lastmile_qr_scan"}, "fusion_lon": 0.0}, {"lat": 38.862547166666666, "is_disabled": 0, "type": "electric_scooter", "lon": -76.99517783333333, "bike_id": "7c926140da11d631c36fcd611e23e0c4", "fusion_lat": 0.0, "name": "7c926140da11d631c36fcd611e23e0c4", "is_reserved": 0, "rental_uris": {"android": "https://dc.lft.to/lastmile_qr_scan", "ios": "https://dc.lft.to/lastmile_qr_scan"}, "fusion_lon": 0.0}, {"lat": 38.909820833333335, "is_disabled": 0, "type": "electric_scooter", "lon": -77.03200266666667, "bike_id": "cd1a66fc61347d9aff72a9fb6e3a839b", "fusion_lat": 0.0, "name": "cd1a66fc61347d9aff72a9fb6e3a839b", "is_reserved": 0, "rental_uris": {"android": "https://dc.lft.to/lastmile_qr_scan", "ios": "https://dc.lft.to/lastmile_qr_scan"}, "fusion_lon": 0.0}, {"lat": 38.9455035, "is_disabled": 0, "type": "electric_bike", "lon": -76.895397, "bike_id": "311e004304539fc0e5031a62de7df474", "fusion_lat": 0.0, "name": "311e004304539fc0e5031a62de7df474", "is_reserved": 0, "rental_uris": {"android": "https://dc.lft.to/lastmile_qr_scan", "ios": "https://dc.lft.to/lastmile_qr_scan"}, "fusion_lon": 0.0}, {"lat": 38.93741333333333, "is_disabled": 0, "type": "electric_scooter", "lon": -77.03624683333334, "bike_id": "4298c632df18db53bcbd8e533cfd1c4b", "fusion_lat": 0.0, "name": "4298c632df18db53bcbd8e533cfd1c4b", "is_reserved": 0, "rental_uris": {"android": "https://dc.lft.to/lastmile_qr_scan", "ios": "https://dc.lft.to/lastmile_qr_scan"}, "fusion_lon": 0.0}, {"lat": 39.03420233333333, "is_disabled": 0, "type": "electric_bike", "lon": -77.043055, "bike_id": "0764cbf06e5c9e570cb81f65e367eb8f", "fusion_lat": 0.0, "name": "0764cbf06e5c9e570cb81f65e367eb8f", "is_reserved": 0, "rental_uris": {"android": "https://dc.lft.to/lastmile_qr_scan", "ios": "https://dc.lft.to/lastmile_qr_scan"}, "fusion_lon": 0.0}, {"lat": 38.851882833333335, "is_disabled": 0, "type": "electric_scooter", "lon": -76.97622733333333, "bike_id": "654212811b10f51f877a7b974939527e", "fusion_lat": 0.0, "name": "654212811b10f51f877a7b974939527e", "is_reserved": 0, "rental_uris": {"android": "https://dc.lft.to/lastmile_qr_scan", "ios": "https://dc.lft.to/lastmile_qr_scan"}, "fusion_lon": 0.0}, {"lat": 38.936531, "is_disabled": 0, "type": "electric_bike", "lon": -76.95219833333333, "bike_id": "7b0f2ab85185551c1b01ec7a3c2a098b", "fusion_lat": 0.0, "name": "7b0f2ab85185551c1b01ec7a3c2a098b", "is_reserved": 0, "rental_uris": {"android": "https://dc.lft.to/lastmile_qr_scan", "ios": "https://dc.lft.to/lastmile_qr_scan"}, "fusion_lon": 0.0}, {"lat": 38.84429516666667, "is_disabled": 0, "type": "electric_scooter", "lon": -76.99663366666667, "bike_id": "3345a4ec742d6e988c4f6caa792624f9", "fusion_lat": 0.0, "name": "3345a4ec742d6e988c4f6caa792624f9", "is_reserved": 0, "rental_uris": {"android": "https://dc.lft.to/lastmile_qr_scan", "ios": "https://dc.lft.to/lastmile_qr_scan"}, "fusion_lon": 0.0}, {"lat": 38.90673683333333, "is_disabled": 0, "type": "electric_scooter", "lon": -77.02715, "bike_id": "8f2693e49aad05a9981944d6441abbc2", "fusion_lat": 0.0, "name": "8f2693e49aad05a9981944d6441abbc2", "is_reserved": 0, "rental_uris": {"android": "https://dc.lft.to/lastmile_qr_scan", "ios": "https://dc.lft.to/lastmile_qr_scan"}, "fusion_lon": 0.0}, {"lat": 38.9171995, "is_disabled": 0, "type": "electric_scooter", "lon": -77.02285383333333, "bike_id": "f28be0fae47e3ab35cc6175532eb17de", "fusion_lat": 0.0, "name": "f28be0fae47e3ab35cc6175532eb17de", "is_reserved": 0, "rental_uris": {"android": "https://dc.lft.to/lastmile_qr_scan", "ios": "https://dc.lft.to/lastmile_qr_scan"}, "fusion_lon": 0.0}, {"lat": 38.92591083333333, "is_disabled": 0, "type": "electric_scooter", "lon": -77.0440265, "bike_id": "b89a7891628fdf303c93fa582d0b27ca", "fusion_lat": 0.0, "name": "b89a7891628fdf303c93fa582d0b27ca", "is_reserved": 0, "rental_uris": {"android": "https://dc.lft.to/lastmile_qr_scan", "ios": "https://dc.lft.to/lastmile_qr_scan"}, "fusion_lon": 0.0}, {"lat": 38.900599, "is_disabled": 0, "type": "electric_scooter", "lon": -77.04906533333333, "bike_id": "0673ab940928c34baedb3cf014e79421", "fusion_lat": 0.0, "name": "0673ab940928c34baedb3cf014e79421", "is_reserved": 0, "rental_uris": {"android": "https://dc.lft.to/lastmile_qr_scan", "ios": "https://dc.lft.to/lastmile_qr_scan"}, "fusion_lon": 0.0}, {"lat": 38.876587666666666, "is_disabled": 0, "type": "electric_scooter", "lon": -77.00588183333333, "bike_id": "c150418c46d81cfd9613770d333202c2", "fusion_lat": 0.0, "name": "c150418c46d81cfd9613770d333202c2", "is_reserved": 0, "rental_uris": {"android": "https://dc.lft.to/lastmile_qr_scan", "ios": "https://dc.lft.to/lastmile_qr_scan"}, "fusion_lon": 0.0}, {"lat": 38.9112575, "is_disabled": 0, "type": "electric_scooter", "lon": -77.04344183333333, "bike_id": "067fddaf8c898e0a41351e4353aeaf09", "fusion_lat": 0.0, "name": "067fddaf8c898e0a41351e4353aeaf09", "is_reserved": 0, "rental_uris": {"android": "https://dc.lft.to/lastmile_qr_scan", "ios": "https://dc.lft.to/lastmile_qr_scan"}, "fusion_lon": 0.0}, {"lat": 38.91677883333333, "is_disabled": 0, "type": "electric_scooter", "lon": -77.03215516666667, "bike_id": "108f9a8a55e5ab4795e9d9d4c92ac99a", "fusion_lat": 0.0, "name": "108f9a8a55e5ab4795e9d9d4c92ac99a", "is_reserved": 0, "rental_uris": {"android": "https://dc.lft.to/lastmile_qr_scan", "ios": "https://dc.lft.to/lastmile_qr_scan"}, "fusion_lon": 0.0}, {"lat": 38.872932166666665, "is_disabled": 0, "type": "electric_scooter", "lon": -77.00926766666667, "bike_id": "59f5a5ca16237fd22e9f85a24cb6a4f0", "fusion_lat": 0.0, "name": "59f5a5ca16237fd22e9f85a24cb6a4f0", "is_reserved": 0, "rental_uris": {"android": "https://dc.lft.to/lastmile_qr_scan", "ios": "https://dc.lft.to/lastmile_qr_scan"}, "fusion_lon": 0.0}, {"lat": 38.940856333333336, "is_disabled": 0, "type": "electric_bike", "lon": -77.04662716666667, "bike_id": "764b1ac1eb45a30c88bbe568a84a7345", "fusion_lat": 0.0, "name": "764b1ac1eb45a30c88bbe568a84a7345", "is_reserved": 0, "rental_uris": {"android": "https://dc.lft.to/lastmile_qr_scan", "ios": "https://dc.lft.to/lastmile_qr_scan"}, "fusion_lon": 0.0}, {"lat": 38.884928, "is_disabled": 0, "type": "electric_scooter", "lon": -77.007137, "bike_id": "25f0aa45ec19defcaa448b607cf5bc80", "fusion_lat": 0.0, "name": "25f0aa45ec19defcaa448b607cf5bc80", "is_reserved": 0, "rental_uris": {"android": "https://dc.lft.to/lastmile_qr_scan", "ios": "https://dc.lft.to/lastmile_qr_scan"}, "fusion_lon": 0.0}, {"lat": 38.923505166666665, "is_disabled": 0, "type": "electric_bike", "lon": -76.97128583333334, "bike_id": "8219894e8d4a99c139123cf14f08f4d9", "fusion_lat": 0.0, "name": "8219894e8d4a99c139123cf14f08f4d9", "is_reserved": 0, "rental_uris": {"android": "https://dc.lft.to/lastmile_qr_scan", "ios": "https://dc.lft.to/lastmile_qr_scan"}, "fusion_lon": 0.0}, {"lat": 39.03696683333333, "is_disabled": 0, "type": "electric_bike", "lon": -77.051424, "bike_id": "9b49ad6647b5fc67231620dd18831988", "fusion_lat": 0.0, "name": "9b49ad6647b5fc67231620dd18831988", "is_reserved": 0, "rental_uris": {"android": "https://dc.lft.to/lastmile_qr_scan", "ios": "https://dc.lft.to/lastmile_qr_scan"}, "fusion_lon": 0.0}, {"lat": 38.8075255, "is_disabled": 0, "type": "electric_bike", "lon": -77.09454616666666, "bike_id": "c82c8912d5576f126663910309017e58", "fusion_lat": 0.0, "name": "c82c8912d5576f126663910309017e58", "is_reserved": 0, "rental_uris": {"android": "https://dc.lft.to/lastmile_qr_scan", "ios": "https://dc.lft.to/lastmile_qr_scan"}, "fusion_lon": 0.0}, {"lat": 38.953279, "is_disabled": 0, "type": "electric_scooter", "lon": -77.02755983333333, "bike_id": "1052e33cccd5437d6713f142b775d963", "fusion_lat": 0.0, "name": "1052e33cccd5437d6713f142b775d963", "is_reserved": 0, "rental_uris": {"android": "https://dc.lft.to/lastmile_qr_scan", "ios": "https://dc.lft.to/lastmile_qr_scan"}, "fusion_lon": 0.0}, {"lat": 38.88470266666667, "is_disabled": 0, "type": "electric_scooter", "lon": -76.9927865, "bike_id": "b71a453452348a4095243ad50098f605", "fusion_lat": 0.0, "name": "b71a453452348a4095243ad50098f605", "is_reserved": 0, "rental_uris": {"android": "https://dc.lft.to/lastmile_qr_scan", "ios": "https://dc.lft.to/lastmile_qr_scan"}, "fusion_lon": 0.0}, {"lat": 38.927456166666666, "is_disabled": 0, "type": "electric_scooter", "lon": -76.99727933333334, "bike_id": "85dcdc877605d7d8f03a1fb59aa25dbb", "fusion_lat": 0.0, "name": "85dcdc877605d7d8f03a1fb59aa25dbb", "is_reserved": 0, "rental_uris": {"android": "https://dc.lft.to/lastmile_qr_scan", "ios": "https://dc.lft.to/lastmile_qr_scan"}, "fusion_lon": 0.0}, {"lat": 38.938387166666665, "is_disabled": 0, "type": "electric_bike", "lon": -76.98863533333333, "bike_id": "28ed4c2a600b59a962472e81381dcebe", "fusion_lat": 0.0, "name": "28ed4c2a600b59a962472e81381dcebe", "is_reserved": 0, "rental_uris": {"android": "https://dc.lft.to/lastmile_qr_scan", "ios": "https://dc.lft.to/lastmile_qr_scan"}, "fusion_lon": 0.0}, {"lat": 38.91106416666667, "is_disabled": 0, "type": "electric_scooter", "lon": -77.04257616666666, "bike_id": "564ccc7854e907bfead8d42c0b8d9d70", "fusion_lat": 0.0, "name": "564ccc7854e907bfead8d42c0b8d9d70", "is_reserved": 0, "rental_uris": {"android": "https://dc.lft.to/lastmile_qr_scan", "ios": "https://dc.lft.to/lastmile_qr_scan"}, "fusion_lon": 0.0}, {"lat": 38.86363766666667, "is_disabled": 0, "type": "electric_scooter", "lon": -76.99037583333333, "bike_id": "33c3a65708d70ce50797e25c3bad59c5", "fusion_lat": 0.0, "name": "33c3a65708d70ce50797e25c3bad59c5", "is_reserved": 0, "rental_uris": {"android": "https://dc.lft.to/lastmile_qr_scan", "ios": "https://dc.lft.to/lastmile_qr_scan"}, "fusion_lon": 0.0}, {"lat": 38.90775516666667, "is_disabled": 0, "type": "electric_scooter", "lon": -77.035486, "bike_id": "a9daba02a8b511aaafc874cc2c4e86b0", "fusion_lat": 0.0, "name": "a9daba02a8b511aaafc874cc2c4e86b0", "is_reserved": 0, "rental_uris": {"android": "https://dc.lft.to/lastmile_qr_scan", "ios": "https://dc.lft.to/lastmile_qr_scan"}, "fusion_lon": 0.0}, {"lat": 38.875746, "is_disabled": 0, "type": "electric_scooter", "lon": -77.02085433333333, "bike_id": "ce0dcd1d4c089ca06f026ebb3326f62d", "fusion_lat": 0.0, "name": "ce0dcd1d4c089ca06f026ebb3326f62d", "is_reserved": 0, "rental_uris": {"android": "https://dc.lft.to/lastmile_qr_scan", "ios": "https://dc.lft.to/lastmile_qr_scan"}, "fusion_lon": 0.0}, {"lat": 39.0304665, "is_disabled": 0, "type": "electric_bike", "lon": -77.0948855, "bike_id": "ddb9eee8106af332ce0d0ce3e8c3b220", "fusion_lat": 0.0, "name": "ddb9eee8106af332ce0d0ce3e8c3b220", "is_reserved": 0, "rental_uris": {"android": "https://dc.lft.to/lastmile_qr_scan", "ios": "https://dc.lft.to/lastmile_qr_scan"}, "fusion_lon": 0.0}, {"lat": 38.907725166666665, "is_disabled": 0, "type": "electric_scooter", "lon": -77.03863316666667, "bike_id": "ee0dce4af620e25f032ce879a3cc3857", "fusion_lat": 0.0, "name": "ee0dce4af620e25f032ce879a3cc3857", "is_reserved": 0, "rental_uris": {"android": "https://dc.lft.to/lastmile_qr_scan", "ios": "https://dc.lft.to/lastmile_qr_scan"}, "fusion_lon": 0.0}, {"lat": 38.91596233333333, "is_disabled": 0, "type": "electric_scooter", "lon": -77.03859516666667, "bike_id": "a2695c7e34b30762132f9132ff1591b2", "fusion_lat": 0.0, "name": "a2695c7e34b30762132f9132ff1591b2", "is_reserved": 0, "rental_uris": {"android": "https://dc.lft.to/lastmile_qr_scan", "ios": "https://dc.lft.to/lastmile_qr_scan"}, "fusion_lon": 0.0}, {"lat": 38.91712116666667, "is_disabled": 0, "type": "electric_scooter", "lon": -77.037258, "bike_id": "5fbe040ff8212b742323d79fd759f36b", "fusion_lat": 0.0, "name": "5fbe040ff8212b742323d79fd759f36b", "is_reserved": 0, "rental_uris": {"android": "https://dc.lft.to/lastmile_qr_scan", "ios": "https://dc.lft.to/lastmile_qr_scan"}, "fusion_lon": 0.0}, {"lat": 38.918146166666666, "is_disabled": 0, "type": "electric_scooter", "lon": -77.02477066666667, "bike_id": "bd54c471394692adfa04ac055a7975d0", "fusion_lat": 0.0, "name": "bd54c471394692adfa04ac055a7975d0", "is_reserved": 0, "rental_uris": {"android": "https://dc.lft.to/lastmile_qr_scan", "ios": "https://dc.lft.to/lastmile_qr_scan"}, "fusion_lon": 0.0}, {"lat": 38.913536, "is_disabled": 0, "type": "electric_scooter", "lon": -77.046052, "bike_id": "53e09ff0311e3f611a4f7cb8edaf5303", "fusion_lat": 0.0, "name": "53e09ff0311e3f611a4f7cb8edaf5303", "is_reserved": 0, "rental_uris": {"android": "https://dc.lft.to/lastmile_qr_scan", "ios": "https://dc.lft.to/lastmile_qr_scan"}, "fusion_lon": 0.0}, {"lat": 38.885102, "is_disabled": 0, "type": "electric_scooter", "lon": -77.00679566666666, "bike_id": "d84f5652a616c5a9bd1525dba4e1cef4", "fusion_lat": 0.0, "name": "d84f5652a616c5a9bd1525dba4e1cef4", "is_reserved": 0, "rental_uris": {"android": "https://dc.lft.to/lastmile_qr_scan", "ios": "https://dc.lft.to/lastmile_qr_scan"}, "fusion_lon": 0.0}, {"lat": 38.86659916666667, "is_disabled": 0, "type": "electric_scooter", "lon": -76.98909116666667, "bike_id": "77c68b0ddf36a6eee0c3c8aae2180efa", "fusion_lat": 0.0, "name": "77c68b0ddf36a6eee0c3c8aae2180efa", "is_reserved": 0, "rental_uris": {"android": "https://dc.lft.to/lastmile_qr_scan", "ios": "https://dc.lft.to/lastmile_qr_scan"}, "fusion_lon": 0.0}, {"lat": 38.899375, "is_disabled": 0, "type": "electric_scooter", "lon": -77.0035285, "bike_id": "58b55cfd6bc1d51fafe5e97aa21fdaf3", "fusion_lat": 0.0, "name": "58b55cfd6bc1d51fafe5e97aa21fdaf3", "is_reserved": 0, "rental_uris": {"android": "https://dc.lft.to/lastmile_qr_scan", "ios": "https://dc.lft.to/lastmile_qr_scan"}, "fusion_lon": 0.0}, {"lat": 38.92428266666667, "is_disabled": 0, "type": "electric_scooter", "lon": -77.03422516666667, "bike_id": "7d96e1a86ef8feba697836ee53950108", "fusion_lat": 0.0, "name": "7d96e1a86ef8feba697836ee53950108", "is_reserved": 0, "rental_uris": {"android": "https://dc.lft.to/lastmile_qr_scan", "ios": "https://dc.lft.to/lastmile_qr_scan"}, "fusion_lon": 0.0}, {"lat": 38.90511983333333, "is_disabled": 0, "type": "electric_scooter", "lon": -77.059037, "bike_id": "87dd765849f9c7a6f3845e32d9d194e9", "fusion_lat": 0.0, "name": "87dd765849f9c7a6f3845e32d9d194e9", "is_reserved": 0, "rental_uris": {"android": "https://dc.lft.to/lastmile_qr_scan", "ios": "https://dc.lft.to/lastmile_qr_scan"}, "fusion_lon": 0.0}, {"lat": 38.90123166666667, "is_disabled": 0, "type": "electric_scooter", "lon": -77.01159783333334, "bike_id": "e3e02b1a1a1e761800bb6ae8e45a7d0d", "fusion_lat": 0.0, "name": "e3e02b1a1a1e761800bb6ae8e45a7d0d", "is_reserved": 0, "rental_uris": {"android": "https://dc.lft.to/lastmile_qr_scan", "ios": "https://dc.lft.to/lastmile_qr_scan"}, "fusion_lon": 0.0}, {"lat": 38.9169895, "is_disabled": 0, "type": "electric_scooter", "lon": -77.03471166666667, "bike_id": "047e30f4bfe7409a918e89052a48fee4", "fusion_lat": 0.0, "name": "047e30f4bfe7409a918e89052a48fee4", "is_reserved": 0, "rental_uris": {"android": "https://dc.lft.to/lastmile_qr_scan", "ios": "https://dc.lft.to/lastmile_qr_scan"}, "fusion_lon": 0.0}, {"lat": 38.92439733333333, "is_disabled": 0, "type": "electric_scooter", "lon": -77.03361066666666, "bike_id": "5a1dd2b87aaf23d15f22d6536e0ad014", "fusion_lat": 0.0, "name": "5a1dd2b87aaf23d15f22d6536e0ad014", "is_reserved": 0, "rental_uris": {"android": "https://dc.lft.to/lastmile_qr_scan", "ios": "https://dc.lft.to/lastmile_qr_scan"}, "fusion_lon": 0.0}, {"lat": 38.9247495, "is_disabled": 0, "type": "electric_scooter", "lon": -77.03484266666666, "bike_id": "0af463674c3b26a44f83bb273c527a48", "fusion_lat": 0.0, "name": "0af463674c3b26a44f83bb273c527a48", "is_reserved": 0, "rental_uris": {"android": "https://dc.lft.to/lastmile_qr_scan", "ios": "https://dc.lft.to/lastmile_qr_scan"}, "fusion_lon": 0.0}, {"lat": 38.92104533333333, "is_disabled": 0, "type": "electric_scooter", "lon": -77.0418835, "bike_id": "1c433a910c3583c60c9d86f1d642930f", "fusion_lat": 0.0, "name": "1c433a910c3583c60c9d86f1d642930f", "is_reserved": 0, "rental_uris": {"android": "https://dc.lft.to/lastmile_qr_scan", "ios": "https://dc.lft.to/lastmile_qr_scan"}, "fusion_lon": 0.0}, {"lat": 38.926773833333336, "is_disabled": 0, "type": "electric_scooter", "lon": -77.0150415, "bike_id": "b6e63f36a5fc6088650ec47c0711ed23", "fusion_lat": 0.0, "name": "b6e63f36a5fc6088650ec47c0711ed23", "is_reserved": 0, "rental_uris": {"android": "https://dc.lft.to/lastmile_qr_scan", "ios": "https://dc.lft.to/lastmile_qr_scan"}, "fusion_lon": 0.0}, {"lat": 38.915674833333334, "is_disabled": 0, "type": "electric_scooter", "lon": -77.0502205, "bike_id": "d7e281f23bc47b0edc625a02d8127e85", "fusion_lat": 0.0, "name": "d7e281f23bc47b0edc625a02d8127e85", "is_reserved": 0, "rental_uris": {"android": "https://dc.lft.to/lastmile_qr_scan", "ios": "https://dc.lft.to/lastmile_qr_scan"}, "fusion_lon": 0.0}, {"lat": 38.943075666666665, "is_disabled": 0, "type": "electric_scooter", "lon": -77.061366, "bike_id": "9f2eb0d59d21a21f0028a876d65a1165", "fusion_lat": 0.0, "name": "9f2eb0d59d21a21f0028a876d65a1165", "is_reserved": 0, "rental_uris": {"android": "https://dc.lft.to/lastmile_qr_scan", "ios": "https://dc.lft.to/lastmile_qr_scan"}, "fusion_lon": 0.0}, {"lat": 38.92170466666666, "is_disabled": 0, "type": "electric_scooter", "lon": -77.040124, "bike_id": "e85bf17a46cdc05262874d41b8b0ea32", "fusion_lat": 0.0, "name": "e85bf17a46cdc05262874d41b8b0ea32", "is_reserved": 0, "rental_uris": {"android": "https://dc.lft.to/lastmile_qr_scan", "ios": "https://dc.lft.to/lastmile_qr_scan"}, "fusion_lon": 0.0}, {"lat": 38.886379166666664, "is_disabled": 0, "type": "electric_scooter", "lon": -76.95492133333333, "bike_id": "233235ebb043240759012ab43a421b99", "fusion_lat": 0.0, "name": "233235ebb043240759012ab43a421b99", "is_reserved": 0, "rental_uris": {"android": "https://dc.lft.to/lastmile_qr_scan", "ios": "https://dc.lft.to/lastmile_qr_scan"}, "fusion_lon": 0.0}, {"lat": 38.90655683333333, "is_disabled": 0, "type": "electric_scooter", "lon": -77.038611, "bike_id": "70b7d2bb6b0b45f4e884001e3e876c67", "fusion_lat": 0.0, "name": "70b7d2bb6b0b45f4e884001e3e876c67", "is_reserved": 0, "rental_uris": {"android": "https://dc.lft.to/lastmile_qr_scan", "ios": "https://dc.lft.to/lastmile_qr_scan"}, "fusion_lon": 0.0}, {"lat": 38.9136535, "is_disabled": 0, "type": "electric_scooter", "lon": -77.0465975, "bike_id": "99f62631c821650e10f8a9a9873ef984", "fusion_lat": 0.0, "name": "99f62631c821650e10f8a9a9873ef984", "is_reserved": 0, "rental_uris": {"android": "https://dc.lft.to/lastmile_qr_scan", "ios": "https://dc.lft.to/lastmile_qr_scan"}, "fusion_lon": 0.0}, {"lat": 38.89508716666667, "is_disabled": 0, "type": "electric_scooter", "lon": -77.01605733333334, "bike_id": "3c7d695aa6d66904a736feb79780a8c9", "fusion_lat": 0.0, "name": "3c7d695aa6d66904a736feb79780a8c9", "is_reserved": 0, "rental_uris": {"android": "https://dc.lft.to/lastmile_qr_scan", "ios": "https://dc.lft.to/lastmile_qr_scan"}, "fusion_lon": 0.0}, {"lat": 38.894879833333334, "is_disabled": 0, "type": "electric_scooter", "lon": -77.0022725, "bike_id": "e0382a12bbbdf19af569cccbf05d4b75", "fusion_lat": 0.0, "name": "e0382a12bbbdf19af569cccbf05d4b75", "is_reserved": 0, "rental_uris": {"android": "https://dc.lft.to/lastmile_qr_scan", "ios": "https://dc.lft.to/lastmile_qr_scan"}, "fusion_lon": 0.0}, {"lat": 38.881935666666664, "is_disabled": 0, "type": "electric_scooter", "lon": -76.99626483333333, "bike_id": "99198a99ed8ffdba43189c49f633290b", "fusion_lat": 0.0, "name": "99198a99ed8ffdba43189c49f633290b", "is_reserved": 0, "rental_uris": {"android": "https://dc.lft.to/lastmile_qr_scan", "ios": "https://dc.lft.to/lastmile_qr_scan"}, "fusion_lon": 0.0}, {"lat": 38.90823483333333, "is_disabled": 0, "type": "electric_scooter", "lon": -77.04350066666667, "bike_id": "bb80ef4084f9a99bc229378afebf062d", "fusion_lat": 0.0, "name": "bb80ef4084f9a99bc229378afebf062d", "is_reserved": 0, "rental_uris": {"android": "https://dc.lft.to/lastmile_qr_scan", "ios": "https://dc.lft.to/lastmile_qr_scan"}, "fusion_lon": 0.0}, {"lat": 38.90583983333333, "is_disabled": 0, "type": "electric_scooter", "lon": -77.00618733333333, "bike_id": "cf78f741381156dfd393ebc4d0fac37a", "fusion_lat": 0.0, "name": "cf78f741381156dfd393ebc4d0fac37a", "is_reserved": 0, "rental_uris": {"android": "https://dc.lft.to/lastmile_qr_scan", "ios": "https://dc.lft.to/lastmile_qr_scan"}, "fusion_lon": 0.0}, {"lat": 38.88730266666666, "is_disabled": 0, "type": "electric_scooter", "lon": -77.02841033333333, "bike_id": "18a3612f8f96331bace89fcca6d3a87a", "fusion_lat": 0.0, "name": "18a3612f8f96331bace89fcca6d3a87a", "is_reserved": 0, "rental_uris": {"android": "https://dc.lft.to/lastmile_qr_scan", "ios": "https://dc.lft.to/lastmile_qr_scan"}, "fusion_lon": 0.0}, {"lat": 38.87066866666667, "is_disabled": 0, "type": "electric_scooter", "lon": -77.0084245, "bike_id": "f300f80b9ee6b07c0c70c1a64e5eb22c", "fusion_lat": 0.0, "name": "f300f80b9ee6b07c0c70c1a64e5eb22c", "is_reserved": 0, "rental_uris": {"android": "https://dc.lft.to/lastmile_qr_scan", "ios": "https://dc.lft.to/lastmile_qr_scan"}, "fusion_lon": 0.0}, {"lat": 38.89502433333333, "is_disabled": 0, "type": "electric_scooter", "lon": -77.0032385, "bike_id": "e754acb930bd3fd1aef4b2cd3ae8e509", "fusion_lat": 0.0, "name": "e754acb930bd3fd1aef4b2cd3ae8e509", "is_reserved": 0, "rental_uris": {"android": "https://dc.lft.to/lastmile_qr_scan", "ios": "https://dc.lft.to/lastmile_qr_scan"}, "fusion_lon": 0.0}, {"lat": 38.92267283333334, "is_disabled": 0, "type": "electric_scooter", "lon": -77.02249716666667, "bike_id": "82a90d4fe4ae9b81a84b3055e5e44b0e", "fusion_lat": 0.0, "name": "82a90d4fe4ae9b81a84b3055e5e44b0e", "is_reserved": 0, "rental_uris": {"android": "https://dc.lft.to/lastmile_qr_scan", "ios": "https://dc.lft.to/lastmile_qr_scan"}, "fusion_lon": 0.0}, {"lat": 38.89978383333333, "is_disabled": 0, "type": "electric_scooter", "lon": -77.02149066666666, "bike_id": "a4b1a35ba31ada148a06f08ed35685b1", "fusion_lat": 0.0, "name": "a4b1a35ba31ada148a06f08ed35685b1", "is_reserved": 0, "rental_uris": {"android": "https://dc.lft.to/lastmile_qr_scan", "ios": "https://dc.lft.to/lastmile_qr_scan"}, "fusion_lon": 0.0}, {"lat": 38.902849833333335, "is_disabled": 0, "type": "electric_scooter", "lon": -77.03649733333333, "bike_id": "06f313e75b5c9a4b5f3891686d4fdb25", "fusion_lat": 0.0, "name": "06f313e75b5c9a4b5f3891686d4fdb25", "is_reserved": 0, "rental_uris": {"android": "https://dc.lft.to/lastmile_qr_scan", "ios": "https://dc.lft.to/lastmile_qr_scan"}, "fusion_lon": 0.0}, {"lat": 38.90345683333334, "is_disabled": 0, "type": "electric_scooter", "lon": -77.05328116666666, "bike_id": "a2edbbb0f10310140bc74734b6c1a1a7", "fusion_lat": 0.0, "name": "a2edbbb0f10310140bc74734b6c1a1a7", "is_reserved": 0, "rental_uris": {"android": "https://dc.lft.to/lastmile_qr_scan", "ios": "https://dc.lft.to/lastmile_qr_scan"}, "fusion_lon": 0.0}, {"lat": 38.89163083333333, "is_disabled": 0, "type": "electric_scooter", "lon": -77.0150165, "bike_id": "65a868fb0d88632526d9f92f4c03172d", "fusion_lat": 0.0, "name": "65a868fb0d88632526d9f92f4c03172d", "is_reserved": 0, "rental_uris": {"android": "https://dc.lft.to/lastmile_qr_scan", "ios": "https://dc.lft.to/lastmile_qr_scan"}, "fusion_lon": 0.0}, {"lat": 38.93067816666667, "is_disabled": 0, "type": "electric_scooter", "lon": -76.99086983333333, "bike_id": "02da447f402031e8be7f5180c8c97518", "fusion_lat": 0.0, "name": "02da447f402031e8be7f5180c8c97518", "is_reserved": 0, "rental_uris": {"android": "https://dc.lft.to/lastmile_qr_scan", "ios": "https://dc.lft.to/lastmile_qr_scan"}, "fusion_lon": 0.0}, {"lat": 38.89048783333333, "is_disabled": 0, "type": "electric_scooter", "lon": -76.93756016666667, "bike_id": "63ac07d237a1526ad12f2bb027547a6a", "fusion_lat": 0.0, "name": "63ac07d237a1526ad12f2bb027547a6a", "is_reserved": 0, "rental_uris": {"android": "https://dc.lft.to/lastmile_qr_scan", "ios": "https://dc.lft.to/lastmile_qr_scan"}, "fusion_lon": 0.0}, {"lat": 38.897159, "is_disabled": 0, "type": "electric_scooter", "lon": -77.00798433333334, "bike_id": "ab985d87a00693dee900ba9f7540b817", "fusion_lat": 0.0, "name": "ab985d87a00693dee900ba9f7540b817", "is_reserved": 0, "rental_uris": {"android": "https://dc.lft.to/lastmile_qr_scan", "ios": "https://dc.lft.to/lastmile_qr_scan"}, "fusion_lon": 0.0}, {"lat": 38.897351, "is_disabled": 0, "type": "electric_scooter", "lon": -77.04764516666667, "bike_id": "4617e64d07a7b02d4e60d6b12ba45224", "fusion_lat": 0.0, "name": "4617e64d07a7b02d4e60d6b12ba45224", "is_reserved": 0, "rental_uris": {"android": "https://dc.lft.to/lastmile_qr_scan", "ios": "https://dc.lft.to/lastmile_qr_scan"}, "fusion_lon": 0.0}, {"lat": 38.90817833333333, "is_disabled": 0, "type": "electric_scooter", "lon": -77.06409683333334, "bike_id": "9666bf6804e77f0c01812a1aa2bb7a8b", "fusion_lat": 0.0, "name": "9666bf6804e77f0c01812a1aa2bb7a8b", "is_reserved": 0, "rental_uris": {"android": "https://dc.lft.to/lastmile_qr_scan", "ios": "https://dc.lft.to/lastmile_qr_scan"}, "fusion_lon": 0.0}, {"lat": 38.887449, "is_disabled": 0, "type": "electric_scooter", "lon": -77.0173745, "bike_id": "442003abab76dd5f07510fec14335405", "fusion_lat": 0.0, "name": "442003abab76dd5f07510fec14335405", "is_reserved": 0, "rental_uris": {"android": "https://dc.lft.to/lastmile_qr_scan", "ios": "https://dc.lft.to/lastmile_qr_scan"}, "fusion_lon": 0.0}, {"lat": 38.90688183333333, "is_disabled": 0, "type": "electric_scooter", "lon": -77.03752283333333, "bike_id": "dfcd8a51976fe4aec86200d7a622823d", "fusion_lat": 0.0, "name": "dfcd8a51976fe4aec86200d7a622823d", "is_reserved": 0, "rental_uris": {"android": "https://dc.lft.to/lastmile_qr_scan", "ios": "https://dc.lft.to/lastmile_qr_scan"}, "fusion_lon": 0.0}, {"lat": 38.919312166666664, "is_disabled": 0, "type": "electric_scooter", "lon": -77.02304683333334, "bike_id": "75bddfc1c560e7a385507d1007954976", "fusion_lat": 0.0, "name": "75bddfc1c560e7a385507d1007954976", "is_reserved": 0, "rental_uris": {"android": "https://dc.lft.to/lastmile_qr_scan", "ios": "https://dc.lft.to/lastmile_qr_scan"}, "fusion_lon": 0.0}, {"lat": 38.922392333333335, "is_disabled": 0, "type": "electric_scooter", "lon": -77.04577866666666, "bike_id": "2f6e5cef794295e5f2f3c5b5a778f566", "fusion_lat": 0.0, "name": "2f6e5cef794295e5f2f3c5b5a778f566", "is_reserved": 0, "rental_uris": {"android": "https://dc.lft.to/lastmile_qr_scan", "ios": "https://dc.lft.to/lastmile_qr_scan"}, "fusion_lon": 0.0}, {"lat": 38.8504715, "is_disabled": 0, "type": "electric_bike", "lon": -76.973236, "bike_id": "333c431ff3a4015f83a5aa07069c6f5a", "fusion_lat": 0.0, "name": "333c431ff3a4015f83a5aa07069c6f5a", "is_reserved": 0, "rental_uris": {"android": "https://dc.lft.to/lastmile_qr_scan", "ios": "https://dc.lft.to/lastmile_qr_scan"}, "fusion_lon": 0.0}, {"lat": 38.9027315, "is_disabled": 0, "type": "electric_scooter", "lon": -77.052592, "bike_id": "972e77151159185948ea21f7397d912e", "fusion_lat": 0.0, "name": "972e77151159185948ea21f7397d912e", "is_reserved": 0, "rental_uris": {"android": "https://dc.lft.to/lastmile_qr_scan", "ios": "https://dc.lft.to/lastmile_qr_scan"}, "fusion_lon": 0.0}, {"lat": 38.8652335, "is_disabled": 0, "type": "electric_scooter", "lon": -76.99031533333333, "bike_id": "09515f548d766e3881d97f6a38471b9a", "fusion_lat": 0.0, "name": "09515f548d766e3881d97f6a38471b9a", "is_reserved": 0, "rental_uris": {"android": "https://dc.lft.to/lastmile_qr_scan", "ios": "https://dc.lft.to/lastmile_qr_scan"}, "fusion_lon": 0.0}, {"lat": 38.919966333333335, "is_disabled": 0, "type": "electric_scooter", "lon": -77.03223816666667, "bike_id": "5a0042921ea85182deb4c58d889b6db4", "fusion_lat": 0.0, "name": "5a0042921ea85182deb4c58d889b6db4", "is_reserved": 0, "rental_uris": {"android": "https://dc.lft.to/lastmile_qr_scan", "ios": "https://dc.lft.to/lastmile_qr_scan"}, "fusion_lon": 0.0}, {"lat": 38.934486, "is_disabled": 0, "type": "electric_scooter", "lon": -77.03087166666667, "bike_id": "63d9f5b18fe72dadd9dd6267c48d3b2b", "fusion_lat": 0.0, "name": "63d9f5b18fe72dadd9dd6267c48d3b2b", "is_reserved": 0, "rental_uris": {"android": "https://dc.lft.to/lastmile_qr_scan", "ios": "https://dc.lft.to/lastmile_qr_scan"}, "fusion_lon": 0.0}, {"lat": 38.90355133333333, "is_disabled": 0, "type": "electric_scooter", "lon": -77.04223833333333, "bike_id": "91d8ce51ee4f2e417404ff38389d918b", "fusion_lat": 0.0, "name": "91d8ce51ee4f2e417404ff38389d918b", "is_reserved": 0, "rental_uris": {"android": "https://dc.lft.to/lastmile_qr_scan", "ios": "https://dc.lft.to/lastmile_qr_scan"}, "fusion_lon": 0.0}, {"lat": 38.869973333333334, "is_disabled": 0, "type": "electric_bike", "lon": -77.06571666666666, "bike_id": "86ad69e7a356504fd4238a5be75ab533", "fusion_lat": 0.0, "name": "86ad69e7a356504fd4238a5be75ab533", "is_reserved": 0, "rental_uris": {"android": "https://dc.lft.to/lastmile_qr_scan", "ios": "https://dc.lft.to/lastmile_qr_scan"}, "fusion_lon": 0.0}, {"lat": 38.9240375, "is_disabled": 0, "type": "electric_scooter", "lon": -77.02740783333333, "bike_id": "5b48bb545fecc249e578a8d53b3c35b2", "fusion_lat": 0.0, "name": "5b48bb545fecc249e578a8d53b3c35b2", "is_reserved": 0, "rental_uris": {"android": "https://dc.lft.to/lastmile_qr_scan", "ios": "https://dc.lft.to/lastmile_qr_scan"}, "fusion_lon": 0.0}, {"lat": 38.90108716666667, "is_disabled": 0, "type": "electric_scooter", "lon": -77.03210883333334, "bike_id": "635a0489fba32c9d116bcda4ca3be6b1", "fusion_lat": 0.0, "name": "635a0489fba32c9d116bcda4ca3be6b1", "is_reserved": 0, "rental_uris": {"android": "https://dc.lft.to/lastmile_qr_scan", "ios": "https://dc.lft.to/lastmile_qr_scan"}, "fusion_lon": 0.0}, {"lat": 38.85930916666667, "is_disabled": 0, "type": "electric_scooter", "lon": -76.99722783333333, "bike_id": "f16a661d5f4296924950961f91cbd438", "fusion_lat": 0.0, "name": "f16a661d5f4296924950961f91cbd438", "is_reserved": 0, "rental_uris": {"android": "https://dc.lft.to/lastmile_qr_scan", "ios": "https://dc.lft.to/lastmile_qr_scan"}, "fusion_lon": 0.0}, {"lat": 38.90524766666667, "is_disabled": 0, "type": "electric_scooter", "lon": -77.06241833333333, "bike_id": "afff589628abf1efb0caa6cd4c2c5318", "fusion_lat": 0.0, "name": "afff589628abf1efb0caa6cd4c2c5318", "is_reserved": 0, "rental_uris": {"android": "https://dc.lft.to/lastmile_qr_scan", "ios": "https://dc.lft.to/lastmile_qr_scan"}, "fusion_lon": 0.0}, {"lat": 38.89237116666666, "is_disabled": 0, "type": "electric_bike", "lon": -76.996076, "bike_id": "af4871c09540122252038671e1799213", "fusion_lat": 0.0, "name": "af4871c09540122252038671e1799213", "is_reserved": 0, "rental_uris": {"android": "https://dc.lft.to/lastmile_qr_scan", "ios": "https://dc.lft.to/lastmile_qr_scan"}, "fusion_lon": 0.0}, {"lat": 38.906082166666664, "is_disabled": 0, "type": "electric_scooter", "lon": -76.98985, "bike_id": "0a94f23763bf241d29b073425daf5419", "fusion_lat": 0.0, "name": "0a94f23763bf241d29b073425daf5419", "is_reserved": 0, "rental_uris": {"android": "https://dc.lft.to/lastmile_qr_scan", "ios": "https://dc.lft.to/lastmile_qr_scan"}, "fusion_lon": 0.0}, {"lat": 38.876264, "is_disabled": 0, "type": "electric_scooter", "lon": -76.96531516666667, "bike_id": "5d7d691eb58c0fef436271f983f8bfae", "fusion_lat": 0.0, "name": "5d7d691eb58c0fef436271f983f8bfae", "is_reserved": 0, "rental_uris": {"android": "https://dc.lft.to/lastmile_qr_scan", "ios": "https://dc.lft.to/lastmile_qr_scan"}, "fusion_lon": 0.0}, {"lat": 38.8341895, "is_disabled": 0, "type": "electric_bike", "lon": -77.10381, "bike_id": "c5b74db9b71b9bb891232df8377f8fd9", "fusion_lat": 0.0, "name": "c5b74db9b71b9bb891232df8377f8fd9", "is_reserved": 0, "rental_uris": {"android": "https://dc.lft.to/lastmile_qr_scan", "ios": "https://dc.lft.to/lastmile_qr_scan"}, "fusion_lon": 0.0}, {"lat": 38.905830333333334, "is_disabled": 0, "type": "electric_scooter", "lon": -77.02397016666667, "bike_id": "a16a9a898a4d4e28dc276d3935fd702e", "fusion_lat": 0.0, "name": "a16a9a898a4d4e28dc276d3935fd702e", "is_reserved": 0, "rental_uris": {"android": "https://dc.lft.to/lastmile_qr_scan", "ios": "https://dc.lft.to/lastmile_qr_scan"}, "fusion_lon": 0.0}, {"lat": 38.90036216666667, "is_disabled": 0, "type": "electric_scooter", "lon": -76.98376633333334, "bike_id": "afdd412e82f61e07962b825946f99af4", "fusion_lat": 0.0, "name": "afdd412e82f61e07962b825946f99af4", "is_reserved": 0, "rental_uris": {"android": "https://dc.lft.to/lastmile_qr_scan", "ios": "https://dc.lft.to/lastmile_qr_scan"}, "fusion_lon": 0.0}, {"lat": 38.89088483333333, "is_disabled": 0, "type": "electric_scooter", "lon": -76.95270483333333, "bike_id": "85255ccebb15196b8afc168336049c7b", "fusion_lat": 0.0, "name": "85255ccebb15196b8afc168336049c7b", "is_reserved": 0, "rental_uris": {"android": "https://dc.lft.to/lastmile_qr_scan", "ios": "https://dc.lft.to/lastmile_qr_scan"}, "fusion_lon": 0.0}, {"lat": 38.91538966666667, "is_disabled": 0, "type": "electric_scooter", "lon": -77.0320865, "bike_id": "37e455bcecb9c03cb48149909ebc5231", "fusion_lat": 0.0, "name": "37e455bcecb9c03cb48149909ebc5231", "is_reserved": 0, "rental_uris": {"android": "https://dc.lft.to/lastmile_qr_scan", "ios": "https://dc.lft.to/lastmile_qr_scan"}, "fusion_lon": 0.0}, {"lat": 38.999920833333334, "is_disabled": 0, "type": "electric_bike", "lon": -76.92499133333334, "bike_id": "b6b47b27e18d3ddb1ebcb96dd241cacf", "fusion_lat": 0.0, "name": "b6b47b27e18d3ddb1ebcb96dd241cacf", "is_reserved": 0, "rental_uris": {"android": "https://dc.lft.to/lastmile_qr_scan", "ios": "https://dc.lft.to/lastmile_qr_scan"}, "fusion_lon": 0.0}, {"lat": 38.913132166666664, "is_disabled": 0, "type": "electric_scooter", "lon": -77.031982, "bike_id": "0fceb18e997daaaa8909eb091d82e237", "fusion_lat": 0.0, "name": "0fceb18e997daaaa8909eb091d82e237", "is_reserved": 0, "rental_uris": {"android": "https://dc.lft.to/lastmile_qr_scan", "ios": "https://dc.lft.to/lastmile_qr_scan"}, "fusion_lon": 0.0}, {"lat": 38.916328, "is_disabled": 0, "type": "electric_scooter", "lon": -77.0224855, "bike_id": "05b08e1fd4c33cd85330aa44a3938c74", "fusion_lat": 0.0, "name": "05b08e1fd4c33cd85330aa44a3938c74", "is_reserved": 0, "rental_uris": {"android": "https://dc.lft.to/lastmile_qr_scan", "ios": "https://dc.lft.to/lastmile_qr_scan"}, "fusion_lon": 0.0}, {"lat": 38.9140585, "is_disabled": 0, "type": "electric_scooter", "lon": -77.04495016666667, "bike_id": "665f505870e62b9929649f486b8183f1", "fusion_lat": 0.0, "name": "665f505870e62b9929649f486b8183f1", "is_reserved": 0, "rental_uris": {"android": "https://dc.lft.to/lastmile_qr_scan", "ios": "https://dc.lft.to/lastmile_qr_scan"}, "fusion_lon": 0.0}, {"lat": 38.89728866666667, "is_disabled": 0, "type": "electric_scooter", "lon": -77.0547555, "bike_id": "67583a9257eba0e1310fd3456a0ae440", "fusion_lat": 0.0, "name": "67583a9257eba0e1310fd3456a0ae440", "is_reserved": 0, "rental_uris": {"android": "https://dc.lft.to/lastmile_qr_scan", "ios": "https://dc.lft.to/lastmile_qr_scan"}, "fusion_lon": 0.0}, {"lat": 38.897291333333335, "is_disabled": 0, "type": "electric_scooter", "lon": -77.054774, "bike_id": "172b0953e13c2a591c6dd349840fb26f", "fusion_lat": 0.0, "name": "172b0953e13c2a591c6dd349840fb26f", "is_reserved": 0, "rental_uris": {"android": "https://dc.lft.to/lastmile_qr_scan", "ios": "https://dc.lft.to/lastmile_qr_scan"}, "fusion_lon": 0.0}, {"lat": 38.909678166666666, "is_disabled": 0, "type": "electric_scooter", "lon": -76.9960675, "bike_id": "b5de66d1152fb95d9efebfd35f19c24d", "fusion_lat": 0.0, "name": "b5de66d1152fb95d9efebfd35f19c24d", "is_reserved": 0, "rental_uris": {"android": "https://dc.lft.to/lastmile_qr_scan", "ios": "https://dc.lft.to/lastmile_qr_scan"}, "fusion_lon": 0.0}, {"lat": 38.8928425, "is_disabled": 0, "type": "electric_scooter", "lon": -76.95854216666666, "bike_id": "d1d890ca82a8cb04b360d882fdd48efd", "fusion_lat": 0.0, "name": "d1d890ca82a8cb04b360d882fdd48efd", "is_reserved": 0, "rental_uris": {"android": "https://dc.lft.to/lastmile_qr_scan", "ios": "https://dc.lft.to/lastmile_qr_scan"}, "fusion_lon": 0.0}, {"lat": 38.89992783333334, "is_disabled": 0, "type": "electric_scooter", "lon": -76.99961133333333, "bike_id": "242913ec8baffd070535b927266d7642", "fusion_lat": 0.0, "name": "242913ec8baffd070535b927266d7642", "is_reserved": 0, "rental_uris": {"android": "https://dc.lft.to/lastmile_qr_scan", "ios": "https://dc.lft.to/lastmile_qr_scan"}, "fusion_lon": 0.0}, {"lat": 38.8810315, "is_disabled": 0, "type": "electric_scooter", "lon": -76.9950855, "bike_id": "31ef271440afef5a721c11519d466d25", "fusion_lat": 0.0, "name": "31ef271440afef5a721c11519d466d25", "is_reserved": 0, "rental_uris": {"android": "https://dc.lft.to/lastmile_qr_scan", "ios": "https://dc.lft.to/lastmile_qr_scan"}, "fusion_lon": 0.0}, {"lat": 38.892694, "is_disabled": 0, "type": "electric_scooter", "lon": -77.02027266666667, "bike_id": "9e129715e3ca674f073ec6d02b7d8132", "fusion_lat": 0.0, "name": "9e129715e3ca674f073ec6d02b7d8132", "is_reserved": 0, "rental_uris": {"android": "https://dc.lft.to/lastmile_qr_scan", "ios": "https://dc.lft.to/lastmile_qr_scan"}, "fusion_lon": 0.0}, {"lat": 38.917853, "is_disabled": 0, "type": "electric_scooter", "lon": -77.02309316666667, "bike_id": "e044b2b4d5759899afa04f89cfcf4790", "fusion_lat": 0.0, "name": "e044b2b4d5759899afa04f89cfcf4790", "is_reserved": 0, "rental_uris": {"android": "https://dc.lft.to/lastmile_qr_scan", "ios": "https://dc.lft.to/lastmile_qr_scan"}, "fusion_lon": 0.0}, {"lat": 38.9154535, "is_disabled": 0, "type": "electric_scooter", "lon": -77.07422733333334, "bike_id": "2956e834190c55184f6b590c21425622", "fusion_lat": 0.0, "name": "2956e834190c55184f6b590c21425622", "is_reserved": 0, "rental_uris": {"android": "https://dc.lft.to/lastmile_qr_scan", "ios": "https://dc.lft.to/lastmile_qr_scan"}, "fusion_lon": 0.0}, {"lat": 38.972212666666664, "is_disabled": 0, "type": "electric_bike", "lon": -77.03607783333334, "bike_id": "466fe561ef622e7b7c19ae1fce313fe4", "fusion_lat": 0.0, "name": "466fe561ef622e7b7c19ae1fce313fe4", "is_reserved": 0, "rental_uris": {"android": "https://dc.lft.to/lastmile_qr_scan", "ios": "https://dc.lft.to/lastmile_qr_scan"}, "fusion_lon": 0.0}, {"lat": 38.92954433333333, "is_disabled": 0, "type": "electric_scooter", "lon": -76.9908855, "bike_id": "0e5cd8b610bc76d0ae224561a3c46069", "fusion_lat": 0.0, "name": "0e5cd8b610bc76d0ae224561a3c46069", "is_reserved": 0, "rental_uris": {"android": "https://dc.lft.to/lastmile_qr_scan", "ios": "https://dc.lft.to/lastmile_qr_scan"}, "fusion_lon": 0.0}, {"lat": 38.9499705, "is_disabled": 0, "type": "electric_scooter", "lon": -77.081931, "bike_id": "e80a12e6c32e117033b77d89583bbd9f", "fusion_lat": 0.0, "name": "e80a12e6c32e117033b77d89583bbd9f", "is_reserved": 0, "rental_uris": {"android": "https://dc.lft.to/lastmile_qr_scan", "ios": "https://dc.lft.to/lastmile_qr_scan"}, "fusion_lon": 0.0}, {"lat": 38.900263833333334, "is_disabled": 0, "type": "electric_scooter", "lon": -76.9887915, "bike_id": "277df947c9a55894b68fa07f5bddb12f", "fusion_lat": 0.0, "name": "277df947c9a55894b68fa07f5bddb12f", "is_reserved": 0, "rental_uris": {"android": "https://dc.lft.to/lastmile_qr_scan", "ios": "https://dc.lft.to/lastmile_qr_scan"}, "fusion_lon": 0.0}, {"lat": 38.871432666666664, "is_disabled": 0, "type": "electric_bike", "lon": -76.93677683333334, "bike_id": "401c6340b6f709bbeec0ee49f7080ac8", "fusion_lat": 0.0, "name": "401c6340b6f709bbeec0ee49f7080ac8", "is_reserved": 0, "rental_uris": {"android": "https://dc.lft.to/lastmile_qr_scan", "ios": "https://dc.lft.to/lastmile_qr_scan"}, "fusion_lon": 0.0}, {"lat": 38.900819166666665, "is_disabled": 0, "type": "electric_scooter", "lon": -77.04468483333333, "bike_id": "2bc8fc6887268b688309f63baaf455f8", "fusion_lat": 0.0, "name": "2bc8fc6887268b688309f63baaf455f8", "is_reserved": 0, "rental_uris": {"android": "https://dc.lft.to/lastmile_qr_scan", "ios": "https://dc.lft.to/lastmile_qr_scan"}, "fusion_lon": 0.0}, {"lat": 38.89645983333333, "is_disabled": 0, "type": "electric_scooter", "lon": -77.00921966666667, "bike_id": "4e85a446e28e96143474b3005431eba6", "fusion_lat": 0.0, "name": "4e85a446e28e96143474b3005431eba6", "is_reserved": 0, "rental_uris": {"android": "https://dc.lft.to/lastmile_qr_scan", "ios": "https://dc.lft.to/lastmile_qr_scan"}, "fusion_lon": 0.0}, {"lat": 38.93580683333333, "is_disabled": 0, "type": "electric_bike", "lon": -77.10690333333334, "bike_id": "57f714dce0b1cd80a5910de3569dc8ba", "fusion_lat": 0.0, "name": "57f714dce0b1cd80a5910de3569dc8ba", "is_reserved": 0, "rental_uris": {"android": "https://dc.lft.to/lastmile_qr_scan", "ios": "https://dc.lft.to/lastmile_qr_scan"}, "fusion_lon": 0.0}, {"lat": 38.921017166666665, "is_disabled": 0, "type": "electric_scooter", "lon": -77.0252865, "bike_id": "fdc54a75ab6130c2035047dfb5fe3656", "fusion_lat": 0.0, "name": "fdc54a75ab6130c2035047dfb5fe3656", "is_reserved": 0, "rental_uris": {"android": "https://dc.lft.to/lastmile_qr_scan", "ios": "https://dc.lft.to/lastmile_qr_scan"}, "fusion_lon": 0.0}, {"lat": 38.907299, "is_disabled": 0, "type": "electric_scooter", "lon": -77.03467466666666, "bike_id": "fb185de77eb1ba2d7e7a590ada39e712", "fusion_lat": 0.0, "name": "fb185de77eb1ba2d7e7a590ada39e712", "is_reserved": 0, "rental_uris": {"android": "https://dc.lft.to/lastmile_qr_scan", "ios": "https://dc.lft.to/lastmile_qr_scan"}, "fusion_lon": 0.0}, {"lat": 38.927751666666666, "is_disabled": 0, "type": "electric_scooter", "lon": -77.02684066666667, "bike_id": "b3e89226ffee43a6ebf339d294a88e9f", "fusion_lat": 0.0, "name": "b3e89226ffee43a6ebf339d294a88e9f", "is_reserved": 0, "rental_uris": {"android": "https://dc.lft.to/lastmile_qr_scan", "ios": "https://dc.lft.to/lastmile_qr_scan"}, "fusion_lon": 0.0}, {"lat": 38.91743116666667, "is_disabled": 0, "type": "electric_scooter", "lon": -77.031815, "bike_id": "713cebe4022af8ad4d0f77c58d75ccd3", "fusion_lat": 0.0, "name": "713cebe4022af8ad4d0f77c58d75ccd3", "is_reserved": 0, "rental_uris": {"android": "https://dc.lft.to/lastmile_qr_scan", "ios": "https://dc.lft.to/lastmile_qr_scan"}, "fusion_lon": 0.0}, {"lat": 38.94948, "is_disabled": 0, "type": "electric_scooter", "lon": -77.01583983333333, "bike_id": "78323d3cdef5fe85bbb6aae2d90c7763", "fusion_lat": 0.0, "name": "78323d3cdef5fe85bbb6aae2d90c7763", "is_reserved": 0, "rental_uris": {"android": "https://dc.lft.to/lastmile_qr_scan", "ios": "https://dc.lft.to/lastmile_qr_scan"}, "fusion_lon": 0.0}, {"lat": 38.900132, "is_disabled": 0, "type": "electric_scooter", "lon": -77.03308716666666, "bike_id": "5ecc5e515184bef23989e3fd50253580", "fusion_lat": 0.0, "name": "5ecc5e515184bef23989e3fd50253580", "is_reserved": 0, "rental_uris": {"android": "https://dc.lft.to/lastmile_qr_scan", "ios": "https://dc.lft.to/lastmile_qr_scan"}, "fusion_lon": 0.0}, {"lat": 38.86358416666667, "is_disabled": 0, "type": "electric_scooter", "lon": -76.99043533333334, "bike_id": "c643c335d242be6f9915bb9a4b8d185d", "fusion_lat": 0.0, "name": "c643c335d242be6f9915bb9a4b8d185d", "is_reserved": 0, "rental_uris": {"android": "https://dc.lft.to/lastmile_qr_scan", "ios": "https://dc.lft.to/lastmile_qr_scan"}, "fusion_lon": 0.0}, {"lat": 38.8952495, "is_disabled": 0, "type": "electric_scooter", "lon": -77.00063933333334, "bike_id": "853fb7e319009e5a2c38d44c18ce5429", "fusion_lat": 0.0, "name": "853fb7e319009e5a2c38d44c18ce5429", "is_reserved": 0, "rental_uris": {"android": "https://dc.lft.to/lastmile_qr_scan", "ios": "https://dc.lft.to/lastmile_qr_scan"}, "fusion_lon": 0.0}, {"lat": 38.8982535, "is_disabled": 0, "type": "electric_scooter", "lon": -77.03361883333334, "bike_id": "525361af01b5252d6a9feb952548612d", "fusion_lat": 0.0, "name": "525361af01b5252d6a9feb952548612d", "is_reserved": 0, "rental_uris": {"android": "https://dc.lft.to/lastmile_qr_scan", "ios": "https://dc.lft.to/lastmile_qr_scan"}, "fusion_lon": 0.0}, {"lat": 38.91177066666667, "is_disabled": 0, "type": "electric_scooter", "lon": -77.0626165, "bike_id": "846f9968dd69d91716644acf23be4150", "fusion_lat": 0.0, "name": "846f9968dd69d91716644acf23be4150", "is_reserved": 0, "rental_uris": {"android": "https://dc.lft.to/lastmile_qr_scan", "ios": "https://dc.lft.to/lastmile_qr_scan"}, "fusion_lon": 0.0}, {"lat": 38.94494533333334, "is_disabled": 0, "type": "electric_bike", "lon": -77.00681283333333, "bike_id": "979512f01b17fed9adbd5a87e0aef042", "fusion_lat": 0.0, "name": "979512f01b17fed9adbd5a87e0aef042", "is_reserved": 0, "rental_uris": {"android": "https://dc.lft.to/lastmile_qr_scan", "ios": "https://dc.lft.to/lastmile_qr_scan"}, "fusion_lon": 0.0}, {"lat": 38.90948733333333, "is_disabled": 0, "type": "electric_scooter", "lon": -77.04662683333333, "bike_id": "e4eff80a829b54198bc83bcd7a7caec0", "fusion_lat": 0.0, "name": "e4eff80a829b54198bc83bcd7a7caec0", "is_reserved": 0, "rental_uris": {"android": "https://dc.lft.to/lastmile_qr_scan", "ios": "https://dc.lft.to/lastmile_qr_scan"}, "fusion_lon": 0.0}, {"lat": 38.90196983333333, "is_disabled": 0, "type": "electric_scooter", "lon": -77.03445533333333, "bike_id": "f7ea942747825f7ebc4f7a0257e9faef", "fusion_lat": 0.0, "name": "f7ea942747825f7ebc4f7a0257e9faef", "is_reserved": 0, "rental_uris": {"android": "https://dc.lft.to/lastmile_qr_scan", "ios": "https://dc.lft.to/lastmile_qr_scan"}, "fusion_lon": 0.0}, {"lat": 38.9001445, "is_disabled": 0, "type": "electric_scooter", "lon": -77.03331966666667, "bike_id": "6aaf1288f08f76ec594a2600a3248d8a", "fusion_lat": 0.0, "name": "6aaf1288f08f76ec594a2600a3248d8a", "is_reserved": 0, "rental_uris": {"android": "https://dc.lft.to/lastmile_qr_scan", "ios": "https://dc.lft.to/lastmile_qr_scan"}, "fusion_lon": 0.0}, {"lat": 38.9126565, "is_disabled": 0, "type": "electric_scooter", "lon": -77.0225505, "bike_id": "6376ddd5c1bf54c0f352c1f4a4a604a4", "fusion_lat": 0.0, "name": "6376ddd5c1bf54c0f352c1f4a4a604a4", "is_reserved": 0, "rental_uris": {"android": "https://dc.lft.to/lastmile_qr_scan", "ios": "https://dc.lft.to/lastmile_qr_scan"}, "fusion_lon": 0.0}, {"lat": 38.955295, "is_disabled": 0, "type": "electric_bike", "lon": -76.96804966666667, "bike_id": "72415808f9e19974fabdfcb45ca7176c", "fusion_lat": 0.0, "name": "72415808f9e19974fabdfcb45ca7176c", "is_reserved": 0, "rental_uris": {"android": "https://dc.lft.to/lastmile_qr_scan", "ios": "https://dc.lft.to/lastmile_qr_scan"}, "fusion_lon": 0.0}, {"lat": 38.905970333333336, "is_disabled": 0, "type": "electric_scooter", "lon": -77.04040766666667, "bike_id": "f04c856acf8efcb247f3aae157919793", "fusion_lat": 0.0, "name": "f04c856acf8efcb247f3aae157919793", "is_reserved": 0, "rental_uris": {"android": "https://dc.lft.to/lastmile_qr_scan", "ios": "https://dc.lft.to/lastmile_qr_scan"}, "fusion_lon": 0.0}, {"lat": 38.8425365, "is_disabled": 0, "type": "electric_bike", "lon": -77.05832716666667, "bike_id": "e421be6c4b2e112debd02170eb0382d6", "fusion_lat": 0.0, "name": "e421be6c4b2e112debd02170eb0382d6", "is_reserved": 0, "rental_uris": {"android": "https://dc.lft.to/lastmile_qr_scan", "ios": "https://dc.lft.to/lastmile_qr_scan"}, "fusion_lon": 0.0}, {"lat": 38.91119833333333, "is_disabled": 0, "type": "electric_scooter", "lon": -77.00341583333334, "bike_id": "18adc336f98aeda42d38033e726f440d", "fusion_lat": 0.0, "name": "18adc336f98aeda42d38033e726f440d", "is_reserved": 0, "rental_uris": {"android": "https://dc.lft.to/lastmile_qr_scan", "ios": "https://dc.lft.to/lastmile_qr_scan"}, "fusion_lon": 0.0}, {"lat": 38.916917166666664, "is_disabled": 0, "type": "electric_scooter", "lon": -77.0428075, "bike_id": "cbaa71eaa8e3f04b454b7f87e1eefcae", "fusion_lat": 0.0, "name": "cbaa71eaa8e3f04b454b7f87e1eefcae", "is_reserved": 0, "rental_uris": {"android": "https://dc.lft.to/lastmile_qr_scan", "ios": "https://dc.lft.to/lastmile_qr_scan"}, "fusion_lon": 0.0}, {"lat": 38.93606166666667, "is_disabled": 0, "type": "electric_scooter", "lon": -77.03527133333333, "bike_id": "b56a02f3d6b04d161d98f3fa54d2ee3c", "fusion_lat": 0.0, "name": "b56a02f3d6b04d161d98f3fa54d2ee3c", "is_reserved": 0, "rental_uris": {"android": "https://dc.lft.to/lastmile_qr_scan", "ios": "https://dc.lft.to/lastmile_qr_scan"}, "fusion_lon": 0.0}, {"lat": 38.91690933333334, "is_disabled": 0, "type": "electric_scooter", "lon": -77.03764633333333, "bike_id": "d93d9091bb8b2571654d1e234ff4c0e2", "fusion_lat": 0.0, "name": "d93d9091bb8b2571654d1e234ff4c0e2", "is_reserved": 0, "rental_uris": {"android": "https://dc.lft.to/lastmile_qr_scan", "ios": "https://dc.lft.to/lastmile_qr_scan"}, "fusion_lon": 0.0}, {"lat": 38.88449166666667, "is_disabled": 0, "type": "electric_bike", "lon": -77.09666866666667, "bike_id": "1b942a9b27e3a420d3153f10b94bfd6f", "fusion_lat": 0.0, "name": "1b942a9b27e3a420d3153f10b94bfd6f", "is_reserved": 0, "rental_uris": {"android": "https://dc.lft.to/lastmile_qr_scan", "ios": "https://dc.lft.to/lastmile_qr_scan"}, "fusion_lon": 0.0}, {"lat": 38.900469333333334, "is_disabled": 0, "type": "electric_scooter", "lon": -77.00591066666667, "bike_id": "4c86c793904d5d438ed99db6b65d0d49", "fusion_lat": 0.0, "name": "4c86c793904d5d438ed99db6b65d0d49", "is_reserved": 0, "rental_uris": {"android": "https://dc.lft.to/lastmile_qr_scan", "ios": "https://dc.lft.to/lastmile_qr_scan"}, "fusion_lon": 0.0}, {"lat": 38.911061333333336, "is_disabled": 0, "type": "electric_scooter", "lon": -77.03835533333333, "bike_id": "61461cb35666956e8869779a382474fb", "fusion_lat": 0.0, "name": "61461cb35666956e8869779a382474fb", "is_reserved": 0, "rental_uris": {"android": "https://dc.lft.to/lastmile_qr_scan", "ios": "https://dc.lft.to/lastmile_qr_scan"}, "fusion_lon": 0.0}, {"lat": 38.89743, "is_disabled": 0, "type": "electric_scooter", "lon": -77.04803383333333, "bike_id": "562b304bd2bb601981bf16ce141c4af3", "fusion_lat": 0.0, "name": "562b304bd2bb601981bf16ce141c4af3", "is_reserved": 0, "rental_uris": {"android": "https://dc.lft.to/lastmile_qr_scan", "ios": "https://dc.lft.to/lastmile_qr_scan"}, "fusion_lon": 0.0}, {"lat": 38.924618333333335, "is_disabled": 0, "type": "electric_bike", "lon": -77.208453, "bike_id": "c61c9a2a830e978031f25f42fb3d5da2", "fusion_lat": 0.0, "name": "c61c9a2a830e978031f25f42fb3d5da2", "is_reserved": 0, "rental_uris": {"android": "https://dc.lft.to/lastmile_qr_scan", "ios": "https://dc.lft.to/lastmile_qr_scan"}, "fusion_lon": 0.0}, {"lat": 38.81048216666667, "is_disabled": 0, "type": "electric_bike", "lon": -77.0850965, "bike_id": "d02f371b8805effce20cc5eb86aa8f16", "fusion_lat": 0.0, "name": "d02f371b8805effce20cc5eb86aa8f16", "is_reserved": 0, "rental_uris": {"android": "https://dc.lft.to/lastmile_qr_scan", "ios": "https://dc.lft.to/lastmile_qr_scan"}, "fusion_lon": 0.0}, {"lat": 38.90270433333333, "is_disabled": 0, "type": "electric_scooter", "lon": -77.06240166666667, "bike_id": "a32d814d35f85824ae98a482daa33190", "fusion_lat": 0.0, "name": "a32d814d35f85824ae98a482daa33190", "is_reserved": 0, "rental_uris": {"android": "https://dc.lft.to/lastmile_qr_scan", "ios": "https://dc.lft.to/lastmile_qr_scan"}, "fusion_lon": 0.0}, {"lat": 38.899196833333335, "is_disabled": 0, "type": "electric_scooter", "lon": -77.03227183333334, "bike_id": "ff684b4ad0523496a4b7a7aaaf1ad899", "fusion_lat": 0.0, "name": "ff684b4ad0523496a4b7a7aaaf1ad899", "is_reserved": 0, "rental_uris": {"android": "https://dc.lft.to/lastmile_qr_scan", "ios": "https://dc.lft.to/lastmile_qr_scan"}, "fusion_lon": 0.0}, {"lat": 38.931877166666666, "is_disabled": 0, "type": "electric_scooter", "lon": -77.03872166666666, "bike_id": "6edf3ab7ca012ed9681be03b7e19ab38", "fusion_lat": 0.0, "name": "6edf3ab7ca012ed9681be03b7e19ab38", "is_reserved": 0, "rental_uris": {"android": "https://dc.lft.to/lastmile_qr_scan", "ios": "https://dc.lft.to/lastmile_qr_scan"}, "fusion_lon": 0.0}, {"lat": 38.938611333333334, "is_disabled": 0, "type": "electric_scooter", "lon": -77.02597033333333, "bike_id": "3815597338635e08df5a56362c7ab91d", "fusion_lat": 0.0, "name": "3815597338635e08df5a56362c7ab91d", "is_reserved": 0, "rental_uris": {"android": "https://dc.lft.to/lastmile_qr_scan", "ios": "https://dc.lft.to/lastmile_qr_scan"}, "fusion_lon": 0.0}, {"lat": 38.912667, "is_disabled": 0, "type": "electric_scooter", "lon": -77.030348, "bike_id": "e77e0aaee61d76b95409d33039572c62", "fusion_lat": 0.0, "name": "e77e0aaee61d76b95409d33039572c62", "is_reserved": 0, "rental_uris": {"android": "https://dc.lft.to/lastmile_qr_scan", "ios": "https://dc.lft.to/lastmile_qr_scan"}, "fusion_lon": 0.0}, {"lat": 38.921086833333334, "is_disabled": 0, "type": "electric_scooter", "lon": -77.0422805, "bike_id": "2d48ff4a20941f416d0ad31b7d5154ab", "fusion_lat": 0.0, "name": "2d48ff4a20941f416d0ad31b7d5154ab", "is_reserved": 0, "rental_uris": {"android": "https://dc.lft.to/lastmile_qr_scan", "ios": "https://dc.lft.to/lastmile_qr_scan"}, "fusion_lon": 0.0}, {"lat": 38.93424133333333, "is_disabled": 0, "type": "electric_scooter", "lon": -77.02852533333333, "bike_id": "de1c487afd6869c7f2dee71d973db68d", "fusion_lat": 0.0, "name": "de1c487afd6869c7f2dee71d973db68d", "is_reserved": 0, "rental_uris": {"android": "https://dc.lft.to/lastmile_qr_scan", "ios": "https://dc.lft.to/lastmile_qr_scan"}, "fusion_lon": 0.0}, {"lat": 38.85423766666667, "is_disabled": 0, "type": "electric_bike", "lon": -76.90964966666667, "bike_id": "023f682b1132a9f4dc9c07b78eb872ca", "fusion_lat": 0.0, "name": "023f682b1132a9f4dc9c07b78eb872ca", "is_reserved": 0, "rental_uris": {"android": "https://dc.lft.to/lastmile_qr_scan", "ios": "https://dc.lft.to/lastmile_qr_scan"}, "fusion_lon": 0.0}, {"lat": 38.934198333333335, "is_disabled": 0, "type": "electric_scooter", "lon": -77.02842816666667, "bike_id": "ab9603095d37cc6d49d2ac3af05a5208", "fusion_lat": 0.0, "name": "ab9603095d37cc6d49d2ac3af05a5208", "is_reserved": 0, "rental_uris": {"android": "https://dc.lft.to/lastmile_qr_scan", "ios": "https://dc.lft.to/lastmile_qr_scan"}, "fusion_lon": 0.0}, {"lat": 38.844299666666664, "is_disabled": 0, "type": "electric_scooter", "lon": -76.99816566666667, "bike_id": "2babfd37785b52a1bd218d75dd1f2668", "fusion_lat": 0.0, "name": "2babfd37785b52a1bd218d75dd1f2668", "is_reserved": 0, "rental_uris": {"android": "https://dc.lft.to/lastmile_qr_scan", "ios": "https://dc.lft.to/lastmile_qr_scan"}, "fusion_lon": 0.0}, {"lat": 38.946016666666665, "is_disabled": 0, "type": "electric_scooter", "lon": -77.070322, "bike_id": "24cf30105d9edb84290c528f11e4fca6", "fusion_lat": 0.0, "name": "24cf30105d9edb84290c528f11e4fca6", "is_reserved": 0, "rental_uris": {"android": "https://dc.lft.to/lastmile_qr_scan", "ios": "https://dc.lft.to/lastmile_qr_scan"}, "fusion_lon": 0.0}, {"lat": 38.9411625, "is_disabled": 0, "type": "electric_scooter", "lon": -77.00084316666667, "bike_id": "eb5142b0a0854601e8e938802df3f45e", "fusion_lat": 0.0, "name": "eb5142b0a0854601e8e938802df3f45e", "is_reserved": 0, "rental_uris": {"android": "https://dc.lft.to/lastmile_qr_scan", "ios": "https://dc.lft.to/lastmile_qr_scan"}, "fusion_lon": 0.0}, {"lat": 38.95876233333333, "is_disabled": 0, "type": "electric_bike", "lon": -76.924883, "bike_id": "b70e83096822605d12e54a44334c3224", "fusion_lat": 0.0, "name": "b70e83096822605d12e54a44334c3224", "is_reserved": 0, "rental_uris": {"android": "https://dc.lft.to/lastmile_qr_scan", "ios": "https://dc.lft.to/lastmile_qr_scan"}, "fusion_lon": 0.0}, {"lat": 38.907589, "is_disabled": 0, "type": "electric_scooter", "lon": -77.00077033333334, "bike_id": "d025693003e4fc297cc0615c1d7595c8", "fusion_lat": 0.0, "name": "d025693003e4fc297cc0615c1d7595c8", "is_reserved": 0, "rental_uris": {"android": "https://dc.lft.to/lastmile_qr_scan", "ios": "https://dc.lft.to/lastmile_qr_scan"}, "fusion_lon": 0.0}, {"lat": 38.91194466666666, "is_disabled": 0, "type": "electric_scooter", "lon": -77.03218166666667, "bike_id": "4dfd8b2a97d71caeaeb3e3b1e793e411", "fusion_lat": 0.0, "name": "4dfd8b2a97d71caeaeb3e3b1e793e411", "is_reserved": 0, "rental_uris": {"android": "https://dc.lft.to/lastmile_qr_scan", "ios": "https://dc.lft.to/lastmile_qr_scan"}, "fusion_lon": 0.0}, {"lat": 38.9168335, "is_disabled": 0, "type": "electric_scooter", "lon": -77.00199383333333, "bike_id": "aa7b8cfc70fbea935592f255367b3622", "fusion_lat": 0.0, "name": "aa7b8cfc70fbea935592f255367b3622", "is_reserved": 0, "rental_uris": {"android": "https://dc.lft.to/lastmile_qr_scan", "ios": "https://dc.lft.to/lastmile_qr_scan"}, "fusion_lon": 0.0}, {"lat": 38.9056115, "is_disabled": 0, "type": "electric_scooter", "lon": -77.00575133333334, "bike_id": "b1aff95e7b56b16c7b25c27619187d15", "fusion_lat": 0.0, "name": "b1aff95e7b56b16c7b25c27619187d15", "is_reserved": 0, "rental_uris": {"android": "https://dc.lft.to/lastmile_qr_scan", "ios": "https://dc.lft.to/lastmile_qr_scan"}, "fusion_lon": 0.0}, {"lat": 38.92534, "is_disabled": 0, "type": "electric_scooter", "lon": -77.02650833333334, "bike_id": "a65ab09753b88f1f915311240424b66e", "fusion_lat": 0.0, "name": "a65ab09753b88f1f915311240424b66e", "is_reserved": 0, "rental_uris": {"android": "https://dc.lft.to/lastmile_qr_scan", "ios": "https://dc.lft.to/lastmile_qr_scan"}, "fusion_lon": 0.0}, {"lat": 38.88363183333333, "is_disabled": 0, "type": "electric_scooter", "lon": -76.94152533333333, "bike_id": "c0edda4391bba9a1cdf4391d34a12f98", "fusion_lat": 0.0, "name": "c0edda4391bba9a1cdf4391d34a12f98", "is_reserved": 0, "rental_uris": {"android": "https://dc.lft.to/lastmile_qr_scan", "ios": "https://dc.lft.to/lastmile_qr_scan"}, "fusion_lon": 0.0}, {"lat": 38.900689666666665, "is_disabled": 0, "type": "electric_scooter", "lon": -77.002086, "bike_id": "9ef014232c88fe13dd35d28cd5effd58", "fusion_lat": 0.0, "name": "9ef014232c88fe13dd35d28cd5effd58", "is_reserved": 0, "rental_uris": {"android": "https://dc.lft.to/lastmile_qr_scan", "ios": "https://dc.lft.to/lastmile_qr_scan"}, "fusion_lon": 0.0}, {"lat": 38.92857766666667, "is_disabled": 0, "type": "electric_scooter", "lon": -77.01368133333334, "bike_id": "a54cc0250181d6c8586b90b3e197fed4", "fusion_lat": 0.0, "name": "a54cc0250181d6c8586b90b3e197fed4", "is_reserved": 0, "rental_uris": {"android": "https://dc.lft.to/lastmile_qr_scan", "ios": "https://dc.lft.to/lastmile_qr_scan"}, "fusion_lon": 0.0}, {"lat": 38.933522333333336, "is_disabled": 0, "type": "electric_bike", "lon": -77.09961916666667, "bike_id": "94099b8b3a30adfc346588d45e83a91a", "fusion_lat": 0.0, "name": "94099b8b3a30adfc346588d45e83a91a", "is_reserved": 0, "rental_uris": {"android": "https://dc.lft.to/lastmile_qr_scan", "ios": "https://dc.lft.to/lastmile_qr_scan"}, "fusion_lon": 0.0}, {"lat": 38.903657333333335, "is_disabled": 0, "type": "electric_scooter", "lon": -77.04473266666666, "bike_id": "cf9e7c871f65b05476d73cb24a77ca28", "fusion_lat": 0.0, "name": "cf9e7c871f65b05476d73cb24a77ca28", "is_reserved": 0, "rental_uris": {"android": "https://dc.lft.to/lastmile_qr_scan", "ios": "https://dc.lft.to/lastmile_qr_scan"}, "fusion_lon": 0.0}, {"lat": 38.9517205, "is_disabled": 0, "type": "electric_bike", "lon": -76.9690035, "bike_id": "012e401a96c6562ab6979c8506411318", "fusion_lat": 0.0, "name": "012e401a96c6562ab6979c8506411318", "is_reserved": 0, "rental_uris": {"android": "https://dc.lft.to/lastmile_qr_scan", "ios": "https://dc.lft.to/lastmile_qr_scan"}, "fusion_lon": 0.0}, {"lat": 38.90522466666667, "is_disabled": 0, "type": "electric_scooter", "lon": -77.06466883333333, "bike_id": "2f4830217cbf1e98d1a4f97fb46c1f06", "fusion_lat": 0.0, "name": "2f4830217cbf1e98d1a4f97fb46c1f06", "is_reserved": 0, "rental_uris": {"android": "https://dc.lft.to/lastmile_qr_scan", "ios": "https://dc.lft.to/lastmile_qr_scan"}, "fusion_lon": 0.0}, {"lat": 38.9026315, "is_disabled": 0, "type": "electric_scooter", "lon": -77.03972666666667, "bike_id": "e03f43440112c0cf27359eef533b8bb2", "fusion_lat": 0.0, "name": "e03f43440112c0cf27359eef533b8bb2", "is_reserved": 0, "rental_uris": {"android": "https://dc.lft.to/lastmile_qr_scan", "ios": "https://dc.lft.to/lastmile_qr_scan"}, "fusion_lon": 0.0}, {"lat": 38.912989833333334, "is_disabled": 0, "type": "electric_scooter", "lon": -77.02403433333333, "bike_id": "1016d68beeeb5b4149ccbc0f6fb4ef66", "fusion_lat": 0.0, "name": "1016d68beeeb5b4149ccbc0f6fb4ef66", "is_reserved": 0, "rental_uris": {"android": "https://dc.lft.to/lastmile_qr_scan", "ios": "https://dc.lft.to/lastmile_qr_scan"}, "fusion_lon": 0.0}, {"lat": 38.9582005, "is_disabled": 0, "type": "electric_bike", "lon": -76.94094983333333, "bike_id": "94c4aa2ef21789d5e22b3e5319a7010b", "fusion_lat": 0.0, "name": "94c4aa2ef21789d5e22b3e5319a7010b", "is_reserved": 0, "rental_uris": {"android": "https://dc.lft.to/lastmile_qr_scan", "ios": "https://dc.lft.to/lastmile_qr_scan"}, "fusion_lon": 0.0}, {"lat": 38.91117083333334, "is_disabled": 0, "type": "electric_scooter", "lon": -77.03204933333333, "bike_id": "6de4b2e07f9a0f3bae76648faaba41fa", "fusion_lat": 0.0, "name": "6de4b2e07f9a0f3bae76648faaba41fa", "is_reserved": 0, "rental_uris": {"android": "https://dc.lft.to/lastmile_qr_scan", "ios": "https://dc.lft.to/lastmile_qr_scan"}, "fusion_lon": 0.0}, {"lat": 38.91874333333333, "is_disabled": 0, "type": "electric_scooter", "lon": -77.01211483333333, "bike_id": "30e5c551d54d6738f061821276649a83", "fusion_lat": 0.0, "name": "30e5c551d54d6738f061821276649a83", "is_reserved": 0, "rental_uris": {"android": "https://dc.lft.to/lastmile_qr_scan", "ios": "https://dc.lft.to/lastmile_qr_scan"}, "fusion_lon": 0.0}, {"lat": 38.901975, "is_disabled": 0, "type": "electric_scooter", "lon": -77.02324066666667, "bike_id": "0c444363858a00f45735e4955fe80bd5", "fusion_lat": 0.0, "name": "0c444363858a00f45735e4955fe80bd5", "is_reserved": 0, "rental_uris": {"android": "https://dc.lft.to/lastmile_qr_scan", "ios": "https://dc.lft.to/lastmile_qr_scan"}, "fusion_lon": 0.0}, {"lat": 38.912462833333336, "is_disabled": 0, "type": "electric_scooter", "lon": -77.02008116666667, "bike_id": "3d37846883ddc35965f426dd950488bd", "fusion_lat": 0.0, "name": "3d37846883ddc35965f426dd950488bd", "is_reserved": 0, "rental_uris": {"android": "https://dc.lft.to/lastmile_qr_scan", "ios": "https://dc.lft.to/lastmile_qr_scan"}, "fusion_lon": 0.0}, {"lat": 38.91009483333333, "is_disabled": 0, "type": "electric_scooter", "lon": -77.03215983333334, "bike_id": "65e4e8e3205a7795eb579ba0e84fcdf9", "fusion_lat": 0.0, "name": "65e4e8e3205a7795eb579ba0e84fcdf9", "is_reserved": 0, "rental_uris": {"android": "https://dc.lft.to/lastmile_qr_scan", "ios": "https://dc.lft.to/lastmile_qr_scan"}, "fusion_lon": 0.0}, {"lat": 38.961152166666665, "is_disabled": 0, "type": "electric_scooter", "lon": -77.028163, "bike_id": "6ab64eb82f6e9a0421424bfee73e5c77", "fusion_lat": 0.0, "name": "6ab64eb82f6e9a0421424bfee73e5c77", "is_reserved": 0, "rental_uris": {"android": "https://dc.lft.to/lastmile_qr_scan", "ios": "https://dc.lft.to/lastmile_qr_scan"}, "fusion_lon": 0.0}, {"lat": 38.892162, "is_disabled": 0, "type": "electric_scooter", "lon": -77.02118633333333, "bike_id": "25db19efb9e999f9dd84bb2d884e50b5", "fusion_lat": 0.0, "name": "25db19efb9e999f9dd84bb2d884e50b5", "is_reserved": 0, "rental_uris": {"android": "https://dc.lft.to/lastmile_qr_scan", "ios": "https://dc.lft.to/lastmile_qr_scan"}, "fusion_lon": 0.0}, {"lat": 38.926626666666664, "is_disabled": 0, "type": "electric_scooter", "lon": -77.01464566666667, "bike_id": "c29f3a9f84496cb1d3b5aeb4f7db1ee4", "fusion_lat": 0.0, "name": "c29f3a9f84496cb1d3b5aeb4f7db1ee4", "is_reserved": 0, "rental_uris": {"android": "https://dc.lft.to/lastmile_qr_scan", "ios": "https://dc.lft.to/lastmile_qr_scan"}, "fusion_lon": 0.0}, {"lat": 38.909763166666664, "is_disabled": 0, "type": "electric_scooter", "lon": -77.03444566666667, "bike_id": "c1cf58104de36ceda95927c32d271b3b", "fusion_lat": 0.0, "name": "c1cf58104de36ceda95927c32d271b3b", "is_reserved": 0, "rental_uris": {"android": "https://dc.lft.to/lastmile_qr_scan", "ios": "https://dc.lft.to/lastmile_qr_scan"}, "fusion_lon": 0.0}, {"lat": 38.9183715, "is_disabled": 0, "type": "electric_scooter", "lon": -77.03523633333333, "bike_id": "6d291aa3d31be9f301709f50a27ab5d3", "fusion_lat": 0.0, "name": "6d291aa3d31be9f301709f50a27ab5d3", "is_reserved": 0, "rental_uris": {"android": "https://dc.lft.to/lastmile_qr_scan", "ios": "https://dc.lft.to/lastmile_qr_scan"}, "fusion_lon": 0.0}, {"lat": 38.92582183333333, "is_disabled": 0, "type": "electric_scooter", "lon": -77.05762833333333, "bike_id": "82653af8d5522a84acf9f6e7c7c077f8", "fusion_lat": 0.0, "name": "82653af8d5522a84acf9f6e7c7c077f8", "is_reserved": 0, "rental_uris": {"android": "https://dc.lft.to/lastmile_qr_scan", "ios": "https://dc.lft.to/lastmile_qr_scan"}, "fusion_lon": 0.0}, {"lat": 38.895108, "is_disabled": 0, "type": "electric_scooter", "lon": -77.00737466666666, "bike_id": "f1da8e9a2cc5501bc9fc4baf089e0637", "fusion_lat": 0.0, "name": "f1da8e9a2cc5501bc9fc4baf089e0637", "is_reserved": 0, "rental_uris": {"android": "https://dc.lft.to/lastmile_qr_scan", "ios": "https://dc.lft.to/lastmile_qr_scan"}, "fusion_lon": 0.0}, {"lat": 38.91705283333334, "is_disabled": 0, "type": "electric_bike", "lon": -77.0957895, "bike_id": "3139dc11789f81907f19fab8fe87a2fa", "fusion_lat": 0.0, "name": "3139dc11789f81907f19fab8fe87a2fa", "is_reserved": 0, "rental_uris": {"android": "https://dc.lft.to/lastmile_qr_scan", "ios": "https://dc.lft.to/lastmile_qr_scan"}, "fusion_lon": 0.0}, {"lat": 38.90630216666667, "is_disabled": 0, "type": "electric_scooter", "lon": -77.02697233333333, "bike_id": "b628b7e511695105dadcc86203d27b91", "fusion_lat": 0.0, "name": "b628b7e511695105dadcc86203d27b91", "is_reserved": 0, "rental_uris": {"android": "https://dc.lft.to/lastmile_qr_scan", "ios": "https://dc.lft.to/lastmile_qr_scan"}, "fusion_lon": 0.0}, {"lat": 38.9313915, "is_disabled": 0, "type": "electric_scooter", "lon": -77.0414735, "bike_id": "41fe1cbc64f2acd1619228fa14a1aa44", "fusion_lat": 0.0, "name": "41fe1cbc64f2acd1619228fa14a1aa44", "is_reserved": 0, "rental_uris": {"android": "https://dc.lft.to/lastmile_qr_scan", "ios": "https://dc.lft.to/lastmile_qr_scan"}, "fusion_lon": 0.0}, {"lat": 38.913593, "is_disabled": 0, "type": "electric_scooter", "lon": -77.06925066666666, "bike_id": "f8930eb048862df91cbb2b1fbc0709a9", "fusion_lat": 0.0, "name": "f8930eb048862df91cbb2b1fbc0709a9", "is_reserved": 0, "rental_uris": {"android": "https://dc.lft.to/lastmile_qr_scan", "ios": "https://dc.lft.to/lastmile_qr_scan"}, "fusion_lon": 0.0}, {"lat": 38.91414066666667, "is_disabled": 0, "type": "electric_scooter", "lon": -77.0292435, "bike_id": "d03ec5832fd46258edfcc61c6cbc170a", "fusion_lat": 0.0, "name": "d03ec5832fd46258edfcc61c6cbc170a", "is_reserved": 0, "rental_uris": {"android": "https://dc.lft.to/lastmile_qr_scan", "ios": "https://dc.lft.to/lastmile_qr_scan"}, "fusion_lon": 0.0}, {"lat": 38.8591965, "is_disabled": 0, "type": "electric_scooter", "lon": -76.98978866666667, "bike_id": "a33a6d8f600678bcdb5724a826c54978", "fusion_lat": 0.0, "name": "a33a6d8f600678bcdb5724a826c54978", "is_reserved": 0, "rental_uris": {"android": "https://dc.lft.to/lastmile_qr_scan", "ios": "https://dc.lft.to/lastmile_qr_scan"}, "fusion_lon": 0.0}, {"lat": 38.92309566666667, "is_disabled": 0, "type": "electric_scooter", "lon": -77.03962466666667, "bike_id": "d55dfea243d7a72275ce95bec39f8715", "fusion_lat": 0.0, "name": "d55dfea243d7a72275ce95bec39f8715", "is_reserved": 0, "rental_uris": {"android": "https://dc.lft.to/lastmile_qr_scan", "ios": "https://dc.lft.to/lastmile_qr_scan"}, "fusion_lon": 0.0}, {"lat": 38.9214875, "is_disabled": 0, "type": "electric_scooter", "lon": -77.03349783333333, "bike_id": "b51bb5a15da6d91b909b8ca7611d3a81", "fusion_lat": 0.0, "name": "b51bb5a15da6d91b909b8ca7611d3a81", "is_reserved": 0, "rental_uris": {"android": "https://dc.lft.to/lastmile_qr_scan", "ios": "https://dc.lft.to/lastmile_qr_scan"}, "fusion_lon": 0.0}, {"lat": 38.84292033333333, "is_disabled": 0, "type": "electric_scooter", "lon": -76.99948616666667, "bike_id": "920a2eb05b6814dd4379601abd223b39", "fusion_lat": 0.0, "name": "920a2eb05b6814dd4379601abd223b39", "is_reserved": 0, "rental_uris": {"android": "https://dc.lft.to/lastmile_qr_scan", "ios": "https://dc.lft.to/lastmile_qr_scan"}, "fusion_lon": 0.0}, {"lat": 38.92369516666667, "is_disabled": 0, "type": "electric_scooter", "lon": -77.0292495, "bike_id": "81752be2ba96384e4b686c2f93b8b6b8", "fusion_lat": 0.0, "name": "81752be2ba96384e4b686c2f93b8b6b8", "is_reserved": 0, "rental_uris": {"android": "https://dc.lft.to/lastmile_qr_scan", "ios": "https://dc.lft.to/lastmile_qr_scan"}, "fusion_lon": 0.0}, {"lat": 38.924872, "is_disabled": 0, "type": "electric_scooter", "lon": -77.07325966666667, "bike_id": "04eec8e3414bfdea35060c5b65bc9976", "fusion_lat": 0.0, "name": "04eec8e3414bfdea35060c5b65bc9976", "is_reserved": 0, "rental_uris": {"android": "https://dc.lft.to/lastmile_qr_scan", "ios": "https://dc.lft.to/lastmile_qr_scan"}, "fusion_lon": 0.0}, {"lat": 38.926083, "is_disabled": 0, "type": "electric_scooter", "lon": -77.02162933333334, "bike_id": "4edf06e213d389c85b2f831d81c511d8", "fusion_lat": 0.0, "name": "4edf06e213d389c85b2f831d81c511d8", "is_reserved": 0, "rental_uris": {"android": "https://dc.lft.to/lastmile_qr_scan", "ios": "https://dc.lft.to/lastmile_qr_scan"}, "fusion_lon": 0.0}, {"lat": 38.91569166666667, "is_disabled": 0, "type": "electric_scooter", "lon": -77.0339575, "bike_id": "102df33e6121166b5fc6f15e8c4df021", "fusion_lat": 0.0, "name": "102df33e6121166b5fc6f15e8c4df021", "is_reserved": 0, "rental_uris": {"android": "https://dc.lft.to/lastmile_qr_scan", "ios": "https://dc.lft.to/lastmile_qr_scan"}, "fusion_lon": 0.0}, {"lat": 38.994067, "is_disabled": 0, "type": "electric_bike", "lon": -77.03131216666667, "bike_id": "ae92f480a81ead71e378926ba69756a9", "fusion_lat": 0.0, "name": "ae92f480a81ead71e378926ba69756a9", "is_reserved": 0, "rental_uris": {"android": "https://dc.lft.to/lastmile_qr_scan", "ios": "https://dc.lft.to/lastmile_qr_scan"}, "fusion_lon": 0.0}, {"lat": 38.879622833333336, "is_disabled": 0, "type": "electric_scooter", "lon": -76.98742333333334, "bike_id": "589b080d9a2d2d5cda15a67b57fa6b47", "fusion_lat": 0.0, "name": "589b080d9a2d2d5cda15a67b57fa6b47", "is_reserved": 0, "rental_uris": {"android": "https://dc.lft.to/lastmile_qr_scan", "ios": "https://dc.lft.to/lastmile_qr_scan"}, "fusion_lon": 0.0}, {"lat": 38.88488233333333, "is_disabled": 0, "type": "electric_scooter", "lon": -77.00710983333333, "bike_id": "42ab0576da08538943de3f81fca0bab4", "fusion_lat": 0.0, "name": "42ab0576da08538943de3f81fca0bab4", "is_reserved": 0, "rental_uris": {"android": "https://dc.lft.to/lastmile_qr_scan", "ios": "https://dc.lft.to/lastmile_qr_scan"}, "fusion_lon": 0.0}, {"lat": 38.92571066666667, "is_disabled": 0, "type": "electric_scooter", "lon": -76.98610983333333, "bike_id": "06d275405c42c7545f6c2ddaf656b399", "fusion_lat": 0.0, "name": "06d275405c42c7545f6c2ddaf656b399", "is_reserved": 0, "rental_uris": {"android": "https://dc.lft.to/lastmile_qr_scan", "ios": "https://dc.lft.to/lastmile_qr_scan"}, "fusion_lon": 0.0}, {"lat": 38.90010316666667, "is_disabled": 0, "type": "electric_scooter", "lon": -77.01203183333334, "bike_id": "60048687ee6133ac14313ec5c3d47236", "fusion_lat": 0.0, "name": "60048687ee6133ac14313ec5c3d47236", "is_reserved": 0, "rental_uris": {"android": "https://dc.lft.to/lastmile_qr_scan", "ios": "https://dc.lft.to/lastmile_qr_scan"}, "fusion_lon": 0.0}, {"lat": 38.916737166666664, "is_disabled": 0, "type": "electric_scooter", "lon": -77.0259575, "bike_id": "1cba1b901f44915d72c6f75aadc14760", "fusion_lat": 0.0, "name": "1cba1b901f44915d72c6f75aadc14760", "is_reserved": 0, "rental_uris": {"android": "https://dc.lft.to/lastmile_qr_scan", "ios": "https://dc.lft.to/lastmile_qr_scan"}, "fusion_lon": 0.0}, {"lat": 38.902679, "is_disabled": 0, "type": "electric_scooter", "lon": -77.05410366666666, "bike_id": "dbc381621a76ce8c78f5849c6e8c281e", "fusion_lat": 0.0, "name": "dbc381621a76ce8c78f5849c6e8c281e", "is_reserved": 0, "rental_uris": {"android": "https://dc.lft.to/lastmile_qr_scan", "ios": "https://dc.lft.to/lastmile_qr_scan"}, "fusion_lon": 0.0}, {"lat": 38.88526916666667, "is_disabled": 0, "type": "electric_scooter", "lon": -76.98271666666666, "bike_id": "d03934a23283fe7068eeeaac88b62a5c", "fusion_lat": 0.0, "name": "d03934a23283fe7068eeeaac88b62a5c", "is_reserved": 0, "rental_uris": {"android": "https://dc.lft.to/lastmile_qr_scan", "ios": "https://dc.lft.to/lastmile_qr_scan"}, "fusion_lon": 0.0}, {"lat": 38.92106866666666, "is_disabled": 0, "type": "electric_scooter", "lon": -77.04701566666667, "bike_id": "74b00b551e0be4c1d6d61da7e22b7a33", "fusion_lat": 0.0, "name": "74b00b551e0be4c1d6d61da7e22b7a33", "is_reserved": 0, "rental_uris": {"android": "https://dc.lft.to/lastmile_qr_scan", "ios": "https://dc.lft.to/lastmile_qr_scan"}, "fusion_lon": 0.0}, {"lat": 38.9243825, "is_disabled": 0, "type": "electric_scooter", "lon": -77.05219316666667, "bike_id": "336c7d774f6d9fe480c832cfb20857bc", "fusion_lat": 0.0, "name": "336c7d774f6d9fe480c832cfb20857bc", "is_reserved": 0, "rental_uris": {"android": "https://dc.lft.to/lastmile_qr_scan", "ios": "https://dc.lft.to/lastmile_qr_scan"}, "fusion_lon": 0.0}, {"lat": 38.802274, "is_disabled": 0, "type": "electric_bike", "lon": -77.0791805, "bike_id": "1bb30fbd4eff5c3db2f955924ea60abc", "fusion_lat": 0.0, "name": "1bb30fbd4eff5c3db2f955924ea60abc", "is_reserved": 0, "rental_uris": {"android": "https://dc.lft.to/lastmile_qr_scan", "ios": "https://dc.lft.to/lastmile_qr_scan"}, "fusion_lon": 0.0}, {"lat": 38.9279735, "is_disabled": 0, "type": "electric_scooter", "lon": -77.026036, "bike_id": "47ae9d5d625355f50b2ac353a794ecee", "fusion_lat": 0.0, "name": "47ae9d5d625355f50b2ac353a794ecee", "is_reserved": 0, "rental_uris": {"android": "https://dc.lft.to/lastmile_qr_scan", "ios": "https://dc.lft.to/lastmile_qr_scan"}, "fusion_lon": 0.0}, {"lat": 38.90751083333333, "is_disabled": 0, "type": "electric_scooter", "lon": -77.0343775, "bike_id": "bf48f657ef2aa7e1b5262429789915e9", "fusion_lat": 0.0, "name": "bf48f657ef2aa7e1b5262429789915e9", "is_reserved": 0, "rental_uris": {"android": "https://dc.lft.to/lastmile_qr_scan", "ios": "https://dc.lft.to/lastmile_qr_scan"}, "fusion_lon": 0.0}, {"lat": 38.911077166666665, "is_disabled": 0, "type": "electric_scooter", "lon": -77.04231333333334, "bike_id": "1df0a5236e15a2b6a790a15bd6bce062", "fusion_lat": 0.0, "name": "1df0a5236e15a2b6a790a15bd6bce062", "is_reserved": 0, "rental_uris": {"android": "https://dc.lft.to/lastmile_qr_scan", "ios": "https://dc.lft.to/lastmile_qr_scan"}, "fusion_lon": 0.0}, {"lat": 38.863626833333335, "is_disabled": 0, "type": "electric_scooter", "lon": -76.99037416666667, "bike_id": "a2eb5178889d41ee771e31c6cb39ff63", "fusion_lat": 0.0, "name": "a2eb5178889d41ee771e31c6cb39ff63", "is_reserved": 0, "rental_uris": {"android": "https://dc.lft.to/lastmile_qr_scan", "ios": "https://dc.lft.to/lastmile_qr_scan"}, "fusion_lon": 0.0}, {"lat": 38.925469166666666, "is_disabled": 0, "type": "electric_scooter", "lon": -77.03225266666666, "bike_id": "d5064d176665b04e74248a2db2f8aff4", "fusion_lat": 0.0, "name": "d5064d176665b04e74248a2db2f8aff4", "is_reserved": 0, "rental_uris": {"android": "https://dc.lft.to/lastmile_qr_scan", "ios": "https://dc.lft.to/lastmile_qr_scan"}, "fusion_lon": 0.0}, {"lat": 38.8667455, "is_disabled": 0, "type": "electric_scooter", "lon": -76.98543083333334, "bike_id": "2132b5a1cdb2bdff18439148fb534fb2", "fusion_lat": 0.0, "name": "2132b5a1cdb2bdff18439148fb534fb2", "is_reserved": 0, "rental_uris": {"android": "https://dc.lft.to/lastmile_qr_scan", "ios": "https://dc.lft.to/lastmile_qr_scan"}, "fusion_lon": 0.0}, {"lat": 38.87725416666667, "is_disabled": 0, "type": "electric_bike", "lon": -76.98110983333333, "bike_id": "b0eb926b26b13b7faafcb0f6fb0f84c1", "fusion_lat": 0.0, "name": "b0eb926b26b13b7faafcb0f6fb0f84c1", "is_reserved": 0, "rental_uris": {"android": "https://dc.lft.to/lastmile_qr_scan", "ios": "https://dc.lft.to/lastmile_qr_scan"}, "fusion_lon": 0.0}, {"lat": 38.832302166666665, "is_disabled": 0, "type": "electric_bike", "lon": -77.04979266666666, "bike_id": "1add151910b5daa6f89a3bb907e34d79", "fusion_lat": 0.0, "name": "1add151910b5daa6f89a3bb907e34d79", "is_reserved": 0, "rental_uris": {"android": "https://dc.lft.to/lastmile_qr_scan", "ios": "https://dc.lft.to/lastmile_qr_scan"}, "fusion_lon": 0.0}, {"lat": 38.914043166666666, "is_disabled": 0, "type": "electric_scooter", "lon": -77.03862733333334, "bike_id": "2ca293f0ad286dbaa11932c06f6fac52", "fusion_lat": 0.0, "name": "2ca293f0ad286dbaa11932c06f6fac52", "is_reserved": 0, "rental_uris": {"android": "https://dc.lft.to/lastmile_qr_scan", "ios": "https://dc.lft.to/lastmile_qr_scan"}, "fusion_lon": 0.0}, {"lat": 38.917608, "is_disabled": 0, "type": "electric_scooter", "lon": -77.02817166666667, "bike_id": "2eaecbf5b607933a30f3a3b1616d4c67", "fusion_lat": 0.0, "name": "2eaecbf5b607933a30f3a3b1616d4c67", "is_reserved": 0, "rental_uris": {"android": "https://dc.lft.to/lastmile_qr_scan", "ios": "https://dc.lft.to/lastmile_qr_scan"}, "fusion_lon": 0.0}, {"lat": 38.916911166666665, "is_disabled": 0, "type": "electric_scooter", "lon": -77.03774866666667, "bike_id": "c0510ed9667d23d6d3dfe08a4fa1f2ff", "fusion_lat": 0.0, "name": "c0510ed9667d23d6d3dfe08a4fa1f2ff", "is_reserved": 0, "rental_uris": {"android": "https://dc.lft.to/lastmile_qr_scan", "ios": "https://dc.lft.to/lastmile_qr_scan"}, "fusion_lon": 0.0}, {"lat": 38.900133333333336, "is_disabled": 0, "type": "electric_scooter", "lon": -77.012044, "bike_id": "d775dfd2f85f04a63658214e6d82e170", "fusion_lat": 0.0, "name": "d775dfd2f85f04a63658214e6d82e170", "is_reserved": 0, "rental_uris": {"android": "https://dc.lft.to/lastmile_qr_scan", "ios": "https://dc.lft.to/lastmile_qr_scan"}, "fusion_lon": 0.0}, {"lat": 38.897450666666664, "is_disabled": 0, "type": "electric_scooter", "lon": -77.00069433333333, "bike_id": "b47e6b0bb3ca3eff192c52b58716e5e1", "fusion_lat": 0.0, "name": "b47e6b0bb3ca3eff192c52b58716e5e1", "is_reserved": 0, "rental_uris": {"android": "https://dc.lft.to/lastmile_qr_scan", "ios": "https://dc.lft.to/lastmile_qr_scan"}, "fusion_lon": 0.0}, {"lat": 38.93315783333333, "is_disabled": 0, "type": "electric_scooter", "lon": -77.0452195, "bike_id": "32245780eaefb13b0e4f4a6a7fbc1e4d", "fusion_lat": 0.0, "name": "32245780eaefb13b0e4f4a6a7fbc1e4d", "is_reserved": 0, "rental_uris": {"android": "https://dc.lft.to/lastmile_qr_scan", "ios": "https://dc.lft.to/lastmile_qr_scan"}, "fusion_lon": 0.0}, {"lat": 38.90717633333333, "is_disabled": 0, "type": "electric_scooter", "lon": -77.04354866666667, "bike_id": "4e311f930025087b77fd6c02c5dc51b2", "fusion_lat": 0.0, "name": "4e311f930025087b77fd6c02c5dc51b2", "is_reserved": 0, "rental_uris": {"android": "https://dc.lft.to/lastmile_qr_scan", "ios": "https://dc.lft.to/lastmile_qr_scan"}, "fusion_lon": 0.0}, {"lat": 38.89863166666667, "is_disabled": 0, "type": "electric_scooter", "lon": -77.0202835, "bike_id": "19bdd9ae8a6c2c7004512862733bf758", "fusion_lat": 0.0, "name": "19bdd9ae8a6c2c7004512862733bf758", "is_reserved": 0, "rental_uris": {"android": "https://dc.lft.to/lastmile_qr_scan", "ios": "https://dc.lft.to/lastmile_qr_scan"}, "fusion_lon": 0.0}, {"lat": 38.8788185, "is_disabled": 0, "type": "electric_scooter", "lon": -77.00743266666667, "bike_id": "038db94f3dffd01b63d4be51b2978008", "fusion_lat": 0.0, "name": "038db94f3dffd01b63d4be51b2978008", "is_reserved": 0, "rental_uris": {"android": "https://dc.lft.to/lastmile_qr_scan", "ios": "https://dc.lft.to/lastmile_qr_scan"}, "fusion_lon": 0.0}, {"lat": 38.90126133333333, "is_disabled": 0, "type": "electric_scooter", "lon": -77.0319655, "bike_id": "50e9ed5bc210d4c7402efdde13005e8d", "fusion_lat": 0.0, "name": "50e9ed5bc210d4c7402efdde13005e8d", "is_reserved": 0, "rental_uris": {"android": "https://dc.lft.to/lastmile_qr_scan", "ios": "https://dc.lft.to/lastmile_qr_scan"}, "fusion_lon": 0.0}, {"lat": 38.85517816666667, "is_disabled": 0, "type": "electric_bike", "lon": -76.98435, "bike_id": "be0117b9d271e1b37b608dade64c26e3", "fusion_lat": 0.0, "name": "be0117b9d271e1b37b608dade64c26e3", "is_reserved": 0, "rental_uris": {"android": "https://dc.lft.to/lastmile_qr_scan", "ios": "https://dc.lft.to/lastmile_qr_scan"}, "fusion_lon": 0.0}, {"lat": 38.893016833333334, "is_disabled": 0, "type": "electric_scooter", "lon": -77.00014566666667, "bike_id": "9d4aa2617718c6f137e3b79f6b9cb8f6", "fusion_lat": 0.0, "name": "9d4aa2617718c6f137e3b79f6b9cb8f6", "is_reserved": 0, "rental_uris": {"android": "https://dc.lft.to/lastmile_qr_scan", "ios": "https://dc.lft.to/lastmile_qr_scan"}, "fusion_lon": 0.0}, {"lat": 38.91300416666667, "is_disabled": 0, "type": "electric_scooter", "lon": -77.06163783333334, "bike_id": "bf401a09f7ab059b27dede77761b56df", "fusion_lat": 0.0, "name": "bf401a09f7ab059b27dede77761b56df", "is_reserved": 0, "rental_uris": {"android": "https://dc.lft.to/lastmile_qr_scan", "ios": "https://dc.lft.to/lastmile_qr_scan"}, "fusion_lon": 0.0}, {"lat": 38.9110595, "is_disabled": 0, "type": "electric_scooter", "lon": -77.0482015, "bike_id": "f12d75ede44edd91cf053899c184893b", "fusion_lat": 0.0, "name": "f12d75ede44edd91cf053899c184893b", "is_reserved": 0, "rental_uris": {"android": "https://dc.lft.to/lastmile_qr_scan", "ios": "https://dc.lft.to/lastmile_qr_scan"}, "fusion_lon": 0.0}, {"lat": 38.90359866666667, "is_disabled": 0, "type": "electric_scooter", "lon": -77.06277283333333, "bike_id": "a69ad7478573bf67b011d38b0d2955cd", "fusion_lat": 0.0, "name": "a69ad7478573bf67b011d38b0d2955cd", "is_reserved": 0, "rental_uris": {"android": "https://dc.lft.to/lastmile_qr_scan", "ios": "https://dc.lft.to/lastmile_qr_scan"}, "fusion_lon": 0.0}, {"lat": 38.813418166666665, "is_disabled": 0, "type": "electric_bike", "lon": -77.04925533333333, "bike_id": "baa005d267449a35ed1b59331d87b4f7", "fusion_lat": 0.0, "name": "baa005d267449a35ed1b59331d87b4f7", "is_reserved": 0, "rental_uris": {"android": "https://dc.lft.to/lastmile_qr_scan", "ios": "https://dc.lft.to/lastmile_qr_scan"}, "fusion_lon": 0.0}, {"lat": 38.897558, "is_disabled": 0, "type": "electric_scooter", "lon": -76.94189816666666, "bike_id": "a0f9bb5f42c7f0e7998d34d471ae0dec", "fusion_lat": 0.0, "name": "a0f9bb5f42c7f0e7998d34d471ae0dec", "is_reserved": 0, "rental_uris": {"android": "https://dc.lft.to/lastmile_qr_scan", "ios": "https://dc.lft.to/lastmile_qr_scan"}, "fusion_lon": 0.0}, {"lat": 38.90714766666667, "is_disabled": 0, "type": "electric_scooter", "lon": -77.0435615, "bike_id": "43a17b9726dc5a995f5bfd87d8fd41af", "fusion_lat": 0.0, "name": "43a17b9726dc5a995f5bfd87d8fd41af", "is_reserved": 0, "rental_uris": {"android": "https://dc.lft.to/lastmile_qr_scan", "ios": "https://dc.lft.to/lastmile_qr_scan"}, "fusion_lon": 0.0}, {"lat": 38.917884666666666, "is_disabled": 0, "type": "electric_scooter", "lon": -77.02311733333333, "bike_id": "6554f2e9f9d93e98e6fc0c3bdd73e1dd", "fusion_lat": 0.0, "name": "6554f2e9f9d93e98e6fc0c3bdd73e1dd", "is_reserved": 0, "rental_uris": {"android": "https://dc.lft.to/lastmile_qr_scan", "ios": "https://dc.lft.to/lastmile_qr_scan"}, "fusion_lon": 0.0}, {"lat": 38.92380966666666, "is_disabled": 0, "type": "electric_scooter", "lon": -77.03061033333333, "bike_id": "8da15a0f3a9185df5520219741de8dff", "fusion_lat": 0.0, "name": "8da15a0f3a9185df5520219741de8dff", "is_reserved": 0, "rental_uris": {"android": "https://dc.lft.to/lastmile_qr_scan", "ios": "https://dc.lft.to/lastmile_qr_scan"}, "fusion_lon": 0.0}, {"lat": 38.92230833333333, "is_disabled": 0, "type": "electric_scooter", "lon": -77.04343683333333, "bike_id": "b9d403b416d3c9c7f141b198f046c56f", "fusion_lat": 0.0, "name": "b9d403b416d3c9c7f141b198f046c56f", "is_reserved": 0, "rental_uris": {"android": "https://dc.lft.to/lastmile_qr_scan", "ios": "https://dc.lft.to/lastmile_qr_scan"}, "fusion_lon": 0.0}, {"lat": 38.91483566666667, "is_disabled": 0, "type": "electric_scooter", "lon": -77.01378766666667, "bike_id": "43b73b1355c04f708caf80a8d5c396d4", "fusion_lat": 0.0, "name": "43b73b1355c04f708caf80a8d5c396d4", "is_reserved": 0, "rental_uris": {"android": "https://dc.lft.to/lastmile_qr_scan", "ios": "https://dc.lft.to/lastmile_qr_scan"}, "fusion_lon": 0.0}, {"lat": 38.90036583333333, "is_disabled": 0, "type": "electric_scooter", "lon": -77.00202883333333, "bike_id": "df49a9b88eb05460a174ce6955cb575c", "fusion_lat": 0.0, "name": "df49a9b88eb05460a174ce6955cb575c", "is_reserved": 0, "rental_uris": {"android": "https://dc.lft.to/lastmile_qr_scan", "ios": "https://dc.lft.to/lastmile_qr_scan"}, "fusion_lon": 0.0}, {"lat": 38.902811166666666, "is_disabled": 0, "type": "electric_scooter", "lon": -77.03656666666667, "bike_id": "1697ef9fe93a816789337ccb0ac30c8e", "fusion_lat": 0.0, "name": "1697ef9fe93a816789337ccb0ac30c8e", "is_reserved": 0, "rental_uris": {"android": "https://dc.lft.to/lastmile_qr_scan", "ios": "https://dc.lft.to/lastmile_qr_scan"}, "fusion_lon": 0.0}, {"lat": 38.900264666666665, "is_disabled": 0, "type": "electric_scooter", "lon": -76.999067, "bike_id": "e20173ce3c94716ca640c644bab79190", "fusion_lat": 0.0, "name": "e20173ce3c94716ca640c644bab79190", "is_reserved": 0, "rental_uris": {"android": "https://dc.lft.to/lastmile_qr_scan", "ios": "https://dc.lft.to/lastmile_qr_scan"}, "fusion_lon": 0.0}, {"lat": 38.88018566666667, "is_disabled": 0, "type": "electric_scooter", "lon": -76.96013033333334, "bike_id": "5924f0ebfc0d8ecff7384fb7e9b371f7", "fusion_lat": 0.0, "name": "5924f0ebfc0d8ecff7384fb7e9b371f7", "is_reserved": 0, "rental_uris": {"android": "https://dc.lft.to/lastmile_qr_scan", "ios": "https://dc.lft.to/lastmile_qr_scan"}, "fusion_lon": 0.0}, {"lat": 38.95298916666667, "is_disabled": 0, "type": "electric_scooter", "lon": -77.0815245, "bike_id": "de852462a1fae4f3c113ebfc230df7b2", "fusion_lat": 0.0, "name": "de852462a1fae4f3c113ebfc230df7b2", "is_reserved": 0, "rental_uris": {"android": "https://dc.lft.to/lastmile_qr_scan", "ios": "https://dc.lft.to/lastmile_qr_scan"}, "fusion_lon": 0.0}, {"lat": 38.86646133333333, "is_disabled": 0, "type": "electric_scooter", "lon": -76.98889, "bike_id": "8c7ec5ac13a6cb9c9e2a44cfcf628b34", "fusion_lat": 0.0, "name": "8c7ec5ac13a6cb9c9e2a44cfcf628b34", "is_reserved": 0, "rental_uris": {"android": "https://dc.lft.to/lastmile_qr_scan", "ios": "https://dc.lft.to/lastmile_qr_scan"}, "fusion_lon": 0.0}, {"lat": 38.93874483333333, "is_disabled": 0, "type": "electric_scooter", "lon": -77.03132416666666, "bike_id": "f550a1b86e82d1b0bcc937d5a0898ad9", "fusion_lat": 0.0, "name": "f550a1b86e82d1b0bcc937d5a0898ad9", "is_reserved": 0, "rental_uris": {"android": "https://dc.lft.to/lastmile_qr_scan", "ios": "https://dc.lft.to/lastmile_qr_scan"}, "fusion_lon": 0.0}, {"lat": 38.916822833333335, "is_disabled": 0, "type": "electric_scooter", "lon": -77.031979, "bike_id": "13e63198d5c0e8d48688b18a1204d036", "fusion_lat": 0.0, "name": "13e63198d5c0e8d48688b18a1204d036", "is_reserved": 0, "rental_uris": {"android": "https://dc.lft.to/lastmile_qr_scan", "ios": "https://dc.lft.to/lastmile_qr_scan"}, "fusion_lon": 0.0}, {"lat": 38.8977965, "is_disabled": 0, "type": "electric_scooter", "lon": -77.00919883333333, "bike_id": "6891ab85dc9c20127fe960c12bd4a03c", "fusion_lat": 0.0, "name": "6891ab85dc9c20127fe960c12bd4a03c", "is_reserved": 0, "rental_uris": {"android": "https://dc.lft.to/lastmile_qr_scan", "ios": "https://dc.lft.to/lastmile_qr_scan"}, "fusion_lon": 0.0}, {"lat": 38.90662066666667, "is_disabled": 0, "type": "electric_scooter", "lon": -77.0272705, "bike_id": "5454cb9ec477ef8ad5cd601fa9d43258", "fusion_lat": 0.0, "name": "5454cb9ec477ef8ad5cd601fa9d43258", "is_reserved": 0, "rental_uris": {"android": "https://dc.lft.to/lastmile_qr_scan", "ios": "https://dc.lft.to/lastmile_qr_scan"}, "fusion_lon": 0.0}, {"lat": 38.920612, "is_disabled": 0, "type": "electric_scooter", "lon": -77.04376316666666, "bike_id": "9c0127b2adb814d2afd86f25e0f9a3e3", "fusion_lat": 0.0, "name": "9c0127b2adb814d2afd86f25e0f9a3e3", "is_reserved": 0, "rental_uris": {"android": "https://dc.lft.to/lastmile_qr_scan", "ios": "https://dc.lft.to/lastmile_qr_scan"}, "fusion_lon": 0.0}, {"lat": 38.9169535, "is_disabled": 0, "type": "electric_scooter", "lon": -77.03116333333334, "bike_id": "63725def8ec4fb114d371615f91aa866", "fusion_lat": 0.0, "name": "63725def8ec4fb114d371615f91aa866", "is_reserved": 0, "rental_uris": {"android": "https://dc.lft.to/lastmile_qr_scan", "ios": "https://dc.lft.to/lastmile_qr_scan"}, "fusion_lon": 0.0},