{"data": {"bikes": [{"fusion_lon": 0.0, "name": "6eb720bce5f5f78d95f1ec037b433585", "rental_uris": {"android": "https://dc.lft.to/lastmile_qr_scan", "ios": "https://dc.lft.to/lastmile_qr_scan"}, "lat": 38.9352855, "bike_id": "6eb720bce5f5f78d95f1ec037b433585", "is_disabled": 0, "lon": -77.02304116666667, "is_reserved": 0, "fusion_lat": 0.0, "type": "electric_scooter"}, {"fusion_lon": 0.0, "name": "ae0da2fd132ef7c8200644151912da32", "rental_uris": {"android": "https://dc.lft.to/lastmile_qr_scan", "ios": "https://dc.lft.to/lastmile_qr_scan"}, "lat": 38.870403333333336, "bike_id": "ae0da2fd132ef7c8200644151912da32", "is_disabled": 0, "lon": -77.2290685, "is_reserved": 0, "fusion_lat": 0.0, "type": "electric_bike"}, {"fusion_lon": 0.0, "name": "7fa4a7c464bb13e3d36a5afdfd85d7a1", "rental_uris": {"android": "https://dc.lft.to/lastmile_qr_scan", "ios": "https://dc.lft.to/lastmile_qr_scan"}, "lat": 38.921946166666665, "bike_id": "7fa4a7c464bb13e3d36a5afdfd85d7a1", "is_disabled": 0, "lon": -77.02980716666667, "is_reserved": 0, "fusion_lat": 0.0, "type": "electric_scooter"}, {"fusion_lon": 0.0, "name": "dbab09fcda125f03b5ae1eaa6c34d3e2", "rental_uris": {"android": "https://dc.lft.to/lastmile_qr_scan", "ios": "https://dc.lft.to/lastmile_qr_scan"}, "lat": 38.94677816666667, "bike_id": "dbab09fcda125f03b5ae1eaa6c34d3e2", "is_disabled": 0, "lon": -77.03286666666666, "is_reserved": 0, "fusion_lat": 0.0, "type": "electric_scooter"}, {"fusion_lon": 0.0, "name": "66c5fec6c594591bf645319b59df30f9", "rental_uris": {"android": "https://dc.lft.to/lastmile_qr_scan", "ios": "https://dc.lft.to/lastmile_qr_scan"}, "lat": 38.92470566666667, "bike_id": "66c5fec6c594591bf645319b59df30f9", "is_disabled": 0, "lon": -77.02272066666667, "is_reserved": 0, "fusion_lat": 0.0, "type": "electric_scooter"}, {"fusion_lon": 0.0, "name": "5d8ec4e4a92c2bb651535bdf007f946a", "rental_uris": {"android": "https://dc.lft.to/lastmile_qr_scan", "ios": "https://dc.lft.to/lastmile_qr_scan"}, "lat": 38.89709116666667, "bike_id": "5d8ec4e4a92c2bb651535bdf007f946a", "is_disabled": 0, "lon": -76.9911945, "is_reserved": 0, "fusion_lat": 0.0, "type": "electric_scooter"}, {"fusion_lon": 0.0, "name": "9d013bf0a895f4c3733c761c841f4bac", "rental_uris": {"android": "https://dc.lft.to/lastmile_qr_scan", "ios": "https://dc.lft.to/lastmile_qr_scan"}, "lat": 38.903324833333336, "bike_id": "9d013bf0a895f4c3733c761c841f4bac", "is_disabled": 0, "lon": -76.97594516666666, "is_reserved": 0, "fusion_lat": 0.0, "type": "electric_scooter"}, {"fusion_lon": 0.0, "name": "ad9ddace33d359aadf2553a8d71b5cf0", "rental_uris": {"android": "https://dc.lft.to/lastmile_qr_scan", "ios": "https://dc.lft.to/lastmile_qr_scan"}, "lat": 38.92789033333333, "bike_id": "ad9ddace33d359aadf2553a8d71b5cf0", "is_disabled": 0, "lon": -76.99614516666666, "is_reserved": 0, "fusion_lat": 0.0, "type": "electric_scooter"}, {"fusion_lon": 0.0, "name": "de012c7d827890d0b73ba4d960838558", "rental_uris": {"android": "https://dc.lft.to/lastmile_qr_scan", "ios": "https://dc.lft.to/lastmile_qr_scan"}, "lat": 38.90395183333333, "bike_id": "de012c7d827890d0b73ba4d960838558", "is_disabled": 0, "lon": -77.00426883333333, "is_reserved": 0, "fusion_lat": 0.0, "type": "electric_scooter"}, {"fusion_lon": 0.0, "name": "b037e3899b90df1b75a3bb7c87d81abd", "rental_uris": {"android": "https://dc.lft.to/lastmile_qr_scan", "ios": "https://dc.lft.to/lastmile_qr_scan"}, "lat": 38.925033, "bike_id": "b037e3899b90df1b75a3bb7c87d81abd", "is_disabled": 0, "lon": -77.02578766666667, "is_reserved": 0, "fusion_lat": 0.0, "type": "electric_scooter"}, {"fusion_lon": 0.0, "name": "28fa511d1a57d48c7166a8d9d0270283", "rental_uris": {"android": "https://dc.lft.to/lastmile_qr_scan", "ios": "https://dc.lft.to/lastmile_qr_scan"}, "lat": 38.91642183333333, "bike_id": "28fa511d1a57d48c7166a8d9d0270283", "is_disabled": 0, "lon": -77.03184633333333, "is_reserved": 0, "fusion_lat": 0.0, "type": "electric_scooter"}, {"fusion_lon": 0.0, "name": "280178a713a42eac1363dd47128c3a3a", "rental_uris": {"android": "https://dc.lft.to/lastmile_qr_scan", "ios": "https://dc.lft.to/lastmile_qr_scan"}, "lat": 38.85436033333333, "bike_id": "280178a713a42eac1363dd47128c3a3a", "is_disabled": 0, "lon": -77.08322166666666, "is_reserved": 0, "fusion_lat": 0.0, "type": "electric_bike"}, {"fusion_lon": 0.0, "name": "13b636959edcf0a26b9afc13778cd188", "rental_uris": {"android": "https://dc.lft.to/lastmile_qr_scan", "ios": "https://dc.lft.to/lastmile_qr_scan"}, "lat": 38.998866166666666, "bike_id": "13b636959edcf0a26b9afc13778cd188", "is_disabled": 0, "lon": -76.908566, "is_reserved": 0, "fusion_lat": 0.0, "type": "electric_bike"}, {"fusion_lon": 0.0, "name": "db97c3e4fcbbc8e79de50da02d92bf91", "rental_uris": {"android": "https://dc.lft.to/lastmile_qr_scan", "ios": "https://dc.lft.to/lastmile_qr_scan"}, "lat": 38.941657166666666, "bike_id": "db97c3e4fcbbc8e79de50da02d92bf91", "is_disabled": 0, "lon": -77.02558183333333, "is_reserved": 0, "fusion_lat": 0.0, "type": "electric_scooter"}, {"fusion_lon": 0.0, "name": "3ac0d7f9be067552ba583d02488d327a", "rental_uris": {"android": "https://dc.lft.to/lastmile_qr_scan", "ios": "https://dc.lft.to/lastmile_qr_scan"}, "lat": 38.89848583333333, "bike_id": "3ac0d7f9be067552ba583d02488d327a", "is_disabled": 0, "lon": -77.04378883333334, "is_reserved": 0, "fusion_lat": 0.0, "type": "electric_scooter"}, {"fusion_lon": 0.0, "name": "2a0f6b2c75146d7e743b805e5fe8d168", "rental_uris": {"android": "https://dc.lft.to/lastmile_qr_scan", "ios": "https://dc.lft.to/lastmile_qr_scan"}, "lat": 38.90940716666667, "bike_id": "2a0f6b2c75146d7e743b805e5fe8d168", "is_disabled": 0, "lon": -77.03860583333334, "is_reserved": 0, "fusion_lat": 0.0, "type": "electric_scooter"}, {"fusion_lon": 0.0, "name": "57f4e7a685ccc1b2d6948f68d4d5e360", "rental_uris": {"android": "https://dc.lft.to/lastmile_qr_scan", "ios": "https://dc.lft.to/lastmile_qr_scan"}, "lat": 38.9247875, "bike_id": "57f4e7a685ccc1b2d6948f68d4d5e360", "is_disabled": 0, "lon": -77.022442, "is_reserved": 0, "fusion_lat": 0.0, "type": "electric_scooter"}, {"fusion_lon": 0.0, "name": "25ce8575bb6296ab0ca952a0c33c1c47", "rental_uris": {"android": "https://dc.lft.to/lastmile_qr_scan", "ios": "https://dc.lft.to/lastmile_qr_scan"}, "lat": 38.888773666666665, "bike_id": "25ce8575bb6296ab0ca952a0c33c1c47", "is_disabled": 0, "lon": -76.99030883333333, "is_reserved": 0, "fusion_lat": 0.0, "type": "electric_scooter"}, {"fusion_lon": 0.0, "name": "6dbbbbf8c60d32bcea9a554b8a50d0b2", "rental_uris": {"android": "https://dc.lft.to/lastmile_qr_scan", "ios": "https://dc.lft.to/lastmile_qr_scan"}, "lat": 38.905784833333335, "bike_id": "6dbbbbf8c60d32bcea9a554b8a50d0b2", "is_disabled": 0, "lon": -77.00594466666666, "is_reserved": 0, "fusion_lat": 0.0, "type": "electric_scooter"}, {"fusion_lon": 0.0, "name": "add7835cdbaf9dc14de874c3d2bf0b9c", "rental_uris": {"android": "https://dc.lft.to/lastmile_qr_scan", "ios": "https://dc.lft.to/lastmile_qr_scan"}, "lat": 38.920710666666665, "bike_id": "add7835cdbaf9dc14de874c3d2bf0b9c", "is_disabled": 0, "lon": -77.03453283333333, "is_reserved": 0, "fusion_lat": 0.0, "type": "electric_scooter"}, {"fusion_lon": 0.0, "name": "b7be2bdf06880d3f97278b61abb47726", "rental_uris": {"android": "https://dc.lft.to/lastmile_qr_scan", "ios": "https://dc.lft.to/lastmile_qr_scan"}, "lat": 38.87892816666667, "bike_id": "b7be2bdf06880d3f97278b61abb47726", "is_disabled": 0, "lon": -77.00609266666666, "is_reserved": 0, "fusion_lat": 0.0, "type": "electric_scooter"}, {"fusion_lon": 0.0, "name": "d072bb0a136e0d79ef485a0884f73860", "rental_uris": {"android": "https://dc.lft.to/lastmile_qr_scan", "ios": "https://dc.lft.to/lastmile_qr_scan"}, "lat": 38.902434, "bike_id": "d072bb0a136e0d79ef485a0884f73860", "is_disabled": 0, "lon": -77.05346633333333, "is_reserved": 0, "fusion_lat": 0.0, "type": "electric_scooter"}, {"fusion_lon": 0.0, "name": "8e1bb50eabc744e1a95685b5df5ae744", "rental_uris": {"android": "https://dc.lft.to/lastmile_qr_scan", "ios": "https://dc.lft.to/lastmile_qr_scan"}, "lat": 38.91792916666667, "bike_id": "8e1bb50eabc744e1a95685b5df5ae744", "is_disabled": 0, "lon": -77.04019533333333, "is_reserved": 0, "fusion_lat": 0.0, "type": "electric_scooter"}, {"fusion_lon": 0.0, "name": "acfb3e86821aa7511d90e5dd4a44c8e8", "rental_uris": {"android": "https://dc.lft.to/lastmile_qr_scan", "ios": "https://dc.lft.to/lastmile_qr_scan"}, "lat": 38.937170333333334, "bike_id": "acfb3e86821aa7511d90e5dd4a44c8e8", "is_disabled": 0, "lon": -77.03288683333334, "is_reserved": 0, "fusion_lat": 0.0, "type": "electric_scooter"}, {"fusion_lon": 0.0, "name": "361167395c2eeba35943f0729cf5134e", "rental_uris": {"android": "https://dc.lft.to/lastmile_qr_scan", "ios": "https://dc.lft.to/lastmile_qr_scan"}, "lat": 38.90956166666667, "bike_id": "361167395c2eeba35943f0729cf5134e", "is_disabled": 0, "lon": -77.038596, "is_reserved": 0, "fusion_lat": 0.0, "type": "electric_scooter"}, {"fusion_lon": 0.0, "name": "973de402acf039036660a0400b1c3c58", "rental_uris": {"android": "https://dc.lft.to/lastmile_qr_scan", "ios": "https://dc.lft.to/lastmile_qr_scan"}, "lat": 38.92723733333333, "bike_id": "973de402acf039036660a0400b1c3c58", "is_disabled": 0, "lon": -77.03550016666667, "is_reserved": 0, "fusion_lat": 0.0, "type": "electric_scooter"}, {"fusion_lon": 0.0, "name": "9f641e1dcc7ca8f86e2ef9b14c8f003b", "rental_uris": {"android": "https://dc.lft.to/lastmile_qr_scan", "ios": "https://dc.lft.to/lastmile_qr_scan"}, "lat": 38.9449275, "bike_id": "9f641e1dcc7ca8f86e2ef9b14c8f003b", "is_disabled": 0, "lon": -77.0638555, "is_reserved": 0, "fusion_lat": 0.0, "type": "electric_scooter"}, {"fusion_lon": 0.0, "name": "17d4469677fc844a6dec41692e69dd9d", "rental_uris": {"android": "https://dc.lft.to/lastmile_qr_scan", "ios": "https://dc.lft.to/lastmile_qr_scan"}, "lat": 38.90573533333333, "bike_id": "17d4469677fc844a6dec41692e69dd9d", "is_disabled": 0, "lon": -77.02179366666667, "is_reserved": 0, "fusion_lat": 0.0, "type": "electric_scooter"}, {"fusion_lon": 0.0, "name": "96ecc2634fa5e640e6a99918af896163", "rental_uris": {"android": "https://dc.lft.to/lastmile_qr_scan", "ios": "https://dc.lft.to/lastmile_qr_scan"}, "lat": 38.92895566666667, "bike_id": "96ecc2634fa5e640e6a99918af896163", "is_disabled": 0, "lon": -77.034853, "is_reserved": 0, "fusion_lat": 0.0, "type": "electric_scooter"}, {"fusion_lon": 0.0, "name": "072543cb078d292d2d1759502c4a7ed3", "rental_uris": {"android": "https://dc.lft.to/lastmile_qr_scan", "ios": "https://dc.lft.to/lastmile_qr_scan"}, "lat": 38.90440983333333, "bike_id": "072543cb078d292d2d1759502c4a7ed3", "is_disabled": 0, "lon": -77.05319833333333, "is_reserved": 0, "fusion_lat": 0.0, "type": "electric_scooter"}, {"fusion_lon": 0.0, "name": "5e0574294944d834e224f91b518619b5", "rental_uris": {"android": "https://dc.lft.to/lastmile_qr_scan", "ios": "https://dc.lft.to/lastmile_qr_scan"}, "lat": 38.8990575, "bike_id": "5e0574294944d834e224f91b518619b5", "is_disabled": 0, "lon": -76.93390116666667, "is_reserved": 0, "fusion_lat": 0.0, "type": "electric_scooter"}, {"fusion_lon": 0.0, "name": "d38e5a858ddbefbb35656c2e091a2a0b", "rental_uris": {"android": "https://dc.lft.to/lastmile_qr_scan", "ios": "https://dc.lft.to/lastmile_qr_scan"}, "lat": 38.917920333333335, "bike_id": "d38e5a858ddbefbb35656c2e091a2a0b", "is_disabled": 0, "lon": -77.04034316666667, "is_reserved": 0, "fusion_lat": 0.0, "type": "electric_scooter"}, {"fusion_lon": 0.0, "name": "ce3bd2ee5e5a34b52a81e08a3960a97b", "rental_uris": {"android": "https://dc.lft.to/lastmile_qr_scan", "ios": "https://dc.lft.to/lastmile_qr_scan"}, "lat": 38.919920166666664, "bike_id": "ce3bd2ee5e5a34b52a81e08a3960a97b", "is_disabled": 0, "lon": -77.03271533333333, "is_reserved": 0, "fusion_lat": 0.0, "type": "electric_scooter"}, {"fusion_lon": 0.0, "name": "0e731a1e10385a0b8f9365856afe3cd8", "rental_uris": {"android": "https://dc.lft.to/lastmile_qr_scan", "ios": "https://dc.lft.to/lastmile_qr_scan"}, "lat": 38.933519, "bike_id": "0e731a1e10385a0b8f9365856afe3cd8", "is_disabled": 0, "lon": -77.08584316666666, "is_reserved": 0, "fusion_lat": 0.0, "type": "electric_scooter"}, {"fusion_lon": 0.0, "name": "905b8e2e09b03ce1b222e366a54e727b", "rental_uris": {"android": "https://dc.lft.to/lastmile_qr_scan", "ios": "https://dc.lft.to/lastmile_qr_scan"}, "lat": 38.987340833333334, "bike_id": "905b8e2e09b03ce1b222e366a54e727b", "is_disabled": 0, "lon": -77.00916933333333, "is_reserved": 0, "fusion_lat": 0.0, "type": "electric_bike"}, {"fusion_lon": 0.0, "name": "9deaa81804f67e225fbcfb21b5d6c169", "rental_uris": {"android": "https://dc.lft.to/lastmile_qr_scan", "ios": "https://dc.lft.to/lastmile_qr_scan"}, "lat": 38.90906433333333, "bike_id": "9deaa81804f67e225fbcfb21b5d6c169", "is_disabled": 0, "lon": -77.07264866666667, "is_reserved": 0, "fusion_lat": 0.0, "type": "electric_scooter"}, {"fusion_lon": 0.0, "name": "34c08073c9862855985419a686d82108", "rental_uris": {"android": "https://dc.lft.to/lastmile_qr_scan", "ios": "https://dc.lft.to/lastmile_qr_scan"}, "lat": 38.931033, "bike_id": "34c08073c9862855985419a686d82108", "is_disabled": 0, "lon": -77.0248085, "is_reserved": 0, "fusion_lat": 0.0, "type": "electric_scooter"}, {"fusion_lon": 0.0, "name": "da00ad3680ba2e5edf428ab3f3765f71", "rental_uris": {"android": "https://dc.lft.to/lastmile_qr_scan", "ios": "https://dc.lft.to/lastmile_qr_scan"}, "lat": 38.90129266666667, "bike_id": "da00ad3680ba2e5edf428ab3f3765f71", "is_disabled": 0, "lon": -77.045577, "is_reserved": 0, "fusion_lat": 0.0, "type": "electric_scooter"}, {"fusion_lon": 0.0, "name": "2131fde1e6ca45beb5847ace1d7fab3a", "rental_uris": {"android": "https://dc.lft.to/lastmile_qr_scan", "ios": "https://dc.lft.to/lastmile_qr_scan"}, "lat": 38.9100575, "bike_id": "2131fde1e6ca45beb5847ace1d7fab3a", "is_disabled": 0, "lon": -77.0319865, "is_reserved": 0, "fusion_lat": 0.0, "type": "electric_scooter"}, {"fusion_lon": 0.0, "name": "9df2ef20e2934d5bb3e528f0bb816734", "rental_uris": {"android": "https://dc.lft.to/lastmile_qr_scan", "ios": "https://dc.lft.to/lastmile_qr_scan"}, "lat": 38.90553716666667, "bike_id": "9df2ef20e2934d5bb3e528f0bb816734", "is_disabled": 0, "lon": -77.02598583333334, "is_reserved": 0, "fusion_lat": 0.0, "type": "electric_scooter"}, {"fusion_lon": 0.0, "name": "64f176ab38557cd5e185a96ff8b1f407", "rental_uris": {"android": "https://dc.lft.to/lastmile_qr_scan", "ios": "https://dc.lft.to/lastmile_qr_scan"}, "lat": 38.9359675, "bike_id": "64f176ab38557cd5e185a96ff8b1f407", "is_disabled": 0, "lon": -77.0212065, "is_reserved": 0, "fusion_lat": 0.0, "type": "electric_bike"}, {"fusion_lon": 0.0, "name": "f1fcf7bb8ae5c05fc75ea4349d127083", "rental_uris": {"android": "https://dc.lft.to/lastmile_qr_scan", "ios": "https://dc.lft.to/lastmile_qr_scan"}, "lat": 38.9150785, "bike_id": "f1fcf7bb8ae5c05fc75ea4349d127083", "is_disabled": 0, "lon": -77.03208816666667, "is_reserved": 0, "fusion_lat": 0.0, "type": "electric_scooter"}, {"fusion_lon": 0.0, "name": "8d1ec44e82ffa3d1571263550fc947df", "rental_uris": {"android": "https://dc.lft.to/lastmile_qr_scan", "ios": "https://dc.lft.to/lastmile_qr_scan"}, "lat": 38.911138333333334, "bike_id": "8d1ec44e82ffa3d1571263550fc947df", "is_disabled": 0, "lon": -77.038392, "is_reserved": 0, "fusion_lat": 0.0, "type": "electric_scooter"}, {"fusion_lon": 0.0, "name": "5ef02214a98e99bebc73f7e9e18af367", "rental_uris": {"android": "https://dc.lft.to/lastmile_qr_scan", "ios": "https://dc.lft.to/lastmile_qr_scan"}, "lat": 38.8923535, "bike_id": "5ef02214a98e99bebc73f7e9e18af367", "is_disabled": 0, "lon": -77.03378233333333, "is_reserved": 0, "fusion_lat": 0.0, "type": "electric_scooter"}, {"fusion_lon": 0.0, "name": "c482d5c9778eec861ec1bf5e80a1aeff", "rental_uris": {"android": "https://dc.lft.to/lastmile_qr_scan", "ios": "https://dc.lft.to/lastmile_qr_scan"}, "lat": 38.914033, "bike_id": "c482d5c9778eec861ec1bf5e80a1aeff", "is_disabled": 0, "lon": -77.02208333333333, "is_reserved": 0, "fusion_lat": 0.0, "type": "electric_scooter"}, {"fusion_lon": 0.0, "name": "4c0d8457216b8cab56f43dfc4239ace5", "rental_uris": {"android": "https://dc.lft.to/lastmile_qr_scan", "ios": "https://dc.lft.to/lastmile_qr_scan"}, "lat": 38.89695283333333, "bike_id": "4c0d8457216b8cab56f43dfc4239ace5", "is_disabled": 0, "lon": -77.0433105, "is_reserved": 0, "fusion_lat": 0.0, "type": "electric_scooter"}, {"fusion_lon": 0.0, "name": "41dd06a10376b43c07441c58629c2509", "rental_uris": {"android": "https://dc.lft.to/lastmile_qr_scan", "ios": "https://dc.lft.to/lastmile_qr_scan"}, "lat": 38.904947166666666, "bike_id": "41dd06a10376b43c07441c58629c2509", "is_disabled": 0, "lon": -77.02973883333334, "is_reserved": 0, "fusion_lat": 0.0, "type": "electric_scooter"}, {"fusion_lon": 0.0, "name": "25f3f1be83d64d73c93c873fe01718f3", "rental_uris": {"android": "https://dc.lft.to/lastmile_qr_scan", "ios": "https://dc.lft.to/lastmile_qr_scan"}, "lat": 38.882874666666666, "bike_id": "25f3f1be83d64d73c93c873fe01718f3", "is_disabled": 0, "lon": -76.93236616666667, "is_reserved": 0, "fusion_lat": 0.0, "type": "electric_bike"}, {"fusion_lon": 0.0, "name": "f807f63aab53f3c00cb751a031cb8537", "rental_uris": {"android": "https://dc.lft.to/lastmile_qr_scan", "ios": "https://dc.lft.to/lastmile_qr_scan"}, "lat": 38.9287175, "bike_id": "f807f63aab53f3c00cb751a031cb8537", "is_disabled": 0, "lon": -77.0337305, "is_reserved": 0, "fusion_lat": 0.0, "type": "electric_scooter"}, {"fusion_lon": 0.0, "name": "84f30c7814fb29efac2ecf7600e7fbd2", "rental_uris": {"android": "https://dc.lft.to/lastmile_qr_scan", "ios": "https://dc.lft.to/lastmile_qr_scan"}, "lat": 38.89729116666667, "bike_id": "84f30c7814fb29efac2ecf7600e7fbd2", "is_disabled": 0, "lon": -77.0319045, "is_reserved": 0, "fusion_lat": 0.0, "type": "electric_scooter"}, {"fusion_lon": 0.0, "name": "4e88a05d172b5c125cfbae8a2aa5c6fd", "rental_uris": {"android": "https://dc.lft.to/lastmile_qr_scan", "ios": "https://dc.lft.to/lastmile_qr_scan"}, "lat": 38.900778833333334, "bike_id": "4e88a05d172b5c125cfbae8a2aa5c6fd", "is_disabled": 0, "lon": -76.9883525, "is_reserved": 0, "fusion_lat": 0.0, "type": "electric_scooter"}, {"fusion_lon": 0.0, "name": "e71cd11b8a2c11a089eb8944e6e610b3", "rental_uris": {"android": "https://dc.lft.to/lastmile_qr_scan", "ios": "https://dc.lft.to/lastmile_qr_scan"}, "lat": 38.8941005, "bike_id": "e71cd11b8a2c11a089eb8944e6e610b3", "is_disabled": 0, "lon": -76.97892466666667, "is_reserved": 0, "fusion_lat": 0.0, "type": "electric_bike"}, {"fusion_lon": 0.0, "name": "819ee3ba85232490528b7fb44bb5a0c8", "rental_uris": {"android": "https://dc.lft.to/lastmile_qr_scan", "ios": "https://dc.lft.to/lastmile_qr_scan"}, "lat": 38.87606433333333, "bike_id": "819ee3ba85232490528b7fb44bb5a0c8", "is_disabled": 0, "lon": -77.01578433333333, "is_reserved": 0, "fusion_lat": 0.0, "type": "electric_scooter"}, {"fusion_lon": 0.0, "name": "cfe77b909a81ef0f2b26e91fc6c54a20", "rental_uris": {"android": "https://dc.lft.to/lastmile_qr_scan", "ios": "https://dc.lft.to/lastmile_qr_scan"}, "lat": 38.924202666666666, "bike_id": "cfe77b909a81ef0f2b26e91fc6c54a20", "is_disabled": 0, "lon": -77.02131883333334, "is_reserved": 0, "fusion_lat": 0.0, "type": "electric_scooter"}, {"fusion_lon": 0.0, "name": "dec98602fba3e9e52be73cd540e6ed4d", "rental_uris": {"android": "https://dc.lft.to/lastmile_qr_scan", "ios": "https://dc.lft.to/lastmile_qr_scan"}, "lat": 38.915815, "bike_id": "dec98602fba3e9e52be73cd540e6ed4d", "is_disabled": 0, "lon": -77.03756433333334, "is_reserved": 0, "fusion_lat": 0.0, "type": "electric_scooter"}, {"fusion_lon": 0.0, "name": "3bcdbbac29b867ab3c5018d1a9be1317", "rental_uris": {"android": "https://dc.lft.to/lastmile_qr_scan", "ios": "https://dc.lft.to/lastmile_qr_scan"}, "lat": 38.865288166666666, "bike_id": "3bcdbbac29b867ab3c5018d1a9be1317", "is_disabled": 0, "lon": -76.969101, "is_reserved": 0, "fusion_lat": 0.0, "type": "electric_scooter"}, {"fusion_lon": 0.0, "name": "6dba9b2521cbad422d4395f784456816", "rental_uris": {"android": "https://dc.lft.to/lastmile_qr_scan", "ios": "https://dc.lft.to/lastmile_qr_scan"}, "lat": 38.922391, "bike_id": "6dba9b2521cbad422d4395f784456816", "is_disabled": 0, "lon": -77.0317725, "is_reserved": 0, "fusion_lat": 0.0, "type": "electric_scooter"}, {"fusion_lon": 0.0, "name": "b7f09cadd6376f381fb79c9e8ab5c908", "rental_uris": {"android": "https://dc.lft.to/lastmile_qr_scan", "ios": "https://dc.lft.to/lastmile_qr_scan"}, "lat": 38.88440216666667, "bike_id": "b7f09cadd6376f381fb79c9e8ab5c908", "is_disabled": 0, "lon": -76.9575925, "is_reserved": 0, "fusion_lat": 0.0, "type": "electric_scooter"}, {"fusion_lon": 0.0, "name": "2bbdf20e6f6846cffbd847ddb4c34957", "rental_uris": {"android": "https://dc.lft.to/lastmile_qr_scan", "ios": "https://dc.lft.to/lastmile_qr_scan"}, "lat": 38.922395333333334, "bike_id": "2bbdf20e6f6846cffbd847ddb4c34957", "is_disabled": 0, "lon": -77.04256733333334, "is_reserved": 0, "fusion_lat": 0.0, "type": "electric_scooter"}, {"fusion_lon": 0.0, "name": "4fa849d6fdf9ad3e4e3d01faccf3f920", "rental_uris": {"android": "https://dc.lft.to/lastmile_qr_scan", "ios": "https://dc.lft.to/lastmile_qr_scan"}, "lat": 38.910027, "bike_id": "4fa849d6fdf9ad3e4e3d01faccf3f920", "is_disabled": 0, "lon": -77.031978, "is_reserved": 0, "fusion_lat": 0.0, "type": "electric_scooter"}, {"fusion_lon": 0.0, "name": "14b6ff3b36705860f39a1f3003fbc9b4", "rental_uris": {"android": "https://dc.lft.to/lastmile_qr_scan", "ios": "https://dc.lft.to/lastmile_qr_scan"}, "lat": 38.90729, "bike_id": "14b6ff3b36705860f39a1f3003fbc9b4", "is_disabled": 0, "lon": -77.05013583333333, "is_reserved": 0, "fusion_lat": 0.0, "type": "electric_scooter"}, {"fusion_lon": 0.0, "name": "ca65fb3e2320ceaeb5cc0a57df7ad024", "rental_uris": {"android": "https://dc.lft.to/lastmile_qr_scan", "ios": "https://dc.lft.to/lastmile_qr_scan"}, "lat": 38.9518455, "bike_id": "ca65fb3e2320ceaeb5cc0a57df7ad024", "is_disabled": 0, "lon": -77.01266016666666, "is_reserved": 0, "fusion_lat": 0.0, "type": "electric_scooter"}, {"fusion_lon": 0.0, "name": "f5c2f0d3402b6255404f40807324a1d8", "rental_uris": {"android": "https://dc.lft.to/lastmile_qr_scan", "ios": "https://dc.lft.to/lastmile_qr_scan"}, "lat": 38.90310616666667, "bike_id": "f5c2f0d3402b6255404f40807324a1d8", "is_disabled": 0, "lon": -76.97503116666667, "is_reserved": 0, "fusion_lat": 0.0, "type": "electric_scooter"}, {"fusion_lon": 0.0, "name": "5b6de5a6ddd75c6c49caadf1c49a4399", "rental_uris": {"android": "https://dc.lft.to/lastmile_qr_scan", "ios": "https://dc.lft.to/lastmile_qr_scan"}, "lat": 38.9136365, "bike_id": "5b6de5a6ddd75c6c49caadf1c49a4399", "is_disabled": 0, "lon": -77.09190733333334, "is_reserved": 0, "fusion_lat": 0.0, "type": "electric_scooter"}, {"fusion_lon": 0.0, "name": "a7383f0575e9c1d64c05b019da387048", "rental_uris": {"android": "https://dc.lft.to/lastmile_qr_scan", "ios": "https://dc.lft.to/lastmile_qr_scan"}, "lat": 38.93287183333333, "bike_id": "a7383f0575e9c1d64c05b019da387048", "is_disabled": 0, "lon": -77.03538533333334, "is_reserved": 0, "fusion_lat": 0.0, "type": "electric_scooter"}, {"fusion_lon": 0.0, "name": "e6d4db4e150fe0c783621123dd3152aa", "rental_uris": {"android": "https://dc.lft.to/lastmile_qr_scan", "ios": "https://dc.lft.to/lastmile_qr_scan"}, "lat": 38.961250666666665, "bike_id": "e6d4db4e150fe0c783621123dd3152aa", "is_disabled": 0, "lon": -77.02799133333333, "is_reserved": 0, "fusion_lat": 0.0, "type": "electric_scooter"}, {"fusion_lon": 0.0, "name": "0e84e687e2c58dbf703a8fb1c25c128f", "rental_uris": {"android": "https://dc.lft.to/lastmile_qr_scan", "ios": "https://dc.lft.to/lastmile_qr_scan"}, "lat": 38.95685566666667, "bike_id": "0e84e687e2c58dbf703a8fb1c25c128f", "is_disabled": 0, "lon": -77.02229416666667, "is_reserved": 0, "fusion_lat": 0.0, "type": "electric_bike"}, {"fusion_lon": 0.0, "name": "796fa1174769ad07fde6b2920ae54c42", "rental_uris": {"android": "https://dc.lft.to/lastmile_qr_scan", "ios": "https://dc.lft.to/lastmile_qr_scan"}, "lat": 38.91630833333333, "bike_id": "796fa1174769ad07fde6b2920ae54c42", "is_disabled": 0, "lon": -77.04634933333334, "is_reserved": 0, "fusion_lat": 0.0, "type": "electric_scooter"}, {"fusion_lon": 0.0, "name": "c34e409abe52b57a48ad88bf6ead921a", "rental_uris": {"android": "https://dc.lft.to/lastmile_qr_scan", "ios": "https://dc.lft.to/lastmile_qr_scan"}, "lat": 38.89197866666667, "bike_id": "c34e409abe52b57a48ad88bf6ead921a", "is_disabled": 0, "lon": -76.998564, "is_reserved": 0, "fusion_lat": 0.0, "type": "electric_scooter"}, {"fusion_lon": 0.0, "name": "96182bfc8c625068029e4ec093fa8e44", "rental_uris": {"android": "https://dc.lft.to/lastmile_qr_scan", "ios": "https://dc.lft.to/lastmile_qr_scan"}, "lat": 38.9230495, "bike_id": "96182bfc8c625068029e4ec093fa8e44", "is_disabled": 0, "lon": -77.02348766666667, "is_reserved": 0, "fusion_lat": 0.0, "type": "electric_bike"}, {"fusion_lon": 0.0, "name": "012012b5ea5acaa325d7dd6d8d305ade", "rental_uris": {"android": "https://dc.lft.to/lastmile_qr_scan", "ios": "https://dc.lft.to/lastmile_qr_scan"}, "lat": 38.920656, "bike_id": "012012b5ea5acaa325d7dd6d8d305ade", "is_disabled": 0, "lon": -77.0320525, "is_reserved": 0, "fusion_lat": 0.0, "type": "electric_scooter"}, {"fusion_lon": 0.0, "name": "ccd7f77c970f4f5d9d49f3f4b1d392fe", "rental_uris": {"android": "https://dc.lft.to/lastmile_qr_scan", "ios": "https://dc.lft.to/lastmile_qr_scan"}, "lat": 38.879355833333335, "bike_id": "ccd7f77c970f4f5d9d49f3f4b1d392fe", "is_disabled": 0, "lon": -77.01717283333333, "is_reserved": 0, "fusion_lat": 0.0, "type": "electric_scooter"}, {"fusion_lon": 0.0, "name": "ca96c3526d3a8d3e42749ffec3e5d75b", "rental_uris": {"android": "https://dc.lft.to/lastmile_qr_scan", "ios": "https://dc.lft.to/lastmile_qr_scan"}, "lat": 38.905626, "bike_id": "ca96c3526d3a8d3e42749ffec3e5d75b", "is_disabled": 0, "lon": -77.02806366666667, "is_reserved": 0, "fusion_lat": 0.0, "type": "electric_scooter"}, {"fusion_lon": 0.0, "name": "ab2b3bb3d0cc275f19dcebdaacb3dedc", "rental_uris": {"android": "https://dc.lft.to/lastmile_qr_scan", "ios": "https://dc.lft.to/lastmile_qr_scan"}, "lat": 38.89493483333333, "bike_id": "ab2b3bb3d0cc275f19dcebdaacb3dedc", "is_disabled": 0, "lon": -76.94894966666666, "is_reserved": 0, "fusion_lat": 0.0, "type": "electric_scooter"}, {"fusion_lon": 0.0, "name": "96359b4b703007f6922ab495894afaa0", "rental_uris": {"android": "https://dc.lft.to/lastmile_qr_scan", "ios": "https://dc.lft.to/lastmile_qr_scan"}, "lat": 38.89854016666666, "bike_id": "96359b4b703007f6922ab495894afaa0", "is_disabled": 0, "lon": -77.05401333333333, "is_reserved": 0, "fusion_lat": 0.0, "type": "electric_scooter"}, {"fusion_lon": 0.0, "name": "ac19ef6151738ec29fb0600886bc22ef", "rental_uris": {"android": "https://dc.lft.to/lastmile_qr_scan", "ios": "https://dc.lft.to/lastmile_qr_scan"}, "lat": 38.95087316666667, "bike_id": "ac19ef6151738ec29fb0600886bc22ef", "is_disabled": 0, "lon": -76.99796916666666, "is_reserved": 0, "fusion_lat": 0.0, "type": "electric_bike"}, {"fusion_lon": 0.0, "name": "2249649b75f985852639f0300fd61751", "rental_uris": {"android": "https://dc.lft.to/lastmile_qr_scan", "ios": "https://dc.lft.to/lastmile_qr_scan"}, "lat": 38.905088166666665, "bike_id": "2249649b75f985852639f0300fd61751", "is_disabled": 0, "lon": -76.98483283333333, "is_reserved": 0, "fusion_lat": 0.0, "type": "electric_scooter"}, {"fusion_lon": 0.0, "name": "651d56bc61417bdaa9b58042e1e912d8", "rental_uris": {"android": "https://dc.lft.to/lastmile_qr_scan", "ios": "https://dc.lft.to/lastmile_qr_scan"}, "lat": 38.93464133333333, "bike_id": "651d56bc61417bdaa9b58042e1e912d8", "is_disabled": 0, "lon": -77.05808683333333, "is_reserved": 0, "fusion_lat": 0.0, "type": "electric_scooter"}, {"fusion_lon": 0.0, "name": "5f703c29c6a695f7fdb5907b5a30b835", "rental_uris": {"android": "https://dc.lft.to/lastmile_qr_scan", "ios": "https://dc.lft.to/lastmile_qr_scan"}, "lat": 38.876797833333335, "bike_id": "5f703c29c6a695f7fdb5907b5a30b835", "is_disabled": 0, "lon": -77.0005925, "is_reserved": 0, "fusion_lat": 0.0, "type": "electric_scooter"}, {"fusion_lon": 0.0, "name": "2193c8986de064608fc7779173e8c4a9", "rental_uris": {"android": "https://dc.lft.to/lastmile_qr_scan", "ios": "https://dc.lft.to/lastmile_qr_scan"}, "lat": 38.920742833333335, "bike_id": "2193c8986de064608fc7779173e8c4a9", "is_disabled": 0, "lon": -77.0240865, "is_reserved": 0, "fusion_lat": 0.0, "type": "electric_scooter"}, {"fusion_lon": 0.0, "name": "2ca5873ce4e2ef3673748448b797d078", "rental_uris": {"android": "https://dc.lft.to/lastmile_qr_scan", "ios": "https://dc.lft.to/lastmile_qr_scan"}, "lat": 38.93403683333333, "bike_id": "2ca5873ce4e2ef3673748448b797d078", "is_disabled": 0, "lon": -77.03833516666667, "is_reserved": 0, "fusion_lat": 0.0, "type": "electric_scooter"}, {"fusion_lon": 0.0, "name": "74a547512d5d2199d5bc2a1988c8f7ed", "rental_uris": {"android": "https://dc.lft.to/lastmile_qr_scan", "ios": "https://dc.lft.to/lastmile_qr_scan"}, "lat": 38.92417016666667, "bike_id": "74a547512d5d2199d5bc2a1988c8f7ed", "is_disabled": 0, "lon": -77.0209145, "is_reserved": 0, "fusion_lat": 0.0, "type": "electric_scooter"}, {"fusion_lon": 0.0, "name": "50b870734a02f53de16995d4b2790c60", "rental_uris": {"android": "https://dc.lft.to/lastmile_qr_scan", "ios": "https://dc.lft.to/lastmile_qr_scan"}, "lat": 38.903398333333335, "bike_id": "50b870734a02f53de16995d4b2790c60", "is_disabled": 0, "lon": -77.03228783333333, "is_reserved": 0, "fusion_lat": 0.0, "type": "electric_scooter"}, {"fusion_lon": 0.0, "name": "020831f2de4e4bf3792c7414ab9561b9", "rental_uris": {"android": "https://dc.lft.to/lastmile_qr_scan", "ios": "https://dc.lft.to/lastmile_qr_scan"}, "lat": 38.951114, "bike_id": "020831f2de4e4bf3792c7414ab9561b9", "is_disabled": 0, "lon": -77.0887175, "is_reserved": 0, "fusion_lat": 0.0, "type": "electric_bike"}, {"fusion_lon": 0.0, "name": "dec0af43f3aec01437d3c3d7e5f45b87", "rental_uris": {"android": "https://dc.lft.to/lastmile_qr_scan", "ios": "https://dc.lft.to/lastmile_qr_scan"}, "lat": 38.949829, "bike_id": "dec0af43f3aec01437d3c3d7e5f45b87", "is_disabled": 0, "lon": -77.0202085, "is_reserved": 0, "fusion_lat": 0.0, "type": "electric_scooter"}, {"fusion_lon": 0.0, "name": "dc457b606bfa95f9c85dce0d57fb6cf4", "rental_uris": {"android": "https://dc.lft.to/lastmile_qr_scan", "ios": "https://dc.lft.to/lastmile_qr_scan"}, "lat": 38.9147135, "bike_id": "dc457b606bfa95f9c85dce0d57fb6cf4", "is_disabled": 0, "lon": -77.03829283333333, "is_reserved": 0, "fusion_lat": 0.0, "type": "electric_scooter"}, {"fusion_lon": 0.0, "name": "ccb20c566becdaecc4d5bd62ec94ef63", "rental_uris": {"android": "https://dc.lft.to/lastmile_qr_scan", "ios": "https://dc.lft.to/lastmile_qr_scan"}, "lat": 38.876939166666666, "bike_id": "ccb20c566becdaecc4d5bd62ec94ef63", "is_disabled": 0, "lon": -77.007308, "is_reserved": 0, "fusion_lat": 0.0, "type": "electric_scooter"}, {"fusion_lon": 0.0, "name": "9a05c12557ce7d82c4fdbe11dfa946ab", "rental_uris": {"android": "https://dc.lft.to/lastmile_qr_scan", "ios": "https://dc.lft.to/lastmile_qr_scan"}, "lat": 38.88520283333333, "bike_id": "9a05c12557ce7d82c4fdbe11dfa946ab", "is_disabled": 0, "lon": -76.97710816666667, "is_reserved": 0, "fusion_lat": 0.0, "type": "electric_scooter"}, {"fusion_lon": 0.0, "name": "5d222c11bce5469c94023a6728b2a4e6", "rental_uris": {"android": "https://dc.lft.to/lastmile_qr_scan", "ios": "https://dc.lft.to/lastmile_qr_scan"}, "lat": 38.91567216666667, "bike_id": "5d222c11bce5469c94023a6728b2a4e6", "is_disabled": 0, "lon": -77.03031783333333, "is_reserved": 0, "fusion_lat": 0.0, "type": "electric_scooter"}, {"fusion_lon": 0.0, "name": "235618c1eb73759308a7b74539679e19", "rental_uris": {"android": "https://dc.lft.to/lastmile_qr_scan", "ios": "https://dc.lft.to/lastmile_qr_scan"}, "lat": 38.86225266666667, "bike_id": "235618c1eb73759308a7b74539679e19", "is_disabled": 0, "lon": -76.979209, "is_reserved": 0, "fusion_lat": 0.0, "type": "electric_scooter"}, {"fusion_lon": 0.0, "name": "77c528e573c72671bdc0e4f3a82f92f1", "rental_uris": {"android": "https://dc.lft.to/lastmile_qr_scan", "ios": "https://dc.lft.to/lastmile_qr_scan"}, "lat": 38.91403616666667, "bike_id": "77c528e573c72671bdc0e4f3a82f92f1", "is_disabled": 0, "lon": -77.02210966666667, "is_reserved": 0, "fusion_lat": 0.0, "type": "electric_scooter"}, {"fusion_lon": 0.0, "name": "f0a4aa40064c7a37da9d273c48880931", "rental_uris": {"android": "https://dc.lft.to/lastmile_qr_scan", "ios": "https://dc.lft.to/lastmile_qr_scan"}, "lat": 38.91198283333333, "bike_id": "f0a4aa40064c7a37da9d273c48880931", "is_disabled": 0, "lon": -77.03208483333333, "is_reserved": 0, "fusion_lat": 0.0, "type": "electric_scooter"}, {"fusion_lon": 0.0, "name": "759052b11a0cd4074124833b1fa6e265", "rental_uris": {"android": "https://dc.lft.to/lastmile_qr_scan", "ios": "https://dc.lft.to/lastmile_qr_scan"}, "lat": 38.96031633333333, "bike_id": "759052b11a0cd4074124833b1fa6e265", "is_disabled": 0, "lon": -77.02427783333333, "is_reserved": 0, "fusion_lat": 0.0, "type": "electric_scooter"}, {"fusion_lon": 0.0, "name": "7b4e161f00ba452d2ebb1cc06e591862", "rental_uris": {"android": "https://dc.lft.to/lastmile_qr_scan", "ios": "https://dc.lft.to/lastmile_qr_scan"}, "lat": 38.9261155, "bike_id": "7b4e161f00ba452d2ebb1cc06e591862", "is_disabled": 0, "lon": -77.05707516666666, "is_reserved": 0, "fusion_lat": 0.0, "type": "electric_scooter"}, {"fusion_lon": 0.0, "name": "1041a9cb45fa6e0a955a05352646a48c", "rental_uris": {"android": "https://dc.lft.to/lastmile_qr_scan", "ios": "https://dc.lft.to/lastmile_qr_scan"}, "lat": 38.90324966666667, "bike_id": "1041a9cb45fa6e0a955a05352646a48c", "is_disabled": 0, "lon": -77.02486033333334, "is_reserved": 0, "fusion_lat": 0.0, "type": "electric_scooter"}, {"fusion_lon": 0.0, "name": "69a44bca959026b9f5b1076e85a3e6b1", "rental_uris": {"android": "https://dc.lft.to/lastmile_qr_scan", "ios": "https://dc.lft.to/lastmile_qr_scan"}, "lat": 38.892219833333336, "bike_id": "69a44bca959026b9f5b1076e85a3e6b1", "is_disabled": 0, "lon": -77.0216095, "is_reserved": 0, "fusion_lat": 0.0, "type": "electric_scooter"}, {"fusion_lon": 0.0, "name": "40ef69d6a78d5d2d3b63a354e19157a4", "rental_uris": {"android": "https://dc.lft.to/lastmile_qr_scan", "ios": "https://dc.lft.to/lastmile_qr_scan"}, "lat": 38.938758, "bike_id": "40ef69d6a78d5d2d3b63a354e19157a4", "is_disabled": 0, "lon": -77.02481383333334, "is_reserved": 0, "fusion_lat": 0.0, "type": "electric_scooter"}, {"fusion_lon": 0.0, "name": "f8a6cb9aee016e7915ec71b71f3ccc6d", "rental_uris": {"android": "https://dc.lft.to/lastmile_qr_scan", "ios": "https://dc.lft.to/lastmile_qr_scan"}, "lat": 38.919175833333334, "bike_id": "f8a6cb9aee016e7915ec71b71f3ccc6d", "is_disabled": 0, "lon": -77.024311, "is_reserved": 0, "fusion_lat": 0.0, "type": "electric_scooter"}, {"fusion_lon": 0.0, "name": "6b8c540167f6dddedb4d153c0fb191b7", "rental_uris": {"android": "https://dc.lft.to/lastmile_qr_scan", "ios": "https://dc.lft.to/lastmile_qr_scan"}, "lat": 38.92475066666667, "bike_id": "6b8c540167f6dddedb4d153c0fb191b7", "is_disabled": 0, "lon": -77.0218325, "is_reserved": 0, "fusion_lat": 0.0, "type": "electric_scooter"}, {"fusion_lon": 0.0, "name": "c2a86e602ae712cbb4498c407a8a4163", "rental_uris": {"android": "https://dc.lft.to/lastmile_qr_scan", "ios": "https://dc.lft.to/lastmile_qr_scan"}, "lat": 38.90588116666667, "bike_id": "c2a86e602ae712cbb4498c407a8a4163", "is_disabled": 0, "lon": -77.0350035, "is_reserved": 0, "fusion_lat": 0.0, "type": "electric_scooter"}, {"fusion_lon": 0.0, "name": "37c34bb3ac03b072eb5e26c894d8688e", "rental_uris": {"android": "https://dc.lft.to/lastmile_qr_scan", "ios": "https://dc.lft.to/lastmile_qr_scan"}, "lat": 38.93100866666666, "bike_id": "37c34bb3ac03b072eb5e26c894d8688e", "is_disabled": 0, "lon": -77.024814, "is_reserved": 0, "fusion_lat": 0.0, "type": "electric_scooter"}, {"fusion_lon": 0.0, "name": "24f5ee00c5cd908488f60d9e04c487ec", "rental_uris": {"android": "https://dc.lft.to/lastmile_qr_scan", "ios": "https://dc.lft.to/lastmile_qr_scan"}, "lat": 38.90566, "bike_id": "24f5ee00c5cd908488f60d9e04c487ec", "is_disabled": 0, "lon": -77.03459883333333, "is_reserved": 0, "fusion_lat": 0.0, "type": "electric_scooter"}, {"fusion_lon": 0.0, "name": "25c65e99540aadaebf562809bb8e0110", "rental_uris": {"android": "https://dc.lft.to/lastmile_qr_scan", "ios": "https://dc.lft.to/lastmile_qr_scan"}, "lat": 38.939696833333336, "bike_id": "25c65e99540aadaebf562809bb8e0110", "is_disabled": 0, "lon": -77.03033383333333, "is_reserved": 0, "fusion_lat": 0.0, "type": "electric_scooter"}, {"fusion_lon": 0.0, "name": "5f9aff5d1573a2b660fe67b5b2a72e79", "rental_uris": {"android": "https://dc.lft.to/lastmile_qr_scan", "ios": "https://dc.lft.to/lastmile_qr_scan"}, "lat": 38.938855833333335, "bike_id": "5f9aff5d1573a2b660fe67b5b2a72e79", "is_disabled": 0, "lon": -77.0322335, "is_reserved": 0, "fusion_lat": 0.0, "type": "electric_scooter"}, {"fusion_lon": 0.0, "name": "812f4ded439f3bf18667b924f689da9e", "rental_uris": {"android": "https://dc.lft.to/lastmile_qr_scan", "ios": "https://dc.lft.to/lastmile_qr_scan"}, "lat": 38.9236115, "bike_id": "812f4ded439f3bf18667b924f689da9e", "is_disabled": 0, "lon": -77.04387216666667, "is_reserved": 0, "fusion_lat": 0.0, "type": "electric_scooter"}, {"fusion_lon": 0.0, "name": "9d7c257f3ffefb0e25c3f0e0d81cfbb9", "rental_uris": {"android": "https://dc.lft.to/lastmile_qr_scan", "ios": "https://dc.lft.to/lastmile_qr_scan"}, "lat": 38.92853183333333, "bike_id": "9d7c257f3ffefb0e25c3f0e0d81cfbb9", "is_disabled": 0, "lon": -77.02180666666666, "is_reserved": 0, "fusion_lat": 0.0, "type": "electric_scooter"}, {"fusion_lon": 0.0, "name": "665515d239d22580312bd19eb329c893", "rental_uris": {"android": "https://dc.lft.to/lastmile_qr_scan", "ios": "https://dc.lft.to/lastmile_qr_scan"}, "lat": 38.900286666666666, "bike_id": "665515d239d22580312bd19eb329c893", "is_disabled": 0, "lon": -77.002139, "is_reserved": 0, "fusion_lat": 0.0, "type": "electric_scooter"}, {"fusion_lon": 0.0, "name": "7157f1b04631deeb66d8da6aa344c055", "rental_uris": {"android": "https://dc.lft.to/lastmile_qr_scan", "ios": "https://dc.lft.to/lastmile_qr_scan"}, "lat": 38.9198155, "bike_id": "7157f1b04631deeb66d8da6aa344c055", "is_disabled": 0, "lon": -77.07656816666666, "is_reserved": 0, "fusion_lat": 0.0, "type": "electric_scooter"}, {"fusion_lon": 0.0, "name": "153a39581edadb72ac2e2191187699ba", "rental_uris": {"android": "https://dc.lft.to/lastmile_qr_scan", "ios": "https://dc.lft.to/lastmile_qr_scan"}, "lat": 38.903671, "bike_id": "153a39581edadb72ac2e2191187699ba", "is_disabled": 0, "lon": -76.98488316666666, "is_reserved": 0, "fusion_lat": 0.0, "type": "electric_scooter"}, {"fusion_lon": 0.0, "name": "567e780e5785e5901fb921fe53013c99", "rental_uris": {"android": "https://dc.lft.to/lastmile_qr_scan", "ios": "https://dc.lft.to/lastmile_qr_scan"}, "lat": 38.936393, "bike_id": "567e780e5785e5901fb921fe53013c99", "is_disabled": 0, "lon": -77.06009833333333, "is_reserved": 0, "fusion_lat": 0.0, "type": "electric_scooter"}, {"fusion_lon": 0.0, "name": "44990f50a6638e60bc34b1d0d09160c6", "rental_uris": {"android": "https://dc.lft.to/lastmile_qr_scan", "ios": "https://dc.lft.to/lastmile_qr_scan"}, "lat": 39.0943545, "bike_id": "44990f50a6638e60bc34b1d0d09160c6", "is_disabled": 0, "lon": -77.13460166666667, "is_reserved": 0, "fusion_lat": 0.0, "type": "electric_bike"}, {"fusion_lon": 0.0, "name": "77deed869d2cce91bb451ccbd5e0856f", "rental_uris": {"android": "https://dc.lft.to/lastmile_qr_scan", "ios": "https://dc.lft.to/lastmile_qr_scan"}, "lat": 38.895070833333335, "bike_id": "77deed869d2cce91bb451ccbd5e0856f", "is_disabled": 0, "lon": -77.021722, "is_reserved": 0, "fusion_lat": 0.0, "type": "electric_scooter"}, {"fusion_lon": 0.0, "name": "07b7ba54b27f39e0055cc509a371a427", "rental_uris": {"android": "https://dc.lft.to/lastmile_qr_scan", "ios": "https://dc.lft.to/lastmile_qr_scan"}, "lat": 38.92375033333333, "bike_id": "07b7ba54b27f39e0055cc509a371a427", "is_disabled": 0, "lon": -77.02126266666667, "is_reserved": 0, "fusion_lat": 0.0, "type": "electric_scooter"}, {"fusion_lon": 0.0, "name": "5b5622afe3754b394b7b17a8f40a5f79", "rental_uris": {"android": "https://dc.lft.to/lastmile_qr_scan", "ios": "https://dc.lft.to/lastmile_qr_scan"}, "lat": 38.8990055, "bike_id": "5b5622afe3754b394b7b17a8f40a5f79", "is_disabled": 0, "lon": -77.03290916666667, "is_reserved": 0, "fusion_lat": 0.0, "type": "electric_scooter"}, {"fusion_lon": 0.0, "name": "ba382078cfb2cc07e835144909e5e989", "rental_uris": {"android": "https://dc.lft.to/lastmile_qr_scan", "ios": "https://dc.lft.to/lastmile_qr_scan"}, "lat": 38.91267966666667, "bike_id": "ba382078cfb2cc07e835144909e5e989", "is_disabled": 0, "lon": -77.022075, "is_reserved": 0, "fusion_lat": 0.0, "type": "electric_scooter"}, {"fusion_lon": 0.0, "name": "1657beddd6d7a646294848d46df15339", "rental_uris": {"android": "https://dc.lft.to/lastmile_qr_scan", "ios": "https://dc.lft.to/lastmile_qr_scan"}, "lat": 38.90075516666667, "bike_id": "1657beddd6d7a646294848d46df15339", "is_disabled": 0, "lon": -77.013018, "is_reserved": 0, "fusion_lat": 0.0, "type": "electric_scooter"}, {"fusion_lon": 0.0, "name": "5c7cd3beb6ebbc514329edd7ec6891ad", "rental_uris": {"android": "https://dc.lft.to/lastmile_qr_scan", "ios": "https://dc.lft.to/lastmile_qr_scan"}, "lat": 38.899787333333336, "bike_id": "5c7cd3beb6ebbc514329edd7ec6891ad", "is_disabled": 0, "lon": -77.0215335, "is_reserved": 0, "fusion_lat": 0.0, "type": "electric_scooter"}, {"fusion_lon": 0.0, "name": "0f3adeaa6a12558715bf6757e370f1ac", "rental_uris": {"android": "https://dc.lft.to/lastmile_qr_scan", "ios": "https://dc.lft.to/lastmile_qr_scan"}, "lat": 38.90125966666667, "bike_id": "0f3adeaa6a12558715bf6757e370f1ac", "is_disabled": 0, "lon": -77.049912, "is_reserved": 0, "fusion_lat": 0.0, "type": "electric_scooter"}, {"fusion_lon": 0.0, "name": "e3d0d0a33844d04f944fc3b45be49a55", "rental_uris": {"android": "https://dc.lft.to/lastmile_qr_scan", "ios": "https://dc.lft.to/lastmile_qr_scan"}, "lat": 38.919089, "bike_id": "e3d0d0a33844d04f944fc3b45be49a55", "is_disabled": 0, "lon": -77.0136485, "is_reserved": 0, "fusion_lat": 0.0, "type": "electric_scooter"}, {"fusion_lon": 0.0, "name": "7c0045abfd988e9211eb6a4711982925", "rental_uris": {"android": "https://dc.lft.to/lastmile_qr_scan", "ios": "https://dc.lft.to/lastmile_qr_scan"}, "lat": 38.89713066666667, "bike_id": "7c0045abfd988e9211eb6a4711982925", "is_disabled": 0, "lon": -76.99120833333333, "is_reserved": 0, "fusion_lat": 0.0, "type": "electric_scooter"}, {"fusion_lon": 0.0, "name": "51a87cc763159d24c731fabb04edbee8", "rental_uris": {"android": "https://dc.lft.to/lastmile_qr_scan", "ios": "https://dc.lft.to/lastmile_qr_scan"}, "lat": 38.9426055, "bike_id": "51a87cc763159d24c731fabb04edbee8", "is_disabled": 0, "lon": -77.02844083333333, "is_reserved": 0, "fusion_lat": 0.0, "type": "electric_scooter"}, {"fusion_lon": 0.0, "name": "69117c042a4a0ac7f1d5f3d3f1a87bd7", "rental_uris": {"android": "https://dc.lft.to/lastmile_qr_scan", "ios": "https://dc.lft.to/lastmile_qr_scan"}, "lat": 38.91694833333333, "bike_id": "69117c042a4a0ac7f1d5f3d3f1a87bd7", "is_disabled": 0, "lon": -77.0383425, "is_reserved": 0, "fusion_lat": 0.0, "type": "electric_scooter"}, {"fusion_lon": 0.0, "name": "b142a10e55b4f82f94687510801d80e3", "rental_uris": {"android": "https://dc.lft.to/lastmile_qr_scan", "ios": "https://dc.lft.to/lastmile_qr_scan"}, "lat": 38.88392916666667, "bike_id": "b142a10e55b4f82f94687510801d80e3", "is_disabled": 0, "lon": -76.98559066666667, "is_reserved": 0, "fusion_lat": 0.0, "type": "electric_scooter"}, {"fusion_lon": 0.0, "name": "224f08af07026a2d234389a4b902b6e2", "rental_uris": {"android": "https://dc.lft.to/lastmile_qr_scan", "ios": "https://dc.lft.to/lastmile_qr_scan"}, "lat": 38.905843833333336, "bike_id": "224f08af07026a2d234389a4b902b6e2", "is_disabled": 0, "lon": -77.04695533333333, "is_reserved": 0, "fusion_lat": 0.0, "type": "electric_scooter"}, {"fusion_lon": 0.0, "name": "466611c5391ebd7d4a0d90843c41a2f3", "rental_uris": {"android": "https://dc.lft.to/lastmile_qr_scan", "ios": "https://dc.lft.to/lastmile_qr_scan"}, "lat": 38.8958375, "bike_id": "466611c5391ebd7d4a0d90843c41a2f3", "is_disabled": 0, "lon": -77.04145716666666, "is_reserved": 0, "fusion_lat": 0.0, "type": "electric_scooter"}, {"fusion_lon": 0.0, "name": "db58646217c6fea2490de0976a88fe05", "rental_uris": {"android": "https://dc.lft.to/lastmile_qr_scan", "ios": "https://dc.lft.to/lastmile_qr_scan"}, "lat": 38.917390833333336, "bike_id": "db58646217c6fea2490de0976a88fe05", "is_disabled": 0, "lon": -77.02118866666666, "is_reserved": 0, "fusion_lat": 0.0, "type": "electric_scooter"}, {"fusion_lon": 0.0, "name": "13e027f4aea3789019e706654e846898", "rental_uris": {"android": "https://dc.lft.to/lastmile_qr_scan", "ios": "https://dc.lft.to/lastmile_qr_scan"}, "lat": 38.9254385, "bike_id": "13e027f4aea3789019e706654e846898", "is_disabled": 0, "lon": -77.0340185, "is_reserved": 0, "fusion_lat": 0.0, "type": "electric_scooter"}, {"fusion_lon": 0.0, "name": "9c8762ab89eb70731628a84b9445551e", "rental_uris": {"android": "https://dc.lft.to/lastmile_qr_scan", "ios": "https://dc.lft.to/lastmile_qr_scan"}, "lat": 38.90153083333333, "bike_id": "9c8762ab89eb70731628a84b9445551e", "is_disabled": 0, "lon": -76.9742265, "is_reserved": 0, "fusion_lat": 0.0, "type": "electric_scooter"}, {"fusion_lon": 0.0, "name": "dbe8ac8a24eec2fd28619a7197e46369", "rental_uris": {"android": "https://dc.lft.to/lastmile_qr_scan", "ios": "https://dc.lft.to/lastmile_qr_scan"}, "lat": 38.910670833333334, "bike_id": "dbe8ac8a24eec2fd28619a7197e46369", "is_disabled": 0, "lon": -77.053892, "is_reserved": 0, "fusion_lat": 0.0, "type": "electric_scooter"}, {"fusion_lon": 0.0, "name": "fe7faeb17a6ac03aa1fc01526af211e3", "rental_uris": {"android": "https://dc.lft.to/lastmile_qr_scan", "ios": "https://dc.lft.to/lastmile_qr_scan"}, "lat": 38.93281616666667, "bike_id": "fe7faeb17a6ac03aa1fc01526af211e3", "is_disabled": 0, "lon": -77.02557766666666, "is_reserved": 0, "fusion_lat": 0.0, "type": "electric_scooter"}, {"fusion_lon": 0.0, "name": "2c52cc17e888660666953a2c64fbd18f", "rental_uris": {"android": "https://dc.lft.to/lastmile_qr_scan", "ios": "https://dc.lft.to/lastmile_qr_scan"}, "lat": 38.927688, "bike_id": "2c52cc17e888660666953a2c64fbd18f", "is_disabled": 0, "lon": -77.03107116666666, "is_reserved": 0, "fusion_lat": 0.0, "type": "electric_scooter"}, {"fusion_lon": 0.0, "name": "f67b6878de92c324f3af9cf30e089a3c", "rental_uris": {"android": "https://dc.lft.to/lastmile_qr_scan", "ios": "https://dc.lft.to/lastmile_qr_scan"}, "lat": 38.915142833333334, "bike_id": "f67b6878de92c324f3af9cf30e089a3c", "is_disabled": 0, "lon": -77.0321995, "is_reserved": 0, "fusion_lat": 0.0, "type": "electric_scooter"}, {"fusion_lon": 0.0, "name": "e3d2baf4ecb699c47e304cb0ef009924", "rental_uris": {"android": "https://dc.lft.to/lastmile_qr_scan", "ios": "https://dc.lft.to/lastmile_qr_scan"}, "lat": 38.92086783333333, "bike_id": "e3d2baf4ecb699c47e304cb0ef009924", "is_disabled": 0, "lon": -77.02306683333333, "is_reserved": 0, "fusion_lat": 0.0, "type": "electric_scooter"}, {"fusion_lon": 0.0, "name": "f1dc030abcfc04b81e5b1ededd536270", "rental_uris": {"android": "https://dc.lft.to/lastmile_qr_scan", "ios": "https://dc.lft.to/lastmile_qr_scan"}, "lat": 38.90572983333333, "bike_id": "f1dc030abcfc04b81e5b1ededd536270", "is_disabled": 0, "lon": -77.0217535, "is_reserved": 0, "fusion_lat": 0.0, "type": "electric_scooter"}, {"fusion_lon": 0.0, "name": "672f171406f8a4193969f2204b487e8c", "rental_uris": {"android": "https://dc.lft.to/lastmile_qr_scan", "ios": "https://dc.lft.to/lastmile_qr_scan"}, "lat": 38.90011, "bike_id": "672f171406f8a4193969f2204b487e8c", "is_disabled": 0, "lon": -77.0413075, "is_reserved": 0, "fusion_lat": 0.0, "type": "electric_scooter"}, {"fusion_lon": 0.0, "name": "d17a0804f8f4a607412e03325c8c36b1", "rental_uris": {"android": "https://dc.lft.to/lastmile_qr_scan", "ios": "https://dc.lft.to/lastmile_qr_scan"}, "lat": 38.917582833333334, "bike_id": "d17a0804f8f4a607412e03325c8c36b1", "is_disabled": 0, "lon": -77.02819533333333, "is_reserved": 0, "fusion_lat": 0.0, "type": "electric_scooter"}, {"fusion_lon": 0.0, "name": "58f419222471f229444712c401867892", "rental_uris": {"android": "https://dc.lft.to/lastmile_qr_scan", "ios": "https://dc.lft.to/lastmile_qr_scan"}, "lat": 38.87849416666667, "bike_id": "58f419222471f229444712c401867892", "is_disabled": 0, "lon": -77.01974133333333, "is_reserved": 0, "fusion_lat": 0.0, "type": "electric_scooter"}, {"fusion_lon": 0.0, "name": "108ef3abcc2fa4f5abb7a032e9a2e27f", "rental_uris": {"android": "https://dc.lft.to/lastmile_qr_scan", "ios": "https://dc.lft.to/lastmile_qr_scan"}, "lat": 38.898853333333335, "bike_id": "108ef3abcc2fa4f5abb7a032e9a2e27f", "is_disabled": 0, "lon": -76.93173383333334, "is_reserved": 0, "fusion_lat": 0.0, "type": "electric_scooter"}, {"fusion_lon": 0.0, "name": "ab3aa940332093bc3017f100ec45d5ad", "rental_uris": {"android": "https://dc.lft.to/lastmile_qr_scan", "ios": "https://dc.lft.to/lastmile_qr_scan"}, "lat": 38.889984166666665, "bike_id": "ab3aa940332093bc3017f100ec45d5ad", "is_disabled": 0, "lon": -76.9210965, "is_reserved": 0, "fusion_lat": 0.0, "type": "electric_scooter"}, {"fusion_lon": 0.0, "name": "85f54e42394496a2416a8584709820e8", "rental_uris": {"android": "https://dc.lft.to/lastmile_qr_scan", "ios": "https://dc.lft.to/lastmile_qr_scan"}, "lat": 38.92810216666667, "bike_id": "85f54e42394496a2416a8584709820e8", "is_disabled": 0, "lon": -77.01946316666667, "is_reserved": 0, "fusion_lat": 0.0, "type": "electric_scooter"}, {"fusion_lon": 0.0, "name": "32cf53884ee3d22f72be7c009cb3ce5b", "rental_uris": {"android": "https://dc.lft.to/lastmile_qr_scan", "ios": "https://dc.lft.to/lastmile_qr_scan"}, "lat": 38.91008083333333, "bike_id": "32cf53884ee3d22f72be7c009cb3ce5b", "is_disabled": 0, "lon": -77.03193783333333, "is_reserved": 0, "fusion_lat": 0.0, "type": "electric_scooter"}, {"fusion_lon": 0.0, "name": "5dc52063eadbe88ee004ffdedd6ec27e", "rental_uris": {"android": "https://dc.lft.to/lastmile_qr_scan", "ios": "https://dc.lft.to/lastmile_qr_scan"}, "lat": 38.9275135, "bike_id": "5dc52063eadbe88ee004ffdedd6ec27e", "is_disabled": 0, "lon": -77.029625, "is_reserved": 0, "fusion_lat": 0.0, "type": "electric_scooter"}, {"fusion_lon": 0.0, "name": "0dc3f2425d1b5c63ba7fe090586dad91", "rental_uris": {"android": "https://dc.lft.to/lastmile_qr_scan", "ios": "https://dc.lft.to/lastmile_qr_scan"}, "lat": 38.91911366666667, "bike_id": "0dc3f2425d1b5c63ba7fe090586dad91", "is_disabled": 0, "lon": -77.04478033333334, "is_reserved": 0, "fusion_lat": 0.0, "type": "electric_scooter"}, {"fusion_lon": 0.0, "name": "0e7d03284286b37efaec34496b04fb3b", "rental_uris": {"android": "https://dc.lft.to/lastmile_qr_scan", "ios": "https://dc.lft.to/lastmile_qr_scan"}, "lat": 38.905704666666665, "bike_id": "0e7d03284286b37efaec34496b04fb3b", "is_disabled": 0, "lon": -77.03066916666667, "is_reserved": 0, "fusion_lat": 0.0, "type": "electric_scooter"}, {"fusion_lon": 0.0, "name": "3fc320df9ca2eba6a995fefef9ecd098", "rental_uris": {"android": "https://dc.lft.to/lastmile_qr_scan", "ios": "https://dc.lft.to/lastmile_qr_scan"}, "lat": 38.88730116666667, "bike_id": "3fc320df9ca2eba6a995fefef9ecd098", "is_disabled": 0, "lon": -77.01345016666667, "is_reserved": 0, "fusion_lat": 0.0, "type": "electric_scooter"}, {"fusion_lon": 0.0, "name": "3a680980cc8233a7e90d83ca2dd6d60e", "rental_uris": {"android": "https://dc.lft.to/lastmile_qr_scan", "ios": "https://dc.lft.to/lastmile_qr_scan"}, "lat": 38.9263965, "bike_id": "3a680980cc8233a7e90d83ca2dd6d60e", "is_disabled": 0, "lon": -77.037135, "is_reserved": 0, "fusion_lat": 0.0, "type": "electric_scooter"}, {"fusion_lon": 0.0, "name": "ae5e2b4453b17aa7386127a80884ea6e", "rental_uris": {"android": "https://dc.lft.to/lastmile_qr_scan", "ios": "https://dc.lft.to/lastmile_qr_scan"}, "lat": 38.8927915, "bike_id": "ae5e2b4453b17aa7386127a80884ea6e", "is_disabled": 0, "lon": -77.05023133333333, "is_reserved": 0, "fusion_lat": 0.0, "type": "electric_bike"}, {"fusion_lon": 0.0, "name": "cdc9422698ce401559158786229b9e7e", "rental_uris": {"android": "https://dc.lft.to/lastmile_qr_scan", "ios": "https://dc.lft.to/lastmile_qr_scan"}, "lat": 38.894585, "bike_id": "cdc9422698ce401559158786229b9e7e", "is_disabled": 0, "lon": -77.19133333333333, "is_reserved": 0, "fusion_lat": 0.0, "type": "electric_bike"}, {"fusion_lon": 0.0, "name": "b3a033d8c097e0b4fe7f5d24a025363c", "rental_uris": {"android": "https://dc.lft.to/lastmile_qr_scan", "ios": "https://dc.lft.to/lastmile_qr_scan"}, "lat": 38.900764, "bike_id": "b3a033d8c097e0b4fe7f5d24a025363c", "is_disabled": 0, "lon": -77.04889633333333, "is_reserved": 0, "fusion_lat": 0.0, "type": "electric_scooter"}, {"fusion_lon": 0.0, "name": "b4eabfce03a35db6027a39965d31bed6", "rental_uris": {"android": "https://dc.lft.to/lastmile_qr_scan", "ios": "https://dc.lft.to/lastmile_qr_scan"}, "lat": 38.901422, "bike_id": "b4eabfce03a35db6027a39965d31bed6", "is_disabled": 0, "lon": -76.989655, "is_reserved": 0, "fusion_lat": 0.0, "type": "electric_scooter"}, {"fusion_lon": 0.0, "name": "0cfa56b8cb3e9efd22665c156ac28240", "rental_uris": {"android": "https://dc.lft.to/lastmile_qr_scan", "ios": "https://dc.lft.to/lastmile_qr_scan"}, "lat": 38.91625033333333, "bike_id": "0cfa56b8cb3e9efd22665c156ac28240", "is_disabled": 0, "lon": -77.03495683333334, "is_reserved": 0, "fusion_lat": 0.0, "type": "electric_scooter"}, {"fusion_lon": 0.0, "name": "b81ddeac998cd7807aa72c6fe9b1ddf5", "rental_uris": {"android": "https://dc.lft.to/lastmile_qr_scan", "ios": "https://dc.lft.to/lastmile_qr_scan"}, "lat": 38.91848483333333, "bike_id": "b81ddeac998cd7807aa72c6fe9b1ddf5", "is_disabled": 0, "lon": -77.03859566666667, "is_reserved": 0, "fusion_lat": 0.0, "type": "electric_scooter"}, {"fusion_lon": 0.0, "name": "2347bc511b4ce7326b98b04f49a9ff4c", "rental_uris": {"android": "https://dc.lft.to/lastmile_qr_scan", "ios": "https://dc.lft.to/lastmile_qr_scan"}, "lat": 38.93381, "bike_id": "2347bc511b4ce7326b98b04f49a9ff4c", "is_disabled": 0, "lon": -77.03248333333333, "is_reserved": 0, "fusion_lat": 0.0, "type": "electric_scooter"}, {"fusion_lon": 0.0, "name": "3d78b6e2939bd3685d92037a49430b0b", "rental_uris": {"android": "https://dc.lft.to/lastmile_qr_scan", "ios": "https://dc.lft.to/lastmile_qr_scan"}, "lat": 38.88824666666667, "bike_id": "3d78b6e2939bd3685d92037a49430b0b", "is_disabled": 0, "lon": -76.93967333333333, "is_reserved": 0, "fusion_lat": 0.0, "type": "electric_scooter"}, {"fusion_lon": 0.0, "name": "f36ca6d0eb2e402740037503cfb26253", "rental_uris": {"android": "https://dc.lft.to/lastmile_qr_scan", "ios": "https://dc.lft.to/lastmile_qr_scan"}, "lat": 38.996876, "bike_id": "f36ca6d0eb2e402740037503cfb26253", "is_disabled": 0, "lon": -77.037925, "is_reserved": 0, "fusion_lat": 0.0, "type": "electric_bike"}, {"fusion_lon": 0.0, "name": "2df5561c0f1e0cab2248e0bea8851ac5", "rental_uris": {"android": "https://dc.lft.to/lastmile_qr_scan", "ios": "https://dc.lft.to/lastmile_qr_scan"}, "lat": 38.918768, "bike_id": "2df5561c0f1e0cab2248e0bea8851ac5", "is_disabled": 0, "lon": -77.0350575, "is_reserved": 0, "fusion_lat": 0.0, "type": "electric_scooter"}, {"fusion_lon": 0.0, "name": "0dfbe5e04c479450ff554d8619218529", "rental_uris": {"android": "https://dc.lft.to/lastmile_qr_scan", "ios": "https://dc.lft.to/lastmile_qr_scan"}, "lat": 38.969201166666664, "bike_id": "0dfbe5e04c479450ff554d8619218529", "is_disabled": 0, "lon": -76.9949285, "is_reserved": 0, "fusion_lat": 0.0, "type": "electric_bike"}, {"fusion_lon": 0.0, "name": "9c41472216475269578cacd9f239c363", "rental_uris": {"android": "https://dc.lft.to/lastmile_qr_scan", "ios": "https://dc.lft.to/lastmile_qr_scan"}, "lat": 38.90375933333333, "bike_id": "9c41472216475269578cacd9f239c363", "is_disabled": 0, "lon": -77.03196566666666, "is_reserved": 0, "fusion_lat": 0.0, "type": "electric_scooter"}, {"fusion_lon": 0.0, "name": "93e8bc4a4fdccb7a73976eff1b3e67b9", "rental_uris": {"android": "https://dc.lft.to/lastmile_qr_scan", "ios": "https://dc.lft.to/lastmile_qr_scan"}, "lat": 38.9243205, "bike_id": "93e8bc4a4fdccb7a73976eff1b3e67b9", "is_disabled": 0, "lon": -77.021549, "is_reserved": 0, "fusion_lat": 0.0, "type": "electric_scooter"}, {"fusion_lon": 0.0, "name": "de10a3b9a034fb372798a26a47e631c1", "rental_uris": {"android": "https://dc.lft.to/lastmile_qr_scan", "ios": "https://dc.lft.to/lastmile_qr_scan"}, "lat": 38.92106233333333, "bike_id": "de10a3b9a034fb372798a26a47e631c1", "is_disabled": 0, "lon": -77.04699616666667, "is_reserved": 0, "fusion_lat": 0.0, "type": "electric_scooter"}, {"fusion_lon": 0.0, "name": "78745cac94e92e5931b9b2cb3d48a0c9", "rental_uris": {"android": "https://dc.lft.to/lastmile_qr_scan", "ios": "https://dc.lft.to/lastmile_qr_scan"}, "lat": 38.9207345, "bike_id": "78745cac94e92e5931b9b2cb3d48a0c9", "is_disabled": 0, "lon": -77.02387066666667, "is_reserved": 0, "fusion_lat": 0.0, "type": "electric_scooter"}, {"fusion_lon": 0.0, "name": "87eddd092a1a7388d044dc9aefc332c8", "rental_uris": {"android": "https://dc.lft.to/lastmile_qr_scan", "ios": "https://dc.lft.to/lastmile_qr_scan"}, "lat": 38.924728333333334, "bike_id": "87eddd092a1a7388d044dc9aefc332c8", "is_disabled": 0, "lon": -77.02209533333334, "is_reserved": 0, "fusion_lat": 0.0, "type": "electric_scooter"}, {"fusion_lon": 0.0, "name": "f9d81a1a691c5ac681d5d4762c9a42aa", "rental_uris": {"android": "https://dc.lft.to/lastmile_qr_scan", "ios": "https://dc.lft.to/lastmile_qr_scan"}, "lat": 38.913641, "bike_id": "f9d81a1a691c5ac681d5d4762c9a42aa", "is_disabled": 0, "lon": -77.0199955, "is_reserved": 0, "fusion_lat": 0.0, "type": "electric_scooter"}, {"fusion_lon": 0.0, "name": "7fadd8642ed1b756564de23a965e30dc", "rental_uris": {"android": "https://dc.lft.to/lastmile_qr_scan", "ios": "https://dc.lft.to/lastmile_qr_scan"}, "lat": 38.87859133333333, "bike_id": "7fadd8642ed1b756564de23a965e30dc", "is_disabled": 0, "lon": -77.0049895, "is_reserved": 0, "fusion_lat": 0.0, "type": "electric_scooter"}, {"fusion_lon": 0.0, "name": "39221568763338391779f036d4c7bdbb", "rental_uris": {"android": "https://dc.lft.to/lastmile_qr_scan", "ios": "https://dc.lft.to/lastmile_qr_scan"}, "lat": 38.91991383333333, "bike_id": "39221568763338391779f036d4c7bdbb", "is_disabled": 0, "lon": -77.03266933333333, "is_reserved": 0, "fusion_lat": 0.0, "type": "electric_scooter"}, {"fusion_lon": 0.0, "name": "5dec77c8ae18372691ab5ba093f0c9e4", "rental_uris": {"android": "https://dc.lft.to/lastmile_qr_scan", "ios": "https://dc.lft.to/lastmile_qr_scan"}, "lat": 38.9260875, "bike_id": "5dec77c8ae18372691ab5ba093f0c9e4", "is_disabled": 0, "lon": -77.02212633333333, "is_reserved": 0, "fusion_lat": 0.0, "type": "electric_scooter"}, {"fusion_lon": 0.0, "name": "3d6753db7a8dd3d68d8cd395abb97f4f", "rental_uris": {"android": "https://dc.lft.to/lastmile_qr_scan", "ios": "https://dc.lft.to/lastmile_qr_scan"}, "lat": 38.91266916666667, "bike_id": "3d6753db7a8dd3d68d8cd395abb97f4f", "is_disabled": 0, "lon": -77.03336716666666, "is_reserved": 0, "fusion_lat": 0.0, "type": "electric_scooter"}, {"fusion_lon": 0.0, "name": "b86e94a2b75dfe67aca90726ced06558", "rental_uris": {"android": "https://dc.lft.to/lastmile_qr_scan", "ios": "https://dc.lft.to/lastmile_qr_scan"}, "lat": 38.835870666666665, "bike_id": "b86e94a2b75dfe67aca90726ced06558", "is_disabled": 0, "lon": -76.99029533333334, "is_reserved": 0, "fusion_lat": 0.0, "type": "electric_bike"}, {"fusion_lon": 0.0, "name": "aab1345e03010ccfe6eb52ff8236e69a", "rental_uris": {"android": "https://dc.lft.to/lastmile_qr_scan", "ios": "https://dc.lft.to/lastmile_qr_scan"}, "lat": 38.9206535, "bike_id": "aab1345e03010ccfe6eb52ff8236e69a", "is_disabled": 0, "lon": -77.02451783333333, "is_reserved": 0, "fusion_lat": 0.0, "type": "electric_scooter"}, {"fusion_lon": 0.0, "name": "7c2bfab2fcba7020f78ed4579f36d947", "rental_uris": {"android": "https://dc.lft.to/lastmile_qr_scan", "ios": "https://dc.lft.to/lastmile_qr_scan"}, "lat": 38.93062283333333, "bike_id": "7c2bfab2fcba7020f78ed4579f36d947", "is_disabled": 0, "lon": -77.027898, "is_reserved": 0, "fusion_lat": 0.0, "type": "electric_scooter"}, {"fusion_lon": 0.0, "name": "b69b1b99f98a95916aa392e286107b80", "rental_uris": {"android": "https://dc.lft.to/lastmile_qr_scan", "ios": "https://dc.lft.to/lastmile_qr_scan"}, "lat": 38.888796666666664, "bike_id": "b69b1b99f98a95916aa392e286107b80", "is_disabled": 0, "lon": -76.99037583333333, "is_reserved": 0, "fusion_lat": 0.0, "type": "electric_scooter"}, {"fusion_lon": 0.0, "name": "d63a964731947e86cdf89a737d794098", "rental_uris": {"android": "https://dc.lft.to/lastmile_qr_scan", "ios": "https://dc.lft.to/lastmile_qr_scan"}, "lat": 38.926409166666666, "bike_id": "d63a964731947e86cdf89a737d794098", "is_disabled": 0, "lon": -77.03717483333334, "is_reserved": 0, "fusion_lat": 0.0, "type": "electric_scooter"}, {"fusion_lon": 0.0, "name": "97ed43551313a2056e43e59b0653b8a7", "rental_uris": {"android": "https://dc.lft.to/lastmile_qr_scan", "ios": "https://dc.lft.to/lastmile_qr_scan"}, "lat": 38.9034155, "bike_id": "97ed43551313a2056e43e59b0653b8a7", "is_disabled": 0, "lon": -76.976125, "is_reserved": 0, "fusion_lat": 0.0, "type": "electric_scooter"}, {"fusion_lon": 0.0, "name": "839b31b30dd83fd0c7bb0233be9cd12f", "rental_uris": {"android": "https://dc.lft.to/lastmile_qr_scan", "ios": "https://dc.lft.to/lastmile_qr_scan"}, "lat": 38.923434666666665, "bike_id": "839b31b30dd83fd0c7bb0233be9cd12f", "is_disabled": 0, "lon": -77.0509025, "is_reserved": 0, "fusion_lat": 0.0, "type": "electric_scooter"}, {"fusion_lon": 0.0, "name": "a97cb7a7e99b6d7bd5965fd8c1581029", "rental_uris": {"android": "https://dc.lft.to/lastmile_qr_scan", "ios": "https://dc.lft.to/lastmile_qr_scan"}, "lat": 38.89102783333333, "bike_id": "a97cb7a7e99b6d7bd5965fd8c1581029", "is_disabled": 0, "lon": -77.00211083333333, "is_reserved": 0, "fusion_lat": 0.0, "type": "electric_scooter"}, {"fusion_lon": 0.0, "name": "57cb5ace1ea7fdcb703a448e4239dcec", "rental_uris": {"android": "https://dc.lft.to/lastmile_qr_scan", "ios": "https://dc.lft.to/lastmile_qr_scan"}, "lat": 38.9058305, "bike_id": "57cb5ace1ea7fdcb703a448e4239dcec", "is_disabled": 0, "lon": -77.00598233333334, "is_reserved": 0, "fusion_lat": 0.0, "type": "electric_scooter"}, {"fusion_lon": 0.0, "name": "5e3ba39a8ac6fcb2f6a47aa7c7587fe0", "rental_uris": {"android": "https://dc.lft.to/lastmile_qr_scan", "ios": "https://dc.lft.to/lastmile_qr_scan"}, "lat": 38.916429666666666, "bike_id": "5e3ba39a8ac6fcb2f6a47aa7c7587fe0", "is_disabled": 0, "lon": -77.045547, "is_reserved": 0, "fusion_lat": 0.0, "type": "electric_scooter"}, {"fusion_lon": 0.0, "name": "b3945c4da5bc960fca79d1884c309463", "rental_uris": {"android": "https://dc.lft.to/lastmile_qr_scan", "ios": "https://dc.lft.to/lastmile_qr_scan"}, "lat": 38.89144233333333, "bike_id": "b3945c4da5bc960fca79d1884c309463", "is_disabled": 0, "lon": -76.99945733333334, "is_reserved": 0, "fusion_lat": 0.0, "type": "electric_scooter"}, {"fusion_lon": 0.0, "name": "c915768ac87bc5b6b2e45070185c2818", "rental_uris": {"android": "https://dc.lft.to/lastmile_qr_scan", "ios": "https://dc.lft.to/lastmile_qr_scan"}, "lat": 38.91899216666667, "bike_id": "c915768ac87bc5b6b2e45070185c2818", "is_disabled": 0, "lon": -77.101767, "is_reserved": 0, "fusion_lat": 0.0, "type": "electric_bike"}, {"fusion_lon": 0.0, "name": "b8f35353578b5a0e65e65ebde2df0ae2", "rental_uris": {"android": "https://dc.lft.to/lastmile_qr_scan", "ios": "https://dc.lft.to/lastmile_qr_scan"}, "lat": 38.9639915, "bike_id": "b8f35353578b5a0e65e65ebde2df0ae2", "is_disabled": 0, "lon": -77.02589533333334, "is_reserved": 0, "fusion_lat": 0.0, "type": "electric_scooter"}, {"fusion_lon": 0.0, "name": "5300ba6dcbf70812768b29a13f0e7186", "rental_uris": {"android": "https://dc.lft.to/lastmile_qr_scan", "ios": "https://dc.lft.to/lastmile_qr_scan"}, "lat": 38.899916166666664, "bike_id": "5300ba6dcbf70812768b29a13f0e7186", "is_disabled": 0, "lon": -77.02700333333334, "is_reserved": 0, "fusion_lat": 0.0, "type": "electric_scooter"}, {"fusion_lon": 0.0, "name": "b72dbf39ef45c4c0310e78804f83b0f0", "rental_uris": {"android": "https://dc.lft.to/lastmile_qr_scan", "ios": "https://dc.lft.to/lastmile_qr_scan"}, "lat": 38.83932466666667, "bike_id": "b72dbf39ef45c4c0310e78804f83b0f0", "is_disabled": 0, "lon": -77.07906033333333, "is_reserved": 0, "fusion_lat": 0.0, "type": "electric_bike"}, {"fusion_lon": 0.0, "name": "edfa214f2c8153ac068cf7fae75c0d0a", "rental_uris": {"android": "https://dc.lft.to/lastmile_qr_scan", "ios": "https://dc.lft.to/lastmile_qr_scan"}, "lat": 38.957212, "bike_id": "edfa214f2c8153ac068cf7fae75c0d0a", "is_disabled": 0, "lon": -77.00233716666666, "is_reserved": 0, "fusion_lat": 0.0, "type": "electric_scooter"}, {"fusion_lon": 0.0, "name": "818e2d3166f062ad6a13691965a92f0c", "rental_uris": {"android": "https://dc.lft.to/lastmile_qr_scan", "ios": "https://dc.lft.to/lastmile_qr_scan"}, "lat": 38.9215565, "bike_id": "818e2d3166f062ad6a13691965a92f0c", "is_disabled": 0, "lon": -77.035276, "is_reserved": 0, "fusion_lat": 0.0, "type": "electric_scooter"}, {"fusion_lon": 0.0, "name": "eab7044f701eed71d1b92b80555556be", "rental_uris": {"android": "https://dc.lft.to/lastmile_qr_scan", "ios": "https://dc.lft.to/lastmile_qr_scan"}, "lat": 38.93329633333333, "bike_id": "eab7044f701eed71d1b92b80555556be", "is_disabled": 0, "lon": -77.0291645, "is_reserved": 0, "fusion_lat": 0.0, "type": "electric_scooter"}, {"fusion_lon": 0.0, "name": "7695a5437fe65582628b2009e84d116c", "rental_uris": {"android": "https://dc.lft.to/lastmile_qr_scan", "ios": "https://dc.lft.to/lastmile_qr_scan"}, "lat": 38.877406, "bike_id": "7695a5437fe65582628b2009e84d116c", "is_disabled": 0, "lon": -77.00566, "is_reserved": 0, "fusion_lat": 0.0, "type": "electric_scooter"}, {"fusion_lon": 0.0, "name": "c048b75a6f2378db5d33f67cb74e5a64", "rental_uris": {"android": "https://dc.lft.to/lastmile_qr_scan", "ios": "https://dc.lft.to/lastmile_qr_scan"}, "lat": 38.93894366666667, "bike_id": "c048b75a6f2378db5d33f67cb74e5a64", "is_disabled": 0, "lon": -77.0176335, "is_reserved": 0, "fusion_lat": 0.0, "type": "electric_scooter"}, {"fusion_lon": 0.0, "name": "2a1b3b3954b036872d47930e2c12e60f", "rental_uris": {"android": "https://dc.lft.to/lastmile_qr_scan", "ios": "https://dc.lft.to/lastmile_qr_scan"}, "lat": 38.90475333333333, "bike_id": "2a1b3b3954b036872d47930e2c12e60f", "is_disabled": 0, "lon": -77.04854316666666, "is_reserved": 0, "fusion_lat": 0.0, "type": "electric_scooter"}, {"fusion_lon": 0.0, "name": "f790cc8f71721ad96007f4db8fd1a93a", "rental_uris": {"android": "https://dc.lft.to/lastmile_qr_scan", "ios": "https://dc.lft.to/lastmile_qr_scan"}, "lat": 38.90683, "bike_id": "f790cc8f71721ad96007f4db8fd1a93a", "is_disabled": 0, "lon": -77.026914, "is_reserved": 0, "fusion_lat": 0.0, "type": "electric_scooter"}, {"fusion_lon": 0.0, "name": "f1a08c400a3a259f20619798f7ab685c", "rental_uris": {"android": "https://dc.lft.to/lastmile_qr_scan", "ios": "https://dc.lft.to/lastmile_qr_scan"}, "lat": 38.943201, "bike_id": "f1a08c400a3a259f20619798f7ab685c", "is_disabled": 0, "lon": -76.990165, "is_reserved": 0, "fusion_lat": 0.0, "type": "electric_bike"}, {"fusion_lon": 0.0, "name": "26391b6e132c03c0cea7b9037a6bfad7", "rental_uris": {"android": "https://dc.lft.to/lastmile_qr_scan", "ios": "https://dc.lft.to/lastmile_qr_scan"}, "lat": 38.91673483333334, "bike_id": "26391b6e132c03c0cea7b9037a6bfad7", "is_disabled": 0, "lon": -77.02297666666666, "is_reserved": 0, "fusion_lat": 0.0, "type": "electric_scooter"}, {"fusion_lon": 0.0, "name": "9b3dd75b04857896d94f6d92f2b47238", "rental_uris": {"android": "https://dc.lft.to/lastmile_qr_scan", "ios": "https://dc.lft.to/lastmile_qr_scan"}, "lat": 38.96023366666667, "bike_id": "9b3dd75b04857896d94f6d92f2b47238", "is_disabled": 0, "lon": -77.02431983333334, "is_reserved": 0, "fusion_lat": 0.0, "type": "electric_scooter"}, {"fusion_lon": 0.0, "name": "dd522c3789d4ae3c34be643793b30ec5", "rental_uris": {"android": "https://dc.lft.to/lastmile_qr_scan", "ios": "https://dc.lft.to/lastmile_qr_scan"}, "lat": 38.927195, "bike_id": "dd522c3789d4ae3c34be643793b30ec5", "is_disabled": 0, "lon": -77.02087016666667, "is_reserved": 0, "fusion_lat": 0.0, "type": "electric_scooter"}, {"fusion_lon": 0.0, "name": "b859246bf2f18b6a6f0f03ce2975957f", "rental_uris": {"android": "https://dc.lft.to/lastmile_qr_scan", "ios": "https://dc.lft.to/lastmile_qr_scan"}, "lat": 38.88823416666666, "bike_id": "b859246bf2f18b6a6f0f03ce2975957f", "is_disabled": 0, "lon": -76.97703066666666, "is_reserved": 0, "fusion_lat": 0.0, "type": "electric_scooter"}, {"fusion_lon": 0.0, "name": "8f31a018b48cebb5b20972517f01a225", "rental_uris": {"android": "https://dc.lft.to/lastmile_qr_scan", "ios": "https://dc.lft.to/lastmile_qr_scan"}, "lat": 38.93143, "bike_id": "8f31a018b48cebb5b20972517f01a225", "is_disabled": 0, "lon": -77.056979, "is_reserved": 0, "fusion_lat": 0.0, "type": "electric_scooter"}, {"fusion_lon": 0.0, "name": "a5b64347994c3e44ba3022413ee67512", "rental_uris": {"android": "https://dc.lft.to/lastmile_qr_scan", "ios": "https://dc.lft.to/lastmile_qr_scan"}, "lat": 38.904917833333336, "bike_id": "a5b64347994c3e44ba3022413ee67512", "is_disabled": 0, "lon": -77.02972366666667, "is_reserved": 0, "fusion_lat": 0.0, "type": "electric_scooter"}, {"fusion_lon": 0.0, "name": "3309efe1785877e8c9c2619d24938675", "rental_uris": {"android": "https://dc.lft.to/lastmile_qr_scan", "ios": "https://dc.lft.to/lastmile_qr_scan"}, "lat": 38.80658666666667, "bike_id": "3309efe1785877e8c9c2619d24938675", "is_disabled": 0, "lon": -77.08763733333333, "is_reserved": 0, "fusion_lat": 0.0, "type": "electric_bike"}, {"fusion_lon": 0.0, "name": "63c455b39036de6e5df114d7a7b85f41", "rental_uris": {"android": "https://dc.lft.to/lastmile_qr_scan", "ios": "https://dc.lft.to/lastmile_qr_scan"}, "lat": 38.923473333333334, "bike_id": "63c455b39036de6e5df114d7a7b85f41", "is_disabled": 0, "lon": -77.0341445, "is_reserved": 0, "fusion_lat": 0.0, "type": "electric_scooter"}, {"fusion_lon": 0.0, "name": "85c2820c79caa41a91e738618db2982b", "rental_uris": {"android": "https://dc.lft.to/lastmile_qr_scan", "ios": "https://dc.lft.to/lastmile_qr_scan"}, "lat": 38.93032433333333, "bike_id": "85c2820c79caa41a91e738618db2982b", "is_disabled": 0, "lon": -77.055489, "is_reserved": 0, "fusion_lat": 0.0, "type": "electric_scooter"}, {"fusion_lon": 0.0, "name": "f144bddadf50e2c89f0f0c6d41e7e9a5", "rental_uris": {"android": "https://dc.lft.to/lastmile_qr_scan", "ios": "https://dc.lft.to/lastmile_qr_scan"}, "lat": 38.8557255, "bike_id": "f144bddadf50e2c89f0f0c6d41e7e9a5", "is_disabled": 0, "lon": -76.97413316666666, "is_reserved": 0, "fusion_lat": 0.0, "type": "electric_bike"}, {"fusion_lon": 0.0, "name": "ed2e0bd2367b2a28859b7b678d44baf8", "rental_uris": {"android": "https://dc.lft.to/lastmile_qr_scan", "ios": "https://dc.lft.to/lastmile_qr_scan"}, "lat": 38.920078333333336, "bike_id": "ed2e0bd2367b2a28859b7b678d44baf8", "is_disabled": 0, "lon": -76.9850815, "is_reserved": 0, "fusion_lat": 0.0, "type": "electric_scooter"}, {"fusion_lon": 0.0, "name": "08a8ff7a28262ed0f39a94186e9e61e2", "rental_uris": {"android": "https://dc.lft.to/lastmile_qr_scan", "ios": "https://dc.lft.to/lastmile_qr_scan"}, "lat": 38.91329233333333, "bike_id": "08a8ff7a28262ed0f39a94186e9e61e2", "is_disabled": 0, "lon": -77.0318275, "is_reserved": 0, "fusion_lat": 0.0, "type": "electric_scooter"}, {"fusion_lon": 0.0, "name": "4ebdffcc68045cde1ade15666adbd416", "rental_uris": {"android": "https://dc.lft.to/lastmile_qr_scan", "ios": "https://dc.lft.to/lastmile_qr_scan"}, "lat": 38.8821935, "bike_id": "4ebdffcc68045cde1ade15666adbd416", "is_disabled": 0, "lon": -77.0284835, "is_reserved": 0, "fusion_lat": 0.0, "type": "electric_scooter"}, {"fusion_lon": 0.0, "name": "ab7573b29db4b44f31152d8e60b80b3b", "rental_uris": {"android": "https://dc.lft.to/lastmile_qr_scan", "ios": "https://dc.lft.to/lastmile_qr_scan"}, "lat": 38.835801833333335, "bike_id": "ab7573b29db4b44f31152d8e60b80b3b", "is_disabled": 0, "lon": -76.99022283333333, "is_reserved": 0, "fusion_lat": 0.0, "type": "electric_bike"}, {"fusion_lon": 0.0, "name": "affcc8166a77d92dd3376febef196d85", "rental_uris": {"android": "https://dc.lft.to/lastmile_qr_scan", "ios": "https://dc.lft.to/lastmile_qr_scan"}, "lat": 38.89474083333333, "bike_id": "affcc8166a77d92dd3376febef196d85", "is_disabled": 0, "lon": -77.0208045, "is_reserved": 0, "fusion_lat": 0.0, "type": "electric_scooter"}, {"fusion_lon": 0.0, "name": "461182c6424907ff687aab092495e030", "rental_uris": {"android": "https://dc.lft.to/lastmile_qr_scan", "ios": "https://dc.lft.to/lastmile_qr_scan"}, "lat": 38.904471666666666, "bike_id": "461182c6424907ff687aab092495e030", "is_disabled": 0, "lon": -77.02833733333334, "is_reserved": 0, "fusion_lat": 0.0, "type": "electric_scooter"}, {"fusion_lon": 0.0, "name": "a6dea14b08160537cfa7f37cedda5b9a", "rental_uris": {"android": "https://dc.lft.to/lastmile_qr_scan", "ios": "https://dc.lft.to/lastmile_qr_scan"}, "lat": 38.920913666666664, "bike_id": "a6dea14b08160537cfa7f37cedda5b9a", "is_disabled": 0, "lon": -77.02413366666667, "is_reserved": 0, "fusion_lat": 0.0, "type": "electric_scooter"}, {"fusion_lon": 0.0, "name": "a7b1cdc92d11997e7d2ac89396a4071e", "rental_uris": {"android": "https://dc.lft.to/lastmile_qr_scan", "ios": "https://dc.lft.to/lastmile_qr_scan"}, "lat": 38.8638075, "bike_id": "a7b1cdc92d11997e7d2ac89396a4071e", "is_disabled": 0, "lon": -76.98813933333334, "is_reserved": 0, "fusion_lat": 0.0, "type": "electric_scooter"}, {"fusion_lon": 0.0, "name": "91f3e95ceeee192a266383a0ee18fe77", "rental_uris": {"android": "https://dc.lft.to/lastmile_qr_scan", "ios": "https://dc.lft.to/lastmile_qr_scan"}, "lat": 38.93478366666667, "bike_id": "91f3e95ceeee192a266383a0ee18fe77", "is_disabled": 0, "lon": -77.08663766666666, "is_reserved": 0, "fusion_lat": 0.0, "type": "electric_scooter"}, {"fusion_lon": 0.0, "name": "f054aae82809178a607dbbc2d7899e1d", "rental_uris": {"android": "https://dc.lft.to/lastmile_qr_scan", "ios": "https://dc.lft.to/lastmile_qr_scan"}, "lat": 38.893382333333335, "bike_id": "f054aae82809178a607dbbc2d7899e1d", "is_disabled": 0, "lon": -77.04873333333333, "is_reserved": 0, "fusion_lat": 0.0, "type": "electric_scooter"}, {"fusion_lon": 0.0, "name": "267cd16974918b7487c7c304adb0f2f3", "rental_uris": {"android": "https://dc.lft.to/lastmile_qr_scan", "ios": "https://dc.lft.to/lastmile_qr_scan"}, "lat": 38.8982835, "bike_id": "267cd16974918b7487c7c304adb0f2f3", "is_disabled": 0, "lon": -76.93008916666666, "is_reserved": 0, "fusion_lat": 0.0, "type": "electric_scooter"}, {"fusion_lon": 0.0, "name": "f6b951966530ab8f18145110d93c5b66", "rental_uris": {"android": "https://dc.lft.to/lastmile_qr_scan", "ios": "https://dc.lft.to/lastmile_qr_scan"}, "lat": 38.896161166666666, "bike_id": "f6b951966530ab8f18145110d93c5b66", "is_disabled": 0, "lon": -76.99415433333333, "is_reserved": 0, "fusion_lat": 0.0, "type": "electric_scooter"}, {"fusion_lon": 0.0, "name": "b13dccc0757621af2c48b127d87b792c", "rental_uris": {"android": "https://dc.lft.to/lastmile_qr_scan", "ios": "https://dc.lft.to/lastmile_qr_scan"}, "lat": 38.9078165, "bike_id": "b13dccc0757621af2c48b127d87b792c", "is_disabled": 0, "lon": -77.03522816666667, "is_reserved": 0, "fusion_lat": 0.0, "type": "electric_scooter"}, {"fusion_lon": 0.0, "name": "69d7a6f3df8fca82a7cc065b6e4c9b04", "rental_uris": {"android": "https://dc.lft.to/lastmile_qr_scan", "ios": "https://dc.lft.to/lastmile_qr_scan"}, "lat": 38.9016085, "bike_id": "69d7a6f3df8fca82a7cc065b6e4c9b04", "is_disabled": 0, "lon": -77.04987616666666, "is_reserved": 0, "fusion_lat": 0.0, "type": "electric_scooter"}, {"fusion_lon": 0.0, "name": "290534e22480f8126ac45855f46444a4", "rental_uris": {"android": "https://dc.lft.to/lastmile_qr_scan", "ios": "https://dc.lft.to/lastmile_qr_scan"}, "lat": 38.892213, "bike_id": "290534e22480f8126ac45855f46444a4", "is_disabled": 0, "lon": -77.01400133333334, "is_reserved": 0, "fusion_lat": 0.0, "type": "electric_scooter"}, {"fusion_lon": 0.0, "name": "14b661553e5785ce73cfdd96a356d28d", "rental_uris": {"android": "https://dc.lft.to/lastmile_qr_scan", "ios": "https://dc.lft.to/lastmile_qr_scan"}, "lat": 38.9184455, "bike_id": "14b661553e5785ce73cfdd96a356d28d", "is_disabled": 0, "lon": -77.03857633333334, "is_reserved": 0, "fusion_lat": 0.0, "type": "electric_scooter"}, {"fusion_lon": 0.0, "name": "675f4cb110914056a1dcb64e40ea8841", "rental_uris": {"android": "https://dc.lft.to/lastmile_qr_scan", "ios": "https://dc.lft.to/lastmile_qr_scan"}, "lat": 38.9194565, "bike_id": "675f4cb110914056a1dcb64e40ea8841", "is_disabled": 0, "lon": -77.01784666666667, "is_reserved": 0, "fusion_lat": 0.0, "type": "electric_scooter"}, {"fusion_lon": 0.0, "name": "c121160a83b03d2542ec38960336ba1f", "rental_uris": {"android": "https://dc.lft.to/lastmile_qr_scan", "ios": "https://dc.lft.to/lastmile_qr_scan"}, "lat": 38.910093, "bike_id": "c121160a83b03d2542ec38960336ba1f", "is_disabled": 0, "lon": -77.02100216666666, "is_reserved": 0, "fusion_lat": 0.0, "type": "electric_scooter"}, {"fusion_lon": 0.0, "name": "009a5e6c7e50e119472fa5de8816795a", "rental_uris": {"android": "https://dc.lft.to/lastmile_qr_scan", "ios": "https://dc.lft.to/lastmile_qr_scan"}, "lat": 38.922324833333334, "bike_id": "009a5e6c7e50e119472fa5de8816795a", "is_disabled": 0, "lon": -76.97536733333334, "is_reserved": 0, "fusion_lat": 0.0, "type": "electric_scooter"}, {"fusion_lon": 0.0, "name": "ce0832d0d293c9e89ac405967aea15a1", "rental_uris": {"android": "https://dc.lft.to/lastmile_qr_scan", "ios": "https://dc.lft.to/lastmile_qr_scan"}, "lat": 38.91267916666666, "bike_id": "ce0832d0d293c9e89ac405967aea15a1", "is_disabled": 0, "lon": -77.02207666666666, "is_reserved": 0, "fusion_lat": 0.0, "type": "electric_scooter"}, {"fusion_lon": 0.0, "name": "d5ef7d0905f130da2b0d8e9d4ceb7964", "rental_uris": {"android": "https://dc.lft.to/lastmile_qr_scan", "ios": "https://dc.lft.to/lastmile_qr_scan"}, "lat": 38.91187266666667, "bike_id": "d5ef7d0905f130da2b0d8e9d4ceb7964", "is_disabled": 0, "lon": -77.06098883333334, "is_reserved": 0, "fusion_lat": 0.0, "type": "electric_scooter"}, {"fusion_lon": 0.0, "name": "9d7b5afd3a96d82216cc4068171aefea", "rental_uris": {"android": "https://dc.lft.to/lastmile_qr_scan", "ios": "https://dc.lft.to/lastmile_qr_scan"}, "lat": 38.928418666666666, "bike_id": "9d7b5afd3a96d82216cc4068171aefea", "is_disabled": 0, "lon": -77.01424366666667, "is_reserved": 0, "fusion_lat": 0.0, "type": "electric_scooter"}, {"fusion_lon": 0.0, "name": "30d542362aaa0a0357b7942f3738f986", "rental_uris": {"android": "https://dc.lft.to/lastmile_qr_scan", "ios": "https://dc.lft.to/lastmile_qr_scan"}, "lat": 38.91815666666667, "bike_id": "30d542362aaa0a0357b7942f3738f986", "is_disabled": 0, "lon": -77.02474933333333, "is_reserved": 0, "fusion_lat": 0.0, "type": "electric_scooter"}, {"fusion_lon": 0.0, "name": "4b6ceae3823fcbd8f3efb6659de99ce5", "rental_uris": {"android": "https://dc.lft.to/lastmile_qr_scan", "ios": "https://dc.lft.to/lastmile_qr_scan"}, "lat": 38.897113833333336, "bike_id": "4b6ceae3823fcbd8f3efb6659de99ce5", "is_disabled": 0, "lon": -77.027388, "is_reserved": 0, "fusion_lat": 0.0, "type": "electric_scooter"}, {"fusion_lon": 0.0, "name": "7c84acad84ad9c5598fa428b9dd57dbe", "rental_uris": {"android": "https://dc.lft.to/lastmile_qr_scan", "ios": "https://dc.lft.to/lastmile_qr_scan"}, "lat": 38.89184133333333, "bike_id": "7c84acad84ad9c5598fa428b9dd57dbe", "is_disabled": 0, "lon": -76.93598833333333, "is_reserved": 0, "fusion_lat": 0.0, "type": "electric_scooter"}, {"fusion_lon": 0.0, "name": "c469d95881de3ccb491d5d7562984c4e", "rental_uris": {"android": "https://dc.lft.to/lastmile_qr_scan", "ios": "https://dc.lft.to/lastmile_qr_scan"}, "lat": 38.90186583333333, "bike_id": "c469d95881de3ccb491d5d7562984c4e", "is_disabled": 0, "lon": -76.98841566666667, "is_reserved": 0, "fusion_lat": 0.0, "type": "electric_scooter"}, {"fusion_lon": 0.0, "name": "0b5872a387ec6d83763cc03f0f57fab7", "rental_uris": {"android": "https://dc.lft.to/lastmile_qr_scan", "ios": "https://dc.lft.to/lastmile_qr_scan"}, "lat": 38.923179166666664, "bike_id": "0b5872a387ec6d83763cc03f0f57fab7", "is_disabled": 0, "lon": -77.03811383333333, "is_reserved": 0, "fusion_lat": 0.0, "type": "electric_scooter"}, {"fusion_lon": 0.0, "name": "3cb687b97fb107893bf372007fb60bd5", "rental_uris": {"android": "https://dc.lft.to/lastmile_qr_scan", "ios": "https://dc.lft.to/lastmile_qr_scan"}, "lat": 38.902150166666665, "bike_id": "3cb687b97fb107893bf372007fb60bd5", "is_disabled": 0, "lon": -77.02376516666666, "is_reserved": 0, "fusion_lat": 0.0, "type": "electric_scooter"}, {"fusion_lon": 0.0, "name": "11640094d1818a055ae901904c969896", "rental_uris": {"android": "https://dc.lft.to/lastmile_qr_scan", "ios": "https://dc.lft.to/lastmile_qr_scan"}, "lat": 38.90699383333333, "bike_id": "11640094d1818a055ae901904c969896", "is_disabled": 0, "lon": -76.98704216666667, "is_reserved": 0, "fusion_lat": 0.0, "type": "electric_scooter"}, {"fusion_lon": 0.0, "name": "3097fbf56db81e1e56098dcb2730f784", "rental_uris": {"android": "https://dc.lft.to/lastmile_qr_scan", "ios": "https://dc.lft.to/lastmile_qr_scan"}, "lat": 38.91572383333333, "bike_id": "3097fbf56db81e1e56098dcb2730f784", "is_disabled": 0, "lon": -77.06798, "is_reserved": 0, "fusion_lat": 0.0, "type": "electric_scooter"}, {"fusion_lon": 0.0, "name": "cf5cecc3f72d626309cf00fa83c250b9", "rental_uris": {"android": "https://dc.lft.to/lastmile_qr_scan", "ios": "https://dc.lft.to/lastmile_qr_scan"}, "lat": 38.90132333333333, "bike_id": "cf5cecc3f72d626309cf00fa83c250b9", "is_disabled": 0, "lon": -77.04182866666666, "is_reserved": 0, "fusion_lat": 0.0, "type": "electric_scooter"}, {"fusion_lon": 0.0, "name": "192f640611e8d30987352b454addd349", "rental_uris": {"android": "https://dc.lft.to/lastmile_qr_scan", "ios": "https://dc.lft.to/lastmile_qr_scan"}, "lat": 38.904283, "bike_id": "192f640611e8d30987352b454addd349", "is_disabled": 0, "lon": -77.04350633333334, "is_reserved": 0, "fusion_lat": 0.0, "type": "electric_scooter"}, {"fusion_lon": 0.0, "name": "9619129309320c862a01e309653ab6b4", "rental_uris": {"android": "https://dc.lft.to/lastmile_qr_scan", "ios": "https://dc.lft.to/lastmile_qr_scan"}, "lat": 38.898815666666664, "bike_id": "9619129309320c862a01e309653ab6b4", "is_disabled": 0, "lon": -77.0218345, "is_reserved": 0, "fusion_lat": 0.0, "type": "electric_scooter"}, {"fusion_lon": 0.0, "name": "3f99dd000b6a8ec307ac73d819ca294b", "rental_uris": {"android": "https://dc.lft.to/lastmile_qr_scan", "ios": "https://dc.lft.to/lastmile_qr_scan"}, "lat": 38.87688833333333, "bike_id": "3f99dd000b6a8ec307ac73d819ca294b", "is_disabled": 0, "lon": -77.00056333333333, "is_reserved": 0, "fusion_lat": 0.0, "type": "electric_scooter"}, {"fusion_lon": 0.0, "name": "6174f776a8992656bcced9d4b169e664", "rental_uris": {"android": "https://dc.lft.to/lastmile_qr_scan", "ios": "https://dc.lft.to/lastmile_qr_scan"}, "lat": 38.9016315, "bike_id": "6174f776a8992656bcced9d4b169e664", "is_disabled": 0, "lon": -77.02174633333334, "is_reserved": 0, "fusion_lat": 0.0, "type": "electric_scooter"}, {"fusion_lon": 0.0, "name": "57384e996b025bb4ede1863d49fd08a4", "rental_uris": {"android": "https://dc.lft.to/lastmile_qr_scan", "ios": "https://dc.lft.to/lastmile_qr_scan"}, "lat": 38.88965566666667, "bike_id": "57384e996b025bb4ede1863d49fd08a4", "is_disabled": 0, "lon": -76.92739183333333, "is_reserved": 0, "fusion_lat": 0.0, "type": "electric_scooter"}, {"fusion_lon": 0.0, "name": "2f1f65ada7bf6eee5eb77cb1f2fac132", "rental_uris": {"android": "https://dc.lft.to/lastmile_qr_scan", "ios": "https://dc.lft.to/lastmile_qr_scan"}, "lat": 38.918047333333334, "bike_id": "2f1f65ada7bf6eee5eb77cb1f2fac132", "is_disabled": 0, "lon": -77.033337, "is_reserved": 0, "fusion_lat": 0.0, "type": "electric_scooter"}, {"fusion_lon": 0.0, "name": "5beedac269893bdb57880bf2c5761a43", "rental_uris": {"android": "https://dc.lft.to/lastmile_qr_scan", "ios": "https://dc.lft.to/lastmile_qr_scan"}, "lat": 38.918593666666666, "bike_id": "5beedac269893bdb57880bf2c5761a43", "is_disabled": 0, "lon": -77.04479783333333, "is_reserved": 0, "fusion_lat": 0.0, "type": "electric_scooter"}, {"fusion_lon": 0.0, "name": "a82d0f5607d721b955f2f850749b8e5b", "rental_uris": {"android": "https://dc.lft.to/lastmile_qr_scan", "ios": "https://dc.lft.to/lastmile_qr_scan"}, "lat": 38.91422983333333, "bike_id": "a82d0f5607d721b955f2f850749b8e5b", "is_disabled": 0, "lon": -77.03190933333333, "is_reserved": 0, "fusion_lat": 0.0, "type": "electric_scooter"}, {"fusion_lon": 0.0, "name": "99b69dd29db003c5898c4b81e3a74f2f", "rental_uris": {"android": "https://dc.lft.to/lastmile_qr_scan", "ios": "https://dc.lft.to/lastmile_qr_scan"}, "lat": 38.914170666666664, "bike_id": "99b69dd29db003c5898c4b81e3a74f2f", "is_disabled": 0, "lon": -77.0179925, "is_reserved": 0, "fusion_lat": 0.0, "type": "electric_scooter"}, {"fusion_lon": 0.0, "name": "930716fe7653165b052aa0b53e3bf482", "rental_uris": {"android": "https://dc.lft.to/lastmile_qr_scan", "ios": "https://dc.lft.to/lastmile_qr_scan"}, "lat": 38.92133833333333, "bike_id": "930716fe7653165b052aa0b53e3bf482", "is_disabled": 0, "lon": -77.04381283333333, "is_reserved": 0, "fusion_lat": 0.0, "type": "electric_scooter"}, {"fusion_lon": 0.0, "name": "bebe55698d69be9addda8197d5c10b24", "rental_uris": {"android": "https://dc.lft.to/lastmile_qr_scan", "ios": "https://dc.lft.to/lastmile_qr_scan"}, "lat": 38.916798, "bike_id": "bebe55698d69be9addda8197d5c10b24", "is_disabled": 0, "lon": -77.02797233333334, "is_reserved": 0, "fusion_lat": 0.0, "type": "electric_scooter"}, {"fusion_lon": 0.0, "name": "8423612359bbcb5d728bedcf333e6bec", "rental_uris": {"android": "https://dc.lft.to/lastmile_qr_scan", "ios": "https://dc.lft.to/lastmile_qr_scan"}, "lat": 38.8812545, "bike_id": "8423612359bbcb5d728bedcf333e6bec", "is_disabled": 0, "lon": -77.01691166666667, "is_reserved": 0, "fusion_lat": 0.0, "type": "electric_bike"}, {"fusion_lon": 0.0, "name": "2368920b152b2db1156959e726da73f8", "rental_uris": {"android": "https://dc.lft.to/lastmile_qr_scan", "ios": "https://dc.lft.to/lastmile_qr_scan"}, "lat": 38.884706333333334, "bike_id": "2368920b152b2db1156959e726da73f8", "is_disabled": 0, "lon": -76.92606733333334, "is_reserved": 0, "fusion_lat": 0.0, "type": "electric_scooter"}, {"fusion_lon": 0.0, "name": "bd233070eb912acbb70715e86f362f85", "rental_uris": {"android": "https://dc.lft.to/lastmile_qr_scan", "ios": "https://dc.lft.to/lastmile_qr_scan"}, "lat": 38.901922666666664, "bike_id": "bd233070eb912acbb70715e86f362f85", "is_disabled": 0, "lon": -77.01232933333333, "is_reserved": 0, "fusion_lat": 0.0, "type": "electric_scooter"}, {"fusion_lon": 0.0, "name": "98c0cdbd7e58edd808369591af617754", "rental_uris": {"android": "https://dc.lft.to/lastmile_qr_scan", "ios": "https://dc.lft.to/lastmile_qr_scan"}, "lat": 38.90168216666667, "bike_id": "98c0cdbd7e58edd808369591af617754", "is_disabled": 0, "lon": -76.94979333333333, "is_reserved": 0, "fusion_lat": 0.0, "type": "electric_scooter"}, {"fusion_lon": 0.0, "name": "35804750996cdeeddae94d8cca9fc04c", "rental_uris": {"android": "https://dc.lft.to/lastmile_qr_scan", "ios": "https://dc.lft.to/lastmile_qr_scan"}, "lat": 38.920166, "bike_id": "35804750996cdeeddae94d8cca9fc04c", "is_disabled": 0, "lon": -77.02186533333334, "is_reserved": 0, "fusion_lat": 0.0, "type": "electric_scooter"}, {"fusion_lon": 0.0, "name": "31987d7c952bb01509e44aefe61705d0", "rental_uris": {"android": "https://dc.lft.to/lastmile_qr_scan", "ios": "https://dc.lft.to/lastmile_qr_scan"}, "lat": 38.928296, "bike_id": "31987d7c952bb01509e44aefe61705d0", "is_disabled": 0, "lon": -77.02332583333333, "is_reserved": 0, "fusion_lat": 0.0, "type": "electric_scooter"}, {"fusion_lon": 0.0, "name": "21c297b259e26129978a1a84b947d696", "rental_uris": {"android": "https://dc.lft.to/lastmile_qr_scan", "ios": "https://dc.lft.to/lastmile_qr_scan"}, "lat": 38.9319545, "bike_id": "21c297b259e26129978a1a84b947d696", "is_disabled": 0, "lon": -77.02822466666667, "is_reserved": 0, "fusion_lat": 0.0, "type": "electric_scooter"}, {"fusion_lon": 0.0, "name": "bd7a894f0d10b2c10e170126cae577a5", "rental_uris": {"android": "https://dc.lft.to/lastmile_qr_scan", "ios": "https://dc.lft.to/lastmile_qr_scan"}, "lat": 38.8922175, "bike_id": "bd7a894f0d10b2c10e170126cae577a5", "is_disabled": 0, "lon": -77.02160966666666, "is_reserved": 0, "fusion_lat": 0.0, "type": "electric_scooter"}, {"fusion_lon": 0.0, "name": "2f7f0fc7b4ca51fb4854ea471d6d477c", "rental_uris": {"android": "https://dc.lft.to/lastmile_qr_scan", "ios": "https://dc.lft.to/lastmile_qr_scan"}, "lat": 38.90232833333334, "bike_id": "2f7f0fc7b4ca51fb4854ea471d6d477c", "is_disabled": 0, "lon": -77.04618433333333, "is_reserved": 0, "fusion_lat": 0.0, "type": "electric_scooter"}, {"fusion_lon": 0.0, "name": "55e22da5bc5749499780ef659261fd0c", "rental_uris": {"android": "https://dc.lft.to/lastmile_qr_scan", "ios": "https://dc.lft.to/lastmile_qr_scan"}, "lat": 38.922124833333335, "bike_id": "55e22da5bc5749499780ef659261fd0c", "is_disabled": 0, "lon": -77.02658233333334, "is_reserved": 0, "fusion_lat": 0.0, "type": "electric_scooter"}, {"fusion_lon": 0.0, "name": "0e9af7aaff85845dd842d265460f24cf", "rental_uris": {"android": "https://dc.lft.to/lastmile_qr_scan", "ios": "https://dc.lft.to/lastmile_qr_scan"}, "lat": 38.91818, "bike_id": "0e9af7aaff85845dd842d265460f24cf", "is_disabled": 0, "lon": -77.036615, "is_reserved": 0, "fusion_lat": 0.0, "type": "electric_scooter"}, {"fusion_lon": 0.0, "name": "bd6c088286a481f3735ae1d77f82c0b4", "rental_uris": {"android": "https://dc.lft.to/lastmile_qr_scan", "ios": "https://dc.lft.to/lastmile_qr_scan"}, "lat": 38.923946666666666, "bike_id": "bd6c088286a481f3735ae1d77f82c0b4", "is_disabled": 0, "lon": -76.99412216666667, "is_reserved": 0, "fusion_lat": 0.0, "type": "electric_scooter"}, {"fusion_lon": 0.0, "name": "643d1828b50eaff7114ea3dcab31ea5c", "rental_uris": {"android": "https://dc.lft.to/lastmile_qr_scan", "ios": "https://dc.lft.to/lastmile_qr_scan"}, "lat": 38.900271000000004, "bike_id": "643d1828b50eaff7114ea3dcab31ea5c", "is_disabled": 0, "lon": -76.998565, "is_reserved": 0, "fusion_lat": 0.0, "type": "electric_scooter"}, {"fusion_lon": 0.0, "name": "21e4f342b8fa3c7c54600a7645aedbec", "rental_uris": {"android": "https://dc.lft.to/lastmile_qr_scan", "ios": "https://dc.lft.to/lastmile_qr_scan"}, "lat": 38.925126166666665, "bike_id": "21e4f342b8fa3c7c54600a7645aedbec", "is_disabled": 0, "lon": -77.02289016666667, "is_reserved": 0, "fusion_lat": 0.0, "type": "electric_scooter"}, {"fusion_lon": 0.0, "name": "29cda2a399c44c4a4d002a00d1b7f5b8", "rental_uris": {"android": "https://dc.lft.to/lastmile_qr_scan", "ios": "https://dc.lft.to/lastmile_qr_scan"}, "lat": 38.912663, "bike_id": "29cda2a399c44c4a4d002a00d1b7f5b8", "is_disabled": 0, "lon": -77.03205283333334, "is_reserved": 0, "fusion_lat": 0.0, "type": "electric_scooter"}, {"fusion_lon": 0.0, "name": "8ca3c42e6190bbf23b8cfec50be62f2a", "rental_uris": {"android": "https://dc.lft.to/lastmile_qr_scan", "ios": "https://dc.lft.to/lastmile_qr_scan"}, "lat": 38.923958166666665, "bike_id": "8ca3c42e6190bbf23b8cfec50be62f2a", "is_disabled": 0, "lon": -77.02044733333334, "is_reserved": 0, "fusion_lat": 0.0, "type": "electric_scooter"}, {"fusion_lon": 0.0, "name": "7f1c4197286fe17ba5fd653b2ef9d960", "rental_uris": {"android": "https://dc.lft.to/lastmile_qr_scan", "ios": "https://dc.lft.to/lastmile_qr_scan"}, "lat": 38.9086665, "bike_id": "7f1c4197286fe17ba5fd653b2ef9d960", "is_disabled": 0, "lon": -77.03226183333334, "is_reserved": 0, "fusion_lat": 0.0, "type": "electric_scooter"}, {"fusion_lon": 0.0, "name": "b91e66036d5f497ea930626c2f8a8392", "rental_uris": {"android": "https://dc.lft.to/lastmile_qr_scan", "ios": "https://dc.lft.to/lastmile_qr_scan"}, "lat": 38.84909666666667, "bike_id": "b91e66036d5f497ea930626c2f8a8392", "is_disabled": 0, "lon": -77.07809633333333, "is_reserved": 0, "fusion_lat": 0.0, "type": "electric_bike"}, {"fusion_lon": 0.0, "name": "e419e54d172769637e18c3ad57686493", "rental_uris": {"android": "https://dc.lft.to/lastmile_qr_scan", "ios": "https://dc.lft.to/lastmile_qr_scan"}, "lat": 38.907899666666665, "bike_id": "e419e54d172769637e18c3ad57686493", "is_disabled": 0, "lon": -76.99420866666667, "is_reserved": 0, "fusion_lat": 0.0, "type": "electric_scooter"}, {"fusion_lon": 0.0, "name": "472c17e34cbc56bde57d02f2da60247c", "rental_uris": {"android": "https://dc.lft.to/lastmile_qr_scan", "ios": "https://dc.lft.to/lastmile_qr_scan"}, "lat": 38.90034566666667, "bike_id": "472c17e34cbc56bde57d02f2da60247c", "is_disabled": 0, "lon": -77.01757183333334, "is_reserved": 0, "fusion_lat": 0.0, "type": "electric_scooter"}, {"fusion_lon": 0.0, "name": "ed785060ed712fb20b61e8ad1c7e4dde", "rental_uris": {"android": "https://dc.lft.to/lastmile_qr_scan", "ios": "https://dc.lft.to/lastmile_qr_scan"}, "lat": 38.9041125, "bike_id": "ed785060ed712fb20b61e8ad1c7e4dde", "is_disabled": 0, "lon": -77.01840533333333, "is_reserved": 0, "fusion_lat": 0.0, "type": "electric_scooter"}, {"fusion_lon": 0.0, "name": "8345af7089e8599b65111cf2cc4e2771", "rental_uris": {"android": "https://dc.lft.to/lastmile_qr_scan", "ios": "https://dc.lft.to/lastmile_qr_scan"}, "lat": 38.946512, "bike_id": "8345af7089e8599b65111cf2cc4e2771", "is_disabled": 0, "lon": -77.06478416666667, "is_reserved": 0, "fusion_lat": 0.0, "type": "electric_scooter"}, {"fusion_lon": 0.0, "name": "cecae14f8d8c2a7af2d45a28c3607832", "rental_uris": {"android": "https://dc.lft.to/lastmile_qr_scan", "ios": "https://dc.lft.to/lastmile_qr_scan"}, "lat": 38.91932383333334, "bike_id": "cecae14f8d8c2a7af2d45a28c3607832", "is_disabled": 0, "lon": -77.04621566666667, "is_reserved": 0, "fusion_lat": 0.0, "type": "electric_scooter"}, {"fusion_lon": 0.0, "name": "87de44ffde5da1d488a77c0366f34b0c", "rental_uris": {"android": "https://dc.lft.to/lastmile_qr_scan", "ios": "https://dc.lft.to/lastmile_qr_scan"}, "lat": 38.91561383333333, "bike_id": "87de44ffde5da1d488a77c0366f34b0c", "is_disabled": 0, "lon": -77.00699333333333, "is_reserved": 0, "fusion_lat": 0.0, "type": "electric_scooter"}, {"fusion_lon": 0.0, "name": "43eea1cad60192f57a8a8740f97db952", "rental_uris": {"android": "https://dc.lft.to/lastmile_qr_scan", "ios": "https://dc.lft.to/lastmile_qr_scan"}, "lat": 38.904338333333335, "bike_id": "43eea1cad60192f57a8a8740f97db952", "is_disabled": 0, "lon": -77.028454, "is_reserved": 0, "fusion_lat": 0.0, "type": "electric_scooter"}, {"fusion_lon": 0.0, "name": "87bff9463273a6907cb6446716cb0f39", "rental_uris": {"android": "https://dc.lft.to/lastmile_qr_scan", "ios": "https://dc.lft.to/lastmile_qr_scan"}, "lat": 39.0077945, "bike_id": "87bff9463273a6907cb6446716cb0f39", "is_disabled": 0, "lon": -76.88990033333333, "is_reserved": 0, "fusion_lat": 0.0, "type": "electric_bike"}, {"fusion_lon": 0.0, "name": "10e48ad7fdc07547d7e8b5ed3545608c", "rental_uris": {"android": "https://dc.lft.to/lastmile_qr_scan", "ios": "https://dc.lft.to/lastmile_qr_scan"}, "lat": 39.007154166666666, "bike_id": "10e48ad7fdc07547d7e8b5ed3545608c", "is_disabled": 0, "lon": -76.98150583333333, "is_reserved": 0, "fusion_lat": 0.0, "type": "electric_bike"}, {"fusion_lon": 0.0, "name": "88b1e5831bae7d635ef8659c0943862a", "rental_uris": {"android": "https://dc.lft.to/lastmile_qr_scan", "ios": "https://dc.lft.to/lastmile_qr_scan"}, "lat": 38.9223685, "bike_id": "88b1e5831bae7d635ef8659c0943862a", "is_disabled": 0, "lon": -77.02849483333334, "is_reserved": 0, "fusion_lat": 0.0, "type": "electric_scooter"}, {"fusion_lon": 0.0, "name": "09b4b0390f90538805963978ee539344", "rental_uris": {"android": "https://dc.lft.to/lastmile_qr_scan", "ios": "https://dc.lft.to/lastmile_qr_scan"}, "lat": 38.92642383333333, "bike_id": "09b4b0390f90538805963978ee539344", "is_disabled": 0, "lon": -77.02506766666667, "is_reserved": 0, "fusion_lat": 0.0, "type": "electric_scooter"}, {"fusion_lon": 0.0, "name": "8a4e51bf6c893a0c0ae04fbd48e0fe1a", "rental_uris": {"android": "https://dc.lft.to/lastmile_qr_scan", "ios": "https://dc.lft.to/lastmile_qr_scan"}, "lat": 38.876977833333335, "bike_id": "8a4e51bf6c893a0c0ae04fbd48e0fe1a", "is_disabled": 0, "lon": -77.01662766666666, "is_reserved": 0, "fusion_lat": 0.0, "type": "electric_scooter"}, {"fusion_lon": 0.0, "name": "a1b185d09e1171a0dbf10172db4029f8", "rental_uris": {"android": "https://dc.lft.to/lastmile_qr_scan", "ios": "https://dc.lft.to/lastmile_qr_scan"}, "lat": 38.916516, "bike_id": "a1b185d09e1171a0dbf10172db4029f8", "is_disabled": 0, "lon": -77.0296635, "is_reserved": 0, "fusion_lat": 0.0, "type": "electric_scooter"}, {"fusion_lon": 0.0, "name": "de89cba2f1d7a7aa0a2acb0f2483c0a8", "rental_uris": {"android": "https://dc.lft.to/lastmile_qr_scan", "ios": "https://dc.lft.to/lastmile_qr_scan"}, "lat": 38.91540166666667, "bike_id": "de89cba2f1d7a7aa0a2acb0f2483c0a8", "is_disabled": 0, "lon": -77.04473183333333, "is_reserved": 0, "fusion_lat": 0.0, "type": "electric_scooter"}, {"fusion_lon": 0.0, "name": "32ad09a6b631a1547e1d69b9873cc411", "rental_uris": {"android": "https://dc.lft.to/lastmile_qr_scan", "ios": "https://dc.lft.to/lastmile_qr_scan"}, "lat": 38.928617, "bike_id": "32ad09a6b631a1547e1d69b9873cc411", "is_disabled": 0, "lon": -77.0287495, "is_reserved": 0, "fusion_lat": 0.0, "type": "electric_scooter"}, {"fusion_lon": 0.0, "name": "25f0f6d6d763676df159003a8fafb38a", "rental_uris": {"android": "https://dc.lft.to/lastmile_qr_scan", "ios": "https://dc.lft.to/lastmile_qr_scan"}, "lat": 38.94730583333333, "bike_id": "25f0f6d6d763676df159003a8fafb38a", "is_disabled": 0, "lon": -77.065456, "is_reserved": 0, "fusion_lat": 0.0, "type": "electric_scooter"}, {"fusion_lon": 0.0, "name": "e86fbd4466785a2ca90e2fb730363803", "rental_uris": {"android": "https://dc.lft.to/lastmile_qr_scan", "ios": "https://dc.lft.to/lastmile_qr_scan"}, "lat": 38.90022616666667, "bike_id": "e86fbd4466785a2ca90e2fb730363803", "is_disabled": 0, "lon": -77.04114566666667, "is_reserved": 0, "fusion_lat": 0.0, "type": "electric_scooter"}, {"fusion_lon": 0.0, "name": "6f00fd2ec6cf9919e394f9309de61763", "rental_uris": {"android": "https://dc.lft.to/lastmile_qr_scan", "ios": "https://dc.lft.to/lastmile_qr_scan"}, "lat": 38.9303335, "bike_id": "6f00fd2ec6cf9919e394f9309de61763", "is_disabled": 0, "lon": -77.02967083333333, "is_reserved": 0, "fusion_lat": 0.0, "type": "electric_scooter"}, {"fusion_lon": 0.0, "name": "dcdc377895cfc967a9d8ec8f0aab96e9", "rental_uris": {"android": "https://dc.lft.to/lastmile_qr_scan", "ios": "https://dc.lft.to/lastmile_qr_scan"}, "lat": 38.9296435, "bike_id": "dcdc377895cfc967a9d8ec8f0aab96e9", "is_disabled": 0, "lon": -77.04200383333334, "is_reserved": 0, "fusion_lat": 0.0, "type": "electric_scooter"}, {"fusion_lon": 0.0, "name": "4f5131b7f611a2ee89f7ee6e16d0bcba", "rental_uris": {"android": "https://dc.lft.to/lastmile_qr_scan", "ios": "https://dc.lft.to/lastmile_qr_scan"}, "lat": 38.920932666666666, "bike_id": "4f5131b7f611a2ee89f7ee6e16d0bcba", "is_disabled": 0, "lon": -77.02393166666667, "is_reserved": 0, "fusion_lat": 0.0, "type": "electric_scooter"}, {"fusion_lon": 0.0, "name": "5acd036bf54f5de6221d7e69270230f3", "rental_uris": {"android": "https://dc.lft.to/lastmile_qr_scan", "ios": "https://dc.lft.to/lastmile_qr_scan"}, "lat": 38.907596, "bike_id": "5acd036bf54f5de6221d7e69270230f3", "is_disabled": 0, "lon": -77.0357585, "is_reserved": 0, "fusion_lat": 0.0, "type": "electric_scooter"}, {"fusion_lon": 0.0, "name": "5c63497e4396bc5b90a6da904c6d6d23", "rental_uris": {"android": "https://dc.lft.to/lastmile_qr_scan", "ios": "https://dc.lft.to/lastmile_qr_scan"}, "lat": 38.90697633333333, "bike_id": "5c63497e4396bc5b90a6da904c6d6d23", "is_disabled": 0, "lon": -77.036042, "is_reserved": 0, "fusion_lat": 0.0, "type": "electric_scooter"},