{"data": {"bikes": [{"fusion_lat": 0.0, "name": "91fd2f848c742caed30b0345a57c3203", "is_disabled": 0, "rental_uris": {"android": "https://dc.lft.to/lastmile_qr_scan", "ios": "https://dc.lft.to/lastmile_qr_scan"}, "fusion_lon": 0.0, "lat": 38.92403766666666, "bike_id": "91fd2f848c742caed30b0345a57c3203", "type": "electric_scooter", "is_reserved": 0, "lon": -77.05172966666666}, {"fusion_lat": 0.0, "name": "a51a117d109fb35bd120286f68505814", "is_disabled": 0, "rental_uris": {"android": "https://dc.lft.to/lastmile_qr_scan", "ios": "https://dc.lft.to/lastmile_qr_scan"}, "fusion_lon": 0.0, "lat": 38.915509166666666, "bike_id": "a51a117d109fb35bd120286f68505814", "type": "electric_scooter", "is_reserved": 0, "lon": -77.029869}, {"fusion_lat": 0.0, "name": "71bf984878e80866908aeb3114b400c9", "is_disabled": 0, "rental_uris": {"android": "https://dc.lft.to/lastmile_qr_scan", "ios": "https://dc.lft.to/lastmile_qr_scan"}, "fusion_lon": 0.0, "lat": 38.92308383333334, "bike_id": "71bf984878e80866908aeb3114b400c9", "type": "electric_scooter", "is_reserved": 0, "lon": -77.0414825}, {"fusion_lat": 0.0, "name": "37dba39f48166436b132e65a2eb73b10", "is_disabled": 0, "rental_uris": {"android": "https://dc.lft.to/lastmile_qr_scan", "ios": "https://dc.lft.to/lastmile_qr_scan"}, "fusion_lon": 0.0, "lat": 38.90855216666667, "bike_id": "37dba39f48166436b132e65a2eb73b10", "type": "electric_scooter", "is_reserved": 0, "lon": -76.99765783333334}, {"fusion_lat": 0.0, "name": "f742cc6ffbcc2b8a7d9393497e4cb587", "is_disabled": 0, "rental_uris": {"android": "https://dc.lft.to/lastmile_qr_scan", "ios": "https://dc.lft.to/lastmile_qr_scan"}, "fusion_lon": 0.0, "lat": 38.91710066666667, "bike_id": "f742cc6ffbcc2b8a7d9393497e4cb587", "type": "electric_scooter", "is_reserved": 0, "lon": -77.02434033333333}, {"fusion_lat": 0.0, "name": "7161b5a3d26e8bdedee0ef6e2f756e53", "is_disabled": 0, "rental_uris": {"android": "https://dc.lft.to/lastmile_qr_scan", "ios": "https://dc.lft.to/lastmile_qr_scan"}, "fusion_lon": 0.0, "lat": 38.914116, "bike_id": "7161b5a3d26e8bdedee0ef6e2f756e53", "type": "electric_scooter", "is_reserved": 0, "lon": -77.02818316666666}, {"fusion_lat": 0.0, "name": "ef323e92445b34a5264a39cc1e32a7f5", "is_disabled": 0, "rental_uris": {"android": "https://dc.lft.to/lastmile_qr_scan", "ios": "https://dc.lft.to/lastmile_qr_scan"}, "fusion_lon": 0.0, "lat": 38.901480166666666, "bike_id": "ef323e92445b34a5264a39cc1e32a7f5", "type": "electric_scooter", "is_reserved": 0, "lon": -76.93068116666667}, {"fusion_lat": 0.0, "name": "61cd4cc8ea387f5856d8e913088b85b0", "is_disabled": 0, "rental_uris": {"android": "https://dc.lft.to/lastmile_qr_scan", "ios": "https://dc.lft.to/lastmile_qr_scan"}, "fusion_lon": 0.0, "lat": 38.919533666666666, "bike_id": "61cd4cc8ea387f5856d8e913088b85b0", "type": "electric_scooter", "is_reserved": 0, "lon": -77.02385316666667}, {"fusion_lat": 0.0, "name": "4510aebd5805a68ac26c163572de9edf", "is_disabled": 0, "rental_uris": {"android": "https://dc.lft.to/lastmile_qr_scan", "ios": "https://dc.lft.to/lastmile_qr_scan"}, "fusion_lon": 0.0, "lat": 38.922341, "bike_id": "4510aebd5805a68ac26c163572de9edf", "type": "electric_scooter", "is_reserved": 0, "lon": -77.042492}, {"fusion_lat": 0.0, "name": "25324cad90272f1b87074e408433abbb", "is_disabled": 0, "rental_uris": {"android": "https://dc.lft.to/lastmile_qr_scan", "ios": "https://dc.lft.to/lastmile_qr_scan"}, "fusion_lon": 0.0, "lat": 38.8986015, "bike_id": "25324cad90272f1b87074e408433abbb", "type": "electric_bike", "is_reserved": 0, "lon": -77.01539566666666}, {"fusion_lat": 0.0, "name": "94c494f78d24c9743128a09b14d23515", "is_disabled": 0, "rental_uris": {"android": "https://dc.lft.to/lastmile_qr_scan", "ios": "https://dc.lft.to/lastmile_qr_scan"}, "fusion_lon": 0.0, "lat": 38.92859116666666, "bike_id": "94c494f78d24c9743128a09b14d23515", "type": "electric_scooter", "is_reserved": 0, "lon": -77.034466}, {"fusion_lat": 0.0, "name": "f81c2ab1d23d417f3b7353a956cf59ae", "is_disabled": 0, "rental_uris": {"android": "https://dc.lft.to/lastmile_qr_scan", "ios": "https://dc.lft.to/lastmile_qr_scan"}, "fusion_lon": 0.0, "lat": 38.90682366666667, "bike_id": "f81c2ab1d23d417f3b7353a956cf59ae", "type": "electric_bike", "is_reserved": 0, "lon": -76.94497233333334}, {"fusion_lat": 0.0, "name": "2d05f98751b5f23a418787520102694b", "is_disabled": 0, "rental_uris": {"android": "https://dc.lft.to/lastmile_qr_scan", "ios": "https://dc.lft.to/lastmile_qr_scan"}, "fusion_lon": 0.0, "lat": 38.897271833333335, "bike_id": "2d05f98751b5f23a418787520102694b", "type": "electric_scooter", "is_reserved": 0, "lon": -77.02764766666667}, {"fusion_lat": 0.0, "name": "f439afadd9b4bf7759fc2cafb8964bb9", "is_disabled": 0, "rental_uris": {"android": "https://dc.lft.to/lastmile_qr_scan", "ios": "https://dc.lft.to/lastmile_qr_scan"}, "fusion_lon": 0.0, "lat": 38.9300355, "bike_id": "f439afadd9b4bf7759fc2cafb8964bb9", "type": "electric_scooter", "is_reserved": 0, "lon": -77.0553355}, {"fusion_lat": 0.0, "name": "2db0d81c7f6365b6a4ca552c1527f1c1", "is_disabled": 0, "rental_uris": {"android": "https://dc.lft.to/lastmile_qr_scan", "ios": "https://dc.lft.to/lastmile_qr_scan"}, "fusion_lon": 0.0, "lat": 38.90116583333333, "bike_id": "2db0d81c7f6365b6a4ca552c1527f1c1", "type": "electric_scooter", "is_reserved": 0, "lon": -77.00218383333333}, {"fusion_lat": 0.0, "name": "ebfe7fa118d711307303d6a2b8f890a2", "is_disabled": 0, "rental_uris": {"android": "https://dc.lft.to/lastmile_qr_scan", "ios": "https://dc.lft.to/lastmile_qr_scan"}, "fusion_lon": 0.0, "lat": 38.909829, "bike_id": "ebfe7fa118d711307303d6a2b8f890a2", "type": "electric_scooter", "is_reserved": 0, "lon": -77.04670316666666}, {"fusion_lat": 0.0, "name": "c88120fa342922add48d0ce7a6d918ac", "is_disabled": 0, "rental_uris": {"android": "https://dc.lft.to/lastmile_qr_scan", "ios": "https://dc.lft.to/lastmile_qr_scan"}, "fusion_lon": 0.0, "lat": 38.911240666666664, "bike_id": "c88120fa342922add48d0ce7a6d918ac", "type": "electric_scooter", "is_reserved": 0, "lon": -77.0319115}, {"fusion_lat": 0.0, "name": "45275ea4e1afb0d908d151ba2901a7bc", "is_disabled": 0, "rental_uris": {"android": "https://dc.lft.to/lastmile_qr_scan", "ios": "https://dc.lft.to/lastmile_qr_scan"}, "fusion_lon": 0.0, "lat": 38.9054175, "bike_id": "45275ea4e1afb0d908d151ba2901a7bc", "type": "electric_scooter", "is_reserved": 0, "lon": -77.0466915}, {"fusion_lat": 0.0, "name": "c0824c9033cdaf466bd44dbbc77372c0", "is_disabled": 0, "rental_uris": {"android": "https://dc.lft.to/lastmile_qr_scan", "ios": "https://dc.lft.to/lastmile_qr_scan"}, "fusion_lon": 0.0, "lat": 38.9385965, "bike_id": "c0824c9033cdaf466bd44dbbc77372c0", "type": "electric_scooter", "is_reserved": 0, "lon": -77.03438316666667}, {"fusion_lat": 0.0, "name": "b2cb419950849e2eff3a7912e87f21a2", "is_disabled": 0, "rental_uris": {"android": "https://dc.lft.to/lastmile_qr_scan", "ios": "https://dc.lft.to/lastmile_qr_scan"}, "fusion_lon": 0.0, "lat": 38.90465233333333, "bike_id": "b2cb419950849e2eff3a7912e87f21a2", "type": "electric_scooter", "is_reserved": 0, "lon": -77.048654}, {"fusion_lat": 0.0, "name": "37cc5bed5337c940b0186845e0cc0c9a", "is_disabled": 0, "rental_uris": {"android": "https://dc.lft.to/lastmile_qr_scan", "ios": "https://dc.lft.to/lastmile_qr_scan"}, "fusion_lon": 0.0, "lat": 38.916872, "bike_id": "37cc5bed5337c940b0186845e0cc0c9a", "type": "electric_scooter", "is_reserved": 0, "lon": -77.03391466666666}, {"fusion_lat": 0.0, "name": "de3803e73a7e8e2f3a4264f15cac937a", "is_disabled": 0, "rental_uris": {"android": "https://dc.lft.to/lastmile_qr_scan", "ios": "https://dc.lft.to/lastmile_qr_scan"}, "fusion_lon": 0.0, "lat": 38.8990955, "bike_id": "de3803e73a7e8e2f3a4264f15cac937a", "type": "electric_scooter", "is_reserved": 0, "lon": -76.9334995}, {"fusion_lat": 0.0, "name": "65a9d5cfc35af676942e056e8178cfcb", "is_disabled": 0, "rental_uris": {"android": "https://dc.lft.to/lastmile_qr_scan", "ios": "https://dc.lft.to/lastmile_qr_scan"}, "fusion_lon": 0.0, "lat": 38.93419133333333, "bike_id": "65a9d5cfc35af676942e056e8178cfcb", "type": "electric_scooter", "is_reserved": 0, "lon": -77.0416215}, {"fusion_lat": 0.0, "name": "f0e8c7c49546e9432c8b665b1e60260a", "is_disabled": 0, "rental_uris": {"android": "https://dc.lft.to/lastmile_qr_scan", "ios": "https://dc.lft.to/lastmile_qr_scan"}, "fusion_lon": 0.0, "lat": 38.89672, "bike_id": "f0e8c7c49546e9432c8b665b1e60260a", "type": "electric_scooter", "is_reserved": 0, "lon": -77.02470683333334}, {"fusion_lat": 0.0, "name": "256dbb3f25c2c042b44de35a22468f5f", "is_disabled": 0, "rental_uris": {"android": "https://dc.lft.to/lastmile_qr_scan", "ios": "https://dc.lft.to/lastmile_qr_scan"}, "fusion_lon": 0.0, "lat": 38.883618, "bike_id": "256dbb3f25c2c042b44de35a22468f5f", "type": "electric_scooter", "is_reserved": 0, "lon": -76.94160966666666}, {"fusion_lat": 0.0, "name": "5b2c16ef9de5c346ae9e8ac6fcd6a388", "is_disabled": 0, "rental_uris": {"android": "https://dc.lft.to/lastmile_qr_scan", "ios": "https://dc.lft.to/lastmile_qr_scan"}, "fusion_lon": 0.0, "lat": 38.920451166666666, "bike_id": "5b2c16ef9de5c346ae9e8ac6fcd6a388", "type": "electric_bike", "is_reserved": 0, "lon": -76.998285}, {"fusion_lat": 0.0, "name": "4bfb097bd181798d3d9cc4eaceb685c8", "is_disabled": 0, "rental_uris": {"android": "https://dc.lft.to/lastmile_qr_scan", "ios": "https://dc.lft.to/lastmile_qr_scan"}, "fusion_lon": 0.0, "lat": 38.90160983333333, "bike_id": "4bfb097bd181798d3d9cc4eaceb685c8", "type": "electric_scooter", "is_reserved": 0, "lon": -77.0591665}, {"fusion_lat": 0.0, "name": "a6b147a2bf3620564fa7c9debe62a0e5", "is_disabled": 0, "rental_uris": {"android": "https://dc.lft.to/lastmile_qr_scan", "ios": "https://dc.lft.to/lastmile_qr_scan"}, "fusion_lon": 0.0, "lat": 38.917074166666666, "bike_id": "a6b147a2bf3620564fa7c9debe62a0e5", "type": "electric_scooter", "is_reserved": 0, "lon": -77.03236383333333}, {"fusion_lat": 0.0, "name": "05f7eeb14e98ddec3178eb2c0b58cb1c", "is_disabled": 0, "rental_uris": {"android": "https://dc.lft.to/lastmile_qr_scan", "ios": "https://dc.lft.to/lastmile_qr_scan"}, "fusion_lon": 0.0, "lat": 38.91576633333333, "bike_id": "05f7eeb14e98ddec3178eb2c0b58cb1c", "type": "electric_scooter", "is_reserved": 0, "lon": -76.98396583333333}, {"fusion_lat": 0.0, "name": "d236bbd0df558c70475c54c429ae2cd4", "is_disabled": 0, "rental_uris": {"android": "https://dc.lft.to/lastmile_qr_scan", "ios": "https://dc.lft.to/lastmile_qr_scan"}, "fusion_lon": 0.0, "lat": 38.90389966666667, "bike_id": "d236bbd0df558c70475c54c429ae2cd4", "type": "electric_scooter", "is_reserved": 0, "lon": -77.03566383333333}, {"fusion_lat": 0.0, "name": "a7f5d1f732a4ff2e2da5437426ef5db5", "is_disabled": 0, "rental_uris": {"android": "https://dc.lft.to/lastmile_qr_scan", "ios": "https://dc.lft.to/lastmile_qr_scan"}, "fusion_lon": 0.0, "lat": 38.945061333333335, "bike_id": "a7f5d1f732a4ff2e2da5437426ef5db5", "type": "electric_scooter", "is_reserved": 0, "lon": -77.03151866666667}, {"fusion_lat": 0.0, "name": "abcc1f3c919cd76e310aa3d34d3d5311", "is_disabled": 0, "rental_uris": {"android": "https://dc.lft.to/lastmile_qr_scan", "ios": "https://dc.lft.to/lastmile_qr_scan"}, "fusion_lon": 0.0, "lat": 38.93129666666667, "bike_id": "abcc1f3c919cd76e310aa3d34d3d5311", "type": "electric_bike", "is_reserved": 0, "lon": -77.01975416666667}, {"fusion_lat": 0.0, "name": "9febeba08d666fdd0d2d74e1d258d0c7", "is_disabled": 0, "rental_uris": {"android": "https://dc.lft.to/lastmile_qr_scan", "ios": "https://dc.lft.to/lastmile_qr_scan"}, "fusion_lon": 0.0, "lat": 38.900364333333336, "bike_id": "9febeba08d666fdd0d2d74e1d258d0c7", "type": "electric_scooter", "is_reserved": 0, "lon": -77.0331325}, {"fusion_lat": 0.0, "name": "1615af5f921e70b619f29a0f2dcaf08c", "is_disabled": 0, "rental_uris": {"android": "https://dc.lft.to/lastmile_qr_scan", "ios": "https://dc.lft.to/lastmile_qr_scan"}, "fusion_lon": 0.0, "lat": 38.84353933333333, "bike_id": "1615af5f921e70b619f29a0f2dcaf08c", "type": "electric_bike", "is_reserved": 0, "lon": -76.97826933333333}, {"fusion_lat": 0.0, "name": "45092aa31a284759b9d877df6ba0af8e", "is_disabled": 0, "rental_uris": {"android": "https://dc.lft.to/lastmile_qr_scan", "ios": "https://dc.lft.to/lastmile_qr_scan"}, "fusion_lon": 0.0, "lat": 38.903882333333335, "bike_id": "45092aa31a284759b9d877df6ba0af8e", "type": "electric_scooter", "is_reserved": 0, "lon": -77.0382955}, {"fusion_lat": 0.0, "name": "6a0d3b4c9c03f54712a1c307847e9b3c", "is_disabled": 0, "rental_uris": {"android": "https://dc.lft.to/lastmile_qr_scan", "ios": "https://dc.lft.to/lastmile_qr_scan"}, "fusion_lon": 0.0, "lat": 38.9234085, "bike_id": "6a0d3b4c9c03f54712a1c307847e9b3c", "type": "electric_scooter", "is_reserved": 0, "lon": -77.05234333333334}, {"fusion_lat": 0.0, "name": "244e9a0c8a7ce67385338f6837dcf078", "is_disabled": 0, "rental_uris": {"android": "https://dc.lft.to/lastmile_qr_scan", "ios": "https://dc.lft.to/lastmile_qr_scan"}, "fusion_lon": 0.0, "lat": 38.907318833333335, "bike_id": "244e9a0c8a7ce67385338f6837dcf078", "type": "electric_scooter", "is_reserved": 0, "lon": -77.0006285}, {"fusion_lat": 0.0, "name": "14537a05ae8bd912f2be837dae389b99", "is_disabled": 0, "rental_uris": {"android": "https://dc.lft.to/lastmile_qr_scan", "ios": "https://dc.lft.to/lastmile_qr_scan"}, "fusion_lon": 0.0, "lat": 38.905471166666665, "bike_id": "14537a05ae8bd912f2be837dae389b99", "type": "electric_scooter", "is_reserved": 0, "lon": -77.032777}, {"fusion_lat": 0.0, "name": "f1b8d40711c06de1dcf3de36e91cfedf", "is_disabled": 0, "rental_uris": {"android": "https://dc.lft.to/lastmile_qr_scan", "ios": "https://dc.lft.to/lastmile_qr_scan"}, "fusion_lon": 0.0, "lat": 38.905467, "bike_id": "f1b8d40711c06de1dcf3de36e91cfedf", "type": "electric_scooter", "is_reserved": 0, "lon": -77.00716316666667}, {"fusion_lat": 0.0, "name": "1fab596fffee59218bd893e60fefb0c4", "is_disabled": 0, "rental_uris": {"android": "https://dc.lft.to/lastmile_qr_scan", "ios": "https://dc.lft.to/lastmile_qr_scan"}, "fusion_lon": 0.0, "lat": 38.91669783333333, "bike_id": "1fab596fffee59218bd893e60fefb0c4", "type": "electric_scooter", "is_reserved": 0, "lon": -77.023865}, {"fusion_lat": 0.0, "name": "fe5a2aa49dd9f397fefd73183dd009dd", "is_disabled": 0, "rental_uris": {"android": "https://dc.lft.to/lastmile_qr_scan", "ios": "https://dc.lft.to/lastmile_qr_scan"}, "fusion_lon": 0.0, "lat": 38.895814666666666, "bike_id": "fe5a2aa49dd9f397fefd73183dd009dd", "type": "electric_scooter", "is_reserved": 0, "lon": -76.98323583333334}, {"fusion_lat": 0.0, "name": "bd16d961c65902f8f0ea2a8dec73b8c0", "is_disabled": 0, "rental_uris": {"android": "https://dc.lft.to/lastmile_qr_scan", "ios": "https://dc.lft.to/lastmile_qr_scan"}, "fusion_lon": 0.0, "lat": 38.92536233333333, "bike_id": "bd16d961c65902f8f0ea2a8dec73b8c0", "type": "electric_scooter", "is_reserved": 0, "lon": -77.034978}, {"fusion_lat": 0.0, "name": "4c855c3a69218781f8576218700d271c", "is_disabled": 0, "rental_uris": {"android": "https://dc.lft.to/lastmile_qr_scan", "ios": "https://dc.lft.to/lastmile_qr_scan"}, "fusion_lon": 0.0, "lat": 38.9300455, "bike_id": "4c855c3a69218781f8576218700d271c", "type": "electric_scooter", "is_reserved": 0, "lon": -77.05547633333333}, {"fusion_lat": 0.0, "name": "7a74505b8fc10ecbd3fd293469e7ca67", "is_disabled": 0, "rental_uris": {"android": "https://dc.lft.to/lastmile_qr_scan", "ios": "https://dc.lft.to/lastmile_qr_scan"}, "fusion_lon": 0.0, "lat": 38.890133166666665, "bike_id": "7a74505b8fc10ecbd3fd293469e7ca67", "type": "electric_scooter", "is_reserved": 0, "lon": -77.015063}, {"fusion_lat": 0.0, "name": "db535dc3f39891b88500c025b98c2d81", "is_disabled": 0, "rental_uris": {"android": "https://dc.lft.to/lastmile_qr_scan", "ios": "https://dc.lft.to/lastmile_qr_scan"}, "fusion_lon": 0.0, "lat": 38.91326816666667, "bike_id": "db535dc3f39891b88500c025b98c2d81", "type": "electric_scooter", "is_reserved": 0, "lon": -77.0198755}, {"fusion_lat": 0.0, "name": "f760859d67d46070877baaff6e73008e", "is_disabled": 0, "rental_uris": {"android": "https://dc.lft.to/lastmile_qr_scan", "ios": "https://dc.lft.to/lastmile_qr_scan"}, "fusion_lon": 0.0, "lat": 38.912075333333334, "bike_id": "f760859d67d46070877baaff6e73008e", "type": "electric_scooter", "is_reserved": 0, "lon": -77.03213866666667}, {"fusion_lat": 0.0, "name": "e5c0db161b27356b950eb15b6b0eb0f4", "is_disabled": 0, "rental_uris": {"android": "https://dc.lft.to/lastmile_qr_scan", "ios": "https://dc.lft.to/lastmile_qr_scan"}, "fusion_lon": 0.0, "lat": 38.893040666666664, "bike_id": "e5c0db161b27356b950eb15b6b0eb0f4", "type": "electric_scooter", "is_reserved": 0, "lon": -77.0488105}, {"fusion_lat": 0.0, "name": "1360fc446a78a9e1b51dc5c13658b820", "is_disabled": 0, "rental_uris": {"android": "https://dc.lft.to/lastmile_qr_scan", "ios": "https://dc.lft.to/lastmile_qr_scan"}, "fusion_lon": 0.0, "lat": 38.934411833333336, "bike_id": "1360fc446a78a9e1b51dc5c13658b820", "type": "electric_scooter", "is_reserved": 0, "lon": -77.03880316666667}, {"fusion_lat": 0.0, "name": "d904cb9ab9a01c784da7eb844d2a1f5f", "is_disabled": 0, "rental_uris": {"android": "https://dc.lft.to/lastmile_qr_scan", "ios": "https://dc.lft.to/lastmile_qr_scan"}, "fusion_lon": 0.0, "lat": 38.89198233333333, "bike_id": "d904cb9ab9a01c784da7eb844d2a1f5f", "type": "electric_scooter", "is_reserved": 0, "lon": -77.043472}, {"fusion_lat": 0.0, "name": "2d2aa31b9a21021dd5747ac5bf461dec", "is_disabled": 0, "rental_uris": {"android": "https://dc.lft.to/lastmile_qr_scan", "ios": "https://dc.lft.to/lastmile_qr_scan"}, "fusion_lon": 0.0, "lat": 38.878732166666666, "bike_id": "2d2aa31b9a21021dd5747ac5bf461dec", "type": "electric_scooter", "is_reserved": 0, "lon": -77.005719}, {"fusion_lat": 0.0, "name": "74725346923e12eb805385305cc86f2e", "is_disabled": 0, "rental_uris": {"android": "https://dc.lft.to/lastmile_qr_scan", "ios": "https://dc.lft.to/lastmile_qr_scan"}, "fusion_lon": 0.0, "lat": 38.913646166666666, "bike_id": "74725346923e12eb805385305cc86f2e", "type": "electric_scooter", "is_reserved": 0, "lon": -77.02048133333334}, {"fusion_lat": 0.0, "name": "9446e5a62a430225e0855b392a152648", "is_disabled": 0, "rental_uris": {"android": "https://dc.lft.to/lastmile_qr_scan", "ios": "https://dc.lft.to/lastmile_qr_scan"}, "fusion_lon": 0.0, "lat": 38.899169, "bike_id": "9446e5a62a430225e0855b392a152648", "type": "electric_scooter", "is_reserved": 0, "lon": -77.02945083333333}, {"fusion_lat": 0.0, "name": "ffacacfe9bd5d144264d736daa680358", "is_disabled": 0, "rental_uris": {"android": "https://dc.lft.to/lastmile_qr_scan", "ios": "https://dc.lft.to/lastmile_qr_scan"}, "fusion_lon": 0.0, "lat": 38.900226833333335, "bike_id": "ffacacfe9bd5d144264d736daa680358", "type": "electric_scooter", "is_reserved": 0, "lon": -77.02619083333333}, {"fusion_lat": 0.0, "name": "2d7948b71ccc3dc4a4abbf6dbb2b0de8", "is_disabled": 0, "rental_uris": {"android": "https://dc.lft.to/lastmile_qr_scan", "ios": "https://dc.lft.to/lastmile_qr_scan"}, "fusion_lon": 0.0, "lat": 38.865491166666665, "bike_id": "2d7948b71ccc3dc4a4abbf6dbb2b0de8", "type": "electric_bike", "is_reserved": 0, "lon": -76.97374066666667}, {"fusion_lat": 0.0, "name": "a816ec414db0a262bb5f5acbf8ffaf34", "is_disabled": 0, "rental_uris": {"android": "https://dc.lft.to/lastmile_qr_scan", "ios": "https://dc.lft.to/lastmile_qr_scan"}, "fusion_lon": 0.0, "lat": 38.9251295, "bike_id": "a816ec414db0a262bb5f5acbf8ffaf34", "type": "electric_scooter", "is_reserved": 0, "lon": -77.0380335}, {"fusion_lat": 0.0, "name": "8f5c4e04941b066fe1d95c66cd002164", "is_disabled": 0, "rental_uris": {"android": "https://dc.lft.to/lastmile_qr_scan", "ios": "https://dc.lft.to/lastmile_qr_scan"}, "fusion_lon": 0.0, "lat": 38.83312266666667, "bike_id": "8f5c4e04941b066fe1d95c66cd002164", "type": "electric_bike", "is_reserved": 0, "lon": -77.041773}, {"fusion_lat": 0.0, "name": "d8312eb9cda3a910e0dd13278bc3488f", "is_disabled": 0, "rental_uris": {"android": "https://dc.lft.to/lastmile_qr_scan", "ios": "https://dc.lft.to/lastmile_qr_scan"}, "fusion_lon": 0.0, "lat": 38.92650166666667, "bike_id": "d8312eb9cda3a910e0dd13278bc3488f", "type": "electric_scooter", "is_reserved": 0, "lon": -77.038421}, {"fusion_lat": 0.0, "name": "57c8418a33b76a4f1b829c7bf4f98336", "is_disabled": 0, "rental_uris": {"android": "https://dc.lft.to/lastmile_qr_scan", "ios": "https://dc.lft.to/lastmile_qr_scan"}, "fusion_lon": 0.0, "lat": 38.900519833333334, "bike_id": "57c8418a33b76a4f1b829c7bf4f98336", "type": "electric_scooter", "is_reserved": 0, "lon": -77.0163385}, {"fusion_lat": 0.0, "name": "269844a2a6e4409ee41fe8744bb7ef1d", "is_disabled": 0, "rental_uris": {"android": "https://dc.lft.to/lastmile_qr_scan", "ios": "https://dc.lft.to/lastmile_qr_scan"}, "fusion_lon": 0.0, "lat": 38.94531466666667, "bike_id": "269844a2a6e4409ee41fe8744bb7ef1d", "type": "electric_scooter", "is_reserved": 0, "lon": -77.01693166666666}, {"fusion_lat": 0.0, "name": "2a520104f83b7020b10cf093e463b532", "is_disabled": 0, "rental_uris": {"android": "https://dc.lft.to/lastmile_qr_scan", "ios": "https://dc.lft.to/lastmile_qr_scan"}, "fusion_lon": 0.0, "lat": 38.935026666666666, "bike_id": "2a520104f83b7020b10cf093e463b532", "type": "electric_scooter", "is_reserved": 0, "lon": -77.03637566666667}, {"fusion_lat": 0.0, "name": "8300c629be9596733f6b115466f1c676", "is_disabled": 0, "rental_uris": {"android": "https://dc.lft.to/lastmile_qr_scan", "ios": "https://dc.lft.to/lastmile_qr_scan"}, "fusion_lon": 0.0, "lat": 38.892115833333335, "bike_id": "8300c629be9596733f6b115466f1c676", "type": "electric_scooter", "is_reserved": 0, "lon": -77.02663166666666}, {"fusion_lat": 0.0, "name": "ff16176831d7f5c5ccb153ca4757b714", "is_disabled": 0, "rental_uris": {"android": "https://dc.lft.to/lastmile_qr_scan", "ios": "https://dc.lft.to/lastmile_qr_scan"}, "fusion_lon": 0.0, "lat": 38.897374166666665, "bike_id": "ff16176831d7f5c5ccb153ca4757b714", "type": "electric_scooter", "is_reserved": 0, "lon": -77.02673833333333}, {"fusion_lat": 0.0, "name": "9b082e0b8736288c2d1f3c5914a2adad", "is_disabled": 0, "rental_uris": {"android": "https://dc.lft.to/lastmile_qr_scan", "ios": "https://dc.lft.to/lastmile_qr_scan"}, "fusion_lon": 0.0, "lat": 38.9288615, "bike_id": "9b082e0b8736288c2d1f3c5914a2adad", "type": "electric_scooter", "is_reserved": 0, "lon": -77.03346566666667}, {"fusion_lat": 0.0, "name": "cfd7de9ac154e66e1212e91a4c177948", "is_disabled": 0, "rental_uris": {"android": "https://dc.lft.to/lastmile_qr_scan", "ios": "https://dc.lft.to/lastmile_qr_scan"}, "fusion_lon": 0.0, "lat": 38.93575233333333, "bike_id": "cfd7de9ac154e66e1212e91a4c177948", "type": "electric_scooter", "is_reserved": 0, "lon": -77.019351}, {"fusion_lat": 0.0, "name": "009a4fb4ef0f633627267515e6a82000", "is_disabled": 0, "rental_uris": {"android": "https://dc.lft.to/lastmile_qr_scan", "ios": "https://dc.lft.to/lastmile_qr_scan"}, "fusion_lon": 0.0, "lat": 38.91596766666667, "bike_id": "009a4fb4ef0f633627267515e6a82000", "type": "electric_scooter", "is_reserved": 0, "lon": -77.04586216666667}, {"fusion_lat": 0.0, "name": "dd26b4ec954d8098afeff35c2155f295", "is_disabled": 0, "rental_uris": {"android": "https://dc.lft.to/lastmile_qr_scan", "ios": "https://dc.lft.to/lastmile_qr_scan"}, "fusion_lon": 0.0, "lat": 38.900149, "bike_id": "dd26b4ec954d8098afeff35c2155f295", "type": "electric_scooter", "is_reserved": 0, "lon": -77.04489216666667}, {"fusion_lat": 0.0, "name": "a0d89df6b2e1d5bcf973ef1617f33abb", "is_disabled": 0, "rental_uris": {"android": "https://dc.lft.to/lastmile_qr_scan", "ios": "https://dc.lft.to/lastmile_qr_scan"}, "fusion_lon": 0.0, "lat": 38.91564966666667, "bike_id": "a0d89df6b2e1d5bcf973ef1617f33abb", "type": "electric_scooter", "is_reserved": 0, "lon": -77.03208166666667}, {"fusion_lat": 0.0, "name": "56431a76fa4feae60de8a52f30009689", "is_disabled": 0, "rental_uris": {"android": "https://dc.lft.to/lastmile_qr_scan", "ios": "https://dc.lft.to/lastmile_qr_scan"}, "fusion_lon": 0.0, "lat": 38.925672, "bike_id": "56431a76fa4feae60de8a52f30009689", "type": "electric_scooter", "is_reserved": 0, "lon": -77.043797}, {"fusion_lat": 0.0, "name": "54060844bc21aa0ae6cd344fca2ddee7", "is_disabled": 0, "rental_uris": {"android": "https://dc.lft.to/lastmile_qr_scan", "ios": "https://dc.lft.to/lastmile_qr_scan"}, "fusion_lon": 0.0, "lat": 38.9335875, "bike_id": "54060844bc21aa0ae6cd344fca2ddee7", "type": "electric_scooter", "is_reserved": 0, "lon": -77.02499666666667}, {"fusion_lat": 0.0, "name": "880160c0faa510024e5327aab2aafe45", "is_disabled": 0, "rental_uris": {"android": "https://dc.lft.to/lastmile_qr_scan", "ios": "https://dc.lft.to/lastmile_qr_scan"}, "fusion_lon": 0.0, "lat": 38.804910666666665, "bike_id": "880160c0faa510024e5327aab2aafe45", "type": "electric_bike", "is_reserved": 0, "lon": -77.1016675}, {"fusion_lat": 0.0, "name": "5e486f6f8d4f7a58a57f9685fef35805", "is_disabled": 0, "rental_uris": {"android": "https://dc.lft.to/lastmile_qr_scan", "ios": "https://dc.lft.to/lastmile_qr_scan"}, "fusion_lon": 0.0, "lat": 38.892359666666664, "bike_id": "5e486f6f8d4f7a58a57f9685fef35805", "type": "electric_scooter", "is_reserved": 0, "lon": -77.04678916666667}, {"fusion_lat": 0.0, "name": "272e164f385fc62dae9bb29da0130487", "is_disabled": 0, "rental_uris": {"android": "https://dc.lft.to/lastmile_qr_scan", "ios": "https://dc.lft.to/lastmile_qr_scan"}, "fusion_lon": 0.0, "lat": 38.907254, "bike_id": "272e164f385fc62dae9bb29da0130487", "type": "electric_scooter", "is_reserved": 0, "lon": -77.04995666666667}, {"fusion_lat": 0.0, "name": "8e78d5f7343c552024550a2057d6bded", "is_disabled": 0, "rental_uris": {"android": "https://dc.lft.to/lastmile_qr_scan", "ios": "https://dc.lft.to/lastmile_qr_scan"}, "fusion_lon": 0.0, "lat": 38.9184715, "bike_id": "8e78d5f7343c552024550a2057d6bded", "type": "electric_scooter", "is_reserved": 0, "lon": -77.02455066666667}, {"fusion_lat": 0.0, "name": "3eb6f456a26261bf202afd0ecea5e0d9", "is_disabled": 0, "rental_uris": {"android": "https://dc.lft.to/lastmile_qr_scan", "ios": "https://dc.lft.to/lastmile_qr_scan"}, "fusion_lon": 0.0, "lat": 38.918189166666664, "bike_id": "3eb6f456a26261bf202afd0ecea5e0d9", "type": "electric_scooter", "is_reserved": 0, "lon": -77.036834}, {"fusion_lat": 0.0, "name": "049cca38a869543fa399fd190a3e8e7b", "is_disabled": 0, "rental_uris": {"android": "https://dc.lft.to/lastmile_qr_scan", "ios": "https://dc.lft.to/lastmile_qr_scan"}, "fusion_lon": 0.0, "lat": 38.9042185, "bike_id": "049cca38a869543fa399fd190a3e8e7b", "type": "electric_scooter", "is_reserved": 0, "lon": -77.0259675}, {"fusion_lat": 0.0, "name": "06d110c61b4b2f8c5f3919dda96e11c5", "is_disabled": 0, "rental_uris": {"android": "https://dc.lft.to/lastmile_qr_scan", "ios": "https://dc.lft.to/lastmile_qr_scan"}, "fusion_lon": 0.0, "lat": 38.93103766666667, "bike_id": "06d110c61b4b2f8c5f3919dda96e11c5", "type": "electric_scooter", "is_reserved": 0, "lon": -77.023929}, {"fusion_lat": 0.0, "name": "9bcf972306c2e62b2a591464e2b3fd5f", "is_disabled": 0, "rental_uris": {"android": "https://dc.lft.to/lastmile_qr_scan", "ios": "https://dc.lft.to/lastmile_qr_scan"}, "fusion_lon": 0.0, "lat": 38.90536483333333, "bike_id": "9bcf972306c2e62b2a591464e2b3fd5f", "type": "electric_scooter", "is_reserved": 0, "lon": -77.05910833333333}, {"fusion_lat": 0.0, "name": "b2441cee7d07d59ba390bfeb5bb5b6a2", "is_disabled": 0, "rental_uris": {"android": "https://dc.lft.to/lastmile_qr_scan", "ios": "https://dc.lft.to/lastmile_qr_scan"}, "fusion_lon": 0.0, "lat": 38.92771333333334, "bike_id": "b2441cee7d07d59ba390bfeb5bb5b6a2", "type": "electric_scooter", "is_reserved": 0, "lon": -77.0230065}, {"fusion_lat": 0.0, "name": "8223ee12f45e64af5b03889c2998ac92", "is_disabled": 0, "rental_uris": {"android": "https://dc.lft.to/lastmile_qr_scan", "ios": "https://dc.lft.to/lastmile_qr_scan"}, "fusion_lon": 0.0, "lat": 38.9193645, "bike_id": "8223ee12f45e64af5b03889c2998ac92", "type": "electric_scooter", "is_reserved": 0, "lon": -77.024157}, {"fusion_lat": 0.0, "name": "a54d0949b14c978682a26bc4f4c6ec57", "is_disabled": 0, "rental_uris": {"android": "https://dc.lft.to/lastmile_qr_scan", "ios": "https://dc.lft.to/lastmile_qr_scan"}, "fusion_lon": 0.0, "lat": 38.92310483333333, "bike_id": "a54d0949b14c978682a26bc4f4c6ec57", "type": "electric_scooter", "is_reserved": 0, "lon": -77.0414675}, {"fusion_lat": 0.0, "name": "8305d5be6f26a6031024872b484ba0df", "is_disabled": 0, "rental_uris": {"android": "https://dc.lft.to/lastmile_qr_scan", "ios": "https://dc.lft.to/lastmile_qr_scan"}, "fusion_lon": 0.0, "lat": 38.905726, "bike_id": "8305d5be6f26a6031024872b484ba0df", "type": "electric_scooter", "is_reserved": 0, "lon": -77.044537}, {"fusion_lat": 0.0, "name": "0ab807c281b6efd432b7e3a4ff0f17c2", "is_disabled": 0, "rental_uris": {"android": "https://dc.lft.to/lastmile_qr_scan", "ios": "https://dc.lft.to/lastmile_qr_scan"}, "fusion_lon": 0.0, "lat": 38.89723216666667, "bike_id": "0ab807c281b6efd432b7e3a4ff0f17c2", "type": "electric_scooter", "is_reserved": 0, "lon": -77.04686683333334}, {"fusion_lat": 0.0, "name": "70c4409f35bbd7d08b647e996f931256", "is_disabled": 0, "rental_uris": {"android": "https://dc.lft.to/lastmile_qr_scan", "ios": "https://dc.lft.to/lastmile_qr_scan"}, "fusion_lon": 0.0, "lat": 38.909547, "bike_id": "70c4409f35bbd7d08b647e996f931256", "type": "electric_scooter", "is_reserved": 0, "lon": -77.0461575}, {"fusion_lat": 0.0, "name": "57448b8a2a575efe15dda7b11192c83a", "is_disabled": 0, "rental_uris": {"android": "https://dc.lft.to/lastmile_qr_scan", "ios": "https://dc.lft.to/lastmile_qr_scan"}, "fusion_lon": 0.0, "lat": 38.91107366666667, "bike_id": "57448b8a2a575efe15dda7b11192c83a", "type": "electric_scooter", "is_reserved": 0, "lon": -77.0116085}, {"fusion_lat": 0.0, "name": "b8964fbcdf011230bbeaaad8566cb66e", "is_disabled": 0, "rental_uris": {"android": "https://dc.lft.to/lastmile_qr_scan", "ios": "https://dc.lft.to/lastmile_qr_scan"}, "fusion_lon": 0.0, "lat": 38.904803333333334, "bike_id": "b8964fbcdf011230bbeaaad8566cb66e", "type": "electric_scooter", "is_reserved": 0, "lon": -77.02605966666667}, {"fusion_lat": 0.0, "name": "8e809d217ff670f11d4293be3fa2de26", "is_disabled": 0, "rental_uris": {"android": "https://dc.lft.to/lastmile_qr_scan", "ios": "https://dc.lft.to/lastmile_qr_scan"}, "fusion_lon": 0.0, "lat": 38.91748316666666, "bike_id": "8e809d217ff670f11d4293be3fa2de26", "type": "electric_scooter", "is_reserved": 0, "lon": -77.06936983333334}, {"fusion_lat": 0.0, "name": "b79d6ee5014e38df173d5a8c9662d15c", "is_disabled": 0, "rental_uris": {"android": "https://dc.lft.to/lastmile_qr_scan", "ios": "https://dc.lft.to/lastmile_qr_scan"}, "fusion_lon": 0.0, "lat": 38.877430833333335, "bike_id": "b79d6ee5014e38df173d5a8c9662d15c", "type": "electric_scooter", "is_reserved": 0, "lon": -77.0058455}, {"fusion_lat": 0.0, "name": "dcb32e43eef231b9b21b539926fa0470", "is_disabled": 0, "rental_uris": {"android": "https://dc.lft.to/lastmile_qr_scan", "ios": "https://dc.lft.to/lastmile_qr_scan"}, "fusion_lon": 0.0, "lat": 38.909080333333335, "bike_id": "dcb32e43eef231b9b21b539926fa0470", "type": "electric_scooter", "is_reserved": 0, "lon": -77.042133}, {"fusion_lat": 0.0, "name": "b47e5e51c68c4525b295997b4a84326f", "is_disabled": 0, "rental_uris": {"android": "https://dc.lft.to/lastmile_qr_scan", "ios": "https://dc.lft.to/lastmile_qr_scan"}, "fusion_lon": 0.0, "lat": 38.91612033333333, "bike_id": "b47e5e51c68c4525b295997b4a84326f", "type": "electric_scooter", "is_reserved": 0, "lon": -77.02393883333333}, {"fusion_lat": 0.0, "name": "f8a8809a4d48bb35c7cd922a0ab52826", "is_disabled": 0, "rental_uris": {"android": "https://dc.lft.to/lastmile_qr_scan", "ios": "https://dc.lft.to/lastmile_qr_scan"}, "fusion_lon": 0.0, "lat": 38.8999685, "bike_id": "f8a8809a4d48bb35c7cd922a0ab52826", "type": "electric_bike", "is_reserved": 0, "lon": -76.9984185}, {"fusion_lat": 0.0, "name": "bd774dfeb579786a73540ba00f678d02", "is_disabled": 0, "rental_uris": {"android": "https://dc.lft.to/lastmile_qr_scan", "ios": "https://dc.lft.to/lastmile_qr_scan"}, "fusion_lon": 0.0, "lat": 38.938284, "bike_id": "bd774dfeb579786a73540ba00f678d02", "type": "electric_scooter", "is_reserved": 0, "lon": -76.99190766666666}, {"fusion_lat": 0.0, "name": "d821efca62355846c78398b2ad73769e", "is_disabled": 0, "rental_uris": {"android": "https://dc.lft.to/lastmile_qr_scan", "ios": "https://dc.lft.to/lastmile_qr_scan"}, "fusion_lon": 0.0, "lat": 38.912022666666665, "bike_id": "d821efca62355846c78398b2ad73769e", "type": "electric_scooter", "is_reserved": 0, "lon": -77.000936}, {"fusion_lat": 0.0, "name": "c8c2fb49923d090e3668d7d877165f4b", "is_disabled": 0, "rental_uris": {"android": "https://dc.lft.to/lastmile_qr_scan", "ios": "https://dc.lft.to/lastmile_qr_scan"}, "fusion_lon": 0.0, "lat": 38.90774866666667, "bike_id": "c8c2fb49923d090e3668d7d877165f4b", "type": "electric_scooter", "is_reserved": 0, "lon": -77.03519}, {"fusion_lat": 0.0, "name": "6a9bae4b33239b31c9232be0b9774f95", "is_disabled": 0, "rental_uris": {"android": "https://dc.lft.to/lastmile_qr_scan", "ios": "https://dc.lft.to/lastmile_qr_scan"}, "fusion_lon": 0.0, "lat": 38.93457983333333, "bike_id": "6a9bae4b33239b31c9232be0b9774f95", "type": "electric_scooter", "is_reserved": 0, "lon": -77.0339875}, {"fusion_lat": 0.0, "name": "8e11d348178e81789111e34d533ba4e1", "is_disabled": 0, "rental_uris": {"android": "https://dc.lft.to/lastmile_qr_scan", "ios": "https://dc.lft.to/lastmile_qr_scan"}, "fusion_lon": 0.0, "lat": 38.90378533333333, "bike_id": "8e11d348178e81789111e34d533ba4e1", "type": "electric_scooter", "is_reserved": 0, "lon": -77.03838016666667}, {"fusion_lat": 0.0, "name": "b46b261e9a99ad5ef059b50c6d43ac5b", "is_disabled": 0, "rental_uris": {"android": "https://dc.lft.to/lastmile_qr_scan", "ios": "https://dc.lft.to/lastmile_qr_scan"}, "fusion_lon": 0.0, "lat": 38.91725233333333, "bike_id": "b46b261e9a99ad5ef059b50c6d43ac5b", "type": "electric_scooter", "is_reserved": 0, "lon": -77.0270045}, {"fusion_lat": 0.0, "name": "d9d9dfa254b2cfe8d7a02ee3127d8ec4", "is_disabled": 0, "rental_uris": {"android": "https://dc.lft.to/lastmile_qr_scan", "ios": "https://dc.lft.to/lastmile_qr_scan"}, "fusion_lon": 0.0, "lat": 38.915793666666666, "bike_id": "d9d9dfa254b2cfe8d7a02ee3127d8ec4", "type": "electric_scooter", "is_reserved": 0, "lon": -77.04660916666667}, {"fusion_lat": 0.0, "name": "892477db2e72d99343811563272f4ca3", "is_disabled": 0, "rental_uris": {"android": "https://dc.lft.to/lastmile_qr_scan", "ios": "https://dc.lft.to/lastmile_qr_scan"}, "fusion_lon": 0.0, "lat": 38.92379733333333, "bike_id": "892477db2e72d99343811563272f4ca3", "type": "electric_scooter", "is_reserved": 0, "lon": -77.02745683333333}, {"fusion_lat": 0.0, "name": "af79f3b3b628a6f79cadc128fa8f1339", "is_disabled": 0, "rental_uris": {"android": "https://dc.lft.to/lastmile_qr_scan", "ios": "https://dc.lft.to/lastmile_qr_scan"}, "fusion_lon": 0.0, "lat": 38.89820783333333, "bike_id": "af79f3b3b628a6f79cadc128fa8f1339", "type": "electric_scooter", "is_reserved": 0, "lon": -77.02715816666667}, {"fusion_lat": 0.0, "name": "b3f922f11da6cb7136e591691d84a5a3", "is_disabled": 0, "rental_uris": {"android": "https://dc.lft.to/lastmile_qr_scan", "ios": "https://dc.lft.to/lastmile_qr_scan"}, "fusion_lon": 0.0, "lat": 38.898491166666666, "bike_id": "b3f922f11da6cb7136e591691d84a5a3", "type": "electric_scooter", "is_reserved": 0, "lon": -77.02222016666667}, {"fusion_lat": 0.0, "name": "10814db89b2c482b63f270cda3a938dd", "is_disabled": 0, "rental_uris": {"android": "https://dc.lft.to/lastmile_qr_scan", "ios": "https://dc.lft.to/lastmile_qr_scan"}, "fusion_lon": 0.0, "lat": 38.908603, "bike_id": "10814db89b2c482b63f270cda3a938dd", "type": "electric_scooter", "is_reserved": 0, "lon": -76.999531}, {"fusion_lat": 0.0, "name": "adcd0590bada0c415822e1309e3ede11", "is_disabled": 0, "rental_uris": {"android": "https://dc.lft.to/lastmile_qr_scan", "ios": "https://dc.lft.to/lastmile_qr_scan"}, "fusion_lon": 0.0, "lat": 38.8788695, "bike_id": "adcd0590bada0c415822e1309e3ede11", "type": "electric_scooter", "is_reserved": 0, "lon": -76.96546016666667}, {"fusion_lat": 0.0, "name": "e40059ff755ea402e8c683e96e27a09a", "is_disabled": 0, "rental_uris": {"android": "https://dc.lft.to/lastmile_qr_scan", "ios": "https://dc.lft.to/lastmile_qr_scan"}, "fusion_lon": 0.0, "lat": 38.90381466666667, "bike_id": "e40059ff755ea402e8c683e96e27a09a", "type": "electric_scooter", "is_reserved": 0, "lon": -77.0363895}, {"fusion_lat": 0.0, "name": "a6eaa69e350cd70fe1c53e02d23b3062", "is_disabled": 0, "rental_uris": {"android": "https://dc.lft.to/lastmile_qr_scan", "ios": "https://dc.lft.to/lastmile_qr_scan"}, "fusion_lon": 0.0, "lat": 38.899424, "bike_id": "a6eaa69e350cd70fe1c53e02d23b3062", "type": "electric_scooter", "is_reserved": 0, "lon": -77.02198416666667}, {"fusion_lat": 0.0, "name": "d801fbba26684ed0477528f7847255d1", "is_disabled": 0, "rental_uris": {"android": "https://dc.lft.to/lastmile_qr_scan", "ios": "https://dc.lft.to/lastmile_qr_scan"}, "fusion_lon": 0.0, "lat": 38.89677483333333, "bike_id": "d801fbba26684ed0477528f7847255d1", "type": "electric_scooter", "is_reserved": 0, "lon": -77.05057216666667}, {"fusion_lat": 0.0, "name": "58423f7ab1715d844aecb9cff9fb5b6c", "is_disabled": 0, "rental_uris": {"android": "https://dc.lft.to/lastmile_qr_scan", "ios": "https://dc.lft.to/lastmile_qr_scan"}, "fusion_lon": 0.0, "lat": 38.8872495, "bike_id": "58423f7ab1715d844aecb9cff9fb5b6c", "type": "electric_scooter", "is_reserved": 0, "lon": -77.01344366666666}, {"fusion_lat": 0.0, "name": "5855568eb31bbe59c54843e79f317188", "is_disabled": 0, "rental_uris": {"android": "https://dc.lft.to/lastmile_qr_scan", "ios": "https://dc.lft.to/lastmile_qr_scan"}, "fusion_lon": 0.0, "lat": 38.92058133333333, "bike_id": "5855568eb31bbe59c54843e79f317188", "type": "electric_scooter", "is_reserved": 0, "lon": -77.04358133333334}, {"fusion_lat": 0.0, "name": "80fdb1ebb55d382e5ef84247bdf44f91", "is_disabled": 0, "rental_uris": {"android": "https://dc.lft.to/lastmile_qr_scan", "ios": "https://dc.lft.to/lastmile_qr_scan"}, "fusion_lon": 0.0, "lat": 38.900903, "bike_id": "80fdb1ebb55d382e5ef84247bdf44f91", "type": "electric_scooter", "is_reserved": 0, "lon": -77.02196583333334}, {"fusion_lat": 0.0, "name": "354f6776a15f7bc9f0e496e29aa338ca", "is_disabled": 0, "rental_uris": {"android": "https://dc.lft.to/lastmile_qr_scan", "ios": "https://dc.lft.to/lastmile_qr_scan"}, "fusion_lon": 0.0, "lat": 38.884542333333336, "bike_id": "354f6776a15f7bc9f0e496e29aa338ca", "type": "electric_scooter", "is_reserved": 0, "lon": -77.0291015}, {"fusion_lat": 0.0, "name": "f9b0a89fdb4058c6bcf92762250aeaf7", "is_disabled": 0, "rental_uris": {"android": "https://dc.lft.to/lastmile_qr_scan", "ios": "https://dc.lft.to/lastmile_qr_scan"}, "fusion_lon": 0.0, "lat": 38.895968333333336, "bike_id": "f9b0a89fdb4058c6bcf92762250aeaf7", "type": "electric_scooter", "is_reserved": 0, "lon": -77.02206166666667}, {"fusion_lat": 0.0, "name": "71989be7e23f54c2be53ebe365145ed0", "is_disabled": 0, "rental_uris": {"android": "https://dc.lft.to/lastmile_qr_scan", "ios": "https://dc.lft.to/lastmile_qr_scan"}, "fusion_lon": 0.0, "lat": 38.90626866666667, "bike_id": "71989be7e23f54c2be53ebe365145ed0", "type": "electric_scooter", "is_reserved": 0, "lon": -77.050078}, {"fusion_lat": 0.0, "name": "3dfc82e87987773b8cfb287ff9068490", "is_disabled": 0, "rental_uris": {"android": "https://dc.lft.to/lastmile_qr_scan", "ios": "https://dc.lft.to/lastmile_qr_scan"}, "fusion_lon": 0.0, "lat": 38.877398666666664, "bike_id": "3dfc82e87987773b8cfb287ff9068490", "type": "electric_scooter", "is_reserved": 0, "lon": -77.00266333333333}, {"fusion_lat": 0.0, "name": "0cbad861cf3f4bfee7af999492f84ecc", "is_disabled": 0, "rental_uris": {"android": "https://dc.lft.to/lastmile_qr_scan", "ios": "https://dc.lft.to/lastmile_qr_scan"}, "fusion_lon": 0.0, "lat": 38.897369833333336, "bike_id": "0cbad861cf3f4bfee7af999492f84ecc", "type": "electric_scooter", "is_reserved": 0, "lon": -76.9472465}, {"fusion_lat": 0.0, "name": "896bca923e0ccc381576d862fd167a93", "is_disabled": 0, "rental_uris": {"android": "https://dc.lft.to/lastmile_qr_scan", "ios": "https://dc.lft.to/lastmile_qr_scan"}, "fusion_lon": 0.0, "lat": 38.92481016666667, "bike_id": "896bca923e0ccc381576d862fd167a93", "type": "electric_scooter", "is_reserved": 0, "lon": -77.035632}, {"fusion_lat": 0.0, "name": "1b75af6039c98942f8fc73856246eec2", "is_disabled": 0, "rental_uris": {"android": "https://dc.lft.to/lastmile_qr_scan", "ios": "https://dc.lft.to/lastmile_qr_scan"}, "fusion_lon": 0.0, "lat": 38.933445666666664, "bike_id": "1b75af6039c98942f8fc73856246eec2", "type": "electric_scooter", "is_reserved": 0, "lon": -77.0620215}, {"fusion_lat": 0.0, "name": "0bd38ad401d5960b7fc2451a242d0d7c", "is_disabled": 0, "rental_uris": {"android": "https://dc.lft.to/lastmile_qr_scan", "ios": "https://dc.lft.to/lastmile_qr_scan"}, "fusion_lon": 0.0, "lat": 38.905483833333335, "bike_id": "0bd38ad401d5960b7fc2451a242d0d7c", "type": "electric_scooter", "is_reserved": 0, "lon": -77.00211683333333}, {"fusion_lat": 0.0, "name": "b65c092eee1c1a30d330dc3941284222", "is_disabled": 0, "rental_uris": {"android": "https://dc.lft.to/lastmile_qr_scan", "ios": "https://dc.lft.to/lastmile_qr_scan"}, "fusion_lon": 0.0, "lat": 38.87469183333333, "bike_id": "b65c092eee1c1a30d330dc3941284222", "type": "electric_scooter", "is_reserved": 0, "lon": -77.00470383333334}, {"fusion_lat": 0.0, "name": "2efa8fd317aa4c5796a4e26b84c1fb74", "is_disabled": 0, "rental_uris": {"android": "https://dc.lft.to/lastmile_qr_scan", "ios": "https://dc.lft.to/lastmile_qr_scan"}, "fusion_lon": 0.0, "lat": 38.89205783333333, "bike_id": "2efa8fd317aa4c5796a4e26b84c1fb74", "type": "electric_scooter", "is_reserved": 0, "lon": -77.02659833333334}, {"fusion_lat": 0.0, "name": "6c7fa2c15b590160a67df9a526d58248", "is_disabled": 0, "rental_uris": {"android": "https://dc.lft.to/lastmile_qr_scan", "ios": "https://dc.lft.to/lastmile_qr_scan"}, "fusion_lon": 0.0, "lat": 38.96991216666667, "bike_id": "6c7fa2c15b590160a67df9a526d58248", "type": "electric_scooter", "is_reserved": 0, "lon": -77.011655}, {"fusion_lat": 0.0, "name": "a1ef6d076aa710cc000fc805502ac84d", "is_disabled": 0, "rental_uris": {"android": "https://dc.lft.to/lastmile_qr_scan", "ios": "https://dc.lft.to/lastmile_qr_scan"}, "fusion_lon": 0.0, "lat": 38.90723933333334, "bike_id": "a1ef6d076aa710cc000fc805502ac84d", "type": "electric_scooter", "is_reserved": 0, "lon": -77.0250995}, {"fusion_lat": 0.0, "name": "2daf90eaaefd89df3a130cbc7c21d1d6", "is_disabled": 0, "rental_uris": {"android": "https://dc.lft.to/lastmile_qr_scan", "ios": "https://dc.lft.to/lastmile_qr_scan"}, "fusion_lon": 0.0, "lat": 38.8745155, "bike_id": "2daf90eaaefd89df3a130cbc7c21d1d6", "type": "electric_scooter", "is_reserved": 0, "lon": -77.01881433333334}, {"fusion_lat": 0.0, "name": "f8b816acac7cece27f6c0243bdc53d4a", "is_disabled": 0, "rental_uris": {"android": "https://dc.lft.to/lastmile_qr_scan", "ios": "https://dc.lft.to/lastmile_qr_scan"}, "fusion_lon": 0.0, "lat": 38.94091183333333, "bike_id": "f8b816acac7cece27f6c0243bdc53d4a", "type": "electric_scooter", "is_reserved": 0, "lon": -77.02323033333333}, {"fusion_lat": 0.0, "name": "776fe205d9e28ca0e2eb7d583bc8690a", "is_disabled": 0, "rental_uris": {"android": "https://dc.lft.to/lastmile_qr_scan", "ios": "https://dc.lft.to/lastmile_qr_scan"}, "fusion_lon": 0.0, "lat": 38.92589733333333, "bike_id": "776fe205d9e28ca0e2eb7d583bc8690a", "type": "electric_scooter", "is_reserved": 0, "lon": -77.03730716666666}, {"fusion_lat": 0.0, "name": "7d580a86a9ff7095801ebbd0c3b7ad3b", "is_disabled": 0, "rental_uris": {"android": "https://dc.lft.to/lastmile_qr_scan", "ios": "https://dc.lft.to/lastmile_qr_scan"}, "fusion_lon": 0.0, "lat": 38.911921666666665, "bike_id": "7d580a86a9ff7095801ebbd0c3b7ad3b", "type": "electric_scooter", "is_reserved": 0, "lon": -77.0434675}, {"fusion_lat": 0.0, "name": "08b3a3ad7d1ebcd240bf898243b40b33", "is_disabled": 0, "rental_uris": {"android": "https://dc.lft.to/lastmile_qr_scan", "ios": "https://dc.lft.to/lastmile_qr_scan"}, "fusion_lon": 0.0, "lat": 38.90539866666667, "bike_id": "08b3a3ad7d1ebcd240bf898243b40b33", "type": "electric_scooter", "is_reserved": 0, "lon": -77.04674033333333}, {"fusion_lat": 0.0, "name": "0e1d0036c076f8fedf27911a92aa7ace", "is_disabled": 0, "rental_uris": {"android": "https://dc.lft.to/lastmile_qr_scan", "ios": "https://dc.lft.to/lastmile_qr_scan"}, "fusion_lon": 0.0, "lat": 38.9042895, "bike_id": "0e1d0036c076f8fedf27911a92aa7ace", "type": "electric_scooter", "is_reserved": 0, "lon": -77.0582725}, {"fusion_lat": 0.0, "name": "cc23cbade611833a47564d9ff0dc5263", "is_disabled": 0, "rental_uris": {"android": "https://dc.lft.to/lastmile_qr_scan", "ios": "https://dc.lft.to/lastmile_qr_scan"}, "fusion_lon": 0.0, "lat": 38.88345416666667, "bike_id": "cc23cbade611833a47564d9ff0dc5263", "type": "electric_scooter", "is_reserved": 0, "lon": -77.03176783333333}, {"fusion_lat": 0.0, "name": "e99278b74b940fb600ec6a83c94aeacb", "is_disabled": 0, "rental_uris": {"android": "https://dc.lft.to/lastmile_qr_scan", "ios": "https://dc.lft.to/lastmile_qr_scan"}, "fusion_lon": 0.0, "lat": 38.8475525, "bike_id": "e99278b74b940fb600ec6a83c94aeacb", "type": "electric_scooter", "is_reserved": 0, "lon": -76.99501916666667}, {"fusion_lat": 0.0, "name": "36befb6f76f4ede6873fa1b6ea6c2da3", "is_disabled": 0, "rental_uris": {"android": "https://dc.lft.to/lastmile_qr_scan", "ios": "https://dc.lft.to/lastmile_qr_scan"}, "fusion_lon": 0.0, "lat": 38.90681816666667, "bike_id": "36befb6f76f4ede6873fa1b6ea6c2da3", "type": "electric_scooter", "is_reserved": 0, "lon": -77.026994}, {"fusion_lat": 0.0, "name": "2b0815886e56b3c686b5b94db5662ba3", "is_disabled": 0, "rental_uris": {"android": "https://dc.lft.to/lastmile_qr_scan", "ios": "https://dc.lft.to/lastmile_qr_scan"}, "fusion_lon": 0.0, "lat": 38.9234225, "bike_id": "2b0815886e56b3c686b5b94db5662ba3", "type": "electric_scooter", "is_reserved": 0, "lon": -77.0353235}, {"fusion_lat": 0.0, "name": "ffb7578fe419a00b363605676737ac5a", "is_disabled": 0, "rental_uris": {"android": "https://dc.lft.to/lastmile_qr_scan", "ios": "https://dc.lft.to/lastmile_qr_scan"}, "fusion_lon": 0.0, "lat": 38.90173166666667, "bike_id": "ffb7578fe419a00b363605676737ac5a", "type": "electric_scooter", "is_reserved": 0, "lon": -76.99262566666667}, {"fusion_lat": 0.0, "name": "4d6d463d102dceafd4823b9f754e0a08", "is_disabled": 0, "rental_uris": {"android": "https://dc.lft.to/lastmile_qr_scan", "ios": "https://dc.lft.to/lastmile_qr_scan"}, "fusion_lon": 0.0, "lat": 38.935980666666666, "bike_id": "4d6d463d102dceafd4823b9f754e0a08", "type": "electric_scooter", "is_reserved": 0, "lon": -77.0364815}, {"fusion_lat": 0.0, "name": "3238defdaadc48fa40b6522e5bd7ef90", "is_disabled": 0, "rental_uris": {"android": "https://dc.lft.to/lastmile_qr_scan", "ios": "https://dc.lft.to/lastmile_qr_scan"}, "fusion_lon": 0.0, "lat": 38.920787, "bike_id": "3238defdaadc48fa40b6522e5bd7ef90", "type": "electric_scooter", "is_reserved": 0, "lon": -77.02378833333333}, {"fusion_lat": 0.0, "name": "a130bce331d5bd6b29e5846000d40d4f", "is_disabled": 0, "rental_uris": {"android": "https://dc.lft.to/lastmile_qr_scan", "ios": "https://dc.lft.to/lastmile_qr_scan"}, "fusion_lon": 0.0, "lat": 38.900573333333334, "bike_id": "a130bce331d5bd6b29e5846000d40d4f", "type": "electric_scooter", "is_reserved": 0, "lon": -77.056711}, {"fusion_lat": 0.0, "name": "782da280db7fdc15ef28ee77cb0ca786", "is_disabled": 0, "rental_uris": {"android": "https://dc.lft.to/lastmile_qr_scan", "ios": "https://dc.lft.to/lastmile_qr_scan"}, "fusion_lon": 0.0, "lat": 38.905397, "bike_id": "782da280db7fdc15ef28ee77cb0ca786", "type": "electric_scooter", "is_reserved": 0, "lon": -77.00720933333334}, {"fusion_lat": 0.0, "name": "d0c39e00732d6281550aef41053b6a63", "is_disabled": 0, "rental_uris": {"android": "https://dc.lft.to/lastmile_qr_scan", "ios": "https://dc.lft.to/lastmile_qr_scan"}, "fusion_lon": 0.0, "lat": 38.9105585, "bike_id": "d0c39e00732d6281550aef41053b6a63", "type": "electric_scooter", "is_reserved": 0, "lon": -77.03841966666667}, {"fusion_lat": 0.0, "name": "4bfd97f5e607e7e4aa3c4d9f24e31487", "is_disabled": 0, "rental_uris": {"android": "https://dc.lft.to/lastmile_qr_scan", "ios": "https://dc.lft.to/lastmile_qr_scan"}, "fusion_lon": 0.0, "lat": 38.92316, "bike_id": "4bfd97f5e607e7e4aa3c4d9f24e31487", "type": "electric_scooter", "is_reserved": 0, "lon": -77.039763}, {"fusion_lat": 0.0, "name": "3f8943ad536f61fd8ea217320fcc39e4", "is_disabled": 0, "rental_uris": {"android": "https://dc.lft.to/lastmile_qr_scan", "ios": "https://dc.lft.to/lastmile_qr_scan"}, "fusion_lon": 0.0, "lat": 38.905246166666664, "bike_id": "3f8943ad536f61fd8ea217320fcc39e4", "type": "electric_scooter", "is_reserved": 0, "lon": -77.05141466666667}, {"fusion_lat": 0.0, "name": "2b2d363d2865e0f679506eab2d0cc518", "is_disabled": 0, "rental_uris": {"android": "https://dc.lft.to/lastmile_qr_scan", "ios": "https://dc.lft.to/lastmile_qr_scan"}, "fusion_lon": 0.0, "lat": 38.889858, "bike_id": "2b2d363d2865e0f679506eab2d0cc518", "type": "electric_scooter", "is_reserved": 0, "lon": -76.914189}, {"fusion_lat": 0.0, "name": "dadef977d25bf6114980caee1a2db3ca", "is_disabled": 0, "rental_uris": {"android": "https://dc.lft.to/lastmile_qr_scan", "ios": "https://dc.lft.to/lastmile_qr_scan"}, "fusion_lon": 0.0, "lat": 38.910858833333336, "bike_id": "dadef977d25bf6114980caee1a2db3ca", "type": "electric_scooter", "is_reserved": 0, "lon": -77.02181483333334}, {"fusion_lat": 0.0, "name": "e183a703072692fbeb2c7b4f135e57d0", "is_disabled": 0, "rental_uris": {"android": "https://dc.lft.to/lastmile_qr_scan", "ios": "https://dc.lft.to/lastmile_qr_scan"}, "fusion_lon": 0.0, "lat": 38.90561366666667, "bike_id": "e183a703072692fbeb2c7b4f135e57d0", "type": "electric_scooter", "is_reserved": 0, "lon": -77.04680366666666}, {"fusion_lat": 0.0, "name": "1964f35c7f4276c106003a743079ed7f", "is_disabled": 0, "rental_uris": {"android": "https://dc.lft.to/lastmile_qr_scan", "ios": "https://dc.lft.to/lastmile_qr_scan"}, "fusion_lon": 0.0, "lat": 38.906219, "bike_id": "1964f35c7f4276c106003a743079ed7f", "type": "electric_scooter", "is_reserved": 0, "lon": -77.0058985}, {"fusion_lat": 0.0, "name": "56b26eb3a5a325c0fb3351a0b973040b", "is_disabled": 0, "rental_uris": {"android": "https://dc.lft.to/lastmile_qr_scan", "ios": "https://dc.lft.to/lastmile_qr_scan"}, "fusion_lon": 0.0, "lat": 38.9548245, "bike_id": "56b26eb3a5a325c0fb3351a0b973040b", "type": "electric_bike", "is_reserved": 0, "lon": -77.02672866666667}, {"fusion_lat": 0.0, "name": "351d4004a692843651a65b58fa6dca63", "is_disabled": 0, "rental_uris": {"android": "https://dc.lft.to/lastmile_qr_scan", "ios": "https://dc.lft.to/lastmile_qr_scan"}, "fusion_lon": 0.0, "lat": 38.915532, "bike_id": "351d4004a692843651a65b58fa6dca63", "type": "electric_scooter", "is_reserved": 0, "lon": -77.02148033333333}, {"fusion_lat": 0.0, "name": "05a10a954217123f627e850ad3c8300e", "is_disabled": 0, "rental_uris": {"android": "https://dc.lft.to/lastmile_qr_scan", "ios": "https://dc.lft.to/lastmile_qr_scan"}, "fusion_lon": 0.0, "lat": 38.892447833333335, "bike_id": "05a10a954217123f627e850ad3c8300e", "type": "electric_scooter", "is_reserved": 0, "lon": -77.0396145}, {"fusion_lat": 0.0, "name": "50dcd9ca81c4f6ddc2f6f64f36532386", "is_disabled": 0, "rental_uris": {"android": "https://dc.lft.to/lastmile_qr_scan", "ios": "https://dc.lft.to/lastmile_qr_scan"}, "fusion_lon": 0.0, "lat": 38.9243855, "bike_id": "50dcd9ca81c4f6ddc2f6f64f36532386", "type": "electric_scooter", "is_reserved": 0, "lon": -77.05230883333333}, {"fusion_lat": 0.0, "name": "8bcdcba950811a6ee317e12e0d444efb", "is_disabled": 0, "rental_uris": {"android": "https://dc.lft.to/lastmile_qr_scan", "ios": "https://dc.lft.to/lastmile_qr_scan"}, "fusion_lon": 0.0, "lat": 38.957958166666664, "bike_id": "8bcdcba950811a6ee317e12e0d444efb", "type": "electric_bike", "is_reserved": 0, "lon": -76.96050516666666}, {"fusion_lat": 0.0, "name": "c2e9ac4d36e07b4ee5f2cb39a953b35d", "is_disabled": 0, "rental_uris": {"android": "https://dc.lft.to/lastmile_qr_scan", "ios": "https://dc.lft.to/lastmile_qr_scan"}, "fusion_lon": 0.0, "lat": 38.924968666666665, "bike_id": "c2e9ac4d36e07b4ee5f2cb39a953b35d", "type": "electric_scooter", "is_reserved": 0, "lon": -77.0522225}, {"fusion_lat": 0.0, "name": "6d51e6f11b34b55d566932ca2e9d637d", "is_disabled": 0, "rental_uris": {"android": "https://dc.lft.to/lastmile_qr_scan", "ios": "https://dc.lft.to/lastmile_qr_scan"}, "fusion_lon": 0.0, "lat": 38.92189166666667, "bike_id": "6d51e6f11b34b55d566932ca2e9d637d", "type": "electric_scooter", "is_reserved": 0, "lon": -77.08083366666666}, {"fusion_lat": 0.0, "name": "ed27dfb6bc78d24339d85d5dce9a58ea", "is_disabled": 0, "rental_uris": {"android": "https://dc.lft.to/lastmile_qr_scan", "ios": "https://dc.lft.to/lastmile_qr_scan"}, "fusion_lon": 0.0, "lat": 38.91433283333333, "bike_id": "ed27dfb6bc78d24339d85d5dce9a58ea", "type": "electric_scooter", "is_reserved": 0, "lon": -77.04483416666666}, {"fusion_lat": 0.0, "name": "e7608914ebf48aed62d2eff12e657841", "is_disabled": 0, "rental_uris": {"android": "https://dc.lft.to/lastmile_qr_scan", "ios": "https://dc.lft.to/lastmile_qr_scan"}, "fusion_lon": 0.0, "lat": 38.900339333333335, "bike_id": "e7608914ebf48aed62d2eff12e657841", "type": "electric_scooter", "is_reserved": 0, "lon": -76.985632}, {"fusion_lat": 0.0, "name": "e617c357dad10be006ef6ba57fcb3792", "is_disabled": 0, "rental_uris": {"android": "https://dc.lft.to/lastmile_qr_scan", "ios": "https://dc.lft.to/lastmile_qr_scan"}, "fusion_lon": 0.0, "lat": 38.905461333333335, "bike_id": "e617c357dad10be006ef6ba57fcb3792", "type": "electric_scooter", "is_reserved": 0, "lon": -77.06287216666666}, {"fusion_lat": 0.0, "name": "1064cc88857a3536a33a15824ad3454b", "is_disabled": 0, "rental_uris": {"android": "https://dc.lft.to/lastmile_qr_scan", "ios": "https://dc.lft.to/lastmile_qr_scan"}, "fusion_lon": 0.0, "lat": 38.9162485, "bike_id": "1064cc88857a3536a33a15824ad3454b", "type": "electric_scooter", "is_reserved": 0, "lon": -77.01350566666666}, {"fusion_lat": 0.0, "name": "d3c39090b9a71753be5d94bc4077b753", "is_disabled": 0, "rental_uris": {"android": "https://dc.lft.to/lastmile_qr_scan", "ios": "https://dc.lft.to/lastmile_qr_scan"}, "fusion_lon": 0.0, "lat": 38.94891966666667, "bike_id": "d3c39090b9a71753be5d94bc4077b753", "type": "electric_bike", "is_reserved": 0, "lon": -76.96384766666667}, {"fusion_lat": 0.0, "name": "08b99a4fe0ed0e254db38c0c6778957f", "is_disabled": 0, "rental_uris": {"android": "https://dc.lft.to/lastmile_qr_scan", "ios": "https://dc.lft.to/lastmile_qr_scan"}, "fusion_lon": 0.0, "lat": 38.90313533333333, "bike_id": "08b99a4fe0ed0e254db38c0c6778957f", "type": "electric_scooter", "is_reserved": 0, "lon": -77.01190516666666}, {"fusion_lat": 0.0, "name": "3e00bb4e5b4d8bd2e835aecc126419d8", "is_disabled": 0, "rental_uris": {"android": "https://dc.lft.to/lastmile_qr_scan", "ios": "https://dc.lft.to/lastmile_qr_scan"}, "fusion_lon": 0.0, "lat": 38.934644166666665, "bike_id": "3e00bb4e5b4d8bd2e835aecc126419d8", "type": "electric_scooter", "is_reserved": 0, "lon": -77.04123083333333}, {"fusion_lat": 0.0, "name": "470bd2cb415a029fe5e00b85eb0e19fe", "is_disabled": 0, "rental_uris": {"android": "https://dc.lft.to/lastmile_qr_scan", "ios": "https://dc.lft.to/lastmile_qr_scan"}, "fusion_lon": 0.0, "lat": 38.88869416666667, "bike_id": "470bd2cb415a029fe5e00b85eb0e19fe", "type": "electric_scooter", "is_reserved": 0, "lon": -77.02904383333333}, {"fusion_lat": 0.0, "name": "50afbd15425e82c0c9deda4852d8d577", "is_disabled": 0, "rental_uris": {"android": "https://dc.lft.to/lastmile_qr_scan", "ios": "https://dc.lft.to/lastmile_qr_scan"}, "fusion_lon": 0.0, "lat": 38.887367833333336, "bike_id": "50afbd15425e82c0c9deda4852d8d577", "type": "electric_scooter", "is_reserved": 0, "lon": -77.00352233333334}, {"fusion_lat": 0.0, "name": "4d4945e09bd1b418acb225146f450b00", "is_disabled": 0, "rental_uris": {"android": "https://dc.lft.to/lastmile_qr_scan", "ios": "https://dc.lft.to/lastmile_qr_scan"}, "fusion_lon": 0.0, "lat": 38.907166333333336, "bike_id": "4d4945e09bd1b418acb225146f450b00", "type": "electric_scooter", "is_reserved": 0, "lon": -77.04815433333333}, {"fusion_lat": 0.0, "name": "b518829a63dd6e97589e9160746daf90", "is_disabled": 0, "rental_uris": {"android": "https://dc.lft.to/lastmile_qr_scan", "ios": "https://dc.lft.to/lastmile_qr_scan"}, "fusion_lon": 0.0, "lat": 38.885234, "bike_id": "b518829a63dd6e97589e9160746daf90", "type": "electric_scooter", "is_reserved": 0, "lon": -77.0200305}, {"fusion_lat": 0.0, "name": "4ce6f8c8cc54ef8ab9dc0e2f37c97fc4", "is_disabled": 0, "rental_uris": {"android": "https://dc.lft.to/lastmile_qr_scan", "ios": "https://dc.lft.to/lastmile_qr_scan"}, "fusion_lon": 0.0, "lat": 38.923279, "bike_id": "4ce6f8c8cc54ef8ab9dc0e2f37c97fc4", "type": "electric_scooter", "is_reserved": 0, "lon": -77.02081083333333}, {"fusion_lat": 0.0, "name": "292b347045f132e454fd33f0796c8070", "is_disabled": 0, "rental_uris": {"android": "https://dc.lft.to/lastmile_qr_scan", "ios": "https://dc.lft.to/lastmile_qr_scan"}, "fusion_lon": 0.0, "lat": 38.90021516666667, "bike_id": "292b347045f132e454fd33f0796c8070", "type": "electric_scooter", "is_reserved": 0, "lon": -77.011942}, {"fusion_lat": 0.0, "name": "c7c1f3b30a6b95241e2536f26f47e6c8", "is_disabled": 0, "rental_uris": {"android": "https://dc.lft.to/lastmile_qr_scan", "ios": "https://dc.lft.to/lastmile_qr_scan"}, "fusion_lon": 0.0, "lat": 38.97283683333333, "bike_id": "c7c1f3b30a6b95241e2536f26f47e6c8", "type": "electric_scooter", "is_reserved": 0, "lon": -77.01162033333334}, {"fusion_lat": 0.0, "name": "edaae395849323d49316e856c000244e", "is_disabled": 0, "rental_uris": {"android": "https://dc.lft.to/lastmile_qr_scan", "ios": "https://dc.lft.to/lastmile_qr_scan"}, "fusion_lon": 0.0, "lat": 38.867278, "bike_id": "edaae395849323d49316e856c000244e", "type": "electric_scooter", "is_reserved": 0, "lon": -76.9878795}, {"fusion_lat": 0.0, "name": "eba1ca5589ac4106dd001171b8a5325f", "is_disabled": 0, "rental_uris": {"android": "https://dc.lft.to/lastmile_qr_scan", "ios": "https://dc.lft.to/lastmile_qr_scan"}, "fusion_lon": 0.0, "lat": 38.92437366666667, "bike_id": "eba1ca5589ac4106dd001171b8a5325f", "type": "electric_scooter", "is_reserved": 0, "lon": -77.04463066666666}, {"fusion_lat": 0.0, "name": "9c2899cb51eab5328927b29e0dbd5463", "is_disabled": 0, "rental_uris": {"android": "https://dc.lft.to/lastmile_qr_scan", "ios": "https://dc.lft.to/lastmile_qr_scan"}, "fusion_lon": 0.0, "lat": 38.961822166666664, "bike_id": "9c2899cb51eab5328927b29e0dbd5463", "type": "electric_bike", "is_reserved": 0, "lon": -77.0527265}, {"fusion_lat": 0.0, "name": "1b9d30270ac27108dec01b2969b81218", "is_disabled": 0, "rental_uris": {"android": "https://dc.lft.to/lastmile_qr_scan", "ios": "https://dc.lft.to/lastmile_qr_scan"}, "fusion_lon": 0.0, "lat": 38.89701916666667, "bike_id": "1b9d30270ac27108dec01b2969b81218", "type": "electric_scooter", "is_reserved": 0, "lon": -77.01306733333334}, {"fusion_lat": 0.0, "name": "3584e4617ced2d6c95cdb0f686cde973", "is_disabled": 0, "rental_uris": {"android": "https://dc.lft.to/lastmile_qr_scan", "ios": "https://dc.lft.to/lastmile_qr_scan"}, "fusion_lon": 0.0, "lat": 38.91555016666667, "bike_id": "3584e4617ced2d6c95cdb0f686cde973", "type": "electric_scooter", "is_reserved": 0, "lon": -77.03870133333334}, {"fusion_lat": 0.0, "name": "5f9b38aa08a4932170fec0923bd143ed", "is_disabled": 0, "rental_uris": {"android": "https://dc.lft.to/lastmile_qr_scan", "ios": "https://dc.lft.to/lastmile_qr_scan"}, "fusion_lon": 0.0, "lat": 38.92675283333333, "bike_id": "5f9b38aa08a4932170fec0923bd143ed", "type": "electric_scooter", "is_reserved": 0, "lon": -77.02788133333334}, {"fusion_lat": 0.0, "name": "91161d5d6ead8faddb77831cf440839a", "is_disabled": 0, "rental_uris": {"android": "https://dc.lft.to/lastmile_qr_scan", "ios": "https://dc.lft.to/lastmile_qr_scan"}, "fusion_lon": 0.0, "lat": 38.9171255, "bike_id": "91161d5d6ead8faddb77831cf440839a", "type": "electric_scooter", "is_reserved": 0, "lon": -77.0270805}, {"fusion_lat": 0.0, "name": "e709ce04e10237a8e4cd1a109c3e4a05", "is_disabled": 0, "rental_uris": {"android": "https://dc.lft.to/lastmile_qr_scan", "ios": "https://dc.lft.to/lastmile_qr_scan"}, "fusion_lon": 0.0, "lat": 38.92076933333333, "bike_id": "e709ce04e10237a8e4cd1a109c3e4a05", "type": "electric_scooter", "is_reserved": 0, "lon": -77.0222545}, {"fusion_lat": 0.0, "name": "ef8c2a0deccf8d614775c8792a7420b8", "is_disabled": 0, "rental_uris": {"android": "https://dc.lft.to/lastmile_qr_scan", "ios": "https://dc.lft.to/lastmile_qr_scan"}, "fusion_lon": 0.0, "lat": 38.901819, "bike_id": "ef8c2a0deccf8d614775c8792a7420b8", "type": "electric_scooter", "is_reserved": 0, "lon": -77.02749766666666}, {"fusion_lat": 0.0, "name": "22a4cbbca9349c6685d88f3539e49b6b", "is_disabled": 0, "rental_uris": {"android": "https://dc.lft.to/lastmile_qr_scan", "ios": "https://dc.lft.to/lastmile_qr_scan"}, "fusion_lon": 0.0, "lat": 38.942736833333335, "bike_id": "22a4cbbca9349c6685d88f3539e49b6b", "type": "electric_scooter", "is_reserved": 0, "lon": -77.032617}, {"fusion_lat": 0.0, "name": "087bae8ef38354a3ba8938e5eb31486a", "is_disabled": 0, "rental_uris": {"android": "https://dc.lft.to/lastmile_qr_scan", "ios": "https://dc.lft.to/lastmile_qr_scan"}, "fusion_lon": 0.0, "lat": 38.905894833333335, "bike_id": "087bae8ef38354a3ba8938e5eb31486a", "type": "electric_scooter", "is_reserved": 0, "lon": -77.01618316666666}, {"fusion_lat": 0.0, "name": "e331f2a943711ce8ef315e7bdb9f67dd", "is_disabled": 0, "rental_uris": {"android": "https://dc.lft.to/lastmile_qr_scan", "ios": "https://dc.lft.to/lastmile_qr_scan"}, "fusion_lon": 0.0, "lat": 38.934859333333335, "bike_id": "e331f2a943711ce8ef315e7bdb9f67dd", "type": "electric_scooter", "is_reserved": 0, "lon": -77.07281783333333}, {"fusion_lat": 0.0, "name": "f15db553c1ad37d11dcc0788d996fdc2", "is_disabled": 0, "rental_uris": {"android": "https://dc.lft.to/lastmile_qr_scan", "ios": "https://dc.lft.to/lastmile_qr_scan"}, "fusion_lon": 0.0, "lat": 38.89791266666667, "bike_id": "f15db553c1ad37d11dcc0788d996fdc2", "type": "electric_scooter", "is_reserved": 0, "lon": -76.94736033333334}, {"fusion_lat": 0.0, "name": "12d8763eaf654af9909194c25e5fd289", "is_disabled": 0, "rental_uris": {"android": "https://dc.lft.to/lastmile_qr_scan", "ios": "https://dc.lft.to/lastmile_qr_scan"}, "fusion_lon": 0.0, "lat": 38.902562833333334, "bike_id": "12d8763eaf654af9909194c25e5fd289", "type": "electric_scooter", "is_reserved": 0, "lon": -77.03655933333333}, {"fusion_lat": 0.0, "name": "a5d5b0faccaed8e87d25588c07973c37", "is_disabled": 0, "rental_uris": {"android": "https://dc.lft.to/lastmile_qr_scan", "ios": "https://dc.lft.to/lastmile_qr_scan"}, "fusion_lon": 0.0, "lat": 38.95755066666667, "bike_id": "a5d5b0faccaed8e87d25588c07973c37", "type": "electric_bike", "is_reserved": 0, "lon": -77.00715666666666}, {"fusion_lat": 0.0, "name": "24f9c309a262ff7626b2a2df125c05e8", "is_disabled": 0, "rental_uris": {"android": "https://dc.lft.to/lastmile_qr_scan", "ios": "https://dc.lft.to/lastmile_qr_scan"}, "fusion_lon": 0.0, "lat": 38.92344033333333, "bike_id": "24f9c309a262ff7626b2a2df125c05e8", "type": "electric_scooter", "is_reserved": 0, "lon": -77.0390505}, {"fusion_lat": 0.0, "name": "9055755dc1f08baee9643da79c30c3d5", "is_disabled": 0, "rental_uris": {"android": "https://dc.lft.to/lastmile_qr_scan", "ios": "https://dc.lft.to/lastmile_qr_scan"}, "fusion_lon": 0.0, "lat": 38.8935865, "bike_id": "9055755dc1f08baee9643da79c30c3d5", "type": "electric_scooter", "is_reserved": 0, "lon": -77.01144066666667}, {"fusion_lat": 0.0, "name": "53647276d337f9d240a3efb4566a418a", "is_disabled": 0, "rental_uris": {"android": "https://dc.lft.to/lastmile_qr_scan", "ios": "https://dc.lft.to/lastmile_qr_scan"}, "fusion_lon": 0.0, "lat": 38.9126945, "bike_id": "53647276d337f9d240a3efb4566a418a", "type": "electric_scooter", "is_reserved": 0, "lon": -77.019336}, {"fusion_lat": 0.0, "name": "420b8b2c5e0ae54cc50dfddf75af44b2", "is_disabled": 0, "rental_uris": {"android": "https://dc.lft.to/lastmile_qr_scan", "ios": "https://dc.lft.to/lastmile_qr_scan"}, "fusion_lon": 0.0, "lat": 38.956260666666665, "bike_id": "420b8b2c5e0ae54cc50dfddf75af44b2", "type": "electric_bike", "is_reserved": 0, "lon": -76.938793}, {"fusion_lat": 0.0, "name": "3a388050e1524377bc3ad46ddebaab16", "is_disabled": 0, "rental_uris": {"android": "https://dc.lft.to/lastmile_qr_scan", "ios": "https://dc.lft.to/lastmile_qr_scan"}, "fusion_lon": 0.0, "lat": 38.905054166666666, "bike_id": "3a388050e1524377bc3ad46ddebaab16", "type": "electric_scooter", "is_reserved": 0, "lon": -77.06477566666666}, {"fusion_lat": 0.0, "name": "6f7b07dbbf022f409f1b39ccf8ce96cc", "is_disabled": 0, "rental_uris": {"android": "https://dc.lft.to/lastmile_qr_scan", "ios": "https://dc.lft.to/lastmile_qr_scan"}, "fusion_lon": 0.0, "lat": 38.89910416666667, "bike_id": "6f7b07dbbf022f409f1b39ccf8ce96cc", "type": "electric_scooter", "is_reserved": 0, "lon": -76.99387783333333}, {"fusion_lat": 0.0, "name": "1aa3e7584f95542289a4775045ae4c91", "is_disabled": 0, "rental_uris": {"android": "https://dc.lft.to/lastmile_qr_scan", "ios": "https://dc.lft.to/lastmile_qr_scan"}, "fusion_lon": 0.0, "lat": 38.901113, "bike_id": "1aa3e7584f95542289a4775045ae4c91", "type": "electric_scooter", "is_reserved": 0, "lon": -77.059026}, {"fusion_lat": 0.0, "name": "0f4ab4801b9fd0ca4244e2b7d04e08dc", "is_disabled": 0, "rental_uris": {"android": "https://dc.lft.to/lastmile_qr_scan", "ios": "https://dc.lft.to/lastmile_qr_scan"}, "fusion_lon": 0.0, "lat": 38.895244166666664, "bike_id": "0f4ab4801b9fd0ca4244e2b7d04e08dc", "type": "electric_scooter", "is_reserved": 0, "lon": -76.93415633333333}, {"fusion_lat": 0.0, "name": "e463204e4f257c2759b1f4da60b9a531", "is_disabled": 0, "rental_uris": {"android": "https://dc.lft.to/lastmile_qr_scan", "ios": "https://dc.lft.to/lastmile_qr_scan"}, "fusion_lon": 0.0, "lat": 38.933381833333335, "bike_id": "e463204e4f257c2759b1f4da60b9a531", "type": "electric_scooter", "is_reserved": 0, "lon": -77.02632916666667}, {"fusion_lat": 0.0, "name": "2e908b89991d20d6d7a52e22bea23991", "is_disabled": 0, "rental_uris": {"android": "https://dc.lft.to/lastmile_qr_scan", "ios": "https://dc.lft.to/lastmile_qr_scan"}, "fusion_lon": 0.0, "lat": 38.893405, "bike_id": "2e908b89991d20d6d7a52e22bea23991", "type": "electric_scooter", "is_reserved": 0, "lon": -77.039375}, {"fusion_lat": 0.0, "name": "8523ae337da2e579694d5c0f217752ee", "is_disabled": 0, "rental_uris": {"android": "https://dc.lft.to/lastmile_qr_scan", "ios": "https://dc.lft.to/lastmile_qr_scan"}, "fusion_lon": 0.0, "lat": 38.89564166666667, "bike_id": "8523ae337da2e579694d5c0f217752ee", "type": "electric_scooter", "is_reserved": 0, "lon": -77.02170133333334}, {"fusion_lat": 0.0, "name": "cf03019109751685ff59859c8645140e", "is_disabled": 0, "rental_uris": {"android": "https://dc.lft.to/lastmile_qr_scan", "ios": "https://dc.lft.to/lastmile_qr_scan"}, "fusion_lon": 0.0, "lat": 38.93126766666666, "bike_id": "cf03019109751685ff59859c8645140e", "type": "electric_scooter", "is_reserved": 0, "lon": -77.0385865}, {"fusion_lat": 0.0, "name": "5b93ceab612bfeebc6d503d4b0fc24ea", "is_disabled": 0, "rental_uris": {"android": "https://dc.lft.to/lastmile_qr_scan", "ios": "https://dc.lft.to/lastmile_qr_scan"}, "fusion_lon": 0.0, "lat": 38.9127695, "bike_id": "5b93ceab612bfeebc6d503d4b0fc24ea", "type": "electric_scooter", "is_reserved": 0, "lon": -77.01978533333333}, {"fusion_lat": 0.0, "name": "2fae66b8706894f2f93bb54371981a04", "is_disabled": 0, "rental_uris": {"android": "https://dc.lft.to/lastmile_qr_scan", "ios": "https://dc.lft.to/lastmile_qr_scan"}, "fusion_lon": 0.0, "lat": 38.90037566666667, "bike_id": "2fae66b8706894f2f93bb54371981a04", "type": "electric_scooter", "is_reserved": 0, "lon": -76.985562}, {"fusion_lat": 0.0, "name": "8360388655f29fcbc56c12bccdc1181d", "is_disabled": 0, "rental_uris": {"android": "https://dc.lft.to/lastmile_qr_scan", "ios": "https://dc.lft.to/lastmile_qr_scan"}, "fusion_lon": 0.0, "lat": 38.853224, "bike_id": "8360388655f29fcbc56c12bccdc1181d", "type": "electric_scooter", "is_reserved": 0, "lon": -76.9802725}, {"fusion_lat": 0.0, "name": "842ab72f54e11e4524c037e04e1e201d", "is_disabled": 0, "rental_uris": {"android": "https://dc.lft.to/lastmile_qr_scan", "ios": "https://dc.lft.to/lastmile_qr_scan"}, "fusion_lon": 0.0, "lat": 38.92074483333333, "bike_id": "842ab72f54e11e4524c037e04e1e201d", "type": "electric_scooter", "is_reserved": 0, "lon": -77.01395116666667}, {"fusion_lat": 0.0, "name": "02b8d06aa2042158fe8b4f1c952d7748", "is_disabled": 0, "rental_uris": {"android": "https://dc.lft.to/lastmile_qr_scan", "ios": "https://dc.lft.to/lastmile_qr_scan"}, "fusion_lon": 0.0, "lat": 38.8922265, "bike_id": "02b8d06aa2042158fe8b4f1c952d7748", "type": "electric_scooter", "is_reserved": 0, "lon": -77.0250625}, {"fusion_lat": 0.0, "name": "cd09f88c3e92ce141e2e8fbea779db5d", "is_disabled": 0, "rental_uris": {"android": "https://dc.lft.to/lastmile_qr_scan", "ios": "https://dc.lft.to/lastmile_qr_scan"}, "fusion_lon": 0.0, "lat": 38.90548866666666, "bike_id": "cd09f88c3e92ce141e2e8fbea779db5d", "type": "electric_scooter", "is_reserved": 0, "lon": -77.04287666666667}, {"fusion_lat": 0.0, "name": "ad4a9befe1dd7e1f45bb242d11b79ed0", "is_disabled": 0, "rental_uris": {"android": "https://dc.lft.to/lastmile_qr_scan", "ios": "https://dc.lft.to/lastmile_qr_scan"}, "fusion_lon": 0.0, "lat": 38.90128883333333, "bike_id": "ad4a9befe1dd7e1f45bb242d11b79ed0", "type": "electric_scooter", "is_reserved": 0, "lon": -77.04189583333333}, {"fusion_lat": 0.0, "name": "c2b5fbe87fd3f9d50af58915cb698634", "is_disabled": 0, "rental_uris": {"android": "https://dc.lft.to/lastmile_qr_scan", "ios": "https://dc.lft.to/lastmile_qr_scan"}, "fusion_lon": 0.0, "lat": 38.934707333333336, "bike_id": "c2b5fbe87fd3f9d50af58915cb698634", "type": "electric_scooter", "is_reserved": 0, "lon": -77.07215983333333}, {"fusion_lat": 0.0, "name": "5cde66427c870263534bbc1303ae8204", "is_disabled": 0, "rental_uris": {"android": "https://dc.lft.to/lastmile_qr_scan", "ios": "https://dc.lft.to/lastmile_qr_scan"}, "fusion_lon": 0.0, "lat": 38.9023445, "bike_id": "5cde66427c870263534bbc1303ae8204", "type": "electric_scooter", "is_reserved": 0, "lon": -77.04572883333333}, {"fusion_lat": 0.0, "name": "857372694816ce60fcd6fcec7c2bdbe3", "is_disabled": 0, "rental_uris": {"android": "https://dc.lft.to/lastmile_qr_scan", "ios": "https://dc.lft.to/lastmile_qr_scan"}, "fusion_lon": 0.0, "lat": 38.90082666666667, "bike_id": "857372694816ce60fcd6fcec7c2bdbe3", "type": "electric_scooter", "is_reserved": 0, "lon": -76.983385}, {"fusion_lat": 0.0, "name": "eeecca4edecbd213275e6e4b407e18e8", "is_disabled": 0, "rental_uris": {"android": "https://dc.lft.to/lastmile_qr_scan", "ios": "https://dc.lft.to/lastmile_qr_scan"}, "fusion_lon": 0.0, "lat": 38.894955833333334, "bike_id": "eeecca4edecbd213275e6e4b407e18e8", "type": "electric_scooter", "is_reserved": 0, "lon": -77.003419}, {"fusion_lat": 0.0, "name": "6d430c6533b19ba523a853796635f18f", "is_disabled": 0, "rental_uris": {"android": "https://dc.lft.to/lastmile_qr_scan", "ios": "https://dc.lft.to/lastmile_qr_scan"}, "fusion_lon": 0.0, "lat": 38.907580333333335, "bike_id": "6d430c6533b19ba523a853796635f18f", "type": "electric_scooter", "is_reserved": 0, "lon": -77.03846583333333}, {"fusion_lat": 0.0, "name": "7a9ff635120b6f865a7d81566afab1f0", "is_disabled": 0, "rental_uris": {"android": "https://dc.lft.to/lastmile_qr_scan", "ios": "https://dc.lft.to/lastmile_qr_scan"}, "fusion_lon": 0.0, "lat": 38.913141833333334, "bike_id": "7a9ff635120b6f865a7d81566afab1f0", "type": "electric_scooter", "is_reserved": 0, "lon": -77.01976083333334}, {"fusion_lat": 0.0, "name": "b0fdd8a7d9c375695254dbe170a83c3b", "is_disabled": 0, "rental_uris": {"android": "https://dc.lft.to/lastmile_qr_scan", "ios": "https://dc.lft.to/lastmile_qr_scan"}, "fusion_lon": 0.0, "lat": 38.88390616666667, "bike_id": "b0fdd8a7d9c375695254dbe170a83c3b", "type": "electric_scooter", "is_reserved": 0, "lon": -77.02977916666667}, {"fusion_lat": 0.0, "name": "ae6beb5e60277cd1b93058888eed24af", "is_disabled": 0, "rental_uris": {"android": "https://dc.lft.to/lastmile_qr_scan", "ios": "https://dc.lft.to/lastmile_qr_scan"}, "fusion_lon": 0.0, "lat": 38.90966133333333, "bike_id": "ae6beb5e60277cd1b93058888eed24af", "type": "electric_scooter", "is_reserved": 0, "lon": -77.03235383333333}, {"fusion_lat": 0.0, "name": "45cac9f63ff73c0c81e4406e8b000971", "is_disabled": 0, "rental_uris": {"android": "https://dc.lft.to/lastmile_qr_scan", "ios": "https://dc.lft.to/lastmile_qr_scan"}, "fusion_lon": 0.0, "lat": 38.8739715, "bike_id": "45cac9f63ff73c0c81e4406e8b000971", "type": "electric_scooter", "is_reserved": 0, "lon": -77.01450666666666}, {"fusion_lat": 0.0, "name": "6e2b83a2b2ed0ab7b18db452cad020d7", "is_disabled": 0, "rental_uris": {"android": "https://dc.lft.to/lastmile_qr_scan", "ios": "https://dc.lft.to/lastmile_qr_scan"}, "fusion_lon": 0.0, "lat": 38.88765816666667, "bike_id": "6e2b83a2b2ed0ab7b18db452cad020d7", "type": "electric_scooter", "is_reserved": 0, "lon": -77.01305783333333}, {"fusion_lat": 0.0, "name": "5021f95d9e3f852bc40e88ecc6a6715e", "is_disabled": 0, "rental_uris": {"android": "https://dc.lft.to/lastmile_qr_scan", "ios": "https://dc.lft.to/lastmile_qr_scan"}, "fusion_lon": 0.0, "lat": 38.9174415, "bike_id": "5021f95d9e3f852bc40e88ecc6a6715e", "type": "electric_scooter", "is_reserved": 0, "lon": -77.01222166666666}, {"fusion_lat": 0.0, "name": "8ce588d55a60c451b01983b68b569d28", "is_disabled": 0, "rental_uris": {"android": "https://dc.lft.to/lastmile_qr_scan", "ios": "https://dc.lft.to/lastmile_qr_scan"}, "fusion_lon": 0.0, "lat": 38.893220666666664, "bike_id": "8ce588d55a60c451b01983b68b569d28", "type": "electric_bike", "is_reserved": 0, "lon": -76.95123433333333}, {"fusion_lat": 0.0, "name": "abf4630deff55860adff003ba694400b", "is_disabled": 0, "rental_uris": {"android": "https://dc.lft.to/lastmile_qr_scan", "ios": "https://dc.lft.to/lastmile_qr_scan"}, "fusion_lon": 0.0, "lat": 38.909763833333336, "bike_id": "abf4630deff55860adff003ba694400b", "type": "electric_scooter", "is_reserved": 0, "lon": -77.048429}, {"fusion_lat": 0.0, "name": "0c1c015cbdc96c47b088ade0586c2108", "is_disabled": 0, "rental_uris": {"android": "https://dc.lft.to/lastmile_qr_scan", "ios": "https://dc.lft.to/lastmile_qr_scan"}, "fusion_lon": 0.0, "lat": 38.93958683333334, "bike_id": "0c1c015cbdc96c47b088ade0586c2108", "type": "electric_scooter", "is_reserved": 0, "lon": -77.032897}, {"fusion_lat": 0.0, "name": "e2a3c8988e4ba41ba25f6b6d23804532", "is_disabled": 0, "rental_uris": {"android": "https://dc.lft.to/lastmile_qr_scan", "ios": "https://dc.lft.to/lastmile_qr_scan"}, "fusion_lon": 0.0, "lat": 38.827869, "bike_id": "e2a3c8988e4ba41ba25f6b6d23804532", "type": "electric_bike", "is_reserved": 0, "lon": -77.12492733333333}, {"fusion_lat": 0.0, "name": "1776cb15cc4a498c4a4392547e1f1fa1", "is_disabled": 0, "rental_uris": {"android": "https://dc.lft.to/lastmile_qr_scan", "ios": "https://dc.lft.to/lastmile_qr_scan"}, "fusion_lon": 0.0, "lat": 38.91843816666667, "bike_id": "1776cb15cc4a498c4a4392547e1f1fa1", "type": "electric_scooter", "is_reserved": 0, "lon": -76.9654035}, {"fusion_lat": 0.0, "name": "bac7b5d50f7826a7fb7e816a55e932b1", "is_disabled": 0, "rental_uris": {"android": "https://dc.lft.to/lastmile_qr_scan", "ios": "https://dc.lft.to/lastmile_qr_scan"}, "fusion_lon": 0.0, "lat": 38.93113233333333, "bike_id": "bac7b5d50f7826a7fb7e816a55e932b1", "type": "electric_scooter", "is_reserved": 0, "lon": -77.02087583333333}, {"fusion_lat": 0.0, "name": "7e1f332df3e6cd30b5bc4b0fa8ce2508", "is_disabled": 0, "rental_uris": {"android": "https://dc.lft.to/lastmile_qr_scan", "ios": "https://dc.lft.to/lastmile_qr_scan"}, "fusion_lon": 0.0, "lat": 38.906134333333334, "bike_id": "7e1f332df3e6cd30b5bc4b0fa8ce2508", "type": "electric_scooter", "is_reserved": 0, "lon": -77.026086}, {"fusion_lat": 0.0, "name": "0f23475cbbb593a11687842d9ec24276", "is_disabled": 0, "rental_uris": {"android": "https://dc.lft.to/lastmile_qr_scan", "ios": "https://dc.lft.to/lastmile_qr_scan"}, "fusion_lon": 0.0, "lat": 38.8852085, "bike_id": "0f23475cbbb593a11687842d9ec24276", "type": "electric_scooter", "is_reserved": 0, "lon": -76.9771435}, {"fusion_lat": 0.0, "name": "16e2938c3da5d97cf38ffbf1ba7eb30a", "is_disabled": 0, "rental_uris": {"android": "https://dc.lft.to/lastmile_qr_scan", "ios": "https://dc.lft.to/lastmile_qr_scan"}, "fusion_lon": 0.0, "lat": 38.89211733333333, "bike_id": "16e2938c3da5d97cf38ffbf1ba7eb30a", "type": "electric_scooter", "is_reserved": 0, "lon": -77.026673}, {"fusion_lat": 0.0, "name": "8af98b990df9a3e699ed8eb57eec7864", "is_disabled": 0, "rental_uris": {"android": "https://dc.lft.to/lastmile_qr_scan", "ios": "https://dc.lft.to/lastmile_qr_scan"}, "fusion_lon": 0.0, "lat": 38.844247833333334, "bike_id": "8af98b990df9a3e699ed8eb57eec7864", "type": "electric_scooter", "is_reserved": 0, "lon": -76.997862}, {"fusion_lat": 0.0, "name": "aa01996e607df09e05ccc48b54037be7", "is_disabled": 0, "rental_uris": {"android": "https://dc.lft.to/lastmile_qr_scan", "ios": "https://dc.lft.to/lastmile_qr_scan"}, "fusion_lon": 0.0, "lat": 38.911156166666665, "bike_id": "aa01996e607df09e05ccc48b54037be7", "type": "electric_scooter", "is_reserved": 0, "lon": -77.08137416666666}, {"fusion_lat": 0.0, "name": "2c1778c02352bc640be886a4463ff04c", "is_disabled": 0, "rental_uris": {"android": "https://dc.lft.to/lastmile_qr_scan", "ios": "https://dc.lft.to/lastmile_qr_scan"}, "fusion_lon": 0.0, "lat": 38.8974355, "bike_id": "2c1778c02352bc640be886a4463ff04c", "type": "electric_scooter", "is_reserved": 0, "lon": -77.003711}, {"fusion_lat": 0.0, "name": "6fd090e61bc2d776dedfdd785781c6b6", "is_disabled": 0, "rental_uris": {"android": "https://dc.lft.to/lastmile_qr_scan", "ios": "https://dc.lft.to/lastmile_qr_scan"}, "fusion_lon": 0.0, "lat": 38.9065955, "bike_id": "6fd090e61bc2d776dedfdd785781c6b6", "type": "electric_scooter", "is_reserved": 0, "lon": -77.0096805}, {"fusion_lat": 0.0, "name": "e428fbbc375bbf0b99698a1b0173a89c", "is_disabled": 0, "rental_uris": {"android": "https://dc.lft.to/lastmile_qr_scan", "ios": "https://dc.lft.to/lastmile_qr_scan"}, "fusion_lon": 0.0, "lat": 38.902423666666664, "bike_id": "e428fbbc375bbf0b99698a1b0173a89c", "type": "electric_scooter", "is_reserved": 0, "lon": -77.01913516666667}, {"fusion_lat": 0.0, "name": "e46f41042f18c199c218bbe613603c80", "is_disabled": 0, "rental_uris": {"android": "https://dc.lft.to/lastmile_qr_scan", "ios": "https://dc.lft.to/lastmile_qr_scan"}, "fusion_lon": 0.0, "lat": 38.8362265, "bike_id": "e46f41042f18c199c218bbe613603c80", "type": "electric_bike", "is_reserved": 0, "lon": -77.06953383333334}, {"fusion_lat": 0.0, "name": "5432994998e69e50dadb8e1632f3b3ae", "is_disabled": 0, "rental_uris": {"android": "https://dc.lft.to/lastmile_qr_scan", "ios": "https://dc.lft.to/lastmile_qr_scan"}, "fusion_lon": 0.0, "lat": 38.93485066666667, "bike_id": "5432994998e69e50dadb8e1632f3b3ae", "type": "electric_scooter", "is_reserved": 0, "lon": -77.0728275}, {"fusion_lat": 0.0, "name": "29713f5c480e8d8246a91e2d8b616e3b", "is_disabled": 0, "rental_uris": {"android": "https://dc.lft.to/lastmile_qr_scan", "ios": "https://dc.lft.to/lastmile_qr_scan"}, "fusion_lon": 0.0, "lat": 38.918549166666665, "bike_id": "29713f5c480e8d8246a91e2d8b616e3b", "type": "electric_bike", "is_reserved": 0, "lon": -76.960936}, {"fusion_lat": 0.0, "name": "9d1027a94f5b5028e9f5fea7e8fff3c3", "is_disabled": 0, "rental_uris": {"android": "https://dc.lft.to/lastmile_qr_scan", "ios": "https://dc.lft.to/lastmile_qr_scan"}, "fusion_lon": 0.0, "lat": 38.91658283333334, "bike_id": "9d1027a94f5b5028e9f5fea7e8fff3c3", "type": "electric_scooter", "is_reserved": 0, "lon": -77.03855633333333}, {"fusion_lat": 0.0, "name": "31d87a1978436fa28b0c84a97c90e346", "is_disabled": 0, "rental_uris": {"android": "https://dc.lft.to/lastmile_qr_scan", "ios": "https://dc.lft.to/lastmile_qr_scan"}, "fusion_lon": 0.0, "lat": 38.90687666666667, "bike_id": "31d87a1978436fa28b0c84a97c90e346", "type": "electric_scooter", "is_reserved": 0, "lon": -76.95198466666666}, {"fusion_lat": 0.0, "name": "81f677e96a29d8166850ff8d3a599137", "is_disabled": 0, "rental_uris": {"android": "https://dc.lft.to/lastmile_qr_scan", "ios": "https://dc.lft.to/lastmile_qr_scan"}, "fusion_lon": 0.0, "lat": 38.90562933333333, "bike_id": "81f677e96a29d8166850ff8d3a599137", "type": "electric_scooter", "is_reserved": 0, "lon": -77.02100566666667}, {"fusion_lat": 0.0, "name": "db51a7de9089027d9df2b99d803f2f8e", "is_disabled": 0, "rental_uris": {"android": "https://dc.lft.to/lastmile_qr_scan", "ios": "https://dc.lft.to/lastmile_qr_scan"}, "fusion_lon": 0.0, "lat": 38.91113633333333, "bike_id": "db51a7de9089027d9df2b99d803f2f8e", "type": "electric_scooter", "is_reserved": 0, "lon": -77.02168366666666}, {"fusion_lat": 0.0, "name": "b3e7644f5abcd8bf9c03ec95c574b19a", "is_disabled": 0, "rental_uris": {"android": "https://dc.lft.to/lastmile_qr_scan", "ios": "https://dc.lft.to/lastmile_qr_scan"}, "fusion_lon": 0.0, "lat": 38.907058666666664, "bike_id": "b3e7644f5abcd8bf9c03ec95c574b19a", "type": "electric_scooter", "is_reserved": 0, "lon": -77.02400916666667}, {"fusion_lat": 0.0, "name": "7e310d4535fed16da36916d5d15bc379", "is_disabled": 0, "rental_uris": {"android": "https://dc.lft.to/lastmile_qr_scan", "ios": "https://dc.lft.to/lastmile_qr_scan"}, "fusion_lon": 0.0, "lat": 38.91408116666667, "bike_id": "7e310d4535fed16da36916d5d15bc379", "type": "electric_scooter", "is_reserved": 0, "lon": -77.0456995}, {"fusion_lat": 0.0, "name": "6110c923e77453d681a5f6e6f1ee01f4", "is_disabled": 0, "rental_uris": {"android": "https://dc.lft.to/lastmile_qr_scan", "ios": "https://dc.lft.to/lastmile_qr_scan"}, "fusion_lon": 0.0, "lat": 38.9023015, "bike_id": "6110c923e77453d681a5f6e6f1ee01f4", "type": "electric_scooter", "is_reserved": 0, "lon": -77.0463305}, {"fusion_lat": 0.0, "name": "a6d9461d627ca025d364f17db6c18cd1", "is_disabled": 0, "rental_uris": {"android": "https://dc.lft.to/lastmile_qr_scan", "ios": "https://dc.lft.to/lastmile_qr_scan"}, "fusion_lon": 0.0, "lat": 38.887359833333335, "bike_id": "a6d9461d627ca025d364f17db6c18cd1", "type": "electric_scooter", "is_reserved": 0, "lon": -77.0151685}, {"fusion_lat": 0.0, "name": "c95b0eeb40fd4784791aa00fbf894729", "is_disabled": 0, "rental_uris": {"android": "https://dc.lft.to/lastmile_qr_scan", "ios": "https://dc.lft.to/lastmile_qr_scan"}, "fusion_lon": 0.0, "lat": 38.8983345, "bike_id": "c95b0eeb40fd4784791aa00fbf894729", "type": "electric_scooter", "is_reserved": 0, "lon": -77.03332566666667}, {"fusion_lat": 0.0, "name": "82758b8e638175b022a8a329c978109a", "is_disabled": 0, "rental_uris": {"android": "https://dc.lft.to/lastmile_qr_scan", "ios": "https://dc.lft.to/lastmile_qr_scan"}, "fusion_lon": 0.0, "lat": 38.8849335, "bike_id": "82758b8e638175b022a8a329c978109a", "type": "electric_scooter", "is_reserved": 0, "lon": -76.98063466666666}, {"fusion_lat": 0.0, "name": "83c3ddb03d9a18cfe7ffadaab05cd4cc", "is_disabled": 0, "rental_uris": {"android": "https://dc.lft.to/lastmile_qr_scan", "ios": "https://dc.lft.to/lastmile_qr_scan"}, "fusion_lon": 0.0, "lat": 38.920346, "bike_id": "83c3ddb03d9a18cfe7ffadaab05cd4cc", "type": "electric_bike", "is_reserved": 0, "lon": -76.97964533333334}, {"fusion_lat": 0.0, "name": "c426021f4be26776d5b72186fbaf391a", "is_disabled": 0, "rental_uris": {"android": "https://dc.lft.to/lastmile_qr_scan", "ios": "https://dc.lft.to/lastmile_qr_scan"}, "fusion_lon": 0.0, "lat": 38.8076165, "bike_id": "c426021f4be26776d5b72186fbaf391a", "type": "electric_bike", "is_reserved": 0, "lon": -77.129922}, {"fusion_lat": 0.0, "name": "04fbb9ab5e75a06e76c7b522ff5dfb00", "is_disabled": 0, "rental_uris": {"android": "https://dc.lft.to/lastmile_qr_scan", "ios": "https://dc.lft.to/lastmile_qr_scan"}, "fusion_lon": 0.0, "lat": 38.887257, "bike_id": "04fbb9ab5e75a06e76c7b522ff5dfb00", "type": "electric_scooter", "is_reserved": 0, "lon": -77.03205716666666}, {"fusion_lat": 0.0, "name": "1e412d82a93e3a241a58727ff0282bfb", "is_disabled": 0, "rental_uris": {"android": "https://dc.lft.to/lastmile_qr_scan", "ios": "https://dc.lft.to/lastmile_qr_scan"}, "fusion_lon": 0.0, "lat": 38.91911866666667, "bike_id": "1e412d82a93e3a241a58727ff0282bfb", "type": "electric_scooter", "is_reserved": 0, "lon": -77.02820183333333}, {"fusion_lat": 0.0, "name": "3f3b8ba8d46c0aa6ec871005bab291f5", "is_disabled": 0, "rental_uris": {"android": "https://dc.lft.to/lastmile_qr_scan", "ios": "https://dc.lft.to/lastmile_qr_scan"}, "fusion_lon": 0.0, "lat": 38.90062483333333, "bike_id": "3f3b8ba8d46c0aa6ec871005bab291f5", "type": "electric_scooter", "is_reserved": 0, "lon": -76.92744616666667}, {"fusion_lat": 0.0, "name": "04c74bd6a4ccce474c6e35e8118d754b", "is_disabled": 0, "rental_uris": {"android": "https://dc.lft.to/lastmile_qr_scan", "ios": "https://dc.lft.to/lastmile_qr_scan"}, "fusion_lon": 0.0, "lat": 38.92360433333333, "bike_id": "04c74bd6a4ccce474c6e35e8118d754b", "type": "electric_scooter", "is_reserved": 0, "lon": -77.05126366666667}, {"fusion_lat": 0.0, "name": "ed8396753db2f5e3217ca72b6179a52f", "is_disabled": 0, "rental_uris": {"android": "https://dc.lft.to/lastmile_qr_scan", "ios": "https://dc.lft.to/lastmile_qr_scan"}, "fusion_lon": 0.0, "lat": 38.8966545, "bike_id": "ed8396753db2f5e3217ca72b6179a52f", "type": "electric_scooter", "is_reserved": 0, "lon": -77.05219266666667}, {"fusion_lat": 0.0, "name": "577081e77895c362296587cdec1b4117", "is_disabled": 0, "rental_uris": {"android": "https://dc.lft.to/lastmile_qr_scan", "ios": "https://dc.lft.to/lastmile_qr_scan"}, "fusion_lon": 0.0, "lat": 38.910962833333336, "bike_id": "577081e77895c362296587cdec1b4117", "type": "electric_scooter", "is_reserved": 0, "lon": -77.04490433333333}, {"fusion_lat": 0.0, "name": "218c2e94e2170aad2b93cf6e7ae67c02", "is_disabled": 0, "rental_uris": {"android": "https://dc.lft.to/lastmile_qr_scan", "ios": "https://dc.lft.to/lastmile_qr_scan"}, "fusion_lon": 0.0, "lat": 38.901184, "bike_id": "218c2e94e2170aad2b93cf6e7ae67c02", "type": "electric_scooter", "is_reserved": 0, "lon": -77.00219333333334}, {"fusion_lat": 0.0, "name": "f7ac9a1ac60d9238907df4d591a3e4bc", "is_disabled": 0, "rental_uris": {"android": "https://dc.lft.to/lastmile_qr_scan", "ios": "https://dc.lft.to/lastmile_qr_scan"}, "fusion_lon": 0.0, "lat": 38.895472, "bike_id": "f7ac9a1ac60d9238907df4d591a3e4bc", "type": "electric_scooter", "is_reserved": 0, "lon": -76.94950033333333}, {"fusion_lat": 0.0, "name": "cdb9a00e353953f6f96d674a04ae417a", "is_disabled": 0, "rental_uris": {"android": "https://dc.lft.to/lastmile_qr_scan", "ios": "https://dc.lft.to/lastmile_qr_scan"}, "fusion_lon": 0.0, "lat": 38.91804916666667, "bike_id": "cdb9a00e353953f6f96d674a04ae417a", "type": "electric_scooter", "is_reserved": 0, "lon": -77.028812}, {"fusion_lat": 0.0, "name": "623450fdeca54522cca95b10cd4bb9bd", "is_disabled": 0, "rental_uris": {"android": "https://dc.lft.to/lastmile_qr_scan", "ios": "https://dc.lft.to/lastmile_qr_scan"}, "fusion_lon": 0.0, "lat": 38.875321666666665, "bike_id": "623450fdeca54522cca95b10cd4bb9bd", "type": "electric_scooter", "is_reserved": 0, "lon": -77.00510366666667}, {"fusion_lat": 0.0, "name": "9f4925a4051696fa2970055942dc1924", "is_disabled": 0, "rental_uris": {"android": "https://dc.lft.to/lastmile_qr_scan", "ios": "https://dc.lft.to/lastmile_qr_scan"}, "fusion_lon": 0.0, "lat": 38.9275225, "bike_id": "9f4925a4051696fa2970055942dc1924", "type": "electric_scooter", "is_reserved": 0, "lon": -77.02429683333334}, {"fusion_lat": 0.0, "name": "bd2cb01b9d9eae64326eb558a2a0d9c9", "is_disabled": 0, "rental_uris": {"android": "https://dc.lft.to/lastmile_qr_scan", "ios": "https://dc.lft.to/lastmile_qr_scan"}, "fusion_lon": 0.0, "lat": 38.9230255, "bike_id": "bd2cb01b9d9eae64326eb558a2a0d9c9", "type": "electric_scooter", "is_reserved": 0, "lon": -77.042254}, {"fusion_lat": 0.0, "name": "7c5b701bda493ba84607404d855c9a10", "is_disabled": 0, "rental_uris": {"android": "https://dc.lft.to/lastmile_qr_scan", "ios": "https://dc.lft.to/lastmile_qr_scan"}, "fusion_lon": 0.0, "lat": 38.871789166666666, "bike_id": "7c5b701bda493ba84607404d855c9a10", "type": "electric_scooter", "is_reserved": 0, "lon": -77.00611666666667}, {"fusion_lat": 0.0, "name": "cf73422708bc676d4f63bd1675f67939", "is_disabled": 0, "rental_uris": {"android": "https://dc.lft.to/lastmile_qr_scan", "ios": "https://dc.lft.to/lastmile_qr_scan"}, "fusion_lon": 0.0, "lat": 38.95754816666667, "bike_id": "cf73422708bc676d4f63bd1675f67939", "type": "electric_scooter", "is_reserved": 0, "lon": -77.02059966666667}, {"fusion_lat": 0.0, "name": "f954dc29729c2d727a90924531caf825", "is_disabled": 0, "rental_uris": {"android": "https://dc.lft.to/lastmile_qr_scan", "ios": "https://dc.lft.to/lastmile_qr_scan"}, "fusion_lon": 0.0, "lat": 38.907733666666665, "bike_id": "f954dc29729c2d727a90924531caf825", "type": "electric_scooter", "is_reserved": 0, "lon": -76.99725416666666}, {"fusion_lat": 0.0, "name": "58f5021b84cf7ac2452aa62a58e3da7c", "is_disabled": 0, "rental_uris": {"android": "https://dc.lft.to/lastmile_qr_scan", "ios": "https://dc.lft.to/lastmile_qr_scan"}, "fusion_lon": 0.0, "lat": 38.94105666666667, "bike_id": "58f5021b84cf7ac2452aa62a58e3da7c", "type": "electric_scooter", "is_reserved": 0, "lon": -77.000412}, {"fusion_lat": 0.0, "name": "91a394af4c794c88c84634fab3c009aa", "is_disabled": 0, "rental_uris": {"android": "https://dc.lft.to/lastmile_qr_scan", "ios": "https://dc.lft.to/lastmile_qr_scan"}, "fusion_lon": 0.0, "lat": 38.91019416666666, "bike_id": "91a394af4c794c88c84634fab3c009aa", "type": "electric_scooter", "is_reserved": 0, "lon": -77.06900283333333}, {"fusion_lat": 0.0, "name": "426778974d8a6b30ac3566240e9a22eb", "is_disabled": 0, "rental_uris": {"android": "https://dc.lft.to/lastmile_qr_scan", "ios": "https://dc.lft.to/lastmile_qr_scan"}, "fusion_lon": 0.0, "lat": 38.89392816666667, "bike_id": "426778974d8a6b30ac3566240e9a22eb", "type": "electric_scooter", "is_reserved": 0, "lon": -76.92308816666667}, {"fusion_lat": 0.0, "name": "bf40663f77831ffe5944b9d7b10ddd62", "is_disabled": 0, "rental_uris": {"android": "https://dc.lft.to/lastmile_qr_scan", "ios": "https://dc.lft.to/lastmile_qr_scan"}, "fusion_lon": 0.0, "lat": 38.91204783333333, "bike_id": "bf40663f77831ffe5944b9d7b10ddd62", "type": "electric_scooter", "is_reserved": 0, "lon": -77.038663}, {"fusion_lat": 0.0, "name": "e5e76a250ef42a583ca1e5e23633e3e9", "is_disabled": 0, "rental_uris": {"android": "https://dc.lft.to/lastmile_qr_scan", "ios": "https://dc.lft.to/lastmile_qr_scan"}, "fusion_lon": 0.0, "lat": 38.890869333333335, "bike_id": "e5e76a250ef42a583ca1e5e23633e3e9", "type": "electric_scooter", "is_reserved": 0, "lon": -77.0034645}, {"fusion_lat": 0.0, "name": "eb247b3d05bde24a956eaa0516eeb589", "is_disabled": 0, "rental_uris": {"android": "https://dc.lft.to/lastmile_qr_scan", "ios": "https://dc.lft.to/lastmile_qr_scan"}, "fusion_lon": 0.0, "lat": 38.919357833333336, "bike_id": "eb247b3d05bde24a956eaa0516eeb589", "type": "electric_scooter", "is_reserved": 0, "lon": -77.04902916666667}, {"fusion_lat": 0.0, "name": "3e3e01b6c2ac8779d330c4ec4c1dfb3d", "is_disabled": 0, "rental_uris": {"android": "https://dc.lft.to/lastmile_qr_scan", "ios": "https://dc.lft.to/lastmile_qr_scan"}, "fusion_lon": 0.0, "lat": 38.95269416666667, "bike_id": "3e3e01b6c2ac8779d330c4ec4c1dfb3d", "type": "electric_bike", "is_reserved": 0, "lon": -76.99879033333333}, {"fusion_lat": 0.0, "name": "775ead61a3741dc732a2c241261eb4d9", "is_disabled": 0, "rental_uris": {"android": "https://dc.lft.to/lastmile_qr_scan", "ios": "https://dc.lft.to/lastmile_qr_scan"}, "fusion_lon": 0.0, "lat": 38.955134666666666, "bike_id": "775ead61a3741dc732a2c241261eb4d9", "type": "electric_scooter", "is_reserved": 0, "lon": -77.02845766666667}, {"fusion_lat": 0.0, "name": "70eb280e37ec54bc41d7374703dec714", "is_disabled": 0, "rental_uris": {"android": "https://dc.lft.to/lastmile_qr_scan", "ios": "https://dc.lft.to/lastmile_qr_scan"}, "fusion_lon": 0.0, "lat": 38.937527833333334, "bike_id": "70eb280e37ec54bc41d7374703dec714", "type": "electric_bike", "is_reserved": 0, "lon": -76.9583175}, {"fusion_lat": 0.0, "name": "11f0e44f65ef979a4b7202da25fe33bc", "is_disabled": 0, "rental_uris": {"android": "https://dc.lft.to/lastmile_qr_scan", "ios": "https://dc.lft.to/lastmile_qr_scan"}, "fusion_lon": 0.0, "lat": 38.94893183333333, "bike_id": "11f0e44f65ef979a4b7202da25fe33bc", "type": "electric_bike", "is_reserved": 0, "lon": -76.96382666666666}, {"fusion_lat": 0.0, "name": "5fbc1271a5e11450c2f17b8e84fcae17", "is_disabled": 0, "rental_uris": {"android": "https://dc.lft.to/lastmile_qr_scan", "ios": "https://dc.lft.to/lastmile_qr_scan"}, "fusion_lon": 0.0, "lat": 38.884269, "bike_id": "5fbc1271a5e11450c2f17b8e84fcae17", "type": "electric_scooter", "is_reserved": 0, "lon": -76.9961445}, {"fusion_lat": 0.0, "name": "3148e1175816d7bfb76fa34ae227d1d8", "is_disabled": 0, "rental_uris": {"android": "https://dc.lft.to/lastmile_qr_scan", "ios": "https://dc.lft.to/lastmile_qr_scan"}, "fusion_lon": 0.0, "lat": 38.92514033333333, "bike_id": "3148e1175816d7bfb76fa34ae227d1d8", "type": "electric_scooter", "is_reserved": 0, "lon": -77.05240233333333}, {"fusion_lat": 0.0, "name": "4196089c609051dd25933d43c674776c", "is_disabled": 0, "rental_uris": {"android": "https://dc.lft.to/lastmile_qr_scan", "ios": "https://dc.lft.to/lastmile_qr_scan"}, "fusion_lon": 0.0, "lat": 38.90393133333333, "bike_id": "4196089c609051dd25933d43c674776c", "type": "electric_scooter", "is_reserved": 0, "lon": -77.00214433333333}, {"fusion_lat": 0.0, "name": "30d057fbb3956e78487073cf4fb98f1a", "is_disabled": 0, "rental_uris": {"android": "https://dc.lft.to/lastmile_qr_scan", "ios": "https://dc.lft.to/lastmile_qr_scan"}, "fusion_lon": 0.0, "lat": 38.87127316666667, "bike_id": "30d057fbb3956e78487073cf4fb98f1a", "type": "electric_scooter", "is_reserved": 0, "lon": -77.01226283333334}, {"fusion_lat": 0.0, "name": "15c0f5083f9ebb7111cd649e5d9a65c6", "is_disabled": 0, "rental_uris": {"android": "https://dc.lft.to/lastmile_qr_scan", "ios": "https://dc.lft.to/lastmile_qr_scan"}, "fusion_lon": 0.0, "lat": 38.90041816666667, "bike_id": "15c0f5083f9ebb7111cd649e5d9a65c6", "type": "electric_scooter", "is_reserved": 0, "lon": -77.0297885}, {"fusion_lat": 0.0, "name": "34db2d6b6015406257595559911d155e", "is_disabled": 0, "rental_uris": {"android": "https://dc.lft.to/lastmile_qr_scan", "ios": "https://dc.lft.to/lastmile_qr_scan"}, "fusion_lon": 0.0, "lat": 38.91041466666667, "bike_id": "34db2d6b6015406257595559911d155e", "type": "electric_scooter", "is_reserved": 0, "lon": -77.04414416666667}, {"fusion_lat": 0.0, "name": "980211a0a7b905e417e533651d32f071", "is_disabled": 0, "rental_uris": {"android": "https://dc.lft.to/lastmile_qr_scan", "ios": "https://dc.lft.to/lastmile_qr_scan"}, "fusion_lon": 0.0, "lat": 38.89807533333333, "bike_id": "980211a0a7b905e417e533651d32f071", "type": "electric_scooter", "is_reserved": 0, "lon": -77.050201}, {"fusion_lat": 0.0, "name": "0685f5be19afdb8a84d9fec4d7473005", "is_disabled": 0, "rental_uris": {"android": "https://dc.lft.to/lastmile_qr_scan", "ios": "https://dc.lft.to/lastmile_qr_scan"}, "fusion_lon": 0.0, "lat": 38.90517233333333, "bike_id": "0685f5be19afdb8a84d9fec4d7473005", "type": "electric_scooter", "is_reserved": 0, "lon": -77.06144866666666}, {"fusion_lat": 0.0, "name": "036d761e0835ed317d746ac87017f16e", "is_disabled": 0, "rental_uris": {"android": "https://dc.lft.to/lastmile_qr_scan", "ios": "https://dc.lft.to/lastmile_qr_scan"}, "fusion_lon": 0.0, "lat": 38.926130666666666, "bike_id": "036d761e0835ed317d746ac87017f16e", "type": "electric_scooter", "is_reserved": 0, "lon": -77.07572533333334}, {"fusion_lat": 0.0, "name": "fb99cd87f75cc3ef1696a31886e1031a", "is_disabled": 0, "rental_uris": {"android": "https://dc.lft.to/lastmile_qr_scan", "ios": "https://dc.lft.to/lastmile_qr_scan"}, "fusion_lon": 0.0, "lat": 38.91590083333333, "bike_id": "fb99cd87f75cc3ef1696a31886e1031a", "type": "electric_scooter", "is_reserved": 0, "lon": -77.04561316666667}, {"fusion_lat": 0.0, "name": "0501fab8f73bd4a56f5b1f9383df1f85", "is_disabled": 0, "rental_uris": {"android": "https://dc.lft.to/lastmile_qr_scan", "ios": "https://dc.lft.to/lastmile_qr_scan"}, "fusion_lon": 0.0, "lat": 38.92292783333333, "bike_id": "0501fab8f73bd4a56f5b1f9383df1f85", "type": "electric_scooter", "is_reserved": 0, "lon": -77.02336633333333}, {"fusion_lat": 0.0, "name": "70266d8506d9e3714a9cd8e6b890a267", "is_disabled": 0, "rental_uris": {"android": "https://dc.lft.to/lastmile_qr_scan", "ios": "https://dc.lft.to/lastmile_qr_scan"}, "fusion_lon": 0.0, "lat": 38.90108816666667, "bike_id": "70266d8506d9e3714a9cd8e6b890a267", "type": "electric_scooter", "is_reserved": 0, "lon": -76.97425116666666}, {"fusion_lat": 0.0, "name": "a49fe56f990bb6e013eb222464e179dd", "is_disabled": 0, "rental_uris": {"android": "https://dc.lft.to/lastmile_qr_scan", "ios": "https://dc.lft.to/lastmile_qr_scan"}, "fusion_lon": 0.0, "lat": 38.9214605, "bike_id": "a49fe56f990bb6e013eb222464e179dd", "type": "electric_scooter", "is_reserved": 0, "lon": -77.03669716666667}, {"fusion_lat": 0.0, "name": "0ac6e9ff171dbb8660bb70e2149d9ec2", "is_disabled": 0, "rental_uris": {"android": "https://dc.lft.to/lastmile_qr_scan", "ios": "https://dc.lft.to/lastmile_qr_scan"}, "fusion_lon": 0.0, "lat": 38.924244, "bike_id": "0ac6e9ff171dbb8660bb70e2149d9ec2", "type": "electric_scooter", "is_reserved": 0, "lon": -77.05182466666666}, {"fusion_lat": 0.0, "name": "45d481d0f2c2ddeba64dc8e82ee50bd5", "is_disabled": 0, "rental_uris": {"android": "https://dc.lft.to/lastmile_qr_scan", "ios": "https://dc.lft.to/lastmile_qr_scan"}, "fusion_lon": 0.0, "lat": 38.90010016666667, "bike_id": "45d481d0f2c2ddeba64dc8e82ee50bd5", "type": "electric_scooter", "is_reserved": 0, "lon": -77.00334016666666}, {"fusion_lat": 0.0, "name": "dc3e769a0598f8a9d1e8e7bea600c197", "is_disabled": 0, "rental_uris": {"android": "https://dc.lft.to/lastmile_qr_scan", "ios": "https://dc.lft.to/lastmile_qr_scan"}, "fusion_lon": 0.0, "lat": 38.897175, "bike_id": "dc3e769a0598f8a9d1e8e7bea600c197", "type": "electric_scooter", "is_reserved": 0, "lon": -77.04630633333333}, {"fusion_lat": 0.0, "name": "79971f1c7ffc5c47da9935aeadb584f8", "is_disabled": 0, "rental_uris": {"android": "https://dc.lft.to/lastmile_qr_scan", "ios": "https://dc.lft.to/lastmile_qr_scan"}, "fusion_lon": 0.0, "lat": 38.89658716666667, "bike_id": "79971f1c7ffc5c47da9935aeadb584f8", "type": "electric_scooter", "is_reserved": 0, "lon": -77.01204}, {"fusion_lat": 0.0, "name": "32ed69719d6ae9114df46f451ea0c3fe", "is_disabled": 0, "rental_uris": {"android": "https://dc.lft.to/lastmile_qr_scan", "ios": "https://dc.lft.to/lastmile_qr_scan"}, "fusion_lon": 0.0, "lat": 38.88620216666666, "bike_id": "32ed69719d6ae9114df46f451ea0c3fe", "type": "electric_scooter", "is_reserved": 0, "lon": -77.028273}, {"fusion_lat": 0.0, "name": "cdf1b84cdb501f237628f566570811f1", "is_disabled": 0, "rental_uris": {"android": "https://dc.lft.to/lastmile_qr_scan", "ios": "https://dc.lft.to/lastmile_qr_scan"}, "fusion_lon": 0.0, "lat": 38.915597, "bike_id": "cdf1b84cdb501f237628f566570811f1", "type": "electric_scooter", "is_reserved": 0, "lon": -77.03141066666667}, {"fusion_lat": 0.0, "name": "87d4c401fe2cb47b02740691048721f4", "is_disabled": 0, "rental_uris": {"android": "https://dc.lft.to/lastmile_qr_scan", "ios": "https://dc.lft.to/lastmile_qr_scan"}, "fusion_lon": 0.0, "lat": 38.91569066666667, "bike_id": "87d4c401fe2cb47b02740691048721f4", "type": "electric_scooter", "is_reserved": 0, "lon": -77.01054466666666},