{"data": {"bikes": [{"name": "e178c4acf6dffb162a992c7f604fe953", "type": "electric_bike", "lat": 38.9483365, "is_reserved": 0, "lon": -77.03904083333333, "fusion_lon": 0.0, "is_disabled": 0, "fusion_lat": 0.0, "bike_id": "e178c4acf6dffb162a992c7f604fe953", "rental_uris": {"ios": "https://dc.lft.to/lastmile_qr_scan", "android": "https://dc.lft.to/lastmile_qr_scan"}}, {"name": "e352be9725ccd844c91c791d97fc66d6", "type": "electric_scooter", "lat": 38.894703166666666, "is_reserved": 0, "lon": -77.03082183333333, "fusion_lon": 0.0, "is_disabled": 0, "fusion_lat": 0.0, "bike_id": "e352be9725ccd844c91c791d97fc66d6", "rental_uris": {"ios": "https://dc.lft.to/lastmile_qr_scan", "android": "https://dc.lft.to/lastmile_qr_scan"}}, {"name": "e99d94349ca61347dde9e1988d3ca02d", "type": "electric_scooter", "lat": 38.90735183333334, "is_reserved": 0, "lon": -77.03447683333333, "fusion_lon": 0.0, "is_disabled": 0, "fusion_lat": 0.0, "bike_id": "e99d94349ca61347dde9e1988d3ca02d", "rental_uris": {"ios": "https://dc.lft.to/lastmile_qr_scan", "android": "https://dc.lft.to/lastmile_qr_scan"}}, {"name": "cbdb0c9e7c57ac6facf288f301d35a09", "type": "electric_scooter", "lat": 38.912181833333335, "is_reserved": 0, "lon": -77.07606666666666, "fusion_lon": 0.0, "is_disabled": 0, "fusion_lat": 0.0, "bike_id": "cbdb0c9e7c57ac6facf288f301d35a09", "rental_uris": {"ios": "https://dc.lft.to/lastmile_qr_scan", "android": "https://dc.lft.to/lastmile_qr_scan"}}, {"name": "2a9c307f1698163e103b6f2a51bec6ea", "type": "electric_scooter", "lat": 38.906005666666665, "is_reserved": 0, "lon": -77.04040116666667, "fusion_lon": 0.0, "is_disabled": 0, "fusion_lat": 0.0, "bike_id": "2a9c307f1698163e103b6f2a51bec6ea", "rental_uris": {"ios": "https://dc.lft.to/lastmile_qr_scan", "android": "https://dc.lft.to/lastmile_qr_scan"}}, {"name": "6c16d56ce942996e83198404b8d0d3eb", "type": "electric_scooter", "lat": 38.9390345, "is_reserved": 0, "lon": -77.07724283333333, "fusion_lon": 0.0, "is_disabled": 0, "fusion_lat": 0.0, "bike_id": "6c16d56ce942996e83198404b8d0d3eb", "rental_uris": {"ios": "https://dc.lft.to/lastmile_qr_scan", "android": "https://dc.lft.to/lastmile_qr_scan"}}, {"name": "1e30c2c2bfa74b0952ad84228516d5fa", "type": "electric_scooter", "lat": 38.933758, "is_reserved": 0, "lon": -77.03467383333333, "fusion_lon": 0.0, "is_disabled": 0, "fusion_lat": 0.0, "bike_id": "1e30c2c2bfa74b0952ad84228516d5fa", "rental_uris": {"ios": "https://dc.lft.to/lastmile_qr_scan", "android": "https://dc.lft.to/lastmile_qr_scan"}}, {"name": "0336e97077f37f1095b98832017ab2ba", "type": "electric_scooter", "lat": 38.928444999999996, "is_reserved": 0, "lon": -77.03737866666667, "fusion_lon": 0.0, "is_disabled": 0, "fusion_lat": 0.0, "bike_id": "0336e97077f37f1095b98832017ab2ba", "rental_uris": {"ios": "https://dc.lft.to/lastmile_qr_scan", "android": "https://dc.lft.to/lastmile_qr_scan"}}, {"name": "21f73bc4aaa74a258cd39fe12e140131", "type": "electric_scooter", "lat": 38.884958166666664, "is_reserved": 0, "lon": -77.00895566666667, "fusion_lon": 0.0, "is_disabled": 0, "fusion_lat": 0.0, "bike_id": "21f73bc4aaa74a258cd39fe12e140131", "rental_uris": {"ios": "https://dc.lft.to/lastmile_qr_scan", "android": "https://dc.lft.to/lastmile_qr_scan"}}, {"name": "f10ba4426d650cacaa75d2891ae9a62c", "type": "electric_scooter", "lat": 38.922918833333334, "is_reserved": 0, "lon": -77.02075966666666, "fusion_lon": 0.0, "is_disabled": 0, "fusion_lat": 0.0, "bike_id": "f10ba4426d650cacaa75d2891ae9a62c", "rental_uris": {"ios": "https://dc.lft.to/lastmile_qr_scan", "android": "https://dc.lft.to/lastmile_qr_scan"}}, {"name": "ae93ca762b8e72d8debcd9eb92ae092c", "type": "electric_scooter", "lat": 38.898254, "is_reserved": 0, "lon": -76.92643583333333, "fusion_lon": 0.0, "is_disabled": 0, "fusion_lat": 0.0, "bike_id": "ae93ca762b8e72d8debcd9eb92ae092c", "rental_uris": {"ios": "https://dc.lft.to/lastmile_qr_scan", "android": "https://dc.lft.to/lastmile_qr_scan"}}, {"name": "3547a363379df19b08a310fbd48d81f3", "type": "electric_scooter", "lat": 38.86697066666667, "is_reserved": 0, "lon": -76.9872475, "fusion_lon": 0.0, "is_disabled": 0, "fusion_lat": 0.0, "bike_id": "3547a363379df19b08a310fbd48d81f3", "rental_uris": {"ios": "https://dc.lft.to/lastmile_qr_scan", "android": "https://dc.lft.to/lastmile_qr_scan"}}, {"name": "eb3ec0f8d1410affa35dcd1911345e0f", "type": "electric_scooter", "lat": 38.922936166666666, "is_reserved": 0, "lon": -77.032073, "fusion_lon": 0.0, "is_disabled": 0, "fusion_lat": 0.0, "bike_id": "eb3ec0f8d1410affa35dcd1911345e0f", "rental_uris": {"ios": "https://dc.lft.to/lastmile_qr_scan", "android": "https://dc.lft.to/lastmile_qr_scan"}}, {"name": "f47e0f449e22a312c298f9539ca140b1", "type": "electric_bike", "lat": 38.90528666666667, "is_reserved": 0, "lon": -76.9981075, "fusion_lon": 0.0, "is_disabled": 0, "fusion_lat": 0.0, "bike_id": "f47e0f449e22a312c298f9539ca140b1", "rental_uris": {"ios": "https://dc.lft.to/lastmile_qr_scan", "android": "https://dc.lft.to/lastmile_qr_scan"}}, {"name": "00ba87eb537dd4657793b48c28828656", "type": "electric_bike", "lat": 38.990896666666664, "is_reserved": 0, "lon": -76.87499933333334, "fusion_lon": 0.0, "is_disabled": 0, "fusion_lat": 0.0, "bike_id": "00ba87eb537dd4657793b48c28828656", "rental_uris": {"ios": "https://dc.lft.to/lastmile_qr_scan", "android": "https://dc.lft.to/lastmile_qr_scan"}}, {"name": "31cc6257b524f734bc0386ac3e0f7c41", "type": "electric_scooter", "lat": 38.884296166666665, "is_reserved": 0, "lon": -76.95757233333333, "fusion_lon": 0.0, "is_disabled": 0, "fusion_lat": 0.0, "bike_id": "31cc6257b524f734bc0386ac3e0f7c41", "rental_uris": {"ios": "https://dc.lft.to/lastmile_qr_scan", "android": "https://dc.lft.to/lastmile_qr_scan"}}, {"name": "23887a939ace7e9ee8ecf11f2f5a610c", "type": "electric_scooter", "lat": 38.92977966666667, "is_reserved": 0, "lon": -77.02332833333334, "fusion_lon": 0.0, "is_disabled": 0, "fusion_lat": 0.0, "bike_id": "23887a939ace7e9ee8ecf11f2f5a610c", "rental_uris": {"ios": "https://dc.lft.to/lastmile_qr_scan", "android": "https://dc.lft.to/lastmile_qr_scan"}}, {"name": "f543bbcb8c79758bb7412caeec816e60", "type": "electric_scooter", "lat": 38.9133045, "is_reserved": 0, "lon": -77.03047633333334, "fusion_lon": 0.0, "is_disabled": 0, "fusion_lat": 0.0, "bike_id": "f543bbcb8c79758bb7412caeec816e60", "rental_uris": {"ios": "https://dc.lft.to/lastmile_qr_scan", "android": "https://dc.lft.to/lastmile_qr_scan"}}, {"name": "d653596d4b3b18f130a9693921796a1e", "type": "electric_scooter", "lat": 38.941495833333335, "is_reserved": 0, "lon": -77.0365165, "fusion_lon": 0.0, "is_disabled": 0, "fusion_lat": 0.0, "bike_id": "d653596d4b3b18f130a9693921796a1e", "rental_uris": {"ios": "https://dc.lft.to/lastmile_qr_scan", "android": "https://dc.lft.to/lastmile_qr_scan"}}, {"name": "536cda9aa22db44c725f5ab9ed2b8689", "type": "electric_scooter", "lat": 38.896755666666664, "is_reserved": 0, "lon": -77.05395333333334, "fusion_lon": 0.0, "is_disabled": 0, "fusion_lat": 0.0, "bike_id": "536cda9aa22db44c725f5ab9ed2b8689", "rental_uris": {"ios": "https://dc.lft.to/lastmile_qr_scan", "android": "https://dc.lft.to/lastmile_qr_scan"}}, {"name": "5477d490525340f4d9cda5477a1071a7", "type": "electric_scooter", "lat": 38.898472166666664, "is_reserved": 0, "lon": -77.03309933333334, "fusion_lon": 0.0, "is_disabled": 0, "fusion_lat": 0.0, "bike_id": "5477d490525340f4d9cda5477a1071a7", "rental_uris": {"ios": "https://dc.lft.to/lastmile_qr_scan", "android": "https://dc.lft.to/lastmile_qr_scan"}}, {"name": "fecfb11249464b4907fbe71fdba81326", "type": "electric_scooter", "lat": 38.93118533333333, "is_reserved": 0, "lon": -77.038359, "fusion_lon": 0.0, "is_disabled": 0, "fusion_lat": 0.0, "bike_id": "fecfb11249464b4907fbe71fdba81326", "rental_uris": {"ios": "https://dc.lft.to/lastmile_qr_scan", "android": "https://dc.lft.to/lastmile_qr_scan"}}, {"name": "627cfe72cb224ac7b5e27f9d3689b1d5", "type": "electric_scooter", "lat": 38.903339333333335, "is_reserved": 0, "lon": -76.9898055, "fusion_lon": 0.0, "is_disabled": 0, "fusion_lat": 0.0, "bike_id": "627cfe72cb224ac7b5e27f9d3689b1d5", "rental_uris": {"ios": "https://dc.lft.to/lastmile_qr_scan", "android": "https://dc.lft.to/lastmile_qr_scan"}}, {"name": "ac3b600ada3f1d7f3733d6ba68ca02ea", "type": "electric_scooter", "lat": 38.87889783333333, "is_reserved": 0, "lon": -76.99155583333334, "fusion_lon": 0.0, "is_disabled": 0, "fusion_lat": 0.0, "bike_id": "ac3b600ada3f1d7f3733d6ba68ca02ea", "rental_uris": {"ios": "https://dc.lft.to/lastmile_qr_scan", "android": "https://dc.lft.to/lastmile_qr_scan"}}, {"name": "f2795b316d9a13336c80e6eab8b5da06", "type": "electric_scooter", "lat": 38.88221816666667, "is_reserved": 0, "lon": -76.94178366666667, "fusion_lon": 0.0, "is_disabled": 0, "fusion_lat": 0.0, "bike_id": "f2795b316d9a13336c80e6eab8b5da06", "rental_uris": {"ios": "https://dc.lft.to/lastmile_qr_scan", "android": "https://dc.lft.to/lastmile_qr_scan"}}, {"name": "cb0eac909a20868bdcd41e2ca5de875f", "type": "electric_scooter", "lat": 38.918190833333334, "is_reserved": 0, "lon": -77.0453525, "fusion_lon": 0.0, "is_disabled": 0, "fusion_lat": 0.0, "bike_id": "cb0eac909a20868bdcd41e2ca5de875f", "rental_uris": {"ios": "https://dc.lft.to/lastmile_qr_scan", "android": "https://dc.lft.to/lastmile_qr_scan"}}, {"name": "79dbf666804145a7f1fc96d9a79b50dd", "type": "electric_scooter", "lat": 38.907106166666665, "is_reserved": 0, "lon": -77.01024233333334, "fusion_lon": 0.0, "is_disabled": 0, "fusion_lat": 0.0, "bike_id": "79dbf666804145a7f1fc96d9a79b50dd", "rental_uris": {"ios": "https://dc.lft.to/lastmile_qr_scan", "android": "https://dc.lft.to/lastmile_qr_scan"}}, {"name": "ce707de3de675a39362d80e1f6767852", "type": "electric_scooter", "lat": 38.903285, "is_reserved": 0, "lon": -77.03450066666667, "fusion_lon": 0.0, "is_disabled": 0, "fusion_lat": 0.0, "bike_id": "ce707de3de675a39362d80e1f6767852", "rental_uris": {"ios": "https://dc.lft.to/lastmile_qr_scan", "android": "https://dc.lft.to/lastmile_qr_scan"}}, {"name": "f77f908b1587d59cb10584c1adf13233", "type": "electric_scooter", "lat": 38.898042, "is_reserved": 0, "lon": -77.03312733333334, "fusion_lon": 0.0, "is_disabled": 0, "fusion_lat": 0.0, "bike_id": "f77f908b1587d59cb10584c1adf13233", "rental_uris": {"ios": "https://dc.lft.to/lastmile_qr_scan", "android": "https://dc.lft.to/lastmile_qr_scan"}}, {"name": "a44ab46f9a8af4b6c78bac94270627d9", "type": "electric_scooter", "lat": 38.926713, "is_reserved": 0, "lon": -77.01493766666667, "fusion_lon": 0.0, "is_disabled": 0, "fusion_lat": 0.0, "bike_id": "a44ab46f9a8af4b6c78bac94270627d9", "rental_uris": {"ios": "https://dc.lft.to/lastmile_qr_scan", "android": "https://dc.lft.to/lastmile_qr_scan"}}, {"name": "de8bf6a9fa6b13a3568cae0a61c515d6", "type": "electric_scooter", "lat": 38.884900333333334, "is_reserved": 0, "lon": -77.007304, "fusion_lon": 0.0, "is_disabled": 0, "fusion_lat": 0.0, "bike_id": "de8bf6a9fa6b13a3568cae0a61c515d6", "rental_uris": {"ios": "https://dc.lft.to/lastmile_qr_scan", "android": "https://dc.lft.to/lastmile_qr_scan"}}, {"name": "be0e7dc96fb496a937d7b77b5d89951a", "type": "electric_scooter", "lat": 38.91562116666667, "is_reserved": 0, "lon": -77.02176616666667, "fusion_lon": 0.0, "is_disabled": 0, "fusion_lat": 0.0, "bike_id": "be0e7dc96fb496a937d7b77b5d89951a", "rental_uris": {"ios": "https://dc.lft.to/lastmile_qr_scan", "android": "https://dc.lft.to/lastmile_qr_scan"}}, {"name": "23b0f493dbdaa8f186e7951d713c553f", "type": "electric_scooter", "lat": 38.900328333333334, "is_reserved": 0, "lon": -77.0115605, "fusion_lon": 0.0, "is_disabled": 0, "fusion_lat": 0.0, "bike_id": "23b0f493dbdaa8f186e7951d713c553f", "rental_uris": {"ios": "https://dc.lft.to/lastmile_qr_scan", "android": "https://dc.lft.to/lastmile_qr_scan"}}, {"name": "ca69e4ed345f38aad69f7d1a4f485285", "type": "electric_scooter", "lat": 38.9059035, "is_reserved": 0, "lon": -77.01616733333333, "fusion_lon": 0.0, "is_disabled": 0, "fusion_lat": 0.0, "bike_id": "ca69e4ed345f38aad69f7d1a4f485285", "rental_uris": {"ios": "https://dc.lft.to/lastmile_qr_scan", "android": "https://dc.lft.to/lastmile_qr_scan"}}, {"name": "fd9271ba1bdd5d4436bae1f56286078b", "type": "electric_scooter", "lat": 38.903174, "is_reserved": 0, "lon": -77.03334116666667, "fusion_lon": 0.0, "is_disabled": 0, "fusion_lat": 0.0, "bike_id": "fd9271ba1bdd5d4436bae1f56286078b", "rental_uris": {"ios": "https://dc.lft.to/lastmile_qr_scan", "android": "https://dc.lft.to/lastmile_qr_scan"}}, {"name": "b7f981d4c49609b72e5bd0be9c331c12", "type": "electric_scooter", "lat": 38.90614083333333, "is_reserved": 0, "lon": -77.0433895, "fusion_lon": 0.0, "is_disabled": 0, "fusion_lat": 0.0, "bike_id": "b7f981d4c49609b72e5bd0be9c331c12", "rental_uris": {"ios": "https://dc.lft.to/lastmile_qr_scan", "android": "https://dc.lft.to/lastmile_qr_scan"}}, {"name": "49dc55e9273f1a773c4608d92bf39df2", "type": "electric_bike", "lat": 38.842734, "is_reserved": 0, "lon": -76.98842166666667, "fusion_lon": 0.0, "is_disabled": 0, "fusion_lat": 0.0, "bike_id": "49dc55e9273f1a773c4608d92bf39df2", "rental_uris": {"ios": "https://dc.lft.to/lastmile_qr_scan", "android": "https://dc.lft.to/lastmile_qr_scan"}}, {"name": "b7de9611f2dab5f3c550ca21464c78be", "type": "electric_bike", "lat": 38.83932716666666, "is_reserved": 0, "lon": -77.079038, "fusion_lon": 0.0, "is_disabled": 0, "fusion_lat": 0.0, "bike_id": "b7de9611f2dab5f3c550ca21464c78be", "rental_uris": {"ios": "https://dc.lft.to/lastmile_qr_scan", "android": "https://dc.lft.to/lastmile_qr_scan"}}, {"name": "777aba20c85f5711d68e8d43d8599934", "type": "electric_scooter", "lat": 38.91459916666667, "is_reserved": 0, "lon": -77.00489216666666, "fusion_lon": 0.0, "is_disabled": 0, "fusion_lat": 0.0, "bike_id": "777aba20c85f5711d68e8d43d8599934", "rental_uris": {"ios": "https://dc.lft.to/lastmile_qr_scan", "android": "https://dc.lft.to/lastmile_qr_scan"}}, {"name": "3854770e368d626685e6760a6c08a4e2", "type": "electric_scooter", "lat": 38.89950116666667, "is_reserved": 0, "lon": -77.0527595, "fusion_lon": 0.0, "is_disabled": 0, "fusion_lat": 0.0, "bike_id": "3854770e368d626685e6760a6c08a4e2", "rental_uris": {"ios": "https://dc.lft.to/lastmile_qr_scan", "android": "https://dc.lft.to/lastmile_qr_scan"}}, {"name": "361179294a2abf78141c123e9b8419ae", "type": "electric_scooter", "lat": 38.90129783333333, "is_reserved": 0, "lon": -76.99711316666667, "fusion_lon": 0.0, "is_disabled": 0, "fusion_lat": 0.0, "bike_id": "361179294a2abf78141c123e9b8419ae", "rental_uris": {"ios": "https://dc.lft.to/lastmile_qr_scan", "android": "https://dc.lft.to/lastmile_qr_scan"}}, {"name": "3357f2d4740137ef06d09a1ac540814b", "type": "electric_scooter", "lat": 38.922682333333334, "is_reserved": 0, "lon": -77.01821983333333, "fusion_lon": 0.0, "is_disabled": 0, "fusion_lat": 0.0, "bike_id": "3357f2d4740137ef06d09a1ac540814b", "rental_uris": {"ios": "https://dc.lft.to/lastmile_qr_scan", "android": "https://dc.lft.to/lastmile_qr_scan"}}, {"name": "7c5d1736e96f4331ae110dad9f3070be", "type": "electric_scooter", "lat": 38.927102166666664, "is_reserved": 0, "lon": -77.04048833333333, "fusion_lon": 0.0, "is_disabled": 0, "fusion_lat": 0.0, "bike_id": "7c5d1736e96f4331ae110dad9f3070be", "rental_uris": {"ios": "https://dc.lft.to/lastmile_qr_scan", "android": "https://dc.lft.to/lastmile_qr_scan"}}, {"name": "eed519c27fab3ea4f38bb601e822faac", "type": "electric_scooter", "lat": 38.92551366666667, "is_reserved": 0, "lon": -77.00095833333333, "fusion_lon": 0.0, "is_disabled": 0, "fusion_lat": 0.0, "bike_id": "eed519c27fab3ea4f38bb601e822faac", "rental_uris": {"ios": "https://dc.lft.to/lastmile_qr_scan", "android": "https://dc.lft.to/lastmile_qr_scan"}}, {"name": "a18eedfd0adcdc8a337a46944539ad4a", "type": "electric_scooter", "lat": 38.91686933333333, "is_reserved": 0, "lon": -77.02961933333333, "fusion_lon": 0.0, "is_disabled": 0, "fusion_lat": 0.0, "bike_id": "a18eedfd0adcdc8a337a46944539ad4a", "rental_uris": {"ios": "https://dc.lft.to/lastmile_qr_scan", "android": "https://dc.lft.to/lastmile_qr_scan"}}, {"name": "0c449847c9894ed85960ffb2588e1416", "type": "electric_scooter", "lat": 38.90532816666666, "is_reserved": 0, "lon": -77.0652575, "fusion_lon": 0.0, "is_disabled": 0, "fusion_lat": 0.0, "bike_id": "0c449847c9894ed85960ffb2588e1416", "rental_uris": {"ios": "https://dc.lft.to/lastmile_qr_scan", "android": "https://dc.lft.to/lastmile_qr_scan"}}, {"name": "d5810a7a1f7ca8fe575c70309c10ca16", "type": "electric_scooter", "lat": 38.903768, "is_reserved": 0, "lon": -77.04481983333334, "fusion_lon": 0.0, "is_disabled": 0, "fusion_lat": 0.0, "bike_id": "d5810a7a1f7ca8fe575c70309c10ca16", "rental_uris": {"ios": "https://dc.lft.to/lastmile_qr_scan", "android": "https://dc.lft.to/lastmile_qr_scan"}}, {"name": "360d4a1d1eadd75fe96dcb10ab00aaec", "type": "electric_bike", "lat": 38.852476833333334, "is_reserved": 0, "lon": -77.11427216666667, "fusion_lon": 0.0, "is_disabled": 0, "fusion_lat": 0.0, "bike_id": "360d4a1d1eadd75fe96dcb10ab00aaec", "rental_uris": {"ios": "https://dc.lft.to/lastmile_qr_scan", "android": "https://dc.lft.to/lastmile_qr_scan"}}, {"name": "2647450679d99154d970a6979d3c2cac", "type": "electric_scooter", "lat": 38.90274516666667, "is_reserved": 0, "lon": -77.03439983333334, "fusion_lon": 0.0, "is_disabled": 0, "fusion_lat": 0.0, "bike_id": "2647450679d99154d970a6979d3c2cac", "rental_uris": {"ios": "https://dc.lft.to/lastmile_qr_scan", "android": "https://dc.lft.to/lastmile_qr_scan"}}, {"name": "8f229852f7e85f4b5a456d30172aac7f", "type": "electric_scooter", "lat": 38.924171, "is_reserved": 0, "lon": -77.019485, "fusion_lon": 0.0, "is_disabled": 0, "fusion_lat": 0.0, "bike_id": "8f229852f7e85f4b5a456d30172aac7f", "rental_uris": {"ios": "https://dc.lft.to/lastmile_qr_scan", "android": "https://dc.lft.to/lastmile_qr_scan"}}, {"name": "d77ed4870f6344fb469283f7ae76f002", "type": "electric_scooter", "lat": 38.975141, "is_reserved": 0, "lon": -77.01745666666666, "fusion_lon": 0.0, "is_disabled": 0, "fusion_lat": 0.0, "bike_id": "d77ed4870f6344fb469283f7ae76f002", "rental_uris": {"ios": "https://dc.lft.to/lastmile_qr_scan", "android": "https://dc.lft.to/lastmile_qr_scan"}}, {"name": "bc5a446ce81841fa819ec296ebf2def0", "type": "electric_scooter", "lat": 38.8994225, "is_reserved": 0, "lon": -77.02976816666667, "fusion_lon": 0.0, "is_disabled": 0, "fusion_lat": 0.0, "bike_id": "bc5a446ce81841fa819ec296ebf2def0", "rental_uris": {"ios": "https://dc.lft.to/lastmile_qr_scan", "android": "https://dc.lft.to/lastmile_qr_scan"}}, {"name": "852fd872cb8367b7b43569721c08c683", "type": "electric_scooter", "lat": 38.84291966666667, "is_reserved": 0, "lon": -76.99947266666666, "fusion_lon": 0.0, "is_disabled": 0, "fusion_lat": 0.0, "bike_id": "852fd872cb8367b7b43569721c08c683", "rental_uris": {"ios": "https://dc.lft.to/lastmile_qr_scan", "android": "https://dc.lft.to/lastmile_qr_scan"}}, {"name": "400fd8b236db270a51ecd10c95ec4466", "type": "electric_scooter", "lat": 38.9052495, "is_reserved": 0, "lon": -77.06380816666666, "fusion_lon": 0.0, "is_disabled": 0, "fusion_lat": 0.0, "bike_id": "400fd8b236db270a51ecd10c95ec4466", "rental_uris": {"ios": "https://dc.lft.to/lastmile_qr_scan", "android": "https://dc.lft.to/lastmile_qr_scan"}}, {"name": "44d596eb2ed8138f2313fe69fc2bd6a6", "type": "electric_scooter", "lat": 38.901277666666665, "is_reserved": 0, "lon": -77.04986183333334, "fusion_lon": 0.0, "is_disabled": 0, "fusion_lat": 0.0, "bike_id": "44d596eb2ed8138f2313fe69fc2bd6a6", "rental_uris": {"ios": "https://dc.lft.to/lastmile_qr_scan", "android": "https://dc.lft.to/lastmile_qr_scan"}}, {"name": "4e96b88923e5f1838c9b0ccc78922431", "type": "electric_scooter", "lat": 38.883827833333335, "is_reserved": 0, "lon": -77.019482, "fusion_lon": 0.0, "is_disabled": 0, "fusion_lat": 0.0, "bike_id": "4e96b88923e5f1838c9b0ccc78922431", "rental_uris": {"ios": "https://dc.lft.to/lastmile_qr_scan", "android": "https://dc.lft.to/lastmile_qr_scan"}}, {"name": "b04e73d996cf788a17d3f35d0915947a", "type": "electric_scooter", "lat": 38.918036666666666, "is_reserved": 0, "lon": -77.024964, "fusion_lon": 0.0, "is_disabled": 0, "fusion_lat": 0.0, "bike_id": "b04e73d996cf788a17d3f35d0915947a", "rental_uris": {"ios": "https://dc.lft.to/lastmile_qr_scan", "android": "https://dc.lft.to/lastmile_qr_scan"}}, {"name": "8d56524a3f97450fcfa8eb213631893f", "type": "electric_scooter", "lat": 38.9047425, "is_reserved": 0, "lon": -77.04187033333334, "fusion_lon": 0.0, "is_disabled": 0, "fusion_lat": 0.0, "bike_id": "8d56524a3f97450fcfa8eb213631893f", "rental_uris": {"ios": "https://dc.lft.to/lastmile_qr_scan", "android": "https://dc.lft.to/lastmile_qr_scan"}}, {"name": "f74f48fabe8b39985f39d3eb9dda6b73", "type": "electric_scooter", "lat": 38.9020205, "is_reserved": 0, "lon": -77.02169983333333, "fusion_lon": 0.0, "is_disabled": 0, "fusion_lat": 0.0, "bike_id": "f74f48fabe8b39985f39d3eb9dda6b73", "rental_uris": {"ios": "https://dc.lft.to/lastmile_qr_scan", "android": "https://dc.lft.to/lastmile_qr_scan"}}, {"name": "4af283a1fccc7d6c901a7367b4d4efa1", "type": "electric_scooter", "lat": 38.912051166666664, "is_reserved": 0, "lon": -77.02962983333333, "fusion_lon": 0.0, "is_disabled": 0, "fusion_lat": 0.0, "bike_id": "4af283a1fccc7d6c901a7367b4d4efa1", "rental_uris": {"ios": "https://dc.lft.to/lastmile_qr_scan", "android": "https://dc.lft.to/lastmile_qr_scan"}}, {"name": "d74651a4fad21c58365848f7c3b5442b", "type": "electric_scooter", "lat": 38.88672416666667, "is_reserved": 0, "lon": -77.0137315, "fusion_lon": 0.0, "is_disabled": 0, "fusion_lat": 0.0, "bike_id": "d74651a4fad21c58365848f7c3b5442b", "rental_uris": {"ios": "https://dc.lft.to/lastmile_qr_scan", "android": "https://dc.lft.to/lastmile_qr_scan"}}, {"name": "9a9acf9c09b7df00a655070cc82b0e6e", "type": "electric_scooter", "lat": 38.92743016666667, "is_reserved": 0, "lon": -77.05387633333333, "fusion_lon": 0.0, "is_disabled": 0, "fusion_lat": 0.0, "bike_id": "9a9acf9c09b7df00a655070cc82b0e6e", "rental_uris": {"ios": "https://dc.lft.to/lastmile_qr_scan", "android": "https://dc.lft.to/lastmile_qr_scan"}}, {"name": "4a60988d1fa1e2980b14209bdf0cb645", "type": "electric_scooter", "lat": 38.90293483333333, "is_reserved": 0, "lon": -77.03860683333333, "fusion_lon": 0.0, "is_disabled": 0, "fusion_lat": 0.0, "bike_id": "4a60988d1fa1e2980b14209bdf0cb645", "rental_uris": {"ios": "https://dc.lft.to/lastmile_qr_scan", "android": "https://dc.lft.to/lastmile_qr_scan"}}, {"name": "d9c8351f512fbf5225323c668b68b95d", "type": "electric_scooter", "lat": 38.935115, "is_reserved": 0, "lon": -77.03300583333333, "fusion_lon": 0.0, "is_disabled": 0, "fusion_lat": 0.0, "bike_id": "d9c8351f512fbf5225323c668b68b95d", "rental_uris": {"ios": "https://dc.lft.to/lastmile_qr_scan", "android": "https://dc.lft.to/lastmile_qr_scan"}}, {"name": "b314d2310c4c65e4a767d73ce778c920", "type": "electric_scooter", "lat": 38.8926925, "is_reserved": 0, "lon": -77.02593883333333, "fusion_lon": 0.0, "is_disabled": 0, "fusion_lat": 0.0, "bike_id": "b314d2310c4c65e4a767d73ce778c920", "rental_uris": {"ios": "https://dc.lft.to/lastmile_qr_scan", "android": "https://dc.lft.to/lastmile_qr_scan"}}, {"name": "5ec6f5bbd6b4bcc3c12c09e94ec1cacd", "type": "electric_scooter", "lat": 38.92887016666667, "is_reserved": 0, "lon": -77.03239166666667, "fusion_lon": 0.0, "is_disabled": 0, "fusion_lat": 0.0, "bike_id": "5ec6f5bbd6b4bcc3c12c09e94ec1cacd", "rental_uris": {"ios": "https://dc.lft.to/lastmile_qr_scan", "android": "https://dc.lft.to/lastmile_qr_scan"}}, {"name": "dad2d4d4908370ee1073dcb6ce2e2e6e", "type": "electric_scooter", "lat": 38.91944133333333, "is_reserved": 0, "lon": -77.0454365, "fusion_lon": 0.0, "is_disabled": 0, "fusion_lat": 0.0, "bike_id": "dad2d4d4908370ee1073dcb6ce2e2e6e", "rental_uris": {"ios": "https://dc.lft.to/lastmile_qr_scan", "android": "https://dc.lft.to/lastmile_qr_scan"}}, {"name": "72e5e78390bb010541664c332e8c8a5c", "type": "electric_scooter", "lat": 38.940836833333336, "is_reserved": 0, "lon": -77.06188666666667, "fusion_lon": 0.0, "is_disabled": 0, "fusion_lat": 0.0, "bike_id": "72e5e78390bb010541664c332e8c8a5c", "rental_uris": {"ios": "https://dc.lft.to/lastmile_qr_scan", "android": "https://dc.lft.to/lastmile_qr_scan"}}, {"name": "2011a351c9e70ac4f093ebbc667bfa73", "type": "electric_scooter", "lat": 38.86524083333333, "is_reserved": 0, "lon": -76.99028366666667, "fusion_lon": 0.0, "is_disabled": 0, "fusion_lat": 0.0, "bike_id": "2011a351c9e70ac4f093ebbc667bfa73", "rental_uris": {"ios": "https://dc.lft.to/lastmile_qr_scan", "android": "https://dc.lft.to/lastmile_qr_scan"}}, {"name": "41aafdabea9c6af33657dc715062e991", "type": "electric_scooter", "lat": 38.91858883333333, "is_reserved": 0, "lon": -77.044544, "fusion_lon": 0.0, "is_disabled": 0, "fusion_lat": 0.0, "bike_id": "41aafdabea9c6af33657dc715062e991", "rental_uris": {"ios": "https://dc.lft.to/lastmile_qr_scan", "android": "https://dc.lft.to/lastmile_qr_scan"}}, {"name": "479a2164e15ba9d572431c8f393a72fc", "type": "electric_scooter", "lat": 38.922616833333336, "is_reserved": 0, "lon": -77.0364245, "fusion_lon": 0.0, "is_disabled": 0, "fusion_lat": 0.0, "bike_id": "479a2164e15ba9d572431c8f393a72fc", "rental_uris": {"ios": "https://dc.lft.to/lastmile_qr_scan", "android": "https://dc.lft.to/lastmile_qr_scan"}}, {"name": "cc07bef0b7e5e6061e2bd26e33589d4f", "type": "electric_scooter", "lat": 38.90623016666667, "is_reserved": 0, "lon": -77.03966183333333, "fusion_lon": 0.0, "is_disabled": 0, "fusion_lat": 0.0, "bike_id": "cc07bef0b7e5e6061e2bd26e33589d4f", "rental_uris": {"ios": "https://dc.lft.to/lastmile_qr_scan", "android": "https://dc.lft.to/lastmile_qr_scan"}}, {"name": "b532394247600575139146207a0db70c", "type": "electric_scooter", "lat": 38.9247235, "is_reserved": 0, "lon": -77.0267025, "fusion_lon": 0.0, "is_disabled": 0, "fusion_lat": 0.0, "bike_id": "b532394247600575139146207a0db70c", "rental_uris": {"ios": "https://dc.lft.to/lastmile_qr_scan", "android": "https://dc.lft.to/lastmile_qr_scan"}}, {"name": "a140e6ab11be3199c6bbe75b6a9f81a6", "type": "electric_scooter", "lat": 38.92235616666667, "is_reserved": 0, "lon": -77.0424925, "fusion_lon": 0.0, "is_disabled": 0, "fusion_lat": 0.0, "bike_id": "a140e6ab11be3199c6bbe75b6a9f81a6", "rental_uris": {"ios": "https://dc.lft.to/lastmile_qr_scan", "android": "https://dc.lft.to/lastmile_qr_scan"}}, {"name": "f3b45eb22bcfac1af9b3b51b97c1efcb", "type": "electric_scooter", "lat": 38.90618933333333, "is_reserved": 0, "lon": -77.03994466666667, "fusion_lon": 0.0, "is_disabled": 0, "fusion_lat": 0.0, "bike_id": "f3b45eb22bcfac1af9b3b51b97c1efcb", "rental_uris": {"ios": "https://dc.lft.to/lastmile_qr_scan", "android": "https://dc.lft.to/lastmile_qr_scan"}}, {"name": "ab70494c187ef70709b34cadf9e47307", "type": "electric_scooter", "lat": 38.903683666666666, "is_reserved": 0, "lon": -77.04490633333333, "fusion_lon": 0.0, "is_disabled": 0, "fusion_lat": 0.0, "bike_id": "ab70494c187ef70709b34cadf9e47307", "rental_uris": {"ios": "https://dc.lft.to/lastmile_qr_scan", "android": "https://dc.lft.to/lastmile_qr_scan"}}, {"name": "3ce86cda51ef8eac1c2b0d9ecd53aba2", "type": "electric_scooter", "lat": 38.951080833333336, "is_reserved": 0, "lon": -77.01583616666667, "fusion_lon": 0.0, "is_disabled": 0, "fusion_lat": 0.0, "bike_id": "3ce86cda51ef8eac1c2b0d9ecd53aba2", "rental_uris": {"ios": "https://dc.lft.to/lastmile_qr_scan", "android": "https://dc.lft.to/lastmile_qr_scan"}}, {"name": "f3ea0d43a0137dabc9e4781993b0b95c", "type": "electric_scooter", "lat": 38.9169605, "is_reserved": 0, "lon": -77.00814066666666, "fusion_lon": 0.0, "is_disabled": 0, "fusion_lat": 0.0, "bike_id": "f3ea0d43a0137dabc9e4781993b0b95c", "rental_uris": {"ios": "https://dc.lft.to/lastmile_qr_scan", "android": "https://dc.lft.to/lastmile_qr_scan"}}, {"name": "97804e363066b5841f1615fb6cb63e56", "type": "electric_scooter", "lat": 38.93077, "is_reserved": 0, "lon": -77.02511566666666, "fusion_lon": 0.0, "is_disabled": 0, "fusion_lat": 0.0, "bike_id": "97804e363066b5841f1615fb6cb63e56", "rental_uris": {"ios": "https://dc.lft.to/lastmile_qr_scan", "android": "https://dc.lft.to/lastmile_qr_scan"}}, {"name": "f656d73e11e930d371d7f28fd7e5e8e7", "type": "electric_scooter", "lat": 38.944812166666665, "is_reserved": 0, "lon": -77.0638145, "fusion_lon": 0.0, "is_disabled": 0, "fusion_lat": 0.0, "bike_id": "f656d73e11e930d371d7f28fd7e5e8e7", "rental_uris": {"ios": "https://dc.lft.to/lastmile_qr_scan", "android": "https://dc.lft.to/lastmile_qr_scan"}}, {"name": "5c0061b83d166d6a06d76e04a1ab66b6", "type": "electric_scooter", "lat": 38.9401175, "is_reserved": 0, "lon": -77.071728, "fusion_lon": 0.0, "is_disabled": 0, "fusion_lat": 0.0, "bike_id": "5c0061b83d166d6a06d76e04a1ab66b6", "rental_uris": {"ios": "https://dc.lft.to/lastmile_qr_scan", "android": "https://dc.lft.to/lastmile_qr_scan"}}, {"name": "a1a108eec71b2363de9d27b6e1aa5b79", "type": "electric_scooter", "lat": 38.903713333333336, "is_reserved": 0, "lon": -77.04015716666666, "fusion_lon": 0.0, "is_disabled": 0, "fusion_lat": 0.0, "bike_id": "a1a108eec71b2363de9d27b6e1aa5b79", "rental_uris": {"ios": "https://dc.lft.to/lastmile_qr_scan", "android": "https://dc.lft.to/lastmile_qr_scan"}}, {"name": "c93fc8ab4799bf6e570f93f002aa5a97", "type": "electric_scooter", "lat": 38.915658, "is_reserved": 0, "lon": -77.03769733333333, "fusion_lon": 0.0, "is_disabled": 0, "fusion_lat": 0.0, "bike_id": "c93fc8ab4799bf6e570f93f002aa5a97", "rental_uris": {"ios": "https://dc.lft.to/lastmile_qr_scan", "android": "https://dc.lft.to/lastmile_qr_scan"}}, {"name": "5da5170fe6ee9120ddbf2efc221e20a8", "type": "electric_scooter", "lat": 38.91590516666667, "is_reserved": 0, "lon": -77.04359783333334, "fusion_lon": 0.0, "is_disabled": 0, "fusion_lat": 0.0, "bike_id": "5da5170fe6ee9120ddbf2efc221e20a8", "rental_uris": {"ios": "https://dc.lft.to/lastmile_qr_scan", "android": "https://dc.lft.to/lastmile_qr_scan"}}, {"name": "a647be40c9630406590f3b02b6ee6eb9", "type": "electric_scooter", "lat": 38.9072325, "is_reserved": 0, "lon": -76.98603666666666, "fusion_lon": 0.0, "is_disabled": 0, "fusion_lat": 0.0, "bike_id": "a647be40c9630406590f3b02b6ee6eb9", "rental_uris": {"ios": "https://dc.lft.to/lastmile_qr_scan", "android": "https://dc.lft.to/lastmile_qr_scan"}}, {"name": "96485c61edecafb660ecc93f73cc327c", "type": "electric_scooter", "lat": 38.92031083333333, "is_reserved": 0, "lon": -77.0386775, "fusion_lon": 0.0, "is_disabled": 0, "fusion_lat": 0.0, "bike_id": "96485c61edecafb660ecc93f73cc327c", "rental_uris": {"ios": "https://dc.lft.to/lastmile_qr_scan", "android": "https://dc.lft.to/lastmile_qr_scan"}}, {"name": "f33f6e007b9d31c668159d0c21b6dc7b", "type": "electric_scooter", "lat": 38.927426833333335, "is_reserved": 0, "lon": -77.0162805, "fusion_lon": 0.0, "is_disabled": 0, "fusion_lat": 0.0, "bike_id": "f33f6e007b9d31c668159d0c21b6dc7b", "rental_uris": {"ios": "https://dc.lft.to/lastmile_qr_scan", "android": "https://dc.lft.to/lastmile_qr_scan"}}, {"name": "b52a63d94628f73b7a6ae6e47573a366", "type": "electric_scooter", "lat": 38.93332433333333, "is_reserved": 0, "lon": -77.0327175, "fusion_lon": 0.0, "is_disabled": 0, "fusion_lat": 0.0, "bike_id": "b52a63d94628f73b7a6ae6e47573a366", "rental_uris": {"ios": "https://dc.lft.to/lastmile_qr_scan", "android": "https://dc.lft.to/lastmile_qr_scan"}}, {"name": "f306fdb38aa69ba2b6fe7910f124a13b", "type": "electric_scooter", "lat": 38.9251495, "is_reserved": 0, "lon": -77.033215, "fusion_lon": 0.0, "is_disabled": 0, "fusion_lat": 0.0, "bike_id": "f306fdb38aa69ba2b6fe7910f124a13b", "rental_uris": {"ios": "https://dc.lft.to/lastmile_qr_scan", "android": "https://dc.lft.to/lastmile_qr_scan"}}, {"name": "2444345ef98b042872fc166eef0f9b29", "type": "electric_scooter", "lat": 38.892224166666665, "is_reserved": 0, "lon": -77.04336433333333, "fusion_lon": 0.0, "is_disabled": 0, "fusion_lat": 0.0, "bike_id": "2444345ef98b042872fc166eef0f9b29", "rental_uris": {"ios": "https://dc.lft.to/lastmile_qr_scan", "android": "https://dc.lft.to/lastmile_qr_scan"}}, {"name": "39ed02a85feb8abde53d44ba2b382ae9", "type": "electric_scooter", "lat": 38.91550733333333, "is_reserved": 0, "lon": -77.03935666666666, "fusion_lon": 0.0, "is_disabled": 0, "fusion_lat": 0.0, "bike_id": "39ed02a85feb8abde53d44ba2b382ae9", "rental_uris": {"ios": "https://dc.lft.to/lastmile_qr_scan", "android": "https://dc.lft.to/lastmile_qr_scan"}}, {"name": "5bf11569a4a1cf14b7324aa28927992a", "type": "electric_scooter", "lat": 38.906072, "is_reserved": 0, "lon": -77.07487716666667, "fusion_lon": 0.0, "is_disabled": 0, "fusion_lat": 0.0, "bike_id": "5bf11569a4a1cf14b7324aa28927992a", "rental_uris": {"ios": "https://dc.lft.to/lastmile_qr_scan", "android": "https://dc.lft.to/lastmile_qr_scan"}}, {"name": "40296e19ca8931fae0508c69696d66a7", "type": "electric_scooter", "lat": 38.925134166666666, "is_reserved": 0, "lon": -77.0017625, "fusion_lon": 0.0, "is_disabled": 0, "fusion_lat": 0.0, "bike_id": "40296e19ca8931fae0508c69696d66a7", "rental_uris": {"ios": "https://dc.lft.to/lastmile_qr_scan", "android": "https://dc.lft.to/lastmile_qr_scan"}}, {"name": "607cd694d11635b93fef9d400e725e15", "type": "electric_scooter", "lat": 38.896036333333335, "is_reserved": 0, "lon": -77.00931983333334, "fusion_lon": 0.0, "is_disabled": 0, "fusion_lat": 0.0, "bike_id": "607cd694d11635b93fef9d400e725e15", "rental_uris": {"ios": "https://dc.lft.to/lastmile_qr_scan", "android": "https://dc.lft.to/lastmile_qr_scan"}}, {"name": "ae862c0b2e0f460d50fb1bada7349cda", "type": "electric_scooter", "lat": 38.9236115, "is_reserved": 0, "lon": -77.05841066666666, "fusion_lon": 0.0, "is_disabled": 0, "fusion_lat": 0.0, "bike_id": "ae862c0b2e0f460d50fb1bada7349cda", "rental_uris": {"ios": "https://dc.lft.to/lastmile_qr_scan", "android": "https://dc.lft.to/lastmile_qr_scan"}}, {"name": "9804328c2768767827d4979d0adceb44", "type": "electric_scooter", "lat": 38.88373833333333, "is_reserved": 0, "lon": -76.92370833333334, "fusion_lon": 0.0, "is_disabled": 0, "fusion_lat": 0.0, "bike_id": "9804328c2768767827d4979d0adceb44", "rental_uris": {"ios": "https://dc.lft.to/lastmile_qr_scan", "android": "https://dc.lft.to/lastmile_qr_scan"}}, {"name": "fd7fa244829c8b162d291ebca29c458e", "type": "electric_scooter", "lat": 38.866558166666664, "is_reserved": 0, "lon": -76.98881633333333, "fusion_lon": 0.0, "is_disabled": 0, "fusion_lat": 0.0, "bike_id": "fd7fa244829c8b162d291ebca29c458e", "rental_uris": {"ios": "https://dc.lft.to/lastmile_qr_scan", "android": "https://dc.lft.to/lastmile_qr_scan"}}, {"name": "31d429c173c40ffb49c27502c2efefaf", "type": "electric_scooter", "lat": 38.91859633333333, "is_reserved": 0, "lon": -77.03226183333334, "fusion_lon": 0.0, "is_disabled": 0, "fusion_lat": 0.0, "bike_id": "31d429c173c40ffb49c27502c2efefaf", "rental_uris": {"ios": "https://dc.lft.to/lastmile_qr_scan", "android": "https://dc.lft.to/lastmile_qr_scan"}}, {"name": "7390a8db7dff77f47647d40d73d68c4b", "type": "electric_scooter", "lat": 38.90165916666667, "is_reserved": 0, "lon": -77.042343, "fusion_lon": 0.0, "is_disabled": 0, "fusion_lat": 0.0, "bike_id": "7390a8db7dff77f47647d40d73d68c4b", "rental_uris": {"ios": "https://dc.lft.to/lastmile_qr_scan", "android": "https://dc.lft.to/lastmile_qr_scan"}}, {"name": "47e1eea472403c9f1ea7b8bdb3067d5e", "type": "electric_scooter", "lat": 38.9184305, "is_reserved": 0, "lon": -77.03899416666667, "fusion_lon": 0.0, "is_disabled": 0, "fusion_lat": 0.0, "bike_id": "47e1eea472403c9f1ea7b8bdb3067d5e", "rental_uris": {"ios": "https://dc.lft.to/lastmile_qr_scan", "android": "https://dc.lft.to/lastmile_qr_scan"}}, {"name": "40375fe686f93e15d6e1f76218000e8f", "type": "electric_scooter", "lat": 38.949557, "is_reserved": 0, "lon": -77.0272305, "fusion_lon": 0.0, "is_disabled": 0, "fusion_lat": 0.0, "bike_id": "40375fe686f93e15d6e1f76218000e8f", "rental_uris": {"ios": "https://dc.lft.to/lastmile_qr_scan", "android": "https://dc.lft.to/lastmile_qr_scan"}}, {"name": "37efaa54f7bc1c5cd831e21366bcf4a9", "type": "electric_scooter", "lat": 38.918933, "is_reserved": 0, "lon": -77.0197475, "fusion_lon": 0.0, "is_disabled": 0, "fusion_lat": 0.0, "bike_id": "37efaa54f7bc1c5cd831e21366bcf4a9", "rental_uris": {"ios": "https://dc.lft.to/lastmile_qr_scan", "android": "https://dc.lft.to/lastmile_qr_scan"}}, {"name": "eee5428fa4f3e0b63278daf15f71b30b", "type": "electric_scooter", "lat": 38.92745033333333, "is_reserved": 0, "lon": -77.03364766666667, "fusion_lon": 0.0, "is_disabled": 0, "fusion_lat": 0.0, "bike_id": "eee5428fa4f3e0b63278daf15f71b30b", "rental_uris": {"ios": "https://dc.lft.to/lastmile_qr_scan", "android": "https://dc.lft.to/lastmile_qr_scan"}}, {"name": "fd38dd8773648fdd1aafd451859095c9", "type": "electric_scooter", "lat": 38.877733166666665, "is_reserved": 0, "lon": -77.00368716666667, "fusion_lon": 0.0, "is_disabled": 0, "fusion_lat": 0.0, "bike_id": "fd38dd8773648fdd1aafd451859095c9", "rental_uris": {"ios": "https://dc.lft.to/lastmile_qr_scan", "android": "https://dc.lft.to/lastmile_qr_scan"}}, {"name": "99f0257ac06ab928ba817254c2250c12", "type": "electric_scooter", "lat": 38.87638, "is_reserved": 0, "lon": -76.99589666666667, "fusion_lon": 0.0, "is_disabled": 0, "fusion_lat": 0.0, "bike_id": "99f0257ac06ab928ba817254c2250c12", "rental_uris": {"ios": "https://dc.lft.to/lastmile_qr_scan", "android": "https://dc.lft.to/lastmile_qr_scan"}}, {"name": "4e04323705771ee77d5968b32427d4e8", "type": "electric_scooter", "lat": 38.884259166666666, "is_reserved": 0, "lon": -76.99699583333333, "fusion_lon": 0.0, "is_disabled": 0, "fusion_lat": 0.0, "bike_id": "4e04323705771ee77d5968b32427d4e8", "rental_uris": {"ios": "https://dc.lft.to/lastmile_qr_scan", "android": "https://dc.lft.to/lastmile_qr_scan"}}, {"name": "e2d397c866b023ad6e290de97ec22701", "type": "electric_scooter", "lat": 38.90282233333333, "is_reserved": 0, "lon": -77.03856516666667, "fusion_lon": 0.0, "is_disabled": 0, "fusion_lat": 0.0, "bike_id": "e2d397c866b023ad6e290de97ec22701", "rental_uris": {"ios": "https://dc.lft.to/lastmile_qr_scan", "android": "https://dc.lft.to/lastmile_qr_scan"}}, {"name": "414f785a48de31132d09a1b849c7ed6e", "type": "electric_scooter", "lat": 38.900244, "is_reserved": 0, "lon": -77.01127133333334, "fusion_lon": 0.0, "is_disabled": 0, "fusion_lat": 0.0, "bike_id": "414f785a48de31132d09a1b849c7ed6e", "rental_uris": {"ios": "https://dc.lft.to/lastmile_qr_scan", "android": "https://dc.lft.to/lastmile_qr_scan"}}, {"name": "41b6a04ea603758b965a683063f89e2a", "type": "electric_scooter", "lat": 38.8981855, "is_reserved": 0, "lon": -77.033117, "fusion_lon": 0.0, "is_disabled": 0, "fusion_lat": 0.0, "bike_id": "41b6a04ea603758b965a683063f89e2a", "rental_uris": {"ios": "https://dc.lft.to/lastmile_qr_scan", "android": "https://dc.lft.to/lastmile_qr_scan"}}, {"name": "1269fa4d3867d6a19619b8b111ae2382", "type": "electric_scooter", "lat": 38.891671, "is_reserved": 0, "lon": -77.01547566666666, "fusion_lon": 0.0, "is_disabled": 0, "fusion_lat": 0.0, "bike_id": "1269fa4d3867d6a19619b8b111ae2382", "rental_uris": {"ios": "https://dc.lft.to/lastmile_qr_scan", "android": "https://dc.lft.to/lastmile_qr_scan"}}, {"name": "db48d51d488bc374d4a8bec10c082bdc", "type": "electric_scooter", "lat": 38.9149295, "is_reserved": 0, "lon": -77.02695233333333, "fusion_lon": 0.0, "is_disabled": 0, "fusion_lat": 0.0, "bike_id": "db48d51d488bc374d4a8bec10c082bdc", "rental_uris": {"ios": "https://dc.lft.to/lastmile_qr_scan", "android": "https://dc.lft.to/lastmile_qr_scan"}}, {"name": "008e9e62baa20fce4a92b1f7aec04ac3", "type": "electric_scooter", "lat": 38.93112933333333, "is_reserved": 0, "lon": -77.02095716666666, "fusion_lon": 0.0, "is_disabled": 0, "fusion_lat": 0.0, "bike_id": "008e9e62baa20fce4a92b1f7aec04ac3", "rental_uris": {"ios": "https://dc.lft.to/lastmile_qr_scan", "android": "https://dc.lft.to/lastmile_qr_scan"}}, {"name": "d00a026854199fd23622129482a10077", "type": "electric_scooter", "lat": 38.94923383333333, "is_reserved": 0, "lon": -77.01936233333333, "fusion_lon": 0.0, "is_disabled": 0, "fusion_lat": 0.0, "bike_id": "d00a026854199fd23622129482a10077", "rental_uris": {"ios": "https://dc.lft.to/lastmile_qr_scan", "android": "https://dc.lft.to/lastmile_qr_scan"}}, {"name": "cb32431e38dc2c358f2778805b58a224", "type": "electric_scooter", "lat": 38.9071825, "is_reserved": 0, "lon": -77.0416065, "fusion_lon": 0.0, "is_disabled": 0, "fusion_lat": 0.0, "bike_id": "cb32431e38dc2c358f2778805b58a224", "rental_uris": {"ios": "https://dc.lft.to/lastmile_qr_scan", "android": "https://dc.lft.to/lastmile_qr_scan"}}, {"name": "b3144d73ba0f41783e62fa21ffa00f3f", "type": "electric_scooter", "lat": 38.908471666666664, "is_reserved": 0, "lon": -77.02066033333334, "fusion_lon": 0.0, "is_disabled": 0, "fusion_lat": 0.0, "bike_id": "b3144d73ba0f41783e62fa21ffa00f3f", "rental_uris": {"ios": "https://dc.lft.to/lastmile_qr_scan", "android": "https://dc.lft.to/lastmile_qr_scan"}}, {"name": "0d5f3b2e3660c59edf885ac242647676", "type": "electric_scooter", "lat": 38.926718, "is_reserved": 0, "lon": -76.99533666666666, "fusion_lon": 0.0, "is_disabled": 0, "fusion_lat": 0.0, "bike_id": "0d5f3b2e3660c59edf885ac242647676", "rental_uris": {"ios": "https://dc.lft.to/lastmile_qr_scan", "android": "https://dc.lft.to/lastmile_qr_scan"}}, {"name": "4bb0f7f76917f39f67774a6193b5d7ac", "type": "electric_scooter", "lat": 38.883177333333336, "is_reserved": 0, "lon": -77.017683, "fusion_lon": 0.0, "is_disabled": 0, "fusion_lat": 0.0, "bike_id": "4bb0f7f76917f39f67774a6193b5d7ac", "rental_uris": {"ios": "https://dc.lft.to/lastmile_qr_scan", "android": "https://dc.lft.to/lastmile_qr_scan"}}, {"name": "ebf25000406e1471a44465061510db49", "type": "electric_scooter", "lat": 38.943247666666664, "is_reserved": 0, "lon": -77.07394716666667, "fusion_lon": 0.0, "is_disabled": 0, "fusion_lat": 0.0, "bike_id": "ebf25000406e1471a44465061510db49", "rental_uris": {"ios": "https://dc.lft.to/lastmile_qr_scan", "android": "https://dc.lft.to/lastmile_qr_scan"}}, {"name": "ac919009fe240741f7359c27708298df", "type": "electric_scooter", "lat": 38.91621883333333, "is_reserved": 0, "lon": -77.03204216666667, "fusion_lon": 0.0, "is_disabled": 0, "fusion_lat": 0.0, "bike_id": "ac919009fe240741f7359c27708298df", "rental_uris": {"ios": "https://dc.lft.to/lastmile_qr_scan", "android": "https://dc.lft.to/lastmile_qr_scan"}}, {"name": "7fe2b0ea0b0aba22ae890ae409164c99", "type": "electric_scooter", "lat": 38.90980183333333, "is_reserved": 0, "lon": -77.067136, "fusion_lon": 0.0, "is_disabled": 0, "fusion_lat": 0.0, "bike_id": "7fe2b0ea0b0aba22ae890ae409164c99", "rental_uris": {"ios": "https://dc.lft.to/lastmile_qr_scan", "android": "https://dc.lft.to/lastmile_qr_scan"}}, {"name": "f76da96e7f9434cb76d3d97bb51cd993", "type": "electric_scooter", "lat": 38.95194733333334, "is_reserved": 0, "lon": -77.03360483333333, "fusion_lon": 0.0, "is_disabled": 0, "fusion_lat": 0.0, "bike_id": "f76da96e7f9434cb76d3d97bb51cd993", "rental_uris": {"ios": "https://dc.lft.to/lastmile_qr_scan", "android": "https://dc.lft.to/lastmile_qr_scan"}}, {"name": "bbeff6aaa45a61e2b7a655af1543700f", "type": "electric_scooter", "lat": 38.933628, "is_reserved": 0, "lon": -77.05728533333334, "fusion_lon": 0.0, "is_disabled": 0, "fusion_lat": 0.0, "bike_id": "bbeff6aaa45a61e2b7a655af1543700f", "rental_uris": {"ios": "https://dc.lft.to/lastmile_qr_scan", "android": "https://dc.lft.to/lastmile_qr_scan"}}, {"name": "a92dfbc8992526407e6753a351be123f", "type": "electric_scooter", "lat": 38.89741816666667, "is_reserved": 0, "lon": -77.02731933333334, "fusion_lon": 0.0, "is_disabled": 0, "fusion_lat": 0.0, "bike_id": "a92dfbc8992526407e6753a351be123f", "rental_uris": {"ios": "https://dc.lft.to/lastmile_qr_scan", "android": "https://dc.lft.to/lastmile_qr_scan"}}, {"name": "dcc14315a5a0a8ab3467d061cef3f3aa", "type": "electric_bike", "lat": 38.8945555, "is_reserved": 0, "lon": -76.97036533333333, "fusion_lon": 0.0, "is_disabled": 0, "fusion_lat": 0.0, "bike_id": "dcc14315a5a0a8ab3467d061cef3f3aa", "rental_uris": {"ios": "https://dc.lft.to/lastmile_qr_scan", "android": "https://dc.lft.to/lastmile_qr_scan"}}, {"name": "830273aed416f5db47dc79b1aaefce75", "type": "electric_scooter", "lat": 38.88315216666667, "is_reserved": 0, "lon": -77.01764316666667, "fusion_lon": 0.0, "is_disabled": 0, "fusion_lat": 0.0, "bike_id": "830273aed416f5db47dc79b1aaefce75", "rental_uris": {"ios": "https://dc.lft.to/lastmile_qr_scan", "android": "https://dc.lft.to/lastmile_qr_scan"}}, {"name": "d3cd5f4dc7814b42a7fa3f7e5a4697e5", "type": "electric_scooter", "lat": 38.93350783333333, "is_reserved": 0, "lon": -77.034303, "fusion_lon": 0.0, "is_disabled": 0, "fusion_lat": 0.0, "bike_id": "d3cd5f4dc7814b42a7fa3f7e5a4697e5", "rental_uris": {"ios": "https://dc.lft.to/lastmile_qr_scan", "android": "https://dc.lft.to/lastmile_qr_scan"}}, {"name": "2e2673fb76ccccf9648d9ed6a1dfac13", "type": "electric_scooter", "lat": 38.90262466666667, "is_reserved": 0, "lon": -77.01766166666667, "fusion_lon": 0.0, "is_disabled": 0, "fusion_lat": 0.0, "bike_id": "2e2673fb76ccccf9648d9ed6a1dfac13", "rental_uris": {"ios": "https://dc.lft.to/lastmile_qr_scan", "android": "https://dc.lft.to/lastmile_qr_scan"}}, {"name": "48a9e5f5f6a732820daa13fd376abda2", "type": "electric_scooter", "lat": 38.918008666666665, "is_reserved": 0, "lon": -77.031843, "fusion_lon": 0.0, "is_disabled": 0, "fusion_lat": 0.0, "bike_id": "48a9e5f5f6a732820daa13fd376abda2", "rental_uris": {"ios": "https://dc.lft.to/lastmile_qr_scan", "android": "https://dc.lft.to/lastmile_qr_scan"}}, {"name": "a617f01fd71340bbd2b511eff738bb00", "type": "electric_bike", "lat": 38.886367166666666, "is_reserved": 0, "lon": -76.95469633333333, "fusion_lon": 0.0, "is_disabled": 0, "fusion_lat": 0.0, "bike_id": "a617f01fd71340bbd2b511eff738bb00", "rental_uris": {"ios": "https://dc.lft.to/lastmile_qr_scan", "android": "https://dc.lft.to/lastmile_qr_scan"}}, {"name": "d02ed25f8bb3091503f6a0c4f679b874", "type": "electric_scooter", "lat": 38.90550733333333, "is_reserved": 0, "lon": -77.046513, "fusion_lon": 0.0, "is_disabled": 0, "fusion_lat": 0.0, "bike_id": "d02ed25f8bb3091503f6a0c4f679b874", "rental_uris": {"ios": "https://dc.lft.to/lastmile_qr_scan", "android": "https://dc.lft.to/lastmile_qr_scan"}}, {"name": "fb4b74bccbfa67fcc12e666e24fc6239", "type": "electric_scooter", "lat": 38.91703716666667, "is_reserved": 0, "lon": -77.04171783333334, "fusion_lon": 0.0, "is_disabled": 0, "fusion_lat": 0.0, "bike_id": "fb4b74bccbfa67fcc12e666e24fc6239", "rental_uris": {"ios": "https://dc.lft.to/lastmile_qr_scan", "android": "https://dc.lft.to/lastmile_qr_scan"}}, {"name": "6b06b8eae8d9fcd89425cc33701b3c43", "type": "electric_bike", "lat": 38.82262516666667, "is_reserved": 0, "lon": -77.00558333333333, "fusion_lon": 0.0, "is_disabled": 0, "fusion_lat": 0.0, "bike_id": "6b06b8eae8d9fcd89425cc33701b3c43", "rental_uris": {"ios": "https://dc.lft.to/lastmile_qr_scan", "android": "https://dc.lft.to/lastmile_qr_scan"}}, {"name": "a6d3bac884a284876b9bf007cc05b4b2", "type": "electric_scooter", "lat": 38.910110833333334, "is_reserved": 0, "lon": -77.02201666666667, "fusion_lon": 0.0, "is_disabled": 0, "fusion_lat": 0.0, "bike_id": "a6d3bac884a284876b9bf007cc05b4b2", "rental_uris": {"ios": "https://dc.lft.to/lastmile_qr_scan", "android": "https://dc.lft.to/lastmile_qr_scan"}}, {"name": "fbb11e27853bbe0bbd9c9107a0ea8c5d", "type": "electric_scooter", "lat": 38.89911333333333, "is_reserved": 0, "lon": -77.03294283333334, "fusion_lon": 0.0, "is_disabled": 0, "fusion_lat": 0.0, "bike_id": "fbb11e27853bbe0bbd9c9107a0ea8c5d", "rental_uris": {"ios": "https://dc.lft.to/lastmile_qr_scan", "android": "https://dc.lft.to/lastmile_qr_scan"}}, {"name": "baeee5f3d67f5d76dfb139dd86adc46a", "type": "electric_scooter", "lat": 38.925966, "is_reserved": 0, "lon": -77.02130033333333, "fusion_lon": 0.0, "is_disabled": 0, "fusion_lat": 0.0, "bike_id": "baeee5f3d67f5d76dfb139dd86adc46a", "rental_uris": {"ios": "https://dc.lft.to/lastmile_qr_scan", "android": "https://dc.lft.to/lastmile_qr_scan"}}, {"name": "6cf31fccb2e043aaf0d3abead7d1d9a9", "type": "electric_scooter", "lat": 38.90790783333333, "is_reserved": 0, "lon": -77.03426683333333, "fusion_lon": 0.0, "is_disabled": 0, "fusion_lat": 0.0, "bike_id": "6cf31fccb2e043aaf0d3abead7d1d9a9", "rental_uris": {"ios": "https://dc.lft.to/lastmile_qr_scan", "android": "https://dc.lft.to/lastmile_qr_scan"}}, {"name": "8e3b71eb91984582d1a1b9bb42a2e343", "type": "electric_scooter", "lat": 38.86424183333333, "is_reserved": 0, "lon": -76.98576166666666, "fusion_lon": 0.0, "is_disabled": 0, "fusion_lat": 0.0, "bike_id": "8e3b71eb91984582d1a1b9bb42a2e343", "rental_uris": {"ios": "https://dc.lft.to/lastmile_qr_scan", "android": "https://dc.lft.to/lastmile_qr_scan"}}, {"name": "08f7fb8ab0387c386cbfe2072e35488c", "type": "electric_scooter", "lat": 38.90065116666667, "is_reserved": 0, "lon": -77.03201283333334, "fusion_lon": 0.0, "is_disabled": 0, "fusion_lat": 0.0, "bike_id": "08f7fb8ab0387c386cbfe2072e35488c", "rental_uris": {"ios": "https://dc.lft.to/lastmile_qr_scan", "android": "https://dc.lft.to/lastmile_qr_scan"}}, {"name": "d619609f37a11ee7b61a9bddf15d7699", "type": "electric_scooter", "lat": 38.892301833333335, "is_reserved": 0, "lon": -77.05001083333333, "fusion_lon": 0.0, "is_disabled": 0, "fusion_lat": 0.0, "bike_id": "d619609f37a11ee7b61a9bddf15d7699", "rental_uris": {"ios": "https://dc.lft.to/lastmile_qr_scan", "android": "https://dc.lft.to/lastmile_qr_scan"}}, {"name": "4f0d460929541c21907cce39e0b1235b", "type": "electric_scooter", "lat": 38.89834233333333, "is_reserved": 0, "lon": -77.026743, "fusion_lon": 0.0, "is_disabled": 0, "fusion_lat": 0.0, "bike_id": "4f0d460929541c21907cce39e0b1235b", "rental_uris": {"ios": "https://dc.lft.to/lastmile_qr_scan", "android": "https://dc.lft.to/lastmile_qr_scan"}}, {"name": "1224b4e0984de36db868aa939ca2b112", "type": "electric_scooter", "lat": 38.8682925, "is_reserved": 0, "lon": -76.98621216666666, "fusion_lon": 0.0, "is_disabled": 0, "fusion_lat": 0.0, "bike_id": "1224b4e0984de36db868aa939ca2b112", "rental_uris": {"ios": "https://dc.lft.to/lastmile_qr_scan", "android": "https://dc.lft.to/lastmile_qr_scan"}}, {"name": "2b6c1bf4fd1d468150855dc8c91631a2", "type": "electric_scooter", "lat": 38.8852585, "is_reserved": 0, "lon": -77.00584516666666, "fusion_lon": 0.0, "is_disabled": 0, "fusion_lat": 0.0, "bike_id": "2b6c1bf4fd1d468150855dc8c91631a2", "rental_uris": {"ios": "https://dc.lft.to/lastmile_qr_scan", "android": "https://dc.lft.to/lastmile_qr_scan"}}, {"name": "341683a2ef3ebc828fee95d225425aa1", "type": "electric_scooter", "lat": 38.9328105, "is_reserved": 0, "lon": -77.029816, "fusion_lon": 0.0, "is_disabled": 0, "fusion_lat": 0.0, "bike_id": "341683a2ef3ebc828fee95d225425aa1", "rental_uris": {"ios": "https://dc.lft.to/lastmile_qr_scan", "android": "https://dc.lft.to/lastmile_qr_scan"}}, {"name": "2d81616ca2d38d0b6622f111a280ac64", "type": "electric_scooter", "lat": 38.90576166666666, "is_reserved": 0, "lon": -77.044476, "fusion_lon": 0.0, "is_disabled": 0, "fusion_lat": 0.0, "bike_id": "2d81616ca2d38d0b6622f111a280ac64", "rental_uris": {"ios": "https://dc.lft.to/lastmile_qr_scan", "android": "https://dc.lft.to/lastmile_qr_scan"}}, {"name": "d3b4df2efc819854775ffb83bd0f7bc1", "type": "electric_scooter", "lat": 38.88300066666667, "is_reserved": 0, "lon": -76.98619833333333, "fusion_lon": 0.0, "is_disabled": 0, "fusion_lat": 0.0, "bike_id": "d3b4df2efc819854775ffb83bd0f7bc1", "rental_uris": {"ios": "https://dc.lft.to/lastmile_qr_scan", "android": "https://dc.lft.to/lastmile_qr_scan"}}, {"name": "0930a1ee2f529c4990c41d0d4edd21f9", "type": "electric_scooter", "lat": 38.908514833333335, "is_reserved": 0, "lon": -77.0318245, "fusion_lon": 0.0, "is_disabled": 0, "fusion_lat": 0.0, "bike_id": "0930a1ee2f529c4990c41d0d4edd21f9", "rental_uris": {"ios": "https://dc.lft.to/lastmile_qr_scan", "android": "https://dc.lft.to/lastmile_qr_scan"}}, {"name": "a9d1e47cb813ca6b759e08e27b328d90", "type": "electric_scooter", "lat": 38.9271055, "is_reserved": 0, "lon": -77.02086266666667, "fusion_lon": 0.0, "is_disabled": 0, "fusion_lat": 0.0, "bike_id": "a9d1e47cb813ca6b759e08e27b328d90", "rental_uris": {"ios": "https://dc.lft.to/lastmile_qr_scan", "android": "https://dc.lft.to/lastmile_qr_scan"}}, {"name": "82bfef59c19be916a9857265492d36f2", "type": "electric_scooter", "lat": 38.8999245, "is_reserved": 0, "lon": -77.02109016666667, "fusion_lon": 0.0, "is_disabled": 0, "fusion_lat": 0.0, "bike_id": "82bfef59c19be916a9857265492d36f2", "rental_uris": {"ios": "https://dc.lft.to/lastmile_qr_scan", "android": "https://dc.lft.to/lastmile_qr_scan"}}, {"name": "f933554c79b6f6366496aa11312a0036", "type": "electric_scooter", "lat": 38.90285566666667, "is_reserved": 0, "lon": -77.03649233333333, "fusion_lon": 0.0, "is_disabled": 0, "fusion_lat": 0.0, "bike_id": "f933554c79b6f6366496aa11312a0036", "rental_uris": {"ios": "https://dc.lft.to/lastmile_qr_scan", "android": "https://dc.lft.to/lastmile_qr_scan"}}, {"name": "387cfbd3c4f8e49b0903660726f3d64f", "type": "electric_scooter", "lat": 38.89850216666667, "is_reserved": 0, "lon": -76.98178483333334, "fusion_lon": 0.0, "is_disabled": 0, "fusion_lat": 0.0, "bike_id": "387cfbd3c4f8e49b0903660726f3d64f", "rental_uris": {"ios": "https://dc.lft.to/lastmile_qr_scan", "android": "https://dc.lft.to/lastmile_qr_scan"}}, {"name": "7a6ab3829a60fecead03a08e7e457b23", "type": "electric_scooter", "lat": 38.9172225, "is_reserved": 0, "lon": -77.03660033333334, "fusion_lon": 0.0, "is_disabled": 0, "fusion_lat": 0.0, "bike_id": "7a6ab3829a60fecead03a08e7e457b23", "rental_uris": {"ios": "https://dc.lft.to/lastmile_qr_scan", "android": "https://dc.lft.to/lastmile_qr_scan"}}, {"name": "b2b0fb148b5a2ac498d9719d363087cc", "type": "electric_bike", "lat": 39.056355833333335, "is_reserved": 0, "lon": -77.12529233333333, "fusion_lon": 0.0, "is_disabled": 0, "fusion_lat": 0.0, "bike_id": "b2b0fb148b5a2ac498d9719d363087cc", "rental_uris": {"ios": "https://dc.lft.to/lastmile_qr_scan", "android": "https://dc.lft.to/lastmile_qr_scan"}}, {"name": "10fcb0c8e8fd47524273d8f7c83c8a61", "type": "electric_scooter", "lat": 38.9056635, "is_reserved": 0, "lon": -77.02524066666666, "fusion_lon": 0.0, "is_disabled": 0, "fusion_lat": 0.0, "bike_id": "10fcb0c8e8fd47524273d8f7c83c8a61", "rental_uris": {"ios": "https://dc.lft.to/lastmile_qr_scan", "android": "https://dc.lft.to/lastmile_qr_scan"}}, {"name": "f04356e4ba473148467f6fdcbe6de4f0", "type": "electric_scooter", "lat": 38.928571, "is_reserved": 0, "lon": -77.01411016666667, "fusion_lon": 0.0, "is_disabled": 0, "fusion_lat": 0.0, "bike_id": "f04356e4ba473148467f6fdcbe6de4f0", "rental_uris": {"ios": "https://dc.lft.to/lastmile_qr_scan", "android": "https://dc.lft.to/lastmile_qr_scan"}}, {"name": "d8c19e831b87142269ecb2be11e3b665", "type": "electric_scooter", "lat": 38.930836, "is_reserved": 0, "lon": -77.02795883333333, "fusion_lon": 0.0, "is_disabled": 0, "fusion_lat": 0.0, "bike_id": "d8c19e831b87142269ecb2be11e3b665", "rental_uris": {"ios": "https://dc.lft.to/lastmile_qr_scan", "android": "https://dc.lft.to/lastmile_qr_scan"}}, {"name": "f4d28f88e7871c76f5d3ce16edc62897", "type": "electric_bike", "lat": 38.93057683333333, "is_reserved": 0, "lon": -76.973186, "fusion_lon": 0.0, "is_disabled": 0, "fusion_lat": 0.0, "bike_id": "f4d28f88e7871c76f5d3ce16edc62897", "rental_uris": {"ios": "https://dc.lft.to/lastmile_qr_scan", "android": "https://dc.lft.to/lastmile_qr_scan"}}, {"name": "5402bc54792928040c5670a39ff19710", "type": "electric_scooter", "lat": 38.929969, "is_reserved": 0, "lon": -77.05541266666667, "fusion_lon": 0.0, "is_disabled": 0, "fusion_lat": 0.0, "bike_id": "5402bc54792928040c5670a39ff19710", "rental_uris": {"ios": "https://dc.lft.to/lastmile_qr_scan", "android": "https://dc.lft.to/lastmile_qr_scan"}}, {"name": "d55cd3414ba51ef3564f1b6f12e40037", "type": "electric_scooter", "lat": 38.89844733333334, "is_reserved": 0, "lon": -77.02690033333333, "fusion_lon": 0.0, "is_disabled": 0, "fusion_lat": 0.0, "bike_id": "d55cd3414ba51ef3564f1b6f12e40037", "rental_uris": {"ios": "https://dc.lft.to/lastmile_qr_scan", "android": "https://dc.lft.to/lastmile_qr_scan"}}, {"name": "81fa04013fe5610ffb82a9b92653263f", "type": "electric_scooter", "lat": 38.88338066666667, "is_reserved": 0, "lon": -76.9934655, "fusion_lon": 0.0, "is_disabled": 0, "fusion_lat": 0.0, "bike_id": "81fa04013fe5610ffb82a9b92653263f", "rental_uris": {"ios": "https://dc.lft.to/lastmile_qr_scan", "android": "https://dc.lft.to/lastmile_qr_scan"}}, {"name": "d38557c73294df9148cb3a9e749f1315", "type": "electric_scooter", "lat": 38.92411666666667, "is_reserved": 0, "lon": -77.0194565, "fusion_lon": 0.0, "is_disabled": 0, "fusion_lat": 0.0, "bike_id": "d38557c73294df9148cb3a9e749f1315", "rental_uris": {"ios": "https://dc.lft.to/lastmile_qr_scan", "android": "https://dc.lft.to/lastmile_qr_scan"}}, {"name": "30cacb03611ae4378ac2282853a25967", "type": "electric_scooter", "lat": 38.917119166666666, "is_reserved": 0, "lon": -77.0255105, "fusion_lon": 0.0, "is_disabled": 0, "fusion_lat": 0.0, "bike_id": "30cacb03611ae4378ac2282853a25967", "rental_uris": {"ios": "https://dc.lft.to/lastmile_qr_scan", "android": "https://dc.lft.to/lastmile_qr_scan"}}, {"name": "97a9a0dc81221d179ea32bd48490a93b", "type": "electric_scooter", "lat": 38.88770566666667, "is_reserved": 0, "lon": -77.03151216666667, "fusion_lon": 0.0, "is_disabled": 0, "fusion_lat": 0.0, "bike_id": "97a9a0dc81221d179ea32bd48490a93b", "rental_uris": {"ios": "https://dc.lft.to/lastmile_qr_scan", "android": "https://dc.lft.to/lastmile_qr_scan"}}, {"name": "11938cbe40425e4e52e966a90c39fe73", "type": "electric_scooter", "lat": 38.88745933333333, "is_reserved": 0, "lon": -77.02028633333333, "fusion_lon": 0.0, "is_disabled": 0, "fusion_lat": 0.0, "bike_id": "11938cbe40425e4e52e966a90c39fe73", "rental_uris": {"ios": "https://dc.lft.to/lastmile_qr_scan", "android": "https://dc.lft.to/lastmile_qr_scan"}}, {"name": "0668079e12a0a98edb1aaf3301e252a9", "type": "electric_scooter", "lat": 38.93569733333333, "is_reserved": 0, "lon": -77.03730616666667, "fusion_lon": 0.0, "is_disabled": 0, "fusion_lat": 0.0, "bike_id": "0668079e12a0a98edb1aaf3301e252a9", "rental_uris": {"ios": "https://dc.lft.to/lastmile_qr_scan", "android": "https://dc.lft.to/lastmile_qr_scan"}}, {"name": "4031c51e7ad3dbe84e1443c5cb3e31fb", "type": "electric_bike", "lat": 38.948947, "is_reserved": 0, "lon": -76.96383583333333, "fusion_lon": 0.0, "is_disabled": 0, "fusion_lat": 0.0, "bike_id": "4031c51e7ad3dbe84e1443c5cb3e31fb", "rental_uris": {"ios": "https://dc.lft.to/lastmile_qr_scan", "android": "https://dc.lft.to/lastmile_qr_scan"}}, {"name": "b58a8494ad3fcce434e49aacbb3e8136", "type": "electric_scooter", "lat": 38.88495783333333, "is_reserved": 0, "lon": -77.00727683333334, "fusion_lon": 0.0, "is_disabled": 0, "fusion_lat": 0.0, "bike_id": "b58a8494ad3fcce434e49aacbb3e8136", "rental_uris": {"ios": "https://dc.lft.to/lastmile_qr_scan", "android": "https://dc.lft.to/lastmile_qr_scan"}}, {"name": "5ee118d19dae1ce4f390bafe3366b6bc", "type": "electric_scooter", "lat": 38.9525245, "is_reserved": 0, "lon": -77.001954, "fusion_lon": 0.0, "is_disabled": 0, "fusion_lat": 0.0, "bike_id": "5ee118d19dae1ce4f390bafe3366b6bc", "rental_uris": {"ios": "https://dc.lft.to/lastmile_qr_scan", "android": "https://dc.lft.to/lastmile_qr_scan"}}, {"name": "b8ff5a499f6ab0ce687c662ddc234a04", "type": "electric_bike", "lat": 38.957827333333334, "is_reserved": 0, "lon": -77.027501, "fusion_lon": 0.0, "is_disabled": 0, "fusion_lat": 0.0, "bike_id": "b8ff5a499f6ab0ce687c662ddc234a04", "rental_uris": {"ios": "https://dc.lft.to/lastmile_qr_scan", "android": "https://dc.lft.to/lastmile_qr_scan"}}, {"name": "6e71d4d56776c34554fd718f8be76121", "type": "electric_scooter", "lat": 38.923469833333336, "is_reserved": 0, "lon": -77.01898316666667, "fusion_lon": 0.0, "is_disabled": 0, "fusion_lat": 0.0, "bike_id": "6e71d4d56776c34554fd718f8be76121", "rental_uris": {"ios": "https://dc.lft.to/lastmile_qr_scan", "android": "https://dc.lft.to/lastmile_qr_scan"}}, {"name": "74c2ab348d51499e07b5763be187ab4a", "type": "electric_scooter", "lat": 38.920585833333334, "is_reserved": 0, "lon": -77.0297605, "fusion_lon": 0.0, "is_disabled": 0, "fusion_lat": 0.0, "bike_id": "74c2ab348d51499e07b5763be187ab4a", "rental_uris": {"ios": "https://dc.lft.to/lastmile_qr_scan", "android": "https://dc.lft.to/lastmile_qr_scan"}}, {"name": "0b15a743aea25d91ead4b150ad594645", "type": "electric_scooter", "lat": 38.90583933333333, "is_reserved": 0, "lon": -77.06522916666667, "fusion_lon": 0.0, "is_disabled": 0, "fusion_lat": 0.0, "bike_id": "0b15a743aea25d91ead4b150ad594645", "rental_uris": {"ios": "https://dc.lft.to/lastmile_qr_scan", "android": "https://dc.lft.to/lastmile_qr_scan"}}, {"name": "0ee42cd2e3d67223c50d817c5ed3852a", "type": "electric_bike", "lat": 38.9414655, "is_reserved": 0, "lon": -77.0020055, "fusion_lon": 0.0, "is_disabled": 0, "fusion_lat": 0.0, "bike_id": "0ee42cd2e3d67223c50d817c5ed3852a", "rental_uris": {"ios": "https://dc.lft.to/lastmile_qr_scan", "android": "https://dc.lft.to/lastmile_qr_scan"}}, {"name": "1ca23a9e37fa2e7721465ff95c70deb6", "type": "electric_scooter", "lat": 38.920664333333335, "is_reserved": 0, "lon": -76.97804816666667, "fusion_lon": 0.0, "is_disabled": 0, "fusion_lat": 0.0, "bike_id": "1ca23a9e37fa2e7721465ff95c70deb6", "rental_uris": {"ios": "https://dc.lft.to/lastmile_qr_scan", "android": "https://dc.lft.to/lastmile_qr_scan"}}, {"name": "0f720e81a55b3b2e1ee8e35255852750", "type": "electric_scooter", "lat": 38.90365033333333, "is_reserved": 0, "lon": -77.04350416666666, "fusion_lon": 0.0, "is_disabled": 0, "fusion_lat": 0.0, "bike_id": "0f720e81a55b3b2e1ee8e35255852750", "rental_uris": {"ios": "https://dc.lft.to/lastmile_qr_scan", "android": "https://dc.lft.to/lastmile_qr_scan"}}, {"name": "a759c75e3a84c215e502f275c8116000", "type": "electric_scooter", "lat": 38.9075995, "is_reserved": 0, "lon": -77.000147, "fusion_lon": 0.0, "is_disabled": 0, "fusion_lat": 0.0, "bike_id": "a759c75e3a84c215e502f275c8116000", "rental_uris": {"ios": "https://dc.lft.to/lastmile_qr_scan", "android": "https://dc.lft.to/lastmile_qr_scan"}}, {"name": "8394b2aa08448ed85ca7f1c460c33e1a", "type": "electric_scooter", "lat": 38.90507216666666, "is_reserved": 0, "lon": -77.06384966666667, "fusion_lon": 0.0, "is_disabled": 0, "fusion_lat": 0.0, "bike_id": "8394b2aa08448ed85ca7f1c460c33e1a", "rental_uris": {"ios": "https://dc.lft.to/lastmile_qr_scan", "android": "https://dc.lft.to/lastmile_qr_scan"}}, {"name": "909bca664157a2607a81be6f89bf75a6", "type": "electric_scooter", "lat": 38.9197005, "is_reserved": 0, "lon": -77.00103983333334, "fusion_lon": 0.0, "is_disabled": 0, "fusion_lat": 0.0, "bike_id": "909bca664157a2607a81be6f89bf75a6", "rental_uris": {"ios": "https://dc.lft.to/lastmile_qr_scan", "android": "https://dc.lft.to/lastmile_qr_scan"}}, {"name": "2f74352dfddff0aa79afb406544a2f3e", "type": "electric_scooter", "lat": 38.896827333333334, "is_reserved": 0, "lon": -77.02969366666666, "fusion_lon": 0.0, "is_disabled": 0, "fusion_lat": 0.0, "bike_id": "2f74352dfddff0aa79afb406544a2f3e", "rental_uris": {"ios": "https://dc.lft.to/lastmile_qr_scan", "android": "https://dc.lft.to/lastmile_qr_scan"}}, {"name": "51bf210010835fde65e0a243b7d50733", "type": "electric_scooter", "lat": 38.905859666666665, "is_reserved": 0, "lon": -77.06518783333334, "fusion_lon": 0.0, "is_disabled": 0, "fusion_lat": 0.0, "bike_id": "51bf210010835fde65e0a243b7d50733", "rental_uris": {"ios": "https://dc.lft.to/lastmile_qr_scan", "android": "https://dc.lft.to/lastmile_qr_scan"}}, {"name": "1bd32619cbd48233377a8b1359a68ebb", "type": "electric_scooter", "lat": 38.916838166666665, "is_reserved": 0, "lon": -77.02960783333333, "fusion_lon": 0.0, "is_disabled": 0, "fusion_lat": 0.0, "bike_id": "1bd32619cbd48233377a8b1359a68ebb", "rental_uris": {"ios": "https://dc.lft.to/lastmile_qr_scan", "android": "https://dc.lft.to/lastmile_qr_scan"}}, {"name": "718bfaf3500ecb410dc1032cb4187526", "type": "electric_scooter", "lat": 38.9274645, "is_reserved": 0, "lon": -77.03274116666667, "fusion_lon": 0.0, "is_disabled": 0, "fusion_lat": 0.0, "bike_id": "718bfaf3500ecb410dc1032cb4187526", "rental_uris": {"ios": "https://dc.lft.to/lastmile_qr_scan", "android": "https://dc.lft.to/lastmile_qr_scan"}}, {"name": "ddc28a016de6c27f5a8b3e1c00b8b77d", "type": "electric_scooter", "lat": 38.923305166666665, "is_reserved": 0, "lon": -77.0439035, "fusion_lon": 0.0, "is_disabled": 0, "fusion_lat": 0.0, "bike_id": "ddc28a016de6c27f5a8b3e1c00b8b77d", "rental_uris": {"ios": "https://dc.lft.to/lastmile_qr_scan", "android": "https://dc.lft.to/lastmile_qr_scan"}}, {"name": "5a01d1cacc0349c412e9e4a1a08e50ef", "type": "electric_scooter", "lat": 38.9262745, "is_reserved": 0, "lon": -77.0351, "fusion_lon": 0.0, "is_disabled": 0, "fusion_lat": 0.0, "bike_id": "5a01d1cacc0349c412e9e4a1a08e50ef", "rental_uris": {"ios": "https://dc.lft.to/lastmile_qr_scan", "android": "https://dc.lft.to/lastmile_qr_scan"}}, {"name": "a0cf207698b1f0377f809cf8c1d79d48", "type": "electric_scooter", "lat": 38.902600666666665, "is_reserved": 0, "lon": -77.01767933333333, "fusion_lon": 0.0, "is_disabled": 0, "fusion_lat": 0.0, "bike_id": "a0cf207698b1f0377f809cf8c1d79d48", "rental_uris": {"ios": "https://dc.lft.to/lastmile_qr_scan", "android": "https://dc.lft.to/lastmile_qr_scan"}}, {"name": "fd3755f9bc4b8abf1a7c0d95db069a47", "type": "electric_scooter", "lat": 38.8983305, "is_reserved": 0, "lon": -76.9463495, "fusion_lon": 0.0, "is_disabled": 0, "fusion_lat": 0.0, "bike_id": "fd3755f9bc4b8abf1a7c0d95db069a47", "rental_uris": {"ios": "https://dc.lft.to/lastmile_qr_scan", "android": "https://dc.lft.to/lastmile_qr_scan"}}, {"name": "32b52853e0045968971df705615b3205", "type": "electric_scooter", "lat": 38.922532833333335, "is_reserved": 0, "lon": -77.03521483333333, "fusion_lon": 0.0, "is_disabled": 0, "fusion_lat": 0.0, "bike_id": "32b52853e0045968971df705615b3205", "rental_uris": {"ios": "https://dc.lft.to/lastmile_qr_scan", "android": "https://dc.lft.to/lastmile_qr_scan"}}, {"name": "870fe09220040680e5a85a777436aca5", "type": "electric_scooter", "lat": 38.86359566666667, "is_reserved": 0, "lon": -76.99065766666666, "fusion_lon": 0.0, "is_disabled": 0, "fusion_lat": 0.0, "bike_id": "870fe09220040680e5a85a777436aca5", "rental_uris": {"ios": "https://dc.lft.to/lastmile_qr_scan", "android": "https://dc.lft.to/lastmile_qr_scan"}}, {"name": "fe95aa672ca370c7dffe83214f728da6", "type": "electric_scooter", "lat": 38.894965666666664, "is_reserved": 0, "lon": -77.01103516666667, "fusion_lon": 0.0, "is_disabled": 0, "fusion_lat": 0.0, "bike_id": "fe95aa672ca370c7dffe83214f728da6", "rental_uris": {"ios": "https://dc.lft.to/lastmile_qr_scan", "android": "https://dc.lft.to/lastmile_qr_scan"}}, {"name": "b4ea05e7713564f38697933fe522f80f", "type": "electric_scooter", "lat": 38.90449383333333, "is_reserved": 0, "lon": -77.04895383333333, "fusion_lon": 0.0, "is_disabled": 0, "fusion_lat": 0.0, "bike_id": "b4ea05e7713564f38697933fe522f80f", "rental_uris": {"ios": "https://dc.lft.to/lastmile_qr_scan", "android": "https://dc.lft.to/lastmile_qr_scan"}}, {"name": "47ff57617486a8569ecf1e38998725d0", "type": "electric_scooter", "lat": 38.91107316666667, "is_reserved": 0, "lon": -77.03604483333334, "fusion_lon": 0.0, "is_disabled": 0, "fusion_lat": 0.0, "bike_id": "47ff57617486a8569ecf1e38998725d0", "rental_uris": {"ios": "https://dc.lft.to/lastmile_qr_scan", "android": "https://dc.lft.to/lastmile_qr_scan"}}, {"name": "3f010df8e3a29ae5b7db846cfc7cc615", "type": "electric_scooter", "lat": 38.91327666666667, "is_reserved": 0, "lon": -77.00226716666667, "fusion_lon": 0.0, "is_disabled": 0, "fusion_lat": 0.0, "bike_id": "3f010df8e3a29ae5b7db846cfc7cc615", "rental_uris": {"ios": "https://dc.lft.to/lastmile_qr_scan", "android": "https://dc.lft.to/lastmile_qr_scan"}}, {"name": "21ff63e671882f92f6f852d298296fdc", "type": "electric_scooter", "lat": 38.92092133333333, "is_reserved": 0, "lon": -77.025969, "fusion_lon": 0.0, "is_disabled": 0, "fusion_lat": 0.0, "bike_id": "21ff63e671882f92f6f852d298296fdc", "rental_uris": {"ios": "https://dc.lft.to/lastmile_qr_scan", "android": "https://dc.lft.to/lastmile_qr_scan"}}, {"name": "d6eb77a7cd91d5f3b29c1a80f1522d84", "type": "electric_scooter", "lat": 38.925874, "is_reserved": 0, "lon": -77.00487116666666, "fusion_lon": 0.0, "is_disabled": 0, "fusion_lat": 0.0, "bike_id": "d6eb77a7cd91d5f3b29c1a80f1522d84", "rental_uris": {"ios": "https://dc.lft.to/lastmile_qr_scan", "android": "https://dc.lft.to/lastmile_qr_scan"}}, {"name": "c4f7cc5bfa9d04c5b1cfdc97172f1087", "type": "electric_scooter", "lat": 38.884247333333334, "is_reserved": 0, "lon": -76.95757, "fusion_lon": 0.0, "is_disabled": 0, "fusion_lat": 0.0, "bike_id": "c4f7cc5bfa9d04c5b1cfdc97172f1087", "rental_uris": {"ios": "https://dc.lft.to/lastmile_qr_scan", "android": "https://dc.lft.to/lastmile_qr_scan"}}, {"name": "d0c90aa3e092618889bc6be519639562", "type": "electric_scooter", "lat": 38.92419983333333, "is_reserved": 0, "lon": -77.0195475, "fusion_lon": 0.0, "is_disabled": 0, "fusion_lat": 0.0, "bike_id": "d0c90aa3e092618889bc6be519639562", "rental_uris": {"ios": "https://dc.lft.to/lastmile_qr_scan", "android": "https://dc.lft.to/lastmile_qr_scan"}}, {"name": "271a5d014daf046092f20ba374a006e2", "type": "electric_scooter", "lat": 38.9167335, "is_reserved": 0, "lon": -77.0271545, "fusion_lon": 0.0, "is_disabled": 0, "fusion_lat": 0.0, "bike_id": "271a5d014daf046092f20ba374a006e2", "rental_uris": {"ios": "https://dc.lft.to/lastmile_qr_scan", "android": "https://dc.lft.to/lastmile_qr_scan"}}, {"name": "ad90bdddfb0a8b2343df2a800081f1e4", "type": "electric_bike", "lat": 38.954762, "is_reserved": 0, "lon": -77.08240933333333, "fusion_lon": 0.0, "is_disabled": 0, "fusion_lat": 0.0, "bike_id": "ad90bdddfb0a8b2343df2a800081f1e4", "rental_uris": {"ios": "https://dc.lft.to/lastmile_qr_scan", "android": "https://dc.lft.to/lastmile_qr_scan"}}, {"name": "9dd72690b7c2ad414e8e1c4a6e15b117", "type": "electric_scooter", "lat": 38.92056766666666, "is_reserved": 0, "lon": -77.04257616666666, "fusion_lon": 0.0, "is_disabled": 0, "fusion_lat": 0.0, "bike_id": "9dd72690b7c2ad414e8e1c4a6e15b117", "rental_uris": {"ios": "https://dc.lft.to/lastmile_qr_scan", "android": "https://dc.lft.to/lastmile_qr_scan"}}, {"name": "e78215303e34ae81162cedefb2e2acf3", "type": "electric_scooter", "lat": 38.909643, "is_reserved": 0, "lon": -77.03927783333333, "fusion_lon": 0.0, "is_disabled": 0, "fusion_lat": 0.0, "bike_id": "e78215303e34ae81162cedefb2e2acf3", "rental_uris": {"ios": "https://dc.lft.to/lastmile_qr_scan", "android": "https://dc.lft.to/lastmile_qr_scan"}}, {"name": "7ad621b80f2dc5e14536e04ac6516fec", "type": "electric_scooter", "lat": 38.884910166666664, "is_reserved": 0, "lon": -77.00731633333334, "fusion_lon": 0.0, "is_disabled": 0, "fusion_lat": 0.0, "bike_id": "7ad621b80f2dc5e14536e04ac6516fec", "rental_uris": {"ios": "https://dc.lft.to/lastmile_qr_scan", "android": "https://dc.lft.to/lastmile_qr_scan"}}, {"name": "2bc5d2d235388d8c0184b1e9690b9533", "type": "electric_scooter", "lat": 38.95909983333333, "is_reserved": 0, "lon": -77.0807935, "fusion_lon": 0.0, "is_disabled": 0, "fusion_lat": 0.0, "bike_id": "2bc5d2d235388d8c0184b1e9690b9533", "rental_uris": {"ios": "https://dc.lft.to/lastmile_qr_scan", "android": "https://dc.lft.to/lastmile_qr_scan"}}, {"name": "5216caefc1df9c17878d6467c9c6b9c7", "type": "electric_scooter", "lat": 38.933996666666665, "is_reserved": 0, "lon": -77.03890933333334, "fusion_lon": 0.0, "is_disabled": 0, "fusion_lat": 0.0, "bike_id": "5216caefc1df9c17878d6467c9c6b9c7", "rental_uris": {"ios": "https://dc.lft.to/lastmile_qr_scan", "android": "https://dc.lft.to/lastmile_qr_scan"}}, {"name": "756082f9774b4ee34568a8de8c84cb1b", "type": "electric_scooter", "lat": 38.883128666666664, "is_reserved": 0, "lon": -77.00601433333334, "fusion_lon": 0.0, "is_disabled": 0, "fusion_lat": 0.0, "bike_id": "756082f9774b4ee34568a8de8c84cb1b", "rental_uris": {"ios": "https://dc.lft.to/lastmile_qr_scan", "android": "https://dc.lft.to/lastmile_qr_scan"}}, {"name": "8a258a6ee35d00a78b4ea95bcae06736", "type": "electric_scooter", "lat": 38.89501416666667, "is_reserved": 0, "lon": -77.04676433333333, "fusion_lon": 0.0, "is_disabled": 0, "fusion_lat": 0.0, "bike_id": "8a258a6ee35d00a78b4ea95bcae06736", "rental_uris": {"ios": "https://dc.lft.to/lastmile_qr_scan", "android": "https://dc.lft.to/lastmile_qr_scan"}}, {"name": "aa9a23af236ee92c9ded8046bdcd6e9b", "type": "electric_scooter", "lat": 38.91803816666667, "is_reserved": 0, "lon": -77.03440733333333, "fusion_lon": 0.0, "is_disabled": 0, "fusion_lat": 0.0, "bike_id": "aa9a23af236ee92c9ded8046bdcd6e9b", "rental_uris": {"ios": "https://dc.lft.to/lastmile_qr_scan", "android": "https://dc.lft.to/lastmile_qr_scan"}}, {"name": "9f9b2db4fcd942a3d5ff0362308534b4", "type": "electric_scooter", "lat": 38.88023, "is_reserved": 0, "lon": -76.98834166666667, "fusion_lon": 0.0, "is_disabled": 0, "fusion_lat": 0.0, "bike_id": "9f9b2db4fcd942a3d5ff0362308534b4", "rental_uris": {"ios": "https://dc.lft.to/lastmile_qr_scan", "android": "https://dc.lft.to/lastmile_qr_scan"}}, {"name": "ecbc56d9b2d7a1b88c632c10543386ef", "type": "electric_scooter", "lat": 38.914946666666665, "is_reserved": 0, "lon": -77.01852766666667, "fusion_lon": 0.0, "is_disabled": 0, "fusion_lat": 0.0, "bike_id": "ecbc56d9b2d7a1b88c632c10543386ef", "rental_uris": {"ios": "https://dc.lft.to/lastmile_qr_scan", "android": "https://dc.lft.to/lastmile_qr_scan"}}, {"name": "9490546f356e04eb888dc177ec2bb5e1", "type": "electric_scooter", "lat": 38.871235666666664, "is_reserved": 0, "lon": -77.00598066666667, "fusion_lon": 0.0, "is_disabled": 0, "fusion_lat": 0.0, "bike_id": "9490546f356e04eb888dc177ec2bb5e1", "rental_uris": {"ios": "https://dc.lft.to/lastmile_qr_scan", "android": "https://dc.lft.to/lastmile_qr_scan"}}, {"name": "afebdd5770d931db3ce379f29f637617", "type": "electric_scooter", "lat": 38.883993333333336, "is_reserved": 0, "lon": -76.93043366666667, "fusion_lon": 0.0, "is_disabled": 0, "fusion_lat": 0.0, "bike_id": "afebdd5770d931db3ce379f29f637617", "rental_uris": {"ios": "https://dc.lft.to/lastmile_qr_scan", "android": "https://dc.lft.to/lastmile_qr_scan"}}, {"name": "430c68d8b5b4af71a61aa15eaa15cfb4", "type": "electric_bike", "lat": 38.94552066666667, "is_reserved": 0, "lon": -76.8954275, "fusion_lon": 0.0, "is_disabled": 0, "fusion_lat": 0.0, "bike_id": "430c68d8b5b4af71a61aa15eaa15cfb4", "rental_uris": {"ios": "https://dc.lft.to/lastmile_qr_scan", "android": "https://dc.lft.to/lastmile_qr_scan"}}, {"name": "47e94d997dc5ed56e818731d6bb79558", "type": "electric_scooter", "lat": 38.844221166666664, "is_reserved": 0, "lon": -76.9977705, "fusion_lon": 0.0, "is_disabled": 0, "fusion_lat": 0.0, "bike_id": "47e94d997dc5ed56e818731d6bb79558", "rental_uris": {"ios": "https://dc.lft.to/lastmile_qr_scan", "android": "https://dc.lft.to/lastmile_qr_scan"}}, {"name": "9f3f565ef7fe807551e0ec2e97bafa9b", "type": "electric_scooter", "lat": 38.92569483333333, "is_reserved": 0, "lon": -77.02724, "fusion_lon": 0.0, "is_disabled": 0, "fusion_lat": 0.0, "bike_id": "9f3f565ef7fe807551e0ec2e97bafa9b", "rental_uris": {"ios": "https://dc.lft.to/lastmile_qr_scan", "android": "https://dc.lft.to/lastmile_qr_scan"}}, {"name": "99ffa8e5545af46592a3c87d0774791d", "type": "electric_scooter", "lat": 38.911148, "is_reserved": 0, "lon": -77.03293566666666, "fusion_lon": 0.0, "is_disabled": 0, "fusion_lat": 0.0, "bike_id": "99ffa8e5545af46592a3c87d0774791d", "rental_uris": {"ios": "https://dc.lft.to/lastmile_qr_scan", "android": "https://dc.lft.to/lastmile_qr_scan"}}, {"name": "99b9abc153a4d0ea1b47e6fd18a99f4e", "type": "electric_scooter", "lat": 38.93331666666667, "is_reserved": 0, "lon": -77.03267066666666, "fusion_lon": 0.0, "is_disabled": 0, "fusion_lat": 0.0, "bike_id": "99b9abc153a4d0ea1b47e6fd18a99f4e", "rental_uris": {"ios": "https://dc.lft.to/lastmile_qr_scan", "android": "https://dc.lft.to/lastmile_qr_scan"}}, {"name": "e34db40c45ebeaf481553daa6b3d8bb7", "type": "electric_scooter", "lat": 38.90539183333333, "is_reserved": 0, "lon": -77.05712583333333, "fusion_lon": 0.0, "is_disabled": 0, "fusion_lat": 0.0, "bike_id": "e34db40c45ebeaf481553daa6b3d8bb7", "rental_uris": {"ios": "https://dc.lft.to/lastmile_qr_scan", "android": "https://dc.lft.to/lastmile_qr_scan"}}, {"name": "fe0e853d4587dba1841993d40395954a", "type": "electric_scooter", "lat": 38.8735785, "is_reserved": 0, "lon": -76.97168283333333, "fusion_lon": 0.0, "is_disabled": 0, "fusion_lat": 0.0, "bike_id": "fe0e853d4587dba1841993d40395954a", "rental_uris": {"ios": "https://dc.lft.to/lastmile_qr_scan", "android": "https://dc.lft.to/lastmile_qr_scan"}}, {"name": "4a4d5b238fe40c6d85fe39a16953e5c8", "type": "electric_scooter", "lat": 38.898332, "is_reserved": 0, "lon": -76.94635283333334, "fusion_lon": 0.0, "is_disabled": 0, "fusion_lat": 0.0, "bike_id": "4a4d5b238fe40c6d85fe39a16953e5c8", "rental_uris": {"ios": "https://dc.lft.to/lastmile_qr_scan", "android": "https://dc.lft.to/lastmile_qr_scan"}}, {"name": "ab50bb739232ac9ac5e7f10a8a93bba3", "type": "electric_scooter", "lat": 38.92843216666667, "is_reserved": 0, "lon": -77.01418116666666, "fusion_lon": 0.0, "is_disabled": 0, "fusion_lat": 0.0, "bike_id": "ab50bb739232ac9ac5e7f10a8a93bba3", "rental_uris": {"ios": "https://dc.lft.to/lastmile_qr_scan", "android": "https://dc.lft.to/lastmile_qr_scan"}}, {"name": "ec81b6ae4230fc9bc108e0dcce31d382", "type": "electric_scooter", "lat": 38.91012166666667, "is_reserved": 0, "lon": -76.99388633333334, "fusion_lon": 0.0, "is_disabled": 0, "fusion_lat": 0.0, "bike_id": "ec81b6ae4230fc9bc108e0dcce31d382", "rental_uris": {"ios": "https://dc.lft.to/lastmile_qr_scan", "android": "https://dc.lft.to/lastmile_qr_scan"}}, {"name": "20222306733e6cb23ef18d2218a46ea2", "type": "electric_bike", "lat": 38.905456, "is_reserved": 0, "lon": -77.057154, "fusion_lon": 0.0, "is_disabled": 0, "fusion_lat": 0.0, "bike_id": "20222306733e6cb23ef18d2218a46ea2", "rental_uris": {"ios": "https://dc.lft.to/lastmile_qr_scan", "android": "https://dc.lft.to/lastmile_qr_scan"}}, {"name": "ffc9bc5278c5c44b27e984c93d612691", "type": "electric_scooter", "lat": 38.90706516666667, "is_reserved": 0, "lon": -77.0450705, "fusion_lon": 0.0, "is_disabled": 0, "fusion_lat": 0.0, "bike_id": "ffc9bc5278c5c44b27e984c93d612691", "rental_uris": {"ios": "https://dc.lft.to/lastmile_qr_scan", "android": "https://dc.lft.to/lastmile_qr_scan"}}, {"name": "2ad190fa9dea131e103ea696fc8e5d29", "type": "electric_scooter", "lat": 38.89484683333333, "is_reserved": 0, "lon": -77.0122495, "fusion_lon": 0.0, "is_disabled": 0, "fusion_lat": 0.0, "bike_id": "2ad190fa9dea131e103ea696fc8e5d29", "rental_uris": {"ios": "https://dc.lft.to/lastmile_qr_scan", "android": "https://dc.lft.to/lastmile_qr_scan"}}, {"name": "9c8387d4e8a2fbdc3cf5a23b73ff8de2", "type": "electric_scooter", "lat": 38.93337433333333, "is_reserved": 0, "lon": -77.032853, "fusion_lon": 0.0, "is_disabled": 0, "fusion_lat": 0.0, "bike_id": "9c8387d4e8a2fbdc3cf5a23b73ff8de2", "rental_uris": {"ios": "https://dc.lft.to/lastmile_qr_scan", "android": "https://dc.lft.to/lastmile_qr_scan"}}, {"name": "83366dc30a2f8f48935c15e61875694b", "type": "electric_scooter", "lat": 38.917000333333334, "is_reserved": 0, "lon": -77.02261866666667, "fusion_lon": 0.0, "is_disabled": 0, "fusion_lat": 0.0, "bike_id": "83366dc30a2f8f48935c15e61875694b", "rental_uris": {"ios": "https://dc.lft.to/lastmile_qr_scan", "android": "https://dc.lft.to/lastmile_qr_scan"}}, {"name": "50bdbab6e02cb017a6c4096971888a47", "type": "electric_bike", "lat": 38.973268, "is_reserved": 0, "lon": -77.02150666666667, "fusion_lon": 0.0, "is_disabled": 0, "fusion_lat": 0.0, "bike_id": "50bdbab6e02cb017a6c4096971888a47", "rental_uris": {"ios": "https://dc.lft.to/lastmile_qr_scan", "android": "https://dc.lft.to/lastmile_qr_scan"}}, {"name": "de379acaaaf4665e4473865556800f75", "type": "electric_scooter", "lat": 38.90022066666667, "is_reserved": 0, "lon": -76.99862966666667, "fusion_lon": 0.0, "is_disabled": 0, "fusion_lat": 0.0, "bike_id": "de379acaaaf4665e4473865556800f75", "rental_uris": {"ios": "https://dc.lft.to/lastmile_qr_scan", "android": "https://dc.lft.to/lastmile_qr_scan"}}, {"name": "175d13d015f4702d35ba6fd6fbfe6217", "type": "electric_scooter", "lat": 38.932523, "is_reserved": 0, "lon": -77.04000683333334, "fusion_lon": 0.0, "is_disabled": 0, "fusion_lat": 0.0, "bike_id": "175d13d015f4702d35ba6fd6fbfe6217", "rental_uris": {"ios": "https://dc.lft.to/lastmile_qr_scan", "android": "https://dc.lft.to/lastmile_qr_scan"}}, {"name": "97811b60d518620ccd6196fa9521fdee", "type": "electric_scooter", "lat": 38.91069666666667, "is_reserved": 0, "lon": -77.0302235, "fusion_lon": 0.0, "is_disabled": 0, "fusion_lat": 0.0, "bike_id": "97811b60d518620ccd6196fa9521fdee", "rental_uris": {"ios": "https://dc.lft.to/lastmile_qr_scan", "android": "https://dc.lft.to/lastmile_qr_scan"}}, {"name": "88b3e5e765aeccb9d84e23e9db4d33ea", "type": "electric_scooter", "lat": 38.86697016666667, "is_reserved": 0, "lon": -76.98719116666666, "fusion_lon": 0.0, "is_disabled": 0, "fusion_lat": 0.0, "bike_id": "88b3e5e765aeccb9d84e23e9db4d33ea", "rental_uris": {"ios": "https://dc.lft.to/lastmile_qr_scan", "android": "https://dc.lft.to/lastmile_qr_scan"}}, {"name": "9d24cfc3ae6e4b5d24a7bcbe2e4820e3", "type": "electric_scooter", "lat": 38.9344545, "is_reserved": 0, "lon": -77.02844483333334, "fusion_lon": 0.0, "is_disabled": 0, "fusion_lat": 0.0, "bike_id": "9d24cfc3ae6e4b5d24a7bcbe2e4820e3", "rental_uris": {"ios": "https://dc.lft.to/lastmile_qr_scan", "android": "https://dc.lft.to/lastmile_qr_scan"}}, {"name": "d0ffb366cadeb8752e8f2a844e920cf2", "type": "electric_scooter", "lat": 38.915745666666666, "is_reserved": 0, "lon": -77.031806, "fusion_lon": 0.0, "is_disabled": 0, "fusion_lat": 0.0, "bike_id": "d0ffb366cadeb8752e8f2a844e920cf2", "rental_uris": {"ios": "https://dc.lft.to/lastmile_qr_scan", "android": "https://dc.lft.to/lastmile_qr_scan"}}, {"name": "815af57fd81633bd5f4422759196a9bf", "type": "electric_bike", "lat": 38.89764066666667, "is_reserved": 0, "lon": -76.90435966666666, "fusion_lon": 0.0, "is_disabled": 0, "fusion_lat": 0.0, "bike_id": "815af57fd81633bd5f4422759196a9bf", "rental_uris": {"ios": "https://dc.lft.to/lastmile_qr_scan", "android": "https://dc.lft.to/lastmile_qr_scan"}}, {"name": "62224a843e7aed49e6682d7bc6541d5f", "type": "electric_scooter", "lat": 38.924721166666664, "is_reserved": 0, "lon": -77.03780866666666, "fusion_lon": 0.0, "is_disabled": 0, "fusion_lat": 0.0, "bike_id": "62224a843e7aed49e6682d7bc6541d5f", "rental_uris": {"ios": "https://dc.lft.to/lastmile_qr_scan", "android": "https://dc.lft.to/lastmile_qr_scan"}}, {"name": "1bf04b83f640d665a646933045e3ed6d", "type": "electric_scooter", "lat": 38.883425333333335, "is_reserved": 0, "lon": -77.01760733333333, "fusion_lon": 0.0, "is_disabled": 0, "fusion_lat": 0.0, "bike_id": "1bf04b83f640d665a646933045e3ed6d", "rental_uris": {"ios": "https://dc.lft.to/lastmile_qr_scan", "android": "https://dc.lft.to/lastmile_qr_scan"}}, {"name": "48232a62746df917b408a62adac27c86", "type": "electric_scooter", "lat": 38.93255383333333, "is_reserved": 0, "lon": -77.02950266666667, "fusion_lon": 0.0, "is_disabled": 0, "fusion_lat": 0.0, "bike_id": "48232a62746df917b408a62adac27c86", "rental_uris": {"ios": "https://dc.lft.to/lastmile_qr_scan", "android": "https://dc.lft.to/lastmile_qr_scan"}}, {"name": "54a8d9c529121af3075a1f9892341327", "type": "electric_scooter", "lat": 38.9183985, "is_reserved": 0, "lon": -77.03899133333333, "fusion_lon": 0.0, "is_disabled": 0, "fusion_lat": 0.0, "bike_id": "54a8d9c529121af3075a1f9892341327", "rental_uris": {"ios": "https://dc.lft.to/lastmile_qr_scan", "android": "https://dc.lft.to/lastmile_qr_scan"}}, {"name": "8f31bbc9a83d0a79578834f5005df5ed", "type": "electric_bike", "lat": 38.956361333333334, "is_reserved": 0, "lon": -76.93885366666666, "fusion_lon": 0.0, "is_disabled": 0, "fusion_lat": 0.0, "bike_id": "8f31bbc9a83d0a79578834f5005df5ed", "rental_uris": {"ios": "https://dc.lft.to/lastmile_qr_scan", "android": "https://dc.lft.to/lastmile_qr_scan"}}, {"name": "742e8d02accf2c744b480d8b2bb9b144", "type": "electric_scooter", "lat": 38.899493166666666, "is_reserved": 0, "lon": -77.03206666666667, "fusion_lon": 0.0, "is_disabled": 0, "fusion_lat": 0.0, "bike_id": "742e8d02accf2c744b480d8b2bb9b144", "rental_uris": {"ios": "https://dc.lft.to/lastmile_qr_scan", "android": "https://dc.lft.to/lastmile_qr_scan"}}, {"name": "6f76a742680334dfb5315dbe14a09d5f", "type": "electric_scooter", "lat": 38.931209333333335, "is_reserved": 0, "lon": -77.0360345, "fusion_lon": 0.0, "is_disabled": 0, "fusion_lat": 0.0, "bike_id": "6f76a742680334dfb5315dbe14a09d5f", "rental_uris": {"ios": "https://dc.lft.to/lastmile_qr_scan", "android": "https://dc.lft.to/lastmile_qr_scan"}}, {"name": "7b470aa48ed59b18c69ecd706571c726", "type": "electric_scooter", "lat": 38.89771966666667, "is_reserved": 0, "lon": -77.02699716666666, "fusion_lon": 0.0, "is_disabled": 0, "fusion_lat": 0.0, "bike_id": "7b470aa48ed59b18c69ecd706571c726", "rental_uris": {"ios": "https://dc.lft.to/lastmile_qr_scan", "android": "https://dc.lft.to/lastmile_qr_scan"}}, {"name": "2fa4d2ff83ad7a14721e7d1db9e697e4", "type": "electric_scooter", "lat": 38.89797766666667, "is_reserved": 0, "lon": -76.99168266666666, "fusion_lon": 0.0, "is_disabled": 0, "fusion_lat": 0.0, "bike_id": "2fa4d2ff83ad7a14721e7d1db9e697e4", "rental_uris": {"ios": "https://dc.lft.to/lastmile_qr_scan", "android": "https://dc.lft.to/lastmile_qr_scan"}}, {"name": "fa103a22de337477465837d07235678c", "type": "electric_scooter", "lat": 38.866982166666666, "is_reserved": 0, "lon": -76.98713616666667, "fusion_lon": 0.0, "is_disabled": 0, "fusion_lat": 0.0, "bike_id": "fa103a22de337477465837d07235678c", "rental_uris": {"ios": "https://dc.lft.to/lastmile_qr_scan", "android": "https://dc.lft.to/lastmile_qr_scan"}}, {"name": "c6ec9f39c5cfe4ce456637fd4affccea", "type": "electric_scooter", "lat": 38.92152316666667, "is_reserved": 0, "lon": -77.02422033333333, "fusion_lon": 0.0, "is_disabled": 0, "fusion_lat": 0.0, "bike_id": "c6ec9f39c5cfe4ce456637fd4affccea", "rental_uris": {"ios": "https://dc.lft.to/lastmile_qr_scan", "android": "https://dc.lft.to/lastmile_qr_scan"}}, {"name": "60be5613e09e809f6af19d84cb57f046", "type": "electric_scooter", "lat": 38.897987666666666, "is_reserved": 0, "lon": -77.01204083333333, "fusion_lon": 0.0, "is_disabled": 0, "fusion_lat": 0.0, "bike_id": "60be5613e09e809f6af19d84cb57f046", "rental_uris": {"ios": "https://dc.lft.to/lastmile_qr_scan", "android": "https://dc.lft.to/lastmile_qr_scan"}}, {"name": "36c190db9b25e32d847358cb15b78614", "type": "electric_bike", "lat": 38.903697666666666, "is_reserved": 0, "lon": -77.03906083333334, "fusion_lon": 0.0, "is_disabled": 0, "fusion_lat": 0.0, "bike_id": "36c190db9b25e32d847358cb15b78614", "rental_uris": {"ios": "https://dc.lft.to/lastmile_qr_scan", "android": "https://dc.lft.to/lastmile_qr_scan"}}, {"name": "793f7ba1a11dd0accdeceed0013d2a00", "type": "electric_scooter", "lat": 38.9311225, "is_reserved": 0, "lon": -77.03464633333333, "fusion_lon": 0.0, "is_disabled": 0, "fusion_lat": 0.0, "bike_id": "793f7ba1a11dd0accdeceed0013d2a00", "rental_uris": {"ios": "https://dc.lft.to/lastmile_qr_scan", "android": "https://dc.lft.to/lastmile_qr_scan"}}, {"name": "34d4a8936d061e5a24aa6a00fb4e237a", "type": "electric_scooter", "lat": 38.9234975, "is_reserved": 0, "lon": -77.043578, "fusion_lon": 0.0, "is_disabled": 0, "fusion_lat": 0.0, "bike_id": "34d4a8936d061e5a24aa6a00fb4e237a", "rental_uris": {"ios": "https://dc.lft.to/lastmile_qr_scan", "android": "https://dc.lft.to/lastmile_qr_scan"}}, {"name": "abd5a17e5974286cdc87f60bec4d7115", "type": "electric_scooter", "lat": 38.936138166666666, "is_reserved": 0, "lon": -77.02249983333333, "fusion_lon": 0.0, "is_disabled": 0, "fusion_lat": 0.0, "bike_id": "abd5a17e5974286cdc87f60bec4d7115", "rental_uris": {"ios": "https://dc.lft.to/lastmile_qr_scan", "android": "https://dc.lft.to/lastmile_qr_scan"}}, {"name": "c8e467f6e784e7db3fa3fc0b18e86574", "type": "electric_scooter", "lat": 38.885335833333336, "is_reserved": 0, "lon": -77.00580033333334, "fusion_lon": 0.0, "is_disabled": 0, "fusion_lat": 0.0, "bike_id": "c8e467f6e784e7db3fa3fc0b18e86574", "rental_uris": {"ios": "https://dc.lft.to/lastmile_qr_scan", "android": "https://dc.lft.to/lastmile_qr_scan"}}, {"name": "a72c82e6b027c0751cd81c273ec32a2d", "type": "electric_bike", "lat": 38.810374833333334, "is_reserved": 0, "lon": -77.08503233333333, "fusion_lon": 0.0, "is_disabled": 0, "fusion_lat": 0.0, "bike_id": "a72c82e6b027c0751cd81c273ec32a2d", "rental_uris": {"ios": "https://dc.lft.to/lastmile_qr_scan", "android": "https://dc.lft.to/lastmile_qr_scan"}}, {"name": "6f1d8dd99a9dc9cbe8a2b92e7e1166bc", "type": "electric_scooter", "lat": 38.896068166666666, "is_reserved": 0, "lon": -77.04555166666667, "fusion_lon": 0.0, "is_disabled": 0, "fusion_lat": 0.0, "bike_id": "6f1d8dd99a9dc9cbe8a2b92e7e1166bc", "rental_uris": {"ios": "https://dc.lft.to/lastmile_qr_scan", "android": "https://dc.lft.to/lastmile_qr_scan"}}, {"name": "4774b352600f01e2c12cac16569379e3", "type": "electric_scooter", "lat": 38.86240566666667, "is_reserved": 0, "lon": -76.994958, "fusion_lon": 0.0, "is_disabled": 0, "fusion_lat": 0.0, "bike_id": "4774b352600f01e2c12cac16569379e3", "rental_uris": {"ios": "https://dc.lft.to/lastmile_qr_scan", "android": "https://dc.lft.to/lastmile_qr_scan"}}, {"name": "4d21e3f3e039270cf05df403844e79d8", "type": "electric_scooter", "lat": 38.92271016666667, "is_reserved": 0, "lon": -77.01823383333333, "fusion_lon": 0.0, "is_disabled": 0, "fusion_lat": 0.0, "bike_id": "4d21e3f3e039270cf05df403844e79d8", "rental_uris": {"ios": "https://dc.lft.to/lastmile_qr_scan", "android": "https://dc.lft.to/lastmile_qr_scan"}}, {"name": "50397a7c6a7a35164c6cf3129e056d09", "type": "electric_scooter", "lat": 38.8700555, "is_reserved": 0, "lon": -77.01230566666666, "fusion_lon": 0.0, "is_disabled": 0, "fusion_lat": 0.0, "bike_id": "50397a7c6a7a35164c6cf3129e056d09", "rental_uris": {"ios": "https://dc.lft.to/lastmile_qr_scan", "android": "https://dc.lft.to/lastmile_qr_scan"}}, {"name": "5a3863978f2b168671c1f2b747df9103", "type": "electric_scooter", "lat": 38.94465183333333, "is_reserved": 0, "lon": -77.006584, "fusion_lon": 0.0, "is_disabled": 0, "fusion_lat": 0.0, "bike_id": "5a3863978f2b168671c1f2b747df9103", "rental_uris": {"ios": "https://dc.lft.to/lastmile_qr_scan", "android": "https://dc.lft.to/lastmile_qr_scan"}}, {"name": "c0bb1200dc5bef62120a26f533a363fb", "type": "electric_scooter", "lat": 38.86565783333333, "is_reserved": 0, "lon": -76.98553616666666, "fusion_lon": 0.0, "is_disabled": 0, "fusion_lat": 0.0, "bike_id": "c0bb1200dc5bef62120a26f533a363fb", "rental_uris": {"ios": "https://dc.lft.to/lastmile_qr_scan", "android": "https://dc.lft.to/lastmile_qr_scan"}}, {"name": "20c22879341867e0093a2a14fd662715", "type": "electric_scooter", "lat": 38.90807933333333, "is_reserved": 0, "lon": -77.03663083333333, "fusion_lon": 0.0, "is_disabled": 0, "fusion_lat": 0.0, "bike_id": "20c22879341867e0093a2a14fd662715", "rental_uris": {"ios": "https://dc.lft.to/lastmile_qr_scan", "android": "https://dc.lft.to/lastmile_qr_scan"}}, {"name": "bc143ce5bb2082c2389e35e7254a7b2c", "type": "electric_bike", "lat": 38.8699175, "is_reserved": 0, "lon": -76.95987683333334, "fusion_lon": 0.0, "is_disabled": 0, "fusion_lat": 0.0, "bike_id": "bc143ce5bb2082c2389e35e7254a7b2c", "rental_uris": {"ios": "https://dc.lft.to/lastmile_qr_scan", "android": "https://dc.lft.to/lastmile_qr_scan"}}, {"name": "8974c0258cdaea6c78aa7b24c47d78d3", "type": "electric_bike", "lat": 38.9850345, "is_reserved": 0, "lon": -76.98209266666667, "fusion_lon": 0.0, "is_disabled": 0, "fusion_lat": 0.0, "bike_id": "8974c0258cdaea6c78aa7b24c47d78d3", "rental_uris": {"ios": "https://dc.lft.to/lastmile_qr_scan", "android": "https://dc.lft.to/lastmile_qr_scan"}}, {"name": "545205752bafce29cd7fa425ec14cdfe", "type": "electric_scooter", "lat": 38.90350433333333, "is_reserved": 0, "lon": -77.00746983333333, "fusion_lon": 0.0, "is_disabled": 0, "fusion_lat": 0.0, "bike_id": "545205752bafce29cd7fa425ec14cdfe", "rental_uris": {"ios": "https://dc.lft.to/lastmile_qr_scan", "android": "https://dc.lft.to/lastmile_qr_scan"}}, {"name": "3eb455ec21a404835f1bc007ba366b9b", "type": "electric_scooter", "lat": 38.932367166666666, "is_reserved": 0, "lon": -77.03830266666667, "fusion_lon": 0.0, "is_disabled": 0, "fusion_lat": 0.0, "bike_id": "3eb455ec21a404835f1bc007ba366b9b", "rental_uris": {"ios": "https://dc.lft.to/lastmile_qr_scan", "android": "https://dc.lft.to/lastmile_qr_scan"}}, {"name": "c8d390ede55ba69b7786f311239acc52", "type": "electric_scooter", "lat": 38.900656, "is_reserved": 0, "lon": -76.98713266666667, "fusion_lon": 0.0, "is_disabled": 0, "fusion_lat": 0.0, "bike_id": "c8d390ede55ba69b7786f311239acc52", "rental_uris": {"ios": "https://dc.lft.to/lastmile_qr_scan", "android": "https://dc.lft.to/lastmile_qr_scan"}}, {"name": "46cd535b0421eef660d1660ebb2c6536", "type": "electric_scooter", "lat": 38.884902333333336, "is_reserved": 0, "lon": -77.0071135, "fusion_lon": 0.0, "is_disabled": 0, "fusion_lat": 0.0, "bike_id": "46cd535b0421eef660d1660ebb2c6536", "rental_uris": {"ios": "https://dc.lft.to/lastmile_qr_scan", "android": "https://dc.lft.to/lastmile_qr_scan"}}, {"name": "6870a7b83f16ca1c58c231aaa2b47fa7", "type": "electric_scooter", "lat": 38.90310816666667, "is_reserved": 0, "lon": -77.03208033333334, "fusion_lon": 0.0, "is_disabled": 0, "fusion_lat": 0.0, "bike_id": "6870a7b83f16ca1c58c231aaa2b47fa7", "rental_uris": {"ios": "https://dc.lft.to/lastmile_qr_scan", "android": "https://dc.lft.to/lastmile_qr_scan"}}, {"name": "fe9376974a52bb5aaf5e2cfa97b78528", "type": "electric_scooter", "lat": 38.90732533333333, "is_reserved": 0, "lon": -77.04040016666667, "fusion_lon": 0.0, "is_disabled": 0, "fusion_lat": 0.0, "bike_id": "fe9376974a52bb5aaf5e2cfa97b78528", "rental_uris": {"ios": "https://dc.lft.to/lastmile_qr_scan", "android": "https://dc.lft.to/lastmile_qr_scan"}}, {"name": "34303479547455909aebd943cb44e744", "type": "electric_bike", "lat": 38.88403316666667, "is_reserved": 0, "lon": -76.9605995, "fusion_lon": 0.0, "is_disabled": 0, "fusion_lat": 0.0, "bike_id": "34303479547455909aebd943cb44e744", "rental_uris": {"ios": "https://dc.lft.to/lastmile_qr_scan", "android": "https://dc.lft.to/lastmile_qr_scan"}}, {"name": "9e157e9f09a6fec6c9c6d666a94a1c37", "type": "electric_scooter", "lat": 38.928770166666666, "is_reserved": 0, "lon": -77.04048783333333, "fusion_lon": 0.0, "is_disabled": 0, "fusion_lat": 0.0, "bike_id": "9e157e9f09a6fec6c9c6d666a94a1c37", "rental_uris": {"ios": "https://dc.lft.to/lastmile_qr_scan", "android": "https://dc.lft.to/lastmile_qr_scan"}}, {"name": "066b385c35f22cdab1ac58c9df7bd17a", "type": "electric_scooter", "lat": 38.90643883333333, "is_reserved": 0, "lon": -77.0346695, "fusion_lon": 0.0, "is_disabled": 0, "fusion_lat": 0.0, "bike_id": "066b385c35f22cdab1ac58c9df7bd17a", "rental_uris": {"ios": "https://dc.lft.to/lastmile_qr_scan", "android": "https://dc.lft.to/lastmile_qr_scan"}}, {"name": "e1bdd6c58e9e22e891c84f18348c3811", "type": "electric_bike", "lat": 38.936713, "is_reserved": 0, "lon": -76.9519985, "fusion_lon": 0.0, "is_disabled": 0, "fusion_lat": 0.0, "bike_id": "e1bdd6c58e9e22e891c84f18348c3811", "rental_uris": {"ios": "https://dc.lft.to/lastmile_qr_scan", "android": "https://dc.lft.to/lastmile_qr_scan"}}, {"name": "02a8b65aecae7e0d81a4f8df37c0b02f", "type": "electric_scooter", "lat": 38.877126, "is_reserved": 0, "lon": -77.01669416666667, "fusion_lon": 0.0, "is_disabled": 0, "fusion_lat": 0.0, "bike_id": "02a8b65aecae7e0d81a4f8df37c0b02f", "rental_uris": {"ios": "https://dc.lft.to/lastmile_qr_scan", "android": "https://dc.lft.to/lastmile_qr_scan"}}, {"name": "8c71750783faa01558b08668d09cc13c", "type": "electric_bike", "lat": 38.918517, "is_reserved": 0, "lon": -76.96092, "fusion_lon": 0.0, "is_disabled": 0, "fusion_lat": 0.0, "bike_id": "8c71750783faa01558b08668d09cc13c", "rental_uris": {"ios": "https://dc.lft.to/lastmile_qr_scan", "android": "https://dc.lft.to/lastmile_qr_scan"}}, {"name": "96b7ec69fd0e73fa953e13c3b4074df9", "type": "electric_scooter", "lat": 38.9028685, "is_reserved": 0, "lon": -77.036669, "fusion_lon": 0.0, "is_disabled": 0, "fusion_lat": 0.0, "bike_id": "96b7ec69fd0e73fa953e13c3b4074df9", "rental_uris": {"ios": "https://dc.lft.to/lastmile_qr_scan", "android": "https://dc.lft.to/lastmile_qr_scan"}}, {"name": "b5d2e39f4e7278357db7a640751cf760", "type": "electric_bike", "lat": 38.824459, "is_reserved": 0, "lon": -77.07052666666667, "fusion_lon": 0.0, "is_disabled": 0, "fusion_lat": 0.0, "bike_id": "b5d2e39f4e7278357db7a640751cf760", "rental_uris": {"ios": "https://dc.lft.to/lastmile_qr_scan", "android": "https://dc.lft.to/lastmile_qr_scan"}}, {"name": "cf39cd50189d210b3d22e24026544c7a", "type": "electric_scooter", "lat": 38.92315333333333, "is_reserved": 0, "lon": -77.04490666666666, "fusion_lon": 0.0, "is_disabled": 0, "fusion_lat": 0.0, "bike_id": "cf39cd50189d210b3d22e24026544c7a", "rental_uris": {"ios": "https://dc.lft.to/lastmile_qr_scan", "android": "https://dc.lft.to/lastmile_qr_scan"}}, {"name": "9f9b5a37257331db205698ec7dd64de0", "type": "electric_bike", "lat": 38.965773, "is_reserved": 0, "lon": -76.95484583333334, "fusion_lon": 0.0, "is_disabled": 0, "fusion_lat": 0.0, "bike_id": "9f9b5a37257331db205698ec7dd64de0", "rental_uris": {"ios": "https://dc.lft.to/lastmile_qr_scan", "android": "https://dc.lft.to/lastmile_qr_scan"}}, {"name": "0f7af264c93b4a5b9a4e87be3451f8ba", "type": "electric_scooter", "lat": 38.908914833333334, "is_reserved": 0, "lon": -77.08629733333333, "fusion_lon": 0.0, "is_disabled": 0, "fusion_lat": 0.0, "bike_id": "0f7af264c93b4a5b9a4e87be3451f8ba", "rental_uris": {"ios": "https://dc.lft.to/lastmile_qr_scan", "android": "https://dc.lft.to/lastmile_qr_scan"}}, {"name": "be6ddf981a685fcd2e80c8d2819a69a4", "type": "electric_bike", "lat": 38.90663966666666, "is_reserved": 0, "lon": -76.99963883333334, "fusion_lon": 0.0, "is_disabled": 0, "fusion_lat": 0.0, "bike_id": "be6ddf981a685fcd2e80c8d2819a69a4", "rental_uris": {"ios": "https://dc.lft.to/lastmile_qr_scan", "android": "https://dc.lft.to/lastmile_qr_scan"}}, {"name": "a37d84e99753439e8a7f07a525441358", "type": "electric_scooter", "lat": 38.9179105, "is_reserved": 0, "lon": -77.022994, "fusion_lon": 0.0, "is_disabled": 0, "fusion_lat": 0.0, "bike_id": "a37d84e99753439e8a7f07a525441358", "rental_uris": {"ios": "https://dc.lft.to/lastmile_qr_scan", "android": "https://dc.lft.to/lastmile_qr_scan"}}, {"name": "d44973921fd3661b193bfcd6b0be1259", "type": "electric_scooter", "lat": 38.890258, "is_reserved": 0, "lon": -76.9369045, "fusion_lon": 0.0, "is_disabled": 0, "fusion_lat": 0.0, "bike_id": "d44973921fd3661b193bfcd6b0be1259", "rental_uris": {"ios": "https://dc.lft.to/lastmile_qr_scan", "android": "https://dc.lft.to/lastmile_qr_scan"}}, {"name": "b819668b188cd36d57c98d0aaa82dbf5", "type": "electric_scooter", "lat": 38.923375, "is_reserved": 0, "lon": -77.03484683333333, "fusion_lon": 0.0, "is_disabled": 0, "fusion_lat": 0.0, "bike_id": "b819668b188cd36d57c98d0aaa82dbf5", "rental_uris": {"ios": "https://dc.lft.to/lastmile_qr_scan", "android": "https://dc.lft.to/lastmile_qr_scan"}}, {"name": "a2e50c613f85cefc755cb4bc7ce2bf75", "type": "electric_scooter", "lat": 38.89248666666667, "is_reserved": 0, "lon": -77.03180983333333, "fusion_lon": 0.0, "is_disabled": 0, "fusion_lat": 0.0, "bike_id": "a2e50c613f85cefc755cb4bc7ce2bf75", "rental_uris": {"ios": "https://dc.lft.to/lastmile_qr_scan", "android": "https://dc.lft.to/lastmile_qr_scan"}}, {"name": "3cc05bcaf607bd993b38d04e3198246e", "type": "electric_scooter", "lat": 38.9229565, "is_reserved": 0, "lon": -77.04206566666667, "fusion_lon": 0.0, "is_disabled": 0, "fusion_lat": 0.0, "bike_id": "3cc05bcaf607bd993b38d04e3198246e", "rental_uris": {"ios": "https://dc.lft.to/lastmile_qr_scan", "android": "https://dc.lft.to/lastmile_qr_scan"}},