{"data": {"bikes": [{"lon": -76.99117283333334, "fusion_lat": 0.0, "type": "electric_scooter", "lat": 38.89706316666667, "is_disabled": 0, "name": "41ee4a696b46cafc59c27b1f34985914", "is_reserved": 0, "bike_id": "41ee4a696b46cafc59c27b1f34985914", "fusion_lon": 0.0, "rental_uris": {"ios": "https://dc.lft.to/lastmile_qr_scan", "android": "https://dc.lft.to/lastmile_qr_scan"}}, {"lon": -77.01658433333333, "fusion_lat": 0.0, "type": "electric_scooter", "lat": 38.929028333333335, "is_disabled": 0, "name": "1db67dc5d92de30a6a6fdbc7b7d061a9", "is_reserved": 0, "bike_id": "1db67dc5d92de30a6a6fdbc7b7d061a9", "fusion_lon": 0.0, "rental_uris": {"ios": "https://dc.lft.to/lastmile_qr_scan", "android": "https://dc.lft.to/lastmile_qr_scan"}}, {"lon": -76.9891325, "fusion_lat": 0.0, "type": "electric_scooter", "lat": 38.900358, "is_disabled": 0, "name": "6a44b717921db58894fe5d97c4dcf62e", "is_reserved": 0, "bike_id": "6a44b717921db58894fe5d97c4dcf62e", "fusion_lon": 0.0, "rental_uris": {"ios": "https://dc.lft.to/lastmile_qr_scan", "android": "https://dc.lft.to/lastmile_qr_scan"}}, {"lon": -77.02819133333334, "fusion_lat": 0.0, "type": "electric_scooter", "lat": 38.89809533333333, "is_disabled": 0, "name": "54582c9dbea40dd6d17a6053d79b97fe", "is_reserved": 0, "bike_id": "54582c9dbea40dd6d17a6053d79b97fe", "fusion_lon": 0.0, "rental_uris": {"ios": "https://dc.lft.to/lastmile_qr_scan", "android": "https://dc.lft.to/lastmile_qr_scan"}}, {"lon": -77.02393233333333, "fusion_lat": 0.0, "type": "electric_scooter", "lat": 38.916031, "is_disabled": 0, "name": "cd364570283a048c44dc7ae99900c58d", "is_reserved": 0, "bike_id": "cd364570283a048c44dc7ae99900c58d", "fusion_lon": 0.0, "rental_uris": {"ios": "https://dc.lft.to/lastmile_qr_scan", "android": "https://dc.lft.to/lastmile_qr_scan"}}, {"lon": -77.13456433333333, "fusion_lat": 0.0, "type": "electric_bike", "lat": 39.094365833333335, "is_disabled": 0, "name": "e4a424b526b685a11a9d44488f812fb4", "is_reserved": 0, "bike_id": "e4a424b526b685a11a9d44488f812fb4", "fusion_lon": 0.0, "rental_uris": {"ios": "https://dc.lft.to/lastmile_qr_scan", "android": "https://dc.lft.to/lastmile_qr_scan"}}, {"lon": -77.04498566666666, "fusion_lat": 0.0, "type": "electric_scooter", "lat": 38.9002105, "is_disabled": 0, "name": "85d9f8b057f304c4d21700c7bd034f99", "is_reserved": 0, "bike_id": "85d9f8b057f304c4d21700c7bd034f99", "fusion_lon": 0.0, "rental_uris": {"ios": "https://dc.lft.to/lastmile_qr_scan", "android": "https://dc.lft.to/lastmile_qr_scan"}}, {"lon": -77.06007216666667, "fusion_lat": 0.0, "type": "electric_scooter", "lat": 38.93635916666667, "is_disabled": 0, "name": "2ed3a28db2d9ab1264f16972a0869860", "is_reserved": 0, "bike_id": "2ed3a28db2d9ab1264f16972a0869860", "fusion_lon": 0.0, "rental_uris": {"ios": "https://dc.lft.to/lastmile_qr_scan", "android": "https://dc.lft.to/lastmile_qr_scan"}}, {"lon": -77.0319005, "fusion_lat": 0.0, "type": "electric_scooter", "lat": 38.915682, "is_disabled": 0, "name": "bb937a5840e84ed13278ee4694fd882c", "is_reserved": 0, "bike_id": "bb937a5840e84ed13278ee4694fd882c", "fusion_lon": 0.0, "rental_uris": {"ios": "https://dc.lft.to/lastmile_qr_scan", "android": "https://dc.lft.to/lastmile_qr_scan"}}, {"lon": -77.02946733333333, "fusion_lat": 0.0, "type": "electric_scooter", "lat": 38.89568366666666, "is_disabled": 0, "name": "fab40f46ec407dceca796f59246cb9e6", "is_reserved": 0, "bike_id": "fab40f46ec407dceca796f59246cb9e6", "fusion_lon": 0.0, "rental_uris": {"ios": "https://dc.lft.to/lastmile_qr_scan", "android": "https://dc.lft.to/lastmile_qr_scan"}}, {"lon": -77.02144733333333, "fusion_lat": 0.0, "type": "electric_scooter", "lat": 38.92453233333333, "is_disabled": 0, "name": "938fb309f330a0fd6cbf3b2c0cf44f5a", "is_reserved": 0, "bike_id": "938fb309f330a0fd6cbf3b2c0cf44f5a", "fusion_lon": 0.0, "rental_uris": {"ios": "https://dc.lft.to/lastmile_qr_scan", "android": "https://dc.lft.to/lastmile_qr_scan"}}, {"lon": -77.0500135, "fusion_lat": 0.0, "type": "electric_scooter", "lat": 38.901207, "is_disabled": 0, "name": "d010d4a3672f62e4d2ee00fc5a30820b", "is_reserved": 0, "bike_id": "d010d4a3672f62e4d2ee00fc5a30820b", "fusion_lon": 0.0, "rental_uris": {"ios": "https://dc.lft.to/lastmile_qr_scan", "android": "https://dc.lft.to/lastmile_qr_scan"}}, {"lon": -77.0229355, "fusion_lat": 0.0, "type": "electric_scooter", "lat": 38.91713033333333, "is_disabled": 0, "name": "1619e382643d7fe99042774de21d4451", "is_reserved": 0, "bike_id": "1619e382643d7fe99042774de21d4451", "fusion_lon": 0.0, "rental_uris": {"ios": "https://dc.lft.to/lastmile_qr_scan", "android": "https://dc.lft.to/lastmile_qr_scan"}}, {"lon": -77.0177265, "fusion_lat": 0.0, "type": "electric_scooter", "lat": 38.902479666666665, "is_disabled": 0, "name": "31942479a09f74b932d3824b16e0df12", "is_reserved": 0, "bike_id": "31942479a09f74b932d3824b16e0df12", "fusion_lon": 0.0, "rental_uris": {"ios": "https://dc.lft.to/lastmile_qr_scan", "android": "https://dc.lft.to/lastmile_qr_scan"}}, {"lon": -77.045713, "fusion_lat": 0.0, "type": "electric_scooter", "lat": 38.92126833333333, "is_disabled": 0, "name": "10989d4a395f6ab1b7136123e2881ba4", "is_reserved": 0, "bike_id": "10989d4a395f6ab1b7136123e2881ba4", "fusion_lon": 0.0, "rental_uris": {"ios": "https://dc.lft.to/lastmile_qr_scan", "android": "https://dc.lft.to/lastmile_qr_scan"}}, {"lon": -77.02159516666667, "fusion_lat": 0.0, "type": "electric_scooter", "lat": 38.9261105, "is_disabled": 0, "name": "e8a73a8aff36d24c94f2f23d81c8a3b0", "is_reserved": 0, "bike_id": "e8a73a8aff36d24c94f2f23d81c8a3b0", "fusion_lon": 0.0, "rental_uris": {"ios": "https://dc.lft.to/lastmile_qr_scan", "android": "https://dc.lft.to/lastmile_qr_scan"}}, {"lon": -77.00337766666667, "fusion_lat": 0.0, "type": "electric_scooter", "lat": 38.893556333333336, "is_disabled": 0, "name": "e9aab8fb1a8999934220d9433e4ed453", "is_reserved": 0, "bike_id": "e9aab8fb1a8999934220d9433e4ed453", "fusion_lon": 0.0, "rental_uris": {"ios": "https://dc.lft.to/lastmile_qr_scan", "android": "https://dc.lft.to/lastmile_qr_scan"}}, {"lon": -77.03758416666666, "fusion_lat": 0.0, "type": "electric_scooter", "lat": 38.92913683333333, "is_disabled": 0, "name": "f0338524f99073a3b7ccb8d3527a9f84", "is_reserved": 0, "bike_id": "f0338524f99073a3b7ccb8d3527a9f84", "fusion_lon": 0.0, "rental_uris": {"ios": "https://dc.lft.to/lastmile_qr_scan", "android": "https://dc.lft.to/lastmile_qr_scan"}}, {"lon": -77.05049366666667, "fusion_lat": 0.0, "type": "electric_scooter", "lat": 38.923655833333335, "is_disabled": 0, "name": "9f1ec77524364f007c1d9b332279660b", "is_reserved": 0, "bike_id": "9f1ec77524364f007c1d9b332279660b", "fusion_lon": 0.0, "rental_uris": {"ios": "https://dc.lft.to/lastmile_qr_scan", "android": "https://dc.lft.to/lastmile_qr_scan"}}, {"lon": -76.99338183333333, "fusion_lat": 0.0, "type": "electric_bike", "lat": 38.946651833333334, "is_disabled": 0, "name": "f83b813c64e9170a8bb4562986ad201b", "is_reserved": 0, "bike_id": "f83b813c64e9170a8bb4562986ad201b", "fusion_lon": 0.0, "rental_uris": {"ios": "https://dc.lft.to/lastmile_qr_scan", "android": "https://dc.lft.to/lastmile_qr_scan"}}, {"lon": -77.1422945, "fusion_lat": 0.0, "type": "electric_bike", "lat": 38.88604933333333, "is_disabled": 0, "name": "bd4ac6c8b9522317caa6ad106a3166aa", "is_reserved": 0, "bike_id": "bd4ac6c8b9522317caa6ad106a3166aa", "fusion_lon": 0.0, "rental_uris": {"ios": "https://dc.lft.to/lastmile_qr_scan", "android": "https://dc.lft.to/lastmile_qr_scan"}}, {"lon": -77.01115733333333, "fusion_lat": 0.0, "type": "electric_scooter", "lat": 38.885087666666664, "is_disabled": 0, "name": "3f248651c53b42e8f3ad513c4c4b3b3b", "is_reserved": 0, "bike_id": "3f248651c53b42e8f3ad513c4c4b3b3b", "fusion_lon": 0.0, "rental_uris": {"ios": "https://dc.lft.to/lastmile_qr_scan", "android": "https://dc.lft.to/lastmile_qr_scan"}}, {"lon": -77.07838233333334, "fusion_lat": 0.0, "type": "electric_scooter", "lat": 38.931765166666665, "is_disabled": 0, "name": "dc8e5a1a1bc0e17303bcd4a1ab83ce90", "is_reserved": 0, "bike_id": "dc8e5a1a1bc0e17303bcd4a1ab83ce90", "fusion_lon": 0.0, "rental_uris": {"ios": "https://dc.lft.to/lastmile_qr_scan", "android": "https://dc.lft.to/lastmile_qr_scan"}}, {"lon": -77.04998233333333, "fusion_lat": 0.0, "type": "electric_scooter", "lat": 38.8922985, "is_disabled": 0, "name": "3d82f711f13e3c7f9c953f93c08b5c71", "is_reserved": 0, "bike_id": "3d82f711f13e3c7f9c953f93c08b5c71", "fusion_lon": 0.0, "rental_uris": {"ios": "https://dc.lft.to/lastmile_qr_scan", "android": "https://dc.lft.to/lastmile_qr_scan"}}, {"lon": -77.02799, "fusion_lat": 0.0, "type": "electric_scooter", "lat": 38.9168345, "is_disabled": 0, "name": "5dae0ed81e775c41caf8a8e58e894264", "is_reserved": 0, "bike_id": "5dae0ed81e775c41caf8a8e58e894264", "fusion_lon": 0.0, "rental_uris": {"ios": "https://dc.lft.to/lastmile_qr_scan", "android": "https://dc.lft.to/lastmile_qr_scan"}}, {"lon": -77.0501155, "fusion_lat": 0.0, "type": "electric_scooter", "lat": 38.906726, "is_disabled": 0, "name": "842b9f8a8b85c4b5e74f8452c4157d17", "is_reserved": 0, "bike_id": "842b9f8a8b85c4b5e74f8452c4157d17", "fusion_lon": 0.0, "rental_uris": {"ios": "https://dc.lft.to/lastmile_qr_scan", "android": "https://dc.lft.to/lastmile_qr_scan"}}, {"lon": -77.04386733333334, "fusion_lat": 0.0, "type": "electric_scooter", "lat": 38.90131866666667, "is_disabled": 0, "name": "9a45c30e47832a7a343b7d0786fd5759", "is_reserved": 0, "bike_id": "9a45c30e47832a7a343b7d0786fd5759", "fusion_lon": 0.0, "rental_uris": {"ios": "https://dc.lft.to/lastmile_qr_scan", "android": "https://dc.lft.to/lastmile_qr_scan"}}, {"lon": -77.04112283333333, "fusion_lat": 0.0, "type": "electric_scooter", "lat": 38.927272333333335, "is_disabled": 0, "name": "2e5f1c9db023721bf5b7c3666bffcea7", "is_reserved": 0, "bike_id": "2e5f1c9db023721bf5b7c3666bffcea7", "fusion_lon": 0.0, "rental_uris": {"ios": "https://dc.lft.to/lastmile_qr_scan", "android": "https://dc.lft.to/lastmile_qr_scan"}}, {"lon": -77.01424466666667, "fusion_lat": 0.0, "type": "electric_scooter", "lat": 38.92802416666667, "is_disabled": 0, "name": "9448195fa99c3fe9de64a529cb16e4d8", "is_reserved": 0, "bike_id": "9448195fa99c3fe9de64a529cb16e4d8", "fusion_lon": 0.0, "rental_uris": {"ios": "https://dc.lft.to/lastmile_qr_scan", "android": "https://dc.lft.to/lastmile_qr_scan"}}, {"lon": -77.003308, "fusion_lat": 0.0, "type": "electric_scooter", "lat": 38.893542, "is_disabled": 0, "name": "1d988aac8a4532e13e24f0fe486bf303", "is_reserved": 0, "bike_id": "1d988aac8a4532e13e24f0fe486bf303", "fusion_lon": 0.0, "rental_uris": {"ios": "https://dc.lft.to/lastmile_qr_scan", "android": "https://dc.lft.to/lastmile_qr_scan"}}, {"lon": -76.988394, "fusion_lat": 0.0, "type": "electric_scooter", "lat": 38.90176233333333, "is_disabled": 0, "name": "94627c09d1cf927e536c28515f093de9", "is_reserved": 0, "bike_id": "94627c09d1cf927e536c28515f093de9", "fusion_lon": 0.0, "rental_uris": {"ios": "https://dc.lft.to/lastmile_qr_scan", "android": "https://dc.lft.to/lastmile_qr_scan"}}, {"lon": -77.02813966666666, "fusion_lat": 0.0, "type": "electric_scooter", "lat": 38.910878833333335, "is_disabled": 0, "name": "c2c90eed157b3225c940ba89b8b054e8", "is_reserved": 0, "bike_id": "c2c90eed157b3225c940ba89b8b054e8", "fusion_lon": 0.0, "rental_uris": {"ios": "https://dc.lft.to/lastmile_qr_scan", "android": "https://dc.lft.to/lastmile_qr_scan"}}, {"lon": -76.97530966666666, "fusion_lat": 0.0, "type": "electric_scooter", "lat": 38.922273, "is_disabled": 0, "name": "d9f9316e8f377ebdf6566e4b8aec4df3", "is_reserved": 0, "bike_id": "d9f9316e8f377ebdf6566e4b8aec4df3", "fusion_lon": 0.0, "rental_uris": {"ios": "https://dc.lft.to/lastmile_qr_scan", "android": "https://dc.lft.to/lastmile_qr_scan"}}, {"lon": -77.02294316666666, "fusion_lat": 0.0, "type": "electric_scooter", "lat": 38.909007833333334, "is_disabled": 0, "name": "fbea9ccdcb8921b6da7f27f5f89dd4fd", "is_reserved": 0, "bike_id": "fbea9ccdcb8921b6da7f27f5f89dd4fd", "fusion_lon": 0.0, "rental_uris": {"ios": "https://dc.lft.to/lastmile_qr_scan", "android": "https://dc.lft.to/lastmile_qr_scan"}}, {"lon": -77.01899366666666, "fusion_lat": 0.0, "type": "electric_scooter", "lat": 38.923363333333334, "is_disabled": 0, "name": "da701338a7bbb625f2202d38b028611c", "is_reserved": 0, "bike_id": "da701338a7bbb625f2202d38b028611c", "fusion_lon": 0.0, "rental_uris": {"ios": "https://dc.lft.to/lastmile_qr_scan", "android": "https://dc.lft.to/lastmile_qr_scan"}}, {"lon": -77.05010583333333, "fusion_lat": 0.0, "type": "electric_scooter", "lat": 38.90532816666666, "is_disabled": 0, "name": "06c7f3980f74c2ee6d3469590b0a1f74", "is_reserved": 0, "bike_id": "06c7f3980f74c2ee6d3469590b0a1f74", "fusion_lon": 0.0, "rental_uris": {"ios": "https://dc.lft.to/lastmile_qr_scan", "android": "https://dc.lft.to/lastmile_qr_scan"}}, {"lon": -76.94156566666666, "fusion_lat": 0.0, "type": "electric_bike", "lat": 38.908309833333334, "is_disabled": 0, "name": "8e2cd9c19020c22196e47b9a73a17393", "is_reserved": 0, "bike_id": "8e2cd9c19020c22196e47b9a73a17393", "fusion_lon": 0.0, "rental_uris": {"ios": "https://dc.lft.to/lastmile_qr_scan", "android": "https://dc.lft.to/lastmile_qr_scan"}}, {"lon": -77.01143166666667, "fusion_lat": 0.0, "type": "electric_scooter", "lat": 38.900192833333335, "is_disabled": 0, "name": "e9d66828dce9b16da2803f3af53ad483", "is_reserved": 0, "bike_id": "e9d66828dce9b16da2803f3af53ad483", "fusion_lon": 0.0, "rental_uris": {"ios": "https://dc.lft.to/lastmile_qr_scan", "android": "https://dc.lft.to/lastmile_qr_scan"}}, {"lon": -77.0309575, "fusion_lat": 0.0, "type": "electric_scooter", "lat": 38.900046, "is_disabled": 0, "name": "0d27985c756f193c0f8d2a4d248e357a", "is_reserved": 0, "bike_id": "0d27985c756f193c0f8d2a4d248e357a", "fusion_lon": 0.0, "rental_uris": {"ios": "https://dc.lft.to/lastmile_qr_scan", "android": "https://dc.lft.to/lastmile_qr_scan"}}, {"lon": -77.03974316666667, "fusion_lat": 0.0, "type": "electric_scooter", "lat": 38.9055525, "is_disabled": 0, "name": "32e2164c9952c0fb0ccfe68ce0f2e165", "is_reserved": 0, "bike_id": "32e2164c9952c0fb0ccfe68ce0f2e165", "fusion_lon": 0.0, "rental_uris": {"ios": "https://dc.lft.to/lastmile_qr_scan", "android": "https://dc.lft.to/lastmile_qr_scan"}}, {"lon": -77.03166933333334, "fusion_lat": 0.0, "type": "electric_scooter", "lat": 38.90123066666666, "is_disabled": 0, "name": "4cdda467f364f7e06473dc6f71543321", "is_reserved": 0, "bike_id": "4cdda467f364f7e06473dc6f71543321", "fusion_lon": 0.0, "rental_uris": {"ios": "https://dc.lft.to/lastmile_qr_scan", "android": "https://dc.lft.to/lastmile_qr_scan"}}, {"lon": -77.02298716666667, "fusion_lat": 0.0, "type": "electric_scooter", "lat": 38.9206195, "is_disabled": 0, "name": "e777cb6852d8b5a1c33b9a58303b5612", "is_reserved": 0, "bike_id": "e777cb6852d8b5a1c33b9a58303b5612", "fusion_lon": 0.0, "rental_uris": {"ios": "https://dc.lft.to/lastmile_qr_scan", "android": "https://dc.lft.to/lastmile_qr_scan"}}, {"lon": -77.00570983333333, "fusion_lat": 0.0, "type": "electric_scooter", "lat": 38.883570666666664, "is_disabled": 0, "name": "0256b1790c451e737269ecb390745437", "is_reserved": 0, "bike_id": "0256b1790c451e737269ecb390745437", "fusion_lon": 0.0, "rental_uris": {"ios": "https://dc.lft.to/lastmile_qr_scan", "android": "https://dc.lft.to/lastmile_qr_scan"}}, {"lon": -77.036605, "fusion_lat": 0.0, "type": "electric_scooter", "lat": 38.9155585, "is_disabled": 0, "name": "2dc07fbfccb48a54d7f76bc0673c1cf4", "is_reserved": 0, "bike_id": "2dc07fbfccb48a54d7f76bc0673c1cf4", "fusion_lon": 0.0, "rental_uris": {"ios": "https://dc.lft.to/lastmile_qr_scan", "android": "https://dc.lft.to/lastmile_qr_scan"}}, {"lon": -77.02133433333333, "fusion_lat": 0.0, "type": "electric_scooter", "lat": 38.921306333333334, "is_disabled": 0, "name": "84715830cfda102ad41e7175508a093a", "is_reserved": 0, "bike_id": "84715830cfda102ad41e7175508a093a", "fusion_lon": 0.0, "rental_uris": {"ios": "https://dc.lft.to/lastmile_qr_scan", "android": "https://dc.lft.to/lastmile_qr_scan"}}, {"lon": -76.981086, "fusion_lat": 0.0, "type": "electric_scooter", "lat": 38.904083, "is_disabled": 0, "name": "fe9752dfe837c16c4709e29f226080bf", "is_reserved": 0, "bike_id": "fe9752dfe837c16c4709e29f226080bf", "fusion_lon": 0.0, "rental_uris": {"ios": "https://dc.lft.to/lastmile_qr_scan", "android": "https://dc.lft.to/lastmile_qr_scan"}}, {"lon": -77.01528016666667, "fusion_lat": 0.0, "type": "electric_scooter", "lat": 38.88475183333333, "is_disabled": 0, "name": "cb70b26ba1ffb1ea0e2fd52012b05f27", "is_reserved": 0, "bike_id": "cb70b26ba1ffb1ea0e2fd52012b05f27", "fusion_lon": 0.0, "rental_uris": {"ios": "https://dc.lft.to/lastmile_qr_scan", "android": "https://dc.lft.to/lastmile_qr_scan"}}, {"lon": -77.04370483333334, "fusion_lat": 0.0, "type": "electric_scooter", "lat": 38.8922195, "is_disabled": 0, "name": "356e9911dafa49397d80d07d4c37a714", "is_reserved": 0, "bike_id": "356e9911dafa49397d80d07d4c37a714", "fusion_lon": 0.0, "rental_uris": {"ios": "https://dc.lft.to/lastmile_qr_scan", "android": "https://dc.lft.to/lastmile_qr_scan"}}, {"lon": -77.01851366666666, "fusion_lat": 0.0, "type": "electric_scooter", "lat": 38.90965333333333, "is_disabled": 0, "name": "a12734115ec17d9a9ad34a858edc2ebc", "is_reserved": 0, "bike_id": "a12734115ec17d9a9ad34a858edc2ebc", "fusion_lon": 0.0, "rental_uris": {"ios": "https://dc.lft.to/lastmile_qr_scan", "android": "https://dc.lft.to/lastmile_qr_scan"}}, {"lon": -77.03978033333334, "fusion_lat": 0.0, "type": "electric_scooter", "lat": 38.902607833333334, "is_disabled": 0, "name": "e0ead21479212fab6836a5c8f32ca81c", "is_reserved": 0, "bike_id": "e0ead21479212fab6836a5c8f32ca81c", "fusion_lon": 0.0, "rental_uris": {"ios": "https://dc.lft.to/lastmile_qr_scan", "android": "https://dc.lft.to/lastmile_qr_scan"}}, {"lon": -77.02398366666667, "fusion_lat": 0.0, "type": "electric_scooter", "lat": 38.9004105, "is_disabled": 0, "name": "f99cf5cbd43d7d74ebe1ede65e3bad93", "is_reserved": 0, "bike_id": "f99cf5cbd43d7d74ebe1ede65e3bad93", "fusion_lon": 0.0, "rental_uris": {"ios": "https://dc.lft.to/lastmile_qr_scan", "android": "https://dc.lft.to/lastmile_qr_scan"}}, {"lon": -77.02509383333333, "fusion_lat": 0.0, "type": "electric_scooter", "lat": 38.90158016666667, "is_disabled": 0, "name": "d8bf28f248e0f4aa09b3f27744acbbf0", "is_reserved": 0, "bike_id": "d8bf28f248e0f4aa09b3f27744acbbf0", "fusion_lon": 0.0, "rental_uris": {"ios": "https://dc.lft.to/lastmile_qr_scan", "android": "https://dc.lft.to/lastmile_qr_scan"}}, {"lon": -77.026698, "fusion_lat": 0.0, "type": "electric_scooter", "lat": 38.89616683333333, "is_disabled": 0, "name": "91ca569e0bffa8ab3ead31597f1e2387", "is_reserved": 0, "bike_id": "91ca569e0bffa8ab3ead31597f1e2387", "fusion_lon": 0.0, "rental_uris": {"ios": "https://dc.lft.to/lastmile_qr_scan", "android": "https://dc.lft.to/lastmile_qr_scan"}}, {"lon": -77.0449925, "fusion_lat": 0.0, "type": "electric_scooter", "lat": 38.914803666666664, "is_disabled": 0, "name": "11468e65f2a325bc9fcdc5ec559b8de3", "is_reserved": 0, "bike_id": "11468e65f2a325bc9fcdc5ec559b8de3", "fusion_lon": 0.0, "rental_uris": {"ios": "https://dc.lft.to/lastmile_qr_scan", "android": "https://dc.lft.to/lastmile_qr_scan"}}, {"lon": -77.02505316666667, "fusion_lat": 0.0, "type": "electric_scooter", "lat": 38.9279145, "is_disabled": 0, "name": "94c8c0230c8b6889dbd5a8d0a8d82f6a", "is_reserved": 0, "bike_id": "94c8c0230c8b6889dbd5a8d0a8d82f6a", "fusion_lon": 0.0, "rental_uris": {"ios": "https://dc.lft.to/lastmile_qr_scan", "android": "https://dc.lft.to/lastmile_qr_scan"}}, {"lon": -77.0356855, "fusion_lat": 0.0, "type": "electric_scooter", "lat": 38.90558333333333, "is_disabled": 0, "name": "aa7781d80e6fd7c5e417a1968f74d029", "is_reserved": 0, "bike_id": "aa7781d80e6fd7c5e417a1968f74d029", "fusion_lon": 0.0, "rental_uris": {"ios": "https://dc.lft.to/lastmile_qr_scan", "android": "https://dc.lft.to/lastmile_qr_scan"}}, {"lon": -77.04606883333334, "fusion_lat": 0.0, "type": "electric_scooter", "lat": 38.898312, "is_disabled": 0, "name": "faa5634cef2f97cdf20054b2022bc80c", "is_reserved": 0, "bike_id": "faa5634cef2f97cdf20054b2022bc80c", "fusion_lon": 0.0, "rental_uris": {"ios": "https://dc.lft.to/lastmile_qr_scan", "android": "https://dc.lft.to/lastmile_qr_scan"}}, {"lon": -76.93915616666666, "fusion_lat": 0.0, "type": "electric_scooter", "lat": 38.88217683333333, "is_disabled": 0, "name": "2e4136ff0c2cfde65c07891c546752b6", "is_reserved": 0, "bike_id": "2e4136ff0c2cfde65c07891c546752b6", "fusion_lon": 0.0, "rental_uris": {"ios": "https://dc.lft.to/lastmile_qr_scan", "android": "https://dc.lft.to/lastmile_qr_scan"}}, {"lon": -76.9109355, "fusion_lat": 0.0, "type": "electric_bike", "lat": 38.88317466666667, "is_disabled": 0, "name": "f836379c5b1033c6cd7d7d48ab90ba88", "is_reserved": 0, "bike_id": "f836379c5b1033c6cd7d7d48ab90ba88", "fusion_lon": 0.0, "rental_uris": {"ios": "https://dc.lft.to/lastmile_qr_scan", "android": "https://dc.lft.to/lastmile_qr_scan"}}, {"lon": -77.0422205, "fusion_lat": 0.0, "type": "electric_bike", "lat": 39.03813816666667, "is_disabled": 0, "name": "82ca7aa1746b6332392e7141071a1172", "is_reserved": 0, "bike_id": "82ca7aa1746b6332392e7141071a1172", "fusion_lon": 0.0, "rental_uris": {"ios": "https://dc.lft.to/lastmile_qr_scan", "android": "https://dc.lft.to/lastmile_qr_scan"}}, {"lon": -76.97409833333333, "fusion_lat": 0.0, "type": "electric_scooter", "lat": 38.90240033333333, "is_disabled": 0, "name": "09f131a04c1161c117d5febd28a7b717", "is_reserved": 0, "bike_id": "09f131a04c1161c117d5febd28a7b717", "fusion_lon": 0.0, "rental_uris": {"ios": "https://dc.lft.to/lastmile_qr_scan", "android": "https://dc.lft.to/lastmile_qr_scan"}}, {"lon": -76.99769333333333, "fusion_lat": 0.0, "type": "electric_scooter", "lat": 38.894207, "is_disabled": 0, "name": "beaea049bf8e44caa75f8a3e1c8772a7", "is_reserved": 0, "bike_id": "beaea049bf8e44caa75f8a3e1c8772a7", "fusion_lon": 0.0, "rental_uris": {"ios": "https://dc.lft.to/lastmile_qr_scan", "android": "https://dc.lft.to/lastmile_qr_scan"}}, {"lon": -77.036045, "fusion_lat": 0.0, "type": "electric_scooter", "lat": 38.923197, "is_disabled": 0, "name": "1d136d6cbd3071570f33ea2b96887e2e", "is_reserved": 0, "bike_id": "1d136d6cbd3071570f33ea2b96887e2e", "fusion_lon": 0.0, "rental_uris": {"ios": "https://dc.lft.to/lastmile_qr_scan", "android": "https://dc.lft.to/lastmile_qr_scan"}}, {"lon": -77.002479, "fusion_lat": 0.0, "type": "electric_scooter", "lat": 38.876203, "is_disabled": 0, "name": "3498f348075925f56846d10d761f10b7", "is_reserved": 0, "bike_id": "3498f348075925f56846d10d761f10b7", "fusion_lon": 0.0, "rental_uris": {"ios": "https://dc.lft.to/lastmile_qr_scan", "android": "https://dc.lft.to/lastmile_qr_scan"}}, {"lon": -77.03861166666667, "fusion_lat": 0.0, "type": "electric_scooter", "lat": 38.90387166666667, "is_disabled": 0, "name": "f2c3a5d11a98f9f5872948386ea727cf", "is_reserved": 0, "bike_id": "f2c3a5d11a98f9f5872948386ea727cf", "fusion_lon": 0.0, "rental_uris": {"ios": "https://dc.lft.to/lastmile_qr_scan", "android": "https://dc.lft.to/lastmile_qr_scan"}}, {"lon": -77.0414025, "fusion_lat": 0.0, "type": "electric_scooter", "lat": 38.91045666666667, "is_disabled": 0, "name": "90c5c74848f01c00ebd5d06a48fe9b8e", "is_reserved": 0, "bike_id": "90c5c74848f01c00ebd5d06a48fe9b8e", "fusion_lon": 0.0, "rental_uris": {"ios": "https://dc.lft.to/lastmile_qr_scan", "android": "https://dc.lft.to/lastmile_qr_scan"}}, {"lon": -76.99270766666666, "fusion_lat": 0.0, "type": "electric_scooter", "lat": 38.8835655, "is_disabled": 0, "name": "7dcecf9908395c5269cc4b6cb9832180", "is_reserved": 0, "bike_id": "7dcecf9908395c5269cc4b6cb9832180", "fusion_lon": 0.0, "rental_uris": {"ios": "https://dc.lft.to/lastmile_qr_scan", "android": "https://dc.lft.to/lastmile_qr_scan"}}, {"lon": -76.9784425, "fusion_lat": 0.0, "type": "electric_scooter", "lat": 38.865647333333335, "is_disabled": 0, "name": "787ba3bcbebe14ffbb9df96e7fef6d61", "is_reserved": 0, "bike_id": "787ba3bcbebe14ffbb9df96e7fef6d61", "fusion_lon": 0.0, "rental_uris": {"ios": "https://dc.lft.to/lastmile_qr_scan", "android": "https://dc.lft.to/lastmile_qr_scan"}}, {"lon": -77.032084, "fusion_lat": 0.0, "type": "electric_scooter", "lat": 38.88620066666667, "is_disabled": 0, "name": "be34910c0013738487c6f8bb5fc53531", "is_reserved": 0, "bike_id": "be34910c0013738487c6f8bb5fc53531", "fusion_lon": 0.0, "rental_uris": {"ios": "https://dc.lft.to/lastmile_qr_scan", "android": "https://dc.lft.to/lastmile_qr_scan"}}, {"lon": -77.02135916666667, "fusion_lat": 0.0, "type": "electric_scooter", "lat": 38.91552633333333, "is_disabled": 0, "name": "2af07d171127e56e12f2c2f20208f55f", "is_reserved": 0, "bike_id": "2af07d171127e56e12f2c2f20208f55f", "fusion_lon": 0.0, "rental_uris": {"ios": "https://dc.lft.to/lastmile_qr_scan", "android": "https://dc.lft.to/lastmile_qr_scan"}}, {"lon": -77.02500816666667, "fusion_lat": 0.0, "type": "electric_scooter", "lat": 38.897440833333334, "is_disabled": 0, "name": "956b0e6ee178c1e3884690b09b2e5fd0", "is_reserved": 0, "bike_id": "956b0e6ee178c1e3884690b09b2e5fd0", "fusion_lon": 0.0, "rental_uris": {"ios": "https://dc.lft.to/lastmile_qr_scan", "android": "https://dc.lft.to/lastmile_qr_scan"}}, {"lon": -77.04822433333334, "fusion_lat": 0.0, "type": "electric_scooter", "lat": 38.92037583333333, "is_disabled": 0, "name": "4f46c1e6abd3c8b9e929b02f5bda06fa", "is_reserved": 0, "bike_id": "4f46c1e6abd3c8b9e929b02f5bda06fa", "fusion_lon": 0.0, "rental_uris": {"ios": "https://dc.lft.to/lastmile_qr_scan", "android": "https://dc.lft.to/lastmile_qr_scan"}}, {"lon": -77.032189, "fusion_lat": 0.0, "type": "electric_scooter", "lat": 38.914070333333335, "is_disabled": 0, "name": "d6eadf9f1306d0a69d477a481e6ce675", "is_reserved": 0, "bike_id": "d6eadf9f1306d0a69d477a481e6ce675", "fusion_lon": 0.0, "rental_uris": {"ios": "https://dc.lft.to/lastmile_qr_scan", "android": "https://dc.lft.to/lastmile_qr_scan"}}, {"lon": -76.94678933333333, "fusion_lat": 0.0, "type": "electric_scooter", "lat": 38.89863883333334, "is_disabled": 0, "name": "3968abb99e0851c5cc72ed99171fb221", "is_reserved": 0, "bike_id": "3968abb99e0851c5cc72ed99171fb221", "fusion_lon": 0.0, "rental_uris": {"ios": "https://dc.lft.to/lastmile_qr_scan", "android": "https://dc.lft.to/lastmile_qr_scan"}}, {"lon": -77.05805266666667, "fusion_lat": 0.0, "type": "electric_scooter", "lat": 38.902922, "is_disabled": 0, "name": "ed7908eaba4238b15bddf3dc26e57b65", "is_reserved": 0, "bike_id": "ed7908eaba4238b15bddf3dc26e57b65", "fusion_lon": 0.0, "rental_uris": {"ios": "https://dc.lft.to/lastmile_qr_scan", "android": "https://dc.lft.to/lastmile_qr_scan"}}, {"lon": -77.0204235, "fusion_lat": 0.0, "type": "electric_scooter", "lat": 38.915544833333335, "is_disabled": 0, "name": "92f9e52e7fbff997b681634d9f3df068", "is_reserved": 0, "bike_id": "92f9e52e7fbff997b681634d9f3df068", "fusion_lon": 0.0, "rental_uris": {"ios": "https://dc.lft.to/lastmile_qr_scan", "android": "https://dc.lft.to/lastmile_qr_scan"}}, {"lon": -77.00709616666667, "fusion_lat": 0.0, "type": "electric_scooter", "lat": 38.88490816666667, "is_disabled": 0, "name": "a4b86bd2a9587fd47272afb9f3aa7cf8", "is_reserved": 0, "bike_id": "a4b86bd2a9587fd47272afb9f3aa7cf8", "fusion_lon": 0.0, "rental_uris": {"ios": "https://dc.lft.to/lastmile_qr_scan", "android": "https://dc.lft.to/lastmile_qr_scan"}}, {"lon": -77.0337525, "fusion_lat": 0.0, "type": "electric_scooter", "lat": 38.894572333333336, "is_disabled": 0, "name": "a44fda2e318e93a31fcbac920da301e0", "is_reserved": 0, "bike_id": "a44fda2e318e93a31fcbac920da301e0", "fusion_lon": 0.0, "rental_uris": {"ios": "https://dc.lft.to/lastmile_qr_scan", "android": "https://dc.lft.to/lastmile_qr_scan"}}, {"lon": -77.04362733333333, "fusion_lat": 0.0, "type": "electric_scooter", "lat": 38.911183666666666, "is_disabled": 0, "name": "18c03a6b6f8bd57ec5d0d9d8697ba1b0", "is_reserved": 0, "bike_id": "18c03a6b6f8bd57ec5d0d9d8697ba1b0", "fusion_lon": 0.0, "rental_uris": {"ios": "https://dc.lft.to/lastmile_qr_scan", "android": "https://dc.lft.to/lastmile_qr_scan"}}, {"lon": -77.02340816666667, "fusion_lat": 0.0, "type": "electric_scooter", "lat": 38.944467833333334, "is_disabled": 0, "name": "363dbc81ef41774c9370cf50ede0558a", "is_reserved": 0, "bike_id": "363dbc81ef41774c9370cf50ede0558a", "fusion_lon": 0.0, "rental_uris": {"ios": "https://dc.lft.to/lastmile_qr_scan", "android": "https://dc.lft.to/lastmile_qr_scan"}}, {"lon": -77.0399865, "fusion_lat": 0.0, "type": "electric_scooter", "lat": 38.888693833333335, "is_disabled": 0, "name": "ba22f568d3b51770a5f9673283c6139b", "is_reserved": 0, "bike_id": "ba22f568d3b51770a5f9673283c6139b", "fusion_lon": 0.0, "rental_uris": {"ios": "https://dc.lft.to/lastmile_qr_scan", "android": "https://dc.lft.to/lastmile_qr_scan"}}, {"lon": -77.06199416666666, "fusion_lat": 0.0, "type": "electric_scooter", "lat": 38.903459833333336, "is_disabled": 0, "name": "17ef8fd85a889e8ae2f5ff7b6c2c01d8", "is_reserved": 0, "bike_id": "17ef8fd85a889e8ae2f5ff7b6c2c01d8", "fusion_lon": 0.0, "rental_uris": {"ios": "https://dc.lft.to/lastmile_qr_scan", "android": "https://dc.lft.to/lastmile_qr_scan"}}, {"lon": -77.02386033333333, "fusion_lat": 0.0, "type": "electric_scooter", "lat": 38.91330633333333, "is_disabled": 0, "name": "521009ece59832212295f7aa620bb5bd", "is_reserved": 0, "bike_id": "521009ece59832212295f7aa620bb5bd", "fusion_lon": 0.0, "rental_uris": {"ios": "https://dc.lft.to/lastmile_qr_scan", "android": "https://dc.lft.to/lastmile_qr_scan"}}, {"lon": -77.01841966666667, "fusion_lat": 0.0, "type": "electric_scooter", "lat": 38.91401333333334, "is_disabled": 0, "name": "d670dffccd4574eae8f4e76ad3e34595", "is_reserved": 0, "bike_id": "d670dffccd4574eae8f4e76ad3e34595", "fusion_lon": 0.0, "rental_uris": {"ios": "https://dc.lft.to/lastmile_qr_scan", "android": "https://dc.lft.to/lastmile_qr_scan"}}, {"lon": -77.0279265, "fusion_lat": 0.0, "type": "electric_scooter", "lat": 38.96118833333333, "is_disabled": 0, "name": "edece664a22dfd55c65fa527dc458954", "is_reserved": 0, "bike_id": "edece664a22dfd55c65fa527dc458954", "fusion_lon": 0.0, "rental_uris": {"ios": "https://dc.lft.to/lastmile_qr_scan", "android": "https://dc.lft.to/lastmile_qr_scan"}}, {"lon": -77.05028466666667, "fusion_lat": 0.0, "type": "electric_scooter", "lat": 38.90731783333333, "is_disabled": 0, "name": "71931103941e480bd70c3f30625bdcef", "is_reserved": 0, "bike_id": "71931103941e480bd70c3f30625bdcef", "fusion_lon": 0.0, "rental_uris": {"ios": "https://dc.lft.to/lastmile_qr_scan", "android": "https://dc.lft.to/lastmile_qr_scan"}}, {"lon": -77.02659566666667, "fusion_lat": 0.0, "type": "electric_scooter", "lat": 38.93100666666667, "is_disabled": 0, "name": "531e352f138e8695eb891506254bd5c7", "is_reserved": 0, "bike_id": "531e352f138e8695eb891506254bd5c7", "fusion_lon": 0.0, "rental_uris": {"ios": "https://dc.lft.to/lastmile_qr_scan", "android": "https://dc.lft.to/lastmile_qr_scan"}}, {"lon": -77.026967, "fusion_lat": 0.0, "type": "electric_scooter", "lat": 38.92466683333333, "is_disabled": 0, "name": "a35d2563396e85a044edc6ba43f67214", "is_reserved": 0, "bike_id": "a35d2563396e85a044edc6ba43f67214", "fusion_lon": 0.0, "rental_uris": {"ios": "https://dc.lft.to/lastmile_qr_scan", "android": "https://dc.lft.to/lastmile_qr_scan"}}, {"lon": -76.97601733333333, "fusion_lat": 0.0, "type": "electric_scooter", "lat": 38.89899066666667, "is_disabled": 0, "name": "85fdcc2a26716070cafd9ea99c460dd5", "is_reserved": 0, "bike_id": "85fdcc2a26716070cafd9ea99c460dd5", "fusion_lon": 0.0, "rental_uris": {"ios": "https://dc.lft.to/lastmile_qr_scan", "android": "https://dc.lft.to/lastmile_qr_scan"}}, {"lon": -77.033498, "fusion_lat": 0.0, "type": "electric_scooter", "lat": 38.896065, "is_disabled": 0, "name": "2c5613df0654c24c33a58793114da710", "is_reserved": 0, "bike_id": "2c5613df0654c24c33a58793114da710", "fusion_lon": 0.0, "rental_uris": {"ios": "https://dc.lft.to/lastmile_qr_scan", "android": "https://dc.lft.to/lastmile_qr_scan"}}, {"lon": -77.0333855, "fusion_lat": 0.0, "type": "electric_scooter", "lat": 38.89223833333333, "is_disabled": 0, "name": "d5ad496f5fbb2a7728189ada73e6528f", "is_reserved": 0, "bike_id": "d5ad496f5fbb2a7728189ada73e6528f", "fusion_lon": 0.0, "rental_uris": {"ios": "https://dc.lft.to/lastmile_qr_scan", "android": "https://dc.lft.to/lastmile_qr_scan"}}, {"lon": -77.0031175, "fusion_lat": 0.0, "type": "electric_scooter", "lat": 38.88989816666667, "is_disabled": 0, "name": "79b3593c987047e4865b027ecc37690d", "is_reserved": 0, "bike_id": "79b3593c987047e4865b027ecc37690d", "fusion_lon": 0.0, "rental_uris": {"ios": "https://dc.lft.to/lastmile_qr_scan", "android": "https://dc.lft.to/lastmile_qr_scan"}}, {"lon": -76.95762833333333, "fusion_lat": 0.0, "type": "electric_scooter", "lat": 38.88441483333333, "is_disabled": 0, "name": "303eb497eef397fac37bffbafe857e1a", "is_reserved": 0, "bike_id": "303eb497eef397fac37bffbafe857e1a", "fusion_lon": 0.0, "rental_uris": {"ios": "https://dc.lft.to/lastmile_qr_scan", "android": "https://dc.lft.to/lastmile_qr_scan"}}, {"lon": -77.021433, "fusion_lat": 0.0, "type": "electric_scooter", "lat": 38.9244675, "is_disabled": 0, "name": "6f9434f9efac5f9cbeb05b2cfb95f7c1", "is_reserved": 0, "bike_id": "6f9434f9efac5f9cbeb05b2cfb95f7c1", "fusion_lon": 0.0, "rental_uris": {"ios": "https://dc.lft.to/lastmile_qr_scan", "android": "https://dc.lft.to/lastmile_qr_scan"}}, {"lon": -77.04339416666667, "fusion_lat": 0.0, "type": "electric_scooter", "lat": 38.90501116666667, "is_disabled": 0, "name": "361628d0767a73e8a097f2bd384fb6cd", "is_reserved": 0, "bike_id": "361628d0767a73e8a097f2bd384fb6cd", "fusion_lon": 0.0, "rental_uris": {"ios": "https://dc.lft.to/lastmile_qr_scan", "android": "https://dc.lft.to/lastmile_qr_scan"}}, {"lon": -77.039482, "fusion_lat": 0.0, "type": "electric_scooter", "lat": 38.90730683333334, "is_disabled": 0, "name": "755cdc607f86aae1a555dcd381531c74", "is_reserved": 0, "bike_id": "755cdc607f86aae1a555dcd381531c74", "fusion_lon": 0.0, "rental_uris": {"ios": "https://dc.lft.to/lastmile_qr_scan", "android": "https://dc.lft.to/lastmile_qr_scan"}}, {"lon": -77.032091, "fusion_lat": 0.0, "type": "electric_scooter", "lat": 38.89061483333333, "is_disabled": 0, "name": "4f63136b511401ba10f220a66afb11a5", "is_reserved": 0, "bike_id": "4f63136b511401ba10f220a66afb11a5", "fusion_lon": 0.0, "rental_uris": {"ios": "https://dc.lft.to/lastmile_qr_scan", "android": "https://dc.lft.to/lastmile_qr_scan"}}, {"lon": -77.032054, "fusion_lat": 0.0, "type": "electric_scooter", "lat": 38.904525, "is_disabled": 0, "name": "60915996cd75404b8734274ea603ada5", "is_reserved": 0, "bike_id": "60915996cd75404b8734274ea603ada5", "fusion_lon": 0.0, "rental_uris": {"ios": "https://dc.lft.to/lastmile_qr_scan", "android": "https://dc.lft.to/lastmile_qr_scan"}}, {"lon": -77.01796883333333, "fusion_lat": 0.0, "type": "electric_bike", "lat": 38.99411, "is_disabled": 0, "name": "b3a9d10bb37ec4dda7fd8fa77435409b", "is_reserved": 0, "bike_id": "b3a9d10bb37ec4dda7fd8fa77435409b", "fusion_lon": 0.0, "rental_uris": {"ios": "https://dc.lft.to/lastmile_qr_scan", "android": "https://dc.lft.to/lastmile_qr_scan"}}, {"lon": -76.9868705, "fusion_lat": 0.0, "type": "electric_bike", "lat": 38.944679666666666, "is_disabled": 0, "name": "bc7b327146edcda15150c940061c2414", "is_reserved": 0, "bike_id": "bc7b327146edcda15150c940061c2414", "fusion_lon": 0.0, "rental_uris": {"ios": "https://dc.lft.to/lastmile_qr_scan", "android": "https://dc.lft.to/lastmile_qr_scan"}}, {"lon": -77.02402033333334, "fusion_lat": 0.0, "type": "electric_scooter", "lat": 38.924967, "is_disabled": 0, "name": "3cfb1531be5a59e5874cdd0892a8f69c", "is_reserved": 0, "bike_id": "3cfb1531be5a59e5874cdd0892a8f69c", "fusion_lon": 0.0, "rental_uris": {"ios": "https://dc.lft.to/lastmile_qr_scan", "android": "https://dc.lft.to/lastmile_qr_scan"}}, {"lon": -77.01304533333334, "fusion_lat": 0.0, "type": "electric_scooter", "lat": 38.89708383333333, "is_disabled": 0, "name": "414ed29c781a2cc7882faa2beb1788c3", "is_reserved": 0, "bike_id": "414ed29c781a2cc7882faa2beb1788c3", "fusion_lon": 0.0, "rental_uris": {"ios": "https://dc.lft.to/lastmile_qr_scan", "android": "https://dc.lft.to/lastmile_qr_scan"}}, {"lon": -77.02175066666666, "fusion_lat": 0.0, "type": "electric_scooter", "lat": 38.91484716666667, "is_disabled": 0, "name": "3898293e143b37c403a2f4f145afd978", "is_reserved": 0, "bike_id": "3898293e143b37c403a2f4f145afd978", "fusion_lon": 0.0, "rental_uris": {"ios": "https://dc.lft.to/lastmile_qr_scan", "android": "https://dc.lft.to/lastmile_qr_scan"}}, {"lon": -76.99536416666666, "fusion_lat": 0.0, "type": "electric_bike", "lat": 38.838669833333334, "is_disabled": 0, "name": "c2d0a699f75c3d96149ab86c68d69d71", "is_reserved": 0, "bike_id": "c2d0a699f75c3d96149ab86c68d69d71", "fusion_lon": 0.0, "rental_uris": {"ios": "https://dc.lft.to/lastmile_qr_scan", "android": "https://dc.lft.to/lastmile_qr_scan"}}, {"lon": -77.021715, "fusion_lat": 0.0, "type": "electric_scooter", "lat": 38.90182983333333, "is_disabled": 0, "name": "edc51c21f9bdd559da11903b8c5809a5", "is_reserved": 0, "bike_id": "edc51c21f9bdd559da11903b8c5809a5", "fusion_lon": 0.0, "rental_uris": {"ios": "https://dc.lft.to/lastmile_qr_scan", "android": "https://dc.lft.to/lastmile_qr_scan"}}, {"lon": -76.9949105, "fusion_lat": 0.0, "type": "electric_scooter", "lat": 38.8947715, "is_disabled": 0, "name": "adbadb3b5846016a3651cc02dd51896b", "is_reserved": 0, "bike_id": "adbadb3b5846016a3651cc02dd51896b", "fusion_lon": 0.0, "rental_uris": {"ios": "https://dc.lft.to/lastmile_qr_scan", "android": "https://dc.lft.to/lastmile_qr_scan"}}, {"lon": -77.03169916666667, "fusion_lat": 0.0, "type": "electric_scooter", "lat": 38.9141885, "is_disabled": 0, "name": "9b40c140089234b243f531c40dc90117", "is_reserved": 0, "bike_id": "9b40c140089234b243f531c40dc90117", "fusion_lon": 0.0, "rental_uris": {"ios": "https://dc.lft.to/lastmile_qr_scan", "android": "https://dc.lft.to/lastmile_qr_scan"}}, {"lon": -76.98468516666667, "fusion_lat": 0.0, "type": "electric_bike", "lat": 38.900289666666666, "is_disabled": 0, "name": "43c755a44dc5b1852910c8eeac7f87c5", "is_reserved": 0, "bike_id": "43c755a44dc5b1852910c8eeac7f87c5", "fusion_lon": 0.0, "rental_uris": {"ios": "https://dc.lft.to/lastmile_qr_scan", "android": "https://dc.lft.to/lastmile_qr_scan"}}, {"lon": -77.04207333333333, "fusion_lat": 0.0, "type": "electric_scooter", "lat": 38.90736583333333, "is_disabled": 0, "name": "fc2f32eaea8cf164742986050412333f", "is_reserved": 0, "bike_id": "fc2f32eaea8cf164742986050412333f", "fusion_lon": 0.0, "rental_uris": {"ios": "https://dc.lft.to/lastmile_qr_scan", "android": "https://dc.lft.to/lastmile_qr_scan"}}, {"lon": -77.06148383333333, "fusion_lat": 0.0, "type": "electric_scooter", "lat": 38.943115666666664, "is_disabled": 0, "name": "d8f83d945dfe1ae00152083326712933", "is_reserved": 0, "bike_id": "d8f83d945dfe1ae00152083326712933", "fusion_lon": 0.0, "rental_uris": {"ios": "https://dc.lft.to/lastmile_qr_scan", "android": "https://dc.lft.to/lastmile_qr_scan"}}, {"lon": -77.04505816666666, "fusion_lat": 0.0, "type": "electric_scooter", "lat": 38.89221633333333, "is_disabled": 0, "name": "3948808348259e0c5e524d98c976e961", "is_reserved": 0, "bike_id": "3948808348259e0c5e524d98c976e961", "fusion_lon": 0.0, "rental_uris": {"ios": "https://dc.lft.to/lastmile_qr_scan", "android": "https://dc.lft.to/lastmile_qr_scan"}}, {"lon": -77.03248366666666, "fusion_lat": 0.0, "type": "electric_scooter", "lat": 38.929973, "is_disabled": 0, "name": "7fffe2e6c5c06a9d83c45e213584e3c4", "is_reserved": 0, "bike_id": "7fffe2e6c5c06a9d83c45e213584e3c4", "fusion_lon": 0.0, "rental_uris": {"ios": "https://dc.lft.to/lastmile_qr_scan", "android": "https://dc.lft.to/lastmile_qr_scan"}}, {"lon": -77.0418925, "fusion_lat": 0.0, "type": "electric_scooter", "lat": 38.8997765, "is_disabled": 0, "name": "dc88645c27e93a45a755882aab3a88c0", "is_reserved": 0, "bike_id": "dc88645c27e93a45a755882aab3a88c0", "fusion_lon": 0.0, "rental_uris": {"ios": "https://dc.lft.to/lastmile_qr_scan", "android": "https://dc.lft.to/lastmile_qr_scan"}}, {"lon": -77.02308233333333, "fusion_lat": 0.0, "type": "electric_scooter", "lat": 38.92057766666667, "is_disabled": 0, "name": "c8db914d6dc04a2491b776938974f139", "is_reserved": 0, "bike_id": "c8db914d6dc04a2491b776938974f139", "fusion_lon": 0.0, "rental_uris": {"ios": "https://dc.lft.to/lastmile_qr_scan", "android": "https://dc.lft.to/lastmile_qr_scan"}}, {"lon": -77.020979, "fusion_lat": 0.0, "type": "electric_scooter", "lat": 38.9215245, "is_disabled": 0, "name": "8e3cd5e753815c9e05dcf3d89622b5ed", "is_reserved": 0, "bike_id": "8e3cd5e753815c9e05dcf3d89622b5ed", "fusion_lon": 0.0, "rental_uris": {"ios": "https://dc.lft.to/lastmile_qr_scan", "android": "https://dc.lft.to/lastmile_qr_scan"}}, {"lon": -77.02290666666667, "fusion_lat": 0.0, "type": "electric_scooter", "lat": 38.90203866666667, "is_disabled": 0, "name": "927aa02404fdd952639dd0305315d66a", "is_reserved": 0, "bike_id": "927aa02404fdd952639dd0305315d66a", "fusion_lon": 0.0, "rental_uris": {"ios": "https://dc.lft.to/lastmile_qr_scan", "android": "https://dc.lft.to/lastmile_qr_scan"}}, {"lon": -76.97999033333333, "fusion_lat": 0.0, "type": "electric_scooter", "lat": 38.898822833333334, "is_disabled": 0, "name": "74ad124c3195d641457778ec24dcc0bd", "is_reserved": 0, "bike_id": "74ad124c3195d641457778ec24dcc0bd", "fusion_lon": 0.0, "rental_uris": {"ios": "https://dc.lft.to/lastmile_qr_scan", "android": "https://dc.lft.to/lastmile_qr_scan"}}, {"lon": -77.0590485, "fusion_lat": 0.0, "type": "electric_scooter", "lat": 38.901630833333336, "is_disabled": 0, "name": "1e42342593fb3548b5ef97fd09807917", "is_reserved": 0, "bike_id": "1e42342593fb3548b5ef97fd09807917", "fusion_lon": 0.0, "rental_uris": {"ios": "https://dc.lft.to/lastmile_qr_scan", "android": "https://dc.lft.to/lastmile_qr_scan"}}, {"lon": -77.02838, "fusion_lat": 0.0, "type": "electric_scooter", "lat": 38.897189166666664, "is_disabled": 0, "name": "de898e818bd9d670401996b3c6c19248", "is_reserved": 0, "bike_id": "de898e818bd9d670401996b3c6c19248", "fusion_lon": 0.0, "rental_uris": {"ios": "https://dc.lft.to/lastmile_qr_scan", "android": "https://dc.lft.to/lastmile_qr_scan"}}, {"lon": -76.99958183333334, "fusion_lat": 0.0, "type": "electric_scooter", "lat": 38.9256815, "is_disabled": 0, "name": "effdacf9bb259551bd5e4dcd5688919a", "is_reserved": 0, "bike_id": "effdacf9bb259551bd5e4dcd5688919a", "fusion_lon": 0.0, "rental_uris": {"ios": "https://dc.lft.to/lastmile_qr_scan", "android": "https://dc.lft.to/lastmile_qr_scan"}}, {"lon": -76.9827455, "fusion_lat": 0.0, "type": "electric_scooter", "lat": 38.9132995, "is_disabled": 0, "name": "88353a6453330a6470ecd0f6707fe0ef", "is_reserved": 0, "bike_id": "88353a6453330a6470ecd0f6707fe0ef", "fusion_lon": 0.0, "rental_uris": {"ios": "https://dc.lft.to/lastmile_qr_scan", "android": "https://dc.lft.to/lastmile_qr_scan"}}, {"lon": -77.0498595, "fusion_lat": 0.0, "type": "electric_scooter", "lat": 38.90116316666666, "is_disabled": 0, "name": "2226c65436ea39e53a5e3b86e858f852", "is_reserved": 0, "bike_id": "2226c65436ea39e53a5e3b86e858f852", "fusion_lon": 0.0, "rental_uris": {"ios": "https://dc.lft.to/lastmile_qr_scan", "android": "https://dc.lft.to/lastmile_qr_scan"}}, {"lon": -77.01623183333334, "fusion_lat": 0.0, "type": "electric_scooter", "lat": 38.90315783333333, "is_disabled": 0, "name": "3b036dedbf10e1bd389486ab1717cec2", "is_reserved": 0, "bike_id": "3b036dedbf10e1bd389486ab1717cec2", "fusion_lon": 0.0, "rental_uris": {"ios": "https://dc.lft.to/lastmile_qr_scan", "android": "https://dc.lft.to/lastmile_qr_scan"}}, {"lon": -77.0378185, "fusion_lat": 0.0, "type": "electric_scooter", "lat": 38.924361, "is_disabled": 0, "name": "d67c25b05cdd2fe5d0188a15ed5c060c", "is_reserved": 0, "bike_id": "d67c25b05cdd2fe5d0188a15ed5c060c", "fusion_lon": 0.0, "rental_uris": {"ios": "https://dc.lft.to/lastmile_qr_scan", "android": "https://dc.lft.to/lastmile_qr_scan"}}, {"lon": -76.99860116666666, "fusion_lat": 0.0, "type": "electric_scooter", "lat": 38.8643095, "is_disabled": 0, "name": "8c7cbedaeb471d3dba88cf624f82d38b", "is_reserved": 0, "bike_id": "8c7cbedaeb471d3dba88cf624f82d38b", "fusion_lon": 0.0, "rental_uris": {"ios": "https://dc.lft.to/lastmile_qr_scan", "android": "https://dc.lft.to/lastmile_qr_scan"}}, {"lon": -77.03223733333333, "fusion_lat": 0.0, "type": "electric_scooter", "lat": 38.896517, "is_disabled": 0, "name": "917d92058914391f61621916ec075b95", "is_reserved": 0, "bike_id": "917d92058914391f61621916ec075b95", "fusion_lon": 0.0, "rental_uris": {"ios": "https://dc.lft.to/lastmile_qr_scan", "android": "https://dc.lft.to/lastmile_qr_scan"}}, {"lon": -77.0117745, "fusion_lat": 0.0, "type": "electric_scooter", "lat": 38.880767, "is_disabled": 0, "name": "10ee8046c5c2397d86a30cbffe6c26b2", "is_reserved": 0, "bike_id": "10ee8046c5c2397d86a30cbffe6c26b2", "fusion_lon": 0.0, "rental_uris": {"ios": "https://dc.lft.to/lastmile_qr_scan", "android": "https://dc.lft.to/lastmile_qr_scan"}}, {"lon": -77.02156716666667, "fusion_lat": 0.0, "type": "electric_scooter", "lat": 38.924878166666666, "is_disabled": 0, "name": "93877bcb459ac7c15b2e66c8d8c0800d", "is_reserved": 0, "bike_id": "93877bcb459ac7c15b2e66c8d8c0800d", "fusion_lon": 0.0, "rental_uris": {"ios": "https://dc.lft.to/lastmile_qr_scan", "android": "https://dc.lft.to/lastmile_qr_scan"}}, {"lon": -76.986962, "fusion_lat": 0.0, "type": "electric_scooter", "lat": 38.90059983333333, "is_disabled": 0, "name": "ae218f90fa7fbe41eb92eb6d4225aa15", "is_reserved": 0, "bike_id": "ae218f90fa7fbe41eb92eb6d4225aa15", "fusion_lon": 0.0, "rental_uris": {"ios": "https://dc.lft.to/lastmile_qr_scan", "android": "https://dc.lft.to/lastmile_qr_scan"}}, {"lon": -77.12888433333333, "fusion_lat": 0.0, "type": "electric_bike", "lat": 38.90600533333333, "is_disabled": 0, "name": "56862b97556822c7088ffdb97c190489", "is_reserved": 0, "bike_id": "56862b97556822c7088ffdb97c190489", "fusion_lon": 0.0, "rental_uris": {"ios": "https://dc.lft.to/lastmile_qr_scan", "android": "https://dc.lft.to/lastmile_qr_scan"}}, {"lon": -76.9902025, "fusion_lat": 0.0, "type": "electric_bike", "lat": 38.83575883333334, "is_disabled": 0, "name": "40a279235c52ea996377ce021103ecad", "is_reserved": 0, "bike_id": "40a279235c52ea996377ce021103ecad", "fusion_lon": 0.0, "rental_uris": {"ios": "https://dc.lft.to/lastmile_qr_scan", "android": "https://dc.lft.to/lastmile_qr_scan"}}, {"lon": -77.04162366666667, "fusion_lat": 0.0, "type": "electric_scooter", "lat": 38.91443833333334, "is_disabled": 0, "name": "afd94aa156f5324d0d3c35e8012c96c3", "is_reserved": 0, "bike_id": "afd94aa156f5324d0d3c35e8012c96c3", "fusion_lon": 0.0, "rental_uris": {"ios": "https://dc.lft.to/lastmile_qr_scan", "android": "https://dc.lft.to/lastmile_qr_scan"}}, {"lon": -76.98421783333333, "fusion_lat": 0.0, "type": "electric_scooter", "lat": 38.86062166666667, "is_disabled": 0, "name": "4bb22d67e7c52acde8345e346aa34db3", "is_reserved": 0, "bike_id": "4bb22d67e7c52acde8345e346aa34db3", "fusion_lon": 0.0, "rental_uris": {"ios": "https://dc.lft.to/lastmile_qr_scan", "android": "https://dc.lft.to/lastmile_qr_scan"}}, {"lon": -77.0486875, "fusion_lat": 0.0, "type": "electric_scooter", "lat": 38.89331466666667, "is_disabled": 0, "name": "0ea009013b82f7d080b2d353fe3e05d7", "is_reserved": 0, "bike_id": "0ea009013b82f7d080b2d353fe3e05d7", "fusion_lon": 0.0, "rental_uris": {"ios": "https://dc.lft.to/lastmile_qr_scan", "android": "https://dc.lft.to/lastmile_qr_scan"}}, {"lon": -76.93003566666667, "fusion_lat": 0.0, "type": "electric_scooter", "lat": 38.89818666666667, "is_disabled": 0, "name": "21d8e938e634216785c15e4265497694", "is_reserved": 0, "bike_id": "21d8e938e634216785c15e4265497694", "fusion_lon": 0.0, "rental_uris": {"ios": "https://dc.lft.to/lastmile_qr_scan", "android": "https://dc.lft.to/lastmile_qr_scan"}}, {"lon": -77.01765483333334, "fusion_lat": 0.0, "type": "electric_scooter", "lat": 38.875259166666666, "is_disabled": 0, "name": "3f6813283b6bcf223082c372b8b74dcf", "is_reserved": 0, "bike_id": "3f6813283b6bcf223082c372b8b74dcf", "fusion_lon": 0.0, "rental_uris": {"ios": "https://dc.lft.to/lastmile_qr_scan", "android": "https://dc.lft.to/lastmile_qr_scan"}}, {"lon": -77.02214466666666, "fusion_lat": 0.0, "type": "electric_scooter", "lat": 38.92465466666667, "is_disabled": 0, "name": "545022b65df52e2c7d7de8741d129ca1", "is_reserved": 0, "bike_id": "545022b65df52e2c7d7de8741d129ca1", "fusion_lon": 0.0, "rental_uris": {"ios": "https://dc.lft.to/lastmile_qr_scan", "android": "https://dc.lft.to/lastmile_qr_scan"}}, {"lon": -77.02810966666667, "fusion_lat": 0.0, "type": "electric_scooter", "lat": 38.911301333333334, "is_disabled": 0, "name": "b2032caefe722c00a6f31c833791e4c4", "is_reserved": 0, "bike_id": "b2032caefe722c00a6f31c833791e4c4", "fusion_lon": 0.0, "rental_uris": {"ios": "https://dc.lft.to/lastmile_qr_scan", "android": "https://dc.lft.to/lastmile_qr_scan"}}, {"lon": -76.98914233333333, "fusion_lat": 0.0, "type": "electric_scooter", "lat": 38.8820235, "is_disabled": 0, "name": "c1580e87b7708ec8c3e2ca9f2278e5f6", "is_reserved": 0, "bike_id": "c1580e87b7708ec8c3e2ca9f2278e5f6", "fusion_lon": 0.0, "rental_uris": {"ios": "https://dc.lft.to/lastmile_qr_scan", "android": "https://dc.lft.to/lastmile_qr_scan"}}, {"lon": -77.074668, "fusion_lat": 0.0, "type": "electric_scooter", "lat": 38.93552666666667, "is_disabled": 0, "name": "02d3e626f542d03faa599ad656935780", "is_reserved": 0, "bike_id": "02d3e626f542d03faa599ad656935780", "fusion_lon": 0.0, "rental_uris": {"ios": "https://dc.lft.to/lastmile_qr_scan", "android": "https://dc.lft.to/lastmile_qr_scan"}}, {"lon": -76.986787, "fusion_lat": 0.0, "type": "electric_scooter", "lat": 38.86336633333333, "is_disabled": 0, "name": "6b65a63963611785b95ce75c1054d1bc", "is_reserved": 0, "bike_id": "6b65a63963611785b95ce75c1054d1bc", "fusion_lon": 0.0, "rental_uris": {"ios": "https://dc.lft.to/lastmile_qr_scan", "android": "https://dc.lft.to/lastmile_qr_scan"}}, {"lon": -77.026055, "fusion_lat": 0.0, "type": "electric_scooter", "lat": 38.89960966666666, "is_disabled": 0, "name": "7f1c500dc130e9a389597c0d983f43c4", "is_reserved": 0, "bike_id": "7f1c500dc130e9a389597c0d983f43c4", "fusion_lon": 0.0, "rental_uris": {"ios": "https://dc.lft.to/lastmile_qr_scan", "android": "https://dc.lft.to/lastmile_qr_scan"}}, {"lon": -77.041565, "fusion_lat": 0.0, "type": "electric_scooter", "lat": 38.923592666666664, "is_disabled": 0, "name": "e3e6740686eb448c08679af88e403526", "is_reserved": 0, "bike_id": "e3e6740686eb448c08679af88e403526", "fusion_lon": 0.0, "rental_uris": {"ios": "https://dc.lft.to/lastmile_qr_scan", "android": "https://dc.lft.to/lastmile_qr_scan"}}, {"lon": -77.00226566666667, "fusion_lat": 0.0, "type": "electric_scooter", "lat": 38.872927, "is_disabled": 0, "name": "23ca3de25c6e17304be9ef32cbc54a9b", "is_reserved": 0, "bike_id": "23ca3de25c6e17304be9ef32cbc54a9b", "fusion_lon": 0.0, "rental_uris": {"ios": "https://dc.lft.to/lastmile_qr_scan", "android": "https://dc.lft.to/lastmile_qr_scan"}}, {"lon": -77.02722433333334, "fusion_lat": 0.0, "type": "electric_scooter", "lat": 38.897794, "is_disabled": 0, "name": "13e8a8f379ef65358046f2176f64364c", "is_reserved": 0, "bike_id": "13e8a8f379ef65358046f2176f64364c", "fusion_lon": 0.0, "rental_uris": {"ios": "https://dc.lft.to/lastmile_qr_scan", "android": "https://dc.lft.to/lastmile_qr_scan"}}, {"lon": -77.0322, "fusion_lat": 0.0, "type": "electric_scooter", "lat": 38.90867216666667, "is_disabled": 0, "name": "5341aafdad84730dea8c01dc2a3688e5", "is_reserved": 0, "bike_id": "5341aafdad84730dea8c01dc2a3688e5", "fusion_lon": 0.0, "rental_uris": {"ios": "https://dc.lft.to/lastmile_qr_scan", "android": "https://dc.lft.to/lastmile_qr_scan"}}, {"lon": -77.04366316666666, "fusion_lat": 0.0, "type": "electric_scooter", "lat": 38.8922405, "is_disabled": 0, "name": "9cd783895ae830fcc3e110563a29ea0b", "is_reserved": 0, "bike_id": "9cd783895ae830fcc3e110563a29ea0b", "fusion_lon": 0.0, "rental_uris": {"ios": "https://dc.lft.to/lastmile_qr_scan", "android": "https://dc.lft.to/lastmile_qr_scan"}}, {"lon": -77.02956116666667, "fusion_lat": 0.0, "type": "electric_scooter", "lat": 38.896362, "is_disabled": 0, "name": "e854fc89a9b4c7f190e889a413bbb598", "is_reserved": 0, "bike_id": "e854fc89a9b4c7f190e889a413bbb598", "fusion_lon": 0.0, "rental_uris": {"ios": "https://dc.lft.to/lastmile_qr_scan", "android": "https://dc.lft.to/lastmile_qr_scan"}}, {"lon": -77.02230533333334, "fusion_lat": 0.0, "type": "electric_scooter", "lat": 38.878523666666666, "is_disabled": 0, "name": "1082583e40426e8e271f2400c6387ed2", "is_reserved": 0, "bike_id": "1082583e40426e8e271f2400c6387ed2", "fusion_lon": 0.0, "rental_uris": {"ios": "https://dc.lft.to/lastmile_qr_scan", "android": "https://dc.lft.to/lastmile_qr_scan"}}, {"lon": -77.02632233333334, "fusion_lat": 0.0, "type": "electric_scooter", "lat": 38.89221666666667, "is_disabled": 0, "name": "fb90118ab08aa8e49647f8c86654cb30", "is_reserved": 0, "bike_id": "fb90118ab08aa8e49647f8c86654cb30", "fusion_lon": 0.0, "rental_uris": {"ios": "https://dc.lft.to/lastmile_qr_scan", "android": "https://dc.lft.to/lastmile_qr_scan"}}, {"lon": -77.0478625, "fusion_lat": 0.0, "type": "electric_scooter", "lat": 38.90064133333333, "is_disabled": 0, "name": "56989b08fc6f138003993d2817977898", "is_reserved": 0, "bike_id": "56989b08fc6f138003993d2817977898", "fusion_lon": 0.0, "rental_uris": {"ios": "https://dc.lft.to/lastmile_qr_scan", "android": "https://dc.lft.to/lastmile_qr_scan"}}, {"lon": -77.05437466666666, "fusion_lat": 0.0, "type": "electric_bike", "lat": 38.78461583333333, "is_disabled": 0, "name": "1c7cdc39951415368c6aa63694c7a450", "is_reserved": 0, "bike_id": "1c7cdc39951415368c6aa63694c7a450", "fusion_lon": 0.0, "rental_uris": {"ios": "https://dc.lft.to/lastmile_qr_scan", "android": "https://dc.lft.to/lastmile_qr_scan"}}, {"lon": -77.022909, "fusion_lat": 0.0, "type": "electric_scooter", "lat": 38.896386166666666, "is_disabled": 0, "name": "70326028ae184fc1b295de6c3fad480a", "is_reserved": 0, "bike_id": "70326028ae184fc1b295de6c3fad480a", "fusion_lon": 0.0, "rental_uris": {"ios": "https://dc.lft.to/lastmile_qr_scan", "android": "https://dc.lft.to/lastmile_qr_scan"}}, {"lon": -77.02184016666666, "fusion_lat": 0.0, "type": "electric_scooter", "lat": 38.915298666666665, "is_disabled": 0, "name": "3f398b8801aae38e0a4d0f6237db9013", "is_reserved": 0, "bike_id": "3f398b8801aae38e0a4d0f6237db9013", "fusion_lon": 0.0, "rental_uris": {"ios": "https://dc.lft.to/lastmile_qr_scan", "android": "https://dc.lft.to/lastmile_qr_scan"}}, {"lon": -77.03211016666667, "fusion_lat": 0.0, "type": "electric_scooter", "lat": 38.936134833333334, "is_disabled": 0, "name": "3cc36054cbcee1604e8058942e549710", "is_reserved": 0, "bike_id": "3cc36054cbcee1604e8058942e549710", "fusion_lon": 0.0, "rental_uris": {"ios": "https://dc.lft.to/lastmile_qr_scan", "android": "https://dc.lft.to/lastmile_qr_scan"}}, {"lon": -77.00575, "fusion_lat": 0.0, "type": "electric_scooter", "lat": 38.87407433333333, "is_disabled": 0, "name": "f08f7cf0444e2b5ef612c452648cd70b", "is_reserved": 0, "bike_id": "f08f7cf0444e2b5ef612c452648cd70b", "fusion_lon": 0.0, "rental_uris": {"ios": "https://dc.lft.to/lastmile_qr_scan", "android": "https://dc.lft.to/lastmile_qr_scan"}}, {"lon": -77.0004475, "fusion_lat": 0.0, "type": "electric_scooter", "lat": 38.876311333333334, "is_disabled": 0, "name": "7fde50b9f33f4d3e605babb218facf4e", "is_reserved": 0, "bike_id": "7fde50b9f33f4d3e605babb218facf4e", "fusion_lon": 0.0, "rental_uris": {"ios": "https://dc.lft.to/lastmile_qr_scan", "android": "https://dc.lft.to/lastmile_qr_scan"}}, {"lon": -77.0268285, "fusion_lat": 0.0, "type": "electric_scooter", "lat": 38.923819333333334, "is_disabled": 0, "name": "8d47b3fd310339709f77c48d1cc44b0e", "is_reserved": 0, "bike_id": "8d47b3fd310339709f77c48d1cc44b0e", "fusion_lon": 0.0, "rental_uris": {"ios": "https://dc.lft.to/lastmile_qr_scan", "android": "https://dc.lft.to/lastmile_qr_scan"}}, {"lon": -76.98893633333333, "fusion_lat": 0.0, "type": "electric_scooter", "lat": 38.913459, "is_disabled": 0, "name": "4be954f998d7b00177955a94277fd6ea", "is_reserved": 0, "bike_id": "4be954f998d7b00177955a94277fd6ea", "fusion_lon": 0.0, "rental_uris": {"ios": "https://dc.lft.to/lastmile_qr_scan", "android": "https://dc.lft.to/lastmile_qr_scan"}}, {"lon": -77.03163833333333, "fusion_lat": 0.0, "type": "electric_scooter", "lat": 38.9169495, "is_disabled": 0, "name": "ed3bad925b36598157d6e211179969a0", "is_reserved": 0, "bike_id": "ed3bad925b36598157d6e211179969a0", "fusion_lon": 0.0, "rental_uris": {"ios": "https://dc.lft.to/lastmile_qr_scan", "android": "https://dc.lft.to/lastmile_qr_scan"}}, {"lon": -76.99259566666667, "fusion_lat": 0.0, "type": "electric_scooter", "lat": 38.88106883333333, "is_disabled": 0, "name": "d8811df8f44143727a5a75a389abe148", "is_reserved": 0, "bike_id": "d8811df8f44143727a5a75a389abe148", "fusion_lon": 0.0, "rental_uris": {"ios": "https://dc.lft.to/lastmile_qr_scan", "android": "https://dc.lft.to/lastmile_qr_scan"}}, {"lon": -76.92132516666666, "fusion_lat": 0.0, "type": "electric_scooter", "lat": 38.901557833333335, "is_disabled": 0, "name": "3868f798075e53377aa0006eb7a72a4a", "is_reserved": 0, "bike_id": "3868f798075e53377aa0006eb7a72a4a", "fusion_lon": 0.0, "rental_uris": {"ios": "https://dc.lft.to/lastmile_qr_scan", "android": "https://dc.lft.to/lastmile_qr_scan"}}, {"lon": -76.99426016666666, "fusion_lat": 0.0, "type": "electric_scooter", "lat": 38.852158, "is_disabled": 0, "name": "7ef576fb3d681ec74c30609e24eef406", "is_reserved": 0, "bike_id": "7ef576fb3d681ec74c30609e24eef406", "fusion_lon": 0.0, "rental_uris": {"ios": "https://dc.lft.to/lastmile_qr_scan", "android": "https://dc.lft.to/lastmile_qr_scan"}}, {"lon": -77.02218, "fusion_lat": 0.0, "type": "electric_scooter", "lat": 38.90542083333333, "is_disabled": 0, "name": "8bafafd7e99c13596fa517c3b69c7e32", "is_reserved": 0, "bike_id": "8bafafd7e99c13596fa517c3b69c7e32", "fusion_lon": 0.0, "rental_uris": {"ios": "https://dc.lft.to/lastmile_qr_scan", "android": "https://dc.lft.to/lastmile_qr_scan"}}, {"lon": -77.06034866666667, "fusion_lat": 0.0, "type": "electric_scooter", "lat": 38.93906116666667, "is_disabled": 0, "name": "8d4db83c03a07145e939ff178dc6e218", "is_reserved": 0, "bike_id": "8d4db83c03a07145e939ff178dc6e218", "fusion_lon": 0.0, "rental_uris": {"ios": "https://dc.lft.to/lastmile_qr_scan", "android": "https://dc.lft.to/lastmile_qr_scan"}}, {"lon": -77.0058965, "fusion_lat": 0.0, "type": "electric_scooter", "lat": 38.902614166666666, "is_disabled": 0, "name": "28128217aed91713f637591dbbf4baf7", "is_reserved": 0, "bike_id": "28128217aed91713f637591dbbf4baf7", "fusion_lon": 0.0, "rental_uris": {"ios": "https://dc.lft.to/lastmile_qr_scan", "android": "https://dc.lft.to/lastmile_qr_scan"}}, {"lon": -77.06112016666667, "fusion_lat": 0.0, "type": "electric_scooter", "lat": 38.9437175, "is_disabled": 0, "name": "92c97ff7fb1933fd49e2245fb94132a9", "is_reserved": 0, "bike_id": "92c97ff7fb1933fd49e2245fb94132a9", "fusion_lon": 0.0, "rental_uris": {"ios": "https://dc.lft.to/lastmile_qr_scan", "android": "https://dc.lft.to/lastmile_qr_scan"}}, {"lon": -77.02567433333333, "fusion_lat": 0.0, "type": "electric_scooter", "lat": 38.89760316666667, "is_disabled": 0, "name": "bae48ea69aa71624cc085a8fd0cbf364", "is_reserved": 0, "bike_id": "bae48ea69aa71624cc085a8fd0cbf364", "fusion_lon": 0.0, "rental_uris": {"ios": "https://dc.lft.to/lastmile_qr_scan", "android": "https://dc.lft.to/lastmile_qr_scan"}}, {"lon": -77.0266095, "fusion_lat": 0.0, "type": "electric_scooter", "lat": 38.894505833333334, "is_disabled": 0, "name": "6341782bdda4c687eb19f54c24aa76b8", "is_reserved": 0, "bike_id": "6341782bdda4c687eb19f54c24aa76b8", "fusion_lon": 0.0, "rental_uris": {"ios": "https://dc.lft.to/lastmile_qr_scan", "android": "https://dc.lft.to/lastmile_qr_scan"}}, {"lon": -77.02534066666666, "fusion_lat": 0.0, "type": "electric_scooter", "lat": 38.90640616666666, "is_disabled": 0, "name": "0301de69ed95eabed1ace09d6479bbdc", "is_reserved": 0, "bike_id": "0301de69ed95eabed1ace09d6479bbdc", "fusion_lon": 0.0, "rental_uris": {"ios": "https://dc.lft.to/lastmile_qr_scan", "android": "https://dc.lft.to/lastmile_qr_scan"}}, {"lon": -77.0260565, "fusion_lat": 0.0, "type": "electric_scooter", "lat": 38.896254166666665, "is_disabled": 0, "name": "5ad1c57ab0c9aa06e82a13e009520137", "is_reserved": 0, "bike_id": "5ad1c57ab0c9aa06e82a13e009520137", "fusion_lon": 0.0, "rental_uris": {"ios": "https://dc.lft.to/lastmile_qr_scan", "android": "https://dc.lft.to/lastmile_qr_scan"}}, {"lon": -77.03032733333333, "fusion_lat": 0.0, "type": "electric_scooter", "lat": 38.931107833333336, "is_disabled": 0, "name": "2511122342ead943b81597ac104a8414", "is_reserved": 0, "bike_id": "2511122342ead943b81597ac104a8414", "fusion_lon": 0.0, "rental_uris": {"ios": "https://dc.lft.to/lastmile_qr_scan", "android": "https://dc.lft.to/lastmile_qr_scan"}}, {"lon": -77.02147983333333, "fusion_lat": 0.0, "type": "electric_scooter", "lat": 38.924505, "is_disabled": 0, "name": "6074547d5fccbb6e125c04275ed0e1de", "is_reserved": 0, "bike_id": "6074547d5fccbb6e125c04275ed0e1de", "fusion_lon": 0.0, "rental_uris": {"ios": "https://dc.lft.to/lastmile_qr_scan", "android": "https://dc.lft.to/lastmile_qr_scan"}}, {"lon": -77.0282145, "fusion_lat": 0.0, "type": "electric_scooter", "lat": 38.90244783333333, "is_disabled": 0, "name": "660d1ef4166d5d57c6f177fe1bfa62e5", "is_reserved": 0, "bike_id": "660d1ef4166d5d57c6f177fe1bfa62e5", "fusion_lon": 0.0, "rental_uris": {"ios": "https://dc.lft.to/lastmile_qr_scan", "android": "https://dc.lft.to/lastmile_qr_scan"}}, {"lon": -77.02202666666666, "fusion_lat": 0.0, "type": "electric_scooter", "lat": 38.924696, "is_disabled": 0, "name": "3be3797f0fcfc1fb66c5c641e1e1a0b5", "is_reserved": 0, "bike_id": "3be3797f0fcfc1fb66c5c641e1e1a0b5", "fusion_lon": 0.0, "rental_uris": {"ios": "https://dc.lft.to/lastmile_qr_scan", "android": "https://dc.lft.to/lastmile_qr_scan"}}, {"lon": -76.97703666666666, "fusion_lat": 0.0, "type": "electric_scooter", "lat": 38.8882145, "is_disabled": 0, "name": "ccd9511a3e069abb50e59dcd1d990e91", "is_reserved": 0, "bike_id": "ccd9511a3e069abb50e59dcd1d990e91", "fusion_lon": 0.0, "rental_uris": {"ios": "https://dc.lft.to/lastmile_qr_scan", "android": "https://dc.lft.to/lastmile_qr_scan"}}, {"lon": -77.04320283333334, "fusion_lat": 0.0, "type": "electric_scooter", "lat": 38.90030266666667, "is_disabled": 0, "name": "2d3d7ec0721c28bdb2eabde0d5efb9c6", "is_reserved": 0, "bike_id": "2d3d7ec0721c28bdb2eabde0d5efb9c6", "fusion_lon": 0.0, "rental_uris": {"ios": "https://dc.lft.to/lastmile_qr_scan", "android": "https://dc.lft.to/lastmile_qr_scan"}}, {"lon": -77.08758616666667, "fusion_lat": 0.0, "type": "electric_bike", "lat": 38.806568166666665, "is_disabled": 0, "name": "875e24f8d569efa0a328ec88209f0a59", "is_reserved": 0, "bike_id": "875e24f8d569efa0a328ec88209f0a59", "fusion_lon": 0.0, "rental_uris": {"ios": "https://dc.lft.to/lastmile_qr_scan", "android": "https://dc.lft.to/lastmile_qr_scan"}}, {"lon": -77.00594583333333, "fusion_lat": 0.0, "type": "electric_scooter", "lat": 38.877412, "is_disabled": 0, "name": "40ce0350e1d43dad2ebe914a4b61ce03", "is_reserved": 0, "bike_id": "40ce0350e1d43dad2ebe914a4b61ce03", "fusion_lon": 0.0, "rental_uris": {"ios": "https://dc.lft.to/lastmile_qr_scan", "android": "https://dc.lft.to/lastmile_qr_scan"}}, {"lon": -76.974574, "fusion_lat": 0.0, "type": "electric_bike", "lat": 38.8559435, "is_disabled": 0, "name": "f25644ed3a7a418f35ad1d62111b0eac", "is_reserved": 0, "bike_id": "f25644ed3a7a418f35ad1d62111b0eac", "fusion_lon": 0.0, "rental_uris": {"ios": "https://dc.lft.to/lastmile_qr_scan", "android": "https://dc.lft.to/lastmile_qr_scan"}}, {"lon": -77.05576833333333, "fusion_lat": 0.0, "type": "electric_scooter", "lat": 38.93061433333333, "is_disabled": 0, "name": "7e864d024166d43124067adb23ff5cb1", "is_reserved": 0, "bike_id": "7e864d024166d43124067adb23ff5cb1", "fusion_lon": 0.0, "rental_uris": {"ios": "https://dc.lft.to/lastmile_qr_scan", "android": "https://dc.lft.to/lastmile_qr_scan"}}, {"lon": -77.040435, "fusion_lat": 0.0, "type": "electric_scooter", "lat": 38.906090666666664, "is_disabled": 0, "name": "a22a51c731e7327908379db8d9841524", "is_reserved": 0, "bike_id": "a22a51c731e7327908379db8d9841524", "fusion_lon": 0.0, "rental_uris": {"ios": "https://dc.lft.to/lastmile_qr_scan", "android": "https://dc.lft.to/lastmile_qr_scan"}}, {"lon": -76.99015633333333, "fusion_lat": 0.0, "type": "electric_bike", "lat": 38.94314283333333, "is_disabled": 0, "name": "1883910731d73c4085af5a429ae02c9f", "is_reserved": 0, "bike_id": "1883910731d73c4085af5a429ae02c9f", "fusion_lon": 0.0, "rental_uris": {"ios": "https://dc.lft.to/lastmile_qr_scan", "android": "https://dc.lft.to/lastmile_qr_scan"}}, {"lon": -77.01763783333334, "fusion_lat": 0.0, "type": "electric_scooter", "lat": 38.93892366666667, "is_disabled": 0, "name": "44a8706810a7ea5a989aa1d798f0248d", "is_reserved": 0, "bike_id": "44a8706810a7ea5a989aa1d798f0248d", "fusion_lon": 0.0, "rental_uris": {"ios": "https://dc.lft.to/lastmile_qr_scan", "android": "https://dc.lft.to/lastmile_qr_scan"}}, {"lon": -77.0353265, "fusion_lat": 0.0, "type": "electric_scooter", "lat": 38.90368566666667, "is_disabled": 0, "name": "49c9e26222fb16333458f205409617e9", "is_reserved": 0, "bike_id": "49c9e26222fb16333458f205409617e9", "fusion_lon": 0.0, "rental_uris": {"ios": "https://dc.lft.to/lastmile_qr_scan", "android": "https://dc.lft.to/lastmile_qr_scan"}}, {"lon": -77.05695, "fusion_lat": 0.0, "type": "electric_scooter", "lat": 38.931429333333334, "is_disabled": 0, "name": "3f5b5395c5f7daee3f6f963845487658", "is_reserved": 0, "bike_id": "3f5b5395c5f7daee3f6f963845487658", "fusion_lon": 0.0, "rental_uris": {"ios": "https://dc.lft.to/lastmile_qr_scan", "android": "https://dc.lft.to/lastmile_qr_scan"}}, {"lon": -77.02384666666667, "fusion_lat": 0.0, "type": "electric_scooter", "lat": 38.8964285, "is_disabled": 0, "name": "aa8bd712edf9645146317e28285dbde7", "is_reserved": 0, "bike_id": "aa8bd712edf9645146317e28285dbde7", "fusion_lon": 0.0, "rental_uris": {"ios": "https://dc.lft.to/lastmile_qr_scan", "android": "https://dc.lft.to/lastmile_qr_scan"}}, {"lon": -77.04879116666666, "fusion_lat": 0.0, "type": "electric_scooter", "lat": 38.8985685, "is_disabled": 0, "name": "0e77849e45128f80facfd8ed4b329df8", "is_reserved": 0, "bike_id": "0e77849e45128f80facfd8ed4b329df8", "fusion_lon": 0.0, "rental_uris": {"ios": "https://dc.lft.to/lastmile_qr_scan", "android": "https://dc.lft.to/lastmile_qr_scan"}}, {"lon": -77.020021, "fusion_lat": 0.0, "type": "electric_scooter", "lat": 38.89244016666667, "is_disabled": 0, "name": "f090b15a0864a524717bc44cb1fc1102", "is_reserved": 0, "bike_id": "f090b15a0864a524717bc44cb1fc1102", "fusion_lon": 0.0, "rental_uris": {"ios": "https://dc.lft.to/lastmile_qr_scan", "android": "https://dc.lft.to/lastmile_qr_scan"}}, {"lon": -77.02425433333333, "fusion_lat": 0.0, "type": "electric_scooter", "lat": 38.96024416666667, "is_disabled": 0, "name": "6c0bf4b507fe612f0470c4c9410a2316", "is_reserved": 0, "bike_id": "6c0bf4b507fe612f0470c4c9410a2316", "fusion_lon": 0.0, "rental_uris": {"ios": "https://dc.lft.to/lastmile_qr_scan", "android": "https://dc.lft.to/lastmile_qr_scan"}}, {"lon": -77.03276166666667, "fusion_lat": 0.0, "type": "electric_scooter", "lat": 38.92958266666667, "is_disabled": 0, "name": "6b9eae129cc9c1d056a79502656fda56", "is_reserved": 0, "bike_id": "6b9eae129cc9c1d056a79502656fda56", "fusion_lon": 0.0, "rental_uris": {"ios": "https://dc.lft.to/lastmile_qr_scan", "android": "https://dc.lft.to/lastmile_qr_scan"}}, {"lon": -76.98494233333334, "fusion_lat": 0.0, "type": "electric_scooter", "lat": 38.92005616666667, "is_disabled": 0, "name": "bd6ac4dbc4de9244aa6eb14bbc8cb090", "is_reserved": 0, "bike_id": "bd6ac4dbc4de9244aa6eb14bbc8cb090", "fusion_lon": 0.0, "rental_uris": {"ios": "https://dc.lft.to/lastmile_qr_scan", "android": "https://dc.lft.to/lastmile_qr_scan"}}, {"lon": -77.02095316666667, "fusion_lat": 0.0, "type": "electric_scooter", "lat": 38.894284166666665, "is_disabled": 0, "name": "b2c7c020686a731827272699b0134eb7", "is_reserved": 0, "bike_id": "b2c7c020686a731827272699b0134eb7", "fusion_lon": 0.0, "rental_uris": {"ios": "https://dc.lft.to/lastmile_qr_scan", "android": "https://dc.lft.to/lastmile_qr_scan"}}, {"lon": -77.0058785, "fusion_lat": 0.0, "type": "electric_scooter", "lat": 38.90563083333333, "is_disabled": 0, "name": "db7305298d6a701ed30cc7d3124667ae", "is_reserved": 0, "bike_id": "db7305298d6a701ed30cc7d3124667ae", "fusion_lon": 0.0, "rental_uris": {"ios": "https://dc.lft.to/lastmile_qr_scan", "android": "https://dc.lft.to/lastmile_qr_scan"}}, {"lon": -76.99168366666666, "fusion_lat": 0.0, "type": "electric_scooter", "lat": 38.8734025, "is_disabled": 0, "name": "ea88c1a4cb1b80269713fa438484386e", "is_reserved": 0, "bike_id": "ea88c1a4cb1b80269713fa438484386e", "fusion_lon": 0.0, "rental_uris": {"ios": "https://dc.lft.to/lastmile_qr_scan", "android": "https://dc.lft.to/lastmile_qr_scan"}}, {"lon": -77.0321995, "fusion_lat": 0.0, "type": "electric_scooter", "lat": 38.899169666666666, "is_disabled": 0, "name": "351afc2492e443865dd9acd9a07dd451", "is_reserved": 0, "bike_id": "351afc2492e443865dd9acd9a07dd451", "fusion_lon": 0.0, "rental_uris": {"ios": "https://dc.lft.to/lastmile_qr_scan", "android": "https://dc.lft.to/lastmile_qr_scan"}}, {"lon": -77.03256233333333, "fusion_lat": 0.0, "type": "electric_scooter", "lat": 38.915538833333336, "is_disabled": 0, "name": "03b97c88d0a01fe809cccaa64ad484e3", "is_reserved": 0, "bike_id": "03b97c88d0a01fe809cccaa64ad484e3", "fusion_lon": 0.0, "rental_uris": {"ios": "https://dc.lft.to/lastmile_qr_scan", "android": "https://dc.lft.to/lastmile_qr_scan"}}, {"lon": -76.98358233333333, "fusion_lat": 0.0, "type": "electric_scooter", "lat": 38.887244333333335, "is_disabled": 0, "name": "b675f52bbc31f981e57299f0a4a13771", "is_reserved": 0, "bike_id": "b675f52bbc31f981e57299f0a4a13771", "fusion_lon": 0.0, "rental_uris": {"ios": "https://dc.lft.to/lastmile_qr_scan", "android": "https://dc.lft.to/lastmile_qr_scan"}}, {"lon": -77.02226466666667, "fusion_lat": 0.0, "type": "electric_scooter", "lat": 38.87847983333333, "is_disabled": 0, "name": "74430acea63efb005f6456ee1ff2e715", "is_reserved": 0, "bike_id": "74430acea63efb005f6456ee1ff2e715", "fusion_lon": 0.0, "rental_uris": {"ios": "https://dc.lft.to/lastmile_qr_scan", "android": "https://dc.lft.to/lastmile_qr_scan"}}, {"lon": -77.036065, "fusion_lat": 0.0, "type": "electric_scooter", "lat": 38.923271, "is_disabled": 0, "name": "3076678d591d0448b7643cab18a3115a", "is_reserved": 0, "bike_id": "3076678d591d0448b7643cab18a3115a", "fusion_lon": 0.0, "rental_uris": {"ios": "https://dc.lft.to/lastmile_qr_scan", "android": "https://dc.lft.to/lastmile_qr_scan"}}, {"lon": -77.0249315, "fusion_lat": 0.0, "type": "electric_scooter", "lat": 38.941836, "is_disabled": 0, "name": "44e98486f6cdf85a7a91dfe0a9c7f2f5", "is_reserved": 0, "bike_id": "44e98486f6cdf85a7a91dfe0a9c7f2f5", "fusion_lon": 0.0, "rental_uris": {"ios": "https://dc.lft.to/lastmile_qr_scan", "android": "https://dc.lft.to/lastmile_qr_scan"}}, {"lon": -77.032188, "fusion_lat": 0.0, "type": "electric_scooter", "lat": 38.90374033333333, "is_disabled": 0, "name": "62e155c74820b3dfb7148c372413a22d", "is_reserved": 0, "bike_id": "62e155c74820b3dfb7148c372413a22d", "fusion_lon": 0.0, "rental_uris": {"ios": "https://dc.lft.to/lastmile_qr_scan", "android": "https://dc.lft.to/lastmile_qr_scan"}}, {"lon": -76.99479766666667, "fusion_lat": 0.0, "type": "electric_scooter", "lat": 38.883712, "is_disabled": 0, "name": "0eb0888466d332321bd595be0a46c9a7", "is_reserved": 0, "bike_id": "0eb0888466d332321bd595be0a46c9a7", "fusion_lon": 0.0, "rental_uris": {"ios": "https://dc.lft.to/lastmile_qr_scan", "android": "https://dc.lft.to/lastmile_qr_scan"}}, {"lon": -77.0341285, "fusion_lat": 0.0, "type": "electric_scooter", "lat": 38.91687016666667, "is_disabled": 0, "name": "bc473098c70f53345fde7858418d2053", "is_reserved": 0, "bike_id": "bc473098c70f53345fde7858418d2053", "fusion_lon": 0.0, "rental_uris": {"ios": "https://dc.lft.to/lastmile_qr_scan", "android": "https://dc.lft.to/lastmile_qr_scan"}}, {"lon": -77.031945, "fusion_lat": 0.0, "type": "electric_scooter", "lat": 38.92980433333334, "is_disabled": 0, "name": "9adc9d7ff090408b4250b999e652502c", "is_reserved": 0, "bike_id": "9adc9d7ff090408b4250b999e652502c", "fusion_lon": 0.0, "rental_uris": {"ios": "https://dc.lft.to/lastmile_qr_scan", "android": "https://dc.lft.to/lastmile_qr_scan"}}, {"lon": -76.988278, "fusion_lat": 0.0, "type": "electric_scooter", "lat": 38.90035, "is_disabled": 0, "name": "21552cf7b26e7747a225a8828c0a2c59", "is_reserved": 0, "bike_id": "21552cf7b26e7747a225a8828c0a2c59", "fusion_lon": 0.0, "rental_uris": {"ios": "https://dc.lft.to/lastmile_qr_scan", "android": "https://dc.lft.to/lastmile_qr_scan"}}, {"lon": -76.97742083333333, "fusion_lat": 0.0, "type": "electric_scooter", "lat": 38.86487833333333, "is_disabled": 0, "name": "b9513d7dca731f5843a957ca2e390f9c", "is_reserved": 0, "bike_id": "b9513d7dca731f5843a957ca2e390f9c", "fusion_lon": 0.0, "rental_uris": {"ios": "https://dc.lft.to/lastmile_qr_scan", "android": "https://dc.lft.to/lastmile_qr_scan"}}, {"lon": -76.99577616666667, "fusion_lat": 0.0, "type": "electric_scooter", "lat": 38.894846333333334, "is_disabled": 0, "name": "1394cc0c440bd2d362be3646192a6202", "is_reserved": 0, "bike_id": "1394cc0c440bd2d362be3646192a6202", "fusion_lon": 0.0, "rental_uris": {"ios": "https://dc.lft.to/lastmile_qr_scan", "android": "https://dc.lft.to/lastmile_qr_scan"}}, {"lon": -77.01745333333334, "fusion_lat": 0.0, "type": "electric_scooter", "lat": 38.89351933333333, "is_disabled": 0, "name": "858bfdcf5499dfe80bd20617f169fd6d", "is_reserved": 0, "bike_id": "858bfdcf5499dfe80bd20617f169fd6d", "fusion_lon": 0.0, "rental_uris": {"ios": "https://dc.lft.to/lastmile_qr_scan", "android": "https://dc.lft.to/lastmile_qr_scan"}}, {"lon": -77.01953583333334, "fusion_lat": 0.0, "type": "electric_scooter", "lat": 38.9237575, "is_disabled": 0, "name": "e1390cc6356f456bea996f31d1b5d095", "is_reserved": 0, "bike_id": "e1390cc6356f456bea996f31d1b5d095", "fusion_lon": 0.0, "rental_uris": {"ios": "https://dc.lft.to/lastmile_qr_scan", "android": "https://dc.lft.to/lastmile_qr_scan"}}, {"lon": -77.02163166666666, "fusion_lat": 0.0, "type": "electric_scooter", "lat": 38.926111666666664, "is_disabled": 0, "name": "a7a20210127b61937cc4d7a8d394443a", "is_reserved": 0, "bike_id": "a7a20210127b61937cc4d7a8d394443a", "fusion_lon": 0.0, "rental_uris": {"ios": "https://dc.lft.to/lastmile_qr_scan", "android": "https://dc.lft.to/lastmile_qr_scan"}}, {"lon": -76.94256883333334, "fusion_lat": 0.0, "type": "electric_scooter", "lat": 38.891746499999996, "is_disabled": 0, "name": "32255edb0cde997db3aa02bb57b793e1", "is_reserved": 0, "bike_id": "32255edb0cde997db3aa02bb57b793e1", "fusion_lon": 0.0, "rental_uris": {"ios": "https://dc.lft.to/lastmile_qr_scan", "android": "https://dc.lft.to/lastmile_qr_scan"}}, {"lon": -77.04477366666667, "fusion_lat": 0.0, "type": "electric_scooter", "lat": 38.8982475, "is_disabled": 0, "name": "d02dbe5957e1a5e9c9fef4cf931e46b6", "is_reserved": 0, "bike_id": "d02dbe5957e1a5e9c9fef4cf931e46b6", "fusion_lon": 0.0, "rental_uris": {"ios": "https://dc.lft.to/lastmile_qr_scan", "android": "https://dc.lft.to/lastmile_qr_scan"}}, {"lon": -77.003578, "fusion_lat": 0.0, "type": "electric_scooter", "lat": 38.88994616666667, "is_disabled": 0, "name": "24b09d3a0f4f96fbf8d91a017c61ec24", "is_reserved": 0, "bike_id": "24b09d3a0f4f96fbf8d91a017c61ec24", "fusion_lon": 0.0, "rental_uris": {"ios": "https://dc.lft.to/lastmile_qr_scan", "android": "https://dc.lft.to/lastmile_qr_scan"}}, {"lon": -77.03258083333333, "fusion_lat": 0.0, "type": "electric_scooter", "lat": 38.9352385, "is_disabled": 0, "name": "a195eeb6aba15043c353d4f9df764602", "is_reserved": 0, "bike_id": "a195eeb6aba15043c353d4f9df764602", "fusion_lon": 0.0, "rental_uris": {"ios": "https://dc.lft.to/lastmile_qr_scan", "android": "https://dc.lft.to/lastmile_qr_scan"}}, {"lon": -77.00874166666667, "fusion_lat": 0.0, "type": "electric_bike", "lat": 38.905747, "is_disabled": 0, "name": "aa9f0d6bc8ee1654245f401f931c067e", "is_reserved": 0, "bike_id": "aa9f0d6bc8ee1654245f401f931c067e", "fusion_lon": 0.0, "rental_uris": {"ios": "https://dc.lft.to/lastmile_qr_scan", "android": "https://dc.lft.to/lastmile_qr_scan"}}, {"lon": -77.04120066666667, "fusion_lat": 0.0, "type": "electric_scooter", "lat": 38.9058925, "is_disabled": 0, "name": "993537145780149efe531ed5e3e39e6b", "is_reserved": 0, "bike_id": "993537145780149efe531ed5e3e39e6b", "fusion_lon": 0.0, "rental_uris": {"ios": "https://dc.lft.to/lastmile_qr_scan", "android": "https://dc.lft.to/lastmile_qr_scan"}}, {"lon": -76.99518816666667, "fusion_lat": 0.0, "type": "electric_scooter", "lat": 38.883706833333335, "is_disabled": 0, "name": "465c1026ac85c9e9007c17c745e10108", "is_reserved": 0, "bike_id": "465c1026ac85c9e9007c17c745e10108", "fusion_lon": 0.0, "rental_uris": {"ios": "https://dc.lft.to/lastmile_qr_scan", "android": "https://dc.lft.to/lastmile_qr_scan"}}, {"lon": -77.03424266666667, "fusion_lat": 0.0, "type": "electric_scooter", "lat": 38.9286605, "is_disabled": 0, "name": "588e3c0229833fde2253619bd9a9dd22", "is_reserved": 0, "bike_id": "588e3c0229833fde2253619bd9a9dd22", "fusion_lon": 0.0, "rental_uris": {"ios": "https://dc.lft.to/lastmile_qr_scan", "android": "https://dc.lft.to/lastmile_qr_scan"}}, {"lon": -77.04669183333333, "fusion_lat": 0.0, "type": "electric_scooter", "lat": 38.91063, "is_disabled": 0, "name": "084b3b627e7eb973d1d28b8abff644f8", "is_reserved": 0, "bike_id": "084b3b627e7eb973d1d28b8abff644f8", "fusion_lon": 0.0, "rental_uris": {"ios": "https://dc.lft.to/lastmile_qr_scan", "android": "https://dc.lft.to/lastmile_qr_scan"}}, {"lon": -77.021476, "fusion_lat": 0.0, "type": "electric_scooter", "lat": 38.9244215, "is_disabled": 0, "name": "7763ed1e82d15580ecdc530ee866c532", "is_reserved": 0, "bike_id": "7763ed1e82d15580ecdc530ee866c532", "fusion_lon": 0.0, "rental_uris": {"ios": "https://dc.lft.to/lastmile_qr_scan", "android": "https://dc.lft.to/lastmile_qr_scan"}}, {"lon": -76.9882505, "fusion_lat": 0.0, "type": "electric_scooter", "lat": 38.90035833333334, "is_disabled": 0, "name": "028a694c6e1338342d7adcb17f1f9376", "is_reserved": 0, "bike_id": "028a694c6e1338342d7adcb17f1f9376", "fusion_lon": 0.0, "rental_uris": {"ios": "https://dc.lft.to/lastmile_qr_scan", "android": "https://dc.lft.to/lastmile_qr_scan"}}, {"lon": -76.93967466666666, "fusion_lat": 0.0, "type": "electric_scooter", "lat": 38.89312116666667, "is_disabled": 0, "name": "be83db7e807136b154bec9b0750080d4", "is_reserved": 0, "bike_id": "be83db7e807136b154bec9b0750080d4", "fusion_lon": 0.0, "rental_uris": {"ios": "https://dc.lft.to/lastmile_qr_scan", "android": "https://dc.lft.to/lastmile_qr_scan"}}, {"lon": -77.05375266666667, "fusion_lat": 0.0, "type": "electric_bike", "lat": 38.847592, "is_disabled": 0, "name": "6b7919bda31d246255756e7354993d4f", "is_reserved": 0, "bike_id": "6b7919bda31d246255756e7354993d4f", "fusion_lon": 0.0, "rental_uris": {"ios": "https://dc.lft.to/lastmile_qr_scan", "android": "https://dc.lft.to/lastmile_qr_scan"}}, {"lon": -77.0173795, "fusion_lat": 0.0, "type": "electric_scooter", "lat": 38.87535283333333, "is_disabled": 0, "name": "98c069e3cd02c59908de50c33e4e26ac", "is_reserved": 0, "bike_id": "98c069e3cd02c59908de50c33e4e26ac", "fusion_lon": 0.0, "rental_uris": {"ios": "https://dc.lft.to/lastmile_qr_scan", "android": "https://dc.lft.to/lastmile_qr_scan"}}, {"lon": -77.02695483333333, "fusion_lat": 0.0, "type": "electric_scooter", "lat": 38.9067855, "is_disabled": 0, "name": "62745eb479f8d0fbdd187c6b18b366c9", "is_reserved": 0, "bike_id": "62745eb479f8d0fbdd187c6b18b366c9", "fusion_lon": 0.0, "rental_uris": {"ios": "https://dc.lft.to/lastmile_qr_scan", "android": "https://dc.lft.to/lastmile_qr_scan"}}, {"lon": -77.034114, "fusion_lat": 0.0, "type": "electric_scooter", "lat": 38.9238715, "is_disabled": 0, "name": "95fcac6a26d7fc9d138d411b04f22045", "is_reserved": 0, "bike_id": "95fcac6a26d7fc9d138d411b04f22045", "fusion_lon": 0.0, "rental_uris": {"ios": "https://dc.lft.to/lastmile_qr_scan", "android": "https://dc.lft.to/lastmile_qr_scan"}}, {"lon": -77.03205766666666, "fusion_lat": 0.0, "type": "electric_scooter", "lat": 38.917858333333335, "is_disabled": 0, "name": "0c938de0a0d3ed3efdb201079bcc9cdb", "is_reserved": 0, "bike_id": "0c938de0a0d3ed3efdb201079bcc9cdb", "fusion_lon": 0.0, "rental_uris": {"ios": "https://dc.lft.to/lastmile_qr_scan", "android": "https://dc.lft.to/lastmile_qr_scan"}}, {"lon": -77.02016066666667, "fusion_lat": 0.0, "type": "electric_scooter", "lat": 38.924408, "is_disabled": 0, "name": "802585fbecbdcf27db85064076fd72ad", "is_reserved": 0, "bike_id": "802585fbecbdcf27db85064076fd72ad", "fusion_lon": 0.0, "rental_uris": {"ios": "https://dc.lft.to/lastmile_qr_scan", "android": "https://dc.lft.to/lastmile_qr_scan"}}, {"lon": -76.99791966666666, "fusion_lat": 0.0, "type": "electric_scooter", "lat": 38.874966666666666, "is_disabled": 0, "name": "b01285c4bdbf5e37ed29cff1968ca954", "is_reserved": 0, "bike_id": "b01285c4bdbf5e37ed29cff1968ca954", "fusion_lon": 0.0, "rental_uris": {"ios": "https://dc.lft.to/lastmile_qr_scan", "android": "https://dc.lft.to/lastmile_qr_scan"}}, {"lon": -77.03152, "fusion_lat": 0.0, "type": "electric_scooter", "lat": 38.924804, "is_disabled": 0, "name": "1e062f294d93475bc17022cc171884d2", "is_reserved": 0, "bike_id": "1e062f294d93475bc17022cc171884d2", "fusion_lon": 0.0, "rental_uris": {"ios": "https://dc.lft.to/lastmile_qr_scan", "android": "https://dc.lft.to/lastmile_qr_scan"}}, {"lon": -77.01948983333334, "fusion_lat": 0.0, "type": "electric_scooter", "lat": 38.924209833333336, "is_disabled": 0, "name": "4bb5fd1c3c303e4b0fc7f5fa837cc8a3", "is_reserved": 0, "bike_id": "4bb5fd1c3c303e4b0fc7f5fa837cc8a3", "fusion_lon": 0.0, "rental_uris": {"ios": "https://dc.lft.to/lastmile_qr_scan", "android": "https://dc.lft.to/lastmile_qr_scan"}}, {"lon": -77.02193333333334, "fusion_lat": 0.0, "type": "electric_scooter", "lat": 38.88492216666667, "is_disabled": 0, "name": "125d766be352f663d0beb6a31af428a8", "is_reserved": 0, "bike_id": "125d766be352f663d0beb6a31af428a8", "fusion_lon": 0.0, "rental_uris": {"ios": "https://dc.lft.to/lastmile_qr_scan", "android": "https://dc.lft.to/lastmile_qr_scan"}}, {"lon": -77.05212133333333, "fusion_lat": 0.0, "type": "electric_scooter", "lat": 38.92480333333334, "is_disabled": 0, "name": "67eb1609b57c6e0cc9984567dd5c4da1", "is_reserved": 0, "bike_id": "67eb1609b57c6e0cc9984567dd5c4da1", "fusion_lon": 0.0, "rental_uris": {"ios": "https://dc.lft.to/lastmile_qr_scan", "android": "https://dc.lft.to/lastmile_qr_scan"}}, {"lon": -77.03039366666667, "fusion_lat": 0.0, "type": "electric_scooter", "lat": 38.8984225, "is_disabled": 0, "name": "f2727681e0cc852cbf5eef1301f007c3", "is_reserved": 0, "bike_id": "f2727681e0cc852cbf5eef1301f007c3", "fusion_lon": 0.0, "rental_uris": {"ios": "https://dc.lft.to/lastmile_qr_scan", "android": "https://dc.lft.to/lastmile_qr_scan"}}, {"lon": -77.0296275, "fusion_lat": 0.0, "type": "electric_scooter", "lat": 38.92685866666667, "is_disabled": 0, "name": "b830633803c43267f5f5ff7234c2ebec", "is_reserved": 0, "bike_id": "b830633803c43267f5f5ff7234c2ebec", "fusion_lon": 0.0, "rental_uris": {"ios": "https://dc.lft.to/lastmile_qr_scan", "android": "https://dc.lft.to/lastmile_qr_scan"}}, {"lon": -77.02601916666667, "fusion_lat": 0.0, "type": "electric_scooter", "lat": 38.903375, "is_disabled": 0, "name": "77b59654a531768f22859fce94677b1d", "is_reserved": 0, "bike_id": "77b59654a531768f22859fce94677b1d", "fusion_lon": 0.0, "rental_uris": {"ios": "https://dc.lft.to/lastmile_qr_scan", "android": "https://dc.lft.to/lastmile_qr_scan"}}, {"lon": -77.03463266666667, "fusion_lat": 0.0, "type": "electric_scooter", "lat": 38.9206255, "is_disabled": 0, "name": "d404e64bad8233c114ecc39f7a820f09", "is_reserved": 0, "bike_id": "d404e64bad8233c114ecc39f7a820f09", "fusion_lon": 0.0, "rental_uris": {"ios": "https://dc.lft.to/lastmile_qr_scan", "android": "https://dc.lft.to/lastmile_qr_scan"}}, {"lon": -77.1116535, "fusion_lat": 0.0, "type": "electric_bike", "lat": 38.8824985, "is_disabled": 0, "name": "e05d8cfa16e164486b59cfe7c4037ef9", "is_reserved": 0, "bike_id": "e05d8cfa16e164486b59cfe7c4037ef9", "fusion_lon": 0.0, "rental_uris": {"ios": "https://dc.lft.to/lastmile_qr_scan", "android": "https://dc.lft.to/lastmile_qr_scan"}}, {"lon": -77.03037383333333, "fusion_lat": 0.0, "type": "electric_scooter", "lat": 38.90240216666667, "is_disabled": 0, "name": "a7b19abf0987d4acadaed1f811dea4de", "is_reserved": 0, "bike_id": "a7b19abf0987d4acadaed1f811dea4de", "fusion_lon": 0.0, "rental_uris": {"ios": "https://dc.lft.to/lastmile_qr_scan", "android": "https://dc.lft.to/lastmile_qr_scan"}}, {"lon": -77.04172983333333, "fusion_lat": 0.0, "type": "electric_scooter", "lat": 38.904749, "is_disabled": 0, "name": "c97986ba2d4a3c8c1794c9370cbefbb2", "is_reserved": 0, "bike_id": "c97986ba2d4a3c8c1794c9370cbefbb2", "fusion_lon": 0.0, "rental_uris": {"ios": "https://dc.lft.to/lastmile_qr_scan", "android": "https://dc.lft.to/lastmile_qr_scan"}}, {"lon": -77.03213016666666, "fusion_lat": 0.0, "type": "electric_scooter", "lat": 38.91670833333333, "is_disabled": 0, "name": "8a2ffe429fbf4c5dbbe604b1cd8f384b", "is_reserved": 0, "bike_id": "8a2ffe429fbf4c5dbbe604b1cd8f384b", "fusion_lon": 0.0, "rental_uris": {"ios": "https://dc.lft.to/lastmile_qr_scan", "android": "https://dc.lft.to/lastmile_qr_scan"}}, {"lon": -77.048659, "fusion_lat": 0.0, "type": "electric_scooter", "lat": 38.89221533333333, "is_disabled": 0, "name": "509c52df7ee7340779b824fbcb2a0c5c", "is_reserved": 0, "bike_id": "509c52df7ee7340779b824fbcb2a0c5c", "fusion_lon": 0.0, "rental_uris": {"ios": "https://dc.lft.to/lastmile_qr_scan", "android": "https://dc.lft.to/lastmile_qr_scan"}}, {"lon": -77.07275933333334, "fusion_lat": 0.0, "type": "electric_scooter", "lat": 38.909069333333335, "is_disabled": 0, "name": "026ff9c030e9c54badb6e130216591f8", "is_reserved": 0, "bike_id": "026ff9c030e9c54badb6e130216591f8", "fusion_lon": 0.0, "rental_uris": {"ios": "https://dc.lft.to/lastmile_qr_scan", "android": "https://dc.lft.to/lastmile_qr_scan"}}, {"lon": -76.9969785, "fusion_lat": 0.0, "type": "electric_scooter", "lat": 38.908330166666666, "is_disabled": 0, "name": "ef9c08dbab28a998dcf4df95d3377040", "is_reserved": 0, "bike_id": "ef9c08dbab28a998dcf4df95d3377040", "fusion_lon": 0.0, "rental_uris": {"ios": "https://dc.lft.to/lastmile_qr_scan", "android": "https://dc.lft.to/lastmile_qr_scan"}}, {"lon": -77.042528, "fusion_lat": 0.0, "type": "electric_scooter", "lat": 38.9081385, "is_disabled": 0, "name": "ec9129997892c7d704b16075b40aea7b", "is_reserved": 0, "bike_id": "ec9129997892c7d704b16075b40aea7b", "fusion_lon": 0.0, "rental_uris": {"ios": "https://dc.lft.to/lastmile_qr_scan", "android": "https://dc.lft.to/lastmile_qr_scan"}}, {"lon": -76.983728, "fusion_lat": 0.0, "type": "electric_scooter", "lat": 38.91497433333333, "is_disabled": 0, "name": "e52b8f89794d78b994f93c2be2fd3f05", "is_reserved": 0, "bike_id": "e52b8f89794d78b994f93c2be2fd3f05", "fusion_lon": 0.0, "rental_uris": {"ios": "https://dc.lft.to/lastmile_qr_scan", "android": "https://dc.lft.to/lastmile_qr_scan"}}, {"lon": -77.04487566666667, "fusion_lat": 0.0, "type": "electric_scooter", "lat": 38.896753333333336, "is_disabled": 0, "name": "cba73fb2738009baf899894fad25342f", "is_reserved": 0, "bike_id": "cba73fb2738009baf899894fad25342f", "fusion_lon": 0.0, "rental_uris": {"ios": "https://dc.lft.to/lastmile_qr_scan", "android": "https://dc.lft.to/lastmile_qr_scan"}}, {"lon": -76.98121016666667, "fusion_lat": 0.0, "type": "electric_scooter", "lat": 38.84625533333333, "is_disabled": 0, "name": "cec2e4f76293919a1534a93c13fa12f1", "is_reserved": 0, "bike_id": "cec2e4f76293919a1534a93c13fa12f1", "fusion_lon": 0.0, "rental_uris": {"ios": "https://dc.lft.to/lastmile_qr_scan", "android": "https://dc.lft.to/lastmile_qr_scan"}}, {"lon": -77.01463266666667, "fusion_lat": 0.0, "type": "electric_scooter", "lat": 38.87956666666667, "is_disabled": 0, "name": "472b20f0cf0106e1335292a84ed426b4", "is_reserved": 0, "bike_id": "472b20f0cf0106e1335292a84ed426b4", "fusion_lon": 0.0, "rental_uris": {"ios": "https://dc.lft.to/lastmile_qr_scan", "android": "https://dc.lft.to/lastmile_qr_scan"}}, {"lon": -77.01507883333333, "fusion_lat": 0.0, "type": "electric_scooter", "lat": 38.899590833333335, "is_disabled": 0, "name": "459147681bb32604cb70113134b667f7", "is_reserved": 0, "bike_id": "459147681bb32604cb70113134b667f7", "fusion_lon": 0.0, "rental_uris": {"ios": "https://dc.lft.to/lastmile_qr_scan", "android": "https://dc.lft.to/lastmile_qr_scan"}}, {"lon": -76.98393133333333, "fusion_lat": 0.0, "type": "electric_scooter", "lat": 38.919953166666666, "is_disabled": 0, "name": "dcb910bbd0ce97af5ca05858b58f6f8c", "is_reserved": 0, "bike_id": "dcb910bbd0ce97af5ca05858b58f6f8c", "fusion_lon": 0.0, "rental_uris": {"ios": "https://dc.lft.to/lastmile_qr_scan", "android": "https://dc.lft.to/lastmile_qr_scan"}}, {"lon": -77.02123483333334, "fusion_lat": 0.0, "type": "electric_scooter", "lat": 38.940640333333334, "is_disabled": 0, "name": "5ef7cb2e21adf743304f3a9d5bf96a80", "is_reserved": 0, "bike_id": "5ef7cb2e21adf743304f3a9d5bf96a80", "fusion_lon": 0.0, "rental_uris": {"ios": "https://dc.lft.to/lastmile_qr_scan", "android": "https://dc.lft.to/lastmile_qr_scan"}}, {"lon": -77.001389, "fusion_lat": 0.0, "type": "electric_scooter", "lat": 38.8311925, "is_disabled": 0, "name": "73b1ff9b04273fd81c1bbdd6aec8edf3", "is_reserved": 0, "bike_id": "73b1ff9b04273fd81c1bbdd6aec8edf3", "fusion_lon": 0.0, "rental_uris": {"ios": "https://dc.lft.to/lastmile_qr_scan", "android": "https://dc.lft.to/lastmile_qr_scan"}}, {"lon": -76.97689683333333, "fusion_lat": 0.0, "type": "electric_bike", "lat": 38.901641, "is_disabled": 0, "name": "315d67aa6ccab6ee5a573ad66cad6d89", "is_reserved": 0, "bike_id": "315d67aa6ccab6ee5a573ad66cad6d89", "fusion_lon": 0.0, "rental_uris": {"ios": "https://dc.lft.to/lastmile_qr_scan", "android": "https://dc.lft.to/lastmile_qr_scan"}}, {"lon": -77.0408875, "fusion_lat": 0.0, "type": "electric_scooter", "lat": 38.90016833333333, "is_disabled": 0, "name": "ca632a616e7fa74801e4383fce9e8131", "is_reserved": 0, "bike_id": "ca632a616e7fa74801e4383fce9e8131", "fusion_lon": 0.0, "rental_uris": {"ios": "https://dc.lft.to/lastmile_qr_scan", "android": "https://dc.lft.to/lastmile_qr_scan"}}, {"lon": -77.04636133333334, "fusion_lat": 0.0, "type": "electric_scooter", "lat": 38.90231883333333, "is_disabled": 0, "name": "dd75eeb4c0673b682b639ed732c94810", "is_reserved": 0, "bike_id": "dd75eeb4c0673b682b639ed732c94810", "fusion_lon": 0.0, "rental_uris": {"ios": "https://dc.lft.to/lastmile_qr_scan", "android": "https://dc.lft.to/lastmile_qr_scan"}}, {"lon": -77.0266925, "fusion_lat": 0.0, "type": "electric_scooter", "lat": 38.89713, "is_disabled": 0, "name": "89d9d0ab959abec7a4b8b1b554dfbafd", "is_reserved": 0, "bike_id": "89d9d0ab959abec7a4b8b1b554dfbafd", "fusion_lon": 0.0, "rental_uris": {"ios": "https://dc.lft.to/lastmile_qr_scan", "android": "https://dc.lft.to/lastmile_qr_scan"}}, {"lon": -77.06036366666666, "fusion_lat": 0.0, "type": "electric_scooter", "lat": 38.939078333333335, "is_disabled": 0, "name": "6b8b7bc8bba83f546b22af43cc40803d", "is_reserved": 0, "bike_id": "6b8b7bc8bba83f546b22af43cc40803d", "fusion_lon": 0.0, "rental_uris": {"ios": "https://dc.lft.to/lastmile_qr_scan", "android": "https://dc.lft.to/lastmile_qr_scan"}}, {"lon": -77.0296685, "fusion_lat": 0.0, "type": "electric_scooter", "lat": 38.9167585, "is_disabled": 0, "name": "d514820fa6ed55c374cef5ffcfe14020", "is_reserved": 0, "bike_id": "d514820fa6ed55c374cef5ffcfe14020", "fusion_lon": 0.0, "rental_uris": {"ios": "https://dc.lft.to/lastmile_qr_scan", "android": "https://dc.lft.to/lastmile_qr_scan"}}, {"lon": -77.02725266666667, "fusion_lat": 0.0, "type": "electric_scooter", "lat": 38.897200833333336, "is_disabled": 0, "name": "858c7fa6aeb385b794c1d57ff8152914", "is_reserved": 0, "bike_id": "858c7fa6aeb385b794c1d57ff8152914", "fusion_lon": 0.0, "rental_uris": {"ios": "https://dc.lft.to/lastmile_qr_scan", "android": "https://dc.lft.to/lastmile_qr_scan"}}, {"lon": -77.05821, "fusion_lat": 0.0, "type": "electric_scooter", "lat": 38.905268166666666, "is_disabled": 0, "name": "897b1881c17dec82ad01fe24f0882429", "is_reserved": 0, "bike_id": "897b1881c17dec82ad01fe24f0882429", "fusion_lon": 0.0, "rental_uris": {"ios": "https://dc.lft.to/lastmile_qr_scan", "android": "https://dc.lft.to/lastmile_qr_scan"}}, {"lon": -77.03266933333333, "fusion_lat": 0.0, "type": "electric_scooter", "lat": 38.92901333333333, "is_disabled": 0, "name": "83d355df585e3d5c7bd8d3a1df1e8ca9", "is_reserved": 0, "bike_id": "83d355df585e3d5c7bd8d3a1df1e8ca9", "fusion_lon": 0.0, "rental_uris": {"ios": "https://dc.lft.to/lastmile_qr_scan", "android": "https://dc.lft.to/lastmile_qr_scan"}}, {"lon": -77.07268416666666, "fusion_lat": 0.0, "type": "electric_scooter", "lat": 38.908912666666666, "is_disabled": 0, "name": "2329d810430a15aa2af075cab510675f", "is_reserved": 0, "bike_id": "2329d810430a15aa2af075cab510675f", "fusion_lon": 0.0, "rental_uris": {"ios": "https://dc.lft.to/lastmile_qr_scan", "android": "https://dc.lft.to/lastmile_qr_scan"}}, {"lon": -77.03076533333333, "fusion_lat": 0.0, "type": "electric_scooter", "lat": 38.92788133333333, "is_disabled": 0, "name": "e01b33015f3fedfac110e2bb79598dc8", "is_reserved": 0, "bike_id": "e01b33015f3fedfac110e2bb79598dc8", "fusion_lon": 0.0, "rental_uris": {"ios": "https://dc.lft.to/lastmile_qr_scan", "android": "https://dc.lft.to/lastmile_qr_scan"}}, {"lon": -77.00468466666666, "fusion_lat": 0.0, "type": "electric_scooter", "lat": 38.9114595, "is_disabled": 0, "name": "ae5dd0f8771d703fd60e6e438fa9c858", "is_reserved": 0, "bike_id": "ae5dd0f8771d703fd60e6e438fa9c858", "fusion_lon": 0.0, "rental_uris": {"ios": "https://dc.lft.to/lastmile_qr_scan", "android": "https://dc.lft.to/lastmile_qr_scan"}}, {"lon": -76.976406, "fusion_lat": 0.0, "type": "electric_scooter", "lat": 38.886835, "is_disabled": 0, "name": "defa5b2e9938789e5328262a3ae6d85e", "is_reserved": 0, "bike_id": "defa5b2e9938789e5328262a3ae6d85e", "fusion_lon": 0.0, "rental_uris": {"ios": "https://dc.lft.to/lastmile_qr_scan", "android": "https://dc.lft.to/lastmile_qr_scan"}}, {"lon": -76.99218566666667, "fusion_lat": 0.0, "type": "electric_scooter", "lat": 38.895166833333334, "is_disabled": 0, "name": "f71e835f266f1640ac7322bf23ab322e", "is_reserved": 0, "bike_id": "f71e835f266f1640ac7322bf23ab322e", "fusion_lon": 0.0, "rental_uris": {"ios": "https://dc.lft.to/lastmile_qr_scan", "android": "https://dc.lft.to/lastmile_qr_scan"}}, {"lon": -77.04458733333334, "fusion_lat": 0.0, "type": "electric_scooter", "lat": 38.9154965, "is_disabled": 0, "name": "11cb711a088fd28e4ac558166e2b0c56", "is_reserved": 0, "bike_id": "11cb711a088fd28e4ac558166e2b0c56", "fusion_lon": 0.0, "rental_uris": {"ios": "https://dc.lft.to/lastmile_qr_scan", "android": "https://dc.lft.to/lastmile_qr_scan"}}, {"lon": -77.04186116666666, "fusion_lat": 0.0, "type": "electric_scooter", "lat": 38.90556933333333, "is_disabled": 0, "name": "502c6f77287b3fb2e308adf15032203e", "is_reserved": 0, "bike_id": "502c6f77287b3fb2e308adf15032203e", "fusion_lon": 0.0, "rental_uris": {"ios": "https://dc.lft.to/lastmile_qr_scan", "android": "https://dc.lft.to/lastmile_qr_scan"}}, {"lon": -77.0235645, "fusion_lat": 0.0, "type": "electric_bike", "lat": 38.944678, "is_disabled": 0, "name": "2e4c242352d58f6036fc9afe6cbfdcf9", "is_reserved": 0, "bike_id": "2e4c242352d58f6036fc9afe6cbfdcf9", "fusion_lon": 0.0, "rental_uris": {"ios": "https://dc.lft.to/lastmile_qr_scan", "android": "https://dc.lft.to/lastmile_qr_scan"}}, {"lon": -77.02818666666667, "fusion_lat": 0.0, "type": "electric_scooter", "lat": 38.899512333333334, "is_disabled": 0, "name": "9bffcae8df0cebfe253a778f966cebff", "is_reserved": 0, "bike_id": "9bffcae8df0cebfe253a778f966cebff", "fusion_lon": 0.0, "rental_uris": {"ios": "https://dc.lft.to/lastmile_qr_scan", "android": "https://dc.lft.to/lastmile_qr_scan"}}, {"lon": -77.0226275, "fusion_lat": 0.0, "type": "electric_scooter", "lat": 38.91324266666667, "is_disabled": 0, "name": "b01b2fa98e3a26c72943e0c3fce6eadf", "is_reserved": 0, "bike_id": "b01b2fa98e3a26c72943e0c3fce6eadf", "fusion_lon": 0.0, "rental_uris": {"ios": "https://dc.lft.to/lastmile_qr_scan", "android": "https://dc.lft.to/lastmile_qr_scan"}}, {"lon": -77.07004983333333, "fusion_lat": 0.0, "type": "electric_scooter", "lat": 38.95575933333333, "is_disabled": 0, "name": "7e3e8260508453eb70d564dcbfb4bdf8", "is_reserved": 0, "bike_id": "7e3e8260508453eb70d564dcbfb4bdf8", "fusion_lon": 0.0, "rental_uris": {"ios": "https://dc.lft.to/lastmile_qr_scan", "android": "https://dc.lft.to/lastmile_qr_scan"}}, {"lon": -77.03084066666666, "fusion_lat": 0.0, "type": "electric_scooter", "lat": 38.9224885, "is_disabled": 0, "name": "228db9e4dbd91d4ebb550f48b948e35e", "is_reserved": 0, "bike_id": "228db9e4dbd91d4ebb550f48b948e35e", "fusion_lon": 0.0, "rental_uris": {"ios": "https://dc.lft.to/lastmile_qr_scan", "android": "https://dc.lft.to/lastmile_qr_scan"}}, {"lon": -77.032634, "fusion_lat": 0.0, "type": "electric_scooter", "lat": 38.939102166666665, "is_disabled": 0, "name": "e1e6a0f0e196a98ae08bf4fdaf97de33", "is_reserved": 0, "bike_id": "e1e6a0f0e196a98ae08bf4fdaf97de33", "fusion_lon": 0.0, "rental_uris": {"ios": "https://dc.lft.to/lastmile_qr_scan", "android": "https://dc.lft.to/lastmile_qr_scan"}}, {"lon": -77.05332516666667, "fusion_lat": 0.0, "type": "electric_scooter", "lat": 38.927891333333335, "is_disabled": 0, "name": "e59986f4b56446e318e4b676c887fcf3", "is_reserved": 0, "bike_id": "e59986f4b56446e318e4b676c887fcf3", "fusion_lon": 0.0, "rental_uris": {"ios": "https://dc.lft.to/lastmile_qr_scan", "android": "https://dc.lft.to/lastmile_qr_scan"}}, {"lon": -77.03866066666667, "fusion_lat": 0.0, "type": "electric_scooter", "lat": 38.90361733333334, "is_disabled": 0, "name": "e04f5fd2e3d70af4a8673698d557325d", "is_reserved": 0, "bike_id": "e04f5fd2e3d70af4a8673698d557325d", "fusion_lon": 0.0, "rental_uris": {"ios": "https://dc.lft.to/lastmile_qr_scan", "android": "https://dc.lft.to/lastmile_qr_scan"}}, {"lon": -77.04011916666667, "fusion_lat": 0.0, "type": "electric_scooter", "lat": 38.8992705, "is_disabled": 0, "name": "bf26f30a97266ce859ab479c7a569e2b", "is_reserved": 0, "bike_id": "bf26f30a97266ce859ab479c7a569e2b", "fusion_lon": 0.0, "rental_uris": {"ios": "https://dc.lft.to/lastmile_qr_scan", "android": "https://dc.lft.to/lastmile_qr_scan"}}, {"lon": -77.0210835, "fusion_lat": 0.0, "type": "electric_scooter", "lat": 38.924638333333334, "is_disabled": 0, "name": "f54be0d1442bf78c00a8bf1acf3de288", "is_reserved": 0, "bike_id": "f54be0d1442bf78c00a8bf1acf3de288", "fusion_lon": 0.0, "rental_uris": {"ios": "https://dc.lft.to/lastmile_qr_scan", "android": "https://dc.lft.to/lastmile_qr_scan"}}, {"lon": -77.02156583333333, "fusion_lat": 0.0, "type": "electric_scooter", "lat": 38.926039833333334, "is_disabled": 0, "name": "9739668155c922cdc38619a65428ae6f", "is_reserved": 0, "bike_id": "9739668155c922cdc38619a65428ae6f", "fusion_lon": 0.0, "rental_uris": {"ios": "https://dc.lft.to/lastmile_qr_scan", "android": "https://dc.lft.to/lastmile_qr_scan"}}, {"lon": -76.98756966666667, "fusion_lat": 0.0, "type": "electric_bike", "lat": 38.85780966666667, "is_disabled": 0, "name": "f9306090bbfd62f8b34d1375ea3f52e0", "is_reserved": 0, "bike_id": "f9306090bbfd62f8b34d1375ea3f52e0", "fusion_lon": 0.0, "rental_uris": {"ios": "https://dc.lft.to/lastmile_qr_scan", "android": "https://dc.lft.to/lastmile_qr_scan"}},