{"data": {"bikes": [{"lat": 38.91569166666667, "is_disabled": 0, "type": "electric_scooter", "lon": -77.0385385, "bike_id": "002c328d7ee344a6789bad6de176189b", "fusion_lat": 0.0, "name": "002c328d7ee344a6789bad6de176189b", "is_reserved": 0, "rental_uris": {"android": "https://dc.lft.to/lastmile_qr_scan", "ios": "https://dc.lft.to/lastmile_qr_scan"}, "fusion_lon": 0.0}, {"lat": 38.954974666666665, "is_disabled": 0, "type": "electric_scooter", "lon": -77.06562366666667, "bike_id": "adb2c8500a8d54c4e0ff399dafc15473", "fusion_lat": 0.0, "name": "adb2c8500a8d54c4e0ff399dafc15473", "is_reserved": 0, "rental_uris": {"android": "https://dc.lft.to/lastmile_qr_scan", "ios": "https://dc.lft.to/lastmile_qr_scan"}, "fusion_lon": 0.0}, {"lat": 38.93400066666667, "is_disabled": 0, "type": "electric_scooter", "lon": -77.05744566666667, "bike_id": "e5e62efcda8966ce8a77511ff06aea82", "fusion_lat": 0.0, "name": "e5e62efcda8966ce8a77511ff06aea82", "is_reserved": 0, "rental_uris": {"android": "https://dc.lft.to/lastmile_qr_scan", "ios": "https://dc.lft.to/lastmile_qr_scan"}, "fusion_lon": 0.0}, {"lat": 38.9116025, "is_disabled": 0, "type": "electric_scooter", "lon": -77.04856833333334, "bike_id": "77fba7216ad7ce98b5b72e4d69b14c35", "fusion_lat": 0.0, "name": "77fba7216ad7ce98b5b72e4d69b14c35", "is_reserved": 0, "rental_uris": {"android": "https://dc.lft.to/lastmile_qr_scan", "ios": "https://dc.lft.to/lastmile_qr_scan"}, "fusion_lon": 0.0}, {"lat": 38.91691266666667, "is_disabled": 0, "type": "electric_scooter", "lon": -77.02714783333333, "bike_id": "88ad4949e32f049a1e22a4a2c87aa26c", "fusion_lat": 0.0, "name": "88ad4949e32f049a1e22a4a2c87aa26c", "is_reserved": 0, "rental_uris": {"android": "https://dc.lft.to/lastmile_qr_scan", "ios": "https://dc.lft.to/lastmile_qr_scan"}, "fusion_lon": 0.0}, {"lat": 38.906773666666666, "is_disabled": 0, "type": "electric_scooter", "lon": -77.0363555, "bike_id": "ae04fa9a53c68d252a068d0db8514432", "fusion_lat": 0.0, "name": "ae04fa9a53c68d252a068d0db8514432", "is_reserved": 0, "rental_uris": {"android": "https://dc.lft.to/lastmile_qr_scan", "ios": "https://dc.lft.to/lastmile_qr_scan"}, "fusion_lon": 0.0}, {"lat": 38.899594666666665, "is_disabled": 0, "type": "electric_scooter", "lon": -77.01613583333334, "bike_id": "195b398b77d12f85dae6089fe9e1cd3f", "fusion_lat": 0.0, "name": "195b398b77d12f85dae6089fe9e1cd3f", "is_reserved": 0, "rental_uris": {"android": "https://dc.lft.to/lastmile_qr_scan", "ios": "https://dc.lft.to/lastmile_qr_scan"}, "fusion_lon": 0.0}, {"lat": 38.9169555, "is_disabled": 0, "type": "electric_scooter", "lon": -77.02178466666666, "bike_id": "3687bd4c84365487df62e14ac49c1895", "fusion_lat": 0.0, "name": "3687bd4c84365487df62e14ac49c1895", "is_reserved": 0, "rental_uris": {"android": "https://dc.lft.to/lastmile_qr_scan", "ios": "https://dc.lft.to/lastmile_qr_scan"}, "fusion_lon": 0.0}, {"lat": 38.905766166666666, "is_disabled": 0, "type": "electric_scooter", "lon": -77.02978566666667, "bike_id": "093583745527b7f2279cb35135446539", "fusion_lat": 0.0, "name": "093583745527b7f2279cb35135446539", "is_reserved": 0, "rental_uris": {"android": "https://dc.lft.to/lastmile_qr_scan", "ios": "https://dc.lft.to/lastmile_qr_scan"}, "fusion_lon": 0.0}, {"lat": 38.866523, "is_disabled": 0, "type": "electric_scooter", "lon": -76.988833, "bike_id": "af3968b2e79cb7c79a2f71607b76e182", "fusion_lat": 0.0, "name": "af3968b2e79cb7c79a2f71607b76e182", "is_reserved": 0, "rental_uris": {"android": "https://dc.lft.to/lastmile_qr_scan", "ios": "https://dc.lft.to/lastmile_qr_scan"}, "fusion_lon": 0.0}, {"lat": 38.94746, "is_disabled": 0, "type": "electric_scooter", "lon": -77.06525666666667, "bike_id": "38c7f319345c940ba504c74881fb629c", "fusion_lat": 0.0, "name": "38c7f319345c940ba504c74881fb629c", "is_reserved": 0, "rental_uris": {"android": "https://dc.lft.to/lastmile_qr_scan", "ios": "https://dc.lft.to/lastmile_qr_scan"}, "fusion_lon": 0.0}, {"lat": 38.899098333333335, "is_disabled": 0, "type": "electric_scooter", "lon": -76.93351583333333, "bike_id": "1c13495f05e838969740be6d011b6495", "fusion_lat": 0.0, "name": "1c13495f05e838969740be6d011b6495", "is_reserved": 0, "rental_uris": {"android": "https://dc.lft.to/lastmile_qr_scan", "ios": "https://dc.lft.to/lastmile_qr_scan"}, "fusion_lon": 0.0}, {"lat": 38.89535883333333, "is_disabled": 0, "type": "electric_scooter", "lon": -77.0281195, "bike_id": "315a3f16a61bdd963efaabb587d2347a", "fusion_lat": 0.0, "name": "315a3f16a61bdd963efaabb587d2347a", "is_reserved": 0, "rental_uris": {"android": "https://dc.lft.to/lastmile_qr_scan", "ios": "https://dc.lft.to/lastmile_qr_scan"}, "fusion_lon": 0.0}, {"lat": 38.9305905, "is_disabled": 0, "type": "electric_scooter", "lon": -77.04179733333334, "bike_id": "1d96b9ccf8ad9a5b72ceca944abe9b02", "fusion_lat": 0.0, "name": "1d96b9ccf8ad9a5b72ceca944abe9b02", "is_reserved": 0, "rental_uris": {"android": "https://dc.lft.to/lastmile_qr_scan", "ios": "https://dc.lft.to/lastmile_qr_scan"}, "fusion_lon": 0.0}, {"lat": 38.90625633333333, "is_disabled": 0, "type": "electric_scooter", "lon": -76.989874, "bike_id": "f2a2df2bb21fdcb9101ce0ad55ea6d69", "fusion_lat": 0.0, "name": "f2a2df2bb21fdcb9101ce0ad55ea6d69", "is_reserved": 0, "rental_uris": {"android": "https://dc.lft.to/lastmile_qr_scan", "ios": "https://dc.lft.to/lastmile_qr_scan"}, "fusion_lon": 0.0}, {"lat": 38.900429833333334, "is_disabled": 0, "type": "electric_scooter", "lon": -76.99380566666666, "bike_id": "ffcb64066379acc31bcea813025d941f", "fusion_lat": 0.0, "name": "ffcb64066379acc31bcea813025d941f", "is_reserved": 0, "rental_uris": {"android": "https://dc.lft.to/lastmile_qr_scan", "ios": "https://dc.lft.to/lastmile_qr_scan"}, "fusion_lon": 0.0}, {"lat": 38.908605, "is_disabled": 0, "type": "electric_scooter", "lon": -76.99165183333334, "bike_id": "a47510115033de14850a34b771fa68f1", "fusion_lat": 0.0, "name": "a47510115033de14850a34b771fa68f1", "is_reserved": 0, "rental_uris": {"android": "https://dc.lft.to/lastmile_qr_scan", "ios": "https://dc.lft.to/lastmile_qr_scan"}, "fusion_lon": 0.0}, {"lat": 38.92748566666667, "is_disabled": 0, "type": "electric_scooter", "lon": -77.02536133333334, "bike_id": "69f74a3a000a87eea977a029f50b84d3", "fusion_lat": 0.0, "name": "69f74a3a000a87eea977a029f50b84d3", "is_reserved": 0, "rental_uris": {"android": "https://dc.lft.to/lastmile_qr_scan", "ios": "https://dc.lft.to/lastmile_qr_scan"}, "fusion_lon": 0.0}, {"lat": 38.891186, "is_disabled": 0, "type": "electric_scooter", "lon": -76.94384483333333, "bike_id": "0858483b3b799c7d28f37b6b6e3174c0", "fusion_lat": 0.0, "name": "0858483b3b799c7d28f37b6b6e3174c0", "is_reserved": 0, "rental_uris": {"android": "https://dc.lft.to/lastmile_qr_scan", "ios": "https://dc.lft.to/lastmile_qr_scan"}, "fusion_lon": 0.0}, {"lat": 38.85908966666667, "is_disabled": 0, "type": "electric_scooter", "lon": -76.99148733333334, "bike_id": "d89eaa3f887ece94e663c6e85f8a465c", "fusion_lat": 0.0, "name": "d89eaa3f887ece94e663c6e85f8a465c", "is_reserved": 0, "rental_uris": {"android": "https://dc.lft.to/lastmile_qr_scan", "ios": "https://dc.lft.to/lastmile_qr_scan"}, "fusion_lon": 0.0}, {"lat": 38.922722, "is_disabled": 0, "type": "electric_scooter", "lon": -77.04238316666667, "bike_id": "0462217582f471ea3eca67022e8ef166", "fusion_lat": 0.0, "name": "0462217582f471ea3eca67022e8ef166", "is_reserved": 0, "rental_uris": {"android": "https://dc.lft.to/lastmile_qr_scan", "ios": "https://dc.lft.to/lastmile_qr_scan"}, "fusion_lon": 0.0}, {"lat": 38.99997166666667, "is_disabled": 0, "type": "electric_bike", "lon": -76.92500116666666, "bike_id": "6468122a96328035f5cc1fcde5141d9d", "fusion_lat": 0.0, "name": "6468122a96328035f5cc1fcde5141d9d", "is_reserved": 0, "rental_uris": {"android": "https://dc.lft.to/lastmile_qr_scan", "ios": "https://dc.lft.to/lastmile_qr_scan"}, "fusion_lon": 0.0}, {"lat": 38.95216333333333, "is_disabled": 0, "type": "electric_scooter", "lon": -77.086027, "bike_id": "2c343ccf7802504d174b993d03025016", "fusion_lat": 0.0, "name": "2c343ccf7802504d174b993d03025016", "is_reserved": 0, "rental_uris": {"android": "https://dc.lft.to/lastmile_qr_scan", "ios": "https://dc.lft.to/lastmile_qr_scan"}, "fusion_lon": 0.0}, {"lat": 38.922742166666666, "is_disabled": 0, "type": "electric_scooter", "lon": -77.0423835, "bike_id": "92c54bf0ca57503125e03970e533f43e", "fusion_lat": 0.0, "name": "92c54bf0ca57503125e03970e533f43e", "is_reserved": 0, "rental_uris": {"android": "https://dc.lft.to/lastmile_qr_scan", "ios": "https://dc.lft.to/lastmile_qr_scan"}, "fusion_lon": 0.0}, {"lat": 38.91332166666667, "is_disabled": 0, "type": "electric_scooter", "lon": -77.0304535, "bike_id": "7753da333523b9d481fc0c694812e79a", "fusion_lat": 0.0, "name": "7753da333523b9d481fc0c694812e79a", "is_reserved": 0, "rental_uris": {"android": "https://dc.lft.to/lastmile_qr_scan", "ios": "https://dc.lft.to/lastmile_qr_scan"}, "fusion_lon": 0.0}, {"lat": 38.91839516666667, "is_disabled": 0, "type": "electric_scooter", "lon": -77.03531716666667, "bike_id": "0032eba8ee38f61da13ebe0233112e32", "fusion_lat": 0.0, "name": "0032eba8ee38f61da13ebe0233112e32", "is_reserved": 0, "rental_uris": {"android": "https://dc.lft.to/lastmile_qr_scan", "ios": "https://dc.lft.to/lastmile_qr_scan"}, "fusion_lon": 0.0}, {"lat": 38.89095016666667, "is_disabled": 0, "type": "electric_scooter", "lon": -76.95268583333333, "bike_id": "b0090417d91d1ad2e7353f484644987c", "fusion_lat": 0.0, "name": "b0090417d91d1ad2e7353f484644987c", "is_reserved": 0, "rental_uris": {"android": "https://dc.lft.to/lastmile_qr_scan", "ios": "https://dc.lft.to/lastmile_qr_scan"}, "fusion_lon": 0.0}, {"lat": 38.90502866666667, "is_disabled": 0, "type": "electric_scooter", "lon": -77.0294585, "bike_id": "c39f8f301a3d442f307c274354b048ee", "fusion_lat": 0.0, "name": "c39f8f301a3d442f307c274354b048ee", "is_reserved": 0, "rental_uris": {"android": "https://dc.lft.to/lastmile_qr_scan", "ios": "https://dc.lft.to/lastmile_qr_scan"}, "fusion_lon": 0.0}, {"lat": 38.9073625, "is_disabled": 0, "type": "electric_scooter", "lon": -77.02949083333333, "bike_id": "1c4851c6aa3a1b6e9d4985001037c2fc", "fusion_lat": 0.0, "name": "1c4851c6aa3a1b6e9d4985001037c2fc", "is_reserved": 0, "rental_uris": {"android": "https://dc.lft.to/lastmile_qr_scan", "ios": "https://dc.lft.to/lastmile_qr_scan"}, "fusion_lon": 0.0}, {"lat": 38.92107983333333, "is_disabled": 0, "type": "electric_scooter", "lon": -77.04570266666667, "bike_id": "8576afe62af468d6b232bd1b29799994", "fusion_lat": 0.0, "name": "8576afe62af468d6b232bd1b29799994", "is_reserved": 0, "rental_uris": {"android": "https://dc.lft.to/lastmile_qr_scan", "ios": "https://dc.lft.to/lastmile_qr_scan"}, "fusion_lon": 0.0}, {"lat": 39.0750215, "is_disabled": 0, "type": "electric_bike", "lon": -77.11900566666667, "bike_id": "4369aeb2e6caf455e466096106590811", "fusion_lat": 0.0, "name": "4369aeb2e6caf455e466096106590811", "is_reserved": 0, "rental_uris": {"android": "https://dc.lft.to/lastmile_qr_scan", "ios": "https://dc.lft.to/lastmile_qr_scan"}, "fusion_lon": 0.0}, {"lat": 38.914668, "is_disabled": 0, "type": "electric_scooter", "lon": -77.00214033333333, "bike_id": "b2585a65c180ccd087d5caa3d350ae10", "fusion_lat": 0.0, "name": "b2585a65c180ccd087d5caa3d350ae10", "is_reserved": 0, "rental_uris": {"android": "https://dc.lft.to/lastmile_qr_scan", "ios": "https://dc.lft.to/lastmile_qr_scan"}, "fusion_lon": 0.0}, {"lat": 38.925851, "is_disabled": 0, "type": "electric_scooter", "lon": -77.05297583333333, "bike_id": "f1fbe7fadfffcaeb76596108c3feb00a", "fusion_lat": 0.0, "name": "f1fbe7fadfffcaeb76596108c3feb00a", "is_reserved": 0, "rental_uris": {"android": "https://dc.lft.to/lastmile_qr_scan", "ios": "https://dc.lft.to/lastmile_qr_scan"}, "fusion_lon": 0.0}, {"lat": 38.8984315, "is_disabled": 0, "type": "electric_scooter", "lon": -76.94465, "bike_id": "badce8ee536e2a569eaeadd94ee9e2d5", "fusion_lat": 0.0, "name": "badce8ee536e2a569eaeadd94ee9e2d5", "is_reserved": 0, "rental_uris": {"android": "https://dc.lft.to/lastmile_qr_scan", "ios": "https://dc.lft.to/lastmile_qr_scan"}, "fusion_lon": 0.0}, {"lat": 38.90579833333334, "is_disabled": 0, "type": "electric_bike", "lon": -77.00493333333333, "bike_id": "7044629072a9a13d34bd42e5e8a7be6b", "fusion_lat": 0.0, "name": "7044629072a9a13d34bd42e5e8a7be6b", "is_reserved": 0, "rental_uris": {"android": "https://dc.lft.to/lastmile_qr_scan", "ios": "https://dc.lft.to/lastmile_qr_scan"}, "fusion_lon": 0.0}, {"lat": 38.928048833333335, "is_disabled": 0, "type": "electric_scooter", "lon": -77.05430883333334, "bike_id": "2ec22ea14383123271fc62f5b984e555", "fusion_lat": 0.0, "name": "2ec22ea14383123271fc62f5b984e555", "is_reserved": 0, "rental_uris": {"android": "https://dc.lft.to/lastmile_qr_scan", "ios": "https://dc.lft.to/lastmile_qr_scan"}, "fusion_lon": 0.0}, {"lat": 38.86288966666667, "is_disabled": 0, "type": "electric_scooter", "lon": -76.99234, "bike_id": "c22d0bcf87f5382df2c1374a55c35992", "fusion_lat": 0.0, "name": "c22d0bcf87f5382df2c1374a55c35992", "is_reserved": 0, "rental_uris": {"android": "https://dc.lft.to/lastmile_qr_scan", "ios": "https://dc.lft.to/lastmile_qr_scan"}, "fusion_lon": 0.0}, {"lat": 38.908758666666664, "is_disabled": 0, "type": "electric_scooter", "lon": -77.03668766666667, "bike_id": "5c0e76cdd72a471a6db2c83e13816df3", "fusion_lat": 0.0, "name": "5c0e76cdd72a471a6db2c83e13816df3", "is_reserved": 0, "rental_uris": {"android": "https://dc.lft.to/lastmile_qr_scan", "ios": "https://dc.lft.to/lastmile_qr_scan"}, "fusion_lon": 0.0}, {"lat": 38.91642366666667, "is_disabled": 0, "type": "electric_scooter", "lon": -77.024104, "bike_id": "47201348bd045320f0c86801a7df349f", "fusion_lat": 0.0, "name": "47201348bd045320f0c86801a7df349f", "is_reserved": 0, "rental_uris": {"android": "https://dc.lft.to/lastmile_qr_scan", "ios": "https://dc.lft.to/lastmile_qr_scan"}, "fusion_lon": 0.0}, {"lat": 38.920289333333336, "is_disabled": 0, "type": "electric_scooter", "lon": -77.0373655, "bike_id": "994c8447d787d340aa2ceebad99b1be1", "fusion_lat": 0.0, "name": "994c8447d787d340aa2ceebad99b1be1", "is_reserved": 0, "rental_uris": {"android": "https://dc.lft.to/lastmile_qr_scan", "ios": "https://dc.lft.to/lastmile_qr_scan"}, "fusion_lon": 0.0}, {"lat": 38.925906166666664, "is_disabled": 0, "type": "electric_scooter", "lon": -77.02278066666666, "bike_id": "03c0f54f66a5618ae23d2e45789ed04c", "fusion_lat": 0.0, "name": "03c0f54f66a5618ae23d2e45789ed04c", "is_reserved": 0, "rental_uris": {"android": "https://dc.lft.to/lastmile_qr_scan", "ios": "https://dc.lft.to/lastmile_qr_scan"}, "fusion_lon": 0.0}, {"lat": 38.900877, "is_disabled": 0, "type": "electric_scooter", "lon": -77.04922966666666, "bike_id": "ac5889a30ba78ec026c0d5444f42bf95", "fusion_lat": 0.0, "name": "ac5889a30ba78ec026c0d5444f42bf95", "is_reserved": 0, "rental_uris": {"android": "https://dc.lft.to/lastmile_qr_scan", "ios": "https://dc.lft.to/lastmile_qr_scan"}, "fusion_lon": 0.0}, {"lat": 38.90776366666667, "is_disabled": 0, "type": "electric_scooter", "lon": -77.038597, "bike_id": "ad1d70c3ab60f0201016118e870c7205", "fusion_lat": 0.0, "name": "ad1d70c3ab60f0201016118e870c7205", "is_reserved": 0, "rental_uris": {"android": "https://dc.lft.to/lastmile_qr_scan", "ios": "https://dc.lft.to/lastmile_qr_scan"}, "fusion_lon": 0.0}, {"lat": 38.9397445, "is_disabled": 0, "type": "electric_scooter", "lon": -77.03588866666666, "bike_id": "b292183bad18a129c89766e618527dfa", "fusion_lat": 0.0, "name": "b292183bad18a129c89766e618527dfa", "is_reserved": 0, "rental_uris": {"android": "https://dc.lft.to/lastmile_qr_scan", "ios": "https://dc.lft.to/lastmile_qr_scan"}, "fusion_lon": 0.0}, {"lat": 38.932894, "is_disabled": 0, "type": "electric_scooter", "lon": -77.035557, "bike_id": "a7b9334cdd28665b59933bfab3276939", "fusion_lat": 0.0, "name": "a7b9334cdd28665b59933bfab3276939", "is_reserved": 0, "rental_uris": {"android": "https://dc.lft.to/lastmile_qr_scan", "ios": "https://dc.lft.to/lastmile_qr_scan"}, "fusion_lon": 0.0}, {"lat": 38.95781016666667, "is_disabled": 0, "type": "electric_scooter", "lon": -77.02764166666667, "bike_id": "c27bd34fda241ce8ec6a0defafe3994a", "fusion_lat": 0.0, "name": "c27bd34fda241ce8ec6a0defafe3994a", "is_reserved": 0, "rental_uris": {"android": "https://dc.lft.to/lastmile_qr_scan", "ios": "https://dc.lft.to/lastmile_qr_scan"}, "fusion_lon": 0.0}, {"lat": 38.93659816666667, "is_disabled": 0, "type": "electric_scooter", "lon": -77.03660466666666, "bike_id": "0c71c14f21fb02078c9b75d639465563", "fusion_lat": 0.0, "name": "0c71c14f21fb02078c9b75d639465563", "is_reserved": 0, "rental_uris": {"android": "https://dc.lft.to/lastmile_qr_scan", "ios": "https://dc.lft.to/lastmile_qr_scan"}, "fusion_lon": 0.0}, {"lat": 38.93296333333333, "is_disabled": 0, "type": "electric_scooter", "lon": -77.0282995, "bike_id": "bf8992eba63a9be2ead6cc378256b74c", "fusion_lat": 0.0, "name": "bf8992eba63a9be2ead6cc378256b74c", "is_reserved": 0, "rental_uris": {"android": "https://dc.lft.to/lastmile_qr_scan", "ios": "https://dc.lft.to/lastmile_qr_scan"}, "fusion_lon": 0.0}, {"lat": 38.90890366666667, "is_disabled": 0, "type": "electric_scooter", "lon": -77.03462666666667, "bike_id": "3b4553bab78d51c50196e48635fc8519", "fusion_lat": 0.0, "name": "3b4553bab78d51c50196e48635fc8519", "is_reserved": 0, "rental_uris": {"android": "https://dc.lft.to/lastmile_qr_scan", "ios": "https://dc.lft.to/lastmile_qr_scan"}, "fusion_lon": 0.0}, {"lat": 38.91480633333333, "is_disabled": 0, "type": "electric_scooter", "lon": -76.98359916666666, "bike_id": "8a185b0f7da4eac9684b96ce5e6a4e91", "fusion_lat": 0.0, "name": "8a185b0f7da4eac9684b96ce5e6a4e91", "is_reserved": 0, "rental_uris": {"android": "https://dc.lft.to/lastmile_qr_scan", "ios": "https://dc.lft.to/lastmile_qr_scan"}, "fusion_lon": 0.0}, {"lat": 38.90532283333334, "is_disabled": 0, "type": "electric_scooter", "lon": -77.00553733333334, "bike_id": "0a2bf7ea85c5c0b147709dd92cc3dd22", "fusion_lat": 0.0, "name": "0a2bf7ea85c5c0b147709dd92cc3dd22", "is_reserved": 0, "rental_uris": {"android": "https://dc.lft.to/lastmile_qr_scan", "ios": "https://dc.lft.to/lastmile_qr_scan"}, "fusion_lon": 0.0}, {"lat": 38.93110466666667, "is_disabled": 0, "type": "electric_scooter", "lon": -77.0351015, "bike_id": "0db0a1f00a84eaaab39fac2fb0dc45a6", "fusion_lat": 0.0, "name": "0db0a1f00a84eaaab39fac2fb0dc45a6", "is_reserved": 0, "rental_uris": {"android": "https://dc.lft.to/lastmile_qr_scan", "ios": "https://dc.lft.to/lastmile_qr_scan"}, "fusion_lon": 0.0}, {"lat": 38.8763235, "is_disabled": 0, "type": "electric_scooter", "lon": -76.96527516666667, "bike_id": "cc497da499b680a1324382c7e9c69e54", "fusion_lat": 0.0, "name": "cc497da499b680a1324382c7e9c69e54", "is_reserved": 0, "rental_uris": {"android": "https://dc.lft.to/lastmile_qr_scan", "ios": "https://dc.lft.to/lastmile_qr_scan"}, "fusion_lon": 0.0}, {"lat": 38.89625183333333, "is_disabled": 0, "type": "electric_scooter", "lon": -76.9985265, "bike_id": "4bce84a2a05e46c013065c8a7ab064ae", "fusion_lat": 0.0, "name": "4bce84a2a05e46c013065c8a7ab064ae", "is_reserved": 0, "rental_uris": {"android": "https://dc.lft.to/lastmile_qr_scan", "ios": "https://dc.lft.to/lastmile_qr_scan"}, "fusion_lon": 0.0}, {"lat": 38.932084333333336, "is_disabled": 0, "type": "electric_scooter", "lon": -77.04432866666667, "bike_id": "6f56d8112f64a322f109498c213b8a36", "fusion_lat": 0.0, "name": "6f56d8112f64a322f109498c213b8a36", "is_reserved": 0, "rental_uris": {"android": "https://dc.lft.to/lastmile_qr_scan", "ios": "https://dc.lft.to/lastmile_qr_scan"}, "fusion_lon": 0.0}, {"lat": 38.893311833333335, "is_disabled": 0, "type": "electric_scooter", "lon": -76.9299315, "bike_id": "91b5b7b56f57e01dda38197e07cb5fc9", "fusion_lat": 0.0, "name": "91b5b7b56f57e01dda38197e07cb5fc9", "is_reserved": 0, "rental_uris": {"android": "https://dc.lft.to/lastmile_qr_scan", "ios": "https://dc.lft.to/lastmile_qr_scan"}, "fusion_lon": 0.0}, {"lat": 38.99820866666666, "is_disabled": 0, "type": "electric_bike", "lon": -76.88378766666666, "bike_id": "106478395190e9b48bd63f44085a3685", "fusion_lat": 0.0, "name": "106478395190e9b48bd63f44085a3685", "is_reserved": 0, "rental_uris": {"android": "https://dc.lft.to/lastmile_qr_scan", "ios": "https://dc.lft.to/lastmile_qr_scan"}, "fusion_lon": 0.0}, {"lat": 38.927430333333334, "is_disabled": 0, "type": "electric_scooter", "lon": -77.02262433333334, "bike_id": "d1cf0e76eb00252ddab6a7a9c2d1cd08", "fusion_lat": 0.0, "name": "d1cf0e76eb00252ddab6a7a9c2d1cd08", "is_reserved": 0, "rental_uris": {"android": "https://dc.lft.to/lastmile_qr_scan", "ios": "https://dc.lft.to/lastmile_qr_scan"}, "fusion_lon": 0.0}, {"lat": 38.921606833333335, "is_disabled": 0, "type": "electric_scooter", "lon": -77.04231016666667, "bike_id": "48fe235b66a049e7ce5db12787b68a22", "fusion_lat": 0.0, "name": "48fe235b66a049e7ce5db12787b68a22", "is_reserved": 0, "rental_uris": {"android": "https://dc.lft.to/lastmile_qr_scan", "ios": "https://dc.lft.to/lastmile_qr_scan"}, "fusion_lon": 0.0}, {"lat": 38.949777, "is_disabled": 0, "type": "electric_scooter", "lon": -77.06760166666666, "bike_id": "29c5a960f83229a42ef0923cb6b56a91", "fusion_lat": 0.0, "name": "29c5a960f83229a42ef0923cb6b56a91", "is_reserved": 0, "rental_uris": {"android": "https://dc.lft.to/lastmile_qr_scan", "ios": "https://dc.lft.to/lastmile_qr_scan"}, "fusion_lon": 0.0}, {"lat": 39.03047383333333, "is_disabled": 0, "type": "electric_bike", "lon": -77.09489083333334, "bike_id": "54f38a0528590f0e3dfb9552cd72b3b3", "fusion_lat": 0.0, "name": "54f38a0528590f0e3dfb9552cd72b3b3", "is_reserved": 0, "rental_uris": {"android": "https://dc.lft.to/lastmile_qr_scan", "ios": "https://dc.lft.to/lastmile_qr_scan"}, "fusion_lon": 0.0}, {"lat": 39.024289333333336, "is_disabled": 0, "type": "electric_bike", "lon": -77.13105733333333, "bike_id": "3e308f84c1e1ca93c1ab63a3b864d855", "fusion_lat": 0.0, "name": "3e308f84c1e1ca93c1ab63a3b864d855", "is_reserved": 0, "rental_uris": {"android": "https://dc.lft.to/lastmile_qr_scan", "ios": "https://dc.lft.to/lastmile_qr_scan"}, "fusion_lon": 0.0}, {"lat": 38.951584, "is_disabled": 0, "type": "electric_scooter", "lon": -77.06768066666666, "bike_id": "a1e3864df0efba99e3754b35b2f88f76", "fusion_lat": 0.0, "name": "a1e3864df0efba99e3754b35b2f88f76", "is_reserved": 0, "rental_uris": {"android": "https://dc.lft.to/lastmile_qr_scan", "ios": "https://dc.lft.to/lastmile_qr_scan"}, "fusion_lon": 0.0}, {"lat": 38.91611733333333, "is_disabled": 0, "type": "electric_scooter", "lon": -77.02167416666667, "bike_id": "e4040ab6bf775bb910ac4ecb2ccfecef", "fusion_lat": 0.0, "name": "e4040ab6bf775bb910ac4ecb2ccfecef", "is_reserved": 0, "rental_uris": {"android": "https://dc.lft.to/lastmile_qr_scan", "ios": "https://dc.lft.to/lastmile_qr_scan"}, "fusion_lon": 0.0}, {"lat": 38.916843666666665, "is_disabled": 0, "type": "electric_scooter", "lon": -77.02696883333333, "bike_id": "830e5b78ea108e085148547a407a1e9d", "fusion_lat": 0.0, "name": "830e5b78ea108e085148547a407a1e9d", "is_reserved": 0, "rental_uris": {"android": "https://dc.lft.to/lastmile_qr_scan", "ios": "https://dc.lft.to/lastmile_qr_scan"}, "fusion_lon": 0.0}, {"lat": 38.901374, "is_disabled": 0, "type": "electric_scooter", "lon": -77.02879016666667, "bike_id": "0ec0a52b27a9aa8452113f453695fa88", "fusion_lat": 0.0, "name": "0ec0a52b27a9aa8452113f453695fa88", "is_reserved": 0, "rental_uris": {"android": "https://dc.lft.to/lastmile_qr_scan", "ios": "https://dc.lft.to/lastmile_qr_scan"}, "fusion_lon": 0.0}, {"lat": 38.923184, "is_disabled": 0, "type": "electric_scooter", "lon": -77.03524266666666, "bike_id": "0520c016da009b5a2f9ddb0cb9ae5b07", "fusion_lat": 0.0, "name": "0520c016da009b5a2f9ddb0cb9ae5b07", "is_reserved": 0, "rental_uris": {"android": "https://dc.lft.to/lastmile_qr_scan", "ios": "https://dc.lft.to/lastmile_qr_scan"}, "fusion_lon": 0.0}, {"lat": 38.90115633333333, "is_disabled": 0, "type": "electric_scooter", "lon": -77.03327316666666, "bike_id": "a358846c3bbe26fd37fb79b2969ea559", "fusion_lat": 0.0, "name": "a358846c3bbe26fd37fb79b2969ea559", "is_reserved": 0, "rental_uris": {"android": "https://dc.lft.to/lastmile_qr_scan", "ios": "https://dc.lft.to/lastmile_qr_scan"}, "fusion_lon": 0.0}, {"lat": 38.923716666666664, "is_disabled": 0, "type": "electric_scooter", "lon": -77.02922633333333, "bike_id": "cd1912b946c78a306a54b46020be6f3d", "fusion_lat": 0.0, "name": "cd1912b946c78a306a54b46020be6f3d", "is_reserved": 0, "rental_uris": {"android": "https://dc.lft.to/lastmile_qr_scan", "ios": "https://dc.lft.to/lastmile_qr_scan"}, "fusion_lon": 0.0}, {"lat": 38.87780016666667, "is_disabled": 0, "type": "electric_scooter", "lon": -76.99508816666666, "bike_id": "72dce68cb6318a8586e2b911d0cd9aa2", "fusion_lat": 0.0, "name": "72dce68cb6318a8586e2b911d0cd9aa2", "is_reserved": 0, "rental_uris": {"android": "https://dc.lft.to/lastmile_qr_scan", "ios": "https://dc.lft.to/lastmile_qr_scan"}, "fusion_lon": 0.0}, {"lat": 38.89732516666667, "is_disabled": 0, "type": "electric_scooter", "lon": -77.049918, "bike_id": "acea5e4f84a8d4f7f1c08888a4b3604b", "fusion_lat": 0.0, "name": "acea5e4f84a8d4f7f1c08888a4b3604b", "is_reserved": 0, "rental_uris": {"android": "https://dc.lft.to/lastmile_qr_scan", "ios": "https://dc.lft.to/lastmile_qr_scan"}, "fusion_lon": 0.0}, {"lat": 38.99476816666667, "is_disabled": 0, "type": "electric_bike", "lon": -77.03212016666667, "bike_id": "2c7feaa0e301e95ff43223949ffc9c97", "fusion_lat": 0.0, "name": "2c7feaa0e301e95ff43223949ffc9c97", "is_reserved": 0, "rental_uris": {"android": "https://dc.lft.to/lastmile_qr_scan", "ios": "https://dc.lft.to/lastmile_qr_scan"}, "fusion_lon": 0.0}, {"lat": 38.884903, "is_disabled": 0, "type": "electric_scooter", "lon": -77.00707933333334, "bike_id": "e95c7b8a062da546e569d8a0e7564941", "fusion_lat": 0.0, "name": "e95c7b8a062da546e569d8a0e7564941", "is_reserved": 0, "rental_uris": {"android": "https://dc.lft.to/lastmile_qr_scan", "ios": "https://dc.lft.to/lastmile_qr_scan"}, "fusion_lon": 0.0}, {"lat": 38.900134333333334, "is_disabled": 0, "type": "electric_scooter", "lon": -77.01202833333333, "bike_id": "de2caa06f35d80d2e124f424dfe9ab27", "fusion_lat": 0.0, "name": "de2caa06f35d80d2e124f424dfe9ab27", "is_reserved": 0, "rental_uris": {"android": "https://dc.lft.to/lastmile_qr_scan", "ios": "https://dc.lft.to/lastmile_qr_scan"}, "fusion_lon": 0.0}, {"lat": 38.916525166666666, "is_disabled": 0, "type": "electric_scooter", "lon": -77.04773866666666, "bike_id": "c49684e6c081f1c171d1093149c2a5df", "fusion_lat": 0.0, "name": "c49684e6c081f1c171d1093149c2a5df", "is_reserved": 0, "rental_uris": {"android": "https://dc.lft.to/lastmile_qr_scan", "ios": "https://dc.lft.to/lastmile_qr_scan"}, "fusion_lon": 0.0}, {"lat": 38.92574233333333, "is_disabled": 0, "type": "electric_scooter", "lon": -76.98610366666666, "bike_id": "5d05a4c2389e37ba0dd02ca847114d52", "fusion_lat": 0.0, "name": "5d05a4c2389e37ba0dd02ca847114d52", "is_reserved": 0, "rental_uris": {"android": "https://dc.lft.to/lastmile_qr_scan", "ios": "https://dc.lft.to/lastmile_qr_scan"}, "fusion_lon": 0.0}, {"lat": 38.84292666666666, "is_disabled": 0, "type": "electric_scooter", "lon": -76.99946033333333, "bike_id": "329c717e54e6abdba029d2ae3d2f842d", "fusion_lat": 0.0, "name": "329c717e54e6abdba029d2ae3d2f842d", "is_reserved": 0, "rental_uris": {"android": "https://dc.lft.to/lastmile_qr_scan", "ios": "https://dc.lft.to/lastmile_qr_scan"}, "fusion_lon": 0.0}, {"lat": 38.920256333333334, "is_disabled": 0, "type": "electric_scooter", "lon": -77.03133816666667, "bike_id": "946ddca9c61d8d009635a6fdc610bcf9", "fusion_lat": 0.0, "name": "946ddca9c61d8d009635a6fdc610bcf9", "is_reserved": 0, "rental_uris": {"android": "https://dc.lft.to/lastmile_qr_scan", "ios": "https://dc.lft.to/lastmile_qr_scan"}, "fusion_lon": 0.0}, {"lat": 38.92041416666667, "is_disabled": 0, "type": "electric_scooter", "lon": -77.0242265, "bike_id": "282d450b031633439e988d638038f722", "fusion_lat": 0.0, "name": "282d450b031633439e988d638038f722", "is_reserved": 0, "rental_uris": {"android": "https://dc.lft.to/lastmile_qr_scan", "ios": "https://dc.lft.to/lastmile_qr_scan"}, "fusion_lon": 0.0}, {"lat": 38.89223633333334, "is_disabled": 0, "type": "electric_scooter", "lon": -77.03976433333334, "bike_id": "37faef37ea2292b64d8ebda032c4068a", "fusion_lat": 0.0, "name": "37faef37ea2292b64d8ebda032c4068a", "is_reserved": 0, "rental_uris": {"android": "https://dc.lft.to/lastmile_qr_scan", "ios": "https://dc.lft.to/lastmile_qr_scan"}, "fusion_lon": 0.0}, {"lat": 38.9012175, "is_disabled": 0, "type": "electric_scooter", "lon": -77.0499735, "bike_id": "ccbea25d3e8cf45d2807620f3ab78eef", "fusion_lat": 0.0, "name": "ccbea25d3e8cf45d2807620f3ab78eef", "is_reserved": 0, "rental_uris": {"android": "https://dc.lft.to/lastmile_qr_scan", "ios": "https://dc.lft.to/lastmile_qr_scan"}, "fusion_lon": 0.0}, {"lat": 38.9850865, "is_disabled": 0, "type": "electric_bike", "lon": -76.98211466666666, "bike_id": "0aaa33f80537f78cbd8329696c3f7012", "fusion_lat": 0.0, "name": "0aaa33f80537f78cbd8329696c3f7012", "is_reserved": 0, "rental_uris": {"android": "https://dc.lft.to/lastmile_qr_scan", "ios": "https://dc.lft.to/lastmile_qr_scan"}, "fusion_lon": 0.0}, {"lat": 38.922397833333335, "is_disabled": 0, "type": "electric_scooter", "lon": -77.03064683333334, "bike_id": "edb745fd77825a8dd87602d4e14887ce", "fusion_lat": 0.0, "name": "edb745fd77825a8dd87602d4e14887ce", "is_reserved": 0, "rental_uris": {"android": "https://dc.lft.to/lastmile_qr_scan", "ios": "https://dc.lft.to/lastmile_qr_scan"}, "fusion_lon": 0.0}, {"lat": 38.90072283333333, "is_disabled": 0, "type": "electric_scooter", "lon": -77.05063166666666, "bike_id": "488731697da10c76c57c759a4bbf9248", "fusion_lat": 0.0, "name": "488731697da10c76c57c759a4bbf9248", "is_reserved": 0, "rental_uris": {"android": "https://dc.lft.to/lastmile_qr_scan", "ios": "https://dc.lft.to/lastmile_qr_scan"}, "fusion_lon": 0.0}, {"lat": 38.8057765, "is_disabled": 0, "type": "electric_bike", "lon": -77.06860966666666, "bike_id": "8cbddb402fcad1ecdbf56657990aaa3c", "fusion_lat": 0.0, "name": "8cbddb402fcad1ecdbf56657990aaa3c", "is_reserved": 0, "rental_uris": {"android": "https://dc.lft.to/lastmile_qr_scan", "ios": "https://dc.lft.to/lastmile_qr_scan"}, "fusion_lon": 0.0}, {"lat": 38.90011833333333, "is_disabled": 0, "type": "electric_scooter", "lon": -76.995692, "bike_id": "d6e02e86a4b0946f46cb068c2fd6d70c", "fusion_lat": 0.0, "name": "d6e02e86a4b0946f46cb068c2fd6d70c", "is_reserved": 0, "rental_uris": {"android": "https://dc.lft.to/lastmile_qr_scan", "ios": "https://dc.lft.to/lastmile_qr_scan"}, "fusion_lon": 0.0}, {"lat": 38.930780166666665, "is_disabled": 0, "type": "electric_scooter", "lon": -77.03416333333334, "bike_id": "b13eb5891d17cff1e29f488efb584925", "fusion_lat": 0.0, "name": "b13eb5891d17cff1e29f488efb584925", "is_reserved": 0, "rental_uris": {"android": "https://dc.lft.to/lastmile_qr_scan", "ios": "https://dc.lft.to/lastmile_qr_scan"}, "fusion_lon": 0.0}, {"lat": 38.90596816666667, "is_disabled": 0, "type": "electric_scooter", "lon": -77.04182416666667, "bike_id": "2493408bf7d67514658f0808af4c6f44", "fusion_lat": 0.0, "name": "2493408bf7d67514658f0808af4c6f44", "is_reserved": 0, "rental_uris": {"android": "https://dc.lft.to/lastmile_qr_scan", "ios": "https://dc.lft.to/lastmile_qr_scan"}, "fusion_lon": 0.0}, {"lat": 38.92014566666667, "is_disabled": 0, "type": "electric_bike", "lon": -77.04532583333334, "bike_id": "cbdd2a51e1e09d30aefae3973f749ecd", "fusion_lat": 0.0, "name": "cbdd2a51e1e09d30aefae3973f749ecd", "is_reserved": 0, "rental_uris": {"android": "https://dc.lft.to/lastmile_qr_scan", "ios": "https://dc.lft.to/lastmile_qr_scan"}, "fusion_lon": 0.0}, {"lat": 38.920330166666666, "is_disabled": 0, "type": "electric_scooter", "lon": -77.030483, "bike_id": "fdb053d9a35ad2e93b4f9499f36a38d8", "fusion_lat": 0.0, "name": "fdb053d9a35ad2e93b4f9499f36a38d8", "is_reserved": 0, "rental_uris": {"android": "https://dc.lft.to/lastmile_qr_scan", "ios": "https://dc.lft.to/lastmile_qr_scan"}, "fusion_lon": 0.0}, {"lat": 38.9285115, "is_disabled": 0, "type": "electric_scooter", "lon": -77.03606616666667, "bike_id": "bd36022ca7dcfa1e4e67e1e308528c4c", "fusion_lat": 0.0, "name": "bd36022ca7dcfa1e4e67e1e308528c4c", "is_reserved": 0, "rental_uris": {"android": "https://dc.lft.to/lastmile_qr_scan", "ios": "https://dc.lft.to/lastmile_qr_scan"}, "fusion_lon": 0.0}, {"lat": 38.8840655, "is_disabled": 0, "type": "electric_bike", "lon": -76.96058316666667, "bike_id": "4f2ef0af09c64e5ded01cab18aa12b8b", "fusion_lat": 0.0, "name": "4f2ef0af09c64e5ded01cab18aa12b8b", "is_reserved": 0, "rental_uris": {"android": "https://dc.lft.to/lastmile_qr_scan", "ios": "https://dc.lft.to/lastmile_qr_scan"}, "fusion_lon": 0.0}, {"lat": 38.93634, "is_disabled": 0, "type": "electric_scooter", "lon": -77.036659, "bike_id": "c203e2db80e28996eb4766e9b3026124", "fusion_lat": 0.0, "name": "c203e2db80e28996eb4766e9b3026124", "is_reserved": 0, "rental_uris": {"android": "https://dc.lft.to/lastmile_qr_scan", "ios": "https://dc.lft.to/lastmile_qr_scan"}, "fusion_lon": 0.0}, {"lat": 38.908266, "is_disabled": 0, "type": "electric_scooter", "lon": -76.9414615, "bike_id": "2c89fc70627019c0d764acc80583c6d8", "fusion_lat": 0.0, "name": "2c89fc70627019c0d764acc80583c6d8", "is_reserved": 0, "rental_uris": {"android": "https://dc.lft.to/lastmile_qr_scan", "ios": "https://dc.lft.to/lastmile_qr_scan"}, "fusion_lon": 0.0}, {"lat": 38.9293985, "is_disabled": 0, "type": "electric_scooter", "lon": -77.01985, "bike_id": "abc81baf67961961010f4c2d3d8eaa74", "fusion_lat": 0.0, "name": "abc81baf67961961010f4c2d3d8eaa74", "is_reserved": 0, "rental_uris": {"android": "https://dc.lft.to/lastmile_qr_scan", "ios": "https://dc.lft.to/lastmile_qr_scan"}, "fusion_lon": 0.0}, {"lat": 38.924049833333335, "is_disabled": 0, "type": "electric_scooter", "lon": -77.052581, "bike_id": "ed06d7abb70abf7bee92ed7d30b8c7cc", "fusion_lat": 0.0, "name": "ed06d7abb70abf7bee92ed7d30b8c7cc", "is_reserved": 0, "rental_uris": {"android": "https://dc.lft.to/lastmile_qr_scan", "ios": "https://dc.lft.to/lastmile_qr_scan"}, "fusion_lon": 0.0}, {"lat": 38.90432666666667, "is_disabled": 0, "type": "electric_scooter", "lon": -77.02515183333334, "bike_id": "5d2bff2c89d4e11537f97953896f18ef", "fusion_lat": 0.0, "name": "5d2bff2c89d4e11537f97953896f18ef", "is_reserved": 0, "rental_uris": {"android": "https://dc.lft.to/lastmile_qr_scan", "ios": "https://dc.lft.to/lastmile_qr_scan"}, "fusion_lon": 0.0}, {"lat": 38.92403566666667, "is_disabled": 0, "type": "electric_scooter", "lon": -77.025567, "bike_id": "a7ce0f9929035293a9f24dfa54f85337", "fusion_lat": 0.0, "name": "a7ce0f9929035293a9f24dfa54f85337", "is_reserved": 0, "rental_uris": {"android": "https://dc.lft.to/lastmile_qr_scan", "ios": "https://dc.lft.to/lastmile_qr_scan"}, "fusion_lon": 0.0}, {"lat": 38.881174666666666, "is_disabled": 0, "type": "electric_scooter", "lon": -77.01636816666667, "bike_id": "025b25fb60f4a642e68a4df98dfcf203", "fusion_lat": 0.0, "name": "025b25fb60f4a642e68a4df98dfcf203", "is_reserved": 0, "rental_uris": {"android": "https://dc.lft.to/lastmile_qr_scan", "ios": "https://dc.lft.to/lastmile_qr_scan"}, "fusion_lon": 0.0}, {"lat": 38.8398865, "is_disabled": 0, "type": "electric_bike", "lon": -77.00568083333333, "bike_id": "bb58eca6bcaaf338e397861d58269649", "fusion_lat": 0.0, "name": "bb58eca6bcaaf338e397861d58269649", "is_reserved": 0, "rental_uris": {"android": "https://dc.lft.to/lastmile_qr_scan", "ios": "https://dc.lft.to/lastmile_qr_scan"}, "fusion_lon": 0.0}, {"lat": 38.9004485, "is_disabled": 0, "type": "electric_scooter", "lon": -76.99507766666666, "bike_id": "cda1cf03b8b9d2b74ce1e850e18e045a", "fusion_lat": 0.0, "name": "cda1cf03b8b9d2b74ce1e850e18e045a", "is_reserved": 0, "rental_uris": {"android": "https://dc.lft.to/lastmile_qr_scan", "ios": "https://dc.lft.to/lastmile_qr_scan"}, "fusion_lon": 0.0}, {"lat": 38.909842833333336, "is_disabled": 0, "type": "electric_scooter", "lon": -76.984695, "bike_id": "7d549ddf0e18e1465b6819b18ec9cd58", "fusion_lat": 0.0, "name": "7d549ddf0e18e1465b6819b18ec9cd58", "is_reserved": 0, "rental_uris": {"android": "https://dc.lft.to/lastmile_qr_scan", "ios": "https://dc.lft.to/lastmile_qr_scan"}, "fusion_lon": 0.0}, {"lat": 38.94325166666667, "is_disabled": 0, "type": "electric_scooter", "lon": -77.073805, "bike_id": "0c8275522c6b0d7e45692d94164d4dd5", "fusion_lat": 0.0, "name": "0c8275522c6b0d7e45692d94164d4dd5", "is_reserved": 0, "rental_uris": {"android": "https://dc.lft.to/lastmile_qr_scan", "ios": "https://dc.lft.to/lastmile_qr_scan"}, "fusion_lon": 0.0}, {"lat": 38.93250966666667, "is_disabled": 0, "type": "electric_scooter", "lon": -77.06654983333334, "bike_id": "7289a62b621e6a83b4ff3a82ec4b637f", "fusion_lat": 0.0, "name": "7289a62b621e6a83b4ff3a82ec4b637f", "is_reserved": 0, "rental_uris": {"android": "https://dc.lft.to/lastmile_qr_scan", "ios": "https://dc.lft.to/lastmile_qr_scan"}, "fusion_lon": 0.0}, {"lat": 38.9361495, "is_disabled": 0, "type": "electric_scooter", "lon": -77.05755416666666, "bike_id": "9909af3cbdd0870ca11a98454df7534e", "fusion_lat": 0.0, "name": "9909af3cbdd0870ca11a98454df7534e", "is_reserved": 0, "rental_uris": {"android": "https://dc.lft.to/lastmile_qr_scan", "ios": "https://dc.lft.to/lastmile_qr_scan"}, "fusion_lon": 0.0}, {"lat": 38.8670125, "is_disabled": 0, "type": "electric_scooter", "lon": -76.98715433333334, "bike_id": "76116d927b5ad326956ca02fd1b551fe", "fusion_lat": 0.0, "name": "76116d927b5ad326956ca02fd1b551fe", "is_reserved": 0, "rental_uris": {"android": "https://dc.lft.to/lastmile_qr_scan", "ios": "https://dc.lft.to/lastmile_qr_scan"}, "fusion_lon": 0.0}, {"lat": 38.879921, "is_disabled": 0, "type": "electric_scooter", "lon": -76.9868005, "bike_id": "46fe903a0b69be8cbde71a075ef08514", "fusion_lat": 0.0, "name": "46fe903a0b69be8cbde71a075ef08514", "is_reserved": 0, "rental_uris": {"android": "https://dc.lft.to/lastmile_qr_scan", "ios": "https://dc.lft.to/lastmile_qr_scan"}, "fusion_lon": 0.0}, {"lat": 38.921230333333334, "is_disabled": 0, "type": "electric_scooter", "lon": -77.03183916666667, "bike_id": "0b732bc802fe8fb93efc551e5d28eba5", "fusion_lat": 0.0, "name": "0b732bc802fe8fb93efc551e5d28eba5", "is_reserved": 0, "rental_uris": {"android": "https://dc.lft.to/lastmile_qr_scan", "ios": "https://dc.lft.to/lastmile_qr_scan"}, "fusion_lon": 0.0}, {"lat": 38.90254266666667, "is_disabled": 0, "type": "electric_scooter", "lon": -77.01750566666666, "bike_id": "c6c3a3b3b65e14d4997dc6e5ce46e37b", "fusion_lat": 0.0, "name": "c6c3a3b3b65e14d4997dc6e5ce46e37b", "is_reserved": 0, "rental_uris": {"android": "https://dc.lft.to/lastmile_qr_scan", "ios": "https://dc.lft.to/lastmile_qr_scan"}, "fusion_lon": 0.0}, {"lat": 38.93876, "is_disabled": 0, "type": "electric_scooter", "lon": -77.02443833333334, "bike_id": "341e937b7171eced608528bd595a3ae6", "fusion_lat": 0.0, "name": "341e937b7171eced608528bd595a3ae6", "is_reserved": 0, "rental_uris": {"android": "https://dc.lft.to/lastmile_qr_scan", "ios": "https://dc.lft.to/lastmile_qr_scan"}, "fusion_lon": 0.0}, {"lat": 38.865604833333336, "is_disabled": 0, "type": "electric_scooter", "lon": -76.98943483333333, "bike_id": "cc0ec48e5cb855822477b50bc337ca03", "fusion_lat": 0.0, "name": "cc0ec48e5cb855822477b50bc337ca03", "is_reserved": 0, "rental_uris": {"android": "https://dc.lft.to/lastmile_qr_scan", "ios": "https://dc.lft.to/lastmile_qr_scan"}, "fusion_lon": 0.0}, {"lat": 38.95562566666667, "is_disabled": 0, "type": "electric_scooter", "lon": -77.02240516666667, "bike_id": "b05a86571197e8c95a0c57b9cce3d566", "fusion_lat": 0.0, "name": "b05a86571197e8c95a0c57b9cce3d566", "is_reserved": 0, "rental_uris": {"android": "https://dc.lft.to/lastmile_qr_scan", "ios": "https://dc.lft.to/lastmile_qr_scan"}, "fusion_lon": 0.0}, {"lat": 38.90917783333333, "is_disabled": 0, "type": "electric_scooter", "lon": -77.03644366666667, "bike_id": "64b8ef42e1f6100555c4763c704d3f73", "fusion_lat": 0.0, "name": "64b8ef42e1f6100555c4763c704d3f73", "is_reserved": 0, "rental_uris": {"android": "https://dc.lft.to/lastmile_qr_scan", "ios": "https://dc.lft.to/lastmile_qr_scan"}, "fusion_lon": 0.0}, {"lat": 38.90198066666667, "is_disabled": 0, "type": "electric_scooter", "lon": -77.0248515, "bike_id": "ed95ca8a2f7a35cf51e5948ecaf9e07b", "fusion_lat": 0.0, "name": "ed95ca8a2f7a35cf51e5948ecaf9e07b", "is_reserved": 0, "rental_uris": {"android": "https://dc.lft.to/lastmile_qr_scan", "ios": "https://dc.lft.to/lastmile_qr_scan"}, "fusion_lon": 0.0}, {"lat": 38.90803783333333, "is_disabled": 0, "type": "electric_scooter", "lon": -76.98275533333333, "bike_id": "bb6780e72640c5a39e71e14fea5c5c13", "fusion_lat": 0.0, "name": "bb6780e72640c5a39e71e14fea5c5c13", "is_reserved": 0, "rental_uris": {"android": "https://dc.lft.to/lastmile_qr_scan", "ios": "https://dc.lft.to/lastmile_qr_scan"}, "fusion_lon": 0.0}, {"lat": 38.920362833333336, "is_disabled": 0, "type": "electric_scooter", "lon": -77.02585833333333, "bike_id": "53e27c9ff68f66f40bf069a563d5bc5b", "fusion_lat": 0.0, "name": "53e27c9ff68f66f40bf069a563d5bc5b", "is_reserved": 0, "rental_uris": {"android": "https://dc.lft.to/lastmile_qr_scan", "ios": "https://dc.lft.to/lastmile_qr_scan"}, "fusion_lon": 0.0}, {"lat": 38.939835333333335, "is_disabled": 0, "type": "electric_scooter", "lon": -77.02627066666666, "bike_id": "cab551ec33d87f32ea69210558174f95", "fusion_lat": 0.0, "name": "cab551ec33d87f32ea69210558174f95", "is_reserved": 0, "rental_uris": {"android": "https://dc.lft.to/lastmile_qr_scan", "ios": "https://dc.lft.to/lastmile_qr_scan"}, "fusion_lon": 0.0}, {"lat": 38.90738, "is_disabled": 0, "type": "electric_scooter", "lon": -77.0294935, "bike_id": "56f0e2c5c10cb5a61a655aba3673b00d", "fusion_lat": 0.0, "name": "56f0e2c5c10cb5a61a655aba3673b00d", "is_reserved": 0, "rental_uris": {"android": "https://dc.lft.to/lastmile_qr_scan", "ios": "https://dc.lft.to/lastmile_qr_scan"}, "fusion_lon": 0.0}, {"lat": 38.898955666666666, "is_disabled": 0, "type": "electric_scooter", "lon": -77.072372, "bike_id": "d6e2b90504cd22ba248fe09acb9f9b84", "fusion_lat": 0.0, "name": "d6e2b90504cd22ba248fe09acb9f9b84", "is_reserved": 0, "rental_uris": {"android": "https://dc.lft.to/lastmile_qr_scan", "ios": "https://dc.lft.to/lastmile_qr_scan"}, "fusion_lon": 0.0}, {"lat": 38.8729225, "is_disabled": 0, "type": "electric_scooter", "lon": -77.00924116666667, "bike_id": "677ff43eaa0a0d4e9a2f6c23c9582a15", "fusion_lat": 0.0, "name": "677ff43eaa0a0d4e9a2f6c23c9582a15", "is_reserved": 0, "rental_uris": {"android": "https://dc.lft.to/lastmile_qr_scan", "ios": "https://dc.lft.to/lastmile_qr_scan"}, "fusion_lon": 0.0}, {"lat": 38.91247283333333, "is_disabled": 0, "type": "electric_scooter", "lon": -77.04668216666667, "bike_id": "f865d57097f7cdadd978509dc316a963", "fusion_lat": 0.0, "name": "f865d57097f7cdadd978509dc316a963", "is_reserved": 0, "rental_uris": {"android": "https://dc.lft.to/lastmile_qr_scan", "ios": "https://dc.lft.to/lastmile_qr_scan"}, "fusion_lon": 0.0}, {"lat": 38.9012175, "is_disabled": 0, "type": "electric_scooter", "lon": -77.03329016666666, "bike_id": "f47aa4b5a34b5ee21623b1c816e7d694", "fusion_lat": 0.0, "name": "f47aa4b5a34b5ee21623b1c816e7d694", "is_reserved": 0, "rental_uris": {"android": "https://dc.lft.to/lastmile_qr_scan", "ios": "https://dc.lft.to/lastmile_qr_scan"}, "fusion_lon": 0.0}, {"lat": 38.90103833333333, "is_disabled": 0, "type": "electric_scooter", "lon": -77.05900583333333, "bike_id": "2afd3155ce1adc47ef83320a6aa4764f", "fusion_lat": 0.0, "name": "2afd3155ce1adc47ef83320a6aa4764f", "is_reserved": 0, "rental_uris": {"android": "https://dc.lft.to/lastmile_qr_scan", "ios": "https://dc.lft.to/lastmile_qr_scan"}, "fusion_lon": 0.0}, {"lat": 38.916913, "is_disabled": 0, "type": "electric_scooter", "lon": -77.04597983333333, "bike_id": "37b2612eb56ba4e4a76e690379351b27", "fusion_lat": 0.0, "name": "37b2612eb56ba4e4a76e690379351b27", "is_reserved": 0, "rental_uris": {"android": "https://dc.lft.to/lastmile_qr_scan", "ios": "https://dc.lft.to/lastmile_qr_scan"}, "fusion_lon": 0.0}, {"lat": 38.923004666666664, "is_disabled": 0, "type": "electric_scooter", "lon": -77.02334333333333, "bike_id": "6bcb61a94206eeccd2d52c1e161bcab3", "fusion_lat": 0.0, "name": "6bcb61a94206eeccd2d52c1e161bcab3", "is_reserved": 0, "rental_uris": {"android": "https://dc.lft.to/lastmile_qr_scan", "ios": "https://dc.lft.to/lastmile_qr_scan"}, "fusion_lon": 0.0}, {"lat": 38.959573666666664, "is_disabled": 0, "type": "electric_bike", "lon": -77.10091683333333, "bike_id": "41d1e44751c00110a644a67a49f99a22", "fusion_lat": 0.0, "name": "41d1e44751c00110a644a67a49f99a22", "is_reserved": 0, "rental_uris": {"android": "https://dc.lft.to/lastmile_qr_scan", "ios": "https://dc.lft.to/lastmile_qr_scan"}, "fusion_lon": 0.0}, {"lat": 38.866190833333334, "is_disabled": 0, "type": "electric_bike", "lon": -76.9457105, "bike_id": "b5c757322f11590f51da590d68a8ac65", "fusion_lat": 0.0, "name": "b5c757322f11590f51da590d68a8ac65", "is_reserved": 0, "rental_uris": {"android": "https://dc.lft.to/lastmile_qr_scan", "ios": "https://dc.lft.to/lastmile_qr_scan"}, "fusion_lon": 0.0}, {"lat": 38.93100416666667, "is_disabled": 0, "type": "electric_scooter", "lon": -77.03261733333333, "bike_id": "452afa6a81ca34e90cb94505d5407950", "fusion_lat": 0.0, "name": "452afa6a81ca34e90cb94505d5407950", "is_reserved": 0, "rental_uris": {"android": "https://dc.lft.to/lastmile_qr_scan", "ios": "https://dc.lft.to/lastmile_qr_scan"}, "fusion_lon": 0.0}, {"lat": 38.91775783333333, "is_disabled": 0, "type": "electric_scooter", "lon": -77.04302433333334, "bike_id": "c29e07db4255a95e9ab980037d0ee3c9", "fusion_lat": 0.0, "name": "c29e07db4255a95e9ab980037d0ee3c9", "is_reserved": 0, "rental_uris": {"android": "https://dc.lft.to/lastmile_qr_scan", "ios": "https://dc.lft.to/lastmile_qr_scan"}, "fusion_lon": 0.0}, {"lat": 38.91922433333333, "is_disabled": 0, "type": "electric_scooter", "lon": -77.04812866666667, "bike_id": "baa87c9ae25352c0f824c83c48b8450d", "fusion_lat": 0.0, "name": "baa87c9ae25352c0f824c83c48b8450d", "is_reserved": 0, "rental_uris": {"android": "https://dc.lft.to/lastmile_qr_scan", "ios": "https://dc.lft.to/lastmile_qr_scan"}, "fusion_lon": 0.0}, {"lat": 38.89234416666667, "is_disabled": 0, "type": "electric_scooter", "lon": -77.05003866666667, "bike_id": "1dcb05971bde587a365a66781f9c2acb", "fusion_lat": 0.0, "name": "1dcb05971bde587a365a66781f9c2acb", "is_reserved": 0, "rental_uris": {"android": "https://dc.lft.to/lastmile_qr_scan", "ios": "https://dc.lft.to/lastmile_qr_scan"}, "fusion_lon": 0.0}, {"lat": 38.89895416666667, "is_disabled": 0, "type": "electric_scooter", "lon": -77.03230933333333, "bike_id": "eef5da70b1f411e440d7d663773e0657", "fusion_lat": 0.0, "name": "eef5da70b1f411e440d7d663773e0657", "is_reserved": 0, "rental_uris": {"android": "https://dc.lft.to/lastmile_qr_scan", "ios": "https://dc.lft.to/lastmile_qr_scan"}, "fusion_lon": 0.0}, {"lat": 38.896867666666665, "is_disabled": 0, "type": "electric_scooter", "lon": -76.93536883333333, "bike_id": "3aba944f45304e4c2204d205f5213de3", "fusion_lat": 0.0, "name": "3aba944f45304e4c2204d205f5213de3", "is_reserved": 0, "rental_uris": {"android": "https://dc.lft.to/lastmile_qr_scan", "ios": "https://dc.lft.to/lastmile_qr_scan"}, "fusion_lon": 0.0}, {"lat": 38.90071783333333, "is_disabled": 0, "type": "electric_scooter", "lon": -77.002139, "bike_id": "363755bbf43b3cdf14771358ed9abba9", "fusion_lat": 0.0, "name": "363755bbf43b3cdf14771358ed9abba9", "is_reserved": 0, "rental_uris": {"android": "https://dc.lft.to/lastmile_qr_scan", "ios": "https://dc.lft.to/lastmile_qr_scan"}, "fusion_lon": 0.0}, {"lat": 38.8922495, "is_disabled": 0, "type": "electric_scooter", "lon": -77.04876633333333, "bike_id": "cc7ef8ec5c3f7c0edc85d2836318df43", "fusion_lat": 0.0, "name": "cc7ef8ec5c3f7c0edc85d2836318df43", "is_reserved": 0, "rental_uris": {"android": "https://dc.lft.to/lastmile_qr_scan", "ios": "https://dc.lft.to/lastmile_qr_scan"}, "fusion_lon": 0.0}, {"lat": 38.918658666666666, "is_disabled": 0, "type": "electric_scooter", "lon": -77.04599316666666, "bike_id": "3f08433e67d3e05ca3d26e61b88d2c68", "fusion_lat": 0.0, "name": "3f08433e67d3e05ca3d26e61b88d2c68", "is_reserved": 0, "rental_uris": {"android": "https://dc.lft.to/lastmile_qr_scan", "ios": "https://dc.lft.to/lastmile_qr_scan"}, "fusion_lon": 0.0}, {"lat": 38.961464666666664, "is_disabled": 0, "type": "electric_scooter", "lon": -77.02784516666667, "bike_id": "697b85a639baee654be83474a3f8a426", "fusion_lat": 0.0, "name": "697b85a639baee654be83474a3f8a426", "is_reserved": 0, "rental_uris": {"android": "https://dc.lft.to/lastmile_qr_scan", "ios": "https://dc.lft.to/lastmile_qr_scan"}, "fusion_lon": 0.0}, {"lat": 38.9132415, "is_disabled": 0, "type": "electric_scooter", "lon": -77.0326145, "bike_id": "5c7d9775a2aa72815df7cfd91226ec68", "fusion_lat": 0.0, "name": "5c7d9775a2aa72815df7cfd91226ec68", "is_reserved": 0, "rental_uris": {"android": "https://dc.lft.to/lastmile_qr_scan", "ios": "https://dc.lft.to/lastmile_qr_scan"}, "fusion_lon": 0.0}, {"lat": 38.914897333333336, "is_disabled": 0, "type": "electric_scooter", "lon": -77.0326135, "bike_id": "18b186af006ad465d57181d0729ec7f4", "fusion_lat": 0.0, "name": "18b186af006ad465d57181d0729ec7f4", "is_reserved": 0, "rental_uris": {"android": "https://dc.lft.to/lastmile_qr_scan", "ios": "https://dc.lft.to/lastmile_qr_scan"}, "fusion_lon": 0.0}, {"lat": 38.920584833333336, "is_disabled": 0, "type": "electric_scooter", "lon": -77.04339016666667, "bike_id": "5786753468ce35c4b4674bd7b746131b", "fusion_lat": 0.0, "name": "5786753468ce35c4b4674bd7b746131b", "is_reserved": 0, "rental_uris": {"android": "https://dc.lft.to/lastmile_qr_scan", "ios": "https://dc.lft.to/lastmile_qr_scan"}, "fusion_lon": 0.0}, {"lat": 38.908957666666666, "is_disabled": 0, "type": "electric_scooter", "lon": -77.04419633333333, "bike_id": "38740d80329bc2e97929129301e6b06b", "fusion_lat": 0.0, "name": "38740d80329bc2e97929129301e6b06b", "is_reserved": 0, "rental_uris": {"android": "https://dc.lft.to/lastmile_qr_scan", "ios": "https://dc.lft.to/lastmile_qr_scan"}, "fusion_lon": 0.0}, {"lat": 38.93993066666667, "is_disabled": 0, "type": "electric_scooter", "lon": -77.071711, "bike_id": "c90c7bb9cc6a296f019a41b43eba02b8", "fusion_lat": 0.0, "name": "c90c7bb9cc6a296f019a41b43eba02b8", "is_reserved": 0, "rental_uris": {"android": "https://dc.lft.to/lastmile_qr_scan", "ios": "https://dc.lft.to/lastmile_qr_scan"}, "fusion_lon": 0.0}, {"lat": 38.86660166666667, "is_disabled": 0, "type": "electric_scooter", "lon": -76.9888505, "bike_id": "fea87e5a073f820ba4809ec43715aeff", "fusion_lat": 0.0, "name": "fea87e5a073f820ba4809ec43715aeff", "is_reserved": 0, "rental_uris": {"android": "https://dc.lft.to/lastmile_qr_scan", "ios": "https://dc.lft.to/lastmile_qr_scan"}, "fusion_lon": 0.0}, {"lat": 38.899095833333334, "is_disabled": 0, "type": "electric_scooter", "lon": -76.93348983333334, "bike_id": "ea428f4e17bac51bdd96a72f17e12658", "fusion_lat": 0.0, "name": "ea428f4e17bac51bdd96a72f17e12658", "is_reserved": 0, "rental_uris": {"android": "https://dc.lft.to/lastmile_qr_scan", "ios": "https://dc.lft.to/lastmile_qr_scan"}, "fusion_lon": 0.0}, {"lat": 38.9038565, "is_disabled": 0, "type": "electric_scooter", "lon": -77.017787, "bike_id": "8721bf0c5446d761fee4607f39bef221", "fusion_lat": 0.0, "name": "8721bf0c5446d761fee4607f39bef221", "is_reserved": 0, "rental_uris": {"android": "https://dc.lft.to/lastmile_qr_scan", "ios": "https://dc.lft.to/lastmile_qr_scan"}, "fusion_lon": 0.0}, {"lat": 38.925779, "is_disabled": 0, "type": "electric_scooter", "lon": -77.05757683333333, "bike_id": "f4ad476d63699024aae6167495cd2603", "fusion_lat": 0.0, "name": "f4ad476d63699024aae6167495cd2603", "is_reserved": 0, "rental_uris": {"android": "https://dc.lft.to/lastmile_qr_scan", "ios": "https://dc.lft.to/lastmile_qr_scan"}, "fusion_lon": 0.0}, {"lat": 38.904303, "is_disabled": 0, "type": "electric_scooter", "lon": -77.03096566666666, "bike_id": "9e609abd48c402342b4fc685679646b0", "fusion_lat": 0.0, "name": "9e609abd48c402342b4fc685679646b0", "is_reserved": 0, "rental_uris": {"android": "https://dc.lft.to/lastmile_qr_scan", "ios": "https://dc.lft.to/lastmile_qr_scan"}, "fusion_lon": 0.0}, {"lat": 38.80681933333334, "is_disabled": 0, "type": "electric_bike", "lon": -77.08119083333334, "bike_id": "ac07957a142f54d2b944174ba056fb96", "fusion_lat": 0.0, "name": "ac07957a142f54d2b944174ba056fb96", "is_reserved": 0, "rental_uris": {"android": "https://dc.lft.to/lastmile_qr_scan", "ios": "https://dc.lft.to/lastmile_qr_scan"}, "fusion_lon": 0.0}, {"lat": 38.91276033333333, "is_disabled": 0, "type": "electric_bike", "lon": -77.0122335, "bike_id": "fe03f9666bafc40d11b58671a8750a5f", "fusion_lat": 0.0, "name": "fe03f9666bafc40d11b58671a8750a5f", "is_reserved": 0, "rental_uris": {"android": "https://dc.lft.to/lastmile_qr_scan", "ios": "https://dc.lft.to/lastmile_qr_scan"}, "fusion_lon": 0.0}, {"lat": 38.917815833333336, "is_disabled": 0, "type": "electric_scooter", "lon": -77.04336033333334, "bike_id": "c0a6481a216524a07fad5cf269e9737c", "fusion_lat": 0.0, "name": "c0a6481a216524a07fad5cf269e9737c", "is_reserved": 0, "rental_uris": {"android": "https://dc.lft.to/lastmile_qr_scan", "ios": "https://dc.lft.to/lastmile_qr_scan"}, "fusion_lon": 0.0}, {"lat": 38.92146316666667, "is_disabled": 0, "type": "electric_scooter", "lon": -77.0436505, "bike_id": "9f77160d139f087655d035bbe20eee9c", "fusion_lat": 0.0, "name": "9f77160d139f087655d035bbe20eee9c", "is_reserved": 0, "rental_uris": {"android": "https://dc.lft.to/lastmile_qr_scan", "ios": "https://dc.lft.to/lastmile_qr_scan"}, "fusion_lon": 0.0}, {"lat": 38.903315, "is_disabled": 0, "type": "electric_scooter", "lon": -76.97591916666667, "bike_id": "a9456275161b332d837ea0b39ad2714f", "fusion_lat": 0.0, "name": "a9456275161b332d837ea0b39ad2714f", "is_reserved": 0, "rental_uris": {"android": "https://dc.lft.to/lastmile_qr_scan", "ios": "https://dc.lft.to/lastmile_qr_scan"}, "fusion_lon": 0.0}, {"lat": 38.8973295, "is_disabled": 0, "type": "electric_scooter", "lon": -77.045344, "bike_id": "8ff461987634a494f988246bc3e18af4", "fusion_lat": 0.0, "name": "8ff461987634a494f988246bc3e18af4", "is_reserved": 0, "rental_uris": {"android": "https://dc.lft.to/lastmile_qr_scan", "ios": "https://dc.lft.to/lastmile_qr_scan"}, "fusion_lon": 0.0}, {"lat": 38.92154766666667, "is_disabled": 0, "type": "electric_scooter", "lon": -77.036603, "bike_id": "efac31f2670b8efe003d3325c2d670a3", "fusion_lat": 0.0, "name": "efac31f2670b8efe003d3325c2d670a3", "is_reserved": 0, "rental_uris": {"android": "https://dc.lft.to/lastmile_qr_scan", "ios": "https://dc.lft.to/lastmile_qr_scan"}, "fusion_lon": 0.0}, {"lat": 38.8926045, "is_disabled": 0, "type": "electric_scooter", "lon": -76.9415505, "bike_id": "a94382a1d8dfaa1e79a4b8e7731bf4b5", "fusion_lat": 0.0, "name": "a94382a1d8dfaa1e79a4b8e7731bf4b5", "is_reserved": 0, "rental_uris": {"android": "https://dc.lft.to/lastmile_qr_scan", "ios": "https://dc.lft.to/lastmile_qr_scan"}, "fusion_lon": 0.0}, {"lat": 38.87406716666667, "is_disabled": 0, "type": "electric_scooter", "lon": -76.973061, "bike_id": "0128f35dec88797a2641f89e2e4c3442", "fusion_lat": 0.0, "name": "0128f35dec88797a2641f89e2e4c3442", "is_reserved": 0, "rental_uris": {"android": "https://dc.lft.to/lastmile_qr_scan", "ios": "https://dc.lft.to/lastmile_qr_scan"}, "fusion_lon": 0.0}, {"lat": 38.93420716666667, "is_disabled": 0, "type": "electric_scooter", "lon": -77.03270816666667, "bike_id": "e237ba0c0e28af0b758e50ae2eaae5e0", "fusion_lat": 0.0, "name": "e237ba0c0e28af0b758e50ae2eaae5e0", "is_reserved": 0, "rental_uris": {"android": "https://dc.lft.to/lastmile_qr_scan", "ios": "https://dc.lft.to/lastmile_qr_scan"}, "fusion_lon": 0.0}, {"lat": 38.93199666666667, "is_disabled": 0, "type": "electric_scooter", "lon": -77.0374575, "bike_id": "cd1b82e9046f551bf9cd491b5014c7ec", "fusion_lat": 0.0, "name": "cd1b82e9046f551bf9cd491b5014c7ec", "is_reserved": 0, "rental_uris": {"android": "https://dc.lft.to/lastmile_qr_scan", "ios": "https://dc.lft.to/lastmile_qr_scan"}, "fusion_lon": 0.0}, {"lat": 38.870648333333335, "is_disabled": 0, "type": "electric_scooter", "lon": -77.00839316666666, "bike_id": "46d9d8c37cd3981525124592692e8934", "fusion_lat": 0.0, "name": "46d9d8c37cd3981525124592692e8934", "is_reserved": 0, "rental_uris": {"android": "https://dc.lft.to/lastmile_qr_scan", "ios": "https://dc.lft.to/lastmile_qr_scan"}, "fusion_lon": 0.0}, {"lat": 38.90266733333333, "is_disabled": 0, "type": "electric_scooter", "lon": -77.0032865, "bike_id": "0eb95eb5c583b63b168c941c510386c9", "fusion_lat": 0.0, "name": "0eb95eb5c583b63b168c941c510386c9", "is_reserved": 0, "rental_uris": {"android": "https://dc.lft.to/lastmile_qr_scan", "ios": "https://dc.lft.to/lastmile_qr_scan"}, "fusion_lon": 0.0}, {"lat": 38.89503233333333, "is_disabled": 0, "type": "electric_scooter", "lon": -77.00323966666667, "bike_id": "621398468b3efaf9c508cc17c2e2525f", "fusion_lat": 0.0, "name": "621398468b3efaf9c508cc17c2e2525f", "is_reserved": 0, "rental_uris": {"android": "https://dc.lft.to/lastmile_qr_scan", "ios": "https://dc.lft.to/lastmile_qr_scan"}, "fusion_lon": 0.0}, {"lat": 38.90755083333333, "is_disabled": 0, "type": "electric_scooter", "lon": -77.0415965, "bike_id": "2b08cdffec35f12b6fef2db5e7f70cf7", "fusion_lat": 0.0, "name": "2b08cdffec35f12b6fef2db5e7f70cf7", "is_reserved": 0, "rental_uris": {"android": "https://dc.lft.to/lastmile_qr_scan", "ios": "https://dc.lft.to/lastmile_qr_scan"}, "fusion_lon": 0.0}, {"lat": 38.91681166666667, "is_disabled": 0, "type": "electric_scooter", "lon": -77.02971033333333, "bike_id": "d63e0cd5ee594e5fc119b3417a959c3c", "fusion_lat": 0.0, "name": "d63e0cd5ee594e5fc119b3417a959c3c", "is_reserved": 0, "rental_uris": {"android": "https://dc.lft.to/lastmile_qr_scan", "ios": "https://dc.lft.to/lastmile_qr_scan"}, "fusion_lon": 0.0}, {"lat": 38.9206975, "is_disabled": 0, "type": "electric_scooter", "lon": -77.02231316666666, "bike_id": "e05a325d84b07939a42aab8c1c1ff263", "fusion_lat": 0.0, "name": "e05a325d84b07939a42aab8c1c1ff263", "is_reserved": 0, "rental_uris": {"android": "https://dc.lft.to/lastmile_qr_scan", "ios": "https://dc.lft.to/lastmile_qr_scan"}, "fusion_lon": 0.0}, {"lat": 38.8791555, "is_disabled": 0, "type": "electric_scooter", "lon": -77.00881866666667, "bike_id": "84e8ab62ea7283e3e6a100bdbd91f872", "fusion_lat": 0.0, "name": "84e8ab62ea7283e3e6a100bdbd91f872", "is_reserved": 0, "rental_uris": {"android": "https://dc.lft.to/lastmile_qr_scan", "ios": "https://dc.lft.to/lastmile_qr_scan"}, "fusion_lon": 0.0}, {"lat": 38.9189005, "is_disabled": 0, "type": "electric_scooter", "lon": -77.04130883333333, "bike_id": "60088d325389ce9a214e4e02108e373d", "fusion_lat": 0.0, "name": "60088d325389ce9a214e4e02108e373d", "is_reserved": 0, "rental_uris": {"android": "https://dc.lft.to/lastmile_qr_scan", "ios": "https://dc.lft.to/lastmile_qr_scan"}, "fusion_lon": 0.0}, {"lat": 38.9000975, "is_disabled": 0, "type": "electric_scooter", "lon": -77.02159266666666, "bike_id": "96df2aa6726d6cb83ed5f60bd859d33e", "fusion_lat": 0.0, "name": "96df2aa6726d6cb83ed5f60bd859d33e", "is_reserved": 0, "rental_uris": {"android": "https://dc.lft.to/lastmile_qr_scan", "ios": "https://dc.lft.to/lastmile_qr_scan"}, "fusion_lon": 0.0}, {"lat": 38.8844025, "is_disabled": 0, "type": "electric_scooter", "lon": -77.01765866666666, "bike_id": "3417c1f33b89986a38f7f9f5f38ad2b7", "fusion_lat": 0.0, "name": "3417c1f33b89986a38f7f9f5f38ad2b7", "is_reserved": 0, "rental_uris": {"android": "https://dc.lft.to/lastmile_qr_scan", "ios": "https://dc.lft.to/lastmile_qr_scan"}, "fusion_lon": 0.0}, {"lat": 38.92054366666667, "is_disabled": 0, "type": "electric_scooter", "lon": -77.0243875, "bike_id": "f5744af579ef97bdc646a4ceb6a29eff", "fusion_lat": 0.0, "name": "f5744af579ef97bdc646a4ceb6a29eff", "is_reserved": 0, "rental_uris": {"android": "https://dc.lft.to/lastmile_qr_scan", "ios": "https://dc.lft.to/lastmile_qr_scan"}, "fusion_lon": 0.0}, {"lat": 38.90379016666667, "is_disabled": 0, "type": "electric_scooter", "lon": -77.0434385, "bike_id": "bd44148072e4911bf0fd163e89847e0e", "fusion_lat": 0.0, "name": "bd44148072e4911bf0fd163e89847e0e", "is_reserved": 0, "rental_uris": {"android": "https://dc.lft.to/lastmile_qr_scan", "ios": "https://dc.lft.to/lastmile_qr_scan"}, "fusion_lon": 0.0}, {"lat": 38.91057083333333, "is_disabled": 0, "type": "electric_scooter", "lon": -77.02652266666666, "bike_id": "559927cf20d49f8575ab4772aa501ac0", "fusion_lat": 0.0, "name": "559927cf20d49f8575ab4772aa501ac0", "is_reserved": 0, "rental_uris": {"android": "https://dc.lft.to/lastmile_qr_scan", "ios": "https://dc.lft.to/lastmile_qr_scan"}, "fusion_lon": 0.0}, {"lat": 38.869103, "is_disabled": 0, "type": "electric_bike", "lon": -77.131847, "bike_id": "51ff54d89bedd6814fe2597c6de23feb", "fusion_lat": 0.0, "name": "51ff54d89bedd6814fe2597c6de23feb", "is_reserved": 0, "rental_uris": {"android": "https://dc.lft.to/lastmile_qr_scan", "ios": "https://dc.lft.to/lastmile_qr_scan"}, "fusion_lon": 0.0}, {"lat": 38.95405016666667, "is_disabled": 0, "type": "electric_scooter", "lon": -77.036279, "bike_id": "e3a32cf00f90dff9af8254f53e838ce6", "fusion_lat": 0.0, "name": "e3a32cf00f90dff9af8254f53e838ce6", "is_reserved": 0, "rental_uris": {"android": "https://dc.lft.to/lastmile_qr_scan", "ios": "https://dc.lft.to/lastmile_qr_scan"}, "fusion_lon": 0.0}, {"lat": 38.886139666666665, "is_disabled": 0, "type": "electric_scooter", "lon": -77.02203333333334, "bike_id": "0874a93dd1c48663b49e8c314b16099a", "fusion_lat": 0.0, "name": "0874a93dd1c48663b49e8c314b16099a", "is_reserved": 0, "rental_uris": {"android": "https://dc.lft.to/lastmile_qr_scan", "ios": "https://dc.lft.to/lastmile_qr_scan"}, "fusion_lon": 0.0}, {"lat": 38.9205515, "is_disabled": 0, "type": "electric_scooter", "lon": -77.0418785, "bike_id": "0cc34355328cbf7a2eccad6b852d035f", "fusion_lat": 0.0, "name": "0cc34355328cbf7a2eccad6b852d035f", "is_reserved": 0, "rental_uris": {"android": "https://dc.lft.to/lastmile_qr_scan", "ios": "https://dc.lft.to/lastmile_qr_scan"}, "fusion_lon": 0.0}, {"lat": 38.84038616666667, "is_disabled": 0, "type": "electric_bike", "lon": -76.97623866666666, "bike_id": "31aa8311777ad3bcc27eb93b4816434b", "fusion_lat": 0.0, "name": "31aa8311777ad3bcc27eb93b4816434b", "is_reserved": 0, "rental_uris": {"android": "https://dc.lft.to/lastmile_qr_scan", "ios": "https://dc.lft.to/lastmile_qr_scan"}, "fusion_lon": 0.0}, {"lat": 38.9174755, "is_disabled": 0, "type": "electric_scooter", "lon": -77.00753816666666, "bike_id": "4cf9bdb495764cffb69a7947bca9df1f", "fusion_lat": 0.0, "name": "4cf9bdb495764cffb69a7947bca9df1f", "is_reserved": 0, "rental_uris": {"android": "https://dc.lft.to/lastmile_qr_scan", "ios": "https://dc.lft.to/lastmile_qr_scan"}, "fusion_lon": 0.0}, {"lat": 38.93174916666667, "is_disabled": 0, "type": "electric_scooter", "lon": -77.02811616666666, "bike_id": "137c796a59cbd17eb6de7cb3f38c85b1", "fusion_lat": 0.0, "name": "137c796a59cbd17eb6de7cb3f38c85b1", "is_reserved": 0, "rental_uris": {"android": "https://dc.lft.to/lastmile_qr_scan", "ios": "https://dc.lft.to/lastmile_qr_scan"}, "fusion_lon": 0.0}, {"lat": 38.92114316666667, "is_disabled": 0, "type": "electric_scooter", "lon": -77.04211466666666, "bike_id": "3a38c9fb88d3855f9515e8088b0e75a8", "fusion_lat": 0.0, "name": "3a38c9fb88d3855f9515e8088b0e75a8", "is_reserved": 0, "rental_uris": {"android": "https://dc.lft.to/lastmile_qr_scan", "ios": "https://dc.lft.to/lastmile_qr_scan"}, "fusion_lon": 0.0}, {"lat": 38.905507, "is_disabled": 0, "type": "electric_scooter", "lon": -77.03405783333334, "bike_id": "1c8b68e143fd99a60ac8f6bd86e322ff", "fusion_lat": 0.0, "name": "1c8b68e143fd99a60ac8f6bd86e322ff", "is_reserved": 0, "rental_uris": {"android": "https://dc.lft.to/lastmile_qr_scan", "ios": "https://dc.lft.to/lastmile_qr_scan"}, "fusion_lon": 0.0}, {"lat": 38.890456666666665, "is_disabled": 0, "type": "electric_scooter", "lon": -76.95140333333333, "bike_id": "c4547c54d0604814f985aaeeacfbbed8", "fusion_lat": 0.0, "name": "c4547c54d0604814f985aaeeacfbbed8", "is_reserved": 0, "rental_uris": {"android": "https://dc.lft.to/lastmile_qr_scan", "ios": "https://dc.lft.to/lastmile_qr_scan"}, "fusion_lon": 0.0}, {"lat": 38.90735183333334, "is_disabled": 0, "type": "electric_scooter", "lon": -77.03203183333333, "bike_id": "7378d759a59af6b14c23ca32008b1b3d", "fusion_lat": 0.0, "name": "7378d759a59af6b14c23ca32008b1b3d", "is_reserved": 0, "rental_uris": {"android": "https://dc.lft.to/lastmile_qr_scan", "ios": "https://dc.lft.to/lastmile_qr_scan"}, "fusion_lon": 0.0}, {"lat": 38.910507333333335, "is_disabled": 0, "type": "electric_scooter", "lon": -77.01512483333333, "bike_id": "9fd0624d46c606d1920f638fac9964be", "fusion_lat": 0.0, "name": "9fd0624d46c606d1920f638fac9964be", "is_reserved": 0, "rental_uris": {"android": "https://dc.lft.to/lastmile_qr_scan", "ios": "https://dc.lft.to/lastmile_qr_scan"}, "fusion_lon": 0.0}, {"lat": 38.9065315, "is_disabled": 0, "type": "electric_scooter", "lon": -77.02587683333333, "bike_id": "8a4d11f36d28d515824bd018f35f5c8f", "fusion_lat": 0.0, "name": "8a4d11f36d28d515824bd018f35f5c8f", "is_reserved": 0, "rental_uris": {"android": "https://dc.lft.to/lastmile_qr_scan", "ios": "https://dc.lft.to/lastmile_qr_scan"}, "fusion_lon": 0.0}, {"lat": 38.90765483333333, "is_disabled": 0, "type": "electric_scooter", "lon": -77.04250433333333, "bike_id": "22451bfba454d1a94e753efd604425bd", "fusion_lat": 0.0, "name": "22451bfba454d1a94e753efd604425bd", "is_reserved": 0, "rental_uris": {"android": "https://dc.lft.to/lastmile_qr_scan", "ios": "https://dc.lft.to/lastmile_qr_scan"}, "fusion_lon": 0.0}, {"lat": 38.9010105, "is_disabled": 0, "type": "electric_scooter", "lon": -76.98484416666666, "bike_id": "7f25791dc144e7de2302d5b97a1389fb", "fusion_lat": 0.0, "name": "7f25791dc144e7de2302d5b97a1389fb", "is_reserved": 0, "rental_uris": {"android": "https://dc.lft.to/lastmile_qr_scan", "ios": "https://dc.lft.to/lastmile_qr_scan"}, "fusion_lon": 0.0}, {"lat": 38.934186833333335, "is_disabled": 0, "type": "electric_scooter", "lon": -77.057816, "bike_id": "dfd077ca645062d9a2488fb74b1fd48b", "fusion_lat": 0.0, "name": "dfd077ca645062d9a2488fb74b1fd48b", "is_reserved": 0, "rental_uris": {"android": "https://dc.lft.to/lastmile_qr_scan", "ios": "https://dc.lft.to/lastmile_qr_scan"}, "fusion_lon": 0.0}, {"lat": 38.85685516666667, "is_disabled": 0, "type": "electric_scooter", "lon": -76.98174566666667, "bike_id": "8c05bd5b5470f3c4838d6be2a428be6c", "fusion_lat": 0.0, "name": "8c05bd5b5470f3c4838d6be2a428be6c", "is_reserved": 0, "rental_uris": {"android": "https://dc.lft.to/lastmile_qr_scan", "ios": "https://dc.lft.to/lastmile_qr_scan"}, "fusion_lon": 0.0}, {"lat": 38.98278033333333, "is_disabled": 0, "type": "electric_bike", "lon": -77.0253895, "bike_id": "d84087b69bf9dbc51b56602515ac7e86", "fusion_lat": 0.0, "name": "d84087b69bf9dbc51b56602515ac7e86", "is_reserved": 0, "rental_uris": {"android": "https://dc.lft.to/lastmile_qr_scan", "ios": "https://dc.lft.to/lastmile_qr_scan"}, "fusion_lon": 0.0}, {"lat": 38.895465333333334, "is_disabled": 0, "type": "electric_scooter", "lon": -77.00437116666667, "bike_id": "32ff55e684ad3c632ce1b2fa6be7e2e1", "fusion_lat": 0.0, "name": "32ff55e684ad3c632ce1b2fa6be7e2e1", "is_reserved": 0, "rental_uris": {"android": "https://dc.lft.to/lastmile_qr_scan", "ios": "https://dc.lft.to/lastmile_qr_scan"}, "fusion_lon": 0.0}, {"lat": 38.837307333333335, "is_disabled": 0, "type": "electric_bike", "lon": -76.9976125, "bike_id": "9c0aa56c6c6d7347685a980de401eb8c", "fusion_lat": 0.0, "name": "9c0aa56c6c6d7347685a980de401eb8c", "is_reserved": 0, "rental_uris": {"android": "https://dc.lft.to/lastmile_qr_scan", "ios": "https://dc.lft.to/lastmile_qr_scan"}, "fusion_lon": 0.0}, {"lat": 38.9013215, "is_disabled": 0, "type": "electric_scooter", "lon": -77.02933933333334, "bike_id": "48fd824f892b6c33543073b578d5bde0", "fusion_lat": 0.0, "name": "48fd824f892b6c33543073b578d5bde0", "is_reserved": 0, "rental_uris": {"android": "https://dc.lft.to/lastmile_qr_scan", "ios": "https://dc.lft.to/lastmile_qr_scan"}, "fusion_lon": 0.0}, {"lat": 38.911119666666664, "is_disabled": 0, "type": "electric_scooter", "lon": -77.03826, "bike_id": "ca3414422cf418f82f8c23c23c16bce9", "fusion_lat": 0.0, "name": "ca3414422cf418f82f8c23c23c16bce9", "is_reserved": 0, "rental_uris": {"android": "https://dc.lft.to/lastmile_qr_scan", "ios": "https://dc.lft.to/lastmile_qr_scan"}, "fusion_lon": 0.0}, {"lat": 38.88490083333333, "is_disabled": 0, "type": "electric_scooter", "lon": -77.03471766666667, "bike_id": "21d9a0637b251e073663c38191a86614", "fusion_lat": 0.0, "name": "21d9a0637b251e073663c38191a86614", "is_reserved": 0, "rental_uris": {"android": "https://dc.lft.to/lastmile_qr_scan", "ios": "https://dc.lft.to/lastmile_qr_scan"}, "fusion_lon": 0.0}, {"lat": 38.92664633333333, "is_disabled": 0, "type": "electric_scooter", "lon": -76.9975235, "bike_id": "ee5d8f0a0a228e9dacc4c17b297b9b66", "fusion_lat": 0.0, "name": "ee5d8f0a0a228e9dacc4c17b297b9b66", "is_reserved": 0, "rental_uris": {"android": "https://dc.lft.to/lastmile_qr_scan", "ios": "https://dc.lft.to/lastmile_qr_scan"}, "fusion_lon": 0.0}, {"lat": 38.92252166666667, "is_disabled": 0, "type": "electric_scooter", "lon": -77.0424585, "bike_id": "6a429b29d8153e20b02964a7bc4cfc88", "fusion_lat": 0.0, "name": "6a429b29d8153e20b02964a7bc4cfc88", "is_reserved": 0, "rental_uris": {"android": "https://dc.lft.to/lastmile_qr_scan", "ios": "https://dc.lft.to/lastmile_qr_scan"}, "fusion_lon": 0.0}, {"lat": 38.934112666666664, "is_disabled": 0, "type": "electric_scooter", "lon": -77.0246145, "bike_id": "ca8714606e9c0b468209474f8654e191", "fusion_lat": 0.0, "name": "ca8714606e9c0b468209474f8654e191", "is_reserved": 0, "rental_uris": {"android": "https://dc.lft.to/lastmile_qr_scan", "ios": "https://dc.lft.to/lastmile_qr_scan"}, "fusion_lon": 0.0}, {"lat": 38.898986, "is_disabled": 0, "type": "electric_scooter", "lon": -77.02172316666666, "bike_id": "e35b68e1d8743131991af5ba5a096ca0", "fusion_lat": 0.0, "name": "e35b68e1d8743131991af5ba5a096ca0", "is_reserved": 0, "rental_uris": {"android": "https://dc.lft.to/lastmile_qr_scan", "ios": "https://dc.lft.to/lastmile_qr_scan"}, "fusion_lon": 0.0}, {"lat": 38.865095, "is_disabled": 0, "type": "electric_scooter", "lon": -76.9900735, "bike_id": "b61e4bf21e472f829bfb73bfe5b5b647", "fusion_lat": 0.0, "name": "b61e4bf21e472f829bfb73bfe5b5b647", "is_reserved": 0, "rental_uris": {"android": "https://dc.lft.to/lastmile_qr_scan", "ios": "https://dc.lft.to/lastmile_qr_scan"}, "fusion_lon": 0.0}, {"lat": 38.842758833333335, "is_disabled": 0, "type": "electric_bike", "lon": -76.98850266666666, "bike_id": "2531ba1e98cbf1c5408ccd76a49ccc8e", "fusion_lat": 0.0, "name": "2531ba1e98cbf1c5408ccd76a49ccc8e", "is_reserved": 0, "rental_uris": {"android": "https://dc.lft.to/lastmile_qr_scan", "ios": "https://dc.lft.to/lastmile_qr_scan"}, "fusion_lon": 0.0}, {"lat": 38.909759666666666, "is_disabled": 0, "type": "electric_scooter", "lon": -77.032217, "bike_id": "b9f57e5591d7ba7d70b76714a8ee59b4", "fusion_lat": 0.0, "name": "b9f57e5591d7ba7d70b76714a8ee59b4", "is_reserved": 0, "rental_uris": {"android": "https://dc.lft.to/lastmile_qr_scan", "ios": "https://dc.lft.to/lastmile_qr_scan"}, "fusion_lon": 0.0}, {"lat": 38.917895333333334, "is_disabled": 0, "type": "electric_scooter", "lon": -77.0223445, "bike_id": "a97480fcefa5a18cb6f12fa331d9f8cd", "fusion_lat": 0.0, "name": "a97480fcefa5a18cb6f12fa331d9f8cd", "is_reserved": 0, "rental_uris": {"android": "https://dc.lft.to/lastmile_qr_scan", "ios": "https://dc.lft.to/lastmile_qr_scan"}, "fusion_lon": 0.0}, {"lat": 38.931470166666664, "is_disabled": 0, "type": "electric_scooter", "lon": -77.0214305, "bike_id": "ea697e484e710455e7f14ccb4421fe33", "fusion_lat": 0.0, "name": "ea697e484e710455e7f14ccb4421fe33", "is_reserved": 0, "rental_uris": {"android": "https://dc.lft.to/lastmile_qr_scan", "ios": "https://dc.lft.to/lastmile_qr_scan"}, "fusion_lon": 0.0}, {"lat": 38.895996833333335, "is_disabled": 0, "type": "electric_scooter", "lon": -76.9552145, "bike_id": "3efee4dfcfbd7ab55467d90b4232af50", "fusion_lat": 0.0, "name": "3efee4dfcfbd7ab55467d90b4232af50", "is_reserved": 0, "rental_uris": {"android": "https://dc.lft.to/lastmile_qr_scan", "ios": "https://dc.lft.to/lastmile_qr_scan"}, "fusion_lon": 0.0}, {"lat": 38.90029366666667, "is_disabled": 0, "type": "electric_scooter", "lon": -76.98367733333333, "bike_id": "ff0ea8ab92fd03d6a49491c65a71ef7a", "fusion_lat": 0.0, "name": "ff0ea8ab92fd03d6a49491c65a71ef7a", "is_reserved": 0, "rental_uris": {"android": "https://dc.lft.to/lastmile_qr_scan", "ios": "https://dc.lft.to/lastmile_qr_scan"}, "fusion_lon": 0.0}, {"lat": 38.940702, "is_disabled": 0, "type": "electric_scooter", "lon": -76.9946525, "bike_id": "1c3020e935c662cfbb5643ad47d4aacf", "fusion_lat": 0.0, "name": "1c3020e935c662cfbb5643ad47d4aacf", "is_reserved": 0, "rental_uris": {"android": "https://dc.lft.to/lastmile_qr_scan", "ios": "https://dc.lft.to/lastmile_qr_scan"}, "fusion_lon": 0.0}, {"lat": 38.850272, "is_disabled": 0, "type": "electric_bike", "lon": -77.09803433333333, "bike_id": "b9bb6787ce01d7a19bd8c5c7415fb15f", "fusion_lat": 0.0, "name": "b9bb6787ce01d7a19bd8c5c7415fb15f", "is_reserved": 0, "rental_uris": {"android": "https://dc.lft.to/lastmile_qr_scan", "ios": "https://dc.lft.to/lastmile_qr_scan"}, "fusion_lon": 0.0}, {"lat": 38.89708016666667, "is_disabled": 0, "type": "electric_scooter", "lon": -77.02287283333334, "bike_id": "21ba7e2c883bdc3d509c46b83183bf63", "fusion_lat": 0.0, "name": "21ba7e2c883bdc3d509c46b83183bf63", "is_reserved": 0, "rental_uris": {"android": "https://dc.lft.to/lastmile_qr_scan", "ios": "https://dc.lft.to/lastmile_qr_scan"}, "fusion_lon": 0.0}, {"lat": 38.901937833333335, "is_disabled": 0, "type": "electric_scooter", "lon": -77.02377283333334, "bike_id": "3fea07d9756149adca56fb6155845dd3", "fusion_lat": 0.0, "name": "3fea07d9756149adca56fb6155845dd3", "is_reserved": 0, "rental_uris": {"android": "https://dc.lft.to/lastmile_qr_scan", "ios": "https://dc.lft.to/lastmile_qr_scan"}, "fusion_lon": 0.0}, {"lat": 38.89762833333333, "is_disabled": 0, "type": "electric_scooter", "lon": -77.05009283333334, "bike_id": "54ea01ed830852c5391cf1273c95376a", "fusion_lat": 0.0, "name": "54ea01ed830852c5391cf1273c95376a", "is_reserved": 0, "rental_uris": {"android": "https://dc.lft.to/lastmile_qr_scan", "ios": "https://dc.lft.to/lastmile_qr_scan"}, "fusion_lon": 0.0}, {"lat": 38.88482166666667, "is_disabled": 0, "type": "electric_scooter", "lon": -76.94529366666667, "bike_id": "ce8c16658e2dfae77bf1d5b760d8ca52", "fusion_lat": 0.0, "name": "ce8c16658e2dfae77bf1d5b760d8ca52", "is_reserved": 0, "rental_uris": {"android": "https://dc.lft.to/lastmile_qr_scan", "ios": "https://dc.lft.to/lastmile_qr_scan"}, "fusion_lon": 0.0}, {"lat": 38.8876865, "is_disabled": 0, "type": "electric_scooter", "lon": -76.9835145, "bike_id": "a0dff4fe31693c0121f1c2228237dbb2", "fusion_lat": 0.0, "name": "a0dff4fe31693c0121f1c2228237dbb2", "is_reserved": 0, "rental_uris": {"android": "https://dc.lft.to/lastmile_qr_scan", "ios": "https://dc.lft.to/lastmile_qr_scan"}, "fusion_lon": 0.0}, {"lat": 38.93578633333333, "is_disabled": 0, "type": "electric_scooter", "lon": -77.037497, "bike_id": "d10e9bdb05fbe89859fe60d8b9c4902a", "fusion_lat": 0.0, "name": "d10e9bdb05fbe89859fe60d8b9c4902a", "is_reserved": 0, "rental_uris": {"android": "https://dc.lft.to/lastmile_qr_scan", "ios": "https://dc.lft.to/lastmile_qr_scan"}, "fusion_lon": 0.0}, {"lat": 38.9096775, "is_disabled": 0, "type": "electric_scooter", "lon": -77.03904366666667, "bike_id": "2bfc626dc65f24a5fd772bb208101049", "fusion_lat": 0.0, "name": "2bfc626dc65f24a5fd772bb208101049", "is_reserved": 0, "rental_uris": {"android": "https://dc.lft.to/lastmile_qr_scan", "ios": "https://dc.lft.to/lastmile_qr_scan"}, "fusion_lon": 0.0}, {"lat": 38.90754166666667, "is_disabled": 0, "type": "electric_scooter", "lon": -77.04163533333333, "bike_id": "9e526500a105512e0d69bb5d6451e527", "fusion_lat": 0.0, "name": "9e526500a105512e0d69bb5d6451e527", "is_reserved": 0, "rental_uris": {"android": "https://dc.lft.to/lastmile_qr_scan", "ios": "https://dc.lft.to/lastmile_qr_scan"}, "fusion_lon": 0.0}, {"lat": 38.903382, "is_disabled": 0, "type": "electric_scooter", "lon": -76.97056883333333, "bike_id": "aade69b6aabd8cc1f217e2efd1b7266d", "fusion_lat": 0.0, "name": "aade69b6aabd8cc1f217e2efd1b7266d", "is_reserved": 0, "rental_uris": {"android": "https://dc.lft.to/lastmile_qr_scan", "ios": "https://dc.lft.to/lastmile_qr_scan"}, "fusion_lon": 0.0}, {"lat": 38.908053833333334, "is_disabled": 0, "type": "electric_scooter", "lon": -77.03132633333334, "bike_id": "f2038394e91ea3286339f53f71e77a66", "fusion_lat": 0.0, "name": "f2038394e91ea3286339f53f71e77a66", "is_reserved": 0, "rental_uris": {"android": "https://dc.lft.to/lastmile_qr_scan", "ios": "https://dc.lft.to/lastmile_qr_scan"}, "fusion_lon": 0.0}, {"lat": 38.95081416666667, "is_disabled": 0, "type": "electric_bike", "lon": -77.012066, "bike_id": "337e7d684900de4482585e37036f0677", "fusion_lat": 0.0, "name": "337e7d684900de4482585e37036f0677", "is_reserved": 0, "rental_uris": {"android": "https://dc.lft.to/lastmile_qr_scan", "ios": "https://dc.lft.to/lastmile_qr_scan"}, "fusion_lon": 0.0}, {"lat": 38.91191666666667, "is_disabled": 0, "type": "electric_scooter", "lon": -77.04472916666667, "bike_id": "b7aada3a0ea75968e153f11924dfe1bc", "fusion_lat": 0.0, "name": "b7aada3a0ea75968e153f11924dfe1bc", "is_reserved": 0, "rental_uris": {"android": "https://dc.lft.to/lastmile_qr_scan", "ios": "https://dc.lft.to/lastmile_qr_scan"}, "fusion_lon": 0.0}, {"lat": 38.90067033333333, "is_disabled": 0, "type": "electric_scooter", "lon": -77.05051916666666, "bike_id": "09a81f1300a5ef9eaa471f1cf6656109", "fusion_lat": 0.0, "name": "09a81f1300a5ef9eaa471f1cf6656109", "is_reserved": 0, "rental_uris": {"android": "https://dc.lft.to/lastmile_qr_scan", "ios": "https://dc.lft.to/lastmile_qr_scan"}, "fusion_lon": 0.0}, {"lat": 38.866203, "is_disabled": 0, "type": "electric_scooter", "lon": -76.9866205, "bike_id": "ba993ce01c7e0c6b0d152595914520b4", "fusion_lat": 0.0, "name": "ba993ce01c7e0c6b0d152595914520b4", "is_reserved": 0, "rental_uris": {"android": "https://dc.lft.to/lastmile_qr_scan", "ios": "https://dc.lft.to/lastmile_qr_scan"}, "fusion_lon": 0.0}, {"lat": 38.91564866666667, "is_disabled": 0, "type": "electric_scooter", "lon": -77.00980633333333, "bike_id": "43444b7feb394984b1c7e40b326a1320", "fusion_lat": 0.0, "name": "43444b7feb394984b1c7e40b326a1320", "is_reserved": 0, "rental_uris": {"android": "https://dc.lft.to/lastmile_qr_scan", "ios": "https://dc.lft.to/lastmile_qr_scan"}, "fusion_lon": 0.0}, {"lat": 38.90854983333333, "is_disabled": 0, "type": "electric_scooter", "lon": -77.01017433333334, "bike_id": "2bdf3a8ead5b67aec6ea01a65eef8f8c", "fusion_lat": 0.0, "name": "2bdf3a8ead5b67aec6ea01a65eef8f8c", "is_reserved": 0, "rental_uris": {"android": "https://dc.lft.to/lastmile_qr_scan", "ios": "https://dc.lft.to/lastmile_qr_scan"}, "fusion_lon": 0.0}, {"lat": 38.908869833333334, "is_disabled": 0, "type": "electric_scooter", "lon": -77.03665816666667, "bike_id": "608cd14a1eb144e514a8d088a8a38f56", "fusion_lat": 0.0, "name": "608cd14a1eb144e514a8d088a8a38f56", "is_reserved": 0, "rental_uris": {"android": "https://dc.lft.to/lastmile_qr_scan", "ios": "https://dc.lft.to/lastmile_qr_scan"}, "fusion_lon": 0.0}, {"lat": 38.914921166666666, "is_disabled": 0, "type": "electric_scooter", "lon": -76.98348433333334, "bike_id": "81aa223f836a076e6d74dc08392bc27c", "fusion_lat": 0.0, "name": "81aa223f836a076e6d74dc08392bc27c", "is_reserved": 0, "rental_uris": {"android": "https://dc.lft.to/lastmile_qr_scan", "ios": "https://dc.lft.to/lastmile_qr_scan"}, "fusion_lon": 0.0}, {"lat": 38.89425383333333, "is_disabled": 0, "type": "electric_scooter", "lon": -77.0209285, "bike_id": "12d8780e4cb5d622818f9601fb2fac84", "fusion_lat": 0.0, "name": "12d8780e4cb5d622818f9601fb2fac84", "is_reserved": 0, "rental_uris": {"android": "https://dc.lft.to/lastmile_qr_scan", "ios": "https://dc.lft.to/lastmile_qr_scan"}, "fusion_lon": 0.0}, {"lat": 38.8828235, "is_disabled": 0, "type": "electric_bike", "lon": -76.93237666666667, "bike_id": "d3a980ce924f5be78ca806d5e869d5d1", "fusion_lat": 0.0, "name": "d3a980ce924f5be78ca806d5e869d5d1", "is_reserved": 0, "rental_uris": {"android": "https://dc.lft.to/lastmile_qr_scan", "ios": "https://dc.lft.to/lastmile_qr_scan"}, "fusion_lon": 0.0}, {"lat": 38.95737866666666, "is_disabled": 0, "type": "electric_scooter", "lon": -77.02378816666666, "bike_id": "733f8b21e70b7284539ea63ceda2f6b6", "fusion_lat": 0.0, "name": "733f8b21e70b7284539ea63ceda2f6b6", "is_reserved": 0, "rental_uris": {"android": "https://dc.lft.to/lastmile_qr_scan", "ios": "https://dc.lft.to/lastmile_qr_scan"}, "fusion_lon": 0.0}, {"lat": 38.86223533333333, "is_disabled": 0, "type": "electric_scooter", "lon": -76.98362366666667, "bike_id": "b3dd428ca7a2ea3f7496ed1d0c692c68", "fusion_lat": 0.0, "name": "b3dd428ca7a2ea3f7496ed1d0c692c68", "is_reserved": 0, "rental_uris": {"android": "https://dc.lft.to/lastmile_qr_scan", "ios": "https://dc.lft.to/lastmile_qr_scan"}, "fusion_lon": 0.0}, {"lat": 38.90736966666667, "is_disabled": 0, "type": "electric_scooter", "lon": -77.03444933333333, "bike_id": "8f6622f41388167cace8879d035b3cbf", "fusion_lat": 0.0, "name": "8f6622f41388167cace8879d035b3cbf", "is_reserved": 0, "rental_uris": {"android": "https://dc.lft.to/lastmile_qr_scan", "ios": "https://dc.lft.to/lastmile_qr_scan"}, "fusion_lon": 0.0}, {"lat": 38.864486166666666, "is_disabled": 0, "type": "electric_bike", "lon": -76.9453445, "bike_id": "97c49743d009cf0cd4cad1b54efc46a2", "fusion_lat": 0.0, "name": "97c49743d009cf0cd4cad1b54efc46a2", "is_reserved": 0, "rental_uris": {"android": "https://dc.lft.to/lastmile_qr_scan", "ios": "https://dc.lft.to/lastmile_qr_scan"}, "fusion_lon": 0.0}, {"lat": 38.9613785, "is_disabled": 0, "type": "electric_scooter", "lon": -77.02234183333333, "bike_id": "c24ee7273ad286f7856ecc7f7836a576", "fusion_lat": 0.0, "name": "c24ee7273ad286f7856ecc7f7836a576", "is_reserved": 0, "rental_uris": {"android": "https://dc.lft.to/lastmile_qr_scan", "ios": "https://dc.lft.to/lastmile_qr_scan"}, "fusion_lon": 0.0}, {"lat": 38.91566383333333, "is_disabled": 0, "type": "electric_scooter", "lon": -77.03158733333333, "bike_id": "56e37060b3969dd924cdbf28a125f490", "fusion_lat": 0.0, "name": "56e37060b3969dd924cdbf28a125f490", "is_reserved": 0, "rental_uris": {"android": "https://dc.lft.to/lastmile_qr_scan", "ios": "https://dc.lft.to/lastmile_qr_scan"}, "fusion_lon": 0.0}, {"lat": 38.8607665, "is_disabled": 0, "type": "electric_scooter", "lon": -76.992616, "bike_id": "2793af6969512749b3d5953ebd79dfd7", "fusion_lat": 0.0, "name": "2793af6969512749b3d5953ebd79dfd7", "is_reserved": 0, "rental_uris": {"android": "https://dc.lft.to/lastmile_qr_scan", "ios": "https://dc.lft.to/lastmile_qr_scan"}, "fusion_lon": 0.0}, {"lat": 38.899558166666665, "is_disabled": 0, "type": "electric_scooter", "lon": -77.02142933333333, "bike_id": "20ed13d75d368cad000a158892291cd6", "fusion_lat": 0.0, "name": "20ed13d75d368cad000a158892291cd6", "is_reserved": 0, "rental_uris": {"android": "https://dc.lft.to/lastmile_qr_scan", "ios": "https://dc.lft.to/lastmile_qr_scan"}, "fusion_lon": 0.0}, {"lat": 38.9224805, "is_disabled": 0, "type": "electric_scooter", "lon": -77.027208, "bike_id": "0ce5d3d8fe2371ea6d03e2630992cd02", "fusion_lat": 0.0, "name": "0ce5d3d8fe2371ea6d03e2630992cd02", "is_reserved": 0, "rental_uris": {"android": "https://dc.lft.to/lastmile_qr_scan", "ios": "https://dc.lft.to/lastmile_qr_scan"}, "fusion_lon": 0.0}, {"lat": 38.9297695, "is_disabled": 0, "type": "electric_scooter", "lon": -77.01299833333333, "bike_id": "4dfe6428c00de098652d3d10829f5f1c", "fusion_lat": 0.0, "name": "4dfe6428c00de098652d3d10829f5f1c", "is_reserved": 0, "rental_uris": {"android": "https://dc.lft.to/lastmile_qr_scan", "ios": "https://dc.lft.to/lastmile_qr_scan"}, "fusion_lon": 0.0}, {"lat": 38.87147816666667, "is_disabled": 0, "type": "electric_bike", "lon": -76.9370495, "bike_id": "8836c283edd63c8761b36905c2bc3d52", "fusion_lat": 0.0, "name": "8836c283edd63c8761b36905c2bc3d52", "is_reserved": 0, "rental_uris": {"android": "https://dc.lft.to/lastmile_qr_scan", "ios": "https://dc.lft.to/lastmile_qr_scan"}, "fusion_lon": 0.0}, {"lat": 39.015928833333334, "is_disabled": 0, "type": "electric_bike", "lon": -77.04426366666667, "bike_id": "a8aa8e8fa7e84220483b4441408f9092", "fusion_lat": 0.0, "name": "a8aa8e8fa7e84220483b4441408f9092", "is_reserved": 0, "rental_uris": {"android": "https://dc.lft.to/lastmile_qr_scan", "ios": "https://dc.lft.to/lastmile_qr_scan"}, "fusion_lon": 0.0}, {"lat": 38.900066, "is_disabled": 0, "type": "electric_scooter", "lon": -76.99850566666667, "bike_id": "499cb32f1dd90c72dacda13dca968eba", "fusion_lat": 0.0, "name": "499cb32f1dd90c72dacda13dca968eba", "is_reserved": 0, "rental_uris": {"android": "https://dc.lft.to/lastmile_qr_scan", "ios": "https://dc.lft.to/lastmile_qr_scan"}, "fusion_lon": 0.0}, {"lat": 38.91185466666667, "is_disabled": 0, "type": "electric_scooter", "lon": -77.03220633333333, "bike_id": "6400c0b7a6d18e4b3fe7165eef6f6f09", "fusion_lat": 0.0, "name": "6400c0b7a6d18e4b3fe7165eef6f6f09", "is_reserved": 0, "rental_uris": {"android": "https://dc.lft.to/lastmile_qr_scan", "ios": "https://dc.lft.to/lastmile_qr_scan"}, "fusion_lon": 0.0}, {"lat": 38.922173666666666, "is_disabled": 0, "type": "electric_scooter", "lon": -77.03292283333333, "bike_id": "fd81fb53992c3123d9258662d9031c89", "fusion_lat": 0.0, "name": "fd81fb53992c3123d9258662d9031c89", "is_reserved": 0, "rental_uris": {"android": "https://dc.lft.to/lastmile_qr_scan", "ios": "https://dc.lft.to/lastmile_qr_scan"}, "fusion_lon": 0.0}, {"lat": 38.891233666666665, "is_disabled": 0, "type": "electric_scooter", "lon": -76.94090383333334, "bike_id": "74196d9b88464b2054b0d96026233f1a", "fusion_lat": 0.0, "name": "74196d9b88464b2054b0d96026233f1a", "is_reserved": 0, "rental_uris": {"android": "https://dc.lft.to/lastmile_qr_scan", "ios": "https://dc.lft.to/lastmile_qr_scan"}, "fusion_lon": 0.0}, {"lat": 38.9026065, "is_disabled": 0, "type": "electric_scooter", "lon": -77.0192615, "bike_id": "ed8ea5892485a37844ba9590c8771e44", "fusion_lat": 0.0, "name": "ed8ea5892485a37844ba9590c8771e44", "is_reserved": 0, "rental_uris": {"android": "https://dc.lft.to/lastmile_qr_scan", "ios": "https://dc.lft.to/lastmile_qr_scan"}, "fusion_lon": 0.0}, {"lat": 38.93555666666666, "is_disabled": 0, "type": "electric_scooter", "lon": -77.05868233333334, "bike_id": "cdb78657b23eb310256e57412ab6467e", "fusion_lat": 0.0, "name": "cdb78657b23eb310256e57412ab6467e", "is_reserved": 0, "rental_uris": {"android": "https://dc.lft.to/lastmile_qr_scan", "ios": "https://dc.lft.to/lastmile_qr_scan"}, "fusion_lon": 0.0}, {"lat": 38.905258833333335, "is_disabled": 0, "type": "electric_scooter", "lon": -77.0270745, "bike_id": "5370295934c19ac6823f39455d556819", "fusion_lat": 0.0, "name": "5370295934c19ac6823f39455d556819", "is_reserved": 0, "rental_uris": {"android": "https://dc.lft.to/lastmile_qr_scan", "ios": "https://dc.lft.to/lastmile_qr_scan"}, "fusion_lon": 0.0}, {"lat": 38.96097983333333, "is_disabled": 0, "type": "electric_scooter", "lon": -77.082859, "bike_id": "3423646bdae6e224791e434dd461dcad", "fusion_lat": 0.0, "name": "3423646bdae6e224791e434dd461dcad", "is_reserved": 0, "rental_uris": {"android": "https://dc.lft.to/lastmile_qr_scan", "ios": "https://dc.lft.to/lastmile_qr_scan"}, "fusion_lon": 0.0}, {"lat": 38.917710666666665, "is_disabled": 0, "type": "electric_scooter", "lon": -77.04097416666667, "bike_id": "c3b7dcbb71545f54032963b75874866b", "fusion_lat": 0.0, "name": "c3b7dcbb71545f54032963b75874866b", "is_reserved": 0, "rental_uris": {"android": "https://dc.lft.to/lastmile_qr_scan", "ios": "https://dc.lft.to/lastmile_qr_scan"}, "fusion_lon": 0.0}, {"lat": 38.896928333333335, "is_disabled": 0, "type": "electric_scooter", "lon": -77.00490633333334, "bike_id": "2792a4f68fda37d3a0239daa184449f6", "fusion_lat": 0.0, "name": "2792a4f68fda37d3a0239daa184449f6", "is_reserved": 0, "rental_uris": {"android": "https://dc.lft.to/lastmile_qr_scan", "ios": "https://dc.lft.to/lastmile_qr_scan"}, "fusion_lon": 0.0}, {"lat": 38.94310616666667, "is_disabled": 0, "type": "electric_scooter", "lon": -77.0613355, "bike_id": "1d2f4b491b16d60a7eca2a7444ca5552", "fusion_lat": 0.0, "name": "1d2f4b491b16d60a7eca2a7444ca5552", "is_reserved": 0, "rental_uris": {"android": "https://dc.lft.to/lastmile_qr_scan", "ios": "https://dc.lft.to/lastmile_qr_scan"}, "fusion_lon": 0.0}, {"lat": 38.9248485, "is_disabled": 0, "type": "electric_scooter", "lon": -77.03484516666667, "bike_id": "a00f0b849223b3228f468799d883f578", "fusion_lat": 0.0, "name": "a00f0b849223b3228f468799d883f578", "is_reserved": 0, "rental_uris": {"android": "https://dc.lft.to/lastmile_qr_scan", "ios": "https://dc.lft.to/lastmile_qr_scan"}, "fusion_lon": 0.0}, {"lat": 38.894875666666664, "is_disabled": 0, "type": "electric_scooter", "lon": -77.0025575, "bike_id": "9f99f49a7ff4d991314db7df1432b8bb", "fusion_lat": 0.0, "name": "9f99f49a7ff4d991314db7df1432b8bb", "is_reserved": 0, "rental_uris": {"android": "https://dc.lft.to/lastmile_qr_scan", "ios": "https://dc.lft.to/lastmile_qr_scan"}, "fusion_lon": 0.0}, {"lat": 38.886404, "is_disabled": 0, "type": "electric_scooter", "lon": -76.95488466666667, "bike_id": "1c5462f4b16682ad4d0289da27837f21", "fusion_lat": 0.0, "name": "1c5462f4b16682ad4d0289da27837f21", "is_reserved": 0, "rental_uris": {"android": "https://dc.lft.to/lastmile_qr_scan", "ios": "https://dc.lft.to/lastmile_qr_scan"}, "fusion_lon": 0.0}, {"lat": 38.89671666666667, "is_disabled": 0, "type": "electric_scooter", "lon": -77.0467665, "bike_id": "c64f3b90a22b5b6da8448638a00747cd", "fusion_lat": 0.0, "name": "c64f3b90a22b5b6da8448638a00747cd", "is_reserved": 0, "rental_uris": {"android": "https://dc.lft.to/lastmile_qr_scan", "ios": "https://dc.lft.to/lastmile_qr_scan"}, "fusion_lon": 0.0}, {"lat": 38.91572516666667, "is_disabled": 0, "type": "electric_scooter", "lon": -77.0502755, "bike_id": "0dfdfeafdd22ef6ecf7b487da3e08343", "fusion_lat": 0.0, "name": "0dfdfeafdd22ef6ecf7b487da3e08343", "is_reserved": 0, "rental_uris": {"android": "https://dc.lft.to/lastmile_qr_scan", "ios": "https://dc.lft.to/lastmile_qr_scan"}, "fusion_lon": 0.0}, {"lat": 38.92671083333333, "is_disabled": 0, "type": "electric_scooter", "lon": -77.01498733333334, "bike_id": "cb57d23c04285c716e5c21c542f1424b", "fusion_lat": 0.0, "name": "cb57d23c04285c716e5c21c542f1424b", "is_reserved": 0, "rental_uris": {"android": "https://dc.lft.to/lastmile_qr_scan", "ios": "https://dc.lft.to/lastmile_qr_scan"}, "fusion_lon": 0.0}, {"lat": 38.89508133333333, "is_disabled": 0, "type": "electric_scooter", "lon": -77.01611216666667, "bike_id": "de69e6c886138f011424efb58e2b3721", "fusion_lat": 0.0, "name": "de69e6c886138f011424efb58e2b3721", "is_reserved": 0, "rental_uris": {"android": "https://dc.lft.to/lastmile_qr_scan", "ios": "https://dc.lft.to/lastmile_qr_scan"}, "fusion_lon": 0.0}, {"lat": 38.921179333333335, "is_disabled": 0, "type": "electric_scooter", "lon": -77.04190266666667, "bike_id": "f1495580809b1cce51fd495d19cff2a0", "fusion_lat": 0.0, "name": "f1495580809b1cce51fd495d19cff2a0", "is_reserved": 0, "rental_uris": {"android": "https://dc.lft.to/lastmile_qr_scan", "ios": "https://dc.lft.to/lastmile_qr_scan"}, "fusion_lon": 0.0}, {"lat": 38.90402133333333, "is_disabled": 0, "type": "electric_scooter", "lon": -77.02476333333334, "bike_id": "43cccc1b4d29200090ebe3650a44eedc", "fusion_lat": 0.0, "name": "43cccc1b4d29200090ebe3650a44eedc", "is_reserved": 0, "rental_uris": {"android": "https://dc.lft.to/lastmile_qr_scan", "ios": "https://dc.lft.to/lastmile_qr_scan"}, "fusion_lon": 0.0}, {"lat": 38.92165216666667, "is_disabled": 0, "type": "electric_scooter", "lon": -77.04023816666667, "bike_id": "330fabfbc48d312e1743b29236925bc4", "fusion_lat": 0.0, "name": "330fabfbc48d312e1743b29236925bc4", "is_reserved": 0, "rental_uris": {"android": "https://dc.lft.to/lastmile_qr_scan", "ios": "https://dc.lft.to/lastmile_qr_scan"}, "fusion_lon": 0.0}, {"lat": 38.9428905, "is_disabled": 0, "type": "electric_scooter", "lon": -77.021732, "bike_id": "815b64e5952be1ac62ecaf9e288d89bb", "fusion_lat": 0.0, "name": "815b64e5952be1ac62ecaf9e288d89bb", "is_reserved": 0, "rental_uris": {"android": "https://dc.lft.to/lastmile_qr_scan", "ios": "https://dc.lft.to/lastmile_qr_scan"}, "fusion_lon": 0.0}, {"lat": 38.93232416666667, "is_disabled": 0, "type": "electric_scooter", "lon": -76.99601033333333, "bike_id": "bc56bd22728b8c0fe6c372c4c36ff25f", "fusion_lat": 0.0, "name": "bc56bd22728b8c0fe6c372c4c36ff25f", "is_reserved": 0, "rental_uris": {"android": "https://dc.lft.to/lastmile_qr_scan", "ios": "https://dc.lft.to/lastmile_qr_scan"}, "fusion_lon": 0.0}, {"lat": 38.91187516666667, "is_disabled": 0, "type": "electric_scooter", "lon": -77.002145, "bike_id": "2ed0c0d6fa5027749faeb9124f960dfa", "fusion_lat": 0.0, "name": "2ed0c0d6fa5027749faeb9124f960dfa", "is_reserved": 0, "rental_uris": {"android": "https://dc.lft.to/lastmile_qr_scan", "ios": "https://dc.lft.to/lastmile_qr_scan"}, "fusion_lon": 0.0}, {"lat": 38.875789166666664, "is_disabled": 0, "type": "electric_bike", "lon": -77.10566066666667, "bike_id": "7e804713efc27ea87e82d67e6bbed5e7", "fusion_lat": 0.0, "name": "7e804713efc27ea87e82d67e6bbed5e7", "is_reserved": 0, "rental_uris": {"android": "https://dc.lft.to/lastmile_qr_scan", "ios": "https://dc.lft.to/lastmile_qr_scan"}, "fusion_lon": 0.0}, {"lat": 38.866286333333335, "is_disabled": 0, "type": "electric_scooter", "lon": -76.98699283333333, "bike_id": "74191ca9b58f616c6f9486095deefbd4", "fusion_lat": 0.0, "name": "74191ca9b58f616c6f9486095deefbd4", "is_reserved": 0, "rental_uris": {"android": "https://dc.lft.to/lastmile_qr_scan", "ios": "https://dc.lft.to/lastmile_qr_scan"}, "fusion_lon": 0.0}, {"lat": 38.884897, "is_disabled": 0, "type": "electric_scooter", "lon": -77.00709266666667, "bike_id": "1d6365bc907f0b899be4554a5728eec2", "fusion_lat": 0.0, "name": "1d6365bc907f0b899be4554a5728eec2", "is_reserved": 0, "rental_uris": {"android": "https://dc.lft.to/lastmile_qr_scan", "ios": "https://dc.lft.to/lastmile_qr_scan"}, "fusion_lon": 0.0}, {"lat": 38.8876485, "is_disabled": 0, "type": "electric_scooter", "lon": -76.95598816666667, "bike_id": "16f96041749e7c743cbeb3ddf2214097", "fusion_lat": 0.0, "name": "16f96041749e7c743cbeb3ddf2214097", "is_reserved": 0, "rental_uris": {"android": "https://dc.lft.to/lastmile_qr_scan", "ios": "https://dc.lft.to/lastmile_qr_scan"}, "fusion_lon": 0.0}, {"lat": 38.909583833333336, "is_disabled": 0, "type": "electric_scooter", "lon": -77.02281866666667, "bike_id": "8d86887d3b33f22c2abdc89343101f18", "fusion_lat": 0.0, "name": "8d86887d3b33f22c2abdc89343101f18", "is_reserved": 0, "rental_uris": {"android": "https://dc.lft.to/lastmile_qr_scan", "ios": "https://dc.lft.to/lastmile_qr_scan"}, "fusion_lon": 0.0}, {"lat": 38.9180975, "is_disabled": 0, "type": "electric_scooter", "lon": -76.9999075, "bike_id": "c656458a825003ca1f3ad7d7ff541882", "fusion_lat": 0.0, "name": "c656458a825003ca1f3ad7d7ff541882", "is_reserved": 0, "rental_uris": {"android": "https://dc.lft.to/lastmile_qr_scan", "ios": "https://dc.lft.to/lastmile_qr_scan"}, "fusion_lon": 0.0}, {"lat": 38.911857166666664, "is_disabled": 0, "type": "electric_scooter", "lon": -77.0321595, "bike_id": "d61183fa3ac5fbbd1b63aff9095c4979", "fusion_lat": 0.0, "name": "d61183fa3ac5fbbd1b63aff9095c4979", "is_reserved": 0, "rental_uris": {"android": "https://dc.lft.to/lastmile_qr_scan", "ios": "https://dc.lft.to/lastmile_qr_scan"}, "fusion_lon": 0.0}, {"lat": 38.84298366666667, "is_disabled": 0, "type": "electric_scooter", "lon": -76.9994115, "bike_id": "d78e32e2ed6c02e63457c17f063cdcd3", "fusion_lat": 0.0, "name": "d78e32e2ed6c02e63457c17f063cdcd3", "is_reserved": 0, "rental_uris": {"android": "https://dc.lft.to/lastmile_qr_scan", "ios": "https://dc.lft.to/lastmile_qr_scan"}, "fusion_lon": 0.0}, {"lat": 38.917111166666665, "is_disabled": 0, "type": "electric_scooter", "lon": -77.0386665, "bike_id": "7b1dce58c7d64242574486bb368e251d", "fusion_lat": 0.0, "name": "7b1dce58c7d64242574486bb368e251d", "is_reserved": 0, "rental_uris": {"android": "https://dc.lft.to/lastmile_qr_scan", "ios": "https://dc.lft.to/lastmile_qr_scan"}, "fusion_lon": 0.0}, {"lat": 38.842693, "is_disabled": 0, "type": "electric_bike", "lon": -76.988399, "bike_id": "87f0f2d5814e484bdd701705945f92ef", "fusion_lat": 0.0, "name": "87f0f2d5814e484bdd701705945f92ef", "is_reserved": 0, "rental_uris": {"android": "https://dc.lft.to/lastmile_qr_scan", "ios": "https://dc.lft.to/lastmile_qr_scan"}, "fusion_lon": 0.0}, {"lat": 38.923276, "is_disabled": 0, "type": "electric_scooter", "lon": -77.03571433333333, "bike_id": "6a4325ae7eaf4c709ed7419302126c3f", "fusion_lat": 0.0, "name": "6a4325ae7eaf4c709ed7419302126c3f", "is_reserved": 0, "rental_uris": {"android": "https://dc.lft.to/lastmile_qr_scan", "ios": "https://dc.lft.to/lastmile_qr_scan"}, "fusion_lon": 0.0}, {"lat": 38.91692, "is_disabled": 0, "type": "electric_scooter", "lon": -77.02808183333333, "bike_id": "05a7ab8be8fd69ab1a9ce4f581d7f705", "fusion_lat": 0.0, "name": "05a7ab8be8fd69ab1a9ce4f581d7f705", "is_reserved": 0, "rental_uris": {"android": "https://dc.lft.to/lastmile_qr_scan", "ios": "https://dc.lft.to/lastmile_qr_scan"}, "fusion_lon": 0.0}, {"lat": 38.8951535, "is_disabled": 0, "type": "electric_scooter", "lon": -76.94900566666666, "bike_id": "003d2ae9739698d5d16a9e4881c97b2e", "fusion_lat": 0.0, "name": "003d2ae9739698d5d16a9e4881c97b2e", "is_reserved": 0, "rental_uris": {"android": "https://dc.lft.to/lastmile_qr_scan", "ios": "https://dc.lft.to/lastmile_qr_scan"}, "fusion_lon": 0.0}, {"lat": 38.97093366666667, "is_disabled": 0, "type": "electric_bike", "lon": -77.06964383333333, "bike_id": "61639d7682c04d6b5b332e4a7da65df8", "fusion_lat": 0.0, "name": "61639d7682c04d6b5b332e4a7da65df8", "is_reserved": 0, "rental_uris": {"android": "https://dc.lft.to/lastmile_qr_scan", "ios": "https://dc.lft.to/lastmile_qr_scan"}, "fusion_lon": 0.0}, {"lat": 38.913404166666666, "is_disabled": 0, "type": "electric_scooter", "lon": -76.97368333333333, "bike_id": "b409008dcc5f4beaa192a94196c318f2", "fusion_lat": 0.0, "name": "b409008dcc5f4beaa192a94196c318f2", "is_reserved": 0, "rental_uris": {"android": "https://dc.lft.to/lastmile_qr_scan", "ios": "https://dc.lft.to/lastmile_qr_scan"}, "fusion_lon": 0.0}, {"lat": 38.91702883333333, "is_disabled": 0, "type": "electric_scooter", "lon": -77.0346575, "bike_id": "c53eb817bc5d0bb9c09017c9769d6b65", "fusion_lat": 0.0, "name": "c53eb817bc5d0bb9c09017c9769d6b65", "is_reserved": 0, "rental_uris": {"android": "https://dc.lft.to/lastmile_qr_scan", "ios": "https://dc.lft.to/lastmile_qr_scan"}, "fusion_lon": 0.0}, {"lat": 38.85208383333333, "is_disabled": 0, "type": "electric_bike", "lon": -77.1012725, "bike_id": "9332aa5bea49d7410274202215d4a5d6", "fusion_lat": 0.0, "name": "9332aa5bea49d7410274202215d4a5d6", "is_reserved": 0, "rental_uris": {"android": "https://dc.lft.to/lastmile_qr_scan", "ios": "https://dc.lft.to/lastmile_qr_scan"}, "fusion_lon": 0.0}, {"lat": 38.92074933333333, "is_disabled": 0, "type": "electric_scooter", "lon": -77.04196783333333, "bike_id": "40bf9b5a5185ec9f0b63487b5a9d29d1", "fusion_lat": 0.0, "name": "40bf9b5a5185ec9f0b63487b5a9d29d1", "is_reserved": 0, "rental_uris": {"android": "https://dc.lft.to/lastmile_qr_scan", "ios": "https://dc.lft.to/lastmile_qr_scan"}, "fusion_lon": 0.0}, {"lat": 38.92680683333333, "is_disabled": 0, "type": "electric_scooter", "lon": -77.02863516666666, "bike_id": "9fffbcaf836fff675a8045c567af629e", "fusion_lat": 0.0, "name": "9fffbcaf836fff675a8045c567af629e", "is_reserved": 0, "rental_uris": {"android": "https://dc.lft.to/lastmile_qr_scan", "ios": "https://dc.lft.to/lastmile_qr_scan"}, "fusion_lon": 0.0},