{"data": {"bikes": [{"is_reserved": 0, "rental_uris": {"ios": "https://dc.lft.to/lastmile_qr_scan", "android": "https://dc.lft.to/lastmile_qr_scan"}, "name": "9a5832ed5c928c533d345f50ae0f5b9c", "bike_id": "9a5832ed5c928c533d345f50ae0f5b9c", "type": "electric_scooter", "lat": 38.905363, "fusion_lon": 0.0, "is_disabled": 0, "fusion_lat": 0.0, "lon": -77.062576}, {"is_reserved": 0, "rental_uris": {"ios": "https://dc.lft.to/lastmile_qr_scan", "android": "https://dc.lft.to/lastmile_qr_scan"}, "name": "d8294f09dfec2a75c189522b5f636704", "bike_id": "d8294f09dfec2a75c189522b5f636704", "type": "electric_scooter", "lat": 38.916784666666665, "fusion_lon": 0.0, "is_disabled": 0, "fusion_lat": 0.0, "lon": -77.02969416666667}, {"is_reserved": 0, "rental_uris": {"ios": "https://dc.lft.to/lastmile_qr_scan", "android": "https://dc.lft.to/lastmile_qr_scan"}, "name": "7f7bb9af64fa4bd5a6ba347a25166d3f", "bike_id": "7f7bb9af64fa4bd5a6ba347a25166d3f", "type": "electric_scooter", "lat": 38.88503016666667, "fusion_lon": 0.0, "is_disabled": 0, "fusion_lat": 0.0, "lon": -77.00564233333333}, {"is_reserved": 0, "rental_uris": {"ios": "https://dc.lft.to/lastmile_qr_scan", "android": "https://dc.lft.to/lastmile_qr_scan"}, "name": "d67f906746436421436b77d8ff619971", "bike_id": "d67f906746436421436b77d8ff619971", "type": "electric_bike", "lat": 38.98648566666667, "fusion_lon": 0.0, "is_disabled": 0, "fusion_lat": 0.0, "lon": -77.056485}, {"is_reserved": 0, "rental_uris": {"ios": "https://dc.lft.to/lastmile_qr_scan", "android": "https://dc.lft.to/lastmile_qr_scan"}, "name": "c7722aa806bc310a23615084e0e66bcc", "bike_id": "c7722aa806bc310a23615084e0e66bcc", "type": "electric_scooter", "lat": 38.844254166666666, "fusion_lon": 0.0, "is_disabled": 0, "fusion_lat": 0.0, "lon": -76.9977825}, {"is_reserved": 0, "rental_uris": {"ios": "https://dc.lft.to/lastmile_qr_scan", "android": "https://dc.lft.to/lastmile_qr_scan"}, "name": "33e5ca998d3fd99d29eaf80165a53d6b", "bike_id": "33e5ca998d3fd99d29eaf80165a53d6b", "type": "electric_scooter", "lat": 38.908873, "fusion_lon": 0.0, "is_disabled": 0, "fusion_lat": 0.0, "lon": -77.04356216666666}, {"is_reserved": 0, "rental_uris": {"ios": "https://dc.lft.to/lastmile_qr_scan", "android": "https://dc.lft.to/lastmile_qr_scan"}, "name": "96ab1a7cb18001cb746b2aaedc6af78f", "bike_id": "96ab1a7cb18001cb746b2aaedc6af78f", "type": "electric_scooter", "lat": 38.92182316666667, "fusion_lon": 0.0, "is_disabled": 0, "fusion_lat": 0.0, "lon": -77.031973}, {"is_reserved": 0, "rental_uris": {"ios": "https://dc.lft.to/lastmile_qr_scan", "android": "https://dc.lft.to/lastmile_qr_scan"}, "name": "1afd369d7061af8b0b673b5645b6c032", "bike_id": "1afd369d7061af8b0b673b5645b6c032", "type": "electric_scooter", "lat": 38.909812, "fusion_lon": 0.0, "is_disabled": 0, "fusion_lat": 0.0, "lon": -77.0487875}, {"is_reserved": 0, "rental_uris": {"ios": "https://dc.lft.to/lastmile_qr_scan", "android": "https://dc.lft.to/lastmile_qr_scan"}, "name": "e36def7457c162537a476e8923c0b231", "bike_id": "e36def7457c162537a476e8923c0b231", "type": "electric_scooter", "lat": 38.87945916666666, "fusion_lon": 0.0, "is_disabled": 0, "fusion_lat": 0.0, "lon": -77.00501483333333}, {"is_reserved": 0, "rental_uris": {"ios": "https://dc.lft.to/lastmile_qr_scan", "android": "https://dc.lft.to/lastmile_qr_scan"}, "name": "e0d7a06c4b68af21495f9efde12f8da6", "bike_id": "e0d7a06c4b68af21495f9efde12f8da6", "type": "electric_scooter", "lat": 38.86912133333333, "fusion_lon": 0.0, "is_disabled": 0, "fusion_lat": 0.0, "lon": -76.98299033333333}, {"is_reserved": 0, "rental_uris": {"ios": "https://dc.lft.to/lastmile_qr_scan", "android": "https://dc.lft.to/lastmile_qr_scan"}, "name": "d2029dc7114e6ff04ab55460c93cc991", "bike_id": "d2029dc7114e6ff04ab55460c93cc991", "type": "electric_scooter", "lat": 38.92240066666667, "fusion_lon": 0.0, "is_disabled": 0, "fusion_lat": 0.0, "lon": -77.02912766666667}, {"is_reserved": 0, "rental_uris": {"ios": "https://dc.lft.to/lastmile_qr_scan", "android": "https://dc.lft.to/lastmile_qr_scan"}, "name": "3ac90817b2c4a1aac11929db303bc08e", "bike_id": "3ac90817b2c4a1aac11929db303bc08e", "type": "electric_scooter", "lat": 38.89564383333333, "fusion_lon": 0.0, "is_disabled": 0, "fusion_lat": 0.0, "lon": -77.0295775}, {"is_reserved": 0, "rental_uris": {"ios": "https://dc.lft.to/lastmile_qr_scan", "android": "https://dc.lft.to/lastmile_qr_scan"}, "name": "d60389179904c29ba3a32930d82e7aea", "bike_id": "d60389179904c29ba3a32930d82e7aea", "type": "electric_scooter", "lat": 38.916796166666664, "fusion_lon": 0.0, "is_disabled": 0, "fusion_lat": 0.0, "lon": -77.02969733333333}, {"is_reserved": 0, "rental_uris": {"ios": "https://dc.lft.to/lastmile_qr_scan", "android": "https://dc.lft.to/lastmile_qr_scan"}, "name": "69f82ca71eca0090a11ae24f04cb3a4a", "bike_id": "69f82ca71eca0090a11ae24f04cb3a4a", "type": "electric_scooter", "lat": 38.9125185, "fusion_lon": 0.0, "is_disabled": 0, "fusion_lat": 0.0, "lon": -77.0350345}, {"is_reserved": 0, "rental_uris": {"ios": "https://dc.lft.to/lastmile_qr_scan", "android": "https://dc.lft.to/lastmile_qr_scan"}, "name": "68fb86c8188546395086b8580e1495e5", "bike_id": "68fb86c8188546395086b8580e1495e5", "type": "electric_scooter", "lat": 38.89220666666667, "fusion_lon": 0.0, "is_disabled": 0, "fusion_lat": 0.0, "lon": -77.0437295}, {"is_reserved": 0, "rental_uris": {"ios": "https://dc.lft.to/lastmile_qr_scan", "android": "https://dc.lft.to/lastmile_qr_scan"}, "name": "ec4a019c5bbabacc61e995a38c478b8d", "bike_id": "ec4a019c5bbabacc61e995a38c478b8d", "type": "electric_bike", "lat": 38.96145216666667, "fusion_lon": 0.0, "is_disabled": 0, "fusion_lat": 0.0, "lon": -77.032347}, {"is_reserved": 0, "rental_uris": {"ios": "https://dc.lft.to/lastmile_qr_scan", "android": "https://dc.lft.to/lastmile_qr_scan"}, "name": "4b0108baa6dae7f1336868e22091bc7b", "bike_id": "4b0108baa6dae7f1336868e22091bc7b", "type": "electric_scooter", "lat": 38.901387, "fusion_lon": 0.0, "is_disabled": 0, "fusion_lat": 0.0, "lon": -76.94154766666666}, {"is_reserved": 0, "rental_uris": {"ios": "https://dc.lft.to/lastmile_qr_scan", "android": "https://dc.lft.to/lastmile_qr_scan"}, "name": "d6dcbd979dac84d50b626e6a44f2f17b", "bike_id": "d6dcbd979dac84d50b626e6a44f2f17b", "type": "electric_scooter", "lat": 38.932354, "fusion_lon": 0.0, "is_disabled": 0, "fusion_lat": 0.0, "lon": -77.0385545}, {"is_reserved": 0, "rental_uris": {"ios": "https://dc.lft.to/lastmile_qr_scan", "android": "https://dc.lft.to/lastmile_qr_scan"}, "name": "541300cf6f824b6fb906b2fe14d3f121", "bike_id": "541300cf6f824b6fb906b2fe14d3f121", "type": "electric_scooter", "lat": 38.90273416666667, "fusion_lon": 0.0, "is_disabled": 0, "fusion_lat": 0.0, "lon": -77.05314866666667}, {"is_reserved": 0, "rental_uris": {"ios": "https://dc.lft.to/lastmile_qr_scan", "android": "https://dc.lft.to/lastmile_qr_scan"}, "name": "9d1fe4629537b69ad19a0938e981c7b2", "bike_id": "9d1fe4629537b69ad19a0938e981c7b2", "type": "electric_scooter", "lat": 38.866164833333336, "fusion_lon": 0.0, "is_disabled": 0, "fusion_lat": 0.0, "lon": -76.98663733333333}, {"is_reserved": 0, "rental_uris": {"ios": "https://dc.lft.to/lastmile_qr_scan", "android": "https://dc.lft.to/lastmile_qr_scan"}, "name": "bd0dc87229dd1b37e09af9a914043921", "bike_id": "bd0dc87229dd1b37e09af9a914043921", "type": "electric_scooter", "lat": 38.90361466666667, "fusion_lon": 0.0, "is_disabled": 0, "fusion_lat": 0.0, "lon": -77.0490465}, {"is_reserved": 0, "rental_uris": {"ios": "https://dc.lft.to/lastmile_qr_scan", "android": "https://dc.lft.to/lastmile_qr_scan"}, "name": "3386868486aac7264491ae1a255b1695", "bike_id": "3386868486aac7264491ae1a255b1695", "type": "electric_scooter", "lat": 38.909584833333334, "fusion_lon": 0.0, "is_disabled": 0, "fusion_lat": 0.0, "lon": -77.04633333333334}, {"is_reserved": 0, "rental_uris": {"ios": "https://dc.lft.to/lastmile_qr_scan", "android": "https://dc.lft.to/lastmile_qr_scan"}, "name": "e7d0362a1bae206ad350d9c08f4b559a", "bike_id": "e7d0362a1bae206ad350d9c08f4b559a", "type": "electric_scooter", "lat": 38.892223333333334, "fusion_lon": 0.0, "is_disabled": 0, "fusion_lat": 0.0, "lon": -77.04802516666666}, {"is_reserved": 0, "rental_uris": {"ios": "https://dc.lft.to/lastmile_qr_scan", "android": "https://dc.lft.to/lastmile_qr_scan"}, "name": "25ba2b7d8a0d328db80f5495b17e7c95", "bike_id": "25ba2b7d8a0d328db80f5495b17e7c95", "type": "electric_scooter", "lat": 38.919858166666664, "fusion_lon": 0.0, "is_disabled": 0, "fusion_lat": 0.0, "lon": -77.02380666666667}, {"is_reserved": 0, "rental_uris": {"ios": "https://dc.lft.to/lastmile_qr_scan", "android": "https://dc.lft.to/lastmile_qr_scan"}, "name": "a5c25151ccd99694f6062b4f201ab7e1", "bike_id": "a5c25151ccd99694f6062b4f201ab7e1", "type": "electric_scooter", "lat": 38.9033855, "fusion_lon": 0.0, "is_disabled": 0, "fusion_lat": 0.0, "lon": -76.970534}, {"is_reserved": 0, "rental_uris": {"ios": "https://dc.lft.to/lastmile_qr_scan", "android": "https://dc.lft.to/lastmile_qr_scan"}, "name": "ea1d44e2abe78da8aa87219a3ead068c", "bike_id": "ea1d44e2abe78da8aa87219a3ead068c", "type": "electric_scooter", "lat": 38.8858165, "fusion_lon": 0.0, "is_disabled": 0, "fusion_lat": 0.0, "lon": -77.00073183333333}, {"is_reserved": 0, "rental_uris": {"ios": "https://dc.lft.to/lastmile_qr_scan", "android": "https://dc.lft.to/lastmile_qr_scan"}, "name": "70d60c2cb91fb2e7b32722d339fa2c35", "bike_id": "70d60c2cb91fb2e7b32722d339fa2c35", "type": "electric_scooter", "lat": 38.89482066666667, "fusion_lon": 0.0, "is_disabled": 0, "fusion_lat": 0.0, "lon": -76.94956083333334}, {"is_reserved": 0, "rental_uris": {"ios": "https://dc.lft.to/lastmile_qr_scan", "android": "https://dc.lft.to/lastmile_qr_scan"}, "name": "1b083fcf3f5ca796159a8f45ba3893aa", "bike_id": "1b083fcf3f5ca796159a8f45ba3893aa", "type": "electric_scooter", "lat": 38.91010716666667, "fusion_lon": 0.0, "is_disabled": 0, "fusion_lat": 0.0, "lon": -76.9939015}, {"is_reserved": 0, "rental_uris": {"ios": "https://dc.lft.to/lastmile_qr_scan", "android": "https://dc.lft.to/lastmile_qr_scan"}, "name": "a03bd53ab183b01b60c7f84b7270ed84", "bike_id": "a03bd53ab183b01b60c7f84b7270ed84", "type": "electric_scooter", "lat": 38.90446466666667, "fusion_lon": 0.0, "is_disabled": 0, "fusion_lat": 0.0, "lon": -77.059195}, {"is_reserved": 0, "rental_uris": {"ios": "https://dc.lft.to/lastmile_qr_scan", "android": "https://dc.lft.to/lastmile_qr_scan"}, "name": "8643769e76f3853dd97856e13200ecae", "bike_id": "8643769e76f3853dd97856e13200ecae", "type": "electric_scooter", "lat": 38.9038895, "fusion_lon": 0.0, "is_disabled": 0, "fusion_lat": 0.0, "lon": -77.038422}, {"is_reserved": 0, "rental_uris": {"ios": "https://dc.lft.to/lastmile_qr_scan", "android": "https://dc.lft.to/lastmile_qr_scan"}, "name": "5dd2793371c38a4d343ecf598a258d52", "bike_id": "5dd2793371c38a4d343ecf598a258d52", "type": "electric_scooter", "lat": 38.845834833333335, "fusion_lon": 0.0, "is_disabled": 0, "fusion_lat": 0.0, "lon": -76.98163}, {"is_reserved": 0, "rental_uris": {"ios": "https://dc.lft.to/lastmile_qr_scan", "android": "https://dc.lft.to/lastmile_qr_scan"}, "name": "5d63009f93e044a93cd13c1303f4debf", "bike_id": "5d63009f93e044a93cd13c1303f4debf", "type": "electric_scooter", "lat": 38.92179216666667, "fusion_lon": 0.0, "is_disabled": 0, "fusion_lat": 0.0, "lon": -77.0471635}, {"is_reserved": 0, "rental_uris": {"ios": "https://dc.lft.to/lastmile_qr_scan", "android": "https://dc.lft.to/lastmile_qr_scan"}, "name": "e65aa6241f92b20ec8d7a84e580f2098", "bike_id": "e65aa6241f92b20ec8d7a84e580f2098", "type": "electric_scooter", "lat": 38.90537416666667, "fusion_lon": 0.0, "is_disabled": 0, "fusion_lat": 0.0, "lon": -77.05703116666666}, {"is_reserved": 0, "rental_uris": {"ios": "https://dc.lft.to/lastmile_qr_scan", "android": "https://dc.lft.to/lastmile_qr_scan"}, "name": "07f9a42825ebf9b5d12aefa6652a2c7b", "bike_id": "07f9a42825ebf9b5d12aefa6652a2c7b", "type": "electric_scooter", "lat": 38.8968145, "fusion_lon": 0.0, "is_disabled": 0, "fusion_lat": 0.0, "lon": -77.02596783333334}, {"is_reserved": 0, "rental_uris": {"ios": "https://dc.lft.to/lastmile_qr_scan", "android": "https://dc.lft.to/lastmile_qr_scan"}, "name": "0f98efd4abeb6a933f75e4b7e3b83dd1", "bike_id": "0f98efd4abeb6a933f75e4b7e3b83dd1", "type": "electric_scooter", "lat": 38.900890833333335, "fusion_lon": 0.0, "is_disabled": 0, "fusion_lat": 0.0, "lon": -77.01307166666666}, {"is_reserved": 0, "rental_uris": {"ios": "https://dc.lft.to/lastmile_qr_scan", "android": "https://dc.lft.to/lastmile_qr_scan"}, "name": "170946af31f6cdfdbd5021ae52854c30", "bike_id": "170946af31f6cdfdbd5021ae52854c30", "type": "electric_scooter", "lat": 38.91099283333333, "fusion_lon": 0.0, "is_disabled": 0, "fusion_lat": 0.0, "lon": -77.0054895}, {"is_reserved": 0, "rental_uris": {"ios": "https://dc.lft.to/lastmile_qr_scan", "android": "https://dc.lft.to/lastmile_qr_scan"}, "name": "d2df1162902274927ac0734f2ff6ec66", "bike_id": "d2df1162902274927ac0734f2ff6ec66", "type": "electric_scooter", "lat": 38.956390999999996, "fusion_lon": 0.0, "is_disabled": 0, "fusion_lat": 0.0, "lon": -77.033079}, {"is_reserved": 0, "rental_uris": {"ios": "https://dc.lft.to/lastmile_qr_scan", "android": "https://dc.lft.to/lastmile_qr_scan"}, "name": "dc47e92e3ee7af2817584d899c3522be", "bike_id": "dc47e92e3ee7af2817584d899c3522be", "type": "electric_scooter", "lat": 38.905362333333336, "fusion_lon": 0.0, "is_disabled": 0, "fusion_lat": 0.0, "lon": -77.00567683333334}, {"is_reserved": 0, "rental_uris": {"ios": "https://dc.lft.to/lastmile_qr_scan", "android": "https://dc.lft.to/lastmile_qr_scan"}, "name": "b4622d7afe8f7700dbd629d3421602b9", "bike_id": "b4622d7afe8f7700dbd629d3421602b9", "type": "electric_scooter", "lat": 38.9241865, "fusion_lon": 0.0, "is_disabled": 0, "fusion_lat": 0.0, "lon": -77.056502}, {"is_reserved": 0, "rental_uris": {"ios": "https://dc.lft.to/lastmile_qr_scan", "android": "https://dc.lft.to/lastmile_qr_scan"}, "name": "45954e3ba127d7f215500f57302953a6", "bike_id": "45954e3ba127d7f215500f57302953a6", "type": "electric_scooter", "lat": 38.93230583333333, "fusion_lon": 0.0, "is_disabled": 0, "fusion_lat": 0.0, "lon": -77.03268266666667}, {"is_reserved": 0, "rental_uris": {"ios": "https://dc.lft.to/lastmile_qr_scan", "android": "https://dc.lft.to/lastmile_qr_scan"}, "name": "e7aae075c8c8d1aa252aae7f9dfda8a5", "bike_id": "e7aae075c8c8d1aa252aae7f9dfda8a5", "type": "electric_scooter", "lat": 38.90293233333333, "fusion_lon": 0.0, "is_disabled": 0, "fusion_lat": 0.0, "lon": -77.03855016666667}, {"is_reserved": 0, "rental_uris": {"ios": "https://dc.lft.to/lastmile_qr_scan", "android": "https://dc.lft.to/lastmile_qr_scan"}, "name": "d9634c05148f699f8a510f4c92160f8c", "bike_id": "d9634c05148f699f8a510f4c92160f8c", "type": "electric_scooter", "lat": 38.93606233333333, "fusion_lon": 0.0, "is_disabled": 0, "fusion_lat": 0.0, "lon": -77.03809633333333}, {"is_reserved": 0, "rental_uris": {"ios": "https://dc.lft.to/lastmile_qr_scan", "android": "https://dc.lft.to/lastmile_qr_scan"}, "name": "847f00bc32209180470ef6a3c366eee7", "bike_id": "847f00bc32209180470ef6a3c366eee7", "type": "electric_scooter", "lat": 38.91806483333333, "fusion_lon": 0.0, "is_disabled": 0, "fusion_lat": 0.0, "lon": -77.0318625}, {"is_reserved": 0, "rental_uris": {"ios": "https://dc.lft.to/lastmile_qr_scan", "android": "https://dc.lft.to/lastmile_qr_scan"}, "name": "baac75cbd8d8ce0fee393bab231bf8bd", "bike_id": "baac75cbd8d8ce0fee393bab231bf8bd", "type": "electric_scooter", "lat": 38.94234516666667, "fusion_lon": 0.0, "is_disabled": 0, "fusion_lat": 0.0, "lon": -77.07236816666666}, {"is_reserved": 0, "rental_uris": {"ios": "https://dc.lft.to/lastmile_qr_scan", "android": "https://dc.lft.to/lastmile_qr_scan"}, "name": "39d1daad509f38e16e3d11357ef24a49", "bike_id": "39d1daad509f38e16e3d11357ef24a49", "type": "electric_scooter", "lat": 38.930659666666664, "fusion_lon": 0.0, "is_disabled": 0, "fusion_lat": 0.0, "lon": -77.03114733333334}, {"is_reserved": 0, "rental_uris": {"ios": "https://dc.lft.to/lastmile_qr_scan", "android": "https://dc.lft.to/lastmile_qr_scan"}, "name": "6b5bb15ae2fbf2e99292a98afc235d76", "bike_id": "6b5bb15ae2fbf2e99292a98afc235d76", "type": "electric_bike", "lat": 38.948995, "fusion_lon": 0.0, "is_disabled": 0, "fusion_lat": 0.0, "lon": -76.97242833333334}, {"is_reserved": 0, "rental_uris": {"ios": "https://dc.lft.to/lastmile_qr_scan", "android": "https://dc.lft.to/lastmile_qr_scan"}, "name": "fed09e5c1fab9f45c046749d475ffb44", "bike_id": "fed09e5c1fab9f45c046749d475ffb44", "type": "electric_scooter", "lat": 38.918167833333335, "fusion_lon": 0.0, "is_disabled": 0, "fusion_lat": 0.0, "lon": -77.04172216666667}, {"is_reserved": 0, "rental_uris": {"ios": "https://dc.lft.to/lastmile_qr_scan", "android": "https://dc.lft.to/lastmile_qr_scan"}, "name": "1d2824ba682bb6b2142d7fbfb8009344", "bike_id": "1d2824ba682bb6b2142d7fbfb8009344", "type": "electric_scooter", "lat": 38.893599, "fusion_lon": 0.0, "is_disabled": 0, "fusion_lat": 0.0, "lon": -77.04789216666667}, {"is_reserved": 0, "rental_uris": {"ios": "https://dc.lft.to/lastmile_qr_scan", "android": "https://dc.lft.to/lastmile_qr_scan"}, "name": "99e95bdadd7b865aaa829faf4aa451e0", "bike_id": "99e95bdadd7b865aaa829faf4aa451e0", "type": "electric_scooter", "lat": 38.89829816666666, "fusion_lon": 0.0, "is_disabled": 0, "fusion_lat": 0.0, "lon": -77.03344533333333}, {"is_reserved": 0, "rental_uris": {"ios": "https://dc.lft.to/lastmile_qr_scan", "android": "https://dc.lft.to/lastmile_qr_scan"}, "name": "52d96007fea81fc4217dbd51e02ca7d6", "bike_id": "52d96007fea81fc4217dbd51e02ca7d6", "type": "electric_scooter", "lat": 38.8808875, "fusion_lon": 0.0, "is_disabled": 0, "fusion_lat": 0.0, "lon": -76.99269466666667}, {"is_reserved": 0, "rental_uris": {"ios": "https://dc.lft.to/lastmile_qr_scan", "android": "https://dc.lft.to/lastmile_qr_scan"}, "name": "2ea4114583d927359dc5b48fcfaf19e1", "bike_id": "2ea4114583d927359dc5b48fcfaf19e1", "type": "electric_bike", "lat": 38.827800833333335, "fusion_lon": 0.0, "is_disabled": 0, "fusion_lat": 0.0, "lon": -77.0092125}, {"is_reserved": 0, "rental_uris": {"ios": "https://dc.lft.to/lastmile_qr_scan", "android": "https://dc.lft.to/lastmile_qr_scan"}, "name": "dd8f1456e2a37ce532616dd890c4920f", "bike_id": "dd8f1456e2a37ce532616dd890c4920f", "type": "electric_scooter", "lat": 38.900572833333335, "fusion_lon": 0.0, "is_disabled": 0, "fusion_lat": 0.0, "lon": -77.00762416666667}, {"is_reserved": 0, "rental_uris": {"ios": "https://dc.lft.to/lastmile_qr_scan", "android": "https://dc.lft.to/lastmile_qr_scan"}, "name": "87ed5a5706f80d92f658bc201961900e", "bike_id": "87ed5a5706f80d92f658bc201961900e", "type": "electric_scooter", "lat": 38.984234, "fusion_lon": 0.0, "is_disabled": 0, "fusion_lat": 0.0, "lon": -77.02670233333333}, {"is_reserved": 0, "rental_uris": {"ios": "https://dc.lft.to/lastmile_qr_scan", "android": "https://dc.lft.to/lastmile_qr_scan"}, "name": "f45ae502ddcde41609aed6ffe3ed4322", "bike_id": "f45ae502ddcde41609aed6ffe3ed4322", "type": "electric_scooter", "lat": 38.938855833333335, "fusion_lon": 0.0, "is_disabled": 0, "fusion_lat": 0.0, "lon": -77.033249}, {"is_reserved": 0, "rental_uris": {"ios": "https://dc.lft.to/lastmile_qr_scan", "android": "https://dc.lft.to/lastmile_qr_scan"}, "name": "6eb8903f3b62b0fec82a05737e66ef20", "bike_id": "6eb8903f3b62b0fec82a05737e66ef20", "type": "electric_scooter", "lat": 38.8669095, "fusion_lon": 0.0, "is_disabled": 0, "fusion_lat": 0.0, "lon": -76.98081583333334}, {"is_reserved": 0, "rental_uris": {"ios": "https://dc.lft.to/lastmile_qr_scan", "android": "https://dc.lft.to/lastmile_qr_scan"}, "name": "78c9d2a48bbc9bf0ce1b98005976bf69", "bike_id": "78c9d2a48bbc9bf0ce1b98005976bf69", "type": "electric_scooter", "lat": 38.92843466666667, "fusion_lon": 0.0, "is_disabled": 0, "fusion_lat": 0.0, "lon": -77.032618}, {"is_reserved": 0, "rental_uris": {"ios": "https://dc.lft.to/lastmile_qr_scan", "android": "https://dc.lft.to/lastmile_qr_scan"}, "name": "b536fb044668cfc889ed07e3235c7a48", "bike_id": "b536fb044668cfc889ed07e3235c7a48", "type": "electric_scooter", "lat": 38.88793483333333, "fusion_lon": 0.0, "is_disabled": 0, "fusion_lat": 0.0, "lon": -76.93362383333333}, {"is_reserved": 0, "rental_uris": {"ios": "https://dc.lft.to/lastmile_qr_scan", "android": "https://dc.lft.to/lastmile_qr_scan"}, "name": "a412be07a45936291026bbcb69afd900", "bike_id": "a412be07a45936291026bbcb69afd900", "type": "electric_bike", "lat": 38.804393166666664, "fusion_lon": 0.0, "is_disabled": 0, "fusion_lat": 0.0, "lon": -77.04236366666666}, {"is_reserved": 0, "rental_uris": {"ios": "https://dc.lft.to/lastmile_qr_scan", "android": "https://dc.lft.to/lastmile_qr_scan"}, "name": "331195d31afdb7aa819f65ca36e6c258", "bike_id": "331195d31afdb7aa819f65ca36e6c258", "type": "electric_bike", "lat": 38.906695, "fusion_lon": 0.0, "is_disabled": 0, "fusion_lat": 0.0, "lon": -77.0246665}, {"is_reserved": 0, "rental_uris": {"ios": "https://dc.lft.to/lastmile_qr_scan", "android": "https://dc.lft.to/lastmile_qr_scan"}, "name": "220b23199c5111440f05af0f3e3a5716", "bike_id": "220b23199c5111440f05af0f3e3a5716", "type": "electric_scooter", "lat": 38.96609733333333, "fusion_lon": 0.0, "is_disabled": 0, "fusion_lat": 0.0, "lon": -77.0232895}, {"is_reserved": 0, "rental_uris": {"ios": "https://dc.lft.to/lastmile_qr_scan", "android": "https://dc.lft.to/lastmile_qr_scan"}, "name": "8d26ece14982d88a47b22fb0dd39270d", "bike_id": "8d26ece14982d88a47b22fb0dd39270d", "type": "electric_scooter", "lat": 38.91022266666667, "fusion_lon": 0.0, "is_disabled": 0, "fusion_lat": 0.0, "lon": -77.034643}, {"is_reserved": 0, "rental_uris": {"ios": "https://dc.lft.to/lastmile_qr_scan", "android": "https://dc.lft.to/lastmile_qr_scan"}, "name": "6061dfa9ac4ece49ca1d32e8ca644267", "bike_id": "6061dfa9ac4ece49ca1d32e8ca644267", "type": "electric_scooter", "lat": 38.89327216666667, "fusion_lon": 0.0, "is_disabled": 0, "fusion_lat": 0.0, "lon": -76.92993833333334}, {"is_reserved": 0, "rental_uris": {"ios": "https://dc.lft.to/lastmile_qr_scan", "android": "https://dc.lft.to/lastmile_qr_scan"}, "name": "26cc2b88211b0b910bf2a4199b64a1c0", "bike_id": "26cc2b88211b0b910bf2a4199b64a1c0", "type": "electric_scooter", "lat": 38.918338, "fusion_lon": 0.0, "is_disabled": 0, "fusion_lat": 0.0, "lon": -77.03900383333334}, {"is_reserved": 0, "rental_uris": {"ios": "https://dc.lft.to/lastmile_qr_scan", "android": "https://dc.lft.to/lastmile_qr_scan"}, "name": "dcd00a7933b9fe94445f9d30e5d4b17f", "bike_id": "dcd00a7933b9fe94445f9d30e5d4b17f", "type": "electric_scooter", "lat": 38.90087333333334, "fusion_lon": 0.0, "is_disabled": 0, "fusion_lat": 0.0, "lon": -77.0135995}, {"is_reserved": 0, "rental_uris": {"ios": "https://dc.lft.to/lastmile_qr_scan", "android": "https://dc.lft.to/lastmile_qr_scan"}, "name": "1894e5bf3f62b2d4afbb402d48537f56", "bike_id": "1894e5bf3f62b2d4afbb402d48537f56", "type": "electric_scooter", "lat": 38.8736985, "fusion_lon": 0.0, "is_disabled": 0, "fusion_lat": 0.0, "lon": -77.00089133333333}, {"is_reserved": 0, "rental_uris": {"ios": "https://dc.lft.to/lastmile_qr_scan", "android": "https://dc.lft.to/lastmile_qr_scan"}, "name": "1c02b57c21e99be20fe36aa748f05864", "bike_id": "1c02b57c21e99be20fe36aa748f05864", "type": "electric_scooter", "lat": 38.896186666666665, "fusion_lon": 0.0, "is_disabled": 0, "fusion_lat": 0.0, "lon": -76.99842333333333}, {"is_reserved": 0, "rental_uris": {"ios": "https://dc.lft.to/lastmile_qr_scan", "android": "https://dc.lft.to/lastmile_qr_scan"}, "name": "b38dee0513c6bf8b9717f19887950b2d", "bike_id": "b38dee0513c6bf8b9717f19887950b2d", "type": "electric_bike", "lat": 39.034077833333335, "fusion_lon": 0.0, "is_disabled": 0, "fusion_lat": 0.0, "lon": -77.04220533333333}, {"is_reserved": 0, "rental_uris": {"ios": "https://dc.lft.to/lastmile_qr_scan", "android": "https://dc.lft.to/lastmile_qr_scan"}, "name": "8230e447faabec7f8632c2710a7c9253", "bike_id": "8230e447faabec7f8632c2710a7c9253", "type": "electric_scooter", "lat": 38.9029695, "fusion_lon": 0.0, "is_disabled": 0, "fusion_lat": 0.0, "lon": -77.02049666666667}, {"is_reserved": 0, "rental_uris": {"ios": "https://dc.lft.to/lastmile_qr_scan", "android": "https://dc.lft.to/lastmile_qr_scan"}, "name": "0f5fc51fa453d18e9a995a39b16ab742", "bike_id": "0f5fc51fa453d18e9a995a39b16ab742", "type": "electric_scooter", "lat": 38.876246, "fusion_lon": 0.0, "is_disabled": 0, "fusion_lat": 0.0, "lon": -76.965288}, {"is_reserved": 0, "rental_uris": {"ios": "https://dc.lft.to/lastmile_qr_scan", "android": "https://dc.lft.to/lastmile_qr_scan"}, "name": "c5ff14a5574698ce3f48c829b8f154e3", "bike_id": "c5ff14a5574698ce3f48c829b8f154e3", "type": "electric_scooter", "lat": 38.919175333333335, "fusion_lon": 0.0, "is_disabled": 0, "fusion_lat": 0.0, "lon": -77.02522466666667}, {"is_reserved": 0, "rental_uris": {"ios": "https://dc.lft.to/lastmile_qr_scan", "android": "https://dc.lft.to/lastmile_qr_scan"}, "name": "5b0a0c4a1f0e30a950a66873be2e472b", "bike_id": "5b0a0c4a1f0e30a950a66873be2e472b", "type": "electric_scooter", "lat": 38.921831, "fusion_lon": 0.0, "is_disabled": 0, "fusion_lat": 0.0, "lon": -77.03218033333333}, {"is_reserved": 0, "rental_uris": {"ios": "https://dc.lft.to/lastmile_qr_scan", "android": "https://dc.lft.to/lastmile_qr_scan"}, "name": "8b2f41db764e665f6e0b321ab38bc629", "bike_id": "8b2f41db764e665f6e0b321ab38bc629", "type": "electric_scooter", "lat": 38.90514683333333, "fusion_lon": 0.0, "is_disabled": 0, "fusion_lat": 0.0, "lon": -77.04769766666666}, {"is_reserved": 0, "rental_uris": {"ios": "https://dc.lft.to/lastmile_qr_scan", "android": "https://dc.lft.to/lastmile_qr_scan"}, "name": "f8762971988bc432ceb5c02b91edc45b", "bike_id": "f8762971988bc432ceb5c02b91edc45b", "type": "electric_scooter", "lat": 38.85560866666667, "fusion_lon": 0.0, "is_disabled": 0, "fusion_lat": 0.0, "lon": -76.9949405}, {"is_reserved": 0, "rental_uris": {"ios": "https://dc.lft.to/lastmile_qr_scan", "android": "https://dc.lft.to/lastmile_qr_scan"}, "name": "060fce7848bee13e16353ec7abde92b8", "bike_id": "060fce7848bee13e16353ec7abde92b8", "type": "electric_scooter", "lat": 38.902796333333335, "fusion_lon": 0.0, "is_disabled": 0, "fusion_lat": 0.0, "lon": -77.04028166666667}, {"is_reserved": 0, "rental_uris": {"ios": "https://dc.lft.to/lastmile_qr_scan", "android": "https://dc.lft.to/lastmile_qr_scan"}, "name": "7315303bc7fb59333e9c82e4725880fc", "bike_id": "7315303bc7fb59333e9c82e4725880fc", "type": "electric_scooter", "lat": 38.94443783333333, "fusion_lon": 0.0, "is_disabled": 0, "fusion_lat": 0.0, "lon": -77.02348383333333}, {"is_reserved": 0, "rental_uris": {"ios": "https://dc.lft.to/lastmile_qr_scan", "android": "https://dc.lft.to/lastmile_qr_scan"}, "name": "073e053b0312617de16a6bcf873d0b06", "bike_id": "073e053b0312617de16a6bcf873d0b06", "type": "electric_scooter", "lat": 38.905607833333335, "fusion_lon": 0.0, "is_disabled": 0, "fusion_lat": 0.0, "lon": -77.04233966666666}, {"is_reserved": 0, "rental_uris": {"ios": "https://dc.lft.to/lastmile_qr_scan", "android": "https://dc.lft.to/lastmile_qr_scan"}, "name": "8735237b39744538269c5c2ea1dc149f", "bike_id": "8735237b39744538269c5c2ea1dc149f", "type": "electric_scooter", "lat": 38.905188, "fusion_lon": 0.0, "is_disabled": 0, "fusion_lat": 0.0, "lon": -77.005793}, {"is_reserved": 0, "rental_uris": {"ios": "https://dc.lft.to/lastmile_qr_scan", "android": "https://dc.lft.to/lastmile_qr_scan"}, "name": "3b968b3eedea74d4954aae839e02c2da", "bike_id": "3b968b3eedea74d4954aae839e02c2da", "type": "electric_bike", "lat": 38.93116966666667, "fusion_lon": 0.0, "is_disabled": 0, "fusion_lat": 0.0, "lon": -77.027414}, {"is_reserved": 0, "rental_uris": {"ios": "https://dc.lft.to/lastmile_qr_scan", "android": "https://dc.lft.to/lastmile_qr_scan"}, "name": "3edcc0bff0c860d74f528ada6de61e5f", "bike_id": "3edcc0bff0c860d74f528ada6de61e5f", "type": "electric_scooter", "lat": 38.926539, "fusion_lon": 0.0, "is_disabled": 0, "fusion_lat": 0.0, "lon": -77.0373035}, {"is_reserved": 0, "rental_uris": {"ios": "https://dc.lft.to/lastmile_qr_scan", "android": "https://dc.lft.to/lastmile_qr_scan"}, "name": "e88e17720e654cc87cf0923a1bc776f5", "bike_id": "e88e17720e654cc87cf0923a1bc776f5", "type": "electric_scooter", "lat": 38.921630666666665, "fusion_lon": 0.0, "is_disabled": 0, "fusion_lat": 0.0, "lon": -77.03233666666667}, {"is_reserved": 0, "rental_uris": {"ios": "https://dc.lft.to/lastmile_qr_scan", "android": "https://dc.lft.to/lastmile_qr_scan"}, "name": "dee86a6ad4dec09f5b5de340466cd1eb", "bike_id": "dee86a6ad4dec09f5b5de340466cd1eb", "type": "electric_scooter", "lat": 38.89625433333333, "fusion_lon": 0.0, "is_disabled": 0, "fusion_lat": 0.0, "lon": -77.0329}, {"is_reserved": 0, "rental_uris": {"ios": "https://dc.lft.to/lastmile_qr_scan", "android": "https://dc.lft.to/lastmile_qr_scan"}, "name": "74a3196376d925d994152015d082fb28", "bike_id": "74a3196376d925d994152015d082fb28", "type": "electric_scooter", "lat": 38.912552, "fusion_lon": 0.0, "is_disabled": 0, "fusion_lat": 0.0, "lon": -77.04468316666667}, {"is_reserved": 0, "rental_uris": {"ios": "https://dc.lft.to/lastmile_qr_scan", "android": "https://dc.lft.to/lastmile_qr_scan"}, "name": "061ce2b81d2f03baa15450eb00230fb3", "bike_id": "061ce2b81d2f03baa15450eb00230fb3", "type": "electric_scooter", "lat": 38.9176145, "fusion_lon": 0.0, "is_disabled": 0, "fusion_lat": 0.0, "lon": -77.03654983333334}, {"is_reserved": 0, "rental_uris": {"ios": "https://dc.lft.to/lastmile_qr_scan", "android": "https://dc.lft.to/lastmile_qr_scan"}, "name": "ac11a82e094153c852585f6574de9ee3", "bike_id": "ac11a82e094153c852585f6574de9ee3", "type": "electric_scooter", "lat": 38.899206666666664, "fusion_lon": 0.0, "is_disabled": 0, "fusion_lat": 0.0, "lon": -77.05415166666667}, {"is_reserved": 0, "rental_uris": {"ios": "https://dc.lft.to/lastmile_qr_scan", "android": "https://dc.lft.to/lastmile_qr_scan"}, "name": "e897a5003393ccacc52198376a5b6c8c", "bike_id": "e897a5003393ccacc52198376a5b6c8c", "type": "electric_scooter", "lat": 38.904110333333335, "fusion_lon": 0.0, "is_disabled": 0, "fusion_lat": 0.0, "lon": -77.04479833333333}, {"is_reserved": 0, "rental_uris": {"ios": "https://dc.lft.to/lastmile_qr_scan", "android": "https://dc.lft.to/lastmile_qr_scan"}, "name": "9aba27597dac581220056fb619317fa8", "bike_id": "9aba27597dac581220056fb619317fa8", "type": "electric_scooter", "lat": 38.874837166666666, "fusion_lon": 0.0, "is_disabled": 0, "fusion_lat": 0.0, "lon": -77.001876}, {"is_reserved": 0, "rental_uris": {"ios": "https://dc.lft.to/lastmile_qr_scan", "android": "https://dc.lft.to/lastmile_qr_scan"}, "name": "05aa359527816af7e0c6cccface60b14", "bike_id": "05aa359527816af7e0c6cccface60b14", "type": "electric_scooter", "lat": 38.8871265, "fusion_lon": 0.0, "is_disabled": 0, "fusion_lat": 0.0, "lon": -77.03183716666666}, {"is_reserved": 0, "rental_uris": {"ios": "https://dc.lft.to/lastmile_qr_scan", "android": "https://dc.lft.to/lastmile_qr_scan"}, "name": "fe445ae207da239a9b5aec8c0e72a48f", "bike_id": "fe445ae207da239a9b5aec8c0e72a48f", "type": "electric_scooter", "lat": 38.91875666666667, "fusion_lon": 0.0, "is_disabled": 0, "fusion_lat": 0.0, "lon": -76.97133283333334}, {"is_reserved": 0, "rental_uris": {"ios": "https://dc.lft.to/lastmile_qr_scan", "android": "https://dc.lft.to/lastmile_qr_scan"}, "name": "ba5083c7e482c98387bb7173772c11f7", "bike_id": "ba5083c7e482c98387bb7173772c11f7", "type": "electric_scooter", "lat": 38.930793666666666, "fusion_lon": 0.0, "is_disabled": 0, "fusion_lat": 0.0, "lon": -77.02797383333333}, {"is_reserved": 0, "rental_uris": {"ios": "https://dc.lft.to/lastmile_qr_scan", "android": "https://dc.lft.to/lastmile_qr_scan"}, "name": "274cdae0206b667c81ba39b8e865487a", "bike_id": "274cdae0206b667c81ba39b8e865487a", "type": "electric_scooter", "lat": 38.9334095, "fusion_lon": 0.0, "is_disabled": 0, "fusion_lat": 0.0, "lon": -76.99496116666667}, {"is_reserved": 0, "rental_uris": {"ios": "https://dc.lft.to/lastmile_qr_scan", "android": "https://dc.lft.to/lastmile_qr_scan"}, "name": "4af51622989f6714cd961736b54767e5", "bike_id": "4af51622989f6714cd961736b54767e5", "type": "electric_scooter", "lat": 38.900039666666665, "fusion_lon": 0.0, "is_disabled": 0, "fusion_lat": 0.0, "lon": -77.01178016666667}, {"is_reserved": 0, "rental_uris": {"ios": "https://dc.lft.to/lastmile_qr_scan", "android": "https://dc.lft.to/lastmile_qr_scan"}, "name": "bbf62d0b103d55697eb70a3999445473", "bike_id": "bbf62d0b103d55697eb70a3999445473", "type": "electric_scooter", "lat": 38.922303166666666, "fusion_lon": 0.0, "is_disabled": 0, "fusion_lat": 0.0, "lon": -77.04138566666667}, {"is_reserved": 0, "rental_uris": {"ios": "https://dc.lft.to/lastmile_qr_scan", "android": "https://dc.lft.to/lastmile_qr_scan"}, "name": "eca090ff7e7e0452bc4b0132d5b65cdc", "bike_id": "eca090ff7e7e0452bc4b0132d5b65cdc", "type": "electric_scooter", "lat": 38.884826, "fusion_lon": 0.0, "is_disabled": 0, "fusion_lat": 0.0, "lon": -76.94528616666666}, {"is_reserved": 0, "rental_uris": {"ios": "https://dc.lft.to/lastmile_qr_scan", "android": "https://dc.lft.to/lastmile_qr_scan"}, "name": "f5c6070e616d21b7449a4133eeab8c52", "bike_id": "f5c6070e616d21b7449a4133eeab8c52", "type": "electric_scooter", "lat": 38.897176333333334, "fusion_lon": 0.0, "is_disabled": 0, "fusion_lat": 0.0, "lon": -77.04703916666666}, {"is_reserved": 0, "rental_uris": {"ios": "https://dc.lft.to/lastmile_qr_scan", "android": "https://dc.lft.to/lastmile_qr_scan"}, "name": "1cc5915aa300c429a8162ceeeb2288d6", "bike_id": "1cc5915aa300c429a8162ceeeb2288d6", "type": "electric_scooter", "lat": 38.903481166666666, "fusion_lon": 0.0, "is_disabled": 0, "fusion_lat": 0.0, "lon": -77.02574983333334}, {"is_reserved": 0, "rental_uris": {"ios": "https://dc.lft.to/lastmile_qr_scan", "android": "https://dc.lft.to/lastmile_qr_scan"}, "name": "2f392ea4c4bbf0fcd8daceb7a8c47544", "bike_id": "2f392ea4c4bbf0fcd8daceb7a8c47544", "type": "electric_scooter", "lat": 38.915205666666665, "fusion_lon": 0.0, "is_disabled": 0, "fusion_lat": 0.0, "lon": -77.02007633333334}, {"is_reserved": 0, "rental_uris": {"ios": "https://dc.lft.to/lastmile_qr_scan", "android": "https://dc.lft.to/lastmile_qr_scan"}, "name": "295a8d7b1bf346439d282689fd0fc7e9", "bike_id": "295a8d7b1bf346439d282689fd0fc7e9", "type": "electric_scooter", "lat": 38.902502, "fusion_lon": 0.0, "is_disabled": 0, "fusion_lat": 0.0, "lon": -77.00574966666667}, {"is_reserved": 0, "rental_uris": {"ios": "https://dc.lft.to/lastmile_qr_scan", "android": "https://dc.lft.to/lastmile_qr_scan"}, "name": "c168ee676732e959492c10d59172cd9d", "bike_id": "c168ee676732e959492c10d59172cd9d", "type": "electric_scooter", "lat": 38.908735666666665, "fusion_lon": 0.0, "is_disabled": 0, "fusion_lat": 0.0, "lon": -76.99815483333333}, {"is_reserved": 0, "rental_uris": {"ios": "https://dc.lft.to/lastmile_qr_scan", "android": "https://dc.lft.to/lastmile_qr_scan"}, "name": "7dc4e1e91e837621c91ae66d700c04ba", "bike_id": "7dc4e1e91e837621c91ae66d700c04ba", "type": "electric_scooter", "lat": 38.92103633333333, "fusion_lon": 0.0, "is_disabled": 0, "fusion_lat": 0.0, "lon": -77.04229}, {"is_reserved": 0, "rental_uris": {"ios": "https://dc.lft.to/lastmile_qr_scan", "android": "https://dc.lft.to/lastmile_qr_scan"}, "name": "08ce6cb95d566142aaa0704e0a4dedf4", "bike_id": "08ce6cb95d566142aaa0704e0a4dedf4", "type": "electric_scooter", "lat": 38.92455916666667, "fusion_lon": 0.0, "is_disabled": 0, "fusion_lat": 0.0, "lon": -77.0576015}, {"is_reserved": 0, "rental_uris": {"ios": "https://dc.lft.to/lastmile_qr_scan", "android": "https://dc.lft.to/lastmile_qr_scan"}, "name": "4ee44e81b4bb6c22e2e90e39840cc571", "bike_id": "4ee44e81b4bb6c22e2e90e39840cc571", "type": "electric_scooter", "lat": 38.936333, "fusion_lon": 0.0, "is_disabled": 0, "fusion_lat": 0.0, "lon": -77.05879083333333}, {"is_reserved": 0, "rental_uris": {"ios": "https://dc.lft.to/lastmile_qr_scan", "android": "https://dc.lft.to/lastmile_qr_scan"}, "name": "d8b54315f40dfa59cbe6592cba7c2427", "bike_id": "d8b54315f40dfa59cbe6592cba7c2427", "type": "electric_scooter", "lat": 38.89594266666667, "fusion_lon": 0.0, "is_disabled": 0, "fusion_lat": 0.0, "lon": -76.95522666666666}, {"is_reserved": 0, "rental_uris": {"ios": "https://dc.lft.to/lastmile_qr_scan", "android": "https://dc.lft.to/lastmile_qr_scan"}, "name": "94c03628a8c6e8b5a4364ef366ae8990", "bike_id": "94c03628a8c6e8b5a4364ef366ae8990", "type": "electric_scooter", "lat": 38.9246395, "fusion_lon": 0.0, "is_disabled": 0, "fusion_lat": 0.0, "lon": -77.03390433333334}, {"is_reserved": 0, "rental_uris": {"ios": "https://dc.lft.to/lastmile_qr_scan", "android": "https://dc.lft.to/lastmile_qr_scan"}, "name": "92913125ba79bcf864e243b10e49c365", "bike_id": "92913125ba79bcf864e243b10e49c365", "type": "electric_scooter", "lat": 38.897186, "fusion_lon": 0.0, "is_disabled": 0, "fusion_lat": 0.0, "lon": -77.0079685}, {"is_reserved": 0, "rental_uris": {"ios": "https://dc.lft.to/lastmile_qr_scan", "android": "https://dc.lft.to/lastmile_qr_scan"}, "name": "6f5a07c1be1a01e639f4a344cb90a157", "bike_id": "6f5a07c1be1a01e639f4a344cb90a157", "type": "electric_scooter", "lat": 38.89223533333333, "fusion_lon": 0.0, "is_disabled": 0, "fusion_lat": 0.0, "lon": -77.02447266666667}, {"is_reserved": 0, "rental_uris": {"ios": "https://dc.lft.to/lastmile_qr_scan", "android": "https://dc.lft.to/lastmile_qr_scan"}, "name": "7fff2a8fa225cd8be8acade5d4d72f10", "bike_id": "7fff2a8fa225cd8be8acade5d4d72f10", "type": "electric_scooter", "lat": 38.94304733333333, "fusion_lon": 0.0, "is_disabled": 0, "fusion_lat": 0.0, "lon": -77.06171483333334}, {"is_reserved": 0, "rental_uris": {"ios": "https://dc.lft.to/lastmile_qr_scan", "android": "https://dc.lft.to/lastmile_qr_scan"}, "name": "f5013def78dc71b47fc434969540eea5", "bike_id": "f5013def78dc71b47fc434969540eea5", "type": "electric_scooter", "lat": 38.90237183333333, "fusion_lon": 0.0, "is_disabled": 0, "fusion_lat": 0.0, "lon": -77.00577366666667}, {"is_reserved": 0, "rental_uris": {"ios": "https://dc.lft.to/lastmile_qr_scan", "android": "https://dc.lft.to/lastmile_qr_scan"}, "name": "de0f21fb8ada7bff2f670e78e9f4b79c", "bike_id": "de0f21fb8ada7bff2f670e78e9f4b79c", "type": "electric_scooter", "lat": 38.906884, "fusion_lon": 0.0, "is_disabled": 0, "fusion_lat": 0.0, "lon": -77.03592683333333}, {"is_reserved": 0, "rental_uris": {"ios": "https://dc.lft.to/lastmile_qr_scan", "android": "https://dc.lft.to/lastmile_qr_scan"}, "name": "916f5e7bd7056781dbea24a6823aa800", "bike_id": "916f5e7bd7056781dbea24a6823aa800", "type": "electric_scooter", "lat": 38.93740916666667, "fusion_lon": 0.0, "is_disabled": 0, "fusion_lat": 0.0, "lon": -77.024339}, {"is_reserved": 0, "rental_uris": {"ios": "https://dc.lft.to/lastmile_qr_scan", "android": "https://dc.lft.to/lastmile_qr_scan"}, "name": "21e08c037d9dbba2eed22ed90998e302", "bike_id": "21e08c037d9dbba2eed22ed90998e302", "type": "electric_scooter", "lat": 38.949802, "fusion_lon": 0.0, "is_disabled": 0, "fusion_lat": 0.0, "lon": -77.0269715}, {"is_reserved": 0, "rental_uris": {"ios": "https://dc.lft.to/lastmile_qr_scan", "android": "https://dc.lft.to/lastmile_qr_scan"}, "name": "c44c22be9786ee9d4a154b95533975a9", "bike_id": "c44c22be9786ee9d4a154b95533975a9", "type": "electric_bike", "lat": 38.94200633333333, "fusion_lon": 0.0, "is_disabled": 0, "fusion_lat": 0.0, "lon": -77.018259}, {"is_reserved": 0, "rental_uris": {"ios": "https://dc.lft.to/lastmile_qr_scan", "android": "https://dc.lft.to/lastmile_qr_scan"}, "name": "198d316ae3b1c48f75927ef9e25b9f91", "bike_id": "198d316ae3b1c48f75927ef9e25b9f91", "type": "electric_scooter", "lat": 38.858066666666666, "fusion_lon": 0.0, "is_disabled": 0, "fusion_lat": 0.0, "lon": -76.98656083333333}, {"is_reserved": 0, "rental_uris": {"ios": "https://dc.lft.to/lastmile_qr_scan", "android": "https://dc.lft.to/lastmile_qr_scan"}, "name": "ea2a0691a4c54af5c2d4782114b129fa", "bike_id": "ea2a0691a4c54af5c2d4782114b129fa", "type": "electric_scooter", "lat": 38.92608116666667, "fusion_lon": 0.0, "is_disabled": 0, "fusion_lat": 0.0, "lon": -77.0368595}, {"is_reserved": 0, "rental_uris": {"ios": "https://dc.lft.to/lastmile_qr_scan", "android": "https://dc.lft.to/lastmile_qr_scan"}, "name": "625ad4fe2b070c539cf04288fb8dce97", "bike_id": "625ad4fe2b070c539cf04288fb8dce97", "type": "electric_scooter", "lat": 38.923267833333334, "fusion_lon": 0.0, "is_disabled": 0, "fusion_lat": 0.0, "lon": -77.037777}, {"is_reserved": 0, "rental_uris": {"ios": "https://dc.lft.to/lastmile_qr_scan", "android": "https://dc.lft.to/lastmile_qr_scan"}, "name": "2132dd20d39ecb06a4186db59d8269f9", "bike_id": "2132dd20d39ecb06a4186db59d8269f9", "type": "electric_scooter", "lat": 38.9109845, "fusion_lon": 0.0, "is_disabled": 0, "fusion_lat": 0.0, "lon": -77.03216383333333}, {"is_reserved": 0, "rental_uris": {"ios": "https://dc.lft.to/lastmile_qr_scan", "android": "https://dc.lft.to/lastmile_qr_scan"}, "name": "e595976b2068a911d3eb8c3ff2e1404f", "bike_id": "e595976b2068a911d3eb8c3ff2e1404f", "type": "electric_scooter", "lat": 38.909844166666666, "fusion_lon": 0.0, "is_disabled": 0, "fusion_lat": 0.0, "lon": -77.03848416666666}, {"is_reserved": 0, "rental_uris": {"ios": "https://dc.lft.to/lastmile_qr_scan", "android": "https://dc.lft.to/lastmile_qr_scan"}, "name": "2b2d8d9802b7643cedeb1b507b317ff4", "bike_id": "2b2d8d9802b7643cedeb1b507b317ff4", "type": "electric_scooter", "lat": 38.88719433333333, "fusion_lon": 0.0, "is_disabled": 0, "fusion_lat": 0.0, "lon": -77.01384316666666}, {"is_reserved": 0, "rental_uris": {"ios": "https://dc.lft.to/lastmile_qr_scan", "android": "https://dc.lft.to/lastmile_qr_scan"}, "name": "6df8f5a37e47f2b58b57e3a898ea5e59", "bike_id": "6df8f5a37e47f2b58b57e3a898ea5e59", "type": "electric_scooter", "lat": 38.91710366666667, "fusion_lon": 0.0, "is_disabled": 0, "fusion_lat": 0.0, "lon": -77.03498716666667}, {"is_reserved": 0, "rental_uris": {"ios": "https://dc.lft.to/lastmile_qr_scan", "android": "https://dc.lft.to/lastmile_qr_scan"}, "name": "15d75c85b88b0237325501c54dfde49c", "bike_id": "15d75c85b88b0237325501c54dfde49c", "type": "electric_scooter", "lat": 38.8635935, "fusion_lon": 0.0, "is_disabled": 0, "fusion_lat": 0.0, "lon": -76.98271433333333}, {"is_reserved": 0, "rental_uris": {"ios": "https://dc.lft.to/lastmile_qr_scan", "android": "https://dc.lft.to/lastmile_qr_scan"}, "name": "cdc7a42fa4c2f101fbb2871a07ac8526", "bike_id": "cdc7a42fa4c2f101fbb2871a07ac8526", "type": "electric_scooter", "lat": 38.93969, "fusion_lon": 0.0, "is_disabled": 0, "fusion_lat": 0.0, "lon": -77.03594266666667}, {"is_reserved": 0, "rental_uris": {"ios": "https://dc.lft.to/lastmile_qr_scan", "android": "https://dc.lft.to/lastmile_qr_scan"}, "name": "b88ff06185251d67d4cd10b3783dcc64", "bike_id": "b88ff06185251d67d4cd10b3783dcc64", "type": "electric_scooter", "lat": 38.9078235, "fusion_lon": 0.0, "is_disabled": 0, "fusion_lat": 0.0, "lon": -77.06906916666667}, {"is_reserved": 0, "rental_uris": {"ios": "https://dc.lft.to/lastmile_qr_scan", "android": "https://dc.lft.to/lastmile_qr_scan"}, "name": "6c7b5c6fc364c83135791af510314ea0", "bike_id": "6c7b5c6fc364c83135791af510314ea0", "type": "electric_scooter", "lat": 38.91577483333333, "fusion_lon": 0.0, "is_disabled": 0, "fusion_lat": 0.0, "lon": -77.012343}, {"is_reserved": 0, "rental_uris": {"ios": "https://dc.lft.to/lastmile_qr_scan", "android": "https://dc.lft.to/lastmile_qr_scan"}, "name": "a490614e400908ee04ca830d3ca9ed49", "bike_id": "a490614e400908ee04ca830d3ca9ed49", "type": "electric_scooter", "lat": 38.93233466666667, "fusion_lon": 0.0, "is_disabled": 0, "fusion_lat": 0.0, "lon": -77.03268166666666}, {"is_reserved": 0, "rental_uris": {"ios": "https://dc.lft.to/lastmile_qr_scan", "android": "https://dc.lft.to/lastmile_qr_scan"}, "name": "5a0bf197eb48e943234c8d85b5d76732", "bike_id": "5a0bf197eb48e943234c8d85b5d76732", "type": "electric_bike", "lat": 38.95192616666667, "fusion_lon": 0.0, "is_disabled": 0, "fusion_lat": 0.0, "lon": -77.08134283333334}, {"is_reserved": 0, "rental_uris": {"ios": "https://dc.lft.to/lastmile_qr_scan", "android": "https://dc.lft.to/lastmile_qr_scan"}, "name": "1c1908b179addc3101938b46f262db7b", "bike_id": "1c1908b179addc3101938b46f262db7b", "type": "electric_scooter", "lat": 38.924551666666666, "fusion_lon": 0.0, "is_disabled": 0, "fusion_lat": 0.0, "lon": -77.0122555}, {"is_reserved": 0, "rental_uris": {"ios": "https://dc.lft.to/lastmile_qr_scan", "android": "https://dc.lft.to/lastmile_qr_scan"}, "name": "4b1cbe919a70ad67b1992f5231568bb9", "bike_id": "4b1cbe919a70ad67b1992f5231568bb9", "type": "electric_scooter", "lat": 38.90875316666666, "fusion_lon": 0.0, "is_disabled": 0, "fusion_lat": 0.0, "lon": -77.03658816666666}, {"is_reserved": 0, "rental_uris": {"ios": "https://dc.lft.to/lastmile_qr_scan", "android": "https://dc.lft.to/lastmile_qr_scan"}, "name": "c0a1a89eefd19b260c35f08b57a7d9c4", "bike_id": "c0a1a89eefd19b260c35f08b57a7d9c4", "type": "electric_scooter", "lat": 38.894818666666666, "fusion_lon": 0.0, "is_disabled": 0, "fusion_lat": 0.0, "lon": -77.049649}, {"is_reserved": 0, "rental_uris": {"ios": "https://dc.lft.to/lastmile_qr_scan", "android": "https://dc.lft.to/lastmile_qr_scan"}, "name": "3f1f44deac541cc4358ba2c38f802133", "bike_id": "3f1f44deac541cc4358ba2c38f802133", "type": "electric_scooter", "lat": 38.891703666666665, "fusion_lon": 0.0, "is_disabled": 0, "fusion_lat": 0.0, "lon": -77.0155535}, {"is_reserved": 0, "rental_uris": {"ios": "https://dc.lft.to/lastmile_qr_scan", "android": "https://dc.lft.to/lastmile_qr_scan"}, "name": "ad9cc4613c778c0d61423cdcdb5d7014", "bike_id": "ad9cc4613c778c0d61423cdcdb5d7014", "type": "electric_scooter", "lat": 38.92753233333333, "fusion_lon": 0.0, "is_disabled": 0, "fusion_lat": 0.0, "lon": -77.00597916666666}, {"is_reserved": 0, "rental_uris": {"ios": "https://dc.lft.to/lastmile_qr_scan", "android": "https://dc.lft.to/lastmile_qr_scan"}, "name": "f7aebaf2a0d9fa6287d43ce81cff853f", "bike_id": "f7aebaf2a0d9fa6287d43ce81cff853f", "type": "electric_scooter", "lat": 38.897331666666666, "fusion_lon": 0.0, "is_disabled": 0, "fusion_lat": 0.0, "lon": -77.03123216666667}, {"is_reserved": 0, "rental_uris": {"ios": "https://dc.lft.to/lastmile_qr_scan", "android": "https://dc.lft.to/lastmile_qr_scan"}, "name": "9049fb7f15d32fe23974366936924ccf", "bike_id": "9049fb7f15d32fe23974366936924ccf", "type": "electric_scooter", "lat": 38.92481166666666, "fusion_lon": 0.0, "is_disabled": 0, "fusion_lat": 0.0, "lon": -77.0272285}, {"is_reserved": 0, "rental_uris": {"ios": "https://dc.lft.to/lastmile_qr_scan", "android": "https://dc.lft.to/lastmile_qr_scan"}, "name": "3de6834314a2021a2f7099f89efaa77b", "bike_id": "3de6834314a2021a2f7099f89efaa77b", "type": "electric_scooter", "lat": 38.9331735, "fusion_lon": 0.0, "is_disabled": 0, "fusion_lat": 0.0, "lon": -77.029341}, {"is_reserved": 0, "rental_uris": {"ios": "https://dc.lft.to/lastmile_qr_scan", "android": "https://dc.lft.to/lastmile_qr_scan"}, "name": "28fd350b3c332212360e35186148aa7f", "bike_id": "28fd350b3c332212360e35186148aa7f", "type": "electric_scooter", "lat": 38.934884333333336, "fusion_lon": 0.0, "is_disabled": 0, "fusion_lat": 0.0, "lon": -77.0328195}, {"is_reserved": 0, "rental_uris": {"ios": "https://dc.lft.to/lastmile_qr_scan", "android": "https://dc.lft.to/lastmile_qr_scan"}, "name": "3a0d71703efc5116183b3c6c428f53ad", "bike_id": "3a0d71703efc5116183b3c6c428f53ad", "type": "electric_scooter", "lat": 38.906839166666664, "fusion_lon": 0.0, "is_disabled": 0, "fusion_lat": 0.0, "lon": -77.02693583333334}, {"is_reserved": 0, "rental_uris": {"ios": "https://dc.lft.to/lastmile_qr_scan", "android": "https://dc.lft.to/lastmile_qr_scan"}, "name": "92258c66085782b1651bd8e8e7e48d2b", "bike_id": "92258c66085782b1651bd8e8e7e48d2b", "type": "electric_scooter", "lat": 38.9059305, "fusion_lon": 0.0, "is_disabled": 0, "fusion_lat": 0.0, "lon": -77.03977}, {"is_reserved": 0, "rental_uris": {"ios": "https://dc.lft.to/lastmile_qr_scan", "android": "https://dc.lft.to/lastmile_qr_scan"}, "name": "49b53f57321cc3e43c40a96af21606dc", "bike_id": "49b53f57321cc3e43c40a96af21606dc", "type": "electric_scooter", "lat": 38.898812, "fusion_lon": 0.0, "is_disabled": 0, "fusion_lat": 0.0, "lon": -76.93175633333334}, {"is_reserved": 0, "rental_uris": {"ios": "https://dc.lft.to/lastmile_qr_scan", "android": "https://dc.lft.to/lastmile_qr_scan"}, "name": "5b89b587285cbdc4c7b73ffc644615ec", "bike_id": "5b89b587285cbdc4c7b73ffc644615ec", "type": "electric_scooter", "lat": 38.93491016666667, "fusion_lon": 0.0, "is_disabled": 0, "fusion_lat": 0.0, "lon": -77.07255816666667}, {"is_reserved": 0, "rental_uris": {"ios": "https://dc.lft.to/lastmile_qr_scan", "android": "https://dc.lft.to/lastmile_qr_scan"}, "name": "367c530251f950bbed0c9d759d25976d", "bike_id": "367c530251f950bbed0c9d759d25976d", "type": "electric_scooter", "lat": 38.90695566666667, "fusion_lon": 0.0, "is_disabled": 0, "fusion_lat": 0.0, "lon": -77.02382883333334}, {"is_reserved": 0, "rental_uris": {"ios": "https://dc.lft.to/lastmile_qr_scan", "android": "https://dc.lft.to/lastmile_qr_scan"}, "name": "20c74320336ac09d18140d47c70e2ad0", "bike_id": "20c74320336ac09d18140d47c70e2ad0", "type": "electric_scooter", "lat": 38.9095605, "fusion_lon": 0.0, "is_disabled": 0, "fusion_lat": 0.0, "lon": -77.03471433333333}, {"is_reserved": 0, "rental_uris": {"ios": "https://dc.lft.to/lastmile_qr_scan", "android": "https://dc.lft.to/lastmile_qr_scan"}, "name": "3ba635af8a186b557c1324366695b683", "bike_id": "3ba635af8a186b557c1324366695b683", "type": "electric_scooter", "lat": 38.9051455, "fusion_lon": 0.0, "is_disabled": 0, "fusion_lat": 0.0, "lon": -77.06865016666667}, {"is_reserved": 0, "rental_uris": {"ios": "https://dc.lft.to/lastmile_qr_scan", "android": "https://dc.lft.to/lastmile_qr_scan"}, "name": "154220477a89dc240de620ee9a2f2c94", "bike_id": "154220477a89dc240de620ee9a2f2c94", "type": "electric_scooter", "lat": 38.8858625, "fusion_lon": 0.0, "is_disabled": 0, "fusion_lat": 0.0, "lon": -77.01976133333334}, {"is_reserved": 0, "rental_uris": {"ios": "https://dc.lft.to/lastmile_qr_scan", "android": "https://dc.lft.to/lastmile_qr_scan"}, "name": "58cf716c112eeef22711de2e2c2cb002", "bike_id": "58cf716c112eeef22711de2e2c2cb002", "type": "electric_scooter", "lat": 38.8777745, "fusion_lon": 0.0, "is_disabled": 0, "fusion_lat": 0.0, "lon": -77.01441183333333}, {"is_reserved": 0, "rental_uris": {"ios": "https://dc.lft.to/lastmile_qr_scan", "android": "https://dc.lft.to/lastmile_qr_scan"}, "name": "bb64b6f75067b14335272f10c62a18f1", "bike_id": "bb64b6f75067b14335272f10c62a18f1", "type": "electric_scooter", "lat": 38.9198155, "fusion_lon": 0.0, "is_disabled": 0, "fusion_lat": 0.0, "lon": -77.04191383333334}, {"is_reserved": 0, "rental_uris": {"ios": "https://dc.lft.to/lastmile_qr_scan", "android": "https://dc.lft.to/lastmile_qr_scan"}, "name": "7c5cd3ab3a2fca129d6b9c839f3b683a", "bike_id": "7c5cd3ab3a2fca129d6b9c839f3b683a", "type": "electric_scooter", "lat": 38.949789, "fusion_lon": 0.0, "is_disabled": 0, "fusion_lat": 0.0, "lon": -77.0269965}, {"is_reserved": 0, "rental_uris": {"ios": "https://dc.lft.to/lastmile_qr_scan", "android": "https://dc.lft.to/lastmile_qr_scan"}, "name": "28c1ae31a7b84946cb4824ddab5161e1", "bike_id": "28c1ae31a7b84946cb4824ddab5161e1", "type": "electric_scooter", "lat": 38.89096816666667, "fusion_lon": 0.0, "is_disabled": 0, "fusion_lat": 0.0, "lon": -77.00195366666667}, {"is_reserved": 0, "rental_uris": {"ios": "https://dc.lft.to/lastmile_qr_scan", "android": "https://dc.lft.to/lastmile_qr_scan"}, "name": "1995a29c235e2b6814673f372eedf3f9", "bike_id": "1995a29c235e2b6814673f372eedf3f9", "type": "electric_scooter", "lat": 38.917643166666664, "fusion_lon": 0.0, "is_disabled": 0, "fusion_lat": 0.0, "lon": -77.0319455}, {"is_reserved": 0, "rental_uris": {"ios": "https://dc.lft.to/lastmile_qr_scan", "android": "https://dc.lft.to/lastmile_qr_scan"}, "name": "bf6cd446391b2615407bd408960f7b12", "bike_id": "bf6cd446391b2615407bd408960f7b12", "type": "electric_scooter", "lat": 38.865672833333335, "fusion_lon": 0.0, "is_disabled": 0, "fusion_lat": 0.0, "lon": -76.9895675}, {"is_reserved": 0, "rental_uris": {"ios": "https://dc.lft.to/lastmile_qr_scan", "android": "https://dc.lft.to/lastmile_qr_scan"}, "name": "2132a793c786a75c8eef5978f699965c", "bike_id": "2132a793c786a75c8eef5978f699965c", "type": "electric_scooter", "lat": 38.9483565, "fusion_lon": 0.0, "is_disabled": 0, "fusion_lat": 0.0, "lon": -77.025628}, {"is_reserved": 0, "rental_uris": {"ios": "https://dc.lft.to/lastmile_qr_scan", "android": "https://dc.lft.to/lastmile_qr_scan"}, "name": "2953968357784bf3c3b84fbf5cdcf76b", "bike_id": "2953968357784bf3c3b84fbf5cdcf76b", "type": "electric_scooter", "lat": 38.892322, "fusion_lon": 0.0, "is_disabled": 0, "fusion_lat": 0.0, "lon": -77.02829333333334}, {"is_reserved": 0, "rental_uris": {"ios": "https://dc.lft.to/lastmile_qr_scan", "android": "https://dc.lft.to/lastmile_qr_scan"}, "name": "80ee5538badd175c950a9c49a1479e6e", "bike_id": "80ee5538badd175c950a9c49a1479e6e", "type": "electric_scooter", "lat": 38.9005725, "fusion_lon": 0.0, "is_disabled": 0, "fusion_lat": 0.0, "lon": -77.04335833333333}, {"is_reserved": 0, "rental_uris": {"ios": "https://dc.lft.to/lastmile_qr_scan", "android": "https://dc.lft.to/lastmile_qr_scan"}, "name": "00f1e2e8e29703088c7cc91fbaf3c277", "bike_id": "00f1e2e8e29703088c7cc91fbaf3c277", "type": "electric_scooter", "lat": 38.88993766666667, "fusion_lon": 0.0, "is_disabled": 0, "fusion_lat": 0.0, "lon": -77.003534}, {"is_reserved": 0, "rental_uris": {"ios": "https://dc.lft.to/lastmile_qr_scan", "android": "https://dc.lft.to/lastmile_qr_scan"}, "name": "27f38270dc3b2a517e70f2adfa08c797", "bike_id": "27f38270dc3b2a517e70f2adfa08c797", "type": "electric_scooter", "lat": 38.923292000000004, "fusion_lon": 0.0, "is_disabled": 0, "fusion_lat": 0.0, "lon": -77.054719}, {"is_reserved": 0, "rental_uris": {"ios": "https://dc.lft.to/lastmile_qr_scan", "android": "https://dc.lft.to/lastmile_qr_scan"}, "name": "a3ce95562bd1312ddb8c87fefd434b05", "bike_id": "a3ce95562bd1312ddb8c87fefd434b05", "type": "electric_scooter", "lat": 38.92767533333333, "fusion_lon": 0.0, "is_disabled": 0, "fusion_lat": 0.0, "lon": -77.02738316666667}, {"is_reserved": 0, "rental_uris": {"ios": "https://dc.lft.to/lastmile_qr_scan", "android": "https://dc.lft.to/lastmile_qr_scan"}, "name": "7d95bdb66c17e2b989c1d1597418ad14", "bike_id": "7d95bdb66c17e2b989c1d1597418ad14", "type": "electric_scooter", "lat": 38.91660533333334, "fusion_lon": 0.0, "is_disabled": 0, "fusion_lat": 0.0, "lon": -77.04386866666667}, {"is_reserved": 0, "rental_uris": {"ios": "https://dc.lft.to/lastmile_qr_scan", "android": "https://dc.lft.to/lastmile_qr_scan"}, "name": "60262d60d18a82eb28adb67013e78b50", "bike_id": "60262d60d18a82eb28adb67013e78b50", "type": "electric_scooter", "lat": 38.89552783333333, "fusion_lon": 0.0, "is_disabled": 0, "fusion_lat": 0.0, "lon": -76.9308065}, {"is_reserved": 0, "rental_uris": {"ios": "https://dc.lft.to/lastmile_qr_scan", "android": "https://dc.lft.to/lastmile_qr_scan"}, "name": "c0e79b7463f87bbd930c43c4a43d4f7a", "bike_id": "c0e79b7463f87bbd930c43c4a43d4f7a", "type": "electric_scooter", "lat": 38.9013565, "fusion_lon": 0.0, "is_disabled": 0, "fusion_lat": 0.0, "lon": -77.04885566666667}, {"is_reserved": 0, "rental_uris": {"ios": "https://dc.lft.to/lastmile_qr_scan", "android": "https://dc.lft.to/lastmile_qr_scan"}, "name": "46e67f723304aee386ca9125aa1edca9", "bike_id": "46e67f723304aee386ca9125aa1edca9", "type": "electric_scooter", "lat": 38.91965716666667, "fusion_lon": 0.0, "is_disabled": 0, "fusion_lat": 0.0, "lon": -77.03961816666667}, {"is_reserved": 0, "rental_uris": {"ios": "https://dc.lft.to/lastmile_qr_scan", "android": "https://dc.lft.to/lastmile_qr_scan"}, "name": "abe3aea1f5c0320dc44a0fd510e631b6", "bike_id": "abe3aea1f5c0320dc44a0fd510e631b6", "type": "electric_scooter", "lat": 38.91786616666667, "fusion_lon": 0.0, "is_disabled": 0, "fusion_lat": 0.0, "lon": -77.0403445}, {"is_reserved": 0, "rental_uris": {"ios": "https://dc.lft.to/lastmile_qr_scan", "android": "https://dc.lft.to/lastmile_qr_scan"}, "name": "f4a73d1ef29b5e0b681e3e44b5b064a8", "bike_id": "f4a73d1ef29b5e0b681e3e44b5b064a8", "type": "electric_bike", "lat": 38.939583666666664, "fusion_lon": 0.0, "is_disabled": 0, "fusion_lat": 0.0, "lon": -77.36097}, {"is_reserved": 0, "rental_uris": {"ios": "https://dc.lft.to/lastmile_qr_scan", "android": "https://dc.lft.to/lastmile_qr_scan"}, "name": "493512142a6f643cb23cda9dc04f9262", "bike_id": "493512142a6f643cb23cda9dc04f9262", "type": "electric_scooter", "lat": 38.927569, "fusion_lon": 0.0, "is_disabled": 0, "fusion_lat": 0.0, "lon": -77.03221383333333}, {"is_reserved": 0, "rental_uris": {"ios": "https://dc.lft.to/lastmile_qr_scan", "android": "https://dc.lft.to/lastmile_qr_scan"}, "name": "9ba1d379ccaf9610f71fcec2da636120", "bike_id": "9ba1d379ccaf9610f71fcec2da636120", "type": "electric_scooter", "lat": 38.89720416666667, "fusion_lon": 0.0, "is_disabled": 0, "fusion_lat": 0.0, "lon": -77.04691216666667}, {"is_reserved": 0, "rental_uris": {"ios": "https://dc.lft.to/lastmile_qr_scan", "android": "https://dc.lft.to/lastmile_qr_scan"}, "name": "1e27843f32a346aaecc518272a1a31d5", "bike_id": "1e27843f32a346aaecc518272a1a31d5", "type": "electric_scooter", "lat": 38.918577666666664, "fusion_lon": 0.0, "is_disabled": 0, "fusion_lat": 0.0, "lon": -77.0416615}, {"is_reserved": 0, "rental_uris": {"ios": "https://dc.lft.to/lastmile_qr_scan", "android": "https://dc.lft.to/lastmile_qr_scan"}, "name": "88f14301e736025c53de88a2eec058a4", "bike_id": "88f14301e736025c53de88a2eec058a4", "type": "electric_scooter", "lat": 38.91262916666667, "fusion_lon": 0.0, "is_disabled": 0, "fusion_lat": 0.0, "lon": -77.04552433333333}, {"is_reserved": 0, "rental_uris": {"ios": "https://dc.lft.to/lastmile_qr_scan", "android": "https://dc.lft.to/lastmile_qr_scan"}, "name": "bcbfd596682d3930688282c24bd3bcc8", "bike_id": "bcbfd596682d3930688282c24bd3bcc8", "type": "electric_scooter", "lat": 38.89551783333334, "fusion_lon": 0.0, "is_disabled": 0, "fusion_lat": 0.0, "lon": -77.046724}, {"is_reserved": 0, "rental_uris": {"ios": "https://dc.lft.to/lastmile_qr_scan", "android": "https://dc.lft.to/lastmile_qr_scan"}, "name": "a9befeb6980179af8e84120f893fa1e0", "bike_id": "a9befeb6980179af8e84120f893fa1e0", "type": "electric_scooter", "lat": 38.8634355, "fusion_lon": 0.0, "is_disabled": 0, "fusion_lat": 0.0, "lon": -76.99001916666667}, {"is_reserved": 0, "rental_uris": {"ios": "https://dc.lft.to/lastmile_qr_scan", "android": "https://dc.lft.to/lastmile_qr_scan"}, "name": "5cb011b95f25643400fe30cda29ba5af", "bike_id": "5cb011b95f25643400fe30cda29ba5af", "type": "electric_scooter", "lat": 38.9053995, "fusion_lon": 0.0, "is_disabled": 0, "fusion_lat": 0.0, "lon": -77.04744533333333}, {"is_reserved": 0, "rental_uris": {"ios": "https://dc.lft.to/lastmile_qr_scan", "android": "https://dc.lft.to/lastmile_qr_scan"}, "name": "737008a772b6e4f94aacb0f31fab0f26", "bike_id": "737008a772b6e4f94aacb0f31fab0f26", "type": "electric_scooter", "lat": 38.921118666666665, "fusion_lon": 0.0, "is_disabled": 0, "fusion_lat": 0.0, "lon": -77.04442166666666}, {"is_reserved": 0, "rental_uris": {"ios": "https://dc.lft.to/lastmile_qr_scan", "android": "https://dc.lft.to/lastmile_qr_scan"}, "name": "9aef94e253b2ac76ba8ab134a1bf9722", "bike_id": "9aef94e253b2ac76ba8ab134a1bf9722", "type": "electric_scooter", "lat": 38.90442433333333, "fusion_lon": 0.0, "is_disabled": 0, "fusion_lat": 0.0, "lon": -77.06116033333333}, {"is_reserved": 0, "rental_uris": {"ios": "https://dc.lft.to/lastmile_qr_scan", "android": "https://dc.lft.to/lastmile_qr_scan"}, "name": "c6c357b9e430184516a031b72d893d2a", "bike_id": "c6c357b9e430184516a031b72d893d2a", "type": "electric_scooter", "lat": 38.957679166666665, "fusion_lon": 0.0, "is_disabled": 0, "fusion_lat": 0.0, "lon": -77.02466466666667}, {"is_reserved": 0, "rental_uris": {"ios": "https://dc.lft.to/lastmile_qr_scan", "android": "https://dc.lft.to/lastmile_qr_scan"}, "name": "72739870508eecb93412d647acf867a2", "bike_id": "72739870508eecb93412d647acf867a2", "type": "electric_scooter", "lat": 38.898116333333334, "fusion_lon": 0.0, "is_disabled": 0, "fusion_lat": 0.0, "lon": -77.03297916666666}, {"is_reserved": 0, "rental_uris": {"ios": "https://dc.lft.to/lastmile_qr_scan", "android": "https://dc.lft.to/lastmile_qr_scan"}, "name": "ecde9261ec6fef04225803db52805d75", "bike_id": "ecde9261ec6fef04225803db52805d75", "type": "electric_bike", "lat": 38.92582216666667, "fusion_lon": 0.0, "is_disabled": 0, "fusion_lat": 0.0, "lon": -77.03743616666667}, {"is_reserved": 0, "rental_uris": {"ios": "https://dc.lft.to/lastmile_qr_scan", "android": "https://dc.lft.to/lastmile_qr_scan"}, "name": "65e47638bb53a9c695df1e8d23faa129", "bike_id": "65e47638bb53a9c695df1e8d23faa129", "type": "electric_scooter", "lat": 38.842891, "fusion_lon": 0.0, "is_disabled": 0, "fusion_lat": 0.0, "lon": -76.99953816666667}, {"is_reserved": 0, "rental_uris": {"ios": "https://dc.lft.to/lastmile_qr_scan", "android": "https://dc.lft.to/lastmile_qr_scan"}, "name": "80d7524945651b0e95762fe6638011e9", "bike_id": "80d7524945651b0e95762fe6638011e9", "type": "electric_scooter", "lat": 38.899156833333336, "fusion_lon": 0.0, "is_disabled": 0, "fusion_lat": 0.0, "lon": -76.933811}, {"is_reserved": 0, "rental_uris": {"ios": "https://dc.lft.to/lastmile_qr_scan", "android": "https://dc.lft.to/lastmile_qr_scan"}, "name": "e3c81c50582df06e070354b5d4cca845", "bike_id": "e3c81c50582df06e070354b5d4cca845", "type": "electric_bike", "lat": 38.955505333333335, "fusion_lon": 0.0, "is_disabled": 0, "fusion_lat": 0.0, "lon": -76.9354575}, {"is_reserved": 0, "rental_uris": {"ios": "https://dc.lft.to/lastmile_qr_scan", "android": "https://dc.lft.to/lastmile_qr_scan"}, "name": "592542a61f49cc690ea26cfc926d0ef8", "bike_id": "592542a61f49cc690ea26cfc926d0ef8", "type": "electric_scooter", "lat": 38.8851535, "fusion_lon": 0.0, "is_disabled": 0, "fusion_lat": 0.0, "lon": -77.03362283333334}, {"is_reserved": 0, "rental_uris": {"ios": "https://dc.lft.to/lastmile_qr_scan", "android": "https://dc.lft.to/lastmile_qr_scan"}, "name": "d60531513682fcf23f24ce16ab5a5d32", "bike_id": "d60531513682fcf23f24ce16ab5a5d32", "type": "electric_scooter", "lat": 38.897379, "fusion_lon": 0.0, "is_disabled": 0, "fusion_lat": 0.0, "lon": -77.03261916666666}, {"is_reserved": 0, "rental_uris": {"ios": "https://dc.lft.to/lastmile_qr_scan", "android": "https://dc.lft.to/lastmile_qr_scan"}, "name": "cfc13730b286bebc89bc1751244b4d41", "bike_id": "cfc13730b286bebc89bc1751244b4d41", "type": "electric_scooter", "lat": 38.89853316666667, "fusion_lon": 0.0, "is_disabled": 0, "fusion_lat": 0.0, "lon": -77.04368166666667}, {"is_reserved": 0, "rental_uris": {"ios": "https://dc.lft.to/lastmile_qr_scan", "android": "https://dc.lft.to/lastmile_qr_scan"}, "name": "33830734d3c4fbc9a783dfb711d98d9b", "bike_id": "33830734d3c4fbc9a783dfb711d98d9b", "type": "electric_scooter", "lat": 38.92413033333333, "fusion_lon": 0.0, "is_disabled": 0, "fusion_lat": 0.0, "lon": -77.0224845}, {"is_reserved": 0, "rental_uris": {"ios": "https://dc.lft.to/lastmile_qr_scan", "android": "https://dc.lft.to/lastmile_qr_scan"}, "name": "138fe77bea2dd364babba3718b2557df", "bike_id": "138fe77bea2dd364babba3718b2557df", "type": "electric_scooter", "lat": 38.87495716666667, "fusion_lon": 0.0, "is_disabled": 0, "fusion_lat": 0.0, "lon": -76.99801316666667}, {"is_reserved": 0, "rental_uris": {"ios": "https://dc.lft.to/lastmile_qr_scan", "android": "https://dc.lft.to/lastmile_qr_scan"}, "name": "8f6630126ae09a51036f266edce944fa", "bike_id": "8f6630126ae09a51036f266edce944fa", "type": "electric_scooter", "lat": 38.910394, "fusion_lon": 0.0, "is_disabled": 0, "fusion_lat": 0.0, "lon": -77.02183816666667}, {"is_reserved": 0, "rental_uris": {"ios": "https://dc.lft.to/lastmile_qr_scan", "android": "https://dc.lft.to/lastmile_qr_scan"}, "name": "d56c7af128886d9146c13daf8b9495e1", "bike_id": "d56c7af128886d9146c13daf8b9495e1", "type": "electric_scooter", "lat": 38.89909566666667, "fusion_lon": 0.0, "is_disabled": 0, "fusion_lat": 0.0, "lon": -76.933511}, {"is_reserved": 0, "rental_uris": {"ios": "https://dc.lft.to/lastmile_qr_scan", "android": "https://dc.lft.to/lastmile_qr_scan"}, "name": "f955141b994fc3e85f06612a65b150ba", "bike_id": "f955141b994fc3e85f06612a65b150ba", "type": "electric_scooter", "lat": 38.903967333333334, "fusion_lon": 0.0, "is_disabled": 0, "fusion_lat": 0.0, "lon": -77.02085883333334}, {"is_reserved": 0, "rental_uris": {"ios": "https://dc.lft.to/lastmile_qr_scan", "android": "https://dc.lft.to/lastmile_qr_scan"}, "name": "87ebec1184736e122ed7ddbbf082bec4", "bike_id": "87ebec1184736e122ed7ddbbf082bec4", "type": "electric_scooter", "lat": 38.858126, "fusion_lon": 0.0, "is_disabled": 0, "fusion_lat": 0.0, "lon": -76.98995983333333}, {"is_reserved": 0, "rental_uris": {"ios": "https://dc.lft.to/lastmile_qr_scan", "android": "https://dc.lft.to/lastmile_qr_scan"}, "name": "d02213f3da27892de029c502a635b6f7", "bike_id": "d02213f3da27892de029c502a635b6f7", "type": "electric_scooter", "lat": 38.89189116666667, "fusion_lon": 0.0, "is_disabled": 0, "fusion_lat": 0.0, "lon": -77.0238815}, {"is_reserved": 0, "rental_uris": {"ios": "https://dc.lft.to/lastmile_qr_scan", "android": "https://dc.lft.to/lastmile_qr_scan"}, "name": "230b9aef247797a9e846dad68abd67e4", "bike_id": "230b9aef247797a9e846dad68abd67e4", "type": "electric_scooter", "lat": 38.8972275, "fusion_lon": 0.0, "is_disabled": 0, "fusion_lat": 0.0, "lon": -77.04536216666666}, {"is_reserved": 0, "rental_uris": {"ios": "https://dc.lft.to/lastmile_qr_scan", "android": "https://dc.lft.to/lastmile_qr_scan"}, "name": "668e72ae4a1d93df56a0b480bf9860ba", "bike_id": "668e72ae4a1d93df56a0b480bf9860ba", "type": "electric_scooter", "lat": 38.897866, "fusion_lon": 0.0, "is_disabled": 0, "fusion_lat": 0.0, "lon": -77.03196266666667}, {"is_reserved": 0, "rental_uris": {"ios": "https://dc.lft.to/lastmile_qr_scan", "android": "https://dc.lft.to/lastmile_qr_scan"}, "name": "a1b6a216b1e60ae485e75640c9b50f0d", "bike_id": "a1b6a216b1e60ae485e75640c9b50f0d", "type": "electric_scooter", "lat": 38.940102333333336, "fusion_lon": 0.0, "is_disabled": 0, "fusion_lat": 0.0, "lon": -77.07179783333333}, {"is_reserved": 0, "rental_uris": {"ios": "https://dc.lft.to/lastmile_qr_scan", "android": "https://dc.lft.to/lastmile_qr_scan"}, "name": "cbd1db0d99af11dffa46134635141982", "bike_id": "cbd1db0d99af11dffa46134635141982", "type": "electric_scooter", "lat": 38.916955, "fusion_lon": 0.0, "is_disabled": 0, "fusion_lat": 0.0, "lon": -77.03274466666667}, {"is_reserved": 0, "rental_uris": {"ios": "https://dc.lft.to/lastmile_qr_scan", "android": "https://dc.lft.to/lastmile_qr_scan"}, "name": "ae5d89b5660fdb0b34a4b1ea805e7342", "bike_id": "ae5d89b5660fdb0b34a4b1ea805e7342", "type": "electric_scooter", "lat": 38.923004, "fusion_lon": 0.0, "is_disabled": 0, "fusion_lat": 0.0, "lon": -77.02246033333333}, {"is_reserved": 0, "rental_uris": {"ios": "https://dc.lft.to/lastmile_qr_scan", "android": "https://dc.lft.to/lastmile_qr_scan"}, "name": "ce70eebeb8fc8acdf22ee8374653084d", "bike_id": "ce70eebeb8fc8acdf22ee8374653084d", "type": "electric_scooter", "lat": 38.931047166666666, "fusion_lon": 0.0, "is_disabled": 0, "fusion_lat": 0.0, "lon": -76.96730983333333}, {"is_reserved": 0, "rental_uris": {"ios": "https://dc.lft.to/lastmile_qr_scan", "android": "https://dc.lft.to/lastmile_qr_scan"}, "name": "f9fb6f3f26bf7e86db61c30a5841c3e4", "bike_id": "f9fb6f3f26bf7e86db61c30a5841c3e4", "type": "electric_scooter", "lat": 38.8960055, "fusion_lon": 0.0, "is_disabled": 0, "fusion_lat": 0.0, "lon": -77.0279565}, {"is_reserved": 0, "rental_uris": {"ios": "https://dc.lft.to/lastmile_qr_scan", "android": "https://dc.lft.to/lastmile_qr_scan"}, "name": "2200cedce13915a2cee8c9c4be07ccc5", "bike_id": "2200cedce13915a2cee8c9c4be07ccc5", "type": "electric_scooter", "lat": 38.9228285, "fusion_lon": 0.0, "is_disabled": 0, "fusion_lat": 0.0, "lon": -77.0365955}, {"is_reserved": 0, "rental_uris": {"ios": "https://dc.lft.to/lastmile_qr_scan", "android": "https://dc.lft.to/lastmile_qr_scan"}, "name": "059086324cfae9763730ce3a2d3f5af9", "bike_id": "059086324cfae9763730ce3a2d3f5af9", "type": "electric_scooter", "lat": 38.8872585, "fusion_lon": 0.0, "is_disabled": 0, "fusion_lat": 0.0, "lon": -77.013928}, {"is_reserved": 0, "rental_uris": {"ios": "https://dc.lft.to/lastmile_qr_scan", "android": "https://dc.lft.to/lastmile_qr_scan"}, "name": "4e9dcdfc135adf27fe05bea0512db199", "bike_id": "4e9dcdfc135adf27fe05bea0512db199", "type": "electric_bike", "lat": 38.8730615, "fusion_lon": 0.0, "is_disabled": 0, "fusion_lat": 0.0, "lon": -77.015737}, {"is_reserved": 0, "rental_uris": {"ios": "https://dc.lft.to/lastmile_qr_scan", "android": "https://dc.lft.to/lastmile_qr_scan"}, "name": "11a4e9681ef8c358b780c308c6c29666", "bike_id": "11a4e9681ef8c358b780c308c6c29666", "type": "electric_scooter", "lat": 38.92122033333333, "fusion_lon": 0.0, "is_disabled": 0, "fusion_lat": 0.0, "lon": -77.01812883333334}, {"is_reserved": 0, "rental_uris": {"ios": "https://dc.lft.to/lastmile_qr_scan", "android": "https://dc.lft.to/lastmile_qr_scan"}, "name": "c074bed49d602671d3f2cdac2cf72296", "bike_id": "c074bed49d602671d3f2cdac2cf72296", "type": "electric_scooter", "lat": 38.862757333333334, "fusion_lon": 0.0, "is_disabled": 0, "fusion_lat": 0.0, "lon": -76.992383}, {"is_reserved": 0, "rental_uris": {"ios": "https://dc.lft.to/lastmile_qr_scan", "android": "https://dc.lft.to/lastmile_qr_scan"}, "name": "2a3f1be3560feeeb56aa48198473259c", "bike_id": "2a3f1be3560feeeb56aa48198473259c", "type": "electric_scooter", "lat": 38.9416835, "fusion_lon": 0.0, "is_disabled": 0, "fusion_lat": 0.0, "lon": -77.02340833333334}, {"is_reserved": 0, "rental_uris": {"ios": "https://dc.lft.to/lastmile_qr_scan", "android": "https://dc.lft.to/lastmile_qr_scan"}, "name": "28e00c7fcd74d8ed8b18c0d500972220", "bike_id": "28e00c7fcd74d8ed8b18c0d500972220", "type": "electric_scooter", "lat": 38.94941133333333, "fusion_lon": 0.0, "is_disabled": 0, "fusion_lat": 0.0, "lon": -77.02021416666666}, {"is_reserved": 0, "rental_uris": {"ios": "https://dc.lft.to/lastmile_qr_scan", "android": "https://dc.lft.to/lastmile_qr_scan"}, "name": "2427bfe1e73856e755e0ede9c311b6d6", "bike_id": "2427bfe1e73856e755e0ede9c311b6d6", "type": "electric_scooter", "lat": 38.919118, "fusion_lon": 0.0, "is_disabled": 0, "fusion_lat": 0.0, "lon": -77.03189716666667}, {"is_reserved": 0, "rental_uris": {"ios": "https://dc.lft.to/lastmile_qr_scan", "android": "https://dc.lft.to/lastmile_qr_scan"}, "name": "7edccebb154d123635f4acdd81414e18", "bike_id": "7edccebb154d123635f4acdd81414e18", "type": "electric_scooter", "lat": 38.90060183333333, "fusion_lon": 0.0, "is_disabled": 0, "fusion_lat": 0.0, "lon": -77.0139815}, {"is_reserved": 0, "rental_uris": {"ios": "https://dc.lft.to/lastmile_qr_scan", "android": "https://dc.lft.to/lastmile_qr_scan"}, "name": "647484a5fd02dac8c1f4b6e4541de938", "bike_id": "647484a5fd02dac8c1f4b6e4541de938", "type": "electric_scooter", "lat": 38.90499583333333, "fusion_lon": 0.0, "is_disabled": 0, "fusion_lat": 0.0, "lon": -77.0628015}, {"is_reserved": 0, "rental_uris": {"ios": "https://dc.lft.to/lastmile_qr_scan", "android": "https://dc.lft.to/lastmile_qr_scan"}, "name": "db269c2b6c47bacdbcb882b41d5e8724", "bike_id": "db269c2b6c47bacdbcb882b41d5e8724", "type": "electric_scooter", "lat": 38.914018666666664, "fusion_lon": 0.0, "is_disabled": 0, "fusion_lat": 0.0, "lon": -77.04553866666667}, {"is_reserved": 0, "rental_uris": {"ios": "https://dc.lft.to/lastmile_qr_scan", "android": "https://dc.lft.to/lastmile_qr_scan"}, "name": "b1052cf4b2a53b34dc29025993bf4123", "bike_id": "b1052cf4b2a53b34dc29025993bf4123", "type": "electric_scooter", "lat": 38.949784333333334, "fusion_lon": 0.0, "is_disabled": 0, "fusion_lat": 0.0, "lon": -77.026985}, {"is_reserved": 0, "rental_uris": {"ios": "https://dc.lft.to/lastmile_qr_scan", "android": "https://dc.lft.to/lastmile_qr_scan"}, "name": "cf3bd1909e50137d49a4f7b75c1160b8", "bike_id": "cf3bd1909e50137d49a4f7b75c1160b8", "type": "electric_scooter", "lat": 38.91909066666667, "fusion_lon": 0.0, "is_disabled": 0, "fusion_lat": 0.0, "lon": -77.03132316666667}, {"is_reserved": 0, "rental_uris": {"ios": "https://dc.lft.to/lastmile_qr_scan", "android": "https://dc.lft.to/lastmile_qr_scan"}, "name": "7b71b3cec16b9bd80e3ed4976bb4f814", "bike_id": "7b71b3cec16b9bd80e3ed4976bb4f814", "type": "electric_scooter", "lat": 38.892213166666664, "fusion_lon": 0.0, "is_disabled": 0, "fusion_lat": 0.0, "lon": -77.04858933333334}, {"is_reserved": 0, "rental_uris": {"ios": "https://dc.lft.to/lastmile_qr_scan", "android": "https://dc.lft.to/lastmile_qr_scan"}, "name": "4e47cb0bdcb42e62d218dba47a237cd2", "bike_id": "4e47cb0bdcb42e62d218dba47a237cd2", "type": "electric_scooter", "lat": 38.8972105, "fusion_lon": 0.0, "is_disabled": 0, "fusion_lat": 0.0, "lon": -77.04600183333334}, {"is_reserved": 0, "rental_uris": {"ios": "https://dc.lft.to/lastmile_qr_scan", "android": "https://dc.lft.to/lastmile_qr_scan"}, "name": "a0f04176ad0e26389689dee14fa47143", "bike_id": "a0f04176ad0e26389689dee14fa47143", "type": "electric_bike", "lat": 38.828671166666666, "fusion_lon": 0.0, "is_disabled": 0, "fusion_lat": 0.0, "lon": -77.11232666666666}, {"is_reserved": 0, "rental_uris": {"ios": "https://dc.lft.to/lastmile_qr_scan", "android": "https://dc.lft.to/lastmile_qr_scan"}, "name": "a00f151165356fb85a05142bfca6a042", "bike_id": "a00f151165356fb85a05142bfca6a042", "type": "electric_scooter", "lat": 38.8921805, "fusion_lon": 0.0, "is_disabled": 0, "fusion_lat": 0.0, "lon": -77.0241515}, {"is_reserved": 0, "rental_uris": {"ios": "https://dc.lft.to/lastmile_qr_scan", "android": "https://dc.lft.to/lastmile_qr_scan"}, "name": "a67ed133b89ba0dc470578ae750ab5e1", "bike_id": "a67ed133b89ba0dc470578ae750ab5e1", "type": "electric_bike", "lat": 39.004753, "fusion_lon": 0.0, "is_disabled": 0, "fusion_lat": 0.0, "lon": -76.90380183333333}, {"is_reserved": 0, "rental_uris": {"ios": "https://dc.lft.to/lastmile_qr_scan", "android": "https://dc.lft.to/lastmile_qr_scan"}, "name": "4c25c4926c3f55bc43a5cdf61a677de5", "bike_id": "4c25c4926c3f55bc43a5cdf61a677de5", "type": "electric_scooter", "lat": 38.921455, "fusion_lon": 0.0, "is_disabled": 0, "fusion_lat": 0.0, "lon": -77.04344866666666}, {"is_reserved": 0, "rental_uris": {"ios": "https://dc.lft.to/lastmile_qr_scan", "android": "https://dc.lft.to/lastmile_qr_scan"}, "name": "5e2b990344eeeafcf28d775a82d150c9", "bike_id": "5e2b990344eeeafcf28d775a82d150c9", "type": "electric_scooter", "lat": 38.89961916666667, "fusion_lon": 0.0, "is_disabled": 0, "fusion_lat": 0.0, "lon": -77.02496616666667}, {"is_reserved": 0, "rental_uris": {"ios": "https://dc.lft.to/lastmile_qr_scan", "android": "https://dc.lft.to/lastmile_qr_scan"}, "name": "05e3e33cea799a771441b93bbc272e4a", "bike_id": "05e3e33cea799a771441b93bbc272e4a", "type": "electric_scooter", "lat": 38.90986866666667, "fusion_lon": 0.0, "is_disabled": 0, "fusion_lat": 0.0, "lon": -77.0488695}, {"is_reserved": 0, "rental_uris": {"ios": "https://dc.lft.to/lastmile_qr_scan", "android": "https://dc.lft.to/lastmile_qr_scan"}, "name": "e3810fc7c50d563bfed6ca9698336a04", "bike_id": "e3810fc7c50d563bfed6ca9698336a04", "type": "electric_scooter", "lat": 38.93725466666667, "fusion_lon": 0.0, "is_disabled": 0, "fusion_lat": 0.0, "lon": -77.032778}, {"is_reserved": 0, "rental_uris": {"ios": "https://dc.lft.to/lastmile_qr_scan", "android": "https://dc.lft.to/lastmile_qr_scan"}, "name": "3d8cd5836f6cd1aab31643216896d57d", "bike_id": "3d8cd5836f6cd1aab31643216896d57d", "type": "electric_scooter", "lat": 38.91983333333334, "fusion_lon": 0.0, "is_disabled": 0, "fusion_lat": 0.0, "lon": -77.047629}, {"is_reserved": 0, "rental_uris": {"ios": "https://dc.lft.to/lastmile_qr_scan", "android": "https://dc.lft.to/lastmile_qr_scan"}, "name": "0b0b58a5993358b9bc65c87d4c51a937", "bike_id": "0b0b58a5993358b9bc65c87d4c51a937", "type": "electric_scooter", "lat": 38.902058833333335, "fusion_lon": 0.0, "is_disabled": 0, "fusion_lat": 0.0, "lon": -77.04694316666667}, {"is_reserved": 0, "rental_uris": {"ios": "https://dc.lft.to/lastmile_qr_scan", "android": "https://dc.lft.to/lastmile_qr_scan"}, "name": "cea245d3fd5c40549b9fdbe02c86af09", "bike_id": "cea245d3fd5c40549b9fdbe02c86af09", "type": "electric_scooter", "lat": 38.917553833333336, "fusion_lon": 0.0, "is_disabled": 0, "fusion_lat": 0.0, "lon": -77.02389116666667}, {"is_reserved": 0, "rental_uris": {"ios": "https://dc.lft.to/lastmile_qr_scan", "android": "https://dc.lft.to/lastmile_qr_scan"}, "name": "c67b479c664d58a32522077b7ce8cd02", "bike_id": "c67b479c664d58a32522077b7ce8cd02", "type": "electric_scooter", "lat": 38.90363966666666, "fusion_lon": 0.0, "is_disabled": 0, "fusion_lat": 0.0, "lon": -77.04187333333333}, {"is_reserved": 0, "rental_uris": {"ios": "https://dc.lft.to/lastmile_qr_scan", "android": "https://dc.lft.to/lastmile_qr_scan"}, "name": "09d7e2ff8339a85a2ed22c6eaefa4aee", "bike_id": "09d7e2ff8339a85a2ed22c6eaefa4aee", "type": "electric_scooter", "lat": 38.9037905, "fusion_lon": 0.0, "is_disabled": 0, "fusion_lat": 0.0, "lon": -77.04405}, {"is_reserved": 0, "rental_uris": {"ios": "https://dc.lft.to/lastmile_qr_scan", "android": "https://dc.lft.to/lastmile_qr_scan"}, "name": "2b3cd23842964bd3850e9f76dcdb0217", "bike_id": "2b3cd23842964bd3850e9f76dcdb0217", "type": "electric_scooter", "lat": 38.9139635, "fusion_lon": 0.0, "is_disabled": 0, "fusion_lat": 0.0, "lon": -77.03064033333334}, {"is_reserved": 0, "rental_uris": {"ios": "https://dc.lft.to/lastmile_qr_scan", "android": "https://dc.lft.to/lastmile_qr_scan"}, "name": "66860f6c4befc0c694017c8d357b6ccc", "bike_id": "66860f6c4befc0c694017c8d357b6ccc", "type": "electric_scooter", "lat": 38.91458316666667, "fusion_lon": 0.0, "is_disabled": 0, "fusion_lat": 0.0, "lon": -77.03219466666667}, {"is_reserved": 0, "rental_uris": {"ios": "https://dc.lft.to/lastmile_qr_scan", "android": "https://dc.lft.to/lastmile_qr_scan"}, "name": "a308ff01d0fb4d1216bedb7e0170c65c", "bike_id": "a308ff01d0fb4d1216bedb7e0170c65c", "type": "electric_scooter", "lat": 38.92309066666667, "fusion_lon": 0.0, "is_disabled": 0, "fusion_lat": 0.0, "lon": -77.03962216666666}, {"is_reserved": 0, "rental_uris": {"ios": "https://dc.lft.to/lastmile_qr_scan", "android": "https://dc.lft.to/lastmile_qr_scan"}, "name": "fd18ace8d36f556f0f76848bdad5264d", "bike_id": "fd18ace8d36f556f0f76848bdad5264d", "type": "electric_scooter", "lat": 38.896104333333334, "fusion_lon": 0.0, "is_disabled": 0, "fusion_lat": 0.0, "lon": -76.9559265}, {"is_reserved": 0, "rental_uris": {"ios": "https://dc.lft.to/lastmile_qr_scan", "android": "https://dc.lft.to/lastmile_qr_scan"}, "name": "0a66052f0ca7884cbb757b08b27f65d0", "bike_id": "0a66052f0ca7884cbb757b08b27f65d0", "type": "electric_bike", "lat": 38.8865265, "fusion_lon": 0.0, "is_disabled": 0, "fusion_lat": 0.0, "lon": -77.16230616666667}, {"is_reserved": 0, "rental_uris": {"ios": "https://dc.lft.to/lastmile_qr_scan", "android": "https://dc.lft.to/lastmile_qr_scan"}, "name": "194b9e44db2a308ba320ff8406bd955a", "bike_id": "194b9e44db2a308ba320ff8406bd955a", "type": "electric_scooter", "lat": 38.927544166666664, "fusion_lon": 0.0, "is_disabled": 0, "fusion_lat": 0.0, "lon": -77.03219966666667}, {"is_reserved": 0, "rental_uris": {"ios": "https://dc.lft.to/lastmile_qr_scan", "android": "https://dc.lft.to/lastmile_qr_scan"}, "name": "663489c1f0fcf3d1bf9172336202756b", "bike_id": "663489c1f0fcf3d1bf9172336202756b", "type": "electric_scooter", "lat": 38.921416, "fusion_lon": 0.0, "is_disabled": 0, "fusion_lat": 0.0, "lon": -77.04226683333333}, {"is_reserved": 0, "rental_uris": {"ios": "https://dc.lft.to/lastmile_qr_scan", "android": "https://dc.lft.to/lastmile_qr_scan"}, "name": "3984319f98c1f25f04558255970921bf", "bike_id": "3984319f98c1f25f04558255970921bf", "type": "electric_scooter", "lat": 38.90456866666667, "fusion_lon": 0.0, "is_disabled": 0, "fusion_lat": 0.0, "lon": -77.007915}, {"is_reserved": 0, "rental_uris": {"ios": "https://dc.lft.to/lastmile_qr_scan", "android": "https://dc.lft.to/lastmile_qr_scan"}, "name": "937d1950aff86665f6b737924ed7a1e2", "bike_id": "937d1950aff86665f6b737924ed7a1e2", "type": "electric_scooter", "lat": 38.918889166666666, "fusion_lon": 0.0, "is_disabled": 0, "fusion_lat": 0.0, "lon": -77.03910166666667}, {"is_reserved": 0, "rental_uris": {"ios": "https://dc.lft.to/lastmile_qr_scan", "android": "https://dc.lft.to/lastmile_qr_scan"}, "name": "fd19e335d4a891a4b83f18d1476c46ab", "bike_id": "fd19e335d4a891a4b83f18d1476c46ab", "type": "electric_scooter", "lat": 38.906762666666665, "fusion_lon": 0.0, "is_disabled": 0, "fusion_lat": 0.0, "lon": -77.06358566666667}, {"is_reserved": 0, "rental_uris": {"ios": "https://dc.lft.to/lastmile_qr_scan", "android": "https://dc.lft.to/lastmile_qr_scan"}, "name": "45ef1632b561efecb526f460179ccba7", "bike_id": "45ef1632b561efecb526f460179ccba7", "type": "electric_scooter", "lat": 38.923152, "fusion_lon": 0.0, "is_disabled": 0, "fusion_lat": 0.0, "lon": -77.04622266666667}, {"is_reserved": 0, "rental_uris": {"ios": "https://dc.lft.to/lastmile_qr_scan", "android": "https://dc.lft.to/lastmile_qr_scan"}, "name": "2ded6a752122c54efb6fa40363758ed3", "bike_id": "2ded6a752122c54efb6fa40363758ed3", "type": "electric_scooter", "lat": 38.918401, "fusion_lon": 0.0, "is_disabled": 0, "fusion_lat": 0.0, "lon": -77.04493033333334}, {"is_reserved": 0, "rental_uris": {"ios": "https://dc.lft.to/lastmile_qr_scan", "android": "https://dc.lft.to/lastmile_qr_scan"}, "name": "eafc0efaaaf8ff7121bfae372780879a", "bike_id": "eafc0efaaaf8ff7121bfae372780879a", "type": "electric_scooter", "lat": 38.895293333333335, "fusion_lon": 0.0, "is_disabled": 0, "fusion_lat": 0.0, "lon": -77.03213733333334}, {"is_reserved": 0, "rental_uris": {"ios": "https://dc.lft.to/lastmile_qr_scan", "android": "https://dc.lft.to/lastmile_qr_scan"}, "name": "a58d24a50b56c5973a6f576d8a76bf0a", "bike_id": "a58d24a50b56c5973a6f576d8a76bf0a", "type": "electric_scooter", "lat": 38.90342, "fusion_lon": 0.0, "is_disabled": 0, "fusion_lat": 0.0, "lon": -76.9756345}, {"is_reserved": 0, "rental_uris": {"ios": "https://dc.lft.to/lastmile_qr_scan", "android": "https://dc.lft.to/lastmile_qr_scan"}, "name": "0ca4cd1691c4ecee226a83bdabd2d31d", "bike_id": "0ca4cd1691c4ecee226a83bdabd2d31d", "type": "electric_bike", "lat": 38.951936333333336, "fusion_lon": 0.0, "is_disabled": 0, "fusion_lat": 0.0, "lon": -76.9672595}, {"is_reserved": 0, "rental_uris": {"ios": "https://dc.lft.to/lastmile_qr_scan", "android": "https://dc.lft.to/lastmile_qr_scan"}, "name": "8b95408deb1a26c41b09b708bf092fba", "bike_id": "8b95408deb1a26c41b09b708bf092fba", "type": "electric_bike", "lat": 38.863865, "fusion_lon": 0.0, "is_disabled": 0, "fusion_lat": 0.0, "lon": -76.98993766666666}, {"is_reserved": 0, "rental_uris": {"ios": "https://dc.lft.to/lastmile_qr_scan", "android": "https://dc.lft.to/lastmile_qr_scan"}, "name": "4afee63975d06951f15247411759b53a", "bike_id": "4afee63975d06951f15247411759b53a", "type": "electric_scooter", "lat": 38.93317416666667, "fusion_lon": 0.0, "is_disabled": 0, "fusion_lat": 0.0, "lon": -77.0329085}, {"is_reserved": 0, "rental_uris": {"ios": "https://dc.lft.to/lastmile_qr_scan", "android": "https://dc.lft.to/lastmile_qr_scan"}, "name": "9f3e5f0d33ef4cc4ea4169c904c8759f", "bike_id": "9f3e5f0d33ef4cc4ea4169c904c8759f", "type": "electric_bike", "lat": 39.0000465, "fusion_lon": 0.0, "is_disabled": 0, "fusion_lat": 0.0, "lon": -76.91077216666666}, {"is_reserved": 0, "rental_uris": {"ios": "https://dc.lft.to/lastmile_qr_scan", "android": "https://dc.lft.to/lastmile_qr_scan"}, "name": "60612d4d04d4bf32d4528d3fcdb2ce8f", "bike_id": "60612d4d04d4bf32d4528d3fcdb2ce8f", "type": "electric_scooter", "lat": 38.929554333333336, "fusion_lon": 0.0, "is_disabled": 0, "fusion_lat": 0.0, "lon": -77.05497}, {"is_reserved": 0, "rental_uris": {"ios": "https://dc.lft.to/lastmile_qr_scan", "android": "https://dc.lft.to/lastmile_qr_scan"}, "name": "3aa7a02d39f75832beb078e886a1e696", "bike_id": "3aa7a02d39f75832beb078e886a1e696", "type": "electric_scooter", "lat": 38.9036305, "fusion_lon": 0.0, "is_disabled": 0, "fusion_lat": 0.0, "lon": -77.010852}, {"is_reserved": 0, "rental_uris": {"ios": "https://dc.lft.to/lastmile_qr_scan", "android": "https://dc.lft.to/lastmile_qr_scan"}, "name": "1549e0a2982b51097a9b7aeb45fd5d2e", "bike_id": "1549e0a2982b51097a9b7aeb45fd5d2e", "type": "electric_bike", "lat": 38.906821, "fusion_lon": 0.0, "is_disabled": 0, "fusion_lat": 0.0, "lon": -76.95192933333334}, {"is_reserved": 0, "rental_uris": {"ios": "https://dc.lft.to/lastmile_qr_scan", "android": "https://dc.lft.to/lastmile_qr_scan"}, "name": "8add56473ddda17548750e2844d98afd", "bike_id": "8add56473ddda17548750e2844d98afd", "type": "electric_scooter", "lat": 38.890555166666665, "fusion_lon": 0.0, "is_disabled": 0, "fusion_lat": 0.0, "lon": -77.02289683333333}, {"is_reserved": 0, "rental_uris": {"ios": "https://dc.lft.to/lastmile_qr_scan", "android": "https://dc.lft.to/lastmile_qr_scan"}, "name": "b51761492a613b0254078f9153b13725", "bike_id": "b51761492a613b0254078f9153b13725", "type": "electric_scooter", "lat": 38.910265333333335, "fusion_lon": 0.0, "is_disabled": 0, "fusion_lat": 0.0, "lon": -77.042518}, {"is_reserved": 0, "rental_uris": {"ios": "https://dc.lft.to/lastmile_qr_scan", "android": "https://dc.lft.to/lastmile_qr_scan"}, "name": "9d4ea34b96571d3455caa2ec603a61fb", "bike_id": "9d4ea34b96571d3455caa2ec603a61fb", "type": "electric_scooter", "lat": 38.862516, "fusion_lon": 0.0, "is_disabled": 0, "fusion_lat": 0.0, "lon": -76.9870375}, {"is_reserved": 0, "rental_uris": {"ios": "https://dc.lft.to/lastmile_qr_scan", "android": "https://dc.lft.to/lastmile_qr_scan"}, "name": "cb91f580631f85fa4ce4e8241fc74f29", "bike_id": "cb91f580631f85fa4ce4e8241fc74f29", "type": "electric_scooter", "lat": 38.922247166666665, "fusion_lon": 0.0, "is_disabled": 0, "fusion_lat": 0.0, "lon": -77.03897283333333}, {"is_reserved": 0, "rental_uris": {"ios": "https://dc.lft.to/lastmile_qr_scan", "android": "https://dc.lft.to/lastmile_qr_scan"}, "name": "009d8eb86722bd8f55a8892e1c6f88b6", "bike_id": "009d8eb86722bd8f55a8892e1c6f88b6", "type": "electric_scooter", "lat": 38.907682333333334, "fusion_lon": 0.0, "is_disabled": 0, "fusion_lat": 0.0, "lon": -77.02067133333334}, {"is_reserved": 0, "rental_uris": {"ios": "https://dc.lft.to/lastmile_qr_scan", "android": "https://dc.lft.to/lastmile_qr_scan"}, "name": "3fdd332090ea8a0a07eb04d7f1478ba0", "bike_id": "3fdd332090ea8a0a07eb04d7f1478ba0", "type": "electric_scooter", "lat": 38.89218783333333, "fusion_lon": 0.0, "is_disabled": 0, "fusion_lat": 0.0, "lon": -77.02846616666666}, {"is_reserved": 0, "rental_uris": {"ios": "https://dc.lft.to/lastmile_qr_scan", "android": "https://dc.lft.to/lastmile_qr_scan"}, "name": "f05f8f4050ee5effdcf786003be8ff07", "bike_id": "f05f8f4050ee5effdcf786003be8ff07", "type": "electric_scooter", "lat": 38.866176, "fusion_lon": 0.0, "is_disabled": 0, "fusion_lat": 0.0, "lon": -76.986557}, {"is_reserved": 0, "rental_uris": {"ios": "https://dc.lft.to/lastmile_qr_scan", "android": "https://dc.lft.to/lastmile_qr_scan"}, "name": "02cc29817620b2276b95b499f8115e09", "bike_id": "02cc29817620b2276b95b499f8115e09", "type": "electric_bike", "lat": 38.80225266666667, "fusion_lon": 0.0, "is_disabled": 0, "fusion_lat": 0.0, "lon": -77.07919933333334}, {"is_reserved": 0, "rental_uris": {"ios": "https://dc.lft.to/lastmile_qr_scan", "android": "https://dc.lft.to/lastmile_qr_scan"}, "name": "7069320d3bd0c0f085a0f16cf596e5e7", "bike_id": "7069320d3bd0c0f085a0f16cf596e5e7", "type": "electric_scooter", "lat": 38.892842333333334, "fusion_lon": 0.0, "is_disabled": 0, "fusion_lat": 0.0, "lon": -77.03374266666667}, {"is_reserved": 0, "rental_uris": {"ios": "https://dc.lft.to/lastmile_qr_scan", "android": "https://dc.lft.to/lastmile_qr_scan"}, "name": "02c75cf70c96d2b7f5879274c664884e", "bike_id": "02c75cf70c96d2b7f5879274c664884e", "type": "electric_scooter", "lat": 38.88590466666667, "fusion_lon": 0.0, "is_disabled": 0, "fusion_lat": 0.0, "lon": -76.99150166666666}, {"is_reserved": 0, "rental_uris": {"ios": "https://dc.lft.to/lastmile_qr_scan", "android": "https://dc.lft.to/lastmile_qr_scan"}, "name": "15769699065e8ac672b6a4b0b2dbb930", "bike_id": "15769699065e8ac672b6a4b0b2dbb930", "type": "electric_scooter", "lat": 38.909382, "fusion_lon": 0.0, "is_disabled": 0, "fusion_lat": 0.0, "lon": -77.04488883333333}, {"is_reserved": 0, "rental_uris": {"ios": "https://dc.lft.to/lastmile_qr_scan", "android": "https://dc.lft.to/lastmile_qr_scan"}, "name": "b8408f1777a5ee7b9c50313694f48284", "bike_id": "b8408f1777a5ee7b9c50313694f48284", "type": "electric_scooter", "lat": 38.932308666666664, "fusion_lon": 0.0, "is_disabled": 0, "fusion_lat": 0.0, "lon": -77.03267183333334}, {"is_reserved": 0, "rental_uris": {"ios": "https://dc.lft.to/lastmile_qr_scan", "android": "https://dc.lft.to/lastmile_qr_scan"}, "name": "f12b5f8e84d3ccff475ae3269f708faf", "bike_id": "f12b5f8e84d3ccff475ae3269f708faf", "type": "electric_scooter", "lat": 38.844211, "fusion_lon": 0.0, "is_disabled": 0, "fusion_lat": 0.0, "lon": -76.99780683333333}, {"is_reserved": 0, "rental_uris": {"ios": "https://dc.lft.to/lastmile_qr_scan", "android": "https://dc.lft.to/lastmile_qr_scan"}, "name": "03916e0940d130a80c1c0bb30e7a42b4", "bike_id": "03916e0940d130a80c1c0bb30e7a42b4", "type": "electric_scooter", "lat": 38.909619, "fusion_lon": 0.0, "is_disabled": 0, "fusion_lat": 0.0, "lon": -77.0338145}, {"is_reserved": 0, "rental_uris": {"ios": "https://dc.lft.to/lastmile_qr_scan", "android": "https://dc.lft.to/lastmile_qr_scan"}, "name": "2dabb71a67aefb1a3f1d0f6c91116bec", "bike_id": "2dabb71a67aefb1a3f1d0f6c91116bec", "type": "electric_scooter", "lat": 38.91979883333333, "fusion_lon": 0.0, "is_disabled": 0, "fusion_lat": 0.0, "lon": -77.04189533333333}, {"is_reserved": 0, "rental_uris": {"ios": "https://dc.lft.to/lastmile_qr_scan", "android": "https://dc.lft.to/lastmile_qr_scan"}, "name": "844fafab5398099c4f3a312c3a7c5ef4", "bike_id": "844fafab5398099c4f3a312c3a7c5ef4", "type": "electric_scooter", "lat": 38.922201666666666, "fusion_lon": 0.0, "is_disabled": 0, "fusion_lat": 0.0, "lon": -77.04248816666667}, {"is_reserved": 0, "rental_uris": {"ios": "https://dc.lft.to/lastmile_qr_scan", "android": "https://dc.lft.to/lastmile_qr_scan"}, "name": "b4f4dc1c05e900b508149f4214db42f1", "bike_id": "b4f4dc1c05e900b508149f4214db42f1", "type": "electric_scooter", "lat": 38.8428485, "fusion_lon": 0.0, "is_disabled": 0, "fusion_lat": 0.0, "lon": -76.99950216666667}, {"is_reserved": 0, "rental_uris": {"ios": "https://dc.lft.to/lastmile_qr_scan", "android": "https://dc.lft.to/lastmile_qr_scan"}, "name": "f35fee39d68bd2df7a9c063612482ac1", "bike_id": "f35fee39d68bd2df7a9c063612482ac1", "type": "electric_scooter", "lat": 38.906878666666664, "fusion_lon": 0.0, "is_disabled": 0, "fusion_lat": 0.0, "lon": -76.99955683333333}, {"is_reserved": 0, "rental_uris": {"ios": "https://dc.lft.to/lastmile_qr_scan", "android": "https://dc.lft.to/lastmile_qr_scan"}, "name": "b68b696db42e621007018ced78a3ad4f", "bike_id": "b68b696db42e621007018ced78a3ad4f", "type": "electric_scooter", "lat": 38.97370516666667, "fusion_lon": 0.0, "is_disabled": 0, "fusion_lat": 0.0, "lon": -77.0186685}, {"is_reserved": 0, "rental_uris": {"ios": "https://dc.lft.to/lastmile_qr_scan", "android": "https://dc.lft.to/lastmile_qr_scan"}, "name": "b6042aa9f65db707c9b8a418f6ebea0b", "bike_id": "b6042aa9f65db707c9b8a418f6ebea0b", "type": "electric_scooter", "lat": 38.86720916666667, "fusion_lon": 0.0, "is_disabled": 0, "fusion_lat": 0.0, "lon": -76.987901}, {"is_reserved": 0, "rental_uris": {"ios": "https://dc.lft.to/lastmile_qr_scan", "android": "https://dc.lft.to/lastmile_qr_scan"}, "name": "90c5126d4109d1c6d84de78668ac8b55", "bike_id": "90c5126d4109d1c6d84de78668ac8b55", "type": "electric_scooter", "lat": 38.91658816666666, "fusion_lon": 0.0, "is_disabled": 0, "fusion_lat": 0.0, "lon": -77.00660533333334}, {"is_reserved": 0, "rental_uris": {"ios": "https://dc.lft.to/lastmile_qr_scan", "android": "https://dc.lft.to/lastmile_qr_scan"}, "name": "6e537e01fee977c0ec16e5a0361b3ae1", "bike_id": "6e537e01fee977c0ec16e5a0361b3ae1", "type": "electric_scooter", "lat": 38.9405105, "fusion_lon": 0.0, "is_disabled": 0, "fusion_lat": 0.0, "lon": -77.09271116666666}, {"is_reserved": 0, "rental_uris": {"ios": "https://dc.lft.to/lastmile_qr_scan", "android": "https://dc.lft.to/lastmile_qr_scan"}, "name": "10aa7f89b184aa673df00a78392b2069", "bike_id": "10aa7f89b184aa673df00a78392b2069", "type": "electric_scooter", "lat": 38.896431166666666, "fusion_lon": 0.0, "is_disabled": 0, "fusion_lat": 0.0, "lon": -77.02316566666667}, {"is_reserved": 0, "rental_uris": {"ios": "https://dc.lft.to/lastmile_qr_scan", "android": "https://dc.lft.to/lastmile_qr_scan"}, "name": "4f9f93be700622b9c8ebf4e8b62dd316", "bike_id": "4f9f93be700622b9c8ebf4e8b62dd316", "type": "electric_scooter", "lat": 38.903241666666666, "fusion_lon": 0.0, "is_disabled": 0, "fusion_lat": 0.0, "lon": -77.01635766666666}, {"is_reserved": 0, "rental_uris": {"ios": "https://dc.lft.to/lastmile_qr_scan", "android": "https://dc.lft.to/lastmile_qr_scan"}, "name": "80f0b89faf47848b2c71391076fe5f7b", "bike_id": "80f0b89faf47848b2c71391076fe5f7b", "type": "electric_scooter", "lat": 38.9265665, "fusion_lon": 0.0, "is_disabled": 0, "fusion_lat": 0.0, "lon": -77.037294}, {"is_reserved": 0, "rental_uris": {"ios": "https://dc.lft.to/lastmile_qr_scan", "android": "https://dc.lft.to/lastmile_qr_scan"}, "name": "47ea67e034970ed1759408350a97e2a0", "bike_id": "47ea67e034970ed1759408350a97e2a0", "type": "electric_scooter", "lat": 38.880119, "fusion_lon": 0.0, "is_disabled": 0, "fusion_lat": 0.0, "lon": -76.93135033333333}, {"is_reserved": 0, "rental_uris": {"ios": "https://dc.lft.to/lastmile_qr_scan", "android": "https://dc.lft.to/lastmile_qr_scan"}, "name": "b0f9de2822915b3a2cf07ccc0eb47b93", "bike_id": "b0f9de2822915b3a2cf07ccc0eb47b93", "type": "electric_scooter", "lat": 38.89216166666667, "fusion_lon": 0.0, "is_disabled": 0, "fusion_lat": 0.0, "lon": -77.0213655}, {"is_reserved": 0, "rental_uris": {"ios": "https://dc.lft.to/lastmile_qr_scan", "android": "https://dc.lft.to/lastmile_qr_scan"}, "name": "9a72eae8f1d696f5ff4e608ba7d8cb5c", "bike_id": "9a72eae8f1d696f5ff4e608ba7d8cb5c", "type": "electric_bike", "lat": 38.880597, "fusion_lon": 0.0, "is_disabled": 0, "fusion_lat": 0.0, "lon": -77.08640733333333}, {"is_reserved": 0, "rental_uris": {"ios": "https://dc.lft.to/lastmile_qr_scan", "android": "https://dc.lft.to/lastmile_qr_scan"}, "name": "8ea6b5a6ad28d5fcab701fc818b8dd95", "bike_id": "8ea6b5a6ad28d5fcab701fc818b8dd95", "type": "electric_scooter", "lat": 38.922278166666665, "fusion_lon": 0.0, "is_disabled": 0, "fusion_lat": 0.0, "lon": -77.04381416666666}, {"is_reserved": 0, "rental_uris": {"ios": "https://dc.lft.to/lastmile_qr_scan", "android": "https://dc.lft.to/lastmile_qr_scan"}, "name": "4bdf62bedcdcb06bc62b85f8c22994e3", "bike_id": "4bdf62bedcdcb06bc62b85f8c22994e3", "type": "electric_scooter", "lat": 38.904577, "fusion_lon": 0.0, "is_disabled": 0, "fusion_lat": 0.0, "lon": -77.04353583333334}, {"is_reserved": 0, "rental_uris": {"ios": "https://dc.lft.to/lastmile_qr_scan", "android": "https://dc.lft.to/lastmile_qr_scan"}, "name": "4398471ba6691d42f0f45180e4cd45bc", "bike_id": "4398471ba6691d42f0f45180e4cd45bc", "type": "electric_scooter", "lat": 38.912783, "fusion_lon": 0.0, "is_disabled": 0, "fusion_lat": 0.0, "lon": -77.04507833333334}, {"is_reserved": 0, "rental_uris": {"ios": "https://dc.lft.to/lastmile_qr_scan", "android": "https://dc.lft.to/lastmile_qr_scan"}, "name": "32f155f6bb8b58e259cd3552ba6ba759", "bike_id": "32f155f6bb8b58e259cd3552ba6ba759", "type": "electric_scooter", "lat": 38.913718333333335, "fusion_lon": 0.0, "is_disabled": 0, "fusion_lat": 0.0, "lon": -77.01994883333333}, {"is_reserved": 0, "rental_uris": {"ios": "https://dc.lft.to/lastmile_qr_scan", "android": "https://dc.lft.to/lastmile_qr_scan"}, "name": "e07a9f3b1561ae303e05b5f209d71c0a", "bike_id": "e07a9f3b1561ae303e05b5f209d71c0a", "type": "electric_scooter", "lat": 38.93663733333333, "fusion_lon": 0.0, "is_disabled": 0, "fusion_lat": 0.0, "lon": -77.03595666666666}, {"is_reserved": 0, "rental_uris": {"ios": "https://dc.lft.to/lastmile_qr_scan", "android": "https://dc.lft.to/lastmile_qr_scan"}, "name": "7ec43ce6279c6c8f084f0ccf0fd26c8a", "bike_id": "7ec43ce6279c6c8f084f0ccf0fd26c8a", "type": "electric_scooter", "lat": 38.884826833333335, "fusion_lon": 0.0, "is_disabled": 0, "fusion_lat": 0.0, "lon": -77.03360416666666}, {"is_reserved": 0, "rental_uris": {"ios": "https://dc.lft.to/lastmile_qr_scan", "android": "https://dc.lft.to/lastmile_qr_scan"}, "name": "ebda8aeac63c46fa54e500e06ce7ffb5", "bike_id": "ebda8aeac63c46fa54e500e06ce7ffb5", "type": "electric_scooter", "lat": 38.926604833333336, "fusion_lon": 0.0, "is_disabled": 0, "fusion_lat": 0.0, "lon": -77.055985}, {"is_reserved": 0, "rental_uris": {"ios": "https://dc.lft.to/lastmile_qr_scan", "android": "https://dc.lft.to/lastmile_qr_scan"}, "name": "071b43ddcc2eac99abb3c46a61a7a01c", "bike_id": "071b43ddcc2eac99abb3c46a61a7a01c", "type": "electric_scooter", "lat": 38.9021155, "fusion_lon": 0.0, "is_disabled": 0, "fusion_lat": 0.0, "lon": -76.98852683333334}, {"is_reserved": 0, "rental_uris": {"ios": "https://dc.lft.to/lastmile_qr_scan", "android": "https://dc.lft.to/lastmile_qr_scan"}, "name": "4dfdd9f6a16ac17586c8ddc6ca03601e", "bike_id": "4dfdd9f6a16ac17586c8ddc6ca03601e", "type": "electric_scooter", "lat": 38.924673166666665, "fusion_lon": 0.0, "is_disabled": 0, "fusion_lat": 0.0, "lon": -77.05260416666667}, {"is_reserved": 0, "rental_uris": {"ios": "https://dc.lft.to/lastmile_qr_scan", "android": "https://dc.lft.to/lastmile_qr_scan"}, "name": "112d6f0a01c37e892e7d1b52778a2ff4", "bike_id": "112d6f0a01c37e892e7d1b52778a2ff4", "type": "electric_scooter", "lat": 38.900315, "fusion_lon": 0.0, "is_disabled": 0, "fusion_lat": 0.0, "lon": -76.98905483333333}, {"is_reserved": 0, "rental_uris": {"ios": "https://dc.lft.to/lastmile_qr_scan", "android": "https://dc.lft.to/lastmile_qr_scan"}, "name": "fe9ac553a683cf378e68099f160b6ac2", "bike_id": "fe9ac553a683cf378e68099f160b6ac2", "type": "electric_scooter", "lat": 38.895498833333335, "fusion_lon": 0.0, "is_disabled": 0, "fusion_lat": 0.0, "lon": -76.93381616666667}, {"is_reserved": 0, "rental_uris": {"ios": "https://dc.lft.to/lastmile_qr_scan", "android": "https://dc.lft.to/lastmile_qr_scan"}, "name": "a195159f5f05c7d57a05386de6f45912", "bike_id": "a195159f5f05c7d57a05386de6f45912", "type": "electric_scooter", "lat": 38.884805166666666, "fusion_lon": 0.0, "is_disabled": 0, "fusion_lat": 0.0, "lon": -77.0338095}, {"is_reserved": 0, "rental_uris": {"ios": "https://dc.lft.to/lastmile_qr_scan", "android": "https://dc.lft.to/lastmile_qr_scan"}, "name": "2138083afbb3f18f70076bc944b24afb", "bike_id": "2138083afbb3f18f70076bc944b24afb", "type": "electric_scooter", "lat": 38.88385783333333, "fusion_lon": 0.0, "is_disabled": 0, "fusion_lat": 0.0, "lon": -77.026305}, {"is_reserved": 0, "rental_uris": {"ios": "https://dc.lft.to/lastmile_qr_scan", "android": "https://dc.lft.to/lastmile_qr_scan"}, "name": "a12199648504dad34c05720759f41c2e", "bike_id": "a12199648504dad34c05720759f41c2e", "type": "electric_scooter", "lat": 38.903616666666665, "fusion_lon": 0.0, "is_disabled": 0, "fusion_lat": 0.0, "lon": -77.0397995}, {"is_reserved": 0, "rental_uris": {"ios": "https://dc.lft.to/lastmile_qr_scan", "android": "https://dc.lft.to/lastmile_qr_scan"}, "name": "c983670202a23e0f60702f7bfc16ffd2", "bike_id": "c983670202a23e0f60702f7bfc16ffd2", "type": "electric_bike", "lat": 38.8456625, "fusion_lon": 0.0, "is_disabled": 0, "fusion_lat": 0.0, "lon": -77.0962635}, {"is_reserved": 0, "rental_uris": {"ios": "https://dc.lft.to/lastmile_qr_scan", "android": "https://dc.lft.to/lastmile_qr_scan"},