{"data": {"bikes": [{"lon": -77.02765166666667, "bike_id": "87b8dcf62585dab5ad2e8dd509bd7aba", "lat": 38.904401166666666, "fusion_lon": 0.0, "fusion_lat": 0.0, "type": "electric_bike", "name": "87b8dcf62585dab5ad2e8dd509bd7aba", "is_disabled": 0, "rental_uris": {"ios": "https://dc.lft.to/lastmile_qr_scan", "android": "https://dc.lft.to/lastmile_qr_scan"}, "is_reserved": 0}, {"lon": -77.02164733333333, "bike_id": "ef7a1c90a1dbaeef7f9b22003b90b8af", "lat": 38.897448, "fusion_lon": 0.0, "fusion_lat": 0.0, "type": "electric_scooter", "name": "ef7a1c90a1dbaeef7f9b22003b90b8af", "is_disabled": 0, "rental_uris": {"ios": "https://dc.lft.to/lastmile_qr_scan", "android": "https://dc.lft.to/lastmile_qr_scan"}, "is_reserved": 0}, {"lon": -77.0283955, "bike_id": "ff03cb0fc6a317f225ac2f2efbe24430", "lat": 38.925858166666664, "fusion_lon": 0.0, "fusion_lat": 0.0, "type": "electric_scooter", "name": "ff03cb0fc6a317f225ac2f2efbe24430", "is_disabled": 0, "rental_uris": {"ios": "https://dc.lft.to/lastmile_qr_scan", "android": "https://dc.lft.to/lastmile_qr_scan"}, "is_reserved": 0}, {"lon": -77.03212166666667, "bike_id": "6619704c1c9c5063977586a3d37e3a41", "lat": 38.89615933333333, "fusion_lon": 0.0, "fusion_lat": 0.0, "type": "electric_scooter", "name": "6619704c1c9c5063977586a3d37e3a41", "is_disabled": 0, "rental_uris": {"ios": "https://dc.lft.to/lastmile_qr_scan", "android": "https://dc.lft.to/lastmile_qr_scan"}, "is_reserved": 0}, {"lon": -77.06711183333333, "bike_id": "a19ffdee966da9099a14e512d4d32271", "lat": 38.9144645, "fusion_lon": 0.0, "fusion_lat": 0.0, "type": "electric_scooter", "name": "a19ffdee966da9099a14e512d4d32271", "is_disabled": 0, "rental_uris": {"ios": "https://dc.lft.to/lastmile_qr_scan", "android": "https://dc.lft.to/lastmile_qr_scan"}, "is_reserved": 0}, {"lon": -77.02487583333334, "bike_id": "655460bc1727ee6a15426bee06834cc9", "lat": 38.916986, "fusion_lon": 0.0, "fusion_lat": 0.0, "type": "electric_scooter", "name": "655460bc1727ee6a15426bee06834cc9", "is_disabled": 0, "rental_uris": {"ios": "https://dc.lft.to/lastmile_qr_scan", "android": "https://dc.lft.to/lastmile_qr_scan"}, "is_reserved": 0}, {"lon": -77.03861466666666, "bike_id": "3e7a88fe7cc1159715e9fa89261bde5d", "lat": 38.9066975, "fusion_lon": 0.0, "fusion_lat": 0.0, "type": "electric_scooter", "name": "3e7a88fe7cc1159715e9fa89261bde5d", "is_disabled": 0, "rental_uris": {"ios": "https://dc.lft.to/lastmile_qr_scan", "android": "https://dc.lft.to/lastmile_qr_scan"}, "is_reserved": 0}, {"lon": -77.035781, "bike_id": "5a79ed769cee086d09a79b6fe1720177", "lat": 38.917797166666666, "fusion_lon": 0.0, "fusion_lat": 0.0, "type": "electric_scooter", "name": "5a79ed769cee086d09a79b6fe1720177", "is_disabled": 0, "rental_uris": {"ios": "https://dc.lft.to/lastmile_qr_scan", "android": "https://dc.lft.to/lastmile_qr_scan"}, "is_reserved": 0}, {"lon": -77.0737605, "bike_id": "93828f195bc85ce74b3bdce40aff82a0", "lat": 38.96192933333333, "fusion_lon": 0.0, "fusion_lat": 0.0, "type": "electric_bike", "name": "93828f195bc85ce74b3bdce40aff82a0", "is_disabled": 0, "rental_uris": {"ios": "https://dc.lft.to/lastmile_qr_scan", "android": "https://dc.lft.to/lastmile_qr_scan"}, "is_reserved": 0}, {"lon": -77.02386716666666, "bike_id": "2f7c01bf3a021a02d65adf040b67381e", "lat": 38.916813166666664, "fusion_lon": 0.0, "fusion_lat": 0.0, "type": "electric_scooter", "name": "2f7c01bf3a021a02d65adf040b67381e", "is_disabled": 0, "rental_uris": {"ios": "https://dc.lft.to/lastmile_qr_scan", "android": "https://dc.lft.to/lastmile_qr_scan"}, "is_reserved": 0}, {"lon": -77.05443866666667, "bike_id": "64493c9007695ed81f9321ad3ee7790b", "lat": 38.93537, "fusion_lon": 0.0, "fusion_lat": 0.0, "type": "electric_bike", "name": "64493c9007695ed81f9321ad3ee7790b", "is_disabled": 0, "rental_uris": {"ios": "https://dc.lft.to/lastmile_qr_scan", "android": "https://dc.lft.to/lastmile_qr_scan"}, "is_reserved": 0}, {"lon": -77.0402275, "bike_id": "48900dfa067f5203fc323b19a7977933", "lat": 38.911179, "fusion_lon": 0.0, "fusion_lat": 0.0, "type": "electric_scooter", "name": "48900dfa067f5203fc323b19a7977933", "is_disabled": 0, "rental_uris": {"ios": "https://dc.lft.to/lastmile_qr_scan", "android": "https://dc.lft.to/lastmile_qr_scan"}, "is_reserved": 0}, {"lon": -76.9300275, "bike_id": "772b4c42597d9f6b458a5f969c055083", "lat": 38.901898, "fusion_lon": 0.0, "fusion_lat": 0.0, "type": "electric_scooter", "name": "772b4c42597d9f6b458a5f969c055083", "is_disabled": 0, "rental_uris": {"ios": "https://dc.lft.to/lastmile_qr_scan", "android": "https://dc.lft.to/lastmile_qr_scan"}, "is_reserved": 0}, {"lon": -77.02225916666667, "bike_id": "62dbace9aa7cb7dba48d89e87a198b1e", "lat": 38.93555583333333, "fusion_lon": 0.0, "fusion_lat": 0.0, "type": "electric_scooter", "name": "62dbace9aa7cb7dba48d89e87a198b1e", "is_disabled": 0, "rental_uris": {"ios": "https://dc.lft.to/lastmile_qr_scan", "android": "https://dc.lft.to/lastmile_qr_scan"}, "is_reserved": 0}, {"lon": -77.03276733333334, "bike_id": "36f102b3d99f395b385586eac7605db6", "lat": 38.920002333333336, "fusion_lon": 0.0, "fusion_lat": 0.0, "type": "electric_scooter", "name": "36f102b3d99f395b385586eac7605db6", "is_disabled": 0, "rental_uris": {"ios": "https://dc.lft.to/lastmile_qr_scan", "android": "https://dc.lft.to/lastmile_qr_scan"}, "is_reserved": 0}, {"lon": -77.02344216666667, "bike_id": "ccdf8759a7de360e57699babca106452", "lat": 38.9208945, "fusion_lon": 0.0, "fusion_lat": 0.0, "type": "electric_scooter", "name": "ccdf8759a7de360e57699babca106452", "is_disabled": 0, "rental_uris": {"ios": "https://dc.lft.to/lastmile_qr_scan", "android": "https://dc.lft.to/lastmile_qr_scan"}, "is_reserved": 0}, {"lon": -77.0334125, "bike_id": "0de857ee75ba018bc6bd3c2bbdf774c6", "lat": 38.9192205, "fusion_lon": 0.0, "fusion_lat": 0.0, "type": "electric_scooter", "name": "0de857ee75ba018bc6bd3c2bbdf774c6", "is_disabled": 0, "rental_uris": {"ios": "https://dc.lft.to/lastmile_qr_scan", "android": "https://dc.lft.to/lastmile_qr_scan"}, "is_reserved": 0}, {"lon": -77.0144255, "bike_id": "f5314d8bb2819ef90249a7928925c2a8", "lat": 38.92070866666667, "fusion_lon": 0.0, "fusion_lat": 0.0, "type": "electric_scooter", "name": "f5314d8bb2819ef90249a7928925c2a8", "is_disabled": 0, "rental_uris": {"ios": "https://dc.lft.to/lastmile_qr_scan", "android": "https://dc.lft.to/lastmile_qr_scan"}, "is_reserved": 0}, {"lon": -76.98843666666667, "bike_id": "408b3f3e44451045a5eeeb4409e7e0eb", "lat": 38.900777833333336, "fusion_lon": 0.0, "fusion_lat": 0.0, "type": "electric_scooter", "name": "408b3f3e44451045a5eeeb4409e7e0eb", "is_disabled": 0, "rental_uris": {"ios": "https://dc.lft.to/lastmile_qr_scan", "android": "https://dc.lft.to/lastmile_qr_scan"}, "is_reserved": 0}, {"lon": -77.05046483333334, "bike_id": "e1383306ab7ab0d34caf370f618785ac", "lat": 38.92361183333333, "fusion_lon": 0.0, "fusion_lat": 0.0, "type": "electric_scooter", "name": "e1383306ab7ab0d34caf370f618785ac", "is_disabled": 0, "rental_uris": {"ios": "https://dc.lft.to/lastmile_qr_scan", "android": "https://dc.lft.to/lastmile_qr_scan"}, "is_reserved": 0}, {"lon": -76.99473516666667, "bike_id": "17e913142ca342fab30c83af21fff9a7", "lat": 38.862231333333334, "fusion_lon": 0.0, "fusion_lat": 0.0, "type": "electric_scooter", "name": "17e913142ca342fab30c83af21fff9a7", "is_disabled": 0, "rental_uris": {"ios": "https://dc.lft.to/lastmile_qr_scan", "android": "https://dc.lft.to/lastmile_qr_scan"}, "is_reserved": 0}, {"lon": -77.03384516666667, "bike_id": "b6673cb088673c4ade35b5d13479e318", "lat": 38.92162866666666, "fusion_lon": 0.0, "fusion_lat": 0.0, "type": "electric_scooter", "name": "b6673cb088673c4ade35b5d13479e318", "is_disabled": 0, "rental_uris": {"ios": "https://dc.lft.to/lastmile_qr_scan", "android": "https://dc.lft.to/lastmile_qr_scan"}, "is_reserved": 0}, {"lon": -77.04239566666666, "bike_id": "9f9283cb05a96a0b0a4f8a4489f174df", "lat": 38.91641966666667, "fusion_lon": 0.0, "fusion_lat": 0.0, "type": "electric_scooter", "name": "9f9283cb05a96a0b0a4f8a4489f174df", "is_disabled": 0, "rental_uris": {"ios": "https://dc.lft.to/lastmile_qr_scan", "android": "https://dc.lft.to/lastmile_qr_scan"}, "is_reserved": 0}, {"lon": -77.02372966666667, "bike_id": "5b0466c5c153fe4d240fbef33df4ccec", "lat": 38.88479683333333, "fusion_lon": 0.0, "fusion_lat": 0.0, "type": "electric_scooter", "name": "5b0466c5c153fe4d240fbef33df4ccec", "is_disabled": 0, "rental_uris": {"ios": "https://dc.lft.to/lastmile_qr_scan", "android": "https://dc.lft.to/lastmile_qr_scan"}, "is_reserved": 0}, {"lon": -77.056134, "bike_id": "5e9de2985f238a21f4638d07c0b0b698", "lat": 38.93161283333333, "fusion_lon": 0.0, "fusion_lat": 0.0, "type": "electric_scooter", "name": "5e9de2985f238a21f4638d07c0b0b698", "is_disabled": 0, "rental_uris": {"ios": "https://dc.lft.to/lastmile_qr_scan", "android": "https://dc.lft.to/lastmile_qr_scan"}, "is_reserved": 0}, {"lon": -77.06111433333334, "bike_id": "f474a13a391eb3907cf0b35c388d5bf6", "lat": 38.943608, "fusion_lon": 0.0, "fusion_lat": 0.0, "type": "electric_scooter", "name": "f474a13a391eb3907cf0b35c388d5bf6", "is_disabled": 0, "rental_uris": {"ios": "https://dc.lft.to/lastmile_qr_scan", "android": "https://dc.lft.to/lastmile_qr_scan"}, "is_reserved": 0}, {"lon": -77.04490983333334, "bike_id": "52aed6a8dde680155b5a6067041a91ca", "lat": 38.90726633333333, "fusion_lon": 0.0, "fusion_lat": 0.0, "type": "electric_scooter", "name": "52aed6a8dde680155b5a6067041a91ca", "is_disabled": 0, "rental_uris": {"ios": "https://dc.lft.to/lastmile_qr_scan", "android": "https://dc.lft.to/lastmile_qr_scan"}, "is_reserved": 0}, {"lon": -76.98370233333333, "bike_id": "a5688ea3aa7e0637c8e004ebb2e1cefe", "lat": 38.88965066666667, "fusion_lon": 0.0, "fusion_lat": 0.0, "type": "electric_scooter", "name": "a5688ea3aa7e0637c8e004ebb2e1cefe", "is_disabled": 0, "rental_uris": {"ios": "https://dc.lft.to/lastmile_qr_scan", "android": "https://dc.lft.to/lastmile_qr_scan"}, "is_reserved": 0}, {"lon": -77.0427645, "bike_id": "1c7f0c3962f9b62b2071a2f36dd454c1", "lat": 38.9002905, "fusion_lon": 0.0, "fusion_lat": 0.0, "type": "electric_scooter", "name": "1c7f0c3962f9b62b2071a2f36dd454c1", "is_disabled": 0, "rental_uris": {"ios": "https://dc.lft.to/lastmile_qr_scan", "android": "https://dc.lft.to/lastmile_qr_scan"}, "is_reserved": 0}, {"lon": -77.03176183333333, "bike_id": "3b6c38247b7cc7fac4346255b960c201", "lat": 38.892002, "fusion_lon": 0.0, "fusion_lat": 0.0, "type": "electric_scooter", "name": "3b6c38247b7cc7fac4346255b960c201", "is_disabled": 0, "rental_uris": {"ios": "https://dc.lft.to/lastmile_qr_scan", "android": "https://dc.lft.to/lastmile_qr_scan"}, "is_reserved": 0}, {"lon": -77.0244045, "bike_id": "7041fdfe137088a043c8d48992beca6c", "lat": 38.92051466666667, "fusion_lon": 0.0, "fusion_lat": 0.0, "type": "electric_scooter", "name": "7041fdfe137088a043c8d48992beca6c", "is_disabled": 0, "rental_uris": {"ios": "https://dc.lft.to/lastmile_qr_scan", "android": "https://dc.lft.to/lastmile_qr_scan"}, "is_reserved": 0}, {"lon": -77.04701033333333, "bike_id": "4419271800a2b533a6104578012900fd", "lat": 38.921390333333335, "fusion_lon": 0.0, "fusion_lat": 0.0, "type": "electric_scooter", "name": "4419271800a2b533a6104578012900fd", "is_disabled": 0, "rental_uris": {"ios": "https://dc.lft.to/lastmile_qr_scan", "android": "https://dc.lft.to/lastmile_qr_scan"}, "is_reserved": 0}, {"lon": -77.05147066666666, "bike_id": "4c58c10ce1ac45254ae45fa343eafadb", "lat": 38.92373033333333, "fusion_lon": 0.0, "fusion_lat": 0.0, "type": "electric_scooter", "name": "4c58c10ce1ac45254ae45fa343eafadb", "is_disabled": 0, "rental_uris": {"ios": "https://dc.lft.to/lastmile_qr_scan", "android": "https://dc.lft.to/lastmile_qr_scan"}, "is_reserved": 0}, {"lon": -77.03358066666667, "bike_id": "d4fc22584eaa0d13c2216a77e050e882", "lat": 38.8997675, "fusion_lon": 0.0, "fusion_lat": 0.0, "type": "electric_scooter", "name": "d4fc22584eaa0d13c2216a77e050e882", "is_disabled": 0, "rental_uris": {"ios": "https://dc.lft.to/lastmile_qr_scan", "android": "https://dc.lft.to/lastmile_qr_scan"}, "is_reserved": 0}, {"lon": -77.029826, "bike_id": "98b357fa57c7744c2051b901550ae678", "lat": 38.9073165, "fusion_lon": 0.0, "fusion_lat": 0.0, "type": "electric_scooter", "name": "98b357fa57c7744c2051b901550ae678", "is_disabled": 0, "rental_uris": {"ios": "https://dc.lft.to/lastmile_qr_scan", "android": "https://dc.lft.to/lastmile_qr_scan"}, "is_reserved": 0}, {"lon": -77.01130616666667, "bike_id": "c5f90c5a4d657611fb3c99e843ce13c1", "lat": 38.91171933333333, "fusion_lon": 0.0, "fusion_lat": 0.0, "type": "electric_bike", "name": "c5f90c5a4d657611fb3c99e843ce13c1", "is_disabled": 0, "rental_uris": {"ios": "https://dc.lft.to/lastmile_qr_scan", "android": "https://dc.lft.to/lastmile_qr_scan"}, "is_reserved": 0}, {"lon": -77.00206683333333, "bike_id": "85288df0c4eb7b719293a2810aacee20", "lat": 38.9023375, "fusion_lon": 0.0, "fusion_lat": 0.0, "type": "electric_scooter", "name": "85288df0c4eb7b719293a2810aacee20", "is_disabled": 0, "rental_uris": {"ios": "https://dc.lft.to/lastmile_qr_scan", "android": "https://dc.lft.to/lastmile_qr_scan"}, "is_reserved": 0}, {"lon": -77.03380616666666, "bike_id": "4c99eb52c8bc786300316ffde5b32e2f", "lat": 38.90265383333333, "fusion_lon": 0.0, "fusion_lat": 0.0, "type": "electric_scooter", "name": "4c99eb52c8bc786300316ffde5b32e2f", "is_disabled": 0, "rental_uris": {"ios": "https://dc.lft.to/lastmile_qr_scan", "android": "https://dc.lft.to/lastmile_qr_scan"}, "is_reserved": 0}, {"lon": -77.02657433333333, "bike_id": "b4589b15902b953bcc761e3faf3811e5", "lat": 38.90273366666667, "fusion_lon": 0.0, "fusion_lat": 0.0, "type": "electric_scooter", "name": "b4589b15902b953bcc761e3faf3811e5", "is_disabled": 0, "rental_uris": {"ios": "https://dc.lft.to/lastmile_qr_scan", "android": "https://dc.lft.to/lastmile_qr_scan"}, "is_reserved": 0}, {"lon": -77.03208216666667, "bike_id": "9f5dbca93375eac204ed251d411ba675", "lat": 38.9174395, "fusion_lon": 0.0, "fusion_lat": 0.0, "type": "electric_scooter", "name": "9f5dbca93375eac204ed251d411ba675", "is_disabled": 0, "rental_uris": {"ios": "https://dc.lft.to/lastmile_qr_scan", "android": "https://dc.lft.to/lastmile_qr_scan"}, "is_reserved": 0}, {"lon": -76.988344, "bike_id": "9780c1983174c9fd1c298af077e1ec51", "lat": 38.90100483333333, "fusion_lon": 0.0, "fusion_lat": 0.0, "type": "electric_scooter", "name": "9780c1983174c9fd1c298af077e1ec51", "is_disabled": 0, "rental_uris": {"ios": "https://dc.lft.to/lastmile_qr_scan", "android": "https://dc.lft.to/lastmile_qr_scan"}, "is_reserved": 0}, {"lon": -77.10810516666666, "bike_id": "ee7b4ce8e89d586d148a919a0153cc13", "lat": 38.812094, "fusion_lon": 0.0, "fusion_lat": 0.0, "type": "electric_bike", "name": "ee7b4ce8e89d586d148a919a0153cc13", "is_disabled": 0, "rental_uris": {"ios": "https://dc.lft.to/lastmile_qr_scan", "android": "https://dc.lft.to/lastmile_qr_scan"}, "is_reserved": 0}, {"lon": -77.01759166666666, "bike_id": "6f457ca2895b1969fe24b44893702586", "lat": 38.877267, "fusion_lon": 0.0, "fusion_lat": 0.0, "type": "electric_scooter", "name": "6f457ca2895b1969fe24b44893702586", "is_disabled": 0, "rental_uris": {"ios": "https://dc.lft.to/lastmile_qr_scan", "android": "https://dc.lft.to/lastmile_qr_scan"}, "is_reserved": 0}, {"lon": -77.02594466666666, "bike_id": "85f2f6bf7f8e39f2264f9021699af5a9", "lat": 38.942016, "fusion_lon": 0.0, "fusion_lat": 0.0, "type": "electric_scooter", "name": "85f2f6bf7f8e39f2264f9021699af5a9", "is_disabled": 0, "rental_uris": {"ios": "https://dc.lft.to/lastmile_qr_scan", "android": "https://dc.lft.to/lastmile_qr_scan"}, "is_reserved": 0}, {"lon": -77.03408966666667, "bike_id": "9fdc4fb161a4d0e0dd545eb971eab080", "lat": 38.92269783333333, "fusion_lon": 0.0, "fusion_lat": 0.0, "type": "electric_scooter", "name": "9fdc4fb161a4d0e0dd545eb971eab080", "is_disabled": 0, "rental_uris": {"ios": "https://dc.lft.to/lastmile_qr_scan", "android": "https://dc.lft.to/lastmile_qr_scan"}, "is_reserved": 0}, {"lon": -77.03393116666666, "bike_id": "6de1d8168660d05723508657492ec32e", "lat": 38.90271083333333, "fusion_lon": 0.0, "fusion_lat": 0.0, "type": "electric_scooter", "name": "6de1d8168660d05723508657492ec32e", "is_disabled": 0, "rental_uris": {"ios": "https://dc.lft.to/lastmile_qr_scan", "android": "https://dc.lft.to/lastmile_qr_scan"}, "is_reserved": 0}, {"lon": -77.02211933333334, "bike_id": "89606a8cae639e877ea16126a93ac6a1", "lat": 38.91057083333333, "fusion_lon": 0.0, "fusion_lat": 0.0, "type": "electric_scooter", "name": "89606a8cae639e877ea16126a93ac6a1", "is_disabled": 0, "rental_uris": {"ios": "https://dc.lft.to/lastmile_qr_scan", "android": "https://dc.lft.to/lastmile_qr_scan"}, "is_reserved": 0}, {"lon": -76.999394, "bike_id": "8691c6e9ad658307e77171dd52b8b998", "lat": 38.91925466666667, "fusion_lon": 0.0, "fusion_lat": 0.0, "type": "electric_scooter", "name": "8691c6e9ad658307e77171dd52b8b998", "is_disabled": 0, "rental_uris": {"ios": "https://dc.lft.to/lastmile_qr_scan", "android": "https://dc.lft.to/lastmile_qr_scan"}, "is_reserved": 0}, {"lon": -77.032271, "bike_id": "8c126f6b7603319ed24f8dbc686adda5", "lat": 38.907372, "fusion_lon": 0.0, "fusion_lat": 0.0, "type": "electric_scooter", "name": "8c126f6b7603319ed24f8dbc686adda5", "is_disabled": 0, "rental_uris": {"ios": "https://dc.lft.to/lastmile_qr_scan", "android": "https://dc.lft.to/lastmile_qr_scan"}, "is_reserved": 0}, {"lon": -77.0220775, "bike_id": "6a5943340af3030be534b49a8bfc7e40", "lat": 38.878887666666664, "fusion_lon": 0.0, "fusion_lat": 0.0, "type": "electric_scooter", "name": "6a5943340af3030be534b49a8bfc7e40", "is_disabled": 0, "rental_uris": {"ios": "https://dc.lft.to/lastmile_qr_scan", "android": "https://dc.lft.to/lastmile_qr_scan"}, "is_reserved": 0}, {"lon": -77.05934983333333, "bike_id": "e7e7d54c9051d524693d520d011978f4", "lat": 38.9053345, "fusion_lon": 0.0, "fusion_lat": 0.0, "type": "electric_bike", "name": "e7e7d54c9051d524693d520d011978f4", "is_disabled": 0, "rental_uris": {"ios": "https://dc.lft.to/lastmile_qr_scan", "android": "https://dc.lft.to/lastmile_qr_scan"}, "is_reserved": 0}, {"lon": -77.0227685, "bike_id": "18b67ffaa93b310efc72f59f4a9143c7", "lat": 38.9095745, "fusion_lon": 0.0, "fusion_lat": 0.0, "type": "electric_scooter", "name": "18b67ffaa93b310efc72f59f4a9143c7", "is_disabled": 0, "rental_uris": {"ios": "https://dc.lft.to/lastmile_qr_scan", "android": "https://dc.lft.to/lastmile_qr_scan"}, "is_reserved": 0}, {"lon": -77.03438566666667, "bike_id": "4ae8a99c7ec23892b328cda5ab12ffac", "lat": 38.9181535, "fusion_lon": 0.0, "fusion_lat": 0.0, "type": "electric_scooter", "name": "4ae8a99c7ec23892b328cda5ab12ffac", "is_disabled": 0, "rental_uris": {"ios": "https://dc.lft.to/lastmile_qr_scan", "android": "https://dc.lft.to/lastmile_qr_scan"}, "is_reserved": 0}, {"lon": -77.03334766666667, "bike_id": "a66265326b694748683c6d4e561ca41a", "lat": 38.961356, "fusion_lon": 0.0, "fusion_lat": 0.0, "type": "electric_bike", "name": "a66265326b694748683c6d4e561ca41a", "is_disabled": 0, "rental_uris": {"ios": "https://dc.lft.to/lastmile_qr_scan", "android": "https://dc.lft.to/lastmile_qr_scan"}, "is_reserved": 0}, {"lon": -77.02192433333333, "bike_id": "650982d46f9a54195466dde81441e682", "lat": 38.892859, "fusion_lon": 0.0, "fusion_lat": 0.0, "type": "electric_scooter", "name": "650982d46f9a54195466dde81441e682", "is_disabled": 0, "rental_uris": {"ios": "https://dc.lft.to/lastmile_qr_scan", "android": "https://dc.lft.to/lastmile_qr_scan"}, "is_reserved": 0}, {"lon": -77.02214716666667, "bike_id": "a1f5f9e239a8fcdd4e0885461b5093e4", "lat": 38.8934895, "fusion_lon": 0.0, "fusion_lat": 0.0, "type": "electric_scooter", "name": "a1f5f9e239a8fcdd4e0885461b5093e4", "is_disabled": 0, "rental_uris": {"ios": "https://dc.lft.to/lastmile_qr_scan", "android": "https://dc.lft.to/lastmile_qr_scan"}, "is_reserved": 0}, {"lon": -77.03814266666667, "bike_id": "3610730f2e1ec0c27c18c67da9fdb367", "lat": 38.931033166666666, "fusion_lon": 0.0, "fusion_lat": 0.0, "type": "electric_scooter", "name": "3610730f2e1ec0c27c18c67da9fdb367", "is_disabled": 0, "rental_uris": {"ios": "https://dc.lft.to/lastmile_qr_scan", "android": "https://dc.lft.to/lastmile_qr_scan"}, "is_reserved": 0}, {"lon": -76.97208316666666, "bike_id": "da63824410069db54dafa1a014f5ce3e", "lat": 38.89293583333333, "fusion_lon": 0.0, "fusion_lat": 0.0, "type": "electric_bike", "name": "da63824410069db54dafa1a014f5ce3e", "is_disabled": 0, "rental_uris": {"ios": "https://dc.lft.to/lastmile_qr_scan", "android": "https://dc.lft.to/lastmile_qr_scan"}, "is_reserved": 0}, {"lon": -77.00885933333333, "bike_id": "b02e8539500d7c87f90a8ac980fd6249", "lat": 38.8253075, "fusion_lon": 0.0, "fusion_lat": 0.0, "type": "electric_scooter", "name": "b02e8539500d7c87f90a8ac980fd6249", "is_disabled": 0, "rental_uris": {"ios": "https://dc.lft.to/lastmile_qr_scan", "android": "https://dc.lft.to/lastmile_qr_scan"}, "is_reserved": 0}, {"lon": -76.9770525, "bike_id": "833b98ffb27ec9d37633c557c71c1c40", "lat": 38.885219166666666, "fusion_lon": 0.0, "fusion_lat": 0.0, "type": "electric_scooter", "name": "833b98ffb27ec9d37633c557c71c1c40", "is_disabled": 0, "rental_uris": {"ios": "https://dc.lft.to/lastmile_qr_scan", "android": "https://dc.lft.to/lastmile_qr_scan"}, "is_reserved": 0}, {"lon": -77.05577966666667, "bike_id": "75977900e32672964bf90b387cb98f58", "lat": 38.93060166666667, "fusion_lon": 0.0, "fusion_lat": 0.0, "type": "electric_scooter", "name": "75977900e32672964bf90b387cb98f58", "is_disabled": 0, "rental_uris": {"ios": "https://dc.lft.to/lastmile_qr_scan", "android": "https://dc.lft.to/lastmile_qr_scan"}, "is_reserved": 0}, {"lon": -77.04181266666667, "bike_id": "dc06edb70583d7b714b6e614a30f5378", "lat": 38.915505333333336, "fusion_lon": 0.0, "fusion_lat": 0.0, "type": "electric_scooter", "name": "dc06edb70583d7b714b6e614a30f5378", "is_disabled": 0, "rental_uris": {"ios": "https://dc.lft.to/lastmile_qr_scan", "android": "https://dc.lft.to/lastmile_qr_scan"}, "is_reserved": 0}, {"lon": -77.13932833333334, "bike_id": "7bc6d46a73c001180ee1178f5bb5bb92", "lat": 38.872919, "fusion_lon": 0.0, "fusion_lat": 0.0, "type": "electric_bike", "name": "7bc6d46a73c001180ee1178f5bb5bb92", "is_disabled": 0, "rental_uris": {"ios": "https://dc.lft.to/lastmile_qr_scan", "android": "https://dc.lft.to/lastmile_qr_scan"}, "is_reserved": 0}, {"lon": -76.992719, "bike_id": "84d1bc42ad53180cef6836cdd8d7a66d", "lat": 38.86038516666667, "fusion_lon": 0.0, "fusion_lat": 0.0, "type": "electric_scooter", "name": "84d1bc42ad53180cef6836cdd8d7a66d", "is_disabled": 0, "rental_uris": {"ios": "https://dc.lft.to/lastmile_qr_scan", "android": "https://dc.lft.to/lastmile_qr_scan"}, "is_reserved": 0}, {"lon": -77.02707583333333, "bike_id": "b38adfe6e3f28dad44c0e4ee7bfd274e", "lat": 38.94987583333333, "fusion_lon": 0.0, "fusion_lat": 0.0, "type": "electric_scooter", "name": "b38adfe6e3f28dad44c0e4ee7bfd274e", "is_disabled": 0, "rental_uris": {"ios": "https://dc.lft.to/lastmile_qr_scan", "android": "https://dc.lft.to/lastmile_qr_scan"}, "is_reserved": 0}, {"lon": -77.02959783333333, "bike_id": "cbccf6618284b93969ea50e910c32946", "lat": 38.90492416666667, "fusion_lon": 0.0, "fusion_lat": 0.0, "type": "electric_scooter", "name": "cbccf6618284b93969ea50e910c32946", "is_disabled": 0, "rental_uris": {"ios": "https://dc.lft.to/lastmile_qr_scan", "android": "https://dc.lft.to/lastmile_qr_scan"}, "is_reserved": 0}, {"lon": -77.044979, "bike_id": "ca9378f8d38bb188ba6c1c8751665870", "lat": 38.913268, "fusion_lon": 0.0, "fusion_lat": 0.0, "type": "electric_scooter", "name": "ca9378f8d38bb188ba6c1c8751665870", "is_disabled": 0, "rental_uris": {"ios": "https://dc.lft.to/lastmile_qr_scan", "android": "https://dc.lft.to/lastmile_qr_scan"}, "is_reserved": 0}, {"lon": -77.03210516666667, "bike_id": "2e88a060e3aa60a8f4073876d98e4470", "lat": 38.9149945, "fusion_lon": 0.0, "fusion_lat": 0.0, "type": "electric_scooter", "name": "2e88a060e3aa60a8f4073876d98e4470", "is_disabled": 0, "rental_uris": {"ios": "https://dc.lft.to/lastmile_qr_scan", "android": "https://dc.lft.to/lastmile_qr_scan"}, "is_reserved": 0}, {"lon": -77.12431816666667, "bike_id": "3cec1f991b73d5238c35cf64f3b4f6e3", "lat": 38.853814, "fusion_lon": 0.0, "fusion_lat": 0.0, "type": "electric_bike", "name": "3cec1f991b73d5238c35cf64f3b4f6e3", "is_disabled": 0, "rental_uris": {"ios": "https://dc.lft.to/lastmile_qr_scan", "android": "https://dc.lft.to/lastmile_qr_scan"}, "is_reserved": 0}, {"lon": -76.98840916666667, "bike_id": "9249803b07390543f57ca984ed6602a4", "lat": 38.89667583333333, "fusion_lon": 0.0, "fusion_lat": 0.0, "type": "electric_scooter", "name": "9249803b07390543f57ca984ed6602a4", "is_disabled": 0, "rental_uris": {"ios": "https://dc.lft.to/lastmile_qr_scan", "android": "https://dc.lft.to/lastmile_qr_scan"}, "is_reserved": 0}, {"lon": -77.07764383333334, "bike_id": "8391a21d3dd43e72950e564469977c7a", "lat": 38.95773166666667, "fusion_lon": 0.0, "fusion_lat": 0.0, "type": "electric_scooter", "name": "8391a21d3dd43e72950e564469977c7a", "is_disabled": 0, "rental_uris": {"ios": "https://dc.lft.to/lastmile_qr_scan", "android": "https://dc.lft.to/lastmile_qr_scan"}, "is_reserved": 0}, {"lon": -77.04716783333333, "bike_id": "74ed04288d98c2ee4b7dfbb6e5105f58", "lat": 38.9231425, "fusion_lon": 0.0, "fusion_lat": 0.0, "type": "electric_scooter", "name": "74ed04288d98c2ee4b7dfbb6e5105f58", "is_disabled": 0, "rental_uris": {"ios": "https://dc.lft.to/lastmile_qr_scan", "android": "https://dc.lft.to/lastmile_qr_scan"}, "is_reserved": 0}, {"lon": -77.0312785, "bike_id": "4393f49a92ed18002622f09b926f7572", "lat": 38.920191, "fusion_lon": 0.0, "fusion_lat": 0.0, "type": "electric_scooter", "name": "4393f49a92ed18002622f09b926f7572", "is_disabled": 0, "rental_uris": {"ios": "https://dc.lft.to/lastmile_qr_scan", "android": "https://dc.lft.to/lastmile_qr_scan"}, "is_reserved": 0}, {"lon": -77.0447465, "bike_id": "a33475192626848b473dcb3d246e5dbe", "lat": 38.923912333333334, "fusion_lon": 0.0, "fusion_lat": 0.0, "type": "electric_scooter", "name": "a33475192626848b473dcb3d246e5dbe", "is_disabled": 0, "rental_uris": {"ios": "https://dc.lft.to/lastmile_qr_scan", "android": "https://dc.lft.to/lastmile_qr_scan"}, "is_reserved": 0}, {"lon": -77.03984033333333, "bike_id": "0219417d5ed9c08ac24f7d216cc4da1e", "lat": 38.93338716666667, "fusion_lon": 0.0, "fusion_lat": 0.0, "type": "electric_scooter", "name": "0219417d5ed9c08ac24f7d216cc4da1e", "is_disabled": 0, "rental_uris": {"ios": "https://dc.lft.to/lastmile_qr_scan", "android": "https://dc.lft.to/lastmile_qr_scan"}, "is_reserved": 0}, {"lon": -77.04333083333333, "bike_id": "5b26e238a6107e61dbfcc7f0daec756d", "lat": 38.90703666666667, "fusion_lon": 0.0, "fusion_lat": 0.0, "type": "electric_scooter", "name": "5b26e238a6107e61dbfcc7f0daec756d", "is_disabled": 0, "rental_uris": {"ios": "https://dc.lft.to/lastmile_qr_scan", "android": "https://dc.lft.to/lastmile_qr_scan"}, "is_reserved": 0}, {"lon": -77.0174785, "bike_id": "923bb65fc0d009ccf5fda3a8d4424e98", "lat": 38.887509666666666, "fusion_lon": 0.0, "fusion_lat": 0.0, "type": "electric_scooter", "name": "923bb65fc0d009ccf5fda3a8d4424e98", "is_disabled": 0, "rental_uris": {"ios": "https://dc.lft.to/lastmile_qr_scan", "android": "https://dc.lft.to/lastmile_qr_scan"}, "is_reserved": 0}, {"lon": -77.0227645, "bike_id": "b996020e1acf5be8cee0160f2ebb94a1", "lat": 38.91668416666667, "fusion_lon": 0.0, "fusion_lat": 0.0, "type": "electric_scooter", "name": "b996020e1acf5be8cee0160f2ebb94a1", "is_disabled": 0, "rental_uris": {"ios": "https://dc.lft.to/lastmile_qr_scan", "android": "https://dc.lft.to/lastmile_qr_scan"}, "is_reserved": 0}, {"lon": -76.99800966666666, "bike_id": "c15e1be0923f85183c18acbeb1096290", "lat": 38.90860283333333, "fusion_lon": 0.0, "fusion_lat": 0.0, "type": "electric_scooter", "name": "c15e1be0923f85183c18acbeb1096290", "is_disabled": 0, "rental_uris": {"ios": "https://dc.lft.to/lastmile_qr_scan", "android": "https://dc.lft.to/lastmile_qr_scan"}, "is_reserved": 0}, {"lon": -77.02606783333333, "bike_id": "24f54070dac8699f82de6bf04a923be6", "lat": 38.933869666666666, "fusion_lon": 0.0, "fusion_lat": 0.0, "type": "electric_scooter", "name": "24f54070dac8699f82de6bf04a923be6", "is_disabled": 0, "rental_uris": {"ios": "https://dc.lft.to/lastmile_qr_scan", "android": "https://dc.lft.to/lastmile_qr_scan"}, "is_reserved": 0}, {"lon": -76.994818, "bike_id": "aaea4379e127c4cb4efb8168a29ca7fa", "lat": 38.886108, "fusion_lon": 0.0, "fusion_lat": 0.0, "type": "electric_scooter", "name": "aaea4379e127c4cb4efb8168a29ca7fa", "is_disabled": 0, "rental_uris": {"ios": "https://dc.lft.to/lastmile_qr_scan", "android": "https://dc.lft.to/lastmile_qr_scan"}, "is_reserved": 0}, {"lon": -77.02293183333333, "bike_id": "f84f06dc32000a4dc97723419cac3b0a", "lat": 38.916874166666666, "fusion_lon": 0.0, "fusion_lat": 0.0, "type": "electric_scooter", "name": "f84f06dc32000a4dc97723419cac3b0a", "is_disabled": 0, "rental_uris": {"ios": "https://dc.lft.to/lastmile_qr_scan", "android": "https://dc.lft.to/lastmile_qr_scan"}, "is_reserved": 0}, {"lon": -76.98528283333333, "bike_id": "603c7c46da22de14836de11f07ee38bc", "lat": 38.866921166666664, "fusion_lon": 0.0, "fusion_lat": 0.0, "type": "electric_scooter", "name": "603c7c46da22de14836de11f07ee38bc", "is_disabled": 0, "rental_uris": {"ios": "https://dc.lft.to/lastmile_qr_scan", "android": "https://dc.lft.to/lastmile_qr_scan"}, "is_reserved": 0}, {"lon": -77.0223195, "bike_id": "cf7ee123e1b8ae5b05943aee1fa86e12", "lat": 38.89220233333333, "fusion_lon": 0.0, "fusion_lat": 0.0, "type": "electric_scooter", "name": "cf7ee123e1b8ae5b05943aee1fa86e12", "is_disabled": 0, "rental_uris": {"ios": "https://dc.lft.to/lastmile_qr_scan", "android": "https://dc.lft.to/lastmile_qr_scan"}, "is_reserved": 0}, {"lon": -76.97937033333334, "bike_id": "63b6293202ed2dbdb9be00e3e25dcd6c", "lat": 38.902484, "fusion_lon": 0.0, "fusion_lat": 0.0, "type": "electric_scooter", "name": "63b6293202ed2dbdb9be00e3e25dcd6c", "is_disabled": 0, "rental_uris": {"ios": "https://dc.lft.to/lastmile_qr_scan", "android": "https://dc.lft.to/lastmile_qr_scan"}, "is_reserved": 0}, {"lon": -77.00561583333334, "bike_id": "ec74c51a930ed5b712c484065f0408dc", "lat": 38.874713166666666, "fusion_lon": 0.0, "fusion_lat": 0.0, "type": "electric_scooter", "name": "ec74c51a930ed5b712c484065f0408dc", "is_disabled": 0, "rental_uris": {"ios": "https://dc.lft.to/lastmile_qr_scan", "android": "https://dc.lft.to/lastmile_qr_scan"}, "is_reserved": 0}, {"lon": -76.9074615, "bike_id": "5969a045dfbdea42b53869421964fe3a", "lat": 38.896203166666666, "fusion_lon": 0.0, "fusion_lat": 0.0, "type": "electric_bike", "name": "5969a045dfbdea42b53869421964fe3a", "is_disabled": 0, "rental_uris": {"ios": "https://dc.lft.to/lastmile_qr_scan", "android": "https://dc.lft.to/lastmile_qr_scan"}, "is_reserved": 0}, {"lon": -76.94996366666666, "bike_id": "e3233055c7b9155ac8d72e3fdc67f1cf", "lat": 38.8938245, "fusion_lon": 0.0, "fusion_lat": 0.0, "type": "electric_scooter", "name": "e3233055c7b9155ac8d72e3fdc67f1cf", "is_disabled": 0, "rental_uris": {"ios": "https://dc.lft.to/lastmile_qr_scan", "android": "https://dc.lft.to/lastmile_qr_scan"}, "is_reserved": 0}, {"lon": -77.03551233333333, "bike_id": "b3692263f67eae79f3988c17342629c0", "lat": 38.933849, "fusion_lon": 0.0, "fusion_lat": 0.0, "type": "electric_scooter", "name": "b3692263f67eae79f3988c17342629c0", "is_disabled": 0, "rental_uris": {"ios": "https://dc.lft.to/lastmile_qr_scan", "android": "https://dc.lft.to/lastmile_qr_scan"}, "is_reserved": 0}, {"lon": -76.97560666666666, "bike_id": "aff729cce07d7e6312650a08298c3494", "lat": 38.924608, "fusion_lon": 0.0, "fusion_lat": 0.0, "type": "electric_bike", "name": "aff729cce07d7e6312650a08298c3494", "is_disabled": 0, "rental_uris": {"ios": "https://dc.lft.to/lastmile_qr_scan", "android": "https://dc.lft.to/lastmile_qr_scan"}, "is_reserved": 0}, {"lon": -77.02092266666666, "bike_id": "e2ee770a936bacfad27aa8fbea8395de", "lat": 38.92911383333333, "fusion_lon": 0.0, "fusion_lat": 0.0, "type": "electric_scooter", "name": "e2ee770a936bacfad27aa8fbea8395de", "is_disabled": 0, "rental_uris": {"ios": "https://dc.lft.to/lastmile_qr_scan", "android": "https://dc.lft.to/lastmile_qr_scan"}, "is_reserved": 0}, {"lon": -77.04999683333334, "bike_id": "56a1ffbf60eeba7d49b192b0f8a9eba5", "lat": 38.89195266666667, "fusion_lon": 0.0, "fusion_lat": 0.0, "type": "electric_scooter", "name": "56a1ffbf60eeba7d49b192b0f8a9eba5", "is_disabled": 0, "rental_uris": {"ios": "https://dc.lft.to/lastmile_qr_scan", "android": "https://dc.lft.to/lastmile_qr_scan"}, "is_reserved": 0}, {"lon": -76.99597616666667, "bike_id": "1d7b403b020fc2521345c2a665c95235", "lat": 38.950699166666666, "fusion_lon": 0.0, "fusion_lat": 0.0, "type": "electric_bike", "name": "1d7b403b020fc2521345c2a665c95235", "is_disabled": 0, "rental_uris": {"ios": "https://dc.lft.to/lastmile_qr_scan", "android": "https://dc.lft.to/lastmile_qr_scan"}, "is_reserved": 0}, {"lon": -77.03261816666667, "bike_id": "9e2dbbfa4bcbcc33e53c91f374522e8a", "lat": 38.929951833333334, "fusion_lon": 0.0, "fusion_lat": 0.0, "type": "electric_scooter", "name": "9e2dbbfa4bcbcc33e53c91f374522e8a", "is_disabled": 0, "rental_uris": {"ios": "https://dc.lft.to/lastmile_qr_scan", "android": "https://dc.lft.to/lastmile_qr_scan"}, "is_reserved": 0}, {"lon": -77.04672666666667, "bike_id": "67c6d594ed97ff94acc4f4d34322e3e7", "lat": 38.892314999999996, "fusion_lon": 0.0, "fusion_lat": 0.0, "type": "electric_scooter", "name": "67c6d594ed97ff94acc4f4d34322e3e7", "is_disabled": 0, "rental_uris": {"ios": "https://dc.lft.to/lastmile_qr_scan", "android": "https://dc.lft.to/lastmile_qr_scan"}, "is_reserved": 0}, {"lon": -76.978578, "bike_id": "65f644f29862505637fb8d6a85048dd1", "lat": 38.907241166666665, "fusion_lon": 0.0, "fusion_lat": 0.0, "type": "electric_scooter", "name": "65f644f29862505637fb8d6a85048dd1", "is_disabled": 0, "rental_uris": {"ios": "https://dc.lft.to/lastmile_qr_scan", "android": "https://dc.lft.to/lastmile_qr_scan"}, "is_reserved": 0}, {"lon": -77.03264166666666, "bike_id": "d6515abae4516f1804cb8c28016176d0", "lat": 38.937757500000004, "fusion_lon": 0.0, "fusion_lat": 0.0, "type": "electric_scooter", "name": "d6515abae4516f1804cb8c28016176d0", "is_disabled": 0, "rental_uris": {"ios": "https://dc.lft.to/lastmile_qr_scan", "android": "https://dc.lft.to/lastmile_qr_scan"}, "is_reserved": 0}, {"lon": -77.01598283333334, "bike_id": "2c08fad0483056905ef856c1e00fd4b4", "lat": 38.88333566666667, "fusion_lon": 0.0, "fusion_lat": 0.0, "type": "electric_scooter", "name": "2c08fad0483056905ef856c1e00fd4b4", "is_disabled": 0, "rental_uris": {"ios": "https://dc.lft.to/lastmile_qr_scan", "android": "https://dc.lft.to/lastmile_qr_scan"}, "is_reserved": 0}, {"lon": -77.04463633333333, "bike_id": "0d397f795d7057e560fb0aa5929f06fa", "lat": 38.90535916666666, "fusion_lon": 0.0, "fusion_lat": 0.0, "type": "electric_scooter", "name": "0d397f795d7057e560fb0aa5929f06fa", "is_disabled": 0, "rental_uris": {"ios": "https://dc.lft.to/lastmile_qr_scan", "android": "https://dc.lft.to/lastmile_qr_scan"}, "is_reserved": 0}, {"lon": -77.01784633333334, "bike_id": "2d7d53af1e16323fc065c59ac9d62def", "lat": 38.886357333333336, "fusion_lon": 0.0, "fusion_lat": 0.0, "type": "electric_scooter", "name": "2d7d53af1e16323fc065c59ac9d62def", "is_disabled": 0, "rental_uris": {"ios": "https://dc.lft.to/lastmile_qr_scan", "android": "https://dc.lft.to/lastmile_qr_scan"}, "is_reserved": 0}, {"lon": -77.03846216666666, "bike_id": "b8f814eed4f5826b13513496ec76a2ab", "lat": 38.93254833333334, "fusion_lon": 0.0, "fusion_lat": 0.0, "type": "electric_scooter", "name": "b8f814eed4f5826b13513496ec76a2ab", "is_disabled": 0, "rental_uris": {"ios": "https://dc.lft.to/lastmile_qr_scan", "android": "https://dc.lft.to/lastmile_qr_scan"}, "is_reserved": 0}, {"lon": -77.050421, "bike_id": "757920e3f720942ddb9381435e3c835f", "lat": 38.92362033333333, "fusion_lon": 0.0, "fusion_lat": 0.0, "type": "electric_scooter", "name": "757920e3f720942ddb9381435e3c835f", "is_disabled": 0, "rental_uris": {"ios": "https://dc.lft.to/lastmile_qr_scan", "android": "https://dc.lft.to/lastmile_qr_scan"}, "is_reserved": 0}, {"lon": -77.03297333333333, "bike_id": "a0781c111521614c22d5b05126f1784f", "lat": 38.91044816666667, "fusion_lon": 0.0, "fusion_lat": 0.0, "type": "electric_scooter", "name": "a0781c111521614c22d5b05126f1784f", "is_disabled": 0, "rental_uris": {"ios": "https://dc.lft.to/lastmile_qr_scan", "android": "https://dc.lft.to/lastmile_qr_scan"}, "is_reserved": 0}, {"lon": -77.027108, "bike_id": "b4c374bb2cbe3815f064147a70809b7e", "lat": 38.91667283333334, "fusion_lon": 0.0, "fusion_lat": 0.0, "type": "electric_scooter", "name": "b4c374bb2cbe3815f064147a70809b7e", "is_disabled": 0, "rental_uris": {"ios": "https://dc.lft.to/lastmile_qr_scan", "android": "https://dc.lft.to/lastmile_qr_scan"}, "is_reserved": 0}, {"lon": -77.00212466666666, "bike_id": "e863dab0146384b75644d1aca87c87a5", "lat": 38.9003045, "fusion_lon": 0.0, "fusion_lat": 0.0, "type": "electric_scooter", "name": "e863dab0146384b75644d1aca87c87a5", "is_disabled": 0, "rental_uris": {"ios": "https://dc.lft.to/lastmile_qr_scan", "android": "https://dc.lft.to/lastmile_qr_scan"}, "is_reserved": 0}, {"lon": -77.07099783333334, "bike_id": "2767fe18b2b3f34c45d437f3e87c4e0b", "lat": 38.9121525, "fusion_lon": 0.0, "fusion_lat": 0.0, "type": "electric_scooter", "name": "2767fe18b2b3f34c45d437f3e87c4e0b", "is_disabled": 0, "rental_uris": {"ios": "https://dc.lft.to/lastmile_qr_scan", "android": "https://dc.lft.to/lastmile_qr_scan"}, "is_reserved": 0}, {"lon": -76.933793, "bike_id": "9c3dea4c97602e9c560e8ac156ebeb00", "lat": 38.9102965, "fusion_lon": 0.0, "fusion_lat": 0.0, "type": "electric_scooter", "name": "9c3dea4c97602e9c560e8ac156ebeb00", "is_disabled": 0, "rental_uris": {"ios": "https://dc.lft.to/lastmile_qr_scan", "android": "https://dc.lft.to/lastmile_qr_scan"}, "is_reserved": 0}, {"lon": -77.026828, "bike_id": "ff3d0df8e96abd47c86f0bc9b8ed8620", "lat": 38.9432835, "fusion_lon": 0.0, "fusion_lat": 0.0, "type": "electric_scooter", "name": "ff3d0df8e96abd47c86f0bc9b8ed8620", "is_disabled": 0, "rental_uris": {"ios": "https://dc.lft.to/lastmile_qr_scan", "android": "https://dc.lft.to/lastmile_qr_scan"}, "is_reserved": 0}, {"lon": -77.03792583333333, "bike_id": "545522d9093615670d782c8fe8736416", "lat": 38.91541433333333, "fusion_lon": 0.0, "fusion_lat": 0.0, "type": "electric_scooter", "name": "545522d9093615670d782c8fe8736416", "is_disabled": 0, "rental_uris": {"ios": "https://dc.lft.to/lastmile_qr_scan", "android": "https://dc.lft.to/lastmile_qr_scan"}, "is_reserved": 0}, {"lon": -77.126709, "bike_id": "72ac4e5f5faeedca17efb0ec0fe4c5c2", "lat": 38.815151, "fusion_lon": 0.0, "fusion_lat": 0.0, "type": "electric_bike", "name": "72ac4e5f5faeedca17efb0ec0fe4c5c2", "is_disabled": 0, "rental_uris": {"ios": "https://dc.lft.to/lastmile_qr_scan", "android": "https://dc.lft.to/lastmile_qr_scan"}, "is_reserved": 0}, {"lon": -76.98187816666666, "bike_id": "445b73606fd1e8d6737d7d73a9c25bda", "lat": 38.9260515, "fusion_lon": 0.0, "fusion_lat": 0.0, "type": "electric_scooter", "name": "445b73606fd1e8d6737d7d73a9c25bda", "is_disabled": 0, "rental_uris": {"ios": "https://dc.lft.to/lastmile_qr_scan", "android": "https://dc.lft.to/lastmile_qr_scan"}, "is_reserved": 0}, {"lon": -77.04129716666667, "bike_id": "d7c24a1a820e444aa3a005f2517803ec", "lat": 38.90533, "fusion_lon": 0.0, "fusion_lat": 0.0, "type": "electric_scooter", "name": "d7c24a1a820e444aa3a005f2517803ec", "is_disabled": 0, "rental_uris": {"ios": "https://dc.lft.to/lastmile_qr_scan", "android": "https://dc.lft.to/lastmile_qr_scan"}, "is_reserved": 0}, {"lon": -76.98564083333333, "bike_id": "e149b1c8a98ffff740df0d0b4e7f8583", "lat": 38.89956333333333, "fusion_lon": 0.0, "fusion_lat": 0.0, "type": "electric_scooter", "name": "e149b1c8a98ffff740df0d0b4e7f8583", "is_disabled": 0, "rental_uris": {"ios": "https://dc.lft.to/lastmile_qr_scan", "android": "https://dc.lft.to/lastmile_qr_scan"}, "is_reserved": 0}, {"lon": -76.93356933333334, "bike_id": "cffbdd1a29187cffcd5ca45d28abce50", "lat": 38.89903966666667, "fusion_lon": 0.0, "fusion_lat": 0.0, "type": "electric_scooter", "name": "cffbdd1a29187cffcd5ca45d28abce50", "is_disabled": 0, "rental_uris": {"ios": "https://dc.lft.to/lastmile_qr_scan", "android": "https://dc.lft.to/lastmile_qr_scan"}, "is_reserved": 0}, {"lon": -76.991094, "bike_id": "a38f47c8df8e0e578789f49e0ed15a6f", "lat": 38.903235333333335, "fusion_lon": 0.0, "fusion_lat": 0.0, "type": "electric_scooter", "name": "a38f47c8df8e0e578789f49e0ed15a6f", "is_disabled": 0, "rental_uris": {"ios": "https://dc.lft.to/lastmile_qr_scan", "android": "https://dc.lft.to/lastmile_qr_scan"}, "is_reserved": 0}, {"lon": -77.00455183333334, "bike_id": "bbb816aedb39fa3ab9885f9418f930d1", "lat": 38.876639833333336, "fusion_lon": 0.0, "fusion_lat": 0.0, "type": "electric_scooter", "name": "bbb816aedb39fa3ab9885f9418f930d1", "is_disabled": 0, "rental_uris": {"ios": "https://dc.lft.to/lastmile_qr_scan", "android": "https://dc.lft.to/lastmile_qr_scan"}, "is_reserved": 0}, {"lon": -77.03229133333333, "bike_id": "14b1fce60641736311093b2ce03d24bb", "lat": 38.90974283333333, "fusion_lon": 0.0, "fusion_lat": 0.0, "type": "electric_scooter", "name": "14b1fce60641736311093b2ce03d24bb", "is_disabled": 0, "rental_uris": {"ios": "https://dc.lft.to/lastmile_qr_scan", "android": "https://dc.lft.to/lastmile_qr_scan"}, "is_reserved": 0}, {"lon": -77.03288433333333, "bike_id": "ea19bcb069ab0e71f7addb578e3eb89f", "lat": 38.930305, "fusion_lon": 0.0, "fusion_lat": 0.0, "type": "electric_scooter", "name": "ea19bcb069ab0e71f7addb578e3eb89f", "is_disabled": 0, "rental_uris": {"ios": "https://dc.lft.to/lastmile_qr_scan", "android": "https://dc.lft.to/lastmile_qr_scan"}, "is_reserved": 0}, {"lon": -77.00068466666667, "bike_id": "5b65cf7fd4b75e9a8c31dfa09537f019", "lat": 38.8868085, "fusion_lon": 0.0, "fusion_lat": 0.0, "type": "electric_scooter", "name": "5b65cf7fd4b75e9a8c31dfa09537f019", "is_disabled": 0, "rental_uris": {"ios": "https://dc.lft.to/lastmile_qr_scan", "android": "https://dc.lft.to/lastmile_qr_scan"}, "is_reserved": 0}, {"lon": -77.050064, "bike_id": "42c441046600e99d3e631178aa2fa014", "lat": 38.892011833333335, "fusion_lon": 0.0, "fusion_lat": 0.0, "type": "electric_scooter", "name": "42c441046600e99d3e631178aa2fa014", "is_disabled": 0, "rental_uris": {"ios": "https://dc.lft.to/lastmile_qr_scan", "android": "https://dc.lft.to/lastmile_qr_scan"}, "is_reserved": 0}, {"lon": -77.05000433333333, "bike_id": "214bfb72a9b190856432f631b0d40b3d", "lat": 38.8919105, "fusion_lon": 0.0, "fusion_lat": 0.0, "type": "electric_scooter", "name": "214bfb72a9b190856432f631b0d40b3d", "is_disabled": 0, "rental_uris": {"ios": "https://dc.lft.to/lastmile_qr_scan", "android": "https://dc.lft.to/lastmile_qr_scan"}, "is_reserved": 0}, {"lon": -77.03662766666666, "bike_id": "a37f68b3fea7c2449686a1281cc8e3be", "lat": 38.93341216666666, "fusion_lon": 0.0, "fusion_lat": 0.0, "type": "electric_scooter", "name": "a37f68b3fea7c2449686a1281cc8e3be", "is_disabled": 0, "rental_uris": {"ios": "https://dc.lft.to/lastmile_qr_scan", "android": "https://dc.lft.to/lastmile_qr_scan"}, "is_reserved": 0}, {"lon": -77.02097883333333, "bike_id": "eab81714e6374a8a87d7e84e4c61b3de", "lat": 38.91126533333333, "fusion_lon": 0.0, "fusion_lat": 0.0, "type": "electric_scooter", "name": "eab81714e6374a8a87d7e84e4c61b3de", "is_disabled": 0, "rental_uris": {"ios": "https://dc.lft.to/lastmile_qr_scan", "android": "https://dc.lft.to/lastmile_qr_scan"}, "is_reserved": 0}, {"lon": -77.00957483333333, "bike_id": "2946ccb0ff5e023a3f1c87022ef962ab", "lat": 38.92136466666667, "fusion_lon": 0.0, "fusion_lat": 0.0, "type": "electric_scooter", "name": "2946ccb0ff5e023a3f1c87022ef962ab", "is_disabled": 0, "rental_uris": {"ios": "https://dc.lft.to/lastmile_qr_scan", "android": "https://dc.lft.to/lastmile_qr_scan"}, "is_reserved": 0}, {"lon": -77.04842333333333, "bike_id": "90bd8793335193b17a0cb3a7fc241ee2", "lat": 38.88964133333333, "fusion_lon": 0.0, "fusion_lat": 0.0, "type": "electric_scooter", "name": "90bd8793335193b17a0cb3a7fc241ee2", "is_disabled": 0, "rental_uris": {"ios": "https://dc.lft.to/lastmile_qr_scan", "android": "https://dc.lft.to/lastmile_qr_scan"}, "is_reserved": 0}, {"lon": -77.03230083333334, "bike_id": "712830ff5c8bedf7ab1e82008d9a342e", "lat": 38.929897, "fusion_lon": 0.0, "fusion_lat": 0.0, "type": "electric_scooter", "name": "712830ff5c8bedf7ab1e82008d9a342e", "is_disabled": 0, "rental_uris": {"ios": "https://dc.lft.to/lastmile_qr_scan", "android": "https://dc.lft.to/lastmile_qr_scan"}, "is_reserved": 0}, {"lon": -76.99919233333334, "bike_id": "5942a1885305ffa4c67e6f907320067f", "lat": 38.8896905, "fusion_lon": 0.0, "fusion_lat": 0.0, "type": "electric_scooter", "name": "5942a1885305ffa4c67e6f907320067f", "is_disabled": 0, "rental_uris": {"ios": "https://dc.lft.to/lastmile_qr_scan", "android": "https://dc.lft.to/lastmile_qr_scan"}, "is_reserved": 0}, {"lon": -77.03142416666667, "bike_id": "0732fb8ee17d66dd4d8c54113ac3da2a", "lat": 38.897471833333334, "fusion_lon": 0.0, "fusion_lat": 0.0, "type": "electric_scooter", "name": "0732fb8ee17d66dd4d8c54113ac3da2a", "is_disabled": 0, "rental_uris": {"ios": "https://dc.lft.to/lastmile_qr_scan", "android": "https://dc.lft.to/lastmile_qr_scan"}, "is_reserved": 0}, {"lon": -77.023352, "bike_id": "ad63a2508cd48c92c46cf807ed11f0b3", "lat": 38.918486, "fusion_lon": 0.0, "fusion_lat": 0.0, "type": "electric_scooter", "name": "ad63a2508cd48c92c46cf807ed11f0b3", "is_disabled": 0, "rental_uris": {"ios": "https://dc.lft.to/lastmile_qr_scan", "android": "https://dc.lft.to/lastmile_qr_scan"}, "is_reserved": 0}, {"lon": -77.033287, "bike_id": "601b41e3386353a61f2572cc21edaa62", "lat": 38.9265105, "fusion_lon": 0.0, "fusion_lat": 0.0, "type": "electric_scooter", "name": "601b41e3386353a61f2572cc21edaa62", "is_disabled": 0, "rental_uris": {"ios": "https://dc.lft.to/lastmile_qr_scan", "android": "https://dc.lft.to/lastmile_qr_scan"}, "is_reserved": 0}, {"lon": -77.038577, "bike_id": "e06036451dbe481d4b3019a6b109b863", "lat": 38.917154333333336, "fusion_lon": 0.0, "fusion_lat": 0.0, "type": "electric_scooter", "name": "e06036451dbe481d4b3019a6b109b863", "is_disabled": 0, "rental_uris": {"ios": "https://dc.lft.to/lastmile_qr_scan", "android": "https://dc.lft.to/lastmile_qr_scan"}, "is_reserved": 0}, {"lon": -76.98108066666667, "bike_id": "2f966621f76dd5c437e7d7c6b9ba2e0d", "lat": 38.8773065, "fusion_lon": 0.0, "fusion_lat": 0.0, "type": "electric_bike", "name": "2f966621f76dd5c437e7d7c6b9ba2e0d", "is_disabled": 0, "rental_uris": {"ios": "https://dc.lft.to/lastmile_qr_scan", "android": "https://dc.lft.to/lastmile_qr_scan"}, "is_reserved": 0}, {"lon": -77.03521483333333, "bike_id": "b9876267f0747898bbf8a6b4b83d9922", "lat": 38.921936, "fusion_lon": 0.0, "fusion_lat": 0.0, "type": "electric_scooter", "name": "b9876267f0747898bbf8a6b4b83d9922", "is_disabled": 0, "rental_uris": {"ios": "https://dc.lft.to/lastmile_qr_scan", "android": "https://dc.lft.to/lastmile_qr_scan"}, "is_reserved": 0}, {"lon": -77.03450666666667, "bike_id": "df869cdd834954c74f0302e1ac29a9c4", "lat": 38.918071166666664, "fusion_lon": 0.0, "fusion_lat": 0.0, "type": "electric_scooter", "name": "df869cdd834954c74f0302e1ac29a9c4", "is_disabled": 0, "rental_uris": {"ios": "https://dc.lft.to/lastmile_qr_scan", "android": "https://dc.lft.to/lastmile_qr_scan"}, "is_reserved": 0}, {"lon": -77.025078, "bike_id": "b3a0402c93a171998047b26754645ed1", "lat": 38.926451, "fusion_lon": 0.0, "fusion_lat": 0.0, "type": "electric_scooter", "name": "b3a0402c93a171998047b26754645ed1", "is_disabled": 0, "rental_uris": {"ios": "https://dc.lft.to/lastmile_qr_scan", "android": "https://dc.lft.to/lastmile_qr_scan"}, "is_reserved": 0}, {"lon": -77.09960933333333, "bike_id": "c9fda7a1daf794297653a85235a094de", "lat": 38.8578825, "fusion_lon": 0.0, "fusion_lat": 0.0, "type": "electric_bike", "name": "c9fda7a1daf794297653a85235a094de", "is_disabled": 0, "rental_uris": {"ios": "https://dc.lft.to/lastmile_qr_scan", "android": "https://dc.lft.to/lastmile_qr_scan"}, "is_reserved": 0}, {"lon": -77.04481133333333, "bike_id": "8542d74c65921ed0d9668d1b0f2a427a", "lat": 38.90862716666667, "fusion_lon": 0.0, "fusion_lat": 0.0, "type": "electric_scooter", "name": "8542d74c65921ed0d9668d1b0f2a427a", "is_disabled": 0, "rental_uris": {"ios": "https://dc.lft.to/lastmile_qr_scan", "android": "https://dc.lft.to/lastmile_qr_scan"}, "is_reserved": 0}, {"lon": -77.02960833333333, "bike_id": "8318ffdd1b714748110d984656c0f431", "lat": 38.924839666666664, "fusion_lon": 0.0, "fusion_lat": 0.0, "type": "electric_scooter", "name": "8318ffdd1b714748110d984656c0f431", "is_disabled": 0, "rental_uris": {"ios": "https://dc.lft.to/lastmile_qr_scan", "android": "https://dc.lft.to/lastmile_qr_scan"}, "is_reserved": 0}, {"lon": -77.02765083333334, "bike_id": "6632926d8fdc7f844b5fff8953b24bc8", "lat": 38.934597833333335, "fusion_lon": 0.0, "fusion_lat": 0.0, "type": "electric_scooter", "name": "6632926d8fdc7f844b5fff8953b24bc8", "is_disabled": 0, "rental_uris": {"ios": "https://dc.lft.to/lastmile_qr_scan", "android": "https://dc.lft.to/lastmile_qr_scan"}, "is_reserved": 0}, {"lon": -77.03210216666666, "bike_id": "df1ffaefc02693dab2061a7b7101a830", "lat": 38.9042805, "fusion_lon": 0.0, "fusion_lat": 0.0, "type": "electric_scooter", "name": "df1ffaefc02693dab2061a7b7101a830", "is_disabled": 0, "rental_uris": {"ios": "https://dc.lft.to/lastmile_qr_scan", "android": "https://dc.lft.to/lastmile_qr_scan"}, "is_reserved": 0}, {"lon": -77.03909433333334, "bike_id": "3fd11b90b520c3b7eba5aca155c080c3", "lat": 38.92574616666667, "fusion_lon": 0.0, "fusion_lat": 0.0, "type": "electric_scooter", "name": "3fd11b90b520c3b7eba5aca155c080c3", "is_disabled": 0, "rental_uris": {"ios": "https://dc.lft.to/lastmile_qr_scan", "android": "https://dc.lft.to/lastmile_qr_scan"}, "is_reserved": 0}, {"lon": -77.08680783333334, "bike_id": "b9fb2d30dfdb05f8149504f70ef68550", "lat": 38.87395766666667, "fusion_lon": 0.0, "fusion_lat": 0.0, "type": "electric_bike", "name": "b9fb2d30dfdb05f8149504f70ef68550", "is_disabled": 0, "rental_uris": {"ios": "https://dc.lft.to/lastmile_qr_scan", "android": "https://dc.lft.to/lastmile_qr_scan"}, "is_reserved": 0}, {"lon": -76.99105666666667, "bike_id": "f99c0a07ddd168df9747c103545d7fe7", "lat": 38.90316266666667, "fusion_lon": 0.0, "fusion_lat": 0.0, "type": "electric_scooter", "name": "f99c0a07ddd168df9747c103545d7fe7", "is_disabled": 0, "rental_uris": {"ios": "https://dc.lft.to/lastmile_qr_scan", "android": "https://dc.lft.to/lastmile_qr_scan"}, "is_reserved": 0}, {"lon": -77.01763283333334, "bike_id": "8e149a8823f62d535c6c3688d481a3f3", "lat": 38.8772065, "fusion_lon": 0.0, "fusion_lat": 0.0, "type": "electric_scooter", "name": "8e149a8823f62d535c6c3688d481a3f3", "is_disabled": 0, "rental_uris": {"ios": "https://dc.lft.to/lastmile_qr_scan", "android": "https://dc.lft.to/lastmile_qr_scan"}, "is_reserved": 0}, {"lon": -77.00589833333333, "bike_id": "4233ed0928d600ea43e2e64674b9e7a9", "lat": 38.9262415, "fusion_lon": 0.0, "fusion_lat": 0.0, "type": "electric_scooter", "name": "4233ed0928d600ea43e2e64674b9e7a9", "is_disabled": 0, "rental_uris": {"ios": "https://dc.lft.to/lastmile_qr_scan", "android": "https://dc.lft.to/lastmile_qr_scan"}, "is_reserved": 0}, {"lon": -76.9978485, "bike_id": "cb50477193ce8ce716fcb05172098260", "lat": 38.844322166666664, "fusion_lon": 0.0, "fusion_lat": 0.0, "type": "electric_scooter", "name": "cb50477193ce8ce716fcb05172098260", "is_disabled": 0, "rental_uris": {"ios": "https://dc.lft.to/lastmile_qr_scan", "android": "https://dc.lft.to/lastmile_qr_scan"}, "is_reserved": 0}, {"lon": -76.95447816666666, "bike_id": "cbdf2c5a5dbedf768ee4f2a4f6e3a2dc", "lat": 38.88945316666667, "fusion_lon": 0.0, "fusion_lat": 0.0, "type": "electric_scooter", "name": "cbdf2c5a5dbedf768ee4f2a4f6e3a2dc", "is_disabled": 0, "rental_uris": {"ios": "https://dc.lft.to/lastmile_qr_scan", "android": "https://dc.lft.to/lastmile_qr_scan"}, "is_reserved": 0}, {"lon": -77.03926916666667, "bike_id": "661422ac0571e400b84cc7210965430a", "lat": 38.927983833333336, "fusion_lon": 0.0, "fusion_lat": 0.0, "type": "electric_scooter", "name": "661422ac0571e400b84cc7210965430a", "is_disabled": 0, "rental_uris": {"ios": "https://dc.lft.to/lastmile_qr_scan", "android": "https://dc.lft.to/lastmile_qr_scan"}, "is_reserved": 0}, {"lon": -77.06055266666667, "bike_id": "3a0d325352257660a7adde91b7006ab1", "lat": 38.805738166666664, "fusion_lon": 0.0, "fusion_lat": 0.0, "type": "electric_bike", "name": "3a0d325352257660a7adde91b7006ab1", "is_disabled": 0, "rental_uris": {"ios": "https://dc.lft.to/lastmile_qr_scan", "android": "https://dc.lft.to/lastmile_qr_scan"}, "is_reserved": 0}, {"lon": -77.08810733333334, "bike_id": "85d55eb0a99bcb554e8e3d36a621fed8", "lat": 38.911767, "fusion_lon": 0.0, "fusion_lat": 0.0, "type": "electric_bike", "name": "85d55eb0a99bcb554e8e3d36a621fed8", "is_disabled": 0, "rental_uris": {"ios": "https://dc.lft.to/lastmile_qr_scan", "android": "https://dc.lft.to/lastmile_qr_scan"}, "is_reserved": 0}, {"lon": -77.04737016666667, "bike_id": "de94340b257bcd67a419a2b6e3494f9d", "lat": 38.90720316666667, "fusion_lon": 0.0, "fusion_lat": 0.0, "type": "electric_scooter", "name": "de94340b257bcd67a419a2b6e3494f9d", "is_disabled": 0, "rental_uris": {"ios": "https://dc.lft.to/lastmile_qr_scan", "android": "https://dc.lft.to/lastmile_qr_scan"}, "is_reserved": 0}, {"lon": -76.97616533333333, "bike_id": "bc0e9e8ec2810fa5dfb799606eebd1bd", "lat": 38.926547, "fusion_lon": 0.0, "fusion_lat": 0.0, "type": "electric_scooter", "name": "bc0e9e8ec2810fa5dfb799606eebd1bd", "is_disabled": 0, "rental_uris": {"ios": "https://dc.lft.to/lastmile_qr_scan", "android": "https://dc.lft.to/lastmile_qr_scan"}, "is_reserved": 0}, {"lon": -76.977446, "bike_id": "5ace6507f6fa4e39a4e66c96447e6f10", "lat": 38.86504933333333, "fusion_lon": 0.0, "fusion_lat": 0.0, "type": "electric_bike", "name": "5ace6507f6fa4e39a4e66c96447e6f10", "is_disabled": 0, "rental_uris": {"ios": "https://dc.lft.to/lastmile_qr_scan", "android": "https://dc.lft.to/lastmile_qr_scan"}, "is_reserved": 0}, {"lon": -77.012776, "bike_id": "a154c6185648ce745928f0f13831355c", "lat": 38.91561933333333, "fusion_lon": 0.0, "fusion_lat": 0.0, "type": "electric_scooter", "name": "a154c6185648ce745928f0f13831355c", "is_disabled": 0, "rental_uris": {"ios": "https://dc.lft.to/lastmile_qr_scan", "android": "https://dc.lft.to/lastmile_qr_scan"}, "is_reserved": 0}, {"lon": -77.037215, "bike_id": "b57f16c98e958516c7d3e3ffa0f492c6", "lat": 38.9318355, "fusion_lon": 0.0, "fusion_lat": 0.0, "type": "electric_scooter", "name": "b57f16c98e958516c7d3e3ffa0f492c6", "is_disabled": 0, "rental_uris": {"ios": "https://dc.lft.to/lastmile_qr_scan", "android": "https://dc.lft.to/lastmile_qr_scan"}, "is_reserved": 0}, {"lon": -77.03055266666667, "bike_id": "818784274b291b6a16e6750c7f2b2d09", "lat": 38.887656, "fusion_lon": 0.0, "fusion_lat": 0.0, "type": "electric_scooter", "name": "818784274b291b6a16e6750c7f2b2d09", "is_disabled": 0, "rental_uris": {"ios": "https://dc.lft.to/lastmile_qr_scan", "android": "https://dc.lft.to/lastmile_qr_scan"}, "is_reserved": 0}, {"lon": -77.0249275, "bike_id": "e12e23a5ea5d5d158f8bfe5f39c151ec", "lat": 38.91700766666666, "fusion_lon": 0.0, "fusion_lat": 0.0, "type": "electric_scooter", "name": "e12e23a5ea5d5d158f8bfe5f39c151ec", "is_disabled": 0, "rental_uris": {"ios": "https://dc.lft.to/lastmile_qr_scan", "android": "https://dc.lft.to/lastmile_qr_scan"}, "is_reserved": 0}, {"lon": -77.0317315, "bike_id": "1b2b983fac216a06414274929170d6e4", "lat": 38.91420083333333, "fusion_lon": 0.0, "fusion_lat": 0.0, "type": "electric_scooter", "name": "1b2b983fac216a06414274929170d6e4", "is_disabled": 0, "rental_uris": {"ios": "https://dc.lft.to/lastmile_qr_scan", "android": "https://dc.lft.to/lastmile_qr_scan"}, "is_reserved": 0}, {"lon": -76.994729, "bike_id": "2b3b7a9b6acc58d2ae85a5b9808ad462", "lat": 38.86229733333333, "fusion_lon": 0.0, "fusion_lat": 0.0, "type": "electric_scooter", "name": "2b3b7a9b6acc58d2ae85a5b9808ad462", "is_disabled": 0, "rental_uris": {"ios": "https://dc.lft.to/lastmile_qr_scan", "android": "https://dc.lft.to/lastmile_qr_scan"}, "is_reserved": 0}, {"lon": -76.92769616666666, "bike_id": "8d306005b00e118a20aee366326fd2e9", "lat": 38.900901166666664, "fusion_lon": 0.0, "fusion_lat": 0.0, "type": "electric_scooter", "name": "8d306005b00e118a20aee366326fd2e9", "is_disabled": 0, "rental_uris": {"ios": "https://dc.lft.to/lastmile_qr_scan", "android": "https://dc.lft.to/lastmile_qr_scan"}, "is_reserved": 0}, {"lon": -77.00208966666666, "bike_id": "1f861a66677b140f86c9bb8bf637e15e", "lat": 38.900355833333336, "fusion_lon": 0.0, "fusion_lat": 0.0, "type": "electric_scooter", "name": "1f861a66677b140f86c9bb8bf637e15e", "is_disabled": 0, "rental_uris": {"ios": "https://dc.lft.to/lastmile_qr_scan", "android": "https://dc.lft.to/lastmile_qr_scan"}, "is_reserved": 0}, {"lon": -77.00208833333333, "bike_id": "f803b84b3c517f6d2b5257b7156eec22", "lat": 38.98849333333333, "fusion_lon": 0.0, "fusion_lat": 0.0, "type": "electric_bike", "name": "f803b84b3c517f6d2b5257b7156eec22", "is_disabled": 0, "rental_uris": {"ios": "https://dc.lft.to/lastmile_qr_scan", "android": "https://dc.lft.to/lastmile_qr_scan"}, "is_reserved": 0}, {"lon": -76.92770366666667, "bike_id": "5b5676575cf9906ce339e08e8a3755e0", "lat": 38.9692605, "fusion_lon": 0.0, "fusion_lat": 0.0, "type": "electric_bike", "name": "5b5676575cf9906ce339e08e8a3755e0", "is_disabled": 0, "rental_uris": {"ios": "https://dc.lft.to/lastmile_qr_scan", "android": "https://dc.lft.to/lastmile_qr_scan"}, "is_reserved": 0}, {"lon": -76.98717583333334, "bike_id": "8e4c0fdf74f69b5be77a892309f48159", "lat": 38.86628916666667, "fusion_lon": 0.0, "fusion_lat": 0.0, "type": "electric_scooter", "name": "8e4c0fdf74f69b5be77a892309f48159", "is_disabled": 0, "rental_uris": {"ios": "https://dc.lft.to/lastmile_qr_scan", "android": "https://dc.lft.to/lastmile_qr_scan"}, "is_reserved": 0}, {"lon": -76.98882616666667, "bike_id": "587a48ba86b551f28a0ec3e57d5de5a7", "lat": 38.86659066666667, "fusion_lon": 0.0, "fusion_lat": 0.0, "type": "electric_scooter", "name": "587a48ba86b551f28a0ec3e57d5de5a7", "is_disabled": 0, "rental_uris": {"ios": "https://dc.lft.to/lastmile_qr_scan", "android": "https://dc.lft.to/lastmile_qr_scan"}, "is_reserved": 0}, {"lon": -77.036641, "bike_id": "c6e88ac404806c63d478d4ccb0972a8c", "lat": 38.9177635, "fusion_lon": 0.0, "fusion_lat": 0.0, "type": "electric_scooter", "name": "c6e88ac404806c63d478d4ccb0972a8c", "is_disabled": 0, "rental_uris": {"ios": "https://dc.lft.to/lastmile_qr_scan", "android": "https://dc.lft.to/lastmile_qr_scan"}, "is_reserved": 0}, {"lon": -77.02511166666666, "bike_id": "fa17f3212ab68c1c36173ed0ad45a41b", "lat": 38.920734333333336, "fusion_lon": 0.0, "fusion_lat": 0.0, "type": "electric_scooter", "name": "fa17f3212ab68c1c36173ed0ad45a41b", "is_disabled": 0, "rental_uris": {"ios": "https://dc.lft.to/lastmile_qr_scan", "android": "https://dc.lft.to/lastmile_qr_scan"}, "is_reserved": 0}, {"lon": -76.97911816666667, "bike_id": "4dc10671b3b3526620bf5d371d7d329b", "lat": 38.863612333333336, "fusion_lon": 0.0, "fusion_lat": 0.0, "type": "electric_scooter", "name": "4dc10671b3b3526620bf5d371d7d329b", "is_disabled": 0, "rental_uris": {"ios": "https://dc.lft.to/lastmile_qr_scan", "android": "https://dc.lft.to/lastmile_qr_scan"}, "is_reserved": 0}, {"lon": -77.02181816666666, "bike_id": "a8673801b41c2a738ecd7fe6ccc71642", "lat": 38.8947645, "fusion_lon": 0.0, "fusion_lat": 0.0, "type": "electric_scooter", "name": "a8673801b41c2a738ecd7fe6ccc71642", "is_disabled": 0, "rental_uris": {"ios": "https://dc.lft.to/lastmile_qr_scan", "android": "https://dc.lft.to/lastmile_qr_scan"}, "is_reserved": 0}, {"lon": -76.99156283333333, "bike_id": "7e72533cc26fd94ba5f4f8d96879370c", "lat": 38.90038966666667, "fusion_lon": 0.0, "fusion_lat": 0.0, "type": "electric_scooter", "name": "7e72533cc26fd94ba5f4f8d96879370c", "is_disabled": 0, "rental_uris": {"ios": "https://dc.lft.to/lastmile_qr_scan", "android": "https://dc.lft.to/lastmile_qr_scan"}, "is_reserved": 0}, {"lon": -77.025922, "bike_id": "7f15f2eb70d20e00f916c573f7080d95", "lat": 38.914097166666664, "fusion_lon": 0.0, "fusion_lat": 0.0, "type": "electric_scooter", "name": "7f15f2eb70d20e00f916c573f7080d95", "is_disabled": 0, "rental_uris": {"ios": "https://dc.lft.to/lastmile_qr_scan", "android": "https://dc.lft.to/lastmile_qr_scan"}, "is_reserved": 0}, {"lon": -77.0250965, "bike_id": "486c1394e155fa210b336eab329c6d33", "lat": 38.920558666666665, "fusion_lon": 0.0, "fusion_lat": 0.0, "type": "electric_scooter", "name": "486c1394e155fa210b336eab329c6d33", "is_disabled": 0, "rental_uris": {"ios": "https://dc.lft.to/lastmile_qr_scan", "android": "https://dc.lft.to/lastmile_qr_scan"}, "is_reserved": 0}, {"lon": -77.046664, "bike_id": "12681d82b594da27ac2c4f99360c1718", "lat": 38.90024583333334, "fusion_lon": 0.0, "fusion_lat": 0.0, "type": "electric_scooter", "name": "12681d82b594da27ac2c4f99360c1718", "is_disabled": 0, "rental_uris": {"ios": "https://dc.lft.to/lastmile_qr_scan", "android": "https://dc.lft.to/lastmile_qr_scan"}, "is_reserved": 0}, {"lon": -77.02010766666666, "bike_id": "ce69f61eb9686dd55f75b84958a5618c", "lat": 38.8767275, "fusion_lon": 0.0, "fusion_lat": 0.0, "type": "electric_scooter", "name": "ce69f61eb9686dd55f75b84958a5618c", "is_disabled": 0, "rental_uris": {"ios": "https://dc.lft.to/lastmile_qr_scan", "android": "https://dc.lft.to/lastmile_qr_scan"}, "is_reserved": 0}, {"lon": -77.03722333333333, "bike_id": "b1c85dd1f5121313a7260f3815e5c386", "lat": 38.91478983333333, "fusion_lon": 0.0, "fusion_lat": 0.0, "type": "electric_scooter", "name": "b1c85dd1f5121313a7260f3815e5c386", "is_disabled": 0, "rental_uris": {"ios": "https://dc.lft.to/lastmile_qr_scan", "android": "https://dc.lft.to/lastmile_qr_scan"}, "is_reserved": 0}, {"lon": -77.0270865, "bike_id": "ce248c5522766eb791463769fc91a77d", "lat": 38.906714666666666, "fusion_lon": 0.0, "fusion_lat": 0.0, "type": "electric_scooter", "name": "ce248c5522766eb791463769fc91a77d", "is_disabled": 0, "rental_uris": {"ios": "https://dc.lft.to/lastmile_qr_scan", "android": "https://dc.lft.to/lastmile_qr_scan"}, "is_reserved": 0}, {"lon": -77.0325145, "bike_id": "a8df4f4f80fad633b8232c1d34e84bf6", "lat": 38.93254066666667, "fusion_lon": 0.0, "fusion_lat": 0.0, "type": "electric_scooter", "name": "a8df4f4f80fad633b8232c1d34e84bf6", "is_disabled": 0, "rental_uris": {"ios": "https://dc.lft.to/lastmile_qr_scan", "android": "https://dc.lft.to/lastmile_qr_scan"}, "is_reserved": 0}, {"lon": -76.99003033333334, "bike_id": "faadeff7fdb2225cb7b38dc0d4749191", "lat": 38.86506816666667, "fusion_lon": 0.0, "fusion_lat": 0.0, "type": "electric_scooter", "name": "faadeff7fdb2225cb7b38dc0d4749191", "is_disabled": 0, "rental_uris": {"ios": "https://dc.lft.to/lastmile_qr_scan", "android": "https://dc.lft.to/lastmile_qr_scan"}, "is_reserved": 0}, {"lon": -77.0370195, "bike_id": "581e8c8aed15af22b320ffebed7503a2", "lat": 38.935286833333336, "fusion_lon": 0.0, "fusion_lat": 0.0, "type": "electric_scooter", "name": "581e8c8aed15af22b320ffebed7503a2", "is_disabled": 0, "rental_uris": {"ios": "https://dc.lft.to/lastmile_qr_scan", "android": "https://dc.lft.to/lastmile_qr_scan"}, "is_reserved": 0}, {"lon": -76.99373716666666, "bike_id": "6a455bba2b207e7e97515caed8de70eb", "lat": 38.879739666666666, "fusion_lon": 0.0, "fusion_lat": 0.0, "type": "electric_scooter", "name": "6a455bba2b207e7e97515caed8de70eb", "is_disabled": 0, "rental_uris": {"ios": "https://dc.lft.to/lastmile_qr_scan", "android": "https://dc.lft.to/lastmile_qr_scan"}, "is_reserved": 0}, {"lon": -76.98908066666667, "bike_id": "fe77f377901ab76ff12f1b512b53aa5c", "lat": 38.86668133333333, "fusion_lon": 0.0, "fusion_lat": 0.0, "type": "electric_scooter", "name": "fe77f377901ab76ff12f1b512b53aa5c", "is_disabled": 0, "rental_uris": {"ios": "https://dc.lft.to/lastmile_qr_scan", "android": "https://dc.lft.to/lastmile_qr_scan"}, "is_reserved": 0}, {"lon": -77.03117033333334, "bike_id": "55cd3a67ab9464e11e5c37adf753c5a6", "lat": 38.92386783333333, "fusion_lon": 0.0, "fusion_lat": 0.0, "type": "electric_scooter", "name": "55cd3a67ab9464e11e5c37adf753c5a6", "is_disabled": 0, "rental_uris": {"ios": "https://dc.lft.to/lastmile_qr_scan", "android": "https://dc.lft.to/lastmile_qr_scan"}, "is_reserved": 0}, {"lon": -76.99820866666667, "bike_id": "78734c0e94ae4661413660b3eb84789d", "lat": 38.90019183333333, "fusion_lon": 0.0, "fusion_lat": 0.0, "type": "electric_scooter", "name": "78734c0e94ae4661413660b3eb84789d", "is_disabled": 0, "rental_uris": {"ios": "https://dc.lft.to/lastmile_qr_scan", "android": "https://dc.lft.to/lastmile_qr_scan"}, "is_reserved": 0}, {"lon": -77.02928083333333, "bike_id": "b80eebde798ff5c30ab00c60d820efb6", "lat": 38.91700066666667, "fusion_lon": 0.0, "fusion_lat": 0.0, "type": "electric_bike", "name": "b80eebde798ff5c30ab00c60d820efb6", "is_disabled": 0, "rental_uris": {"ios": "https://dc.lft.to/lastmile_qr_scan", "android": "https://dc.lft.to/lastmile_qr_scan"}, "is_reserved": 0}, {"lon": -77.02760366666666, "bike_id": "184d73c7a114b7c886ab819f235a55ed", "lat": 38.89754716666667, "fusion_lon": 0.0, "fusion_lat": 0.0, "type": "electric_scooter", "name": "184d73c7a114b7c886ab819f235a55ed", "is_disabled": 0, "rental_uris": {"ios": "https://dc.lft.to/lastmile_qr_scan", "android": "https://dc.lft.to/lastmile_qr_scan"}, "is_reserved": 0}, {"lon": -77.0396785, "bike_id": "35f34836e543a1decac65021bd26474e", "lat": 38.89224733333333, "fusion_lon": 0.0, "fusion_lat": 0.0, "type": "electric_scooter", "name": "35f34836e543a1decac65021bd26474e", "is_disabled": 0, "rental_uris": {"ios": "https://dc.lft.to/lastmile_qr_scan", "android": "https://dc.lft.to/lastmile_qr_scan"}, "is_reserved": 0}, {"lon": -77.02142016666667, "bike_id": "367123a34bb45f4f89e7f3d741ff4f52", "lat": 38.89989966666667, "fusion_lon": 0.0, "fusion_lat": 0.0, "type": "electric_scooter", "name": "367123a34bb45f4f89e7f3d741ff4f52", "is_disabled": 0, "rental_uris": {"ios": "https://dc.lft.to/lastmile_qr_scan", "android": "https://dc.lft.to/lastmile_qr_scan"}, "is_reserved": 0}, {"lon": -77.01889183333333, "bike_id": "f064c01aab977389f149bbe84c429322", "lat": 38.9032155, "fusion_lon": 0.0, "fusion_lat": 0.0, "type": "electric_scooter", "name": "f064c01aab977389f149bbe84c429322", "is_disabled": 0, "rental_uris": {"ios": "https://dc.lft.to/lastmile_qr_scan", "android": "https://dc.lft.to/lastmile_qr_scan"}, "is_reserved": 0}, {"lon": -77.022128, "bike_id": "13bad41615d206b645948304ba6e8c00", "lat": 38.878969, "fusion_lon": 0.0, "fusion_lat": 0.0, "type": "electric_scooter", "name": "13bad41615d206b645948304ba6e8c00", "is_disabled": 0, "rental_uris": {"ios": "https://dc.lft.to/lastmile_qr_scan", "android": "https://dc.lft.to/lastmile_qr_scan"}, "is_reserved": 0}, {"lon": -77.03744066666667, "bike_id": "618b08fce407c87e0b98af8723eaf726", "lat": 38.918116166666664, "fusion_lon": 0.0, "fusion_lat": 0.0, "type": "electric_scooter", "name": "618b08fce407c87e0b98af8723eaf726", "is_disabled": 0, "rental_uris": {"ios": "https://dc.lft.to/lastmile_qr_scan", "android": "https://dc.lft.to/lastmile_qr_scan"}, "is_reserved": 0}, {"lon": -77.00573483333334, "bike_id": "cf20d9b26ed0126868190c526b8d7413", "lat": 38.90560083333333, "fusion_lon": 0.0, "fusion_lat": 0.0, "type": "electric_scooter", "name": "cf20d9b26ed0126868190c526b8d7413", "is_disabled": 0, "rental_uris": {"ios": "https://dc.lft.to/lastmile_qr_scan", "android": "https://dc.lft.to/lastmile_qr_scan"}, "is_reserved": 0}, {"lon": -77.043364, "bike_id": "232de8c51cc219400bcf1f3fb0373b12", "lat": 38.892214833333334, "fusion_lon": 0.0, "fusion_lat": 0.0, "type": "electric_scooter", "name": "232de8c51cc219400bcf1f3fb0373b12", "is_disabled": 0, "rental_uris": {"ios": "https://dc.lft.to/lastmile_qr_scan", "android": "https://dc.lft.to/lastmile_qr_scan"}, "is_reserved": 0}, {"lon": -77.019896, "bike_id": "4b381c5dd5d1b602585d4d6cdb096bd6", "lat": 38.88379783333333, "fusion_lon": 0.0, "fusion_lat": 0.0, "type": "electric_scooter", "name": "4b381c5dd5d1b602585d4d6cdb096bd6", "is_disabled": 0, "rental_uris": {"ios": "https://dc.lft.to/lastmile_qr_scan", "android": "https://dc.lft.to/lastmile_qr_scan"}, "is_reserved": 0}, {"lon": -76.98598766666667, "bike_id": "0be6051cd989c3a21a1698fcf2eef25a", "lat": 38.86688616666667, "fusion_lon": 0.0, "fusion_lat": 0.0, "type": "electric_scooter", "name": "0be6051cd989c3a21a1698fcf2eef25a", "is_disabled": 0, "rental_uris": {"ios": "https://dc.lft.to/lastmile_qr_scan", "android": "https://dc.lft.to/lastmile_qr_scan"}, "is_reserved": 0}, {"lon": -77.115774, "bike_id": "c7292e5ce5de9f1826c8cfaebdf40378", "lat": 38.993444833333335, "fusion_lon": 0.0, "fusion_lat": 0.0, "type": "electric_bike", "name": "c7292e5ce5de9f1826c8cfaebdf40378", "is_disabled": 0, "rental_uris": {"ios": "https://dc.lft.to/lastmile_qr_scan", "android": "https://dc.lft.to/lastmile_qr_scan"}, "is_reserved": 0}, {"lon": -77.03389733333333, "bike_id": "0940a9d8f815116a06b2ecc88115a6d3", "lat": 38.9216185, "fusion_lon": 0.0, "fusion_lat": 0.0, "type": "electric_scooter", "name": "0940a9d8f815116a06b2ecc88115a6d3", "is_disabled": 0, "rental_uris": {"ios": "https://dc.lft.to/lastmile_qr_scan", "android": "https://dc.lft.to/lastmile_qr_scan"}, "is_reserved": 0}, {"lon": -77.0096765, "bike_id": "b3ca653f64c6fafbd043c0c41faa4449", "lat": 38.95357, "fusion_lon": 0.0, "fusion_lat": 0.0, "type": "electric_bike", "name": "b3ca653f64c6fafbd043c0c41faa4449", "is_disabled": 0, "rental_uris": {"ios": "https://dc.lft.to/lastmile_qr_scan", "android": "https://dc.lft.to/lastmile_qr_scan"}, "is_reserved": 0}, {"lon": -77.02726033333333, "bike_id": "d8b96cb75f991c5b3b891b3ea5653fe9", "lat": 38.9513375, "fusion_lon": 0.0, "fusion_lat": 0.0, "type": "electric_scooter", "name": "d8b96cb75f991c5b3b891b3ea5653fe9", "is_disabled": 0, "rental_uris": {"ios": "https://dc.lft.to/lastmile_qr_scan", "android": "https://dc.lft.to/lastmile_qr_scan"}, "is_reserved": 0}, {"lon": -77.0478845, "bike_id": "78b3b01ca7555d592634a78ffaa993b2", "lat": 38.82952233333334, "fusion_lon": 0.0, "fusion_lat": 0.0, "type": "electric_bike", "name": "78b3b01ca7555d592634a78ffaa993b2", "is_disabled": 0, "rental_uris": {"ios": "https://dc.lft.to/lastmile_qr_scan", "android": "https://dc.lft.to/lastmile_qr_scan"}, "is_reserved": 0}, {"lon": -77.07403483333333, "bike_id": "5f82db21892f9a4d3ab41ad7976aa1b0", "lat": 38.962145166666666, "fusion_lon": 0.0, "fusion_lat": 0.0, "type": "electric_scooter", "name": "5f82db21892f9a4d3ab41ad7976aa1b0", "is_disabled": 0, "rental_uris": {"ios": "https://dc.lft.to/lastmile_qr_scan", "android": "https://dc.lft.to/lastmile_qr_scan"}, "is_reserved": 0}, {"lon": -77.02556566666667, "bike_id": "c156351880c091a7329f4420fcf3ac63", "lat": 38.909557, "fusion_lon": 0.0, "fusion_lat": 0.0, "type": "electric_scooter", "name": "c156351880c091a7329f4420fcf3ac63", "is_disabled": 0, "rental_uris": {"ios": "https://dc.lft.to/lastmile_qr_scan", "android": "https://dc.lft.to/lastmile_qr_scan"}, "is_reserved": 0}, {"lon": -77.02975533333333, "bike_id": "a5775288b3f0948ce927e7e3d20a004c", "lat": 38.92320616666667, "fusion_lon": 0.0, "fusion_lat": 0.0, "type": "electric_scooter", "name": "a5775288b3f0948ce927e7e3d20a004c", "is_disabled": 0, "rental_uris": {"ios": "https://dc.lft.to/lastmile_qr_scan", "android": "https://dc.lft.to/lastmile_qr_scan"}, "is_reserved": 0}, {"lon": -76.98527416666667, "bike_id": "3021fe6b229110b26fe3201dbacd0216", "lat": 38.866876166666664, "fusion_lon": 0.0, "fusion_lat": 0.0, "type": "electric_scooter", "name": "3021fe6b229110b26fe3201dbacd0216", "is_disabled": 0, "rental_uris": {"ios": "https://dc.lft.to/lastmile_qr_scan", "android": "https://dc.lft.to/lastmile_qr_scan"}, "is_reserved": 0}, {"lon": -77.04327666666667, "bike_id": "c34e18a37f358c86882cf6fa9163860c", "lat": 38.90709616666667, "fusion_lon": 0.0, "fusion_lat": 0.0, "type": "electric_scooter", "name": "c34e18a37f358c86882cf6fa9163860c", "is_disabled": 0, "rental_uris": {"ios": "https://dc.lft.to/lastmile_qr_scan", "android": "https://dc.lft.to/lastmile_qr_scan"}, "is_reserved": 0}, {"lon": -77.019419, "bike_id": "44fe9d1eb7c0881436874d708ee7bd84", "lat": 38.93528583333333, "fusion_lon": 0.0, "fusion_lat": 0.0, "type": "electric_scooter", "name": "44fe9d1eb7c0881436874d708ee7bd84", "is_disabled": 0, "rental_uris": {"ios": "https://dc.lft.to/lastmile_qr_scan", "android": "https://dc.lft.to/lastmile_qr_scan"}, "is_reserved": 0}, {"lon": -77.00645883333334, "bike_id": "f514466a46825c6369fef8de558d4e46", "lat": 38.926203666666666, "fusion_lon": 0.0, "fusion_lat": 0.0, "type": "electric_scooter", "name": "f514466a46825c6369fef8de558d4e46", "is_disabled": 0, "rental_uris": {"ios": "https://dc.lft.to/lastmile_qr_scan", "android": "https://dc.lft.to/lastmile_qr_scan"}, "is_reserved": 0}, {"lon": -76.99534533333333, "bike_id": "2d9ad5a3cbe98b8ca207077e82c325c1", "lat": 38.88376983333333, "fusion_lon": 0.0, "fusion_lat": 0.0, "type": "electric_scooter", "name": "2d9ad5a3cbe98b8ca207077e82c325c1", "is_disabled": 0, "rental_uris": {"ios": "https://dc.lft.to/lastmile_qr_scan", "android": "https://dc.lft.to/lastmile_qr_scan"}, "is_reserved": 0}, {"lon": -76.99084116666667, "bike_id": "2b700edee785ef1336dc4bdc9dcacecc", "lat": 38.862401166666665, "fusion_lon": 0.0, "fusion_lat": 0.0, "type": "electric_bike", "name": "2b700edee785ef1336dc4bdc9dcacecc", "is_disabled": 0, "rental_uris": {"ios": "https://dc.lft.to/lastmile_qr_scan", "android": "https://dc.lft.to/lastmile_qr_scan"}, "is_reserved": 0}, {"lon": -76.97360483333334, "bike_id": "30a5a8118a593195bb2c83c644715cb6", "lat": 38.87336083333334, "fusion_lon": 0.0, "fusion_lat": 0.0, "type": "electric_scooter", "name": "30a5a8118a593195bb2c83c644715cb6", "is_disabled": 0, "rental_uris": {"ios": "https://dc.lft.to/lastmile_qr_scan", "android": "https://dc.lft.to/lastmile_qr_scan"}, "is_reserved": 0}, {"lon": -77.01765116666667, "bike_id": "7ddff9db6b7f93647a718debde1df6ff", "lat": 38.88730483333333, "fusion_lon": 0.0, "fusion_lat": 0.0, "type": "electric_scooter", "name": "7ddff9db6b7f93647a718debde1df6ff", "is_disabled": 0, "rental_uris": {"ios": "https://dc.lft.to/lastmile_qr_scan", "android": "https://dc.lft.to/lastmile_qr_scan"}, "is_reserved": 0}, {"lon": -77.02801483333333, "bike_id": "1306405c056b8eb7255587eed41adf1d", "lat": 38.93058383333333, "fusion_lon": 0.0, "fusion_lat": 0.0, "type": "electric_scooter", "name": "1306405c056b8eb7255587eed41adf1d", "is_disabled": 0, "rental_uris": {"ios": "https://dc.lft.to/lastmile_qr_scan", "android": "https://dc.lft.to/lastmile_qr_scan"}, "is_reserved": 0}, {"lon": -77.022245, "bike_id": "12cfa6456e3df129e62cb1b498636735", "lat": 38.95691216666667, "fusion_lon": 0.0, "fusion_lat": 0.0, "type": "electric_bike", "name": "12cfa6456e3df129e62cb1b498636735", "is_disabled": 0, "rental_uris": {"ios": "https://dc.lft.to/lastmile_qr_scan", "android": "https://dc.lft.to/lastmile_qr_scan"}, "is_reserved": 0}, {"lon": -77.08070216666667, "bike_id": "f27ad0c615e3c0a594a8040ffbc5abc7", "lat": 39.05279433333333, "fusion_lon": 0.0, "fusion_lat": 0.0, "type": "electric_bike", "name": "f27ad0c615e3c0a594a8040ffbc5abc7", "is_disabled": 0, "rental_uris": {"ios": "https://dc.lft.to/lastmile_qr_scan", "android": "https://dc.lft.to/lastmile_qr_scan"}, "is_reserved": 0}, {"lon": -77.06523033333333, "bike_id": "539648d526439bd4dcac19699934d801", "lat": 38.90402, "fusion_lon": 0.0, "fusion_lat": 0.0, "type": "electric_scooter", "name": "539648d526439bd4dcac19699934d801", "is_disabled": 0, "rental_uris": {"ios": "https://dc.lft.to/lastmile_qr_scan", "android": "https://dc.lft.to/lastmile_qr_scan"}, "is_reserved": 0}, {"lon": -77.02094833333334, "bike_id": "f95b2334fb72146bcc003b3870a8e0fd", "lat": 38.927195833333336, "fusion_lon": 0.0, "fusion_lat": 0.0, "type": "electric_scooter", "name": "f95b2334fb72146bcc003b3870a8e0fd", "is_disabled": 0, "rental_uris": {"ios": "https://dc.lft.to/lastmile_qr_scan", "android": "https://dc.lft.to/lastmile_qr_scan"}, "is_reserved": 0}, {"lon": -76.998381, "bike_id": "ce859078fb938512b06ac4cd4b34d707", "lat": 38.90494433333333, "fusion_lon": 0.0, "fusion_lat": 0.0, "type": "electric_scooter", "name": "ce859078fb938512b06ac4cd4b34d707", "is_disabled": 0, "rental_uris": {"ios": "https://dc.lft.to/lastmile_qr_scan", "android": "https://dc.lft.to/lastmile_qr_scan"}, "is_reserved": 0}, {"lon": -77.03458633333334, "bike_id": "9a60594e51c59d21a6cbd9b442e2e081", "lat": 38.907295166666664, "fusion_lon": 0.0, "fusion_lat": 0.0, "type": "electric_scooter", "name": "9a60594e51c59d21a6cbd9b442e2e081", "is_disabled": 0, "rental_uris": {"ios": "https://dc.lft.to/lastmile_qr_scan", "android": "https://dc.lft.to/lastmile_qr_scan"}, "is_reserved": 0}, {"lon": -77.04772883333334, "bike_id": "b0e4a855c9c0fe4fa23f5318c47b4b19", "lat": 38.91755716666667, "fusion_lon": 0.0, "fusion_lat": 0.0, "type": "electric_scooter", "name": "b0e4a855c9c0fe4fa23f5318c47b4b19", "is_disabled": 0, "rental_uris": {"ios": "https://dc.lft.to/lastmile_qr_scan", "android": "https://dc.lft.to/lastmile_qr_scan"}, "is_reserved": 0}, {"lon": -77.025015, "bike_id": "fcf122442e494a52e74094af91017d71", "lat": 38.920729333333334, "fusion_lon": 0.0, "fusion_lat": 0.0, "type": "electric_scooter", "name": "fcf122442e494a52e74094af91017d71", "is_disabled": 0, "rental_uris": {"ios": "https://dc.lft.to/lastmile_qr_scan", "android": "https://dc.lft.to/lastmile_qr_scan"}, "is_reserved": 0}, {"lon": -77.04610233333334, "bike_id": "6666bfc8aefaebfa0b1716d6c9eaa2d1", "lat": 38.920516666666664, "fusion_lon": 0.0, "fusion_lat": 0.0, "type": "electric_scooter", "name": "6666bfc8aefaebfa0b1716d6c9eaa2d1", "is_disabled": 0, "rental_uris": {"ios": "https://dc.lft.to/lastmile_qr_scan", "android": "https://dc.lft.to/lastmile_qr_scan"}, "is_reserved": 0}, {"lon": -76.97481583333334, "bike_id": "bfba4726861fa108e8302f7adb0e956b", "lat": 38.90360066666667, "fusion_lon": 0.0, "fusion_lat": 0.0, "type": "electric_scooter", "name": "bfba4726861fa108e8302f7adb0e956b", "is_disabled": 0, "rental_uris": {"ios": "https://dc.lft.to/lastmile_qr_scan", "android": "https://dc.lft.to/lastmile_qr_scan"}, "is_reserved": 0}, {"lon": -77.05859433333333, "bike_id": "f23c76efb95b3386115f6503ad098344", "lat": 38.9361195, "fusion_lon": 0.0, "fusion_lat": 0.0, "type": "electric_bike", "name": "f23c76efb95b3386115f6503ad098344", "is_disabled": 0, "rental_uris": {"ios": "https://dc.lft.to/lastmile_qr_scan", "android": "https://dc.lft.to/lastmile_qr_scan"}, "is_reserved": 0}, {"lon": -77.03633816666667, "bike_id": "a4827ac7cd0da82cb6f9b7610a18b207", "lat": 38.9449965, "fusion_lon": 0.0, "fusion_lat": 0.0, "type": "electric_scooter", "name": "a4827ac7cd0da82cb6f9b7610a18b207", "is_disabled": 0, "rental_uris": {"ios": "https://dc.lft.to/lastmile_qr_scan", "android": "https://dc.lft.to/lastmile_qr_scan"}, "is_reserved": 0}, {"lon": -77.04878266666667, "bike_id": "45a7b1be47672228cbfc6ab0a7ce1789", "lat": 38.89274183333333, "fusion_lon": 0.0, "fusion_lat": 0.0, "type": "electric_scooter", "name": "45a7b1be47672228cbfc6ab0a7ce1789", "is_disabled": 0, "rental_uris": {"ios": "https://dc.lft.to/lastmile_qr_scan", "android": "https://dc.lft.to/lastmile_qr_scan"}, "is_reserved": 0}, {"lon": -77.05124516666666, "bike_id": "4e40261b24cf9629967f9f62ebb92f69", "lat": 38.9252385, "fusion_lon": 0.0, "fusion_lat": 0.0, "type": "electric_scooter", "name": "4e40261b24cf9629967f9f62ebb92f69", "is_disabled": 0, "rental_uris": {"ios": "https://dc.lft.to/lastmile_qr_scan", "android": "https://dc.lft.to/lastmile_qr_scan"}, "is_reserved": 0}, {"lon": -77.03303033333333, "bike_id": "49e52b32d990fb38b7a462d1f20fcd13", "lat": 38.929008333333336, "fusion_lon": 0.0, "fusion_lat": 0.0, "type": "electric_scooter", "name": "49e52b32d990fb38b7a462d1f20fcd13", "is_disabled": 0, "rental_uris": {"ios": "https://dc.lft.to/lastmile_qr_scan", "android": "https://dc.lft.to/lastmile_qr_scan"}, "is_reserved": 0}, {"lon": -77.02192316666667, "bike_id": "2aca50cb6afa042a8620fa28ed6b8f43", "lat": 38.899953333333336, "fusion_lon": 0.0, "fusion_lat": 0.0, "type": "electric_scooter", "name": "2aca50cb6afa042a8620fa28ed6b8f43", "is_disabled": 0, "rental_uris": {"ios": "https://dc.lft.to/lastmile_qr_scan", "android": "https://dc.lft.to/lastmile_qr_scan"}, "is_reserved": 0}, {"lon": -77.02326983333333, "bike_id": "8c6ce05f385332ffc1aa0a7c02690450", "lat": 38.92410816666667, "fusion_lon": 0.0, "fusion_lat": 0.0, "type": "electric_scooter", "name": "8c6ce05f385332ffc1aa0a7c02690450", "is_disabled": 0, "rental_uris": {"ios": "https://dc.lft.to/lastmile_qr_scan", "android": "https://dc.lft.to/lastmile_qr_scan"}, "is_reserved": 0}, {"lon": -77.02175083333333, "bike_id": "0b4bb1b270ef2b9d7d432962881f0165", "lat": 38.942972, "fusion_lon": 0.0, "fusion_lat": 0.0, "type": "electric_scooter", "name": "0b4bb1b270ef2b9d7d432962881f0165", "is_disabled": 0, "rental_uris": {"ios": "https://dc.lft.to/lastmile_qr_scan", "android": "https://dc.lft.to/lastmile_qr_scan"}, "is_reserved": 0}, {"lon": -77.04175983333333, "bike_id": "afc5448c8f44111c3dded787d8078f72", "lat": 38.919712833333335, "fusion_lon": 0.0, "fusion_lat": 0.0, "type": "electric_scooter", "name": "afc5448c8f44111c3dded787d8078f72", "is_disabled": 0, "rental_uris": {"ios": "https://dc.lft.to/lastmile_qr_scan", "android": "https://dc.lft.to/lastmile_qr_scan"}, "is_reserved": 0}, {"lon": -76.94037616666667, "bike_id": "1f40d0ecd7891623b28c2f1ee5eff77c", "lat": 38.90820333333333, "fusion_lon": 0.0, "fusion_lat": 0.0, "type": "electric_bike", "name": "1f40d0ecd7891623b28c2f1ee5eff77c", "is_disabled": 0, "rental_uris": {"ios": "https://dc.lft.to/lastmile_qr_scan", "android": "https://dc.lft.to/lastmile_qr_scan"}, "is_reserved": 0}, {"lon": -77.02965416666666, "bike_id": "32904db013dc38127db8c4d5c6d836e7", "lat": 38.916683666666664, "fusion_lon": 0.0, "fusion_lat": 0.0, "type": "electric_scooter", "name": "32904db013dc38127db8c4d5c6d836e7", "is_disabled": 0, "rental_uris": {"ios": "https://dc.lft.to/lastmile_qr_scan", "android": "https://dc.lft.to/lastmile_qr_scan"}, "is_reserved": 0}, {"lon": -77.0367885, "bike_id": "6c2c11f7591e2e90afbe1b53fe49250c", "lat": 38.939343, "fusion_lon": 0.0, "fusion_lat": 0.0, "type": "electric_scooter", "name": "6c2c11f7591e2e90afbe1b53fe49250c", "is_disabled": 0, "rental_uris": {"ios": "https://dc.lft.to/lastmile_qr_scan", "android": "https://dc.lft.to/lastmile_qr_scan"}, "is_reserved": 0}, {"lon": -77.02701516666667, "bike_id": "a4579e319d133527a380f96a8e4a3e42", "lat": 38.906274833333335, "fusion_lon": 0.0, "fusion_lat": 0.0, "type": "electric_scooter", "name": "a4579e319d133527a380f96a8e4a3e42", "is_disabled": 0, "rental_uris": {"ios": "https://dc.lft.to/lastmile_qr_scan", "android": "https://dc.lft.to/lastmile_qr_scan"}, "is_reserved": 0}, {"lon": -76.96524666666667, "bike_id": "a2a17f5dbafae20dfe783d9d5bd18902", "lat": 38.87630333333333, "fusion_lon": 0.0, "fusion_lat": 0.0, "type": "electric_scooter", "name": "a2a17f5dbafae20dfe783d9d5bd18902", "is_disabled": 0, "rental_uris": {"ios": "https://dc.lft.to/lastmile_qr_scan", "android": "https://dc.lft.to/lastmile_qr_scan"}, "is_reserved": 0}, {"lon": -77.0423105, "bike_id": "59f3246f1603a9a25fd10af759932f0b", "lat": 38.921648833333336, "fusion_lon": 0.0, "fusion_lat": 0.0, "type": "electric_scooter", "name": "59f3246f1603a9a25fd10af759932f0b", "is_disabled": 0, "rental_uris": {"ios": "https://dc.lft.to/lastmile_qr_scan", "android": "https://dc.lft.to/lastmile_qr_scan"}, "is_reserved": 0}, {"lon": -77.03526816666667, "bike_id": "09caf5329d847a762caa70f992203336", "lat": 38.927293166666665, "fusion_lon": 0.0, "fusion_lat": 0.0, "type": "electric_scooter", "name": "09caf5329d847a762caa70f992203336", "is_disabled": 0, "rental_uris": {"ios": "https://dc.lft.to/lastmile_qr_scan", "android": "https://dc.lft.to/lastmile_qr_scan"}, "is_reserved": 0}, {"lon": -77.02382116666666, "bike_id": "93c3bcc0ba9b01c7a8beb24d67be4257", "lat": 38.91701966666667, "fusion_lon": 0.0, "fusion_lat": 0.0, "type": "electric_scooter", "name": "93c3bcc0ba9b01c7a8beb24d67be4257", "is_disabled": 0, "rental_uris": {"ios": "https://dc.lft.to/lastmile_qr_scan", "android": "https://dc.lft.to/lastmile_qr_scan"}, "is_reserved": 0}, {"lon": -76.97303516666666, "bike_id": "e87dec0d15ecc53c3ae2dc2d94937523", "lat": 38.916459833333334, "fusion_lon": 0.0, "fusion_lat": 0.0, "type": "electric_bike", "name": "e87dec0d15ecc53c3ae2dc2d94937523", "is_disabled": 0, "rental_uris": {"ios": "https://dc.lft.to/lastmile_qr_scan", "android": "https://dc.lft.to/lastmile_qr_scan"}, "is_reserved": 0}, {"lon": -77.03518983333333, "bike_id": "9e325aa4783e39708928762f72bdbcf1", "lat": 38.91602566666667, "fusion_lon": 0.0, "fusion_lat": 0.0, "type": "electric_scooter", "name": "9e325aa4783e39708928762f72bdbcf1", "is_disabled": 0, "rental_uris": {"ios": "https://dc.lft.to/lastmile_qr_scan", "android": "https://dc.lft.to/lastmile_qr_scan"}, "is_reserved": 0}, {"lon": -76.9950925, "bike_id": "bf9f47ba2f123c44be72ddef95783361", "lat": 38.879212333333335, "fusion_lon": 0.0, "fusion_lat": 0.0, "type": "electric_scooter", "name": "bf9f47ba2f123c44be72ddef95783361", "is_disabled": 0, "rental_uris": {"ios": "https://dc.lft.to/lastmile_qr_scan", "android": "https://dc.lft.to/lastmile_qr_scan"}, "is_reserved": 0}, {"lon": -77.03642266666667, "bike_id": "ed0e3932900fbff94e90d2f3485afbc7", "lat": 38.913158333333335, "fusion_lon": 0.0, "fusion_lat": 0.0, "type": "electric_scooter", "name": "ed0e3932900fbff94e90d2f3485afbc7", "is_disabled": 0, "rental_uris": {"ios": "https://dc.lft.to/lastmile_qr_scan", "android": "https://dc.lft.to/lastmile_qr_scan"}, "is_reserved": 0}, {"lon": -77.04131433333333, "bike_id": "792118a091c1baa31247ee9638543ba7", "lat": 38.92139616666667, "fusion_lon": 0.0, "fusion_lat": 0.0, "type": "electric_scooter", "name": "792118a091c1baa31247ee9638543ba7", "is_disabled": 0, "rental_uris": {"ios": "https://dc.lft.to/lastmile_qr_scan", "android": "https://dc.lft.to/lastmile_qr_scan"}, "is_reserved": 0}, {"lon": -77.017617, "bike_id": "b4152c2b2d7d976bc1884d0d22aa8f59", "lat": 38.902618333333336, "fusion_lon": 0.0, "fusion_lat": 0.0, "type": "electric_scooter", "name": "b4152c2b2d7d976bc1884d0d22aa8f59", "is_disabled": 0, "rental_uris": {"ios": "https://dc.lft.to/lastmile_qr_scan", "android": "https://dc.lft.to/lastmile_qr_scan"}, "is_reserved": 0}, {"lon": -77.032572, "bike_id": "e459b890f086d62737899ee7666f3904", "lat": 38.9427425, "fusion_lon": 0.0, "fusion_lat": 0.0, "type": "electric_scooter", "name": "e459b890f086d62737899ee7666f3904", "is_disabled": 0, "rental_uris": {"ios": "https://dc.lft.to/lastmile_qr_scan", "android": "https://dc.lft.to/lastmile_qr_scan"}, "is_reserved": 0}, {"lon": -77.01809466666667, "bike_id": "23cd5eed85c6dcb78c931452e49829d7", "lat": 38.91473516666667, "fusion_lon": 0.0, "fusion_lat": 0.0, "type": "electric_scooter", "name": "23cd5eed85c6dcb78c931452e49829d7", "is_disabled": 0, "rental_uris": {"ios": "https://dc.lft.to/lastmile_qr_scan", "android": "https://dc.lft.to/lastmile_qr_scan"}, "is_reserved": 0}, {"lon": -77.03416166666666, "bike_id": "adcce3d754008437b9b26fd4cfd6abc2", "lat": 38.90568116666667, "fusion_lon": 0.0, "fusion_lat": 0.0, "type": "electric_scooter", "name": "adcce3d754008437b9b26fd4cfd6abc2", "is_disabled": 0, "rental_uris": {"ios": "https://dc.lft.to/lastmile_qr_scan", "android": "https://dc.lft.to/lastmile_qr_scan"}, "is_reserved": 0}, {"lon": -77.03336883333333, "bike_id": "1a8628f943913697b4e1a7ef17cfbe7e", "lat": 38.939003666666665, "fusion_lon": 0.0, "fusion_lat": 0.0, "type": "electric_scooter", "name": "1a8628f943913697b4e1a7ef17cfbe7e", "is_disabled": 0, "rental_uris": {"ios": "https://dc.lft.to/lastmile_qr_scan", "android": "https://dc.lft.to/lastmile_qr_scan"}, "is_reserved": 0}, {"lon": -77.04212566666666, "bike_id": "ad6ccabf004c7471850474df35d53557", "lat": 38.921273666666664, "fusion_lon": 0.0, "fusion_lat": 0.0, "type": "electric_scooter", "name": "ad6ccabf004c7471850474df35d53557", "is_disabled": 0, "rental_uris": {"ios": "https://dc.lft.to/lastmile_qr_scan", "android": "https://dc.lft.to/lastmile_qr_scan"}, "is_reserved": 0}, {"lon": -77.0130945, "bike_id": "4124a8c35609187baf992980d24b7104", "lat": 38.943302833333334, "fusion_lon": 0.0, "fusion_lat": 0.0, "type": "electric_scooter", "name": "4124a8c35609187baf992980d24b7104", "is_disabled": 0, "rental_uris": {"ios": "https://dc.lft.to/lastmile_qr_scan", "android": "https://dc.lft.to/lastmile_qr_scan"}, "is_reserved": 0}, {"lon": -77.04876466666667, "bike_id": "4e2d2728b7ea37079fbaf21b8e87704e", "lat": 38.892318833333334, "fusion_lon": 0.0, "fusion_lat": 0.0, "type": "electric_scooter", "name": "4e2d2728b7ea37079fbaf21b8e87704e", "is_disabled": 0, "rental_uris": {"ios": "https://dc.lft.to/lastmile_qr_scan", "android": "https://dc.lft.to/lastmile_qr_scan"}, "is_reserved": 0}, {"lon": -77.02027983333333, "bike_id": "f2eea223d1552a7d996a657b8632b509", "lat": 38.915585, "fusion_lon": 0.0, "fusion_lat": 0.0, "type": "electric_scooter", "name": "f2eea223d1552a7d996a657b8632b509", "is_disabled": 0, "rental_uris": {"ios": "https://dc.lft.to/lastmile_qr_scan", "android": "https://dc.lft.to/lastmile_qr_scan"}, "is_reserved": 0}, {"lon": -77.036118, "bike_id": "4ab80b017dc6f5985b2f26c0f050742b", "lat": 38.9368515, "fusion_lon": 0.0, "fusion_lat": 0.0, "type": "electric_scooter", "name": "4ab80b017dc6f5985b2f26c0f050742b", "is_disabled": 0, "rental_uris": {"ios": "https://dc.lft.to/lastmile_qr_scan", "android": "https://dc.lft.to/lastmile_qr_scan"}, "is_reserved": 0}, {"lon": -77.04587, "bike_id": "8ede804c237258ec7b113366fda9704b", "lat": 38.921351333333334, "fusion_lon": 0.0, "fusion_lat": 0.0, "type": "electric_scooter", "name": "8ede804c237258ec7b113366fda9704b", "is_disabled": 0, "rental_uris": {"ios": "https://dc.lft.to/lastmile_qr_scan", "android": "https://dc.lft.to/lastmile_qr_scan"}, "is_reserved": 0}, {"lon": -77.04191783333333, "bike_id": "9fde03eb37633da063b46f14605ee432", "lat": 38.91145983333333, "fusion_lon": 0.0, "fusion_lat": 0.0, "type": "electric_scooter", "name": "9fde03eb37633da063b46f14605ee432", "is_disabled": 0, "rental_uris": {"ios": "https://dc.lft.to/lastmile_qr_scan", "android": "https://dc.lft.to/lastmile_qr_scan"}, "is_reserved": 0}, {"lon": -76.96089883333333, "bike_id": "873e60b2f88881a535523e6b70b763ca", "lat": 38.9186025, "fusion_lon": 0.0, "fusion_lat": 0.0, "type": "electric_bike", "name": "873e60b2f88881a535523e6b70b763ca", "is_disabled": 0, "rental_uris": {"ios": "https://dc.lft.to/lastmile_qr_scan", "android": "https://dc.lft.to/lastmile_qr_scan"}, "is_reserved": 0}, {"lon": -77.01764166666666, "bike_id": "8ec3f0375510a09422338f3ee4f0d21e", "lat": 38.88729766666667, "fusion_lon": 0.0, "fusion_lat": 0.0, "type": "electric_scooter", "name": "8ec3f0375510a09422338f3ee4f0d21e", "is_disabled": 0, "rental_uris": {"ios": "https://dc.lft.to/lastmile_qr_scan", "android": "https://dc.lft.to/lastmile_qr_scan"}, "is_reserved": 0}, {"lon": -77.005769, "bike_id": "ca53c829d4b572bcdbedfa232b708df0", "lat": 38.835884, "fusion_lon": 0.0, "fusion_lat": 0.0, "type": "electric_scooter", "name": "ca53c829d4b572bcdbedfa232b708df0", "is_disabled": 0, "rental_uris": {"ios": "https://dc.lft.to/lastmile_qr_scan", "android": "https://dc.lft.to/lastmile_qr_scan"}, "is_reserved": 0}, {"lon": -77.03381766666666, "bike_id": "671bf8840db8f5eae5df99bca9551736", "lat": 38.921589166666664, "fusion_lon": 0.0, "fusion_lat": 0.0, "type": "electric_scooter", "name": "671bf8840db8f5eae5df99bca9551736", "is_disabled": 0, "rental_uris": {"ios": "https://dc.lft.to/lastmile_qr_scan", "android": "https://dc.lft.to/lastmile_qr_scan"}, "is_reserved": 0}, {"lon": -77.01814533333334, "bike_id": "b94e6b815ee73db5e1ca290e47a7427c", "lat": 38.92222433333333, "fusion_lon": 0.0, "fusion_lat": 0.0, "type": "electric_scooter", "name": "b94e6b815ee73db5e1ca290e47a7427c", "is_disabled": 0, "rental_uris": {"ios": "https://dc.lft.to/lastmile_qr_scan", "android": "https://dc.lft.to/lastmile_qr_scan"}, "is_reserved": 0}, {"lon": -77.00911766666667, "bike_id": "41b06999b7ecc385472747b8643de4ee", "lat": 38.89809, "fusion_lon": 0.0, "fusion_lat": 0.0, "type": "electric_scooter", "name": "41b06999b7ecc385472747b8643de4ee", "is_disabled": 0, "rental_uris": {"ios": "https://dc.lft.to/lastmile_qr_scan", "android": "https://dc.lft.to/lastmile_qr_scan"}, "is_reserved": 0}, {"lon": -77.03448383333334, "bike_id": "6b55431c4d299b65828f3f4b230386fa", "lat": 38.909479, "fusion_lon": 0.0, "fusion_lat": 0.0, "type": "electric_scooter", "name": "6b55431c4d299b65828f3f4b230386fa", "is_disabled": 0, "rental_uris": {"ios": "https://dc.lft.to/lastmile_qr_scan", "android": "https://dc.lft.to/lastmile_qr_scan"}, "is_reserved": 0}, {"lon": -76.993779, "bike_id": "4c543b632fe6706ddae23d375c6b36aa", "lat": 38.97189516666667, "fusion_lon": 0.0, "fusion_lat": 0.0, "type": "electric_bike", "name": "4c543b632fe6706ddae23d375c6b36aa", "is_disabled": 0, "rental_uris": {"ios": "https://dc.lft.to/lastmile_qr_scan", "android": "https://dc.lft.to/lastmile_qr_scan"}, "is_reserved": 0}, {"lon": -77.07230566666667, "bike_id": "edaae9205419e2a7732acd1c37cfdf19", "lat": 38.9681315, "fusion_lon": 0.0, "fusion_lat": 0.0, "type": "electric_bike", "name": "edaae9205419e2a7732acd1c37cfdf19", "is_disabled": 0, "rental_uris": {"ios": "https://dc.lft.to/lastmile_qr_scan", "android": "https://dc.lft.to/lastmile_qr_scan"}, "is_reserved": 0}, {"lon": -77.04170983333333, "bike_id": "a29b1ff0a566a7f868069e8d25afd141", "lat": 38.9139605, "fusion_lon": 0.0, "fusion_lat": 0.0, "type": "electric_scooter", "name": "a29b1ff0a566a7f868069e8d25afd141", "is_disabled": 0, "rental_uris": {"ios": "https://dc.lft.to/lastmile_qr_scan", "android": "https://dc.lft.to/lastmile_qr_scan"}, "is_reserved": 0}, {"lon": -77.03213933333333, "bike_id": "60b7aed6a49087472e8f12b94bb18e59", "lat": 38.91825983333333, "fusion_lon": 0.0, "fusion_lat": 0.0, "type": "electric_scooter", "name": "60b7aed6a49087472e8f12b94bb18e59", "is_disabled": 0, "rental_uris": {"ios": "https://dc.lft.to/lastmile_qr_scan", "android": "https://dc.lft.to/lastmile_qr_scan"}, "is_reserved": 0}, {"lon": -77.02203683333333, "bike_id": "723a4d41f142000c3aa3f4ecbea90f45", "lat": 38.911251, "fusion_lon": 0.0, "fusion_lat": 0.0, "type": "electric_scooter", "name": "723a4d41f142000c3aa3f4ecbea90f45", "is_disabled": 0, "rental_uris": {"ios": "https://dc.lft.to/lastmile_qr_scan", "android": "https://dc.lft.to/lastmile_qr_scan"}, "is_reserved": 0}, {"lon": -77.02365983333334, "bike_id": "cd98ba3c68f35b1aea458bca6dd940b4", "lat": 38.907321833333334, "fusion_lon": 0.0, "fusion_lat": 0.0, "type": "electric_scooter", "name": "cd98ba3c68f35b1aea458bca6dd940b4", "is_disabled": 0, "rental_uris": {"ios": "https://dc.lft.to/lastmile_qr_scan", "android": "https://dc.lft.to/lastmile_qr_scan"}, "is_reserved": 0}, {"lon": -77.03907766666667, "bike_id": "01b4b425f1a1cd70ddce0950de0dc72f", "lat": 38.914222333333335, "fusion_lon": 0.0, "fusion_lat": 0.0, "type": "electric_scooter", "name": "01b4b425f1a1cd70ddce0950de0dc72f", "is_disabled": 0, "rental_uris": {"ios": "https://dc.lft.to/lastmile_qr_scan", "android": "https://dc.lft.to/lastmile_qr_scan"}, "is_reserved": 0}, {"lon": -77.012997, "bike_id": "c03c527d56d60ee40649d957dd8883b3", "lat": 38.91266233333333, "fusion_lon": 0.0, "fusion_lat": 0.0, "type": "electric_scooter", "name": "c03c527d56d60ee40649d957dd8883b3", "is_disabled": 0, "rental_uris": {"ios": "https://dc.lft.to/lastmile_qr_scan", "android": "https://dc.lft.to/lastmile_qr_scan"}, "is_reserved": 0}, {"lon": -77.0242505, "bike_id": "f2ef99b55bc87b2c197e19c3019b4dc6", "lat": 38.91166833333333, "fusion_lon": 0.0, "fusion_lat": 0.0, "type": "electric_scooter", "name": "f2ef99b55bc87b2c197e19c3019b4dc6", "is_disabled": 0, "rental_uris": {"ios": "https://dc.lft.to/lastmile_qr_scan", "android": "https://dc.lft.to/lastmile_qr_scan"}, "is_reserved": 0}, {"lon": -77.0358675, "bike_id": "a6ceecfd51be5b8a110646f458a568a3", "lat": 38.992277666666666, "fusion_lon": 0.0, "fusion_lat": 0.0, "type": "electric_scooter", "name": "a6ceecfd51be5b8a110646f458a568a3", "is_disabled": 0, "rental_uris": {"ios": "https://dc.lft.to/lastmile_qr_scan", "android": "https://dc.lft.to/lastmile_qr_scan"}, "is_reserved": 0}, {"lon": -77.03836816666667, "bike_id": "316bc052c2240694f66ebd6dc3dd8df1", "lat": 38.90407883333334, "fusion_lon": 0.0, "fusion_lat": 0.0, "type": "electric_scooter", "name": "316bc052c2240694f66ebd6dc3dd8df1", "is_disabled": 0, "rental_uris": {"ios": "https://dc.lft.to/lastmile_qr_scan", "android": "https://dc.lft.to/lastmile_qr_scan"}, "is_reserved": 0}, {"lon": -76.9782665, "bike_id": "499d2ed0613cc201086b5f130e215c5c", "lat": 38.8437205, "fusion_lon": 0.0, "fusion_lat": 0.0, "type": "electric_bike", "name": "499d2ed0613cc201086b5f130e215c5c", "is_disabled": 0, "rental_uris": {"ios": "https://dc.lft.to/lastmile_qr_scan", "android": "https://dc.lft.to/lastmile_qr_scan"}, "is_reserved": 0}, {"lon": -77.0833505, "bike_id": "f64bfb25b746af71062030fee9d553af", "lat": 38.85437683333333, "fusion_lon": 0.0, "fusion_lat": 0.0, "type": "electric_bike", "name": "f64bfb25b746af71062030fee9d553af", "is_disabled": 0, "rental_uris": {"ios": "https://dc.lft.to/lastmile_qr_scan", "android": "https://dc.lft.to/lastmile_qr_scan"}, "is_reserved": 0}, {"lon": -77.03187616666666, "bike_id": "66489f82d4c0ec18151153039e018c78", "lat": 38.92982633333333, "fusion_lon": 0.0, "fusion_lat": 0.0, "type": "electric_scooter", "name": "66489f82d4c0ec18151153039e018c78", "is_disabled": 0, "rental_uris": {"ios": "https://dc.lft.to/lastmile_qr_scan", "android": "https://dc.lft.to/lastmile_qr_scan"}, "is_reserved": 0}, {"lon": -77.02513416666666, "bike_id": "065c81e885774d6f2a1b61d72c064ea6", "lat": 38.904341333333335, "fusion_lon": 0.0, "fusion_lat": 0.0, "type": "electric_scooter", "name": "065c81e885774d6f2a1b61d72c064ea6", "is_disabled": 0, "rental_uris": {"ios": "https://dc.lft.to/lastmile_qr_scan", "android": "https://dc.lft.to/lastmile_qr_scan"}, "is_reserved": 0}, {"lon": -77.03212133333334, "bike_id": "e2962eeac9c97c660f8dd29e5b8ca243", "lat": 38.91746, "fusion_lon": 0.0, "fusion_lat": 0.0, "type": "electric_scooter", "name": "e2962eeac9c97c660f8dd29e5b8ca243", "is_disabled": 0, "rental_uris": {"ios": "https://dc.lft.to/lastmile_qr_scan", "android": "https://dc.lft.to/lastmile_qr_scan"}, "is_reserved": 0}, {"lon": -77.01765183333333, "bike_id": "5f49607ff666de26dc2b8dbdfdea5959", "lat": 38.877246166666666, "fusion_lon": 0.0, "fusion_lat": 0.0, "type": "electric_scooter", "name": "5f49607ff666de26dc2b8dbdfdea5959", "is_disabled": 0, "rental_uris": {"ios": "https://dc.lft.to/lastmile_qr_scan", "android": "https://dc.lft.to/lastmile_qr_scan"}, "is_reserved": 0}, {"lon": -77.0408635, "bike_id": "77aa0f95dca2b293b63db0a0fd403fa7", "lat": 38.9171245, "fusion_lon": 0.0, "fusion_lat": 0.0, "type": "electric_scooter", "name": "77aa0f95dca2b293b63db0a0fd403fa7", "is_disabled": 0, "rental_uris": {"ios": "https://dc.lft.to/lastmile_qr_scan", "android": "https://dc.lft.to/lastmile_qr_scan"}, "is_reserved": 0}, {"lon": -77.02658716666667, "bike_id": "794ae0c88876e3f84d7363151b2f6e02", "lat": 38.92611816666667, "fusion_lon": 0.0, "fusion_lat": 0.0, "type": "electric_scooter", "name": "794ae0c88876e3f84d7363151b2f6e02", "is_disabled": 0, "rental_uris": {"ios": "https://dc.lft.to/lastmile_qr_scan", "android": "https://dc.lft.to/lastmile_qr_scan"}, "is_reserved": 0}, {"lon": -77.02174183333334, "bike_id": "1dc08600b483889fe0a67bbdfd57700f", "lat": 38.942979, "fusion_lon": 0.0, "fusion_lat": 0.0, "type": "electric_scooter", "name": "1dc08600b483889fe0a67bbdfd57700f", "is_disabled": 0, "rental_uris": {"ios": "https://dc.lft.to/lastmile_qr_scan", "android": "https://dc.lft.to/lastmile_qr_scan"}, "is_reserved": 0},