{"data": {"bikes": [{"lon": -77.038115, "lat": 38.92063433333333, "name": "42abfa8a37b7cd167ccf6d5a9194a8dd", "fusion_lat": 0.0, "fusion_lon": 0.0, "rental_uris": {"android": "https://dc.lft.to/lastmile_qr_scan", "ios": "https://dc.lft.to/lastmile_qr_scan"}, "is_reserved": 0, "is_disabled": 0, "type": "electric_scooter", "bike_id": "42abfa8a37b7cd167ccf6d5a9194a8dd"}, {"lon": -77.05332833333334, "lat": 38.905076, "name": "eb763191f882a6e373dfe1e36143da5a", "fusion_lat": 0.0, "fusion_lon": 0.0, "rental_uris": {"android": "https://dc.lft.to/lastmile_qr_scan", "ios": "https://dc.lft.to/lastmile_qr_scan"}, "is_reserved": 0, "is_disabled": 0, "type": "electric_scooter", "bike_id": "eb763191f882a6e373dfe1e36143da5a"}, {"lon": -77.0451185, "lat": 38.907912333333336, "name": "97e69ce3876a50be572f4ba06fed3581", "fusion_lat": 0.0, "fusion_lon": 0.0, "rental_uris": {"android": "https://dc.lft.to/lastmile_qr_scan", "ios": "https://dc.lft.to/lastmile_qr_scan"}, "is_reserved": 0, "is_disabled": 0, "type": "electric_scooter", "bike_id": "97e69ce3876a50be572f4ba06fed3581"}, {"lon": -77.02798133333333, "lat": 38.895899, "name": "601e768fbeece960ed8fd3c497e0d165", "fusion_lat": 0.0, "fusion_lon": 0.0, "rental_uris": {"android": "https://dc.lft.to/lastmile_qr_scan", "ios": "https://dc.lft.to/lastmile_qr_scan"}, "is_reserved": 0, "is_disabled": 0, "type": "electric_scooter", "bike_id": "601e768fbeece960ed8fd3c497e0d165"}, {"lon": -77.03321166666667, "lat": 38.898175333333334, "name": "b514f0f88ea9abcca7d7fc18d53e627c", "fusion_lat": 0.0, "fusion_lon": 0.0, "rental_uris": {"android": "https://dc.lft.to/lastmile_qr_scan", "ios": "https://dc.lft.to/lastmile_qr_scan"}, "is_reserved": 0, "is_disabled": 0, "type": "electric_scooter", "bike_id": "b514f0f88ea9abcca7d7fc18d53e627c"}, {"lon": -77.03257716666667, "lat": 38.93066233333333, "name": "e5703cd2ccced4e3c14a78eab1ea824c", "fusion_lat": 0.0, "fusion_lon": 0.0, "rental_uris": {"android": "https://dc.lft.to/lastmile_qr_scan", "ios": "https://dc.lft.to/lastmile_qr_scan"}, "is_reserved": 0, "is_disabled": 0, "type": "electric_scooter", "bike_id": "e5703cd2ccced4e3c14a78eab1ea824c"}, {"lon": -77.012355, "lat": 38.872024, "name": "28f4af05a1aa0f2d4b20214007fcc5f5", "fusion_lat": 0.0, "fusion_lon": 0.0, "rental_uris": {"android": "https://dc.lft.to/lastmile_qr_scan", "ios": "https://dc.lft.to/lastmile_qr_scan"}, "is_reserved": 0, "is_disabled": 0, "type": "electric_scooter", "bike_id": "28f4af05a1aa0f2d4b20214007fcc5f5"}, {"lon": -77.0378895, "lat": 38.9120605, "name": "ca209422a12cff80dee8d1cd0d3f130a", "fusion_lat": 0.0, "fusion_lon": 0.0, "rental_uris": {"android": "https://dc.lft.to/lastmile_qr_scan", "ios": "https://dc.lft.to/lastmile_qr_scan"}, "is_reserved": 0, "is_disabled": 0, "type": "electric_scooter", "bike_id": "ca209422a12cff80dee8d1cd0d3f130a"}, {"lon": -77.02537933333333, "lat": 38.92069466666667, "name": "a067be00dcf89e0835fe219021fd5879", "fusion_lat": 0.0, "fusion_lon": 0.0, "rental_uris": {"android": "https://dc.lft.to/lastmile_qr_scan", "ios": "https://dc.lft.to/lastmile_qr_scan"}, "is_reserved": 0, "is_disabled": 0, "type": "electric_scooter", "bike_id": "a067be00dcf89e0835fe219021fd5879"}, {"lon": -77.04501816666667, "lat": 38.90341466666667, "name": "2bb536d2200e8f42481866bcf35d8858", "fusion_lat": 0.0, "fusion_lon": 0.0, "rental_uris": {"android": "https://dc.lft.to/lastmile_qr_scan", "ios": "https://dc.lft.to/lastmile_qr_scan"}, "is_reserved": 0, "is_disabled": 0, "type": "electric_scooter", "bike_id": "2bb536d2200e8f42481866bcf35d8858"}, {"lon": -77.01933633333333, "lat": 38.94927066666666, "name": "ff0f78726388281ae62fc99966c08a9c", "fusion_lat": 0.0, "fusion_lon": 0.0, "rental_uris": {"android": "https://dc.lft.to/lastmile_qr_scan", "ios": "https://dc.lft.to/lastmile_qr_scan"}, "is_reserved": 0, "is_disabled": 0, "type": "electric_scooter", "bike_id": "ff0f78726388281ae62fc99966c08a9c"}, {"lon": -77.00019066666667, "lat": 38.91980383333333, "name": "25d0e25acb05bd98a02fda4bc4495206", "fusion_lat": 0.0, "fusion_lon": 0.0, "rental_uris": {"android": "https://dc.lft.to/lastmile_qr_scan", "ios": "https://dc.lft.to/lastmile_qr_scan"}, "is_reserved": 0, "is_disabled": 0, "type": "electric_scooter", "bike_id": "25d0e25acb05bd98a02fda4bc4495206"}, {"lon": -76.99948266666667, "lat": 38.842902, "name": "5b3c7e2a991c3aeffb10d20fe2ff3338", "fusion_lat": 0.0, "fusion_lon": 0.0, "rental_uris": {"android": "https://dc.lft.to/lastmile_qr_scan", "ios": "https://dc.lft.to/lastmile_qr_scan"}, "is_reserved": 0, "is_disabled": 0, "type": "electric_scooter", "bike_id": "5b3c7e2a991c3aeffb10d20fe2ff3338"}, {"lon": -77.043759, "lat": 38.925683, "name": "34bf3327530f6eb5af0a93d488643b62", "fusion_lat": 0.0, "fusion_lon": 0.0, "rental_uris": {"android": "https://dc.lft.to/lastmile_qr_scan", "ios": "https://dc.lft.to/lastmile_qr_scan"}, "is_reserved": 0, "is_disabled": 0, "type": "electric_scooter", "bike_id": "34bf3327530f6eb5af0a93d488643b62"}, {"lon": -77.040477, "lat": 38.909470666666664, "name": "1c968dea9f7f87c44c25720c5158055a", "fusion_lat": 0.0, "fusion_lon": 0.0, "rental_uris": {"android": "https://dc.lft.to/lastmile_qr_scan", "ios": "https://dc.lft.to/lastmile_qr_scan"}, "is_reserved": 0, "is_disabled": 0, "type": "electric_scooter", "bike_id": "1c968dea9f7f87c44c25720c5158055a"}, {"lon": -77.04161283333333, "lat": 38.91567966666667, "name": "702e2bb3bee35d1f1bb084467fe3a549", "fusion_lat": 0.0, "fusion_lon": 0.0, "rental_uris": {"android": "https://dc.lft.to/lastmile_qr_scan", "ios": "https://dc.lft.to/lastmile_qr_scan"}, "is_reserved": 0, "is_disabled": 0, "type": "electric_scooter", "bike_id": "702e2bb3bee35d1f1bb084467fe3a549"}, {"lon": -77.0242465, "lat": 38.892196166666665, "name": "08d6f13561b67df2b1fcb40e7cdfacef", "fusion_lat": 0.0, "fusion_lon": 0.0, "rental_uris": {"android": "https://dc.lft.to/lastmile_qr_scan", "ios": "https://dc.lft.to/lastmile_qr_scan"}, "is_reserved": 0, "is_disabled": 0, "type": "electric_scooter", "bike_id": "08d6f13561b67df2b1fcb40e7cdfacef"}, {"lon": -76.99545083333334, "lat": 38.88418516666667, "name": "5cbc5b61fef9e858676dedc966fc2a33", "fusion_lat": 0.0, "fusion_lon": 0.0, "rental_uris": {"android": "https://dc.lft.to/lastmile_qr_scan", "ios": "https://dc.lft.to/lastmile_qr_scan"}, "is_reserved": 0, "is_disabled": 0, "type": "electric_scooter", "bike_id": "5cbc5b61fef9e858676dedc966fc2a33"}, {"lon": -77.023973, "lat": 38.93088316666667, "name": "14e271e3002b4359ea23df4d42db5e0a", "fusion_lat": 0.0, "fusion_lon": 0.0, "rental_uris": {"android": "https://dc.lft.to/lastmile_qr_scan", "ios": "https://dc.lft.to/lastmile_qr_scan"}, "is_reserved": 0, "is_disabled": 0, "type": "electric_scooter", "bike_id": "14e271e3002b4359ea23df4d42db5e0a"}, {"lon": -77.00519483333333, "lat": 38.9288635, "name": "01d2255f6fa18508f631399c637eff03", "fusion_lat": 0.0, "fusion_lon": 0.0, "rental_uris": {"android": "https://dc.lft.to/lastmile_qr_scan", "ios": "https://dc.lft.to/lastmile_qr_scan"}, "is_reserved": 0, "is_disabled": 0, "type": "electric_scooter", "bike_id": "01d2255f6fa18508f631399c637eff03"}, {"lon": -77.0234355, "lat": 38.96204866666667, "name": "57f4228ec734cfcefbf244ac5d029397", "fusion_lat": 0.0, "fusion_lon": 0.0, "rental_uris": {"android": "https://dc.lft.to/lastmile_qr_scan", "ios": "https://dc.lft.to/lastmile_qr_scan"}, "is_reserved": 0, "is_disabled": 0, "type": "electric_scooter", "bike_id": "57f4228ec734cfcefbf244ac5d029397"}, {"lon": -77.008055, "lat": 38.896916, "name": "91333532ba5b8475ab34924c2ba6ab07", "fusion_lat": 0.0, "fusion_lon": 0.0, "rental_uris": {"android": "https://dc.lft.to/lastmile_qr_scan", "ios": "https://dc.lft.to/lastmile_qr_scan"}, "is_reserved": 0, "is_disabled": 0, "type": "electric_scooter", "bike_id": "91333532ba5b8475ab34924c2ba6ab07"}, {"lon": -77.042437, "lat": 38.89726916666667, "name": "a5b1b9f62a3c9551f5ff7ff4b4f08724", "fusion_lat": 0.0, "fusion_lon": 0.0, "rental_uris": {"android": "https://dc.lft.to/lastmile_qr_scan", "ios": "https://dc.lft.to/lastmile_qr_scan"}, "is_reserved": 0, "is_disabled": 0, "type": "electric_scooter", "bike_id": "a5b1b9f62a3c9551f5ff7ff4b4f08724"}, {"lon": -76.98993083333333, "lat": 38.864413166666665, "name": "f27b64ac29f948d511ccee9669a3a558", "fusion_lat": 0.0, "fusion_lon": 0.0, "rental_uris": {"android": "https://dc.lft.to/lastmile_qr_scan", "ios": "https://dc.lft.to/lastmile_qr_scan"}, "is_reserved": 0, "is_disabled": 0, "type": "electric_scooter", "bike_id": "f27b64ac29f948d511ccee9669a3a558"}, {"lon": -76.98560233333333, "lat": 38.899567, "name": "ba9363c2ec33cde0a46e4ad90c70f8cf", "fusion_lat": 0.0, "fusion_lon": 0.0, "rental_uris": {"android": "https://dc.lft.to/lastmile_qr_scan", "ios": "https://dc.lft.to/lastmile_qr_scan"}, "is_reserved": 0, "is_disabled": 0, "type": "electric_scooter", "bike_id": "ba9363c2ec33cde0a46e4ad90c70f8cf"}, {"lon": -76.99491033333334, "lat": 38.883409666666665, "name": "13d7c7e24c9772bd8bf372c1edd24a75", "fusion_lat": 0.0, "fusion_lon": 0.0, "rental_uris": {"android": "https://dc.lft.to/lastmile_qr_scan", "ios": "https://dc.lft.to/lastmile_qr_scan"}, "is_reserved": 0, "is_disabled": 0, "type": "electric_scooter", "bike_id": "13d7c7e24c9772bd8bf372c1edd24a75"}, {"lon": -77.036577, "lat": 38.936093666666665, "name": "a969e50c2344ccce2d8de6e4b7d6ca91", "fusion_lat": 0.0, "fusion_lon": 0.0, "rental_uris": {"android": "https://dc.lft.to/lastmile_qr_scan", "ios": "https://dc.lft.to/lastmile_qr_scan"}, "is_reserved": 0, "is_disabled": 0, "type": "electric_scooter", "bike_id": "a969e50c2344ccce2d8de6e4b7d6ca91"}, {"lon": -77.05725416666667, "lat": 38.93375183333333, "name": "24a52ec7ec9f524d6d29124e5cb004d2", "fusion_lat": 0.0, "fusion_lon": 0.0, "rental_uris": {"android": "https://dc.lft.to/lastmile_qr_scan", "ios": "https://dc.lft.to/lastmile_qr_scan"}, "is_reserved": 0, "is_disabled": 0, "type": "electric_scooter", "bike_id": "24a52ec7ec9f524d6d29124e5cb004d2"}, {"lon": -77.00759233333333, "lat": 38.926741666666665, "name": "f2f8b85b6780d6d617b51b0e08ad046e", "fusion_lat": 0.0, "fusion_lon": 0.0, "rental_uris": {"android": "https://dc.lft.to/lastmile_qr_scan", "ios": "https://dc.lft.to/lastmile_qr_scan"}, "is_reserved": 0, "is_disabled": 0, "type": "electric_scooter", "bike_id": "f2f8b85b6780d6d617b51b0e08ad046e"}, {"lon": -76.996093, "lat": 38.9002385, "name": "a8fe6115bfa6a9bed58d88236c27c5aa", "fusion_lat": 0.0, "fusion_lon": 0.0, "rental_uris": {"android": "https://dc.lft.to/lastmile_qr_scan", "ios": "https://dc.lft.to/lastmile_qr_scan"}, "is_reserved": 0, "is_disabled": 0, "type": "electric_scooter", "bike_id": "a8fe6115bfa6a9bed58d88236c27c5aa"}, {"lon": -77.03855533333333, "lat": 38.93239416666667, "name": "4aa854ebfead2b67d069cf3bde1c1d96", "fusion_lat": 0.0, "fusion_lon": 0.0, "rental_uris": {"android": "https://dc.lft.to/lastmile_qr_scan", "ios": "https://dc.lft.to/lastmile_qr_scan"}, "is_reserved": 0, "is_disabled": 0, "type": "electric_scooter", "bike_id": "4aa854ebfead2b67d069cf3bde1c1d96"}, {"lon": -77.0283345, "lat": 38.8876735, "name": "8ea0148588a97f291c9e3ae14ee35c5d", "fusion_lat": 0.0, "fusion_lon": 0.0, "rental_uris": {"android": "https://dc.lft.to/lastmile_qr_scan", "ios": "https://dc.lft.to/lastmile_qr_scan"}, "is_reserved": 0, "is_disabled": 0, "type": "electric_scooter", "bike_id": "8ea0148588a97f291c9e3ae14ee35c5d"}, {"lon": -77.03157983333334, "lat": 38.89726783333333, "name": "d876b5231145afe4adc26683ddf1949f", "fusion_lat": 0.0, "fusion_lon": 0.0, "rental_uris": {"android": "https://dc.lft.to/lastmile_qr_scan", "ios": "https://dc.lft.to/lastmile_qr_scan"}, "is_reserved": 0, "is_disabled": 0, "type": "electric_scooter", "bike_id": "d876b5231145afe4adc26683ddf1949f"}, {"lon": -77.00199933333333, "lat": 38.902402333333335, "name": "ac2eb1d96730f8f8c4a98341582ced83", "fusion_lat": 0.0, "fusion_lon": 0.0, "rental_uris": {"android": "https://dc.lft.to/lastmile_qr_scan", "ios": "https://dc.lft.to/lastmile_qr_scan"}, "is_reserved": 0, "is_disabled": 0, "type": "electric_scooter", "bike_id": "ac2eb1d96730f8f8c4a98341582ced83"}, {"lon": -77.06260133333333, "lat": 38.9058945, "name": "2240acd64d844d5c4aba581c70201154", "fusion_lat": 0.0, "fusion_lon": 0.0, "rental_uris": {"android": "https://dc.lft.to/lastmile_qr_scan", "ios": "https://dc.lft.to/lastmile_qr_scan"}, "is_reserved": 0, "is_disabled": 0, "type": "electric_scooter", "bike_id": "2240acd64d844d5c4aba581c70201154"}, {"lon": -77.00707216666666, "lat": 38.8769425, "name": "5216e8e92ad7ad6bcf8d1319454da213", "fusion_lat": 0.0, "fusion_lon": 0.0, "rental_uris": {"android": "https://dc.lft.to/lastmile_qr_scan", "ios": "https://dc.lft.to/lastmile_qr_scan"}, "is_reserved": 0, "is_disabled": 0, "type": "electric_scooter", "bike_id": "5216e8e92ad7ad6bcf8d1319454da213"}, {"lon": -77.0340815, "lat": 38.91921766666667, "name": "745bfd1cede899b85b5099b7aaf7a331", "fusion_lat": 0.0, "fusion_lon": 0.0, "rental_uris": {"android": "https://dc.lft.to/lastmile_qr_scan", "ios": "https://dc.lft.to/lastmile_qr_scan"}, "is_reserved": 0, "is_disabled": 0, "type": "electric_scooter", "bike_id": "745bfd1cede899b85b5099b7aaf7a331"}, {"lon": -77.03716066666667, "lat": 38.928598666666666, "name": "153254f68e04a59e333db6d35b879620", "fusion_lat": 0.0, "fusion_lon": 0.0, "rental_uris": {"android": "https://dc.lft.to/lastmile_qr_scan", "ios": "https://dc.lft.to/lastmile_qr_scan"}, "is_reserved": 0, "is_disabled": 0, "type": "electric_scooter", "bike_id": "153254f68e04a59e333db6d35b879620"}, {"lon": -76.999173, "lat": 38.909380166666665, "name": "e5b12dbcd47f16371387a6e8ee506458", "fusion_lat": 0.0, "fusion_lon": 0.0, "rental_uris": {"android": "https://dc.lft.to/lastmile_qr_scan", "ios": "https://dc.lft.to/lastmile_qr_scan"}, "is_reserved": 0, "is_disabled": 0, "type": "electric_scooter", "bike_id": "e5b12dbcd47f16371387a6e8ee506458"}, {"lon": -77.03821416666666, "lat": 38.931352333333336, "name": "a1ab0dcc17e7b437c4bab80d6380b924", "fusion_lat": 0.0, "fusion_lon": 0.0, "rental_uris": {"android": "https://dc.lft.to/lastmile_qr_scan", "ios": "https://dc.lft.to/lastmile_qr_scan"}, "is_reserved": 0, "is_disabled": 0, "type": "electric_scooter", "bike_id": "a1ab0dcc17e7b437c4bab80d6380b924"}, {"lon": -77.13095433333334, "lat": 38.861631833333334, "name": "2434971b3019dfc9641014b71155390b", "fusion_lat": 0.0, "fusion_lon": 0.0, "rental_uris": {"android": "https://dc.lft.to/lastmile_qr_scan", "ios": "https://dc.lft.to/lastmile_qr_scan"}, "is_reserved": 0, "is_disabled": 0, "type": "electric_bike", "bike_id": "2434971b3019dfc9641014b71155390b"}, {"lon": -77.03859833333334, "lat": 38.90389016666666, "name": "7141997bb79b7ec42e63e476df935a7a", "fusion_lat": 0.0, "fusion_lon": 0.0, "rental_uris": {"android": "https://dc.lft.to/lastmile_qr_scan", "ios": "https://dc.lft.to/lastmile_qr_scan"}, "is_reserved": 0, "is_disabled": 0, "type": "electric_scooter", "bike_id": "7141997bb79b7ec42e63e476df935a7a"}, {"lon": -76.9831285, "lat": 38.868915, "name": "ff03bb4b6ff813845b367a00b6733b6e", "fusion_lat": 0.0, "fusion_lon": 0.0, "rental_uris": {"android": "https://dc.lft.to/lastmile_qr_scan", "ios": "https://dc.lft.to/lastmile_qr_scan"}, "is_reserved": 0, "is_disabled": 0, "type": "electric_scooter", "bike_id": "ff03bb4b6ff813845b367a00b6733b6e"}, {"lon": -77.04514883333333, "lat": 38.89219166666667, "name": "9cb2ef52156a1d761ad696161c8a86d2", "fusion_lat": 0.0, "fusion_lon": 0.0, "rental_uris": {"android": "https://dc.lft.to/lastmile_qr_scan", "ios": "https://dc.lft.to/lastmile_qr_scan"}, "is_reserved": 0, "is_disabled": 0, "type": "electric_scooter", "bike_id": "9cb2ef52156a1d761ad696161c8a86d2"}, {"lon": -77.02298883333333, "lat": 38.918336833333335, "name": "079261d41e38fc2eb9c1bb311ffef7e6", "fusion_lat": 0.0, "fusion_lon": 0.0, "rental_uris": {"android": "https://dc.lft.to/lastmile_qr_scan", "ios": "https://dc.lft.to/lastmile_qr_scan"}, "is_reserved": 0, "is_disabled": 0, "type": "electric_scooter", "bike_id": "079261d41e38fc2eb9c1bb311ffef7e6"}, {"lon": -77.03829083333333, "lat": 38.911171, "name": "1f946f64b289896a56e57447c8f049d3", "fusion_lat": 0.0, "fusion_lon": 0.0, "rental_uris": {"android": "https://dc.lft.to/lastmile_qr_scan", "ios": "https://dc.lft.to/lastmile_qr_scan"}, "is_reserved": 0, "is_disabled": 0, "type": "electric_scooter", "bike_id": "1f946f64b289896a56e57447c8f049d3"}, {"lon": -77.02470316666667, "lat": 38.93862766666667, "name": "a94aee6fee90c4ed7a754484658dc511", "fusion_lat": 0.0, "fusion_lon": 0.0, "rental_uris": {"android": "https://dc.lft.to/lastmile_qr_scan", "ios": "https://dc.lft.to/lastmile_qr_scan"}, "is_reserved": 0, "is_disabled": 0, "type": "electric_scooter", "bike_id": "a94aee6fee90c4ed7a754484658dc511"}, {"lon": -77.03482083333333, "lat": 38.928558, "name": "40970412c480e44ad63f835e7cfd0405", "fusion_lat": 0.0, "fusion_lon": 0.0, "rental_uris": {"android": "https://dc.lft.to/lastmile_qr_scan", "ios": "https://dc.lft.to/lastmile_qr_scan"}, "is_reserved": 0, "is_disabled": 0, "type": "electric_scooter", "bike_id": "40970412c480e44ad63f835e7cfd0405"}, {"lon": -76.98756316666666, "lat": 38.8449835, "name": "dbb377edd6b1534d766a18eb5b234016", "fusion_lat": 0.0, "fusion_lon": 0.0, "rental_uris": {"android": "https://dc.lft.to/lastmile_qr_scan", "ios": "https://dc.lft.to/lastmile_qr_scan"}, "is_reserved": 0, "is_disabled": 0, "type": "electric_scooter", "bike_id": "dbb377edd6b1534d766a18eb5b234016"}, {"lon": -77.0144155, "lat": 38.8778075, "name": "e3cdb0a559d9b42315c7b6a7b6de1ca4", "fusion_lat": 0.0, "fusion_lon": 0.0, "rental_uris": {"android": "https://dc.lft.to/lastmile_qr_scan", "ios": "https://dc.lft.to/lastmile_qr_scan"}, "is_reserved": 0, "is_disabled": 0, "type": "electric_scooter", "bike_id": "e3cdb0a559d9b42315c7b6a7b6de1ca4"}, {"lon": -76.94852416666667, "lat": 38.88302783333334, "name": "ac862f613d4eba0262893c0ae49a3b65", "fusion_lat": 0.0, "fusion_lon": 0.0, "rental_uris": {"android": "https://dc.lft.to/lastmile_qr_scan", "ios": "https://dc.lft.to/lastmile_qr_scan"}, "is_reserved": 0, "is_disabled": 0, "type": "electric_scooter", "bike_id": "ac862f613d4eba0262893c0ae49a3b65"}, {"lon": -77.13595833333333, "lat": 39.05347183333333, "name": "55b9366190fba4bb68bcc7e3e1658985", "fusion_lat": 0.0, "fusion_lon": 0.0, "rental_uris": {"android": "https://dc.lft.to/lastmile_qr_scan", "ios": "https://dc.lft.to/lastmile_qr_scan"}, "is_reserved": 0, "is_disabled": 0, "type": "electric_bike", "bike_id": "55b9366190fba4bb68bcc7e3e1658985"}, {"lon": -77.0261975, "lat": 38.89204183333333, "name": "7ea970661ca9ed8aa2d9d615d07fe9fb", "fusion_lat": 0.0, "fusion_lon": 0.0, "rental_uris": {"android": "https://dc.lft.to/lastmile_qr_scan", "ios": "https://dc.lft.to/lastmile_qr_scan"}, "is_reserved": 0, "is_disabled": 0, "type": "electric_scooter", "bike_id": "7ea970661ca9ed8aa2d9d615d07fe9fb"}, {"lon": -77.03659466666667, "lat": 38.911724166666666, "name": "e161b1ed387029104977f700dd14d70d", "fusion_lat": 0.0, "fusion_lon": 0.0, "rental_uris": {"android": "https://dc.lft.to/lastmile_qr_scan", "ios": "https://dc.lft.to/lastmile_qr_scan"}, "is_reserved": 0, "is_disabled": 0, "type": "electric_scooter", "bike_id": "e161b1ed387029104977f700dd14d70d"}, {"lon": -77.03617483333333, "lat": 38.929160833333334, "name": "5e8f8dacf635a0b2e4ac5d462535c39d", "fusion_lat": 0.0, "fusion_lon": 0.0, "rental_uris": {"android": "https://dc.lft.to/lastmile_qr_scan", "ios": "https://dc.lft.to/lastmile_qr_scan"}, "is_reserved": 0, "is_disabled": 0, "type": "electric_scooter", "bike_id": "5e8f8dacf635a0b2e4ac5d462535c39d"}, {"lon": -77.0500655, "lat": 38.89226266666667, "name": "7b53a193301f74db0623d2040610ea3d", "fusion_lat": 0.0, "fusion_lon": 0.0, "rental_uris": {"android": "https://dc.lft.to/lastmile_qr_scan", "ios": "https://dc.lft.to/lastmile_qr_scan"}, "is_reserved": 0, "is_disabled": 0, "type": "electric_scooter", "bike_id": "7b53a193301f74db0623d2040610ea3d"}, {"lon": -77.0289425, "lat": 38.89975883333334, "name": "9fcc3422c9ead5555e3f3c8169dcfaf8", "fusion_lat": 0.0, "fusion_lon": 0.0, "rental_uris": {"android": "https://dc.lft.to/lastmile_qr_scan", "ios": "https://dc.lft.to/lastmile_qr_scan"}, "is_reserved": 0, "is_disabled": 0, "type": "electric_scooter", "bike_id": "9fcc3422c9ead5555e3f3c8169dcfaf8"}, {"lon": -77.0121095, "lat": 38.9188515, "name": "cda9d9a9de9f1a276c27676989cc816e", "fusion_lat": 0.0, "fusion_lon": 0.0, "rental_uris": {"android": "https://dc.lft.to/lastmile_qr_scan", "ios": "https://dc.lft.to/lastmile_qr_scan"}, "is_reserved": 0, "is_disabled": 0, "type": "electric_scooter", "bike_id": "cda9d9a9de9f1a276c27676989cc816e"}, {"lon": -77.01093133333333, "lat": 38.905569666666665, "name": "8423dfa9c2a31aa47209e5918c7daf7b", "fusion_lat": 0.0, "fusion_lon": 0.0, "rental_uris": {"android": "https://dc.lft.to/lastmile_qr_scan", "ios": "https://dc.lft.to/lastmile_qr_scan"}, "is_reserved": 0, "is_disabled": 0, "type": "electric_scooter", "bike_id": "8423dfa9c2a31aa47209e5918c7daf7b"}, {"lon": -77.0476195, "lat": 38.901968333333336, "name": "0d7782da68d676d7f319b6953178e86f", "fusion_lat": 0.0, "fusion_lon": 0.0, "rental_uris": {"android": "https://dc.lft.to/lastmile_qr_scan", "ios": "https://dc.lft.to/lastmile_qr_scan"}, "is_reserved": 0, "is_disabled": 0, "type": "electric_scooter", "bike_id": "0d7782da68d676d7f319b6953178e86f"}, {"lon": -77.03628216666667, "lat": 38.955974499999996, "name": "73761c425e88c1b5a968e24ddaa6dd7c", "fusion_lat": 0.0, "fusion_lon": 0.0, "rental_uris": {"android": "https://dc.lft.to/lastmile_qr_scan", "ios": "https://dc.lft.to/lastmile_qr_scan"}, "is_reserved": 0, "is_disabled": 0, "type": "electric_scooter", "bike_id": "73761c425e88c1b5a968e24ddaa6dd7c"}, {"lon": -77.02399683333333, "lat": 38.90184966666666, "name": "f6dcea5edd265e028862d0c6193abca3", "fusion_lat": 0.0, "fusion_lon": 0.0, "rental_uris": {"android": "https://dc.lft.to/lastmile_qr_scan", "ios": "https://dc.lft.to/lastmile_qr_scan"}, "is_reserved": 0, "is_disabled": 0, "type": "electric_scooter", "bike_id": "f6dcea5edd265e028862d0c6193abca3"}, {"lon": -77.00142366666667, "lat": 38.90007833333333, "name": "50017c9493dd62a246e0814de04a62bf", "fusion_lat": 0.0, "fusion_lon": 0.0, "rental_uris": {"android": "https://dc.lft.to/lastmile_qr_scan", "ios": "https://dc.lft.to/lastmile_qr_scan"}, "is_reserved": 0, "is_disabled": 0, "type": "electric_scooter", "bike_id": "50017c9493dd62a246e0814de04a62bf"}, {"lon": -77.0259575, "lat": 38.92032783333333, "name": "5b8e797c3849134ddc27581d405a41cd", "fusion_lat": 0.0, "fusion_lon": 0.0, "rental_uris": {"android": "https://dc.lft.to/lastmile_qr_scan", "ios": "https://dc.lft.to/lastmile_qr_scan"}, "is_reserved": 0, "is_disabled": 0, "type": "electric_scooter", "bike_id": "5b8e797c3849134ddc27581d405a41cd"}, {"lon": -77.1122355, "lat": 38.828705666666664, "name": "41045391f8198e3eba06c88cd49065ea", "fusion_lat": 0.0, "fusion_lon": 0.0, "rental_uris": {"android": "https://dc.lft.to/lastmile_qr_scan", "ios": "https://dc.lft.to/lastmile_qr_scan"}, "is_reserved": 0, "is_disabled": 0, "type": "electric_bike", "bike_id": "41045391f8198e3eba06c88cd49065ea"}, {"lon": -77.07683166666666, "lat": 38.831929333333335, "name": "fca50058b9c9c8343756423834d4f472", "fusion_lat": 0.0, "fusion_lon": 0.0, "rental_uris": {"android": "https://dc.lft.to/lastmile_qr_scan", "ios": "https://dc.lft.to/lastmile_qr_scan"}, "is_reserved": 0, "is_disabled": 0, "type": "electric_bike", "bike_id": "fca50058b9c9c8343756423834d4f472"}, {"lon": -77.05632416666667, "lat": 38.924170333333336, "name": "a0bdc618929a7108a7a31906756e7791", "fusion_lat": 0.0, "fusion_lon": 0.0, "rental_uris": {"android": "https://dc.lft.to/lastmile_qr_scan", "ios": "https://dc.lft.to/lastmile_qr_scan"}, "is_reserved": 0, "is_disabled": 0, "type": "electric_scooter", "bike_id": "a0bdc618929a7108a7a31906756e7791"}, {"lon": -77.12259466666667, "lat": 38.8918995, "name": "d96d19c4417f0226cfcaac2ac2e4f6f8", "fusion_lat": 0.0, "fusion_lon": 0.0, "rental_uris": {"android": "https://dc.lft.to/lastmile_qr_scan", "ios": "https://dc.lft.to/lastmile_qr_scan"}, "is_reserved": 0, "is_disabled": 0, "type": "electric_bike", "bike_id": "d96d19c4417f0226cfcaac2ac2e4f6f8"}, {"lon": -76.93547716666667, "lat": 38.95559333333333, "name": "baccb338fb763182945664d87e0391d2", "fusion_lat": 0.0, "fusion_lon": 0.0, "rental_uris": {"android": "https://dc.lft.to/lastmile_qr_scan", "ios": "https://dc.lft.to/lastmile_qr_scan"}, "is_reserved": 0, "is_disabled": 0, "type": "electric_bike", "bike_id": "baccb338fb763182945664d87e0391d2"}, {"lon": -77.0736015, "lat": 38.93357433333333, "name": "ed75ceb04a979c7f9e1f5ee65df595a6", "fusion_lat": 0.0, "fusion_lon": 0.0, "rental_uris": {"android": "https://dc.lft.to/lastmile_qr_scan", "ios": "https://dc.lft.to/lastmile_qr_scan"}, "is_reserved": 0, "is_disabled": 0, "type": "electric_scooter", "bike_id": "ed75ceb04a979c7f9e1f5ee65df595a6"}, {"lon": -77.03567266666667, "lat": 38.957264333333335, "name": "7429edec79a9d61d108fbb3e09a219ca", "fusion_lat": 0.0, "fusion_lon": 0.0, "rental_uris": {"android": "https://dc.lft.to/lastmile_qr_scan", "ios": "https://dc.lft.to/lastmile_qr_scan"}, "is_reserved": 0, "is_disabled": 0, "type": "electric_scooter", "bike_id": "7429edec79a9d61d108fbb3e09a219ca"}, {"lon": -77.0478895, "lat": 38.90194566666667, "name": "f58da2b6a6cb9f76ec5dd50dcda4c303", "fusion_lat": 0.0, "fusion_lon": 0.0, "rental_uris": {"android": "https://dc.lft.to/lastmile_qr_scan", "ios": "https://dc.lft.to/lastmile_qr_scan"}, "is_reserved": 0, "is_disabled": 0, "type": "electric_scooter", "bike_id": "f58da2b6a6cb9f76ec5dd50dcda4c303"}, {"lon": -76.98736216666667, "lat": 38.94429616666667, "name": "d8f2c548566f3776090025bf38ecb7d7", "fusion_lat": 0.0, "fusion_lon": 0.0, "rental_uris": {"android": "https://dc.lft.to/lastmile_qr_scan", "ios": "https://dc.lft.to/lastmile_qr_scan"}, "is_reserved": 0, "is_disabled": 0, "type": "electric_bike", "bike_id": "d8f2c548566f3776090025bf38ecb7d7"}, {"lon": -77.048748, "lat": 38.901249666666665, "name": "3eb5a5b1b8ffb5af67738f235c10b207", "fusion_lat": 0.0, "fusion_lon": 0.0, "rental_uris": {"android": "https://dc.lft.to/lastmile_qr_scan", "ios": "https://dc.lft.to/lastmile_qr_scan"}, "is_reserved": 0, "is_disabled": 0, "type": "electric_scooter", "bike_id": "3eb5a5b1b8ffb5af67738f235c10b207"}, {"lon": -77.00569766666666, "lat": 38.87668383333333, "name": "1e5f18bf995dfe0c86821c86cec5d327", "fusion_lat": 0.0, "fusion_lon": 0.0, "rental_uris": {"android": "https://dc.lft.to/lastmile_qr_scan", "ios": "https://dc.lft.to/lastmile_qr_scan"}, "is_reserved": 0, "is_disabled": 0, "type": "electric_scooter", "bike_id": "1e5f18bf995dfe0c86821c86cec5d327"}, {"lon": -77.07068866666667, "lat": 38.9193335, "name": "aa7985b69469c21441cd25aec5b3441f", "fusion_lat": 0.0, "fusion_lon": 0.0, "rental_uris": {"android": "https://dc.lft.to/lastmile_qr_scan", "ios": "https://dc.lft.to/lastmile_qr_scan"}, "is_reserved": 0, "is_disabled": 0, "type": "electric_scooter", "bike_id": "aa7985b69469c21441cd25aec5b3441f"}, {"lon": -77.03466166666666, "lat": 38.903025666666665, "name": "61426a5cd1c2d1317241f0c33018ce3c", "fusion_lat": 0.0, "fusion_lon": 0.0, "rental_uris": {"android": "https://dc.lft.to/lastmile_qr_scan", "ios": "https://dc.lft.to/lastmile_qr_scan"}, "is_reserved": 0, "is_disabled": 0, "type": "electric_scooter", "bike_id": "61426a5cd1c2d1317241f0c33018ce3c"}, {"lon": -77.03281516666667, "lat": 38.937901333333336, "name": "8486ae917fad18ffd1a303485d050036", "fusion_lat": 0.0, "fusion_lon": 0.0, "rental_uris": {"android": "https://dc.lft.to/lastmile_qr_scan", "ios": "https://dc.lft.to/lastmile_qr_scan"}, "is_reserved": 0, "is_disabled": 0, "type": "electric_scooter", "bike_id": "8486ae917fad18ffd1a303485d050036"}, {"lon": -76.98560683333334, "lat": 38.8689155, "name": "66c099ab31c42dce9b6bd1344cb313c4", "fusion_lat": 0.0, "fusion_lon": 0.0, "rental_uris": {"android": "https://dc.lft.to/lastmile_qr_scan", "ios": "https://dc.lft.to/lastmile_qr_scan"}, "is_reserved": 0, "is_disabled": 0, "type": "electric_bike", "bike_id": "66c099ab31c42dce9b6bd1344cb313c4"}, {"lon": -76.98124933333334, "lat": 38.891958333333335, "name": "7dcf807f3770a7b53537c76d753acef5", "fusion_lat": 0.0, "fusion_lon": 0.0, "rental_uris": {"android": "https://dc.lft.to/lastmile_qr_scan", "ios": "https://dc.lft.to/lastmile_qr_scan"}, "is_reserved": 0, "is_disabled": 0, "type": "electric_scooter", "bike_id": "7dcf807f3770a7b53537c76d753acef5"}, {"lon": -77.02198766666666, "lat": 38.916916, "name": "8b4f4f28d54076bcb43528e8bf418150", "fusion_lat": 0.0, "fusion_lon": 0.0, "rental_uris": {"android": "https://dc.lft.to/lastmile_qr_scan", "ios": "https://dc.lft.to/lastmile_qr_scan"}, "is_reserved": 0, "is_disabled": 0, "type": "electric_scooter", "bike_id": "8b4f4f28d54076bcb43528e8bf418150"}, {"lon": -77.06285033333333, "lat": 38.904563833333334, "name": "3b3760a1a069a167d6aca26569c8510f", "fusion_lat": 0.0, "fusion_lon": 0.0, "rental_uris": {"android": "https://dc.lft.to/lastmile_qr_scan", "ios": "https://dc.lft.to/lastmile_qr_scan"}, "is_reserved": 0, "is_disabled": 0, "type": "electric_scooter", "bike_id": "3b3760a1a069a167d6aca26569c8510f"}, {"lon": -76.9551465, "lat": 38.89053283333333, "name": "670c45162157ff95a90ede17cb1ccd84", "fusion_lat": 0.0, "fusion_lon": 0.0, "rental_uris": {"android": "https://dc.lft.to/lastmile_qr_scan", "ios": "https://dc.lft.to/lastmile_qr_scan"}, "is_reserved": 0, "is_disabled": 0, "type": "electric_scooter", "bike_id": "670c45162157ff95a90ede17cb1ccd84"}, {"lon": -77.04514933333333, "lat": 38.8922145, "name": "ef3e86aa3b46dcc523cf4f40bbb59ec8", "fusion_lat": 0.0, "fusion_lon": 0.0, "rental_uris": {"android": "https://dc.lft.to/lastmile_qr_scan", "ios": "https://dc.lft.to/lastmile_qr_scan"}, "is_reserved": 0, "is_disabled": 0, "type": "electric_scooter", "bike_id": "ef3e86aa3b46dcc523cf4f40bbb59ec8"}, {"lon": -77.02189533333333, "lat": 38.911292, "name": "1c9999573cb2e3212e3a0391e8124d91", "fusion_lat": 0.0, "fusion_lon": 0.0, "rental_uris": {"android": "https://dc.lft.to/lastmile_qr_scan", "ios": "https://dc.lft.to/lastmile_qr_scan"}, "is_reserved": 0, "is_disabled": 0, "type": "electric_scooter", "bike_id": "1c9999573cb2e3212e3a0391e8124d91"}, {"lon": -76.93912933333333, "lat": 38.955167333333335, "name": "6e0c54c91059217b3f1f0fa2d2308843", "fusion_lat": 0.0, "fusion_lon": 0.0, "rental_uris": {"android": "https://dc.lft.to/lastmile_qr_scan", "ios": "https://dc.lft.to/lastmile_qr_scan"}, "is_reserved": 0, "is_disabled": 0, "type": "electric_bike", "bike_id": "6e0c54c91059217b3f1f0fa2d2308843"}, {"lon": -77.03454016666667, "lat": 38.907379666666664, "name": "e97bf3ac469704f7f93fa0fe44150b25", "fusion_lat": 0.0, "fusion_lon": 0.0, "rental_uris": {"android": "https://dc.lft.to/lastmile_qr_scan", "ios": "https://dc.lft.to/lastmile_qr_scan"}, "is_reserved": 0, "is_disabled": 0, "type": "electric_scooter", "bike_id": "e97bf3ac469704f7f93fa0fe44150b25"}, {"lon": -77.07660883333334, "lat": 38.906246, "name": "35577c2ed6d8bd5731ada654269b268d", "fusion_lat": 0.0, "fusion_lon": 0.0, "rental_uris": {"android": "https://dc.lft.to/lastmile_qr_scan", "ios": "https://dc.lft.to/lastmile_qr_scan"}, "is_reserved": 0, "is_disabled": 0, "type": "electric_scooter", "bike_id": "35577c2ed6d8bd5731ada654269b268d"}, {"lon": -77.03645966666667, "lat": 38.91255683333333, "name": "85167cf03a5b4fd4a994982b7403bd0f", "fusion_lat": 0.0, "fusion_lon": 0.0, "rental_uris": {"android": "https://dc.lft.to/lastmile_qr_scan", "ios": "https://dc.lft.to/lastmile_qr_scan"}, "is_reserved": 0, "is_disabled": 0, "type": "electric_scooter", "bike_id": "85167cf03a5b4fd4a994982b7403bd0f"}, {"lon": -77.04227283333333, "lat": 38.911055833333336, "name": "5113d48a1a1ec30a22e6e9089b940b6b", "fusion_lat": 0.0, "fusion_lon": 0.0, "rental_uris": {"android": "https://dc.lft.to/lastmile_qr_scan", "ios": "https://dc.lft.to/lastmile_qr_scan"}, "is_reserved": 0, "is_disabled": 0, "type": "electric_scooter", "bike_id": "5113d48a1a1ec30a22e6e9089b940b6b"}, {"lon": -77.02692816666666, "lat": 38.909373333333335, "name": "1b9bfcf99e994ef673e915140dba004f", "fusion_lat": 0.0, "fusion_lon": 0.0, "rental_uris": {"android": "https://dc.lft.to/lastmile_qr_scan", "ios": "https://dc.lft.to/lastmile_qr_scan"}, "is_reserved": 0, "is_disabled": 0, "type": "electric_scooter", "bike_id": "1b9bfcf99e994ef673e915140dba004f"}, {"lon": -76.99061183333333, "lat": 38.90402816666667, "name": "d760bc4edfb7117f3262557e59eeab68", "fusion_lat": 0.0, "fusion_lon": 0.0, "rental_uris": {"android": "https://dc.lft.to/lastmile_qr_scan", "ios": "https://dc.lft.to/lastmile_qr_scan"}, "is_reserved": 0, "is_disabled": 0, "type": "electric_scooter", "bike_id": "d760bc4edfb7117f3262557e59eeab68"}, {"lon": -77.03184733333333, "lat": 38.8938935, "name": "233c9bb9c7cec26a58bc705bd52bc5ce", "fusion_lat": 0.0, "fusion_lon": 0.0, "rental_uris": {"android": "https://dc.lft.to/lastmile_qr_scan", "ios": "https://dc.lft.to/lastmile_qr_scan"}, "is_reserved": 0, "is_disabled": 0, "type": "electric_scooter", "bike_id": "233c9bb9c7cec26a58bc705bd52bc5ce"}, {"lon": -77.04154, "lat": 38.9148735, "name": "824bb5712ab0562e46a785b033ed7585", "fusion_lat": 0.0, "fusion_lon": 0.0, "rental_uris": {"android": "https://dc.lft.to/lastmile_qr_scan", "ios": "https://dc.lft.to/lastmile_qr_scan"}, "is_reserved": 0, "is_disabled": 0, "type": "electric_scooter", "bike_id": "824bb5712ab0562e46a785b033ed7585"}, {"lon": -77.01837683333333, "lat": 38.913431833333334, "name": "2ce8e5aabd5e37c361f6283b78e88f23", "fusion_lat": 0.0, "fusion_lon": 0.0, "rental_uris": {"android": "https://dc.lft.to/lastmile_qr_scan", "ios": "https://dc.lft.to/lastmile_qr_scan"}, "is_reserved": 0, "is_disabled": 0, "type": "electric_scooter", "bike_id": "2ce8e5aabd5e37c361f6283b78e88f23"}, {"lon": -76.99863033333334, "lat": 38.900203833333336, "name": "a95aaf4ba93b69174f715ab042e44953", "fusion_lat": 0.0, "fusion_lon": 0.0, "rental_uris": {"android": "https://dc.lft.to/lastmile_qr_scan", "ios": "https://dc.lft.to/lastmile_qr_scan"}, "is_reserved": 0, "is_disabled": 0, "type": "electric_scooter", "bike_id": "a95aaf4ba93b69174f715ab042e44953"}, {"lon": -77.025621, "lat": 38.938573833333336, "name": "f126d4004dce8328c10231720fbbf367", "fusion_lat": 0.0, "fusion_lon": 0.0, "rental_uris": {"android": "https://dc.lft.to/lastmile_qr_scan", "ios": "https://dc.lft.to/lastmile_qr_scan"}, "is_reserved": 0, "is_disabled": 0, "type": "electric_scooter", "bike_id": "f126d4004dce8328c10231720fbbf367"}, {"lon": -77.04170866666666, "lat": 38.91914283333333, "name": "2203738c85e4c69f1365acd1d22f66da", "fusion_lat": 0.0, "fusion_lon": 0.0, "rental_uris": {"android": "https://dc.lft.to/lastmile_qr_scan", "ios": "https://dc.lft.to/lastmile_qr_scan"}, "is_reserved": 0, "is_disabled": 0, "type": "electric_scooter", "bike_id": "2203738c85e4c69f1365acd1d22f66da"}, {"lon": -77.000531, "lat": 38.903645166666664, "name": "1e152fe867d5316c44c605aa138daa72", "fusion_lat": 0.0, "fusion_lon": 0.0, "rental_uris": {"android": "https://dc.lft.to/lastmile_qr_scan", "ios": "https://dc.lft.to/lastmile_qr_scan"}, "is_reserved": 0, "is_disabled": 0, "type": "electric_scooter", "bike_id": "1e152fe867d5316c44c605aa138daa72"}, {"lon": -77.021546, "lat": 38.8940515, "name": "41be8bf97b80a936794794b466658ebc", "fusion_lat": 0.0, "fusion_lon": 0.0, "rental_uris": {"android": "https://dc.lft.to/lastmile_qr_scan", "ios": "https://dc.lft.to/lastmile_qr_scan"}, "is_reserved": 0, "is_disabled": 0, "type": "electric_scooter", "bike_id": "41be8bf97b80a936794794b466658ebc"}, {"lon": -76.99018516666666, "lat": 38.86118883333333, "name": "b9e959d6e31b406ec5ad9cf2a41b24df", "fusion_lat": 0.0, "fusion_lon": 0.0, "rental_uris": {"android": "https://dc.lft.to/lastmile_qr_scan", "ios": "https://dc.lft.to/lastmile_qr_scan"}, "is_reserved": 0, "is_disabled": 0, "type": "electric_scooter", "bike_id": "b9e959d6e31b406ec5ad9cf2a41b24df"}, {"lon": -77.03172766666667, "lat": 38.91909866666666, "name": "f7b84a57dc132444adceef06534fc727", "fusion_lat": 0.0, "fusion_lon": 0.0, "rental_uris": {"android": "https://dc.lft.to/lastmile_qr_scan", "ios": "https://dc.lft.to/lastmile_qr_scan"}, "is_reserved": 0, "is_disabled": 0, "type": "electric_scooter", "bike_id": "f7b84a57dc132444adceef06534fc727"}, {"lon": -77.02480583333333, "lat": 38.938809166666665, "name": "6f821b8a771fcb7cd4db80060b806b6b", "fusion_lat": 0.0, "fusion_lon": 0.0, "rental_uris": {"android": "https://dc.lft.to/lastmile_qr_scan", "ios": "https://dc.lft.to/lastmile_qr_scan"}, "is_reserved": 0, "is_disabled": 0, "type": "electric_scooter", "bike_id": "6f821b8a771fcb7cd4db80060b806b6b"}, {"lon": -77.036402, "lat": 38.9240795, "name": "8913308c0df7c52f2050baca95d71f55", "fusion_lat": 0.0, "fusion_lon": 0.0, "rental_uris": {"android": "https://dc.lft.to/lastmile_qr_scan", "ios": "https://dc.lft.to/lastmile_qr_scan"}, "is_reserved": 0, "is_disabled": 0, "type": "electric_scooter", "bike_id": "8913308c0df7c52f2050baca95d71f55"}, {"lon": -77.0216775, "lat": 38.887427, "name": "9c8e5f5aed36c0049493ccbd9621c0e5", "fusion_lat": 0.0, "fusion_lon": 0.0, "rental_uris": {"android": "https://dc.lft.to/lastmile_qr_scan", "ios": "https://dc.lft.to/lastmile_qr_scan"}, "is_reserved": 0, "is_disabled": 0, "type": "electric_scooter", "bike_id": "9c8e5f5aed36c0049493ccbd9621c0e5"}, {"lon": -76.9489255, "lat": 38.89522516666667, "name": "85fd9eb957d0ff3e5aef77b51a902cd3", "fusion_lat": 0.0, "fusion_lon": 0.0, "rental_uris": {"android": "https://dc.lft.to/lastmile_qr_scan", "ios": "https://dc.lft.to/lastmile_qr_scan"}, "is_reserved": 0, "is_disabled": 0, "type": "electric_scooter", "bike_id": "85fd9eb957d0ff3e5aef77b51a902cd3"}, {"lon": -76.99632233333334, "lat": 38.84621833333333, "name": "b38f6d5a7d260c9c2911668ff64ad83d", "fusion_lat": 0.0, "fusion_lon": 0.0, "rental_uris": {"android": "https://dc.lft.to/lastmile_qr_scan", "ios": "https://dc.lft.to/lastmile_qr_scan"}, "is_reserved": 0, "is_disabled": 0, "type": "electric_scooter", "bike_id": "b38f6d5a7d260c9c2911668ff64ad83d"}, {"lon": -77.03203533333334, "lat": 38.90765433333333, "name": "5263a6544e978136b1497460312a1c6f", "fusion_lat": 0.0, "fusion_lon": 0.0, "rental_uris": {"android": "https://dc.lft.to/lastmile_qr_scan", "ios": "https://dc.lft.to/lastmile_qr_scan"}, "is_reserved": 0, "is_disabled": 0, "type": "electric_scooter", "bike_id": "5263a6544e978136b1497460312a1c6f"}, {"lon": -77.01779166666667, "lat": 38.900400166666664, "name": "f47d51442d89378ac936a11f6b6d42b1", "fusion_lat": 0.0, "fusion_lon": 0.0, "rental_uris": {"android": "https://dc.lft.to/lastmile_qr_scan", "ios": "https://dc.lft.to/lastmile_qr_scan"}, "is_reserved": 0, "is_disabled": 0, "type": "electric_scooter", "bike_id": "f47d51442d89378ac936a11f6b6d42b1"}, {"lon": -77.0270075, "lat": 38.918228166666665, "name": "acd2126bf6ca20aac8386c9e5b9c92d3", "fusion_lat": 0.0, "fusion_lon": 0.0, "rental_uris": {"android": "https://dc.lft.to/lastmile_qr_scan", "ios": "https://dc.lft.to/lastmile_qr_scan"}, "is_reserved": 0, "is_disabled": 0, "type": "electric_scooter", "bike_id": "acd2126bf6ca20aac8386c9e5b9c92d3"}, {"lon": -76.97628683333333, "lat": 38.892837, "name": "4b8d0a4198c812a28d1cf61de554f2a2", "fusion_lat": 0.0, "fusion_lon": 0.0, "rental_uris": {"android": "https://dc.lft.to/lastmile_qr_scan", "ios": "https://dc.lft.to/lastmile_qr_scan"}, "is_reserved": 0, "is_disabled": 0, "type": "electric_bike", "bike_id": "4b8d0a4198c812a28d1cf61de554f2a2"}, {"lon": -77.04148733333334, "lat": 38.919716666666666, "name": "d83b46365813e5d0645a337918b9365f", "fusion_lat": 0.0, "fusion_lon": 0.0, "rental_uris": {"android": "https://dc.lft.to/lastmile_qr_scan", "ios": "https://dc.lft.to/lastmile_qr_scan"}, "is_reserved": 0, "is_disabled": 0, "type": "electric_scooter", "bike_id": "d83b46365813e5d0645a337918b9365f"}, {"lon": -77.063944, "lat": 38.92901466666667, "name": "6bd1e996f3c7314e341aa6e20526dd6e", "fusion_lat": 0.0, "fusion_lon": 0.0, "rental_uris": {"android": "https://dc.lft.to/lastmile_qr_scan", "ios": "https://dc.lft.to/lastmile_qr_scan"}, "is_reserved": 0, "is_disabled": 0, "type": "electric_scooter", "bike_id": "6bd1e996f3c7314e341aa6e20526dd6e"}, {"lon": -77.02766016666666, "lat": 38.8919685, "name": "f777a66cf1641ed5a147f5019cf11161", "fusion_lat": 0.0, "fusion_lon": 0.0, "rental_uris": {"android": "https://dc.lft.to/lastmile_qr_scan", "ios": "https://dc.lft.to/lastmile_qr_scan"}, "is_reserved": 0, "is_disabled": 0, "type": "electric_scooter", "bike_id": "f777a66cf1641ed5a147f5019cf11161"}, {"lon": -77.05295716666667, "lat": 38.8988225, "name": "ae968802a1e40526e549769b8c5cb559", "fusion_lat": 0.0, "fusion_lon": 0.0, "rental_uris": {"android": "https://dc.lft.to/lastmile_qr_scan", "ios": "https://dc.lft.to/lastmile_qr_scan"}, "is_reserved": 0, "is_disabled": 0, "type": "electric_scooter", "bike_id": "ae968802a1e40526e549769b8c5cb559"}, {"lon": -76.99408916666667, "lat": 38.877842, "name": "ab7e4efa127f0970b424c874567a0393", "fusion_lat": 0.0, "fusion_lon": 0.0, "rental_uris": {"android": "https://dc.lft.to/lastmile_qr_scan", "ios": "https://dc.lft.to/lastmile_qr_scan"}, "is_reserved": 0, "is_disabled": 0, "type": "electric_scooter", "bike_id": "ab7e4efa127f0970b424c874567a0393"}, {"lon": -77.03734083333333, "lat": 38.933706666666666, "name": "76ac6bc6d18dd0ff07a4bbe4e866e603", "fusion_lat": 0.0, "fusion_lon": 0.0, "rental_uris": {"android": "https://dc.lft.to/lastmile_qr_scan", "ios": "https://dc.lft.to/lastmile_qr_scan"}, "is_reserved": 0, "is_disabled": 0, "type": "electric_scooter", "bike_id": "76ac6bc6d18dd0ff07a4bbe4e866e603"}, {"lon": -76.998678, "lat": 38.900260833333334, "name": "969b084e967103cee596fea1ad42ca6f", "fusion_lat": 0.0, "fusion_lon": 0.0, "rental_uris": {"android": "https://dc.lft.to/lastmile_qr_scan", "ios": "https://dc.lft.to/lastmile_qr_scan"}, "is_reserved": 0, "is_disabled": 0, "type": "electric_scooter", "bike_id": "969b084e967103cee596fea1ad42ca6f"}, {"lon": -77.00978516666666, "lat": 38.953481333333336, "name": "f4bee18605379761ba2d700e7534dc68", "fusion_lat": 0.0, "fusion_lon": 0.0, "rental_uris": {"android": "https://dc.lft.to/lastmile_qr_scan", "ios": "https://dc.lft.to/lastmile_qr_scan"}, "is_reserved": 0, "is_disabled": 0, "type": "electric_bike", "bike_id": "f4bee18605379761ba2d700e7534dc68"}, {"lon": -77.02718533333334, "lat": 38.89214466666667, "name": "25681a9ba3a680e0ca65fad625dd4e34", "fusion_lat": 0.0, "fusion_lon": 0.0, "rental_uris": {"android": "https://dc.lft.to/lastmile_qr_scan", "ios": "https://dc.lft.to/lastmile_qr_scan"}, "is_reserved": 0, "is_disabled": 0, "type": "electric_scooter", "bike_id": "25681a9ba3a680e0ca65fad625dd4e34"}, {"lon": -77.01113283333333, "lat": 38.903567333333335, "name": "9f5f61e90a01606e19773e1ce5d71eb7", "fusion_lat": 0.0, "fusion_lon": 0.0, "rental_uris": {"android": "https://dc.lft.to/lastmile_qr_scan", "ios": "https://dc.lft.to/lastmile_qr_scan"}, "is_reserved": 0, "is_disabled": 0, "type": "electric_scooter", "bike_id": "9f5f61e90a01606e19773e1ce5d71eb7"}, {"lon": -77.06626083333333, "lat": 38.947392666666666, "name": "5d687f08dfcd5a7ee9cfdfb455b3c92c", "fusion_lat": 0.0, "fusion_lon": 0.0, "rental_uris": {"android": "https://dc.lft.to/lastmile_qr_scan", "ios": "https://dc.lft.to/lastmile_qr_scan"}, "is_reserved": 0, "is_disabled": 0, "type": "electric_bike", "bike_id": "5d687f08dfcd5a7ee9cfdfb455b3c92c"}, {"lon": -77.02821133333333, "lat": 38.91596, "name": "49bc6c89a225fff56c398d2a5af02dfa", "fusion_lat": 0.0, "fusion_lon": 0.0, "rental_uris": {"android": "https://dc.lft.to/lastmile_qr_scan", "ios": "https://dc.lft.to/lastmile_qr_scan"}, "is_reserved": 0, "is_disabled": 0, "type": "electric_scooter", "bike_id": "49bc6c89a225fff56c398d2a5af02dfa"}, {"lon": -77.02230316666666, "lat": 38.912696333333336, "name": "a5e605b8746971b8a83485a59eb63e02", "fusion_lat": 0.0, "fusion_lon": 0.0, "rental_uris": {"android": "https://dc.lft.to/lastmile_qr_scan", "ios": "https://dc.lft.to/lastmile_qr_scan"}, "is_reserved": 0, "is_disabled": 0, "type": "electric_scooter", "bike_id": "a5e605b8746971b8a83485a59eb63e02"}, {"lon": -77.05236416666666, "lat": 38.9246695, "name": "0fdec7ae17b78c3a7dcaa2395a7bf945", "fusion_lat": 0.0, "fusion_lon": 0.0, "rental_uris": {"android": "https://dc.lft.to/lastmile_qr_scan", "ios": "https://dc.lft.to/lastmile_qr_scan"}, "is_reserved": 0, "is_disabled": 0, "type": "electric_scooter", "bike_id": "0fdec7ae17b78c3a7dcaa2395a7bf945"}, {"lon": -77.06973483333333, "lat": 38.95267366666667, "name": "34a4179c22a7600971e226e7e2596577", "fusion_lat": 0.0, "fusion_lon": 0.0, "rental_uris": {"android": "https://dc.lft.to/lastmile_qr_scan", "ios": "https://dc.lft.to/lastmile_qr_scan"}, "is_reserved": 0, "is_disabled": 0, "type": "electric_bike", "bike_id": "34a4179c22a7600971e226e7e2596577"}, {"lon": -76.96527583333334, "lat": 38.87627966666667, "name": "772534b57b8904a55ccccf2a1132335e", "fusion_lat": 0.0, "fusion_lon": 0.0, "rental_uris": {"android": "https://dc.lft.to/lastmile_qr_scan", "ios": "https://dc.lft.to/lastmile_qr_scan"}, "is_reserved": 0, "is_disabled": 0, "type": "electric_scooter", "bike_id": "772534b57b8904a55ccccf2a1132335e"}, {"lon": -77.0269535, "lat": 38.909431, "name": "f7416a5e408fdbbf219fe5eb79beb88d", "fusion_lat": 0.0, "fusion_lon": 0.0, "rental_uris": {"android": "https://dc.lft.to/lastmile_qr_scan", "ios": "https://dc.lft.to/lastmile_qr_scan"}, "is_reserved": 0, "is_disabled": 0, "type": "electric_scooter", "bike_id": "f7416a5e408fdbbf219fe5eb79beb88d"}, {"lon": -77.03306, "lat": 38.89640083333333, "name": "8aa28f2852206c81b5e8b91b6730ec43", "fusion_lat": 0.0, "fusion_lon": 0.0, "rental_uris": {"android": "https://dc.lft.to/lastmile_qr_scan", "ios": "https://dc.lft.to/lastmile_qr_scan"}, "is_reserved": 0, "is_disabled": 0, "type": "electric_scooter", "bike_id": "8aa28f2852206c81b5e8b91b6730ec43"}, {"lon": -77.132283, "lat": 38.869750333333336, "name": "c8aea4317d52f51259f06f97cdd3f8e5", "fusion_lat": 0.0, "fusion_lon": 0.0, "rental_uris": {"android": "https://dc.lft.to/lastmile_qr_scan", "ios": "https://dc.lft.to/lastmile_qr_scan"}, "is_reserved": 0, "is_disabled": 0, "type": "electric_bike", "bike_id": "c8aea4317d52f51259f06f97cdd3f8e5"}, {"lon": -77.03834316666666, "lat": 38.91185383333333, "name": "3454cea68e2305ff668c7dea7b3174cf", "fusion_lat": 0.0, "fusion_lon": 0.0, "rental_uris": {"android": "https://dc.lft.to/lastmile_qr_scan", "ios": "https://dc.lft.to/lastmile_qr_scan"}, "is_reserved": 0, "is_disabled": 0, "type": "electric_scooter", "bike_id": "3454cea68e2305ff668c7dea7b3174cf"}, {"lon": -77.03258333333333, "lat": 38.9324285, "name": "9fe3c9f1db9139f6d8f62637642db7f5", "fusion_lat": 0.0, "fusion_lon": 0.0, "rental_uris": {"android": "https://dc.lft.to/lastmile_qr_scan", "ios": "https://dc.lft.to/lastmile_qr_scan"}, "is_reserved": 0, "is_disabled": 0, "type": "electric_scooter", "bike_id": "9fe3c9f1db9139f6d8f62637642db7f5"}, {"lon": -77.03231633333333, "lat": 38.91478766666667, "name": "00035a3c9c3b5640f25271552018aaa9", "fusion_lat": 0.0, "fusion_lon": 0.0, "rental_uris": {"android": "https://dc.lft.to/lastmile_qr_scan", "ios": "https://dc.lft.to/lastmile_qr_scan"}, "is_reserved": 0, "is_disabled": 0, "type": "electric_scooter", "bike_id": "00035a3c9c3b5640f25271552018aaa9"}, {"lon": -76.98529516666666, "lat": 38.88396933333333, "name": "8d218bf65765f0f24da76bffe1c4e23a", "fusion_lat": 0.0, "fusion_lon": 0.0, "rental_uris": {"android": "https://dc.lft.to/lastmile_qr_scan", "ios": "https://dc.lft.to/lastmile_qr_scan"}, "is_reserved": 0, "is_disabled": 0, "type": "electric_scooter", "bike_id": "8d218bf65765f0f24da76bffe1c4e23a"}, {"lon": -77.00896416666667, "lat": 38.897246, "name": "f1392eebf13498eabd00aa8b7eea1500", "fusion_lat": 0.0, "fusion_lon": 0.0, "rental_uris": {"android": "https://dc.lft.to/lastmile_qr_scan", "ios": "https://dc.lft.to/lastmile_qr_scan"}, "is_reserved": 0, "is_disabled": 0, "type": "electric_scooter", "bike_id": "f1392eebf13498eabd00aa8b7eea1500"}, {"lon": -77.05179033333333, "lat": 38.92425266666667, "name": "1cb5fed43d1cd8a55addc3335e83fea2", "fusion_lat": 0.0, "fusion_lon": 0.0, "rental_uris": {"android": "https://dc.lft.to/lastmile_qr_scan", "ios": "https://dc.lft.to/lastmile_qr_scan"}, "is_reserved": 0, "is_disabled": 0, "type": "electric_scooter", "bike_id": "1cb5fed43d1cd8a55addc3335e83fea2"}, {"lon": -77.036582, "lat": 38.9228285, "name": "98f59ff3a693c71552b4a75395301d14", "fusion_lat": 0.0, "fusion_lon": 0.0, "rental_uris": {"android": "https://dc.lft.to/lastmile_qr_scan", "ios": "https://dc.lft.to/lastmile_qr_scan"}, "is_reserved": 0, "is_disabled": 0, "type": "electric_scooter", "bike_id": "98f59ff3a693c71552b4a75395301d14"}, {"lon": -77.01886583333334, "lat": 38.9118315, "name": "7c16a7082a303139c7067a2db234e67d", "fusion_lat": 0.0, "fusion_lon": 0.0, "rental_uris": {"android": "https://dc.lft.to/lastmile_qr_scan", "ios": "https://dc.lft.to/lastmile_qr_scan"}, "is_reserved": 0, "is_disabled": 0, "type": "electric_scooter", "bike_id": "7c16a7082a303139c7067a2db234e67d"}, {"lon": -77.0273445, "lat": 38.92852383333334, "name": "9ff0b913c15c512b3a1b25f6dba1a3f9", "fusion_lat": 0.0, "fusion_lon": 0.0, "rental_uris": {"android": "https://dc.lft.to/lastmile_qr_scan", "ios": "https://dc.lft.to/lastmile_qr_scan"}, "is_reserved": 0, "is_disabled": 0, "type": "electric_scooter", "bike_id": "9ff0b913c15c512b3a1b25f6dba1a3f9"}, {"lon": -76.99959716666666, "lat": 38.90867333333333, "name": "c3abf5e94c8ce1557a83ec9c51723485", "fusion_lat": 0.0, "fusion_lon": 0.0, "rental_uris": {"android": "https://dc.lft.to/lastmile_qr_scan", "ios": "https://dc.lft.to/lastmile_qr_scan"}, "is_reserved": 0, "is_disabled": 0, "type": "electric_scooter", "bike_id": "c3abf5e94c8ce1557a83ec9c51723485"}, {"lon": -77.03997633333333, "lat": 38.8887, "name": "02ffe9930fc021be19d27c8dcd3d392c", "fusion_lat": 0.0, "fusion_lon": 0.0, "rental_uris": {"android": "https://dc.lft.to/lastmile_qr_scan", "ios": "https://dc.lft.to/lastmile_qr_scan"}, "is_reserved": 0, "is_disabled": 0, "type": "electric_scooter", "bike_id": "02ffe9930fc021be19d27c8dcd3d392c"}, {"lon": -77.02926516666666, "lat": 38.882202166666666, "name": "6fb00399555d72c384947921136b9f40", "fusion_lat": 0.0, "fusion_lon": 0.0, "rental_uris": {"android": "https://dc.lft.to/lastmile_qr_scan", "ios": "https://dc.lft.to/lastmile_qr_scan"}, "is_reserved": 0, "is_disabled": 0, "type": "electric_scooter", "bike_id": "6fb00399555d72c384947921136b9f40"}, {"lon": -77.01868583333334, "lat": 38.948902833333335, "name": "9101a517f2aae4b42efa2b913088ed11", "fusion_lat": 0.0, "fusion_lon": 0.0, "rental_uris": {"android": "https://dc.lft.to/lastmile_qr_scan", "ios": "https://dc.lft.to/lastmile_qr_scan"}, "is_reserved": 0, "is_disabled": 0, "type": "electric_scooter", "bike_id": "9101a517f2aae4b42efa2b913088ed11"}, {"lon": -77.03933716666667, "lat": 38.91414233333333, "name": "f6e2671a2139b2b416610c13f6b66a3d", "fusion_lat": 0.0, "fusion_lon": 0.0, "rental_uris": {"android": "https://dc.lft.to/lastmile_qr_scan", "ios": "https://dc.lft.to/lastmile_qr_scan"}, "is_reserved": 0, "is_disabled": 0, "type": "electric_scooter", "bike_id": "f6e2671a2139b2b416610c13f6b66a3d"}, {"lon": -77.01100616666666, "lat": 38.90570966666667, "name": "9a222cf05b2c0e23ef0aa5af2de9e307", "fusion_lat": 0.0, "fusion_lon": 0.0, "rental_uris": {"android": "https://dc.lft.to/lastmile_qr_scan", "ios": "https://dc.lft.to/lastmile_qr_scan"}, "is_reserved": 0, "is_disabled": 0, "type": "electric_scooter", "bike_id": "9a222cf05b2c0e23ef0aa5af2de9e307"}, {"lon": -76.98158683333334, "lat": 38.959627833333336, "name": "fecd5701fa49290211343929c12d4147", "fusion_lat": 0.0, "fusion_lon": 0.0, "rental_uris": {"android": "https://dc.lft.to/lastmile_qr_scan", "ios": "https://dc.lft.to/lastmile_qr_scan"}, "is_reserved": 0, "is_disabled": 0, "type": "electric_bike", "bike_id": "fecd5701fa49290211343929c12d4147"}, {"lon": -77.0357115, "lat": 38.918193333333335, "name": "e833ed3a4eb32b4483bf6ecdec3110d8", "fusion_lat": 0.0, "fusion_lon": 0.0, "rental_uris": {"android": "https://dc.lft.to/lastmile_qr_scan", "ios": "https://dc.lft.to/lastmile_qr_scan"}, "is_reserved": 0, "is_disabled": 0, "type": "electric_scooter", "bike_id": "e833ed3a4eb32b4483bf6ecdec3110d8"}, {"lon": -77.05561133333333, "lat": 38.8998165, "name": "8ca51f655389f302cacc6f4bae93b33f", "fusion_lat": 0.0, "fusion_lon": 0.0, "rental_uris": {"android": "https://dc.lft.to/lastmile_qr_scan", "ios": "https://dc.lft.to/lastmile_qr_scan"}, "is_reserved": 0, "is_disabled": 0, "type": "electric_scooter", "bike_id": "8ca51f655389f302cacc6f4bae93b33f"}, {"lon": -77.024524, "lat": 38.91923216666667, "name": "c439bbade5a48790c5c04d92c53c1a2c", "fusion_lat": 0.0, "fusion_lon": 0.0, "rental_uris": {"android": "https://dc.lft.to/lastmile_qr_scan", "ios": "https://dc.lft.to/lastmile_qr_scan"}, "is_reserved": 0, "is_disabled": 0, "type": "electric_scooter", "bike_id": "c439bbade5a48790c5c04d92c53c1a2c"}, {"lon": -77.0500635, "lat": 38.89228583333333, "name": "b03d8d0a495be19f476bd76d6779bba2", "fusion_lat": 0.0, "fusion_lon": 0.0, "rental_uris": {"android": "https://dc.lft.to/lastmile_qr_scan", "ios": "https://dc.lft.to/lastmile_qr_scan"}, "is_reserved": 0, "is_disabled": 0, "type": "electric_scooter", "bike_id": "b03d8d0a495be19f476bd76d6779bba2"}, {"lon": -76.96525766666667, "lat": 38.87625633333333, "name": "db7d2c210f0c905fc6690a2d67df2f20", "fusion_lat": 0.0, "fusion_lon": 0.0, "rental_uris": {"android": "https://dc.lft.to/lastmile_qr_scan", "ios": "https://dc.lft.to/lastmile_qr_scan"}, "is_reserved": 0, "is_disabled": 0, "type": "electric_scooter", "bike_id": "db7d2c210f0c905fc6690a2d67df2f20"}, {"lon": -77.02587916666667, "lat": 38.892443666666665, "name": "b1fd3205eb6171a1d2f651fee138513d", "fusion_lat": 0.0, "fusion_lon": 0.0, "rental_uris": {"android": "https://dc.lft.to/lastmile_qr_scan", "ios": "https://dc.lft.to/lastmile_qr_scan"}, "is_reserved": 0, "is_disabled": 0, "type": "electric_scooter", "bike_id": "b1fd3205eb6171a1d2f651fee138513d"}, {"lon": -77.00335983333333, "lat": 38.89353116666667, "name": "a0b7002a1a0af0669ccae657d1f5f039", "fusion_lat": 0.0, "fusion_lon": 0.0, "rental_uris": {"android": "https://dc.lft.to/lastmile_qr_scan", "ios": "https://dc.lft.to/lastmile_qr_scan"}, "is_reserved": 0, "is_disabled": 0, "type": "electric_scooter", "bike_id": "a0b7002a1a0af0669ccae657d1f5f039"}, {"lon": -77.04738883333333, "lat": 38.912539333333335, "name": "2bc22dca9ca66911447dba9522dbbb84", "fusion_lat": 0.0, "fusion_lon": 0.0, "rental_uris": {"android": "https://dc.lft.to/lastmile_qr_scan", "ios": "https://dc.lft.to/lastmile_qr_scan"}, "is_reserved": 0, "is_disabled": 0, "type": "electric_scooter", "bike_id": "2bc22dca9ca66911447dba9522dbbb84"}, {"lon": -77.03943133333334, "lat": 38.90812616666667, "name": "1c2a8e071902af28f7d87078ef85f4d5", "fusion_lat": 0.0, "fusion_lon": 0.0, "rental_uris": {"android": "https://dc.lft.to/lastmile_qr_scan", "ios": "https://dc.lft.to/lastmile_qr_scan"}, "is_reserved": 0, "is_disabled": 0, "type": "electric_scooter", "bike_id": "1c2a8e071902af28f7d87078ef85f4d5"}, {"lon": -77.04690366666667, "lat": 38.9213225, "name": "0de1ddb749616b133ecc87fe8cf936df", "fusion_lat": 0.0, "fusion_lon": 0.0, "rental_uris": {"android": "https://dc.lft.to/lastmile_qr_scan", "ios": "https://dc.lft.to/lastmile_qr_scan"}, "is_reserved": 0, "is_disabled": 0, "type": "electric_scooter", "bike_id": "0de1ddb749616b133ecc87fe8cf936df"}, {"lon": -77.02793083333333, "lat": 38.93080833333333, "name": "818d25b80af0852abe1e7d1ba289d309", "fusion_lat": 0.0, "fusion_lon": 0.0, "rental_uris": {"android": "https://dc.lft.to/lastmile_qr_scan", "ios": "https://dc.lft.to/lastmile_qr_scan"}, "is_reserved": 0, "is_disabled": 0, "type": "electric_scooter", "bike_id": "818d25b80af0852abe1e7d1ba289d309"}, {"lon": -76.94664483333334, "lat": 38.898686833333336, "name": "0962ce281ee519fd69f00fdb1b3725d4", "fusion_lat": 0.0, "fusion_lon": 0.0, "rental_uris": {"android": "https://dc.lft.to/lastmile_qr_scan", "ios": "https://dc.lft.to/lastmile_qr_scan"}, "is_reserved": 0, "is_disabled": 0, "type": "electric_scooter", "bike_id": "0962ce281ee519fd69f00fdb1b3725d4"}, {"lon": -77.03649066666667, "lat": 38.90279066666667, "name": "01706361cf4f154db2644f541b308092", "fusion_lat": 0.0, "fusion_lon": 0.0, "rental_uris": {"android": "https://dc.lft.to/lastmile_qr_scan", "ios": "https://dc.lft.to/lastmile_qr_scan"}, "is_reserved": 0, "is_disabled": 0, "type": "electric_scooter", "bike_id": "01706361cf4f154db2644f541b308092"}, {"lon": -77.03833866666666, "lat": 38.93142266666667, "name": "28afa14f39358bfffd044edd41273faf", "fusion_lat": 0.0, "fusion_lon": 0.0, "rental_uris": {"android": "https://dc.lft.to/lastmile_qr_scan", "ios": "https://dc.lft.to/lastmile_qr_scan"}, "is_reserved": 0, "is_disabled": 0, "type": "electric_scooter", "bike_id": "28afa14f39358bfffd044edd41273faf"}, {"lon": -77.00828033333333, "lat": 38.913758333333334, "name": "a6ad01a5438541dae3f4e0afa184839f", "fusion_lat": 0.0, "fusion_lon": 0.0, "rental_uris": {"android": "https://dc.lft.to/lastmile_qr_scan", "ios": "https://dc.lft.to/lastmile_qr_scan"}, "is_reserved": 0, "is_disabled": 0, "type": "electric_scooter", "bike_id": "a6ad01a5438541dae3f4e0afa184839f"}, {"lon": -77.02724, "lat": 38.9513055, "name": "39be5c2fe688ac49d5770123493db6b6", "fusion_lat": 0.0, "fusion_lon": 0.0, "rental_uris": {"android": "https://dc.lft.to/lastmile_qr_scan", "ios": "https://dc.lft.to/lastmile_qr_scan"}, "is_reserved": 0, "is_disabled": 0, "type": "electric_scooter", "bike_id": "39be5c2fe688ac49d5770123493db6b6"}, {"lon": -77.0093145, "lat": 38.896047333333335, "name": "7799f51e2947a68008e23d870236cc2d", "fusion_lat": 0.0, "fusion_lon": 0.0, "rental_uris": {"android": "https://dc.lft.to/lastmile_qr_scan", "ios": "https://dc.lft.to/lastmile_qr_scan"}, "is_reserved": 0, "is_disabled": 0, "type": "electric_scooter", "bike_id": "7799f51e2947a68008e23d870236cc2d"}, {"lon": -77.35310283333334, "lat": 38.9499805, "name": "74cd956bd25f25a144cebcbf8049132d", "fusion_lat": 0.0, "fusion_lon": 0.0, "rental_uris": {"android": "https://dc.lft.to/lastmile_qr_scan", "ios": "https://dc.lft.to/lastmile_qr_scan"}, "is_reserved": 0, "is_disabled": 0, "type": "electric_bike", "bike_id": "74cd956bd25f25a144cebcbf8049132d"}, {"lon": -77.034379, "lat": 38.902703, "name": "d0533ac288eaf06a8039c3b1ca7df427", "fusion_lat": 0.0, "fusion_lon": 0.0, "rental_uris": {"android": "https://dc.lft.to/lastmile_qr_scan", "ios": "https://dc.lft.to/lastmile_qr_scan"}, "is_reserved": 0, "is_disabled": 0, "type": "electric_scooter", "bike_id": "d0533ac288eaf06a8039c3b1ca7df427"}, {"lon": -77.00755683333334, "lat": 38.871126, "name": "993a7616bf050e20ab581385c9cce8af", "fusion_lat": 0.0, "fusion_lon": 0.0, "rental_uris": {"android": "https://dc.lft.to/lastmile_qr_scan", "ios": "https://dc.lft.to/lastmile_qr_scan"}, "is_reserved": 0, "is_disabled": 0, "type": "electric_scooter", "bike_id": "993a7616bf050e20ab581385c9cce8af"}, {"lon": -77.04991466666667, "lat": 38.90116033333334, "name": "f88c9a8ba42952504dd3e227a18e55c6", "fusion_lat": 0.0, "fusion_lon": 0.0, "rental_uris": {"android": "https://dc.lft.to/lastmile_qr_scan", "ios": "https://dc.lft.to/lastmile_qr_scan"}, "is_reserved": 0, "is_disabled": 0, "type": "electric_scooter", "bike_id": "f88c9a8ba42952504dd3e227a18e55c6"}, {"lon": -77.05722633333333, "lat": 38.933694833333334, "name": "55efaeedf550e3850a5b155307d3d025", "fusion_lat": 0.0, "fusion_lon": 0.0, "rental_uris": {"android": "https://dc.lft.to/lastmile_qr_scan", "ios": "https://dc.lft.to/lastmile_qr_scan"}, "is_reserved": 0, "is_disabled": 0, "type": "electric_scooter", "bike_id": "55efaeedf550e3850a5b155307d3d025"}, {"lon": -77.022884, "lat": 38.90978483333333, "name": "2b63d92053ccecd5d50e1ccbcb8b6061", "fusion_lat": 0.0, "fusion_lon": 0.0, "rental_uris": {"android": "https://dc.lft.to/lastmile_qr_scan", "ios": "https://dc.lft.to/lastmile_qr_scan"}, "is_reserved": 0, "is_disabled": 0, "type": "electric_scooter", "bike_id": "2b63d92053ccecd5d50e1ccbcb8b6061"}, {"lon": -77.05386183333333, "lat": 38.91049233333333, "name": "c669336cb4036419c532752494770503", "fusion_lat": 0.0, "fusion_lon": 0.0, "rental_uris": {"android": "https://dc.lft.to/lastmile_qr_scan", "ios": "https://dc.lft.to/lastmile_qr_scan"}, "is_reserved": 0, "is_disabled": 0, "type": "electric_scooter", "bike_id": "c669336cb4036419c532752494770503"}, {"lon": -77.04059966666667, "lat": 38.917634666666665, "name": "32c0130a71dba7db5c4d392bce05f2fe", "fusion_lat": 0.0, "fusion_lon": 0.0, "rental_uris": {"android": "https://dc.lft.to/lastmile_qr_scan", "ios": "https://dc.lft.to/lastmile_qr_scan"}, "is_reserved": 0, "is_disabled": 0, "type": "electric_scooter", "bike_id": "32c0130a71dba7db5c4d392bce05f2fe"}, {"lon": -77.04508266666667, "lat": 38.91276766666667, "name": "52984ac81c2723ae9587daca2cce500c", "fusion_lat": 0.0, "fusion_lon": 0.0, "rental_uris": {"android": "https://dc.lft.to/lastmile_qr_scan", "ios": "https://dc.lft.to/lastmile_qr_scan"}, "is_reserved": 0, "is_disabled": 0, "type": "electric_scooter", "bike_id": "52984ac81c2723ae9587daca2cce500c"}, {"lon": -77.11241266666667, "lat": 38.856064, "name": "463b80a91267e83316d24595e5b5e571", "fusion_lat": 0.0, "fusion_lon": 0.0, "rental_uris": {"android": "https://dc.lft.to/lastmile_qr_scan", "ios": "https://dc.lft.to/lastmile_qr_scan"}, "is_reserved": 0, "is_disabled": 0, "type": "electric_bike", "bike_id": "463b80a91267e83316d24595e5b5e571"}, {"lon": -76.9846535, "lat": 38.9114375, "name": "03e075ee1248eaa23ac0955be0ae92b9", "fusion_lat": 0.0, "fusion_lon": 0.0, "rental_uris": {"android": "https://dc.lft.to/lastmile_qr_scan", "ios": "https://dc.lft.to/lastmile_qr_scan"}, "is_reserved": 0, "is_disabled": 0, "type": "electric_scooter", "bike_id": "03e075ee1248eaa23ac0955be0ae92b9"}, {"lon": -76.996258, "lat": 38.885623333333335, "name": "a2e8a28febabd1b8b846c39ad90a2dda", "fusion_lat": 0.0, "fusion_lon": 0.0, "rental_uris": {"android": "https://dc.lft.to/lastmile_qr_scan", "ios": "https://dc.lft.to/lastmile_qr_scan"}, "is_reserved": 0, "is_disabled": 0, "type": "electric_scooter", "bike_id": "a2e8a28febabd1b8b846c39ad90a2dda"}, {"lon": -76.9872715, "lat": 38.8670805, "name": "0bfec1f936bb70fb677a389fb837a776", "fusion_lat": 0.0, "fusion_lon": 0.0, "rental_uris": {"android": "https://dc.lft.to/lastmile_qr_scan", "ios": "https://dc.lft.to/lastmile_qr_scan"}, "is_reserved": 0, "is_disabled": 0, "type": "electric_scooter", "bike_id": "0bfec1f936bb70fb677a389fb837a776"}, {"lon": -76.981019, "lat": 38.857199333333334, "name": "effed6f0ef797ea24b7d1ac4749d37a6", "fusion_lat": 0.0, "fusion_lon": 0.0, "rental_uris": {"android": "https://dc.lft.to/lastmile_qr_scan", "ios": "https://dc.lft.to/lastmile_qr_scan"}, "is_reserved": 0, "is_disabled": 0, "type": "electric_scooter", "bike_id": "effed6f0ef797ea24b7d1ac4749d37a6"}, {"lon": -77.01640483333334, "lat": 38.899941166666665, "name": "34a362a7f4c3dc24e814e370a24b4d42", "fusion_lat": 0.0, "fusion_lon": 0.0, "rental_uris": {"android": "https://dc.lft.to/lastmile_qr_scan", "ios": "https://dc.lft.to/lastmile_qr_scan"}, "is_reserved": 0, "is_disabled": 0, "type": "electric_scooter", "bike_id": "34a362a7f4c3dc24e814e370a24b4d42"}, {"lon": -77.07165133333334, "lat": 38.95839866666667, "name": "62e34a83e1b96487c48d12ec384d24b7", "fusion_lat": 0.0, "fusion_lon": 0.0, "rental_uris": {"android": "https://dc.lft.to/lastmile_qr_scan", "ios": "https://dc.lft.to/lastmile_qr_scan"}, "is_reserved": 0, "is_disabled": 0, "type": "electric_scooter", "bike_id": "62e34a83e1b96487c48d12ec384d24b7"}, {"lon": -77.002003, "lat": 38.902403166666666, "name": "06a7e3a79c4ba4ca23f21b3cb20e7095", "fusion_lat": 0.0, "fusion_lon": 0.0, "rental_uris": {"android": "https://dc.lft.to/lastmile_qr_scan", "ios": "https://dc.lft.to/lastmile_qr_scan"}, "is_reserved": 0, "is_disabled": 0, "type": "electric_scooter", "bike_id": "06a7e3a79c4ba4ca23f21b3cb20e7095"}, {"lon": -77.046694, "lat": 38.90732966666667, "name": "a314ec2dbe1f92413d6ee85e9bbeffd0", "fusion_lat": 0.0, "fusion_lon": 0.0, "rental_uris": {"android": "https://dc.lft.to/lastmile_qr_scan", "ios": "https://dc.lft.to/lastmile_qr_scan"}, "is_reserved": 0, "is_disabled": 0, "type": "electric_scooter", "bike_id": "a314ec2dbe1f92413d6ee85e9bbeffd0"}, {"lon": -77.125039, "lat": 39.024214, "name": "8fd2b2efee1eb39fedf2e753d0609b2b", "fusion_lat": 0.0, "fusion_lon": 0.0, "rental_uris": {"android": "https://dc.lft.to/lastmile_qr_scan", "ios": "https://dc.lft.to/lastmile_qr_scan"}, "is_reserved": 0, "is_disabled": 0, "type": "electric_bike", "bike_id": "8fd2b2efee1eb39fedf2e753d0609b2b"}, {"lon": -76.99956316666666, "lat": 38.90863566666667, "name": "204e42bfc01e0e5e62fb21198b2e6bfc", "fusion_lat": 0.0, "fusion_lon": 0.0, "rental_uris": {"android": "https://dc.lft.to/lastmile_qr_scan", "ios": "https://dc.lft.to/lastmile_qr_scan"}, "is_reserved": 0, "is_disabled": 0, "type": "electric_scooter", "bike_id": "204e42bfc01e0e5e62fb21198b2e6bfc"}, {"lon": -76.96540416666667, "lat": 38.91850216666667, "name": "19d76ada72385c81583109575bc9a3d8", "fusion_lat": 0.0, "fusion_lon": 0.0, "rental_uris": {"android": "https://dc.lft.to/lastmile_qr_scan", "ios": "https://dc.lft.to/lastmile_qr_scan"}, "is_reserved": 0, "is_disabled": 0, "type": "electric_scooter", "bike_id": "19d76ada72385c81583109575bc9a3d8"}, {"lon": -77.013116, "lat": 38.897365, "name": "e9f99e4931339b367b21cb8ee15c18c5", "fusion_lat": 0.0, "fusion_lon": 0.0, "rental_uris": {"android": "https://dc.lft.to/lastmile_qr_scan", "ios": "https://dc.lft.to/lastmile_qr_scan"}, "is_reserved": 0, "is_disabled": 0, "type": "electric_scooter", "bike_id": "e9f99e4931339b367b21cb8ee15c18c5"}, {"lon": -77.0162685, "lat": 38.8998475, "name": "95876ce0b8138d7cddce7da435d40bb6", "fusion_lat": 0.0, "fusion_lon": 0.0, "rental_uris": {"android": "https://dc.lft.to/lastmile_qr_scan", "ios": "https://dc.lft.to/lastmile_qr_scan"}, "is_reserved": 0, "is_disabled": 0, "type": "electric_scooter", "bike_id": "95876ce0b8138d7cddce7da435d40bb6"}, {"lon": -77.03696983333333, "lat": 38.92638816666667, "name": "2232264dd2bd7fce7197d5c99348698b", "fusion_lat": 0.0, "fusion_lon": 0.0, "rental_uris": {"android": "https://dc.lft.to/lastmile_qr_scan", "ios": "https://dc.lft.to/lastmile_qr_scan"}, "is_reserved": 0, "is_disabled": 0, "type": "electric_scooter", "bike_id": "2232264dd2bd7fce7197d5c99348698b"}, {"lon": -77.040406, "lat": 38.92299516666667, "name": "8bb3072ffe19fab98a79359fd533c043", "fusion_lat": 0.0, "fusion_lon": 0.0, "rental_uris": {"android": "https://dc.lft.to/lastmile_qr_scan", "ios": "https://dc.lft.to/lastmile_qr_scan"}, "is_reserved": 0, "is_disabled": 0, "type": "electric_scooter", "bike_id": "8bb3072ffe19fab98a79359fd533c043"}, {"lon": -77.03769633333333, "lat": 38.91690833333333, "name": "4343e14d89a1e38c98278a30b773adc7", "fusion_lat": 0.0, "fusion_lon": 0.0, "rental_uris": {"android": "https://dc.lft.to/lastmile_qr_scan", "ios": "https://dc.lft.to/lastmile_qr_scan"}, "is_reserved": 0, "is_disabled": 0, "type": "electric_scooter", "bike_id": "4343e14d89a1e38c98278a30b773adc7"}, {"lon": -77.04877183333333, "lat": 38.912376, "name": "0c7911277e75561f0b4eb80554d0c5f0", "fusion_lat": 0.0, "fusion_lon": 0.0, "rental_uris": {"android": "https://dc.lft.to/lastmile_qr_scan", "ios": "https://dc.lft.to/lastmile_qr_scan"}, "is_reserved": 0, "is_disabled": 0, "type": "electric_scooter", "bike_id": "0c7911277e75561f0b4eb80554d0c5f0"}, {"lon": -76.9744705, "lat": 38.9666725, "name": "1594fb2d57001bf0e77c30be6c202bc6", "fusion_lat": 0.0, "fusion_lon": 0.0, "rental_uris": {"android": "https://dc.lft.to/lastmile_qr_scan", "ios": "https://dc.lft.to/lastmile_qr_scan"}, "is_reserved": 0, "is_disabled": 0, "type": "electric_bike", "bike_id": "1594fb2d57001bf0e77c30be6c202bc6"}, {"lon": -76.905358, "lat": 38.89737, "name": "cfbd9a7dafd8465fd16a006ece62837f", "fusion_lat": 0.0, "fusion_lon": 0.0, "rental_uris": {"android": "https://dc.lft.to/lastmile_qr_scan", "ios": "https://dc.lft.to/lastmile_qr_scan"}, "is_reserved": 0, "is_disabled": 0, "type": "electric_bike", "bike_id": "cfbd9a7dafd8465fd16a006ece62837f"}, {"lon": -77.0199695, "lat": 38.904855833333336, "name": "03bd337e1434033d1ad533a89f4a1d59", "fusion_lat": 0.0, "fusion_lon": 0.0, "rental_uris": {"android": "https://dc.lft.to/lastmile_qr_scan", "ios": "https://dc.lft.to/lastmile_qr_scan"}, "is_reserved": 0, "is_disabled": 0, "type": "electric_scooter", "bike_id": "03bd337e1434033d1ad533a89f4a1d59"}, {"lon": -77.032584, "lat": 38.914055833333336, "name": "7dfe6db77e8b45ebc6c9a0c03bfc374b", "fusion_lat": 0.0, "fusion_lon": 0.0, "rental_uris": {"android": "https://dc.lft.to/lastmile_qr_scan", "ios": "https://dc.lft.to/lastmile_qr_scan"}, "is_reserved": 0, "is_disabled": 0, "type": "electric_scooter", "bike_id": "7dfe6db77e8b45ebc6c9a0c03bfc374b"}, {"lon": -77.02594516666667, "lat": 38.92034816666666, "name": "528c67e98882f69e2dbc0044f71bf16c", "fusion_lat": 0.0, "fusion_lon": 0.0, "rental_uris": {"android": "https://dc.lft.to/lastmile_qr_scan", "ios": "https://dc.lft.to/lastmile_qr_scan"}, "is_reserved": 0, "is_disabled": 0, "type": "electric_scooter", "bike_id": "528c67e98882f69e2dbc0044f71bf16c"}, {"lon": -77.02117566666666, "lat": 38.936988166666666, "name": "3886e1c72242e123a9793c82c92789d3", "fusion_lat": 0.0, "fusion_lon": 0.0, "rental_uris": {"android": "https://dc.lft.to/lastmile_qr_scan", "ios": "https://dc.lft.to/lastmile_qr_scan"}, "is_reserved": 0, "is_disabled": 0, "type": "electric_scooter", "bike_id": "3886e1c72242e123a9793c82c92789d3"}, {"lon": -77.03843016666667, "lat": 38.902863833333335, "name": "dae1ae754b635814ed5a09090643d603", "fusion_lat": 0.0, "fusion_lon": 0.0, "rental_uris": {"android": "https://dc.lft.to/lastmile_qr_scan", "ios": "https://dc.lft.to/lastmile_qr_scan"}, "is_reserved": 0, "is_disabled": 0, "type": "electric_scooter", "bike_id": "dae1ae754b635814ed5a09090643d603"}, {"lon": -77.03077516666667, "lat": 38.90995266666667, "name": "81d486d3436b8711a2992a476187fda3", "fusion_lat": 0.0, "fusion_lon": 0.0, "rental_uris": {"android": "https://dc.lft.to/lastmile_qr_scan", "ios": "https://dc.lft.to/lastmile_qr_scan"}, "is_reserved": 0, "is_disabled": 0, "type": "electric_scooter", "bike_id": "81d486d3436b8711a2992a476187fda3"}, {"lon": -77.00831583333333, "lat": 38.91554883333333, "name": "a1c54dc73ec358ea4f19f2b35f6cf421", "fusion_lat": 0.0, "fusion_lon": 0.0, "rental_uris": {"android": "https://dc.lft.to/lastmile_qr_scan", "ios": "https://dc.lft.to/lastmile_qr_scan"}, "is_reserved": 0, "is_disabled": 0, "type": "electric_scooter", "bike_id": "a1c54dc73ec358ea4f19f2b35f6cf421"}, {"lon": -77.0268475, "lat": 38.92483883333333, "name": "f355d81adac996c6393f583290470b2d", "fusion_lat": 0.0, "fusion_lon": 0.0, "rental_uris": {"android": "https://dc.lft.to/lastmile_qr_scan", "ios": "https://dc.lft.to/lastmile_qr_scan"}, "is_reserved": 0, "is_disabled": 0, "type": "electric_scooter", "bike_id": "f355d81adac996c6393f583290470b2d"}, {"lon": -77.02810416666667, "lat": 38.902744166666665, "name": "f0c831d622fac393500baa468b0781c3", "fusion_lat": 0.0, "fusion_lon": 0.0, "rental_uris": {"android": "https://dc.lft.to/lastmile_qr_scan", "ios": "https://dc.lft.to/lastmile_qr_scan"}, "is_reserved": 0, "is_disabled": 0, "type": "electric_scooter", "bike_id": "f0c831d622fac393500baa468b0781c3"}, {"lon": -77.02193033333333, "lat": 38.8924805, "name": "040a05d7e685e844a95d39802cd2fbfc", "fusion_lat": 0.0, "fusion_lon": 0.0, "rental_uris": {"android": "https://dc.lft.to/lastmile_qr_scan", "ios": "https://dc.lft.to/lastmile_qr_scan"}, "is_reserved": 0, "is_disabled": 0, "type": "electric_scooter", "bike_id": "040a05d7e685e844a95d39802cd2fbfc"}, {"lon": -77.02178483333333, "lat": 38.9097425, "name": "5a2c87a9d41f890d2cda3e9221ed85e1", "fusion_lat": 0.0, "fusion_lon": 0.0, "rental_uris": {"android": "https://dc.lft.to/lastmile_qr_scan", "ios": "https://dc.lft.to/lastmile_qr_scan"}, "is_reserved": 0, "is_disabled": 0, "type": "electric_scooter", "bike_id": "5a2c87a9d41f890d2cda3e9221ed85e1"}, {"lon": -76.92405433333333, "lat": 38.88986533333333, "name": "770493cab3a4b2aeda516f0429fe2899", "fusion_lat": 0.0, "fusion_lon": 0.0, "rental_uris": {"android": "https://dc.lft.to/lastmile_qr_scan", "ios": "https://dc.lft.to/lastmile_qr_scan"}, "is_reserved": 0, "is_disabled": 0, "type": "electric_scooter", "bike_id": "770493cab3a4b2aeda516f0429fe2899"}, {"lon": -76.9916635, "lat": 38.879155, "name": "940c7d021efc799fdaf218cf89ab28c1", "fusion_lat": 0.0, "fusion_lon": 0.0, "rental_uris": {"android": "https://dc.lft.to/lastmile_qr_scan", "ios": "https://dc.lft.to/lastmile_qr_scan"}, "is_reserved": 0, "is_disabled": 0, "type": "electric_scooter", "bike_id": "940c7d021efc799fdaf218cf89ab28c1"}, {"lon": -77.02277383333333, "lat": 38.92718583333333, "name": "4c02d36c276df2e77d4e9118f8a617a2", "fusion_lat": 0.0, "fusion_lon": 0.0, "rental_uris": {"android": "https://dc.lft.to/lastmile_qr_scan", "ios": "https://dc.lft.to/lastmile_qr_scan"}, "is_reserved": 0, "is_disabled": 0, "type": "electric_scooter", "bike_id": "4c02d36c276df2e77d4e9118f8a617a2"}, {"lon": -76.97348066666666, "lat": 38.865104333333335, "name": "5d95df402890cebb31995a00298fe909", "fusion_lat": 0.0, "fusion_lon": 0.0, "rental_uris": {"android": "https://dc.lft.to/lastmile_qr_scan", "ios": "https://dc.lft.to/lastmile_qr_scan"}, "is_reserved": 0, "is_disabled": 0, "type": "electric_scooter", "bike_id": "5d95df402890cebb31995a00298fe909"}, {"lon": -77.04513016666667, "lat": 38.907869833333336, "name": "cb91e854033d6e2c137ad178cd2b1e99", "fusion_lat": 0.0, "fusion_lon": 0.0, "rental_uris": {"android": "https://dc.lft.to/lastmile_qr_scan", "ios": "https://dc.lft.to/lastmile_qr_scan"}, "is_reserved": 0, "is_disabled": 0, "type": "electric_scooter", "bike_id": "cb91e854033d6e2c137ad178cd2b1e99"}, {"lon": -77.02970566666667, "lat": 38.893198, "name": "521d3f5611c37c4c322013b5704b7bb0", "fusion_lat": 0.0, "fusion_lon": 0.0, "rental_uris": {"android": "https://dc.lft.to/lastmile_qr_scan", "ios": "https://dc.lft.to/lastmile_qr_scan"}, "is_reserved": 0, "is_disabled": 0, "type": "electric_scooter", "bike_id": "521d3f5611c37c4c322013b5704b7bb0"}, {"lon": -77.02369816666666, "lat": 38.91901166666667, "name": "87a0389716c51efe597606387b1e2f30", "fusion_lat": 0.0, "fusion_lon": 0.0, "rental_uris": {"android": "https://dc.lft.to/lastmile_qr_scan", "ios": "https://dc.lft.to/lastmile_qr_scan"}, "is_reserved": 0, "is_disabled": 0, "type": "electric_scooter", "bike_id": "87a0389716c51efe597606387b1e2f30"}, {"lon": -77.07653383333333, "lat": 38.91083966666667, "name": "2a4dbbdd098e538599fafd5474850c87", "fusion_lat": 0.0, "fusion_lon": 0.0, "rental_uris": {"android": "https://dc.lft.to/lastmile_qr_scan", "ios": "https://dc.lft.to/lastmile_qr_scan"}, "is_reserved": 0, "is_disabled": 0, "type": "electric_scooter", "bike_id": "2a4dbbdd098e538599fafd5474850c87"}, {"lon": -77.06652933333334, "lat": 38.90507383333333, "name": "875c667e1b1ab848322666329a0cfe82", "fusion_lat": 0.0, "fusion_lon": 0.0, "rental_uris": {"android": "https://dc.lft.to/lastmile_qr_scan", "ios": "https://dc.lft.to/lastmile_qr_scan"}, "is_reserved": 0, "is_disabled": 0, "type": "electric_scooter", "bike_id": "875c667e1b1ab848322666329a0cfe82"}, {"lon": -77.09033466666666, "lat": 38.8411165, "name": "8bbb9fbf167a009a93931892625dc626", "fusion_lat": 0.0, "fusion_lon": 0.0, "rental_uris": {"android": "https://dc.lft.to/lastmile_qr_scan", "ios": "https://dc.lft.to/lastmile_qr_scan"}, "is_reserved": 0, "is_disabled": 0, "type": "electric_bike", "bike_id": "8bbb9fbf167a009a93931892625dc626"}, {"lon": -77.0363905, "lat": 38.949178333333336, "name": "9649b8089482dc11371e9cec7a61af99", "fusion_lat": 0.0, "fusion_lon": 0.0, "rental_uris": {"android": "https://dc.lft.to/lastmile_qr_scan", "ios": "https://dc.lft.to/lastmile_qr_scan"}, "is_reserved": 0, "is_disabled": 0, "type": "electric_scooter", "bike_id": "9649b8089482dc11371e9cec7a61af99"}, {"lon": -77.199101, "lat": 38.8752565, "name": "c666681e7494c6a73088accc6ef7eac6", "fusion_lat": 0.0, "fusion_lon": 0.0, "rental_uris": {"android": "https://dc.lft.to/lastmile_qr_scan", "ios": "https://dc.lft.to/lastmile_qr_scan"}, "is_reserved": 0, "is_disabled": 0, "type": "electric_bike", "bike_id": "c666681e7494c6a73088accc6ef7eac6"}, {"lon": -77.05371783333334, "lat": 38.923328166666664, "name": "e97cac391efb934c7c6480cfab5b0f45", "fusion_lat": 0.0, "fusion_lon": 0.0, "rental_uris": {"android": "https://dc.lft.to/lastmile_qr_scan", "ios": "https://dc.lft.to/lastmile_qr_scan"}, "is_reserved": 0, "is_disabled": 0, "type": "electric_scooter", "bike_id": "e97cac391efb934c7c6480cfab5b0f45"}, {"lon": -77.02678783333333, "lat": 38.932108166666666, "name": "245cb3b1013f5c53708f0c22ab3d7f2f", "fusion_lat": 0.0, "fusion_lon": 0.0, "rental_uris": {"android": "https://dc.lft.to/lastmile_qr_scan", "ios": "https://dc.lft.to/lastmile_qr_scan"}, "is_reserved": 0, "is_disabled": 0, "type": "electric_scooter", "bike_id": "245cb3b1013f5c53708f0c22ab3d7f2f"}, {"lon": -77.14987066666667, "lat": 39.09458766666667, "name": "37b4577b6181508cc1bf645bf2d5c05e", "fusion_lat": 0.0, "fusion_lon": 0.0, "rental_uris": {"android": "https://dc.lft.to/lastmile_qr_scan", "ios": "https://dc.lft.to/lastmile_qr_scan"}, "is_reserved": 0, "is_disabled": 0, "type": "electric_bike", "bike_id": "37b4577b6181508cc1bf645bf2d5c05e"}, {"lon": -77.00350466666667, "lat": 38.891596, "name": "aa3a09565d5077c2ba5d46ecf9513248", "fusion_lat": 0.0, "fusion_lon": 0.0, "rental_uris": {"android": "https://dc.lft.to/lastmile_qr_scan", "ios": "https://dc.lft.to/lastmile_qr_scan"}, "is_reserved": 0, "is_disabled": 0, "type": "electric_scooter", "bike_id": "aa3a09565d5077c2ba5d46ecf9513248"}, {"lon": -77.00644816666667, "lat": 38.90861533333333, "name": "b14f6ce99c7793c559284f0e3a21a2c9", "fusion_lat": 0.0, "fusion_lon": 0.0, "rental_uris": {"android": "https://dc.lft.to/lastmile_qr_scan", "ios": "https://dc.lft.to/lastmile_qr_scan"}, "is_reserved": 0, "is_disabled": 0, "type": "electric_scooter", "bike_id": "b14f6ce99c7793c559284f0e3a21a2c9"}, {"lon": -77.03337416666666, "lat": 38.9274745, "name": "134a179af4ac9c4fe0926f80d3caabf1", "fusion_lat": 0.0, "fusion_lon": 0.0, "rental_uris": {"android": "https://dc.lft.to/lastmile_qr_scan", "ios": "https://dc.lft.to/lastmile_qr_scan"}, "is_reserved": 0, "is_disabled": 0, "type": "electric_scooter", "bike_id": "134a179af4ac9c4fe0926f80d3caabf1"}, {"lon": -76.96921233333333, "lat": 38.855274, "name": "1b08fa4c0c8830c5fb1bcc4e3592046c", "fusion_lat": 0.0, "fusion_lon": 0.0, "rental_uris": {"android": "https://dc.lft.to/lastmile_qr_scan", "ios": "https://dc.lft.to/lastmile_qr_scan"}, "is_reserved": 0, "is_disabled": 0, "type": "electric_scooter", "bike_id": "1b08fa4c0c8830c5fb1bcc4e3592046c"}, {"lon": -77.03280966666667, "lat": 38.930728333333334, "name": "41325f569fc9bddb6407300b516f9204", "fusion_lat": 0.0, "fusion_lon": 0.0, "rental_uris": {"android": "https://dc.lft.to/lastmile_qr_scan", "ios": "https://dc.lft.to/lastmile_qr_scan"}, "is_reserved": 0, "is_disabled": 0, "type": "electric_scooter", "bike_id": "41325f569fc9bddb6407300b516f9204"}, {"lon": -77.0312395, "lat": 38.97374766666667, "name": "a303ed2ce22d9665539ca6ab537ecbfa", "fusion_lat": 0.0, "fusion_lon": 0.0, "rental_uris": {"android": "https://dc.lft.to/lastmile_qr_scan", "ios": "https://dc.lft.to/lastmile_qr_scan"}, "is_reserved": 0, "is_disabled": 0, "type": "electric_scooter", "bike_id": "a303ed2ce22d9665539ca6ab537ecbfa"}, {"lon": -77.03451566666666, "lat": 38.903756, "name": "66edef986130153f9a02409ce23deb58", "fusion_lat": 0.0, "fusion_lon": 0.0, "rental_uris": {"android": "https://dc.lft.to/lastmile_qr_scan", "ios": "https://dc.lft.to/lastmile_qr_scan"}, "is_reserved": 0, "is_disabled": 0, "type": "electric_scooter", "bike_id": "66edef986130153f9a02409ce23deb58"}, {"lon": -76.96175533333333, "lat": 38.91858466666667, "name": "e6a55ea82aaba1730f5af3e9c559801d", "fusion_lat": 0.0, "fusion_lon": 0.0, "rental_uris": {"android": "https://dc.lft.to/lastmile_qr_scan", "ios": "https://dc.lft.to/lastmile_qr_scan"}, "is_reserved": 0, "is_disabled": 0, "type": "electric_bike", "bike_id": "e6a55ea82aaba1730f5af3e9c559801d"}, {"lon": -77.033721, "lat": 38.910356, "name": "122de99204e9fc4b37ee895ffe59b198", "fusion_lat": 0.0, "fusion_lon": 0.0, "rental_uris": {"android": "https://dc.lft.to/lastmile_qr_scan", "ios": "https://dc.lft.to/lastmile_qr_scan"}, "is_reserved": 0, "is_disabled": 0, "type": "electric_scooter", "bike_id": "122de99204e9fc4b37ee895ffe59b198"}, {"lon": -77.05597133333333, "lat": 38.936916833333335, "name": "07ba8c54bde97ba65f562b8ced834458", "fusion_lat": 0.0, "fusion_lon": 0.0, "rental_uris": {"android": "https://dc.lft.to/lastmile_qr_scan", "ios": "https://dc.lft.to/lastmile_qr_scan"}, "is_reserved": 0, "is_disabled": 0, "type": "electric_scooter", "bike_id": "07ba8c54bde97ba65f562b8ced834458"}, {"lon": -77.03160266666667, "lat": 38.89729883333333, "name": "bf54f347922c627fe519a10e66d6401e", "fusion_lat": 0.0, "fusion_lon": 0.0, "rental_uris": {"android": "https://dc.lft.to/lastmile_qr_scan", "ios": "https://dc.lft.to/lastmile_qr_scan"}, "is_reserved": 0, "is_disabled": 0, "type": "electric_scooter", "bike_id": "bf54f347922c627fe519a10e66d6401e"}, {"lon": -77.04864033333334, "lat": 38.91331483333333, "name": "2b37b68633dc78f5f9e4623bad457393", "fusion_lat": 0.0, "fusion_lon": 0.0, "rental_uris": {"android": "https://dc.lft.to/lastmile_qr_scan", "ios": "https://dc.lft.to/lastmile_qr_scan"}, "is_reserved": 0, "is_disabled": 0, "type": "electric_scooter", "bike_id": "2b37b68633dc78f5f9e4623bad457393"}, {"lon": -77.0916055, "lat": 38.967602666666664, "name": "8eb57a7a18fded40661dda367dff6f89", "fusion_lat": 0.0, "fusion_lon": 0.0, "rental_uris": {"android": "https://dc.lft.to/lastmile_qr_scan", "ios": "https://dc.lft.to/lastmile_qr_scan"}, "is_reserved": 0, "is_disabled": 0, "type": "electric_bike", "bike_id": "8eb57a7a18fded40661dda367dff6f89"}, {"lon": -77.03446316666667, "lat": 38.908052166666664, "name": "7eb62e45dd9426199193a4427e59115f", "fusion_lat": 0.0, "fusion_lon": 0.0, "rental_uris": {"android": "https://dc.lft.to/lastmile_qr_scan", "ios": "https://dc.lft.to/lastmile_qr_scan"}, "is_reserved": 0, "is_disabled": 0, "type": "electric_scooter", "bike_id": "7eb62e45dd9426199193a4427e59115f"}, {"lon": -77.01334066666666, "lat": 38.96611383333333, "name": "b115b6117f33e19888bb4d514b43c783", "fusion_lat": 0.0, "fusion_lon": 0.0, "rental_uris": {"android": "https://dc.lft.to/lastmile_qr_scan", "ios": "https://dc.lft.to/lastmile_qr_scan"}, "is_reserved": 0, "is_disabled": 0, "type": "electric_scooter", "bike_id": "b115b6117f33e19888bb4d514b43c783"}, {"lon": -77.02152066666666, "lat": 38.924961333333336, "name": "8072b62b0dde7b903250779fcf6e34c8", "fusion_lat": 0.0, "fusion_lon": 0.0, "rental_uris": {"android": "https://dc.lft.to/lastmile_qr_scan", "ios": "https://dc.lft.to/lastmile_qr_scan"}, "is_reserved": 0, "is_disabled": 0, "type": "electric_scooter", "bike_id": "8072b62b0dde7b903250779fcf6e34c8"}, {"lon": -77.023195, "lat": 38.88343916666667, "name": "6d5d7ab18f689ee461cb35d1639b0a26", "fusion_lat": 0.0, "fusion_lon": 0.0, "rental_uris": {"android": "https://dc.lft.to/lastmile_qr_scan", "ios": "https://dc.lft.to/lastmile_qr_scan"}, "is_reserved": 0, "is_disabled": 0, "type": "electric_scooter", "bike_id": "6d5d7ab18f689ee461cb35d1639b0a26"}, {"lon": -77.04407416666666, "lat": 38.874237666666666, "name": "894be1b5761a97bf1a189952ab4b261f", "fusion_lat": 0.0, "fusion_lon": 0.0, "rental_uris": {"android": "https://dc.lft.to/lastmile_qr_scan", "ios": "https://dc.lft.to/lastmile_qr_scan"}, "is_reserved": 0, "is_disabled": 0, "type": "electric_scooter", "bike_id": "894be1b5761a97bf1a189952ab4b261f"}, {"lon": -77.02609366666667, "lat": 38.962022833333336, "name": "5cf39de28718dca815ab6274cf5e3d37", "fusion_lat": 0.0, "fusion_lon": 0.0, "rental_uris": {"android": "https://dc.lft.to/lastmile_qr_scan", "ios": "https://dc.lft.to/lastmile_qr_scan"}, "is_reserved": 0, "is_disabled": 0, "type": "electric_bike", "bike_id": "5cf39de28718dca815ab6274cf5e3d37"}, {"lon": -77.03851933333333, "lat": 38.91179733333333, "name": "976103ddebc640e6e45978c8addbfb84", "fusion_lat": 0.0, "fusion_lon": 0.0, "rental_uris": {"android": "https://dc.lft.to/lastmile_qr_scan", "ios": "https://dc.lft.to/lastmile_qr_scan"}, "is_reserved": 0, "is_disabled": 0, "type": "electric_scooter", "bike_id": "976103ddebc640e6e45978c8addbfb84"}, {"lon": -77.0415165, "lat": 38.90729266666666, "name": "d8171d096557ffb894cb1c8e457bf257", "fusion_lat": 0.0, "fusion_lon": 0.0, "rental_uris": {"android": "https://dc.lft.to/lastmile_qr_scan", "ios": "https://dc.lft.to/lastmile_qr_scan"}, "is_reserved": 0, "is_disabled": 0, "type": "electric_scooter", "bike_id": "d8171d096557ffb894cb1c8e457bf257"}, {"lon": -77.03342983333333, "lat": 38.899529666666666, "name": "772cc0669b7d1f2a464a016f9703a0ce", "fusion_lat": 0.0, "fusion_lon": 0.0, "rental_uris": {"android": "https://dc.lft.to/lastmile_qr_scan", "ios": "https://dc.lft.to/lastmile_qr_scan"}, "is_reserved": 0, "is_disabled": 0, "type": "electric_scooter", "bike_id": "772cc0669b7d1f2a464a016f9703a0ce"}, {"lon": -77.026062, "lat": 38.900472, "name": "9ebbfe51102e3d02b579268a4ee8bd91", "fusion_lat": 0.0, "fusion_lon": 0.0, "rental_uris": {"android": "https://dc.lft.to/lastmile_qr_scan", "ios": "https://dc.lft.to/lastmile_qr_scan"}, "is_reserved": 0, "is_disabled": 0, "type": "electric_scooter", "bike_id": "9ebbfe51102e3d02b579268a4ee8bd91"}, {"lon": -77.03460683333333, "lat": 38.908723333333334, "name": "21a0278b905969ee2d4d384ae090dd31", "fusion_lat": 0.0, "fusion_lon": 0.0, "rental_uris": {"android": "https://dc.lft.to/lastmile_qr_scan", "ios": "https://dc.lft.to/lastmile_qr_scan"}, "is_reserved": 0, "is_disabled": 0, "type": "electric_scooter", "bike_id": "21a0278b905969ee2d4d384ae090dd31"}, {"lon": -77.073653, "lat": 38.943272666666665, "name": "bd77e05eabcdea8d79dd1656f003ace8", "fusion_lat": 0.0, "fusion_lon": 0.0, "rental_uris": {"android": "https://dc.lft.to/lastmile_qr_scan", "ios": "https://dc.lft.to/lastmile_qr_scan"}, "is_reserved": 0, "is_disabled": 0, "type": "electric_scooter", "bike_id": "bd77e05eabcdea8d79dd1656f003ace8"}, {"lon": -77.00862483333333, "lat": 38.82732216666667, "name": "5878c6acb54a025552307e0f4af5e1c9", "fusion_lat": 0.0, "fusion_lon": 0.0, "rental_uris": {"android": "https://dc.lft.to/lastmile_qr_scan", "ios": "https://dc.lft.to/lastmile_qr_scan"}, "is_reserved": 0, "is_disabled": 0, "type": "electric_bike", "bike_id": "5878c6acb54a025552307e0f4af5e1c9"}, {"lon": -77.0034905, "lat": 38.89943866666667, "name": "63336e525e2b1773afcee150795fadfb", "fusion_lat": 0.0, "fusion_lon": 0.0, "rental_uris": {"android": "https://dc.lft.to/lastmile_qr_scan", "ios": "https://dc.lft.to/lastmile_qr_scan"}, "is_reserved": 0, "is_disabled": 0, "type": "electric_scooter", "bike_id": "63336e525e2b1773afcee150795fadfb"}, {"lon": -77.02481266666666, "lat": 38.9387905, "name": "16bca29af66593b5e3dfdd61029799da", "fusion_lat": 0.0, "fusion_lon": 0.0, "rental_uris": {"android": "https://dc.lft.to/lastmile_qr_scan", "ios": "https://dc.lft.to/lastmile_qr_scan"}, "is_reserved": 0, "is_disabled": 0, "type": "electric_scooter", "bike_id": "16bca29af66593b5e3dfdd61029799da"}, {"lon": -77.03666083333333, "lat": 38.9083385, "name": "24ab677e001d8c9ba296d9d187fa9eb2", "fusion_lat": 0.0, "fusion_lon": 0.0, "rental_uris": {"android": "https://dc.lft.to/lastmile_qr_scan", "ios": "https://dc.lft.to/lastmile_qr_scan"}, "is_reserved": 0, "is_disabled": 0, "type": "electric_scooter", "bike_id": "24ab677e001d8c9ba296d9d187fa9eb2"}, {"lon": -77.072687, "lat": 38.93479133333334, "name": "6e108d731984a4751e0be174a6cddfb5", "fusion_lat": 0.0, "fusion_lon": 0.0, "rental_uris": {"android": "https://dc.lft.to/lastmile_qr_scan", "ios": "https://dc.lft.to/lastmile_qr_scan"}, "is_reserved": 0, "is_disabled": 0, "type": "electric_scooter", "bike_id": "6e108d731984a4751e0be174a6cddfb5"}, {"lon": -77.05316666666667, "lat": 38.90268366666667, "name": "71d531560bfc112e721cb86efc4ca7b7", "fusion_lat": 0.0, "fusion_lon": 0.0, "rental_uris": {"android": "https://dc.lft.to/lastmile_qr_scan", "ios": "https://dc.lft.to/lastmile_qr_scan"}, "is_reserved": 0, "is_disabled": 0, "type": "electric_scooter", "bike_id": "71d531560bfc112e721cb86efc4ca7b7"}, {"lon": -76.98565316666667, "lat": 38.855819333333336, "name": "646a8a268500877df01e0dc98b263081", "fusion_lat": 0.0, "fusion_lon": 0.0, "rental_uris": {"android": "https://dc.lft.to/lastmile_qr_scan", "ios": "https://dc.lft.to/lastmile_qr_scan"}, "is_reserved": 0, "is_disabled": 0, "type": "electric_scooter", "bike_id": "646a8a268500877df01e0dc98b263081"}, {"lon": -77.0320895, "lat": 38.9171855, "name": "8e2842b48c1e6e57f0444f2aa04db0e0", "fusion_lat": 0.0, "fusion_lon": 0.0, "rental_uris": {"android": "https://dc.lft.to/lastmile_qr_scan", "ios": "https://dc.lft.to/lastmile_qr_scan"}, "is_reserved": 0, "is_disabled": 0, "type": "electric_scooter", "bike_id": "8e2842b48c1e6e57f0444f2aa04db0e0"}, {"lon": -77.02412433333333, "lat": 38.92071833333333, "name": "40a9def7bb881533939f7a0e40b025bc", "fusion_lat": 0.0, "fusion_lon": 0.0, "rental_uris": {"android": "https://dc.lft.to/lastmile_qr_scan", "ios": "https://dc.lft.to/lastmile_qr_scan"}, "is_reserved": 0, "is_disabled": 0, "type": "electric_scooter", "bike_id": "40a9def7bb881533939f7a0e40b025bc"}, {"lon": -77.03636816666666, "lat": 38.9162765, "name": "e8ac0adabcbc770f7285c39935b6a596", "fusion_lat": 0.0, "fusion_lon": 0.0, "rental_uris": {"android": "https://dc.lft.to/lastmile_qr_scan", "ios": "https://dc.lft.to/lastmile_qr_scan"}, "is_reserved": 0, "is_disabled": 0, "type": "electric_scooter", "bike_id": "e8ac0adabcbc770f7285c39935b6a596"}, {"lon": -76.98369066666666, "lat": 38.864779666666664, "name": "9a685a31c702ea83d508ee9250f78c34", "fusion_lat": 0.0, "fusion_lon": 0.0, "rental_uris": {"android": "https://dc.lft.to/lastmile_qr_scan", "ios": "https://dc.lft.to/lastmile_qr_scan"}, "is_reserved": 0, "is_disabled": 0, "type": "electric_scooter", "bike_id": "9a685a31c702ea83d508ee9250f78c34"}, {"lon": -77.00333783333333, "lat": 38.893554, "name": "6ce535eecf62653cea4cfab207c9c2f4", "fusion_lat": 0.0, "fusion_lon": 0.0, "rental_uris": {"android": "https://dc.lft.to/lastmile_qr_scan", "ios": "https://dc.lft.to/lastmile_qr_scan"}, "is_reserved": 0, "is_disabled": 0, "type": "electric_scooter", "bike_id": "6ce535eecf62653cea4cfab207c9c2f4"}, {"lon": -77.114253, "lat": 38.852448833333334, "name": "9b271bfc3112fdc81579d54ec3dd510a", "fusion_lat": 0.0, "fusion_lon": 0.0, "rental_uris": {"android": "https://dc.lft.to/lastmile_qr_scan", "ios": "https://dc.lft.to/lastmile_qr_scan"}, "is_reserved": 0, "is_disabled": 0, "type": "electric_bike", "bike_id": "9b271bfc3112fdc81579d54ec3dd510a"}, {"lon": -76.99731833333334, "lat": 38.9079305, "name": "fab0d97964b8dfe54ead929ff9425aeb", "fusion_lat": 0.0, "fusion_lon": 0.0, "rental_uris": {"android": "https://dc.lft.to/lastmile_qr_scan", "ios": "https://dc.lft.to/lastmile_qr_scan"}, "is_reserved": 0, "is_disabled": 0, "type": "electric_scooter", "bike_id": "fab0d97964b8dfe54ead929ff9425aeb"}, {"lon": -76.99768633333333, "lat": 38.92281366666667, "name": "e23df2b73ca2a1f17742c104527b6775", "fusion_lat": 0.0, "fusion_lon": 0.0, "rental_uris": {"android": "https://dc.lft.to/lastmile_qr_scan", "ios": "https://dc.lft.to/lastmile_qr_scan"}, "is_reserved": 0, "is_disabled": 0, "type": "electric_scooter", "bike_id": "e23df2b73ca2a1f17742c104527b6775"}, {"lon": -77.033839, "lat": 38.9215905, "name": "ec0ce3ecd7b71952b282040845a48d79", "fusion_lat": 0.0, "fusion_lon": 0.0, "rental_uris": {"android": "https://dc.lft.to/lastmile_qr_scan", "ios": "https://dc.lft.to/lastmile_qr_scan"}, "is_reserved": 0, "is_disabled": 0, "type": "electric_scooter", "bike_id": "ec0ce3ecd7b71952b282040845a48d79"}, {"lon": -76.97089933333334, "lat": 38.878778, "name": "394b7e187f483405c436de8cd10449b7", "fusion_lat": 0.0, "fusion_lon": 0.0, "rental_uris": {"android": "https://dc.lft.to/lastmile_qr_scan", "ios": "https://dc.lft.to/lastmile_qr_scan"}, "is_reserved": 0, "is_disabled": 0, "type": "electric_scooter", "bike_id": "394b7e187f483405c436de8cd10449b7"}, {"lon": -77.04476416666667, "lat": 38.911056333333335, "name": "20ac7107af39507e1a4baaeef2cf6372", "fusion_lat": 0.0, "fusion_lon": 0.0, "rental_uris": {"android": "https://dc.lft.to/lastmile_qr_scan", "ios": "https://dc.lft.to/lastmile_qr_scan"}, "is_reserved": 0, "is_disabled": 0, "type": "electric_scooter", "bike_id": "20ac7107af39507e1a4baaeef2cf6372"}, {"lon": -77.038331, "lat": 38.91188066666667, "name": "d8c8eb17a6ab365f3a2a289c94a71c6a", "fusion_lat": 0.0, "fusion_lon": 0.0, "rental_uris": {"android": "https://dc.lft.to/lastmile_qr_scan", "ios": "https://dc.lft.to/lastmile_qr_scan"}, "is_reserved": 0, "is_disabled": 0, "type": "electric_scooter", "bike_id": "d8c8eb17a6ab365f3a2a289c94a71c6a"}, {"lon": -77.03375383333334, "lat": 38.90392816666667, "name": "81cbf7b19b918c371d8f2c28b16dc387", "fusion_lat": 0.0, "fusion_lon": 0.0, "rental_uris": {"android": "https://dc.lft.to/lastmile_qr_scan", "ios": "https://dc.lft.to/lastmile_qr_scan"}, "is_reserved": 0, "is_disabled": 0, "type": "electric_scooter", "bike_id": "81cbf7b19b918c371d8f2c28b16dc387"}, {"lon": -77.040255, "lat": 38.92416016666667, "name": "ade23b70bcba344d9aefab60e1c3f3d4", "fusion_lat": 0.0, "fusion_lon": 0.0, "rental_uris": {"android": "https://dc.lft.to/lastmile_qr_scan", "ios": "https://dc.lft.to/lastmile_qr_scan"}, "is_reserved": 0, "is_disabled": 0, "type": "electric_scooter", "bike_id": "ade23b70bcba344d9aefab60e1c3f3d4"}, {"lon": -77.01522, "lat": 38.885246, "name": "a18c317c8f8146adf395e5c694e13b72", "fusion_lat": 0.0, "fusion_lon": 0.0, "rental_uris": {"android": "https://dc.lft.to/lastmile_qr_scan", "ios": "https://dc.lft.to/lastmile_qr_scan"}, "is_reserved": 0, "is_disabled": 0, "type": "electric_bike", "bike_id": "a18c317c8f8146adf395e5c694e13b72"}, {"lon": -77.043456, "lat": 38.905711, "name": "6b53209c940110e9f3397144cfe6448a", "fusion_lat": 0.0, "fusion_lon": 0.0, "rental_uris": {"android": "https://dc.lft.to/lastmile_qr_scan", "ios": "https://dc.lft.to/lastmile_qr_scan"}, "is_reserved": 0, "is_disabled": 0, "type": "electric_scooter", "bike_id": "6b53209c940110e9f3397144cfe6448a"}, {"lon": -77.0281765, "lat": 38.91658666666667, "name": "6a2cfa67d4fde2dee67673038399b7ef", "fusion_lat": 0.0, "fusion_lon": 0.0, "rental_uris": {"android": "https://dc.lft.to/lastmile_qr_scan", "ios": "https://dc.lft.to/lastmile_qr_scan"}, "is_reserved": 0, "is_disabled": 0, "type": "electric_scooter", "bike_id": "6a2cfa67d4fde2dee67673038399b7ef"}, {"lon": -77.03299083333333, "lat": 38.9034855, "name": "d691436d754a36bcf2c491d6b3598530", "fusion_lat": 0.0, "fusion_lon": 0.0, "rental_uris": {"android": "https://dc.lft.to/lastmile_qr_scan", "ios": "https://dc.lft.to/lastmile_qr_scan"}, "is_reserved": 0, "is_disabled": 0, "type": "electric_scooter", "bike_id": "d691436d754a36bcf2c491d6b3598530"}, {"lon": -77.04030716666666, "lat": 38.92374366666667, "name": "a279e80e94896198e9d2a1e36f812186", "fusion_lat": 0.0, "fusion_lon": 0.0, "rental_uris": {"android": "https://dc.lft.to/lastmile_qr_scan", "ios": "https://dc.lft.to/lastmile_qr_scan"}, "is_reserved": 0, "is_disabled": 0, "type": "electric_scooter", "bike_id": "a279e80e94896198e9d2a1e36f812186"}, {"lon": -77.022111, "lat": 38.887631, "name": "0e42d467a62d1e264485d907372cc974", "fusion_lat": 0.0, "fusion_lon": 0.0, "rental_uris": {"android": "https://dc.lft.to/lastmile_qr_scan", "ios": "https://dc.lft.to/lastmile_qr_scan"}, "is_reserved": 0, "is_disabled": 0, "type": "electric_scooter", "bike_id": "0e42d467a62d1e264485d907372cc974"}, {"lon": -77.00573116666666, "lat": 38.905697333333336, "name": "d6dd0aef68add30be6de4c09748c5d15", "fusion_lat": 0.0, "fusion_lon": 0.0, "rental_uris": {"android": "https://dc.lft.to/lastmile_qr_scan", "ios": "https://dc.lft.to/lastmile_qr_scan"}, "is_reserved": 0, "is_disabled": 0, "type": "electric_scooter", "bike_id": "d6dd0aef68add30be6de4c09748c5d15"}, {"lon": -76.951847, "lat": 38.89133916666667, "name": "1dd17c5a123e7ca8c4ce603096b013fa", "fusion_lat": 0.0, "fusion_lon": 0.0, "rental_uris": {"android": "https://dc.lft.to/lastmile_qr_scan", "ios": "https://dc.lft.to/lastmile_qr_scan"}, "is_reserved": 0, "is_disabled": 0, "type": "electric_scooter", "bike_id": "1dd17c5a123e7ca8c4ce603096b013fa"}, {"lon": -77.01637666666667, "lat": 38.929393166666664, "name": "fc65a10981d93fe914e0f9c1532383b3", "fusion_lat": 0.0, "fusion_lon": 0.0, "rental_uris": {"android": "https://dc.lft.to/lastmile_qr_scan", "ios": "https://dc.lft.to/lastmile_qr_scan"}, "is_reserved": 0, "is_disabled": 0, "type": "electric_scooter", "bike_id": "fc65a10981d93fe914e0f9c1532383b3"}, {"lon": -77.10329833333333, "lat": 38.965021666666665, "name": "20114873105dcd20f8115fc2fa46bcfb", "fusion_lat": 0.0, "fusion_lon": 0.0, "rental_uris": {"android": "https://dc.lft.to/lastmile_qr_scan", "ios": "https://dc.lft.to/lastmile_qr_scan"}, "is_reserved": 0, "is_disabled": 0, "type": "electric_bike", "bike_id": "20114873105dcd20f8115fc2fa46bcfb"}, {"lon": -76.94915, "lat": 38.895603, "name": "5c898c6c75d82ce64b02e183e1c50bd1", "fusion_lat": 0.0, "fusion_lon": 0.0, "rental_uris": {"android": "https://dc.lft.to/lastmile_qr_scan", "ios": "https://dc.lft.to/lastmile_qr_scan"}, "is_reserved": 0, "is_disabled": 0, "type": "electric_scooter", "bike_id": "5c898c6c75d82ce64b02e183e1c50bd1"}, {"lon": -77.01253283333334, "lat": 38.87628566666667, "name": "0fa7bd16e6ee32527b1cc55055707515", "fusion_lat": 0.0, "fusion_lon": 0.0, "rental_uris": {"android": "https://dc.lft.to/lastmile_qr_scan", "ios": "https://dc.lft.to/lastmile_qr_scan"}, "is_reserved": 0, "is_disabled": 0, "type": "electric_scooter", "bike_id": "0fa7bd16e6ee32527b1cc55055707515"}, {"lon": -77.02415666666667, "lat": 38.926109, "name": "ea0c90557f2d1084dd7d0dac767fe11c", "fusion_lat": 0.0, "fusion_lon": 0.0, "rental_uris": {"android": "https://dc.lft.to/lastmile_qr_scan", "ios": "https://dc.lft.to/lastmile_qr_scan"}, "is_reserved": 0, "is_disabled": 0, "type": "electric_scooter", "bike_id": "ea0c90557f2d1084dd7d0dac767fe11c"}, {"lon": -77.02414583333334, "lat": 38.92076216666667, "name": "dc01dfb9cac4164ada6ffb400375d59b", "fusion_lat": 0.0, "fusion_lon": 0.0, "rental_uris": {"android": "https://dc.lft.to/lastmile_qr_scan", "ios": "https://dc.lft.to/lastmile_qr_scan"}, "is_reserved": 0, "is_disabled": 0, "type": "electric_scooter", "bike_id": "dc01dfb9cac4164ada6ffb400375d59b"}, {"lon": -77.00158716666667, "lat": 38.90702816666666, "name": "0ef2d7568610fde9084a1132da9c73a0", "fusion_lat": 0.0, "fusion_lon": 0.0, "rental_uris": {"android": "https://dc.lft.to/lastmile_qr_scan", "ios": "https://dc.lft.to/lastmile_qr_scan"}, "is_reserved": 0, "is_disabled": 0, "type": "electric_scooter", "bike_id": "0ef2d7568610fde9084a1132da9c73a0"}, {"lon": -77.020511, "lat": 38.9155785, "name": "b074a3ec23b701314aa1916b5a5cae69", "fusion_lat": 0.0, "fusion_lon": 0.0, "rental_uris": {"android": "https://dc.lft.to/lastmile_qr_scan", "ios": "https://dc.lft.to/lastmile_qr_scan"}, "is_reserved": 0, "is_disabled": 0, "type": "electric_scooter", "bike_id": "b074a3ec23b701314aa1916b5a5cae69"}, {"lon": -77.01589583333333, "lat": 38.95766316666667, "name": "a41baebab47919498658889eef5234c3", "fusion_lat": 0.0, "fusion_lon": 0.0, "rental_uris": {"android": "https://dc.lft.to/lastmile_qr_scan", "ios": "https://dc.lft.to/lastmile_qr_scan"}, "is_reserved": 0, "is_disabled": 0, "type": "electric_scooter", "bike_id": "a41baebab47919498658889eef5234c3"}, {"lon": -77.02373566666667, "lat": 38.90717333333333, "name": "4a657d56697be7b6700c1983fc0e4646", "fusion_lat": 0.0, "fusion_lon": 0.0, "rental_uris": {"android": "https://dc.lft.to/lastmile_qr_scan", "ios": "https://dc.lft.to/lastmile_qr_scan"}, "is_reserved": 0, "is_disabled": 0, "type": "electric_scooter", "bike_id": "4a657d56697be7b6700c1983fc0e4646"},