{"data": {"bikes": [{"is_disabled": 0, "fusion_lon": 0.0, "fusion_lat": 0.0, "lat": 38.89835983333333, "type": "electric_scooter", "lon": -77.02912266666667, "bike_id": "efe4bf4731d82b07427808d23a9dd6e2", "rental_uris": {"android": "https://dc.lft.to/lastmile_qr_scan", "ios": "https://dc.lft.to/lastmile_qr_scan"}, "name": "efe4bf4731d82b07427808d23a9dd6e2", "is_reserved": 0}, {"is_disabled": 0, "fusion_lon": 0.0, "fusion_lat": 0.0, "lat": 38.91111166666666, "type": "electric_scooter", "lon": -77.06522133333333, "bike_id": "6a4bf2980ce7aa9d932aba88f0cf60d7", "rental_uris": {"android": "https://dc.lft.to/lastmile_qr_scan", "ios": "https://dc.lft.to/lastmile_qr_scan"}, "name": "6a4bf2980ce7aa9d932aba88f0cf60d7", "is_reserved": 0}, {"is_disabled": 0, "fusion_lon": 0.0, "fusion_lat": 0.0, "lat": 38.89898133333333, "type": "electric_scooter", "lon": -77.0332225, "bike_id": "86da4091e2fa7678cd1a4ef776d6b365", "rental_uris": {"android": "https://dc.lft.to/lastmile_qr_scan", "ios": "https://dc.lft.to/lastmile_qr_scan"}, "name": "86da4091e2fa7678cd1a4ef776d6b365", "is_reserved": 0}, {"is_disabled": 0, "fusion_lon": 0.0, "fusion_lat": 0.0, "lat": 39.02494016666667, "type": "electric_bike", "lon": -77.12565933333333, "bike_id": "459acc5042a9b511762b400185961f51", "rental_uris": {"android": "https://dc.lft.to/lastmile_qr_scan", "ios": "https://dc.lft.to/lastmile_qr_scan"}, "name": "459acc5042a9b511762b400185961f51", "is_reserved": 0}, {"is_disabled": 0, "fusion_lon": 0.0, "fusion_lat": 0.0, "lat": 38.93054866666667, "type": "electric_scooter", "lon": -77.029659, "bike_id": "30e22bda4ec1ddc94ef79082ee062866", "rental_uris": {"android": "https://dc.lft.to/lastmile_qr_scan", "ios": "https://dc.lft.to/lastmile_qr_scan"}, "name": "30e22bda4ec1ddc94ef79082ee062866", "is_reserved": 0}, {"is_disabled": 0, "fusion_lon": 0.0, "fusion_lat": 0.0, "lat": 38.930756333333335, "type": "electric_scooter", "lon": -77.03629766666667, "bike_id": "f0509a9a605a5079b9c595e5ae6a5f20", "rental_uris": {"android": "https://dc.lft.to/lastmile_qr_scan", "ios": "https://dc.lft.to/lastmile_qr_scan"}, "name": "f0509a9a605a5079b9c595e5ae6a5f20", "is_reserved": 0}, {"is_disabled": 0, "fusion_lon": 0.0, "fusion_lat": 0.0, "lat": 38.943045833333336, "type": "electric_scooter", "lon": -77.061565, "bike_id": "0cba6bc75bee50c9abd17558e1376db3", "rental_uris": {"android": "https://dc.lft.to/lastmile_qr_scan", "ios": "https://dc.lft.to/lastmile_qr_scan"}, "name": "0cba6bc75bee50c9abd17558e1376db3", "is_reserved": 0}, {"is_disabled": 0, "fusion_lon": 0.0, "fusion_lat": 0.0, "lat": 38.92634266666666, "type": "electric_scooter", "lon": -77.03631833333333, "bike_id": "0be012d456376c6d1388c90126cd4b0c", "rental_uris": {"android": "https://dc.lft.to/lastmile_qr_scan", "ios": "https://dc.lft.to/lastmile_qr_scan"}, "name": "0be012d456376c6d1388c90126cd4b0c", "is_reserved": 0}, {"is_disabled": 0, "fusion_lon": 0.0, "fusion_lat": 0.0, "lat": 38.900544833333335, "type": "electric_scooter", "lon": -77.00754733333333, "bike_id": "cd56ce360e5e534c2aa2e872794b70cd", "rental_uris": {"android": "https://dc.lft.to/lastmile_qr_scan", "ios": "https://dc.lft.to/lastmile_qr_scan"}, "name": "cd56ce360e5e534c2aa2e872794b70cd", "is_reserved": 0}, {"is_disabled": 0, "fusion_lon": 0.0, "fusion_lat": 0.0, "lat": 38.877750666666664, "type": "electric_scooter", "lon": -77.01434766666667, "bike_id": "744372e410cbae4f54a9b6400a6a565d", "rental_uris": {"android": "https://dc.lft.to/lastmile_qr_scan", "ios": "https://dc.lft.to/lastmile_qr_scan"}, "name": "744372e410cbae4f54a9b6400a6a565d", "is_reserved": 0}, {"is_disabled": 0, "fusion_lon": 0.0, "fusion_lat": 0.0, "lat": 38.911834666666664, "type": "electric_scooter", "lon": -77.04181416666667, "bike_id": "b4aa11f99dda8a40ce9555ce4d64b6ac", "rental_uris": {"android": "https://dc.lft.to/lastmile_qr_scan", "ios": "https://dc.lft.to/lastmile_qr_scan"}, "name": "b4aa11f99dda8a40ce9555ce4d64b6ac", "is_reserved": 0}, {"is_disabled": 0, "fusion_lon": 0.0, "fusion_lat": 0.0, "lat": 38.93700483333333, "type": "electric_scooter", "lon": -77.06099233333333, "bike_id": "b675af3ad55bf89c5548715a34a47518", "rental_uris": {"android": "https://dc.lft.to/lastmile_qr_scan", "ios": "https://dc.lft.to/lastmile_qr_scan"}, "name": "b675af3ad55bf89c5548715a34a47518", "is_reserved": 0}, {"is_disabled": 0, "fusion_lon": 0.0, "fusion_lat": 0.0, "lat": 38.98130866666666, "type": "electric_bike", "lon": -77.007618, "bike_id": "e31e69fd07dbca98d8086e2b3f629a56", "rental_uris": {"android": "https://dc.lft.to/lastmile_qr_scan", "ios": "https://dc.lft.to/lastmile_qr_scan"}, "name": "e31e69fd07dbca98d8086e2b3f629a56", "is_reserved": 0}, {"is_disabled": 0, "fusion_lon": 0.0, "fusion_lat": 0.0, "lat": 38.906215, "type": "electric_scooter", "lon": -77.02413183333333, "bike_id": "36a0be718cefbc06ac7aeafa4d6302a0", "rental_uris": {"android": "https://dc.lft.to/lastmile_qr_scan", "ios": "https://dc.lft.to/lastmile_qr_scan"}, "name": "36a0be718cefbc06ac7aeafa4d6302a0", "is_reserved": 0}, {"is_disabled": 0, "fusion_lon": 0.0, "fusion_lat": 0.0, "lat": 38.90585633333333, "type": "electric_scooter", "lon": -77.0512765, "bike_id": "c5e4cbef53165364709df1b94072282d", "rental_uris": {"android": "https://dc.lft.to/lastmile_qr_scan", "ios": "https://dc.lft.to/lastmile_qr_scan"}, "name": "c5e4cbef53165364709df1b94072282d", "is_reserved": 0}, {"is_disabled": 0, "fusion_lon": 0.0, "fusion_lat": 0.0, "lat": 38.937182666666665, "type": "electric_scooter", "lon": -77.02413183333333, "bike_id": "33a58bdb5c87bce7f9e79a3d4448312f", "rental_uris": {"android": "https://dc.lft.to/lastmile_qr_scan", "ios": "https://dc.lft.to/lastmile_qr_scan"}, "name": "33a58bdb5c87bce7f9e79a3d4448312f", "is_reserved": 0}, {"is_disabled": 0, "fusion_lon": 0.0, "fusion_lat": 0.0, "lat": 38.89871616666667, "type": "electric_scooter", "lon": -76.93182016666667, "bike_id": "dcac89b70894e02043b01ebe64fbaf6a", "rental_uris": {"android": "https://dc.lft.to/lastmile_qr_scan", "ios": "https://dc.lft.to/lastmile_qr_scan"}, "name": "dcac89b70894e02043b01ebe64fbaf6a", "is_reserved": 0}, {"is_disabled": 0, "fusion_lon": 0.0, "fusion_lat": 0.0, "lat": 38.937068333333336, "type": "electric_scooter", "lon": -77.06100933333333, "bike_id": "f1a00d3ca678cd11be12d7adb13334bc", "rental_uris": {"android": "https://dc.lft.to/lastmile_qr_scan", "ios": "https://dc.lft.to/lastmile_qr_scan"}, "name": "f1a00d3ca678cd11be12d7adb13334bc", "is_reserved": 0}, {"is_disabled": 0, "fusion_lon": 0.0, "fusion_lat": 0.0, "lat": 38.911877, "type": "electric_scooter", "lon": -77.04146116666666, "bike_id": "1e016d35196963f3b276beac3adbc364", "rental_uris": {"android": "https://dc.lft.to/lastmile_qr_scan", "ios": "https://dc.lft.to/lastmile_qr_scan"}, "name": "1e016d35196963f3b276beac3adbc364", "is_reserved": 0}, {"is_disabled": 0, "fusion_lon": 0.0, "fusion_lat": 0.0, "lat": 38.8380865, "type": "electric_scooter", "lon": -77.004308, "bike_id": "fe8e2eaa32efc0456ae72f6a3fe8850a", "rental_uris": {"android": "https://dc.lft.to/lastmile_qr_scan", "ios": "https://dc.lft.to/lastmile_qr_scan"}, "name": "fe8e2eaa32efc0456ae72f6a3fe8850a", "is_reserved": 0}, {"is_disabled": 0, "fusion_lon": 0.0, "fusion_lat": 0.0, "lat": 38.898881, "type": "electric_scooter", "lon": -77.03273983333334, "bike_id": "c2bc5855ff6aad14ab0b90c69dda9b9c", "rental_uris": {"android": "https://dc.lft.to/lastmile_qr_scan", "ios": "https://dc.lft.to/lastmile_qr_scan"}, "name": "c2bc5855ff6aad14ab0b90c69dda9b9c", "is_reserved": 0}, {"is_disabled": 0, "fusion_lon": 0.0, "fusion_lat": 0.0, "lat": 38.893508, "type": "electric_scooter", "lon": -76.984683, "bike_id": "0a8e180e10532e43eece3df0a31c332f", "rental_uris": {"android": "https://dc.lft.to/lastmile_qr_scan", "ios": "https://dc.lft.to/lastmile_qr_scan"}, "name": "0a8e180e10532e43eece3df0a31c332f", "is_reserved": 0}, {"is_disabled": 0, "fusion_lon": 0.0, "fusion_lat": 0.0, "lat": 38.88732483333333, "type": "electric_scooter", "lon": -77.017418, "bike_id": "4e9768e7a035dc498f09f5d8143981a8", "rental_uris": {"android": "https://dc.lft.to/lastmile_qr_scan", "ios": "https://dc.lft.to/lastmile_qr_scan"}, "name": "4e9768e7a035dc498f09f5d8143981a8", "is_reserved": 0}, {"is_disabled": 0, "fusion_lon": 0.0, "fusion_lat": 0.0, "lat": 38.924679, "type": "electric_scooter", "lon": -77.02816783333333, "bike_id": "cb152f5c91c8b1d0c9e03caad9f76487", "rental_uris": {"android": "https://dc.lft.to/lastmile_qr_scan", "ios": "https://dc.lft.to/lastmile_qr_scan"}, "name": "cb152f5c91c8b1d0c9e03caad9f76487", "is_reserved": 0}, {"is_disabled": 0, "fusion_lon": 0.0, "fusion_lat": 0.0, "lat": 38.88015433333333, "type": "electric_scooter", "lon": -76.98235566666666, "bike_id": "870acf12d727672118f362eb4b8a707a", "rental_uris": {"android": "https://dc.lft.to/lastmile_qr_scan", "ios": "https://dc.lft.to/lastmile_qr_scan"}, "name": "870acf12d727672118f362eb4b8a707a", "is_reserved": 0}, {"is_disabled": 0, "fusion_lon": 0.0, "fusion_lat": 0.0, "lat": 38.90137633333333, "type": "electric_scooter", "lon": -77.039896, "bike_id": "e3a69311e4e7acc5d2b7c7b30f61e822", "rental_uris": {"android": "https://dc.lft.to/lastmile_qr_scan", "ios": "https://dc.lft.to/lastmile_qr_scan"}, "name": "e3a69311e4e7acc5d2b7c7b30f61e822", "is_reserved": 0}, {"is_disabled": 0, "fusion_lon": 0.0, "fusion_lat": 0.0, "lat": 38.904976833333336, "type": "electric_scooter", "lon": -77.03432866666667, "bike_id": "11559df9fd45926585ffa476cea37fbf", "rental_uris": {"android": "https://dc.lft.to/lastmile_qr_scan", "ios": "https://dc.lft.to/lastmile_qr_scan"}, "name": "11559df9fd45926585ffa476cea37fbf", "is_reserved": 0}, {"is_disabled": 0, "fusion_lon": 0.0, "fusion_lat": 0.0, "lat": 38.9063135, "type": "electric_scooter", "lon": -77.03421466666667, "bike_id": "e264b27ae2f396eb9aec1801feead908", "rental_uris": {"android": "https://dc.lft.to/lastmile_qr_scan", "ios": "https://dc.lft.to/lastmile_qr_scan"}, "name": "e264b27ae2f396eb9aec1801feead908", "is_reserved": 0}, {"is_disabled": 0, "fusion_lon": 0.0, "fusion_lat": 0.0, "lat": 38.887381833333336, "type": "electric_scooter", "lon": -77.0153265, "bike_id": "b0d122a82ec4ce438292220330f31ebc", "rental_uris": {"android": "https://dc.lft.to/lastmile_qr_scan", "ios": "https://dc.lft.to/lastmile_qr_scan"}, "name": "b0d122a82ec4ce438292220330f31ebc", "is_reserved": 0}, {"is_disabled": 0, "fusion_lon": 0.0, "fusion_lat": 0.0, "lat": 38.827273166666664, "type": "electric_bike", "lon": -77.00863933333333, "bike_id": "e961124a15794acada66c7bba23d0500", "rental_uris": {"android": "https://dc.lft.to/lastmile_qr_scan", "ios": "https://dc.lft.to/lastmile_qr_scan"}, "name": "e961124a15794acada66c7bba23d0500", "is_reserved": 0}, {"is_disabled": 0, "fusion_lon": 0.0, "fusion_lat": 0.0, "lat": 38.919692833333336, "type": "electric_scooter", "lon": -77.04173166666666, "bike_id": "7b5930a6b70a0e68319bf7837e670b51", "rental_uris": {"android": "https://dc.lft.to/lastmile_qr_scan", "ios": "https://dc.lft.to/lastmile_qr_scan"}, "name": "7b5930a6b70a0e68319bf7837e670b51", "is_reserved": 0}, {"is_disabled": 0, "fusion_lon": 0.0, "fusion_lat": 0.0, "lat": 38.906124166666665, "type": "electric_scooter", "lon": -77.02784083333333, "bike_id": "b4747311a33b33a1dab9065ed3094d3f", "rental_uris": {"android": "https://dc.lft.to/lastmile_qr_scan", "ios": "https://dc.lft.to/lastmile_qr_scan"}, "name": "b4747311a33b33a1dab9065ed3094d3f", "is_reserved": 0}, {"is_disabled": 0, "fusion_lon": 0.0, "fusion_lat": 0.0, "lat": 38.90151733333333, "type": "electric_scooter", "lon": -77.04167, "bike_id": "91fae299c5d16bdedde09078d1bb499c", "rental_uris": {"android": "https://dc.lft.to/lastmile_qr_scan", "ios": "https://dc.lft.to/lastmile_qr_scan"}, "name": "91fae299c5d16bdedde09078d1bb499c", "is_reserved": 0}, {"is_disabled": 0, "fusion_lon": 0.0, "fusion_lat": 0.0, "lat": 38.90573333333333, "type": "electric_scooter", "lon": -77.0337225, "bike_id": "bd31c6af19033f8a11b8d2ed637716b6", "rental_uris": {"android": "https://dc.lft.to/lastmile_qr_scan", "ios": "https://dc.lft.to/lastmile_qr_scan"}, "name": "bd31c6af19033f8a11b8d2ed637716b6", "is_reserved": 0}, {"is_disabled": 0, "fusion_lon": 0.0, "fusion_lat": 0.0, "lat": 38.8885855, "type": "electric_scooter", "lon": -76.977362, "bike_id": "20997a65099d355ade02e5c0704e85c6", "rental_uris": {"android": "https://dc.lft.to/lastmile_qr_scan", "ios": "https://dc.lft.to/lastmile_qr_scan"}, "name": "20997a65099d355ade02e5c0704e85c6", "is_reserved": 0}, {"is_disabled": 0, "fusion_lon": 0.0, "fusion_lat": 0.0, "lat": 38.89761983333333, "type": "electric_scooter", "lon": -77.021945, "bike_id": "d3a3b0a97af58f086f19259bab2728b9", "rental_uris": {"android": "https://dc.lft.to/lastmile_qr_scan", "ios": "https://dc.lft.to/lastmile_qr_scan"}, "name": "d3a3b0a97af58f086f19259bab2728b9", "is_reserved": 0}, {"is_disabled": 0, "fusion_lon": 0.0, "fusion_lat": 0.0, "lat": 38.895034333333335, "type": "electric_scooter", "lon": -77.02193616666666, "bike_id": "87e9bf7e8d73f20dcbb6689d4f9d6223", "rental_uris": {"android": "https://dc.lft.to/lastmile_qr_scan", "ios": "https://dc.lft.to/lastmile_qr_scan"}, "name": "87e9bf7e8d73f20dcbb6689d4f9d6223", "is_reserved": 0}, {"is_disabled": 0, "fusion_lon": 0.0, "fusion_lat": 0.0, "lat": 38.887352166666666, "type": "electric_scooter", "lon": -77.032057, "bike_id": "a66413ada6b3c5a9beee1d008e53a947", "rental_uris": {"android": "https://dc.lft.to/lastmile_qr_scan", "ios": "https://dc.lft.to/lastmile_qr_scan"}, "name": "a66413ada6b3c5a9beee1d008e53a947", "is_reserved": 0}, {"is_disabled": 0, "fusion_lon": 0.0, "fusion_lat": 0.0, "lat": 38.8997185, "type": "electric_scooter", "lon": -77.02174683333334, "bike_id": "8483842cd7f2cfccef7e7c13c301cbae", "rental_uris": {"android": "https://dc.lft.to/lastmile_qr_scan", "ios": "https://dc.lft.to/lastmile_qr_scan"}, "name": "8483842cd7f2cfccef7e7c13c301cbae", "is_reserved": 0}, {"is_disabled": 0, "fusion_lon": 0.0, "fusion_lat": 0.0, "lat": 38.901396166666665, "type": "electric_scooter", "lon": -77.04157116666667, "bike_id": "03d35002a750aab278091380770f4789", "rental_uris": {"android": "https://dc.lft.to/lastmile_qr_scan", "ios": "https://dc.lft.to/lastmile_qr_scan"}, "name": "03d35002a750aab278091380770f4789", "is_reserved": 0}, {"is_disabled": 0, "fusion_lon": 0.0, "fusion_lat": 0.0, "lat": 38.898395, "type": "electric_scooter", "lon": -77.03356066666667, "bike_id": "cabed31a01515e4ec0b368530a330dc0", "rental_uris": {"android": "https://dc.lft.to/lastmile_qr_scan", "ios": "https://dc.lft.to/lastmile_qr_scan"}, "name": "cabed31a01515e4ec0b368530a330dc0", "is_reserved": 0}, {"is_disabled": 0, "fusion_lon": 0.0, "fusion_lat": 0.0, "lat": 38.83119583333333, "type": "electric_bike", "lon": -77.04322966666666, "bike_id": "8308aacd8705f47fdadd4c351bd1525c", "rental_uris": {"android": "https://dc.lft.to/lastmile_qr_scan", "ios": "https://dc.lft.to/lastmile_qr_scan"}, "name": "8308aacd8705f47fdadd4c351bd1525c", "is_reserved": 0}, {"is_disabled": 0, "fusion_lon": 0.0, "fusion_lat": 0.0, "lat": 38.92332966666667, "type": "electric_scooter", "lon": -77.04185516666666, "bike_id": "002b48483f589eb85a459e538e8dab42", "rental_uris": {"android": "https://dc.lft.to/lastmile_qr_scan", "ios": "https://dc.lft.to/lastmile_qr_scan"}, "name": "002b48483f589eb85a459e538e8dab42", "is_reserved": 0}, {"is_disabled": 0, "fusion_lon": 0.0, "fusion_lat": 0.0, "lat": 38.90488783333333, "type": "electric_scooter", "lon": -77.0512925, "bike_id": "6683fc3ba1050ca7bd9f9051d386b119", "rental_uris": {"android": "https://dc.lft.to/lastmile_qr_scan", "ios": "https://dc.lft.to/lastmile_qr_scan"}, "name": "6683fc3ba1050ca7bd9f9051d386b119", "is_reserved": 0}, {"is_disabled": 0, "fusion_lon": 0.0, "fusion_lat": 0.0, "lat": 38.91934416666667, "type": "electric_bike", "lon": -76.97506433333334, "bike_id": "7657a9ed827f3525c94afbffcdcd81e4", "rental_uris": {"android": "https://dc.lft.to/lastmile_qr_scan", "ios": "https://dc.lft.to/lastmile_qr_scan"}, "name": "7657a9ed827f3525c94afbffcdcd81e4", "is_reserved": 0}, {"is_disabled": 0, "fusion_lon": 0.0, "fusion_lat": 0.0, "lat": 38.91094833333333, "type": "electric_scooter", "lon": -77.0296975, "bike_id": "17b4b75b941d067d94fc95565b80c943", "rental_uris": {"android": "https://dc.lft.to/lastmile_qr_scan", "ios": "https://dc.lft.to/lastmile_qr_scan"}, "name": "17b4b75b941d067d94fc95565b80c943", "is_reserved": 0}, {"is_disabled": 0, "fusion_lon": 0.0, "fusion_lat": 0.0, "lat": 38.902357, "type": "electric_scooter", "lon": -77.05984, "bike_id": "86952a94b1add00c8546f5cde4c52966", "rental_uris": {"android": "https://dc.lft.to/lastmile_qr_scan", "ios": "https://dc.lft.to/lastmile_qr_scan"}, "name": "86952a94b1add00c8546f5cde4c52966", "is_reserved": 0}, {"is_disabled": 0, "fusion_lon": 0.0, "fusion_lat": 0.0, "lat": 38.81023966666667, "type": "electric_bike", "lon": -77.0843695, "bike_id": "0b3f00c4cfede80de5cc9c102ea86536", "rental_uris": {"android": "https://dc.lft.to/lastmile_qr_scan", "ios": "https://dc.lft.to/lastmile_qr_scan"}, "name": "0b3f00c4cfede80de5cc9c102ea86536", "is_reserved": 0}, {"is_disabled": 0, "fusion_lon": 0.0, "fusion_lat": 0.0, "lat": 38.904860166666666, "type": "electric_scooter", "lon": -77.03252066666667, "bike_id": "5eec29f42136a443fa9a36e21dd1abd4", "rental_uris": {"android": "https://dc.lft.to/lastmile_qr_scan", "ios": "https://dc.lft.to/lastmile_qr_scan"}, "name": "5eec29f42136a443fa9a36e21dd1abd4", "is_reserved": 0}, {"is_disabled": 0, "fusion_lon": 0.0, "fusion_lat": 0.0, "lat": 38.942984333333335, "type": "electric_scooter", "lon": -77.02770966666667, "bike_id": "056c8f32930e29329f3437570a9f6288", "rental_uris": {"android": "https://dc.lft.to/lastmile_qr_scan", "ios": "https://dc.lft.to/lastmile_qr_scan"}, "name": "056c8f32930e29329f3437570a9f6288", "is_reserved": 0}, {"is_disabled": 0, "fusion_lon": 0.0, "fusion_lat": 0.0, "lat": 38.90017566666667, "type": "electric_scooter", "lon": -77.03359866666666, "bike_id": "7f2ef92e58d40037ccddf0019fc35fb1", "rental_uris": {"android": "https://dc.lft.to/lastmile_qr_scan", "ios": "https://dc.lft.to/lastmile_qr_scan"}, "name": "7f2ef92e58d40037ccddf0019fc35fb1", "is_reserved": 0}, {"is_disabled": 0, "fusion_lon": 0.0, "fusion_lat": 0.0, "lat": 38.9089525, "type": "electric_scooter", "lon": -77.04570583333333, "bike_id": "bc550238eafdfeabeca67fc3236ccdc4", "rental_uris": {"android": "https://dc.lft.to/lastmile_qr_scan", "ios": "https://dc.lft.to/lastmile_qr_scan"}, "name": "bc550238eafdfeabeca67fc3236ccdc4", "is_reserved": 0}, {"is_disabled": 0, "fusion_lon": 0.0, "fusion_lat": 0.0, "lat": 38.95124466666667, "type": "electric_scooter", "lon": -77.01392083333333, "bike_id": "19bafc6963c5dc2c967bfe95f20f4309", "rental_uris": {"android": "https://dc.lft.to/lastmile_qr_scan", "ios": "https://dc.lft.to/lastmile_qr_scan"}, "name": "19bafc6963c5dc2c967bfe95f20f4309", "is_reserved": 0}, {"is_disabled": 0, "fusion_lon": 0.0, "fusion_lat": 0.0, "lat": 38.932536, "type": "electric_bike", "lon": -77.0238445, "bike_id": "481e528a57ba48a06f2b8cbee5c1dc6a", "rental_uris": {"android": "https://dc.lft.to/lastmile_qr_scan", "ios": "https://dc.lft.to/lastmile_qr_scan"}, "name": "481e528a57ba48a06f2b8cbee5c1dc6a", "is_reserved": 0}, {"is_disabled": 0, "fusion_lon": 0.0, "fusion_lat": 0.0, "lat": 38.845099166666664, "type": "electric_bike", "lon": -76.972125, "bike_id": "063ccadbf5f0973b5cea8f92d1fbc2d9", "rental_uris": {"android": "https://dc.lft.to/lastmile_qr_scan", "ios": "https://dc.lft.to/lastmile_qr_scan"}, "name": "063ccadbf5f0973b5cea8f92d1fbc2d9", "is_reserved": 0}, {"is_disabled": 0, "fusion_lon": 0.0, "fusion_lat": 0.0, "lat": 38.90713516666667, "type": "electric_scooter", "lon": -77.02711533333333, "bike_id": "940eae90323aec1bc151d6db0c74dbb0", "rental_uris": {"android": "https://dc.lft.to/lastmile_qr_scan", "ios": "https://dc.lft.to/lastmile_qr_scan"}, "name": "940eae90323aec1bc151d6db0c74dbb0", "is_reserved": 0}, {"is_disabled": 0, "fusion_lon": 0.0, "fusion_lat": 0.0, "lat": 38.91944733333333, "type": "electric_scooter", "lon": -77.02507183333333, "bike_id": "9d9f039fd1ceba6f437843715cbbb03e", "rental_uris": {"android": "https://dc.lft.to/lastmile_qr_scan", "ios": "https://dc.lft.to/lastmile_qr_scan"}, "name": "9d9f039fd1ceba6f437843715cbbb03e", "is_reserved": 0}, {"is_disabled": 0, "fusion_lon": 0.0, "fusion_lat": 0.0, "lat": 38.909004333333336, "type": "electric_scooter", "lon": -77.02706033333334, "bike_id": "3bc7e808e254a06511fb89be1debe579", "rental_uris": {"android": "https://dc.lft.to/lastmile_qr_scan", "ios": "https://dc.lft.to/lastmile_qr_scan"}, "name": "3bc7e808e254a06511fb89be1debe579", "is_reserved": 0}, {"is_disabled": 0, "fusion_lon": 0.0, "fusion_lat": 0.0, "lat": 38.916534166666665, "type": "electric_scooter", "lon": -77.02794983333334, "bike_id": "8f41b5ef22bd135f3c230e4b6caca9d2", "rental_uris": {"android": "https://dc.lft.to/lastmile_qr_scan", "ios": "https://dc.lft.to/lastmile_qr_scan"}, "name": "8f41b5ef22bd135f3c230e4b6caca9d2", "is_reserved": 0}, {"is_disabled": 0, "fusion_lon": 0.0, "fusion_lat": 0.0, "lat": 38.9153525, "type": "electric_scooter", "lon": -77.03186383333333, "bike_id": "a7876d109687d6dbe74d906f854f07f9", "rental_uris": {"android": "https://dc.lft.to/lastmile_qr_scan", "ios": "https://dc.lft.to/lastmile_qr_scan"}, "name": "a7876d109687d6dbe74d906f854f07f9", "is_reserved": 0}, {"is_disabled": 0, "fusion_lon": 0.0, "fusion_lat": 0.0, "lat": 38.988231166666665, "type": "electric_bike", "lon": -76.9875275, "bike_id": "eea8da29e81c6cf5ec5ead630960cf49", "rental_uris": {"android": "https://dc.lft.to/lastmile_qr_scan", "ios": "https://dc.lft.to/lastmile_qr_scan"}, "name": "eea8da29e81c6cf5ec5ead630960cf49", "is_reserved": 0}, {"is_disabled": 0, "fusion_lon": 0.0, "fusion_lat": 0.0, "lat": 38.9521205, "type": "electric_scooter", "lon": -77.03629383333333, "bike_id": "23f55a073e59dbddca2187f46817695a", "rental_uris": {"android": "https://dc.lft.to/lastmile_qr_scan", "ios": "https://dc.lft.to/lastmile_qr_scan"}, "name": "23f55a073e59dbddca2187f46817695a", "is_reserved": 0}, {"is_disabled": 0, "fusion_lon": 0.0, "fusion_lat": 0.0, "lat": 38.920330666666665, "type": "electric_scooter", "lon": -77.02582133333334, "bike_id": "282eab378dd310bc602b43899345c74a", "rental_uris": {"android": "https://dc.lft.to/lastmile_qr_scan", "ios": "https://dc.lft.to/lastmile_qr_scan"}, "name": "282eab378dd310bc602b43899345c74a", "is_reserved": 0}, {"is_disabled": 0, "fusion_lon": 0.0, "fusion_lat": 0.0, "lat": 38.89600383333333, "type": "electric_scooter", "lon": -77.02150066666667, "bike_id": "0852faec19dea0ab0c1ca43af7525466", "rental_uris": {"android": "https://dc.lft.to/lastmile_qr_scan", "ios": "https://dc.lft.to/lastmile_qr_scan"}, "name": "0852faec19dea0ab0c1ca43af7525466", "is_reserved": 0}, {"is_disabled": 0, "fusion_lon": 0.0, "fusion_lat": 0.0, "lat": 38.895222833333335, "type": "electric_scooter", "lon": -77.02840616666667, "bike_id": "c4997940c44ba92e2813d2a87cae4c5d", "rental_uris": {"android": "https://dc.lft.to/lastmile_qr_scan", "ios": "https://dc.lft.to/lastmile_qr_scan"}, "name": "c4997940c44ba92e2813d2a87cae4c5d", "is_reserved": 0}, {"is_disabled": 0, "fusion_lon": 0.0, "fusion_lat": 0.0, "lat": 38.88722416666667, "type": "electric_scooter", "lon": -76.99632066666666, "bike_id": "9b1133b3c80041fd7937bd6e55f01b78", "rental_uris": {"android": "https://dc.lft.to/lastmile_qr_scan", "ios": "https://dc.lft.to/lastmile_qr_scan"}, "name": "9b1133b3c80041fd7937bd6e55f01b78", "is_reserved": 0}, {"is_disabled": 0, "fusion_lon": 0.0, "fusion_lat": 0.0, "lat": 38.88508516666667, "type": "electric_scooter", "lon": -76.99854066666667, "bike_id": "995b733efbe371d9928181cf597d6b55", "rental_uris": {"android": "https://dc.lft.to/lastmile_qr_scan", "ios": "https://dc.lft.to/lastmile_qr_scan"}, "name": "995b733efbe371d9928181cf597d6b55", "is_reserved": 0}, {"is_disabled": 0, "fusion_lon": 0.0, "fusion_lat": 0.0, "lat": 38.9170025, "type": "electric_bike", "lon": -77.09563866666667, "bike_id": "4e13e5716064f458c2560cd81194a1cf", "rental_uris": {"android": "https://dc.lft.to/lastmile_qr_scan", "ios": "https://dc.lft.to/lastmile_qr_scan"}, "name": "4e13e5716064f458c2560cd81194a1cf", "is_reserved": 0}, {"is_disabled": 0, "fusion_lon": 0.0, "fusion_lat": 0.0, "lat": 38.91632333333333, "type": "electric_scooter", "lon": -77.0227885, "bike_id": "3b13cdd4c51ea6a064f2fa5ca7bd4228", "rental_uris": {"android": "https://dc.lft.to/lastmile_qr_scan", "ios": "https://dc.lft.to/lastmile_qr_scan"}, "name": "3b13cdd4c51ea6a064f2fa5ca7bd4228", "is_reserved": 0}, {"is_disabled": 0, "fusion_lon": 0.0, "fusion_lat": 0.0, "lat": 39.05263933333333, "type": "electric_bike", "lon": -77.043821, "bike_id": "01bc267203bbeb2f9cb69d51c7e89bc3", "rental_uris": {"android": "https://dc.lft.to/lastmile_qr_scan", "ios": "https://dc.lft.to/lastmile_qr_scan"}, "name": "01bc267203bbeb2f9cb69d51c7e89bc3", "is_reserved": 0}, {"is_disabled": 0, "fusion_lon": 0.0, "fusion_lat": 0.0, "lat": 38.948971, "type": "electric_bike", "lon": -76.96367333333333, "bike_id": "34455b72bf187713332c2486a1056734", "rental_uris": {"android": "https://dc.lft.to/lastmile_qr_scan", "ios": "https://dc.lft.to/lastmile_qr_scan"}, "name": "34455b72bf187713332c2486a1056734", "is_reserved": 0}, {"is_disabled": 0, "fusion_lon": 0.0, "fusion_lat": 0.0, "lat": 38.90962066666667, "type": "electric_scooter", "lon": -77.03952533333333, "bike_id": "79dff524cc7e5938c5a3ff89cc6e1bb5", "rental_uris": {"android": "https://dc.lft.to/lastmile_qr_scan", "ios": "https://dc.lft.to/lastmile_qr_scan"}, "name": "79dff524cc7e5938c5a3ff89cc6e1bb5", "is_reserved": 0}, {"is_disabled": 0, "fusion_lon": 0.0, "fusion_lat": 0.0, "lat": 38.928112166666665, "type": "electric_scooter", "lon": -77.02346616666667, "bike_id": "bdefe2bcb962df08737a8b6ba13d8388", "rental_uris": {"android": "https://dc.lft.to/lastmile_qr_scan", "ios": "https://dc.lft.to/lastmile_qr_scan"}, "name": "bdefe2bcb962df08737a8b6ba13d8388", "is_reserved": 0}, {"is_disabled": 0, "fusion_lon": 0.0, "fusion_lat": 0.0, "lat": 38.9140275, "type": "electric_scooter", "lon": -77.06692133333334, "bike_id": "b6f66cb8f39dc4d9f142a9e064dc1d21", "rental_uris": {"android": "https://dc.lft.to/lastmile_qr_scan", "ios": "https://dc.lft.to/lastmile_qr_scan"}, "name": "b6f66cb8f39dc4d9f142a9e064dc1d21", "is_reserved": 0}, {"is_disabled": 0, "fusion_lon": 0.0, "fusion_lat": 0.0, "lat": 38.91704383333333, "type": "electric_scooter", "lon": -77.00113866666666, "bike_id": "7083a529b7925ca37ca2268a5d575af3", "rental_uris": {"android": "https://dc.lft.to/lastmile_qr_scan", "ios": "https://dc.lft.to/lastmile_qr_scan"}, "name": "7083a529b7925ca37ca2268a5d575af3", "is_reserved": 0}, {"is_disabled": 0, "fusion_lon": 0.0, "fusion_lat": 0.0, "lat": 38.9222735, "type": "electric_scooter", "lon": -77.04338783333333, "bike_id": "548c07834c15ebfdcc376b923ee1b486", "rental_uris": {"android": "https://dc.lft.to/lastmile_qr_scan", "ios": "https://dc.lft.to/lastmile_qr_scan"}, "name": "548c07834c15ebfdcc376b923ee1b486", "is_reserved": 0}, {"is_disabled": 0, "fusion_lon": 0.0, "fusion_lat": 0.0, "lat": 38.911818333333336, "type": "electric_scooter", "lon": -77.0319375, "bike_id": "ccb6299aad3446148db6fd35527f5fd4", "rental_uris": {"android": "https://dc.lft.to/lastmile_qr_scan", "ios": "https://dc.lft.to/lastmile_qr_scan"}, "name": "ccb6299aad3446148db6fd35527f5fd4", "is_reserved": 0}, {"is_disabled": 0, "fusion_lon": 0.0, "fusion_lat": 0.0, "lat": 38.85204433333333, "type": "electric_bike", "lon": -77.101228, "bike_id": "359f4b5ca7c25acd500f7b6bbd58b9e6", "rental_uris": {"android": "https://dc.lft.to/lastmile_qr_scan", "ios": "https://dc.lft.to/lastmile_qr_scan"}, "name": "359f4b5ca7c25acd500f7b6bbd58b9e6", "is_reserved": 0}, {"is_disabled": 0, "fusion_lon": 0.0, "fusion_lat": 0.0, "lat": 38.9117345, "type": "electric_scooter", "lon": -77.00450533333333, "bike_id": "454dc390c1e5f07507f88a18372e0ccd", "rental_uris": {"android": "https://dc.lft.to/lastmile_qr_scan", "ios": "https://dc.lft.to/lastmile_qr_scan"}, "name": "454dc390c1e5f07507f88a18372e0ccd", "is_reserved": 0}, {"is_disabled": 0, "fusion_lon": 0.0, "fusion_lat": 0.0, "lat": 38.88346766666667, "type": "electric_scooter", "lon": -76.94178333333333, "bike_id": "991e34ddc956653de5e6ae4e634d855e", "rental_uris": {"android": "https://dc.lft.to/lastmile_qr_scan", "ios": "https://dc.lft.to/lastmile_qr_scan"}, "name": "991e34ddc956653de5e6ae4e634d855e", "is_reserved": 0}, {"is_disabled": 0, "fusion_lon": 0.0, "fusion_lat": 0.0, "lat": 38.926529, "type": "electric_scooter", "lon": -77.02424133333334, "bike_id": "76bf9ec47f270ed15b70819f9af9cd59", "rental_uris": {"android": "https://dc.lft.to/lastmile_qr_scan", "ios": "https://dc.lft.to/lastmile_qr_scan"}, "name": "76bf9ec47f270ed15b70819f9af9cd59", "is_reserved": 0}, {"is_disabled": 0, "fusion_lon": 0.0, "fusion_lat": 0.0, "lat": 38.89076516666667, "type": "electric_scooter", "lon": -76.95434916666666, "bike_id": "dcd89ef4b2cfd8a9aafe207d15a62fba", "rental_uris": {"android": "https://dc.lft.to/lastmile_qr_scan", "ios": "https://dc.lft.to/lastmile_qr_scan"}, "name": "dcd89ef4b2cfd8a9aafe207d15a62fba", "is_reserved": 0}, {"is_disabled": 0, "fusion_lon": 0.0, "fusion_lat": 0.0, "lat": 38.88195183333333, "type": "electric_bike", "lon": -77.10717483333333, "bike_id": "73952f455ff583d8b7ccfc8238e0e23d", "rental_uris": {"android": "https://dc.lft.to/lastmile_qr_scan", "ios": "https://dc.lft.to/lastmile_qr_scan"}, "name": "73952f455ff583d8b7ccfc8238e0e23d", "is_reserved": 0}, {"is_disabled": 0, "fusion_lon": 0.0, "fusion_lat": 0.0, "lat": 38.916947, "type": "electric_scooter", "lon": -77.03210066666666, "bike_id": "5a72641036c2968a6e2b9323e6230380", "rental_uris": {"android": "https://dc.lft.to/lastmile_qr_scan", "ios": "https://dc.lft.to/lastmile_qr_scan"}, "name": "5a72641036c2968a6e2b9323e6230380", "is_reserved": 0}, {"is_disabled": 0, "fusion_lon": 0.0, "fusion_lat": 0.0, "lat": 38.92497816666667, "type": "electric_scooter", "lon": -76.99568133333334, "bike_id": "2d8321898b7b19fa996f562d7d3f6ce1", "rental_uris": {"android": "https://dc.lft.to/lastmile_qr_scan", "ios": "https://dc.lft.to/lastmile_qr_scan"}, "name": "2d8321898b7b19fa996f562d7d3f6ce1", "is_reserved": 0}, {"is_disabled": 0, "fusion_lon": 0.0, "fusion_lat": 0.0, "lat": 38.8966575, "type": "electric_scooter", "lon": -77.01180716666667, "bike_id": "989cb25da62a49a1b5979692f541b472", "rental_uris": {"android": "https://dc.lft.to/lastmile_qr_scan", "ios": "https://dc.lft.to/lastmile_qr_scan"}, "name": "989cb25da62a49a1b5979692f541b472", "is_reserved": 0}, {"is_disabled": 0, "fusion_lon": 0.0, "fusion_lat": 0.0, "lat": 38.90364116666667, "type": "electric_scooter", "lon": -77.0219395, "bike_id": "6192d6d375c0098a7ce3e32cc51c6d68", "rental_uris": {"android": "https://dc.lft.to/lastmile_qr_scan", "ios": "https://dc.lft.to/lastmile_qr_scan"}, "name": "6192d6d375c0098a7ce3e32cc51c6d68", "is_reserved": 0}, {"is_disabled": 0, "fusion_lon": 0.0, "fusion_lat": 0.0, "lat": 38.88413533333333, "type": "electric_scooter", "lon": -77.03303316666667, "bike_id": "19842110e400c980cd88d2bf81438ec0", "rental_uris": {"android": "https://dc.lft.to/lastmile_qr_scan", "ios": "https://dc.lft.to/lastmile_qr_scan"}, "name": "19842110e400c980cd88d2bf81438ec0", "is_reserved": 0}, {"is_disabled": 0, "fusion_lon": 0.0, "fusion_lat": 0.0, "lat": 38.99069566666667, "type": "electric_bike", "lon": -77.023862, "bike_id": "fac0382d72728aaa1ee8552bd6bb355f", "rental_uris": {"android": "https://dc.lft.to/lastmile_qr_scan", "ios": "https://dc.lft.to/lastmile_qr_scan"}, "name": "fac0382d72728aaa1ee8552bd6bb355f", "is_reserved": 0}, {"is_disabled": 0, "fusion_lon": 0.0, "fusion_lat": 0.0, "lat": 38.917820666666664, "type": "electric_scooter", "lon": -77.04356283333334, "bike_id": "4e0b6e98cbd36de22ac49d0321b33f10", "rental_uris": {"android": "https://dc.lft.to/lastmile_qr_scan", "ios": "https://dc.lft.to/lastmile_qr_scan"}, "name": "4e0b6e98cbd36de22ac49d0321b33f10", "is_reserved": 0}, {"is_disabled": 0, "fusion_lon": 0.0, "fusion_lat": 0.0, "lat": 38.89980116666667, "type": "electric_scooter", "lon": -77.019631, "bike_id": "09e1389745a748e48b37a02e8009cb62", "rental_uris": {"android": "https://dc.lft.to/lastmile_qr_scan", "ios": "https://dc.lft.to/lastmile_qr_scan"}, "name": "09e1389745a748e48b37a02e8009cb62", "is_reserved": 0}, {"is_disabled": 0, "fusion_lon": 0.0, "fusion_lat": 0.0, "lat": 38.881331833333334, "type": "electric_scooter", "lon": -77.02084366666666, "bike_id": "7ddc6e3196c051d58fe13e04135b5bce", "rental_uris": {"android": "https://dc.lft.to/lastmile_qr_scan", "ios": "https://dc.lft.to/lastmile_qr_scan"}, "name": "7ddc6e3196c051d58fe13e04135b5bce", "is_reserved": 0}, {"is_disabled": 0, "fusion_lon": 0.0, "fusion_lat": 0.0, "lat": 38.923475833333335, "type": "electric_bike", "lon": -76.9924655, "bike_id": "186e013b08abe0742f03c7f11b0a48c3", "rental_uris": {"android": "https://dc.lft.to/lastmile_qr_scan", "ios": "https://dc.lft.to/lastmile_qr_scan"}, "name": "186e013b08abe0742f03c7f11b0a48c3", "is_reserved": 0}, {"is_disabled": 0, "fusion_lon": 0.0, "fusion_lat": 0.0, "lat": 38.905219833333334, "type": "electric_scooter", "lon": -77.06777366666667, "bike_id": "105c9f15788941d14b72f0f983470a34", "rental_uris": {"android": "https://dc.lft.to/lastmile_qr_scan", "ios": "https://dc.lft.to/lastmile_qr_scan"}, "name": "105c9f15788941d14b72f0f983470a34", "is_reserved": 0}, {"is_disabled": 0, "fusion_lon": 0.0, "fusion_lat": 0.0, "lat": 38.82779383333333, "type": "electric_bike", "lon": -77.11078716666667, "bike_id": "dad1654ce3c5c7352363db33d09e17f6", "rental_uris": {"android": "https://dc.lft.to/lastmile_qr_scan", "ios": "https://dc.lft.to/lastmile_qr_scan"}, "name": "dad1654ce3c5c7352363db33d09e17f6", "is_reserved": 0}, {"is_disabled": 0, "fusion_lon": 0.0, "fusion_lat": 0.0, "lat": 38.8749695, "type": "electric_bike", "lon": -77.00600483333334, "bike_id": "8d82d490f2c540fe0aacbc2ccd4f38bb", "rental_uris": {"android": "https://dc.lft.to/lastmile_qr_scan", "ios": "https://dc.lft.to/lastmile_qr_scan"}, "name": "8d82d490f2c540fe0aacbc2ccd4f38bb", "is_reserved": 0}, {"is_disabled": 0, "fusion_lon": 0.0, "fusion_lat": 0.0, "lat": 38.899662, "type": "electric_scooter", "lon": -76.93980766666667, "bike_id": "595f3f9388f098bfd156e23cae25a312", "rental_uris": {"android": "https://dc.lft.to/lastmile_qr_scan", "ios": "https://dc.lft.to/lastmile_qr_scan"}, "name": "595f3f9388f098bfd156e23cae25a312", "is_reserved": 0}, {"is_disabled": 0, "fusion_lon": 0.0, "fusion_lat": 0.0, "lat": 38.96263033333334, "type": "electric_scooter", "lon": -77.02899466666666, "bike_id": "78219c01fb3c793a3ebdd8a7c34e8757", "rental_uris": {"android": "https://dc.lft.to/lastmile_qr_scan", "ios": "https://dc.lft.to/lastmile_qr_scan"}, "name": "78219c01fb3c793a3ebdd8a7c34e8757", "is_reserved": 0}, {"is_disabled": 0, "fusion_lon": 0.0, "fusion_lat": 0.0, "lat": 38.921529666666665, "type": "electric_scooter", "lon": -77.03437083333333, "bike_id": "3346748fa6763909a7291f6e55184320", "rental_uris": {"android": "https://dc.lft.to/lastmile_qr_scan", "ios": "https://dc.lft.to/lastmile_qr_scan"}, "name": "3346748fa6763909a7291f6e55184320", "is_reserved": 0}, {"is_disabled": 0, "fusion_lon": 0.0, "fusion_lat": 0.0, "lat": 38.915936333333335, "type": "electric_scooter", "lon": -77.02296566666666, "bike_id": "e1822514dd66f285d8c55346c23ad290", "rental_uris": {"android": "https://dc.lft.to/lastmile_qr_scan", "ios": "https://dc.lft.to/lastmile_qr_scan"}, "name": "e1822514dd66f285d8c55346c23ad290", "is_reserved": 0}, {"is_disabled": 0, "fusion_lon": 0.0, "fusion_lat": 0.0, "lat": 38.92276866666667, "type": "electric_scooter", "lon": -77.04473533333334, "bike_id": "7e3fa4d5ac788ba2fc7d124c7bc0827d", "rental_uris": {"android": "https://dc.lft.to/lastmile_qr_scan", "ios": "https://dc.lft.to/lastmile_qr_scan"}, "name": "7e3fa4d5ac788ba2fc7d124c7bc0827d", "is_reserved": 0}, {"is_disabled": 0, "fusion_lon": 0.0, "fusion_lat": 0.0, "lat": 38.922588166666664, "type": "electric_scooter", "lon": -77.0420575, "bike_id": "e8840d33acfcc37edd59b78f4e4375ec", "rental_uris": {"android": "https://dc.lft.to/lastmile_qr_scan", "ios": "https://dc.lft.to/lastmile_qr_scan"}, "name": "e8840d33acfcc37edd59b78f4e4375ec", "is_reserved": 0}, {"is_disabled": 0, "fusion_lon": 0.0, "fusion_lat": 0.0, "lat": 38.914235166666664, "type": "electric_scooter", "lon": -77.031982, "bike_id": "b65652f26be2e56801cddd2fe1654c29", "rental_uris": {"android": "https://dc.lft.to/lastmile_qr_scan", "ios": "https://dc.lft.to/lastmile_qr_scan"}, "name": "b65652f26be2e56801cddd2fe1654c29", "is_reserved": 0}, {"is_disabled": 0, "fusion_lon": 0.0, "fusion_lat": 0.0, "lat": 38.9339355, "type": "electric_scooter", "lon": -77.027237, "bike_id": "967ec3e49d0c7e66c30ea1709c0ea008", "rental_uris": {"android": "https://dc.lft.to/lastmile_qr_scan", "ios": "https://dc.lft.to/lastmile_qr_scan"}, "name": "967ec3e49d0c7e66c30ea1709c0ea008", "is_reserved": 0}, {"is_disabled": 0, "fusion_lon": 0.0, "fusion_lat": 0.0, "lat": 38.900615333333334, "type": "electric_scooter", "lon": -77.0344495, "bike_id": "082a1324aebf74e4ad9ec3018fdee499", "rental_uris": {"android": "https://dc.lft.to/lastmile_qr_scan", "ios": "https://dc.lft.to/lastmile_qr_scan"}, "name": "082a1324aebf74e4ad9ec3018fdee499", "is_reserved": 0}, {"is_disabled": 0, "fusion_lon": 0.0, "fusion_lat": 0.0, "lat": 38.89528116666666, "type": "electric_scooter", "lon": -77.0278925, "bike_id": "12b7f757887fcf155ef24bc7acc0e39d", "rental_uris": {"android": "https://dc.lft.to/lastmile_qr_scan", "ios": "https://dc.lft.to/lastmile_qr_scan"}, "name": "12b7f757887fcf155ef24bc7acc0e39d", "is_reserved": 0}, {"is_disabled": 0, "fusion_lon": 0.0, "fusion_lat": 0.0, "lat": 38.848443, "type": "electric_bike", "lon": -77.08045783333333, "bike_id": "fe21350006b13ccfef471955ab79e879", "rental_uris": {"android": "https://dc.lft.to/lastmile_qr_scan", "ios": "https://dc.lft.to/lastmile_qr_scan"}, "name": "fe21350006b13ccfef471955ab79e879", "is_reserved": 0}, {"is_disabled": 0, "fusion_lon": 0.0, "fusion_lat": 0.0, "lat": 38.896728, "type": "electric_scooter", "lon": -76.947218, "bike_id": "137f57c8b14a0f171b1f8c66d23cf5a8", "rental_uris": {"android": "https://dc.lft.to/lastmile_qr_scan", "ios": "https://dc.lft.to/lastmile_qr_scan"}, "name": "137f57c8b14a0f171b1f8c66d23cf5a8", "is_reserved": 0}, {"is_disabled": 0, "fusion_lon": 0.0, "fusion_lat": 0.0, "lat": 38.96603066666667, "type": "electric_bike", "lon": -76.9832895, "bike_id": "8abeef3a0fab738da9d17c8fe65586d5", "rental_uris": {"android": "https://dc.lft.to/lastmile_qr_scan", "ios": "https://dc.lft.to/lastmile_qr_scan"}, "name": "8abeef3a0fab738da9d17c8fe65586d5", "is_reserved": 0}, {"is_disabled": 0, "fusion_lon": 0.0, "fusion_lat": 0.0, "lat": 38.9133205, "type": "electric_scooter", "lon": -77.02527433333333, "bike_id": "172f91223e3c2cbf00998d63d94c836e", "rental_uris": {"android": "https://dc.lft.to/lastmile_qr_scan", "ios": "https://dc.lft.to/lastmile_qr_scan"}, "name": "172f91223e3c2cbf00998d63d94c836e", "is_reserved": 0}, {"is_disabled": 0, "fusion_lon": 0.0, "fusion_lat": 0.0, "lat": 38.93564166666667, "type": "electric_scooter", "lon": -77.07338383333334, "bike_id": "73edfe520a2ee16e8871059975d9d083", "rental_uris": {"android": "https://dc.lft.to/lastmile_qr_scan", "ios": "https://dc.lft.to/lastmile_qr_scan"}, "name": "73edfe520a2ee16e8871059975d9d083", "is_reserved": 0}, {"is_disabled": 0, "fusion_lon": 0.0, "fusion_lat": 0.0, "lat": 38.917861, "type": "electric_scooter", "lon": -77.036641, "bike_id": "66e7cda72a191f6d3e9443ecc67ad475", "rental_uris": {"android": "https://dc.lft.to/lastmile_qr_scan", "ios": "https://dc.lft.to/lastmile_qr_scan"}, "name": "66e7cda72a191f6d3e9443ecc67ad475", "is_reserved": 0}, {"is_disabled": 0, "fusion_lon": 0.0, "fusion_lat": 0.0, "lat": 38.87573183333333, "type": "electric_scooter", "lon": -77.0199125, "bike_id": "360077fe6146e172e11ff9802b8c2902", "rental_uris": {"android": "https://dc.lft.to/lastmile_qr_scan", "ios": "https://dc.lft.to/lastmile_qr_scan"}, "name": "360077fe6146e172e11ff9802b8c2902", "is_reserved": 0}, {"is_disabled": 0, "fusion_lon": 0.0, "fusion_lat": 0.0, "lat": 38.902172666666665, "type": "electric_scooter", "lon": -77.021308, "bike_id": "dee97067f0199023466f89ad0c090ba4", "rental_uris": {"android": "https://dc.lft.to/lastmile_qr_scan", "ios": "https://dc.lft.to/lastmile_qr_scan"}, "name": "dee97067f0199023466f89ad0c090ba4", "is_reserved": 0}, {"is_disabled": 0, "fusion_lon": 0.0, "fusion_lat": 0.0, "lat": 38.915376333333334, "type": "electric_scooter", "lon": -77.019752, "bike_id": "5f86715e91f9ce9a3deb75d200455c96", "rental_uris": {"android": "https://dc.lft.to/lastmile_qr_scan", "ios": "https://dc.lft.to/lastmile_qr_scan"}, "name": "5f86715e91f9ce9a3deb75d200455c96", "is_reserved": 0}, {"is_disabled": 0, "fusion_lon": 0.0, "fusion_lat": 0.0, "lat": 38.892591833333334, "type": "electric_scooter", "lon": -77.0318395, "bike_id": "a0abc7e814ef53f041ef84cf8fe74500", "rental_uris": {"android": "https://dc.lft.to/lastmile_qr_scan", "ios": "https://dc.lft.to/lastmile_qr_scan"}, "name": "a0abc7e814ef53f041ef84cf8fe74500", "is_reserved": 0}, {"is_disabled": 0, "fusion_lon": 0.0, "fusion_lat": 0.0, "lat": 38.903996666666664, "type": "electric_scooter", "lon": -77.017611, "bike_id": "eace6a774ed95e4fe338ce25126b57f1", "rental_uris": {"android": "https://dc.lft.to/lastmile_qr_scan", "ios": "https://dc.lft.to/lastmile_qr_scan"}, "name": "eace6a774ed95e4fe338ce25126b57f1", "is_reserved": 0}, {"is_disabled": 0, "fusion_lon": 0.0, "fusion_lat": 0.0, "lat": 38.9172925, "type": "electric_scooter", "lon": -77.04172683333333, "bike_id": "306852d669c031e80c33d597caefa04d", "rental_uris": {"android": "https://dc.lft.to/lastmile_qr_scan", "ios": "https://dc.lft.to/lastmile_qr_scan"}, "name": "306852d669c031e80c33d597caefa04d", "is_reserved": 0}, {"is_disabled": 0, "fusion_lon": 0.0, "fusion_lat": 0.0, "lat": 38.90462633333333, "type": "electric_scooter", "lon": -77.04853366666667, "bike_id": "8cf122976ece06c6927ac9e9eda6a156", "rental_uris": {"android": "https://dc.lft.to/lastmile_qr_scan", "ios": "https://dc.lft.to/lastmile_qr_scan"}, "name": "8cf122976ece06c6927ac9e9eda6a156", "is_reserved": 0}, {"is_disabled": 0, "fusion_lon": 0.0, "fusion_lat": 0.0, "lat": 38.96735183333333, "type": "electric_scooter", "lon": -77.0276105, "bike_id": "ba0f218ebab9a26d9d7d48b0bf09c637", "rental_uris": {"android": "https://dc.lft.to/lastmile_qr_scan", "ios": "https://dc.lft.to/lastmile_qr_scan"}, "name": "ba0f218ebab9a26d9d7d48b0bf09c637", "is_reserved": 0}, {"is_disabled": 0, "fusion_lon": 0.0, "fusion_lat": 0.0, "lat": 38.84618316666667, "type": "electric_scooter", "lon": -76.996287, "bike_id": "0b808e6ccf3e39822af6cb22de5e9dab", "rental_uris": {"android": "https://dc.lft.to/lastmile_qr_scan", "ios": "https://dc.lft.to/lastmile_qr_scan"}, "name": "0b808e6ccf3e39822af6cb22de5e9dab", "is_reserved": 0}, {"is_disabled": 0, "fusion_lon": 0.0, "fusion_lat": 0.0, "lat": 38.9208505, "type": "electric_scooter", "lon": -77.03485266666667, "bike_id": "7d39f123230f7309c6c884ec69341cab", "rental_uris": {"android": "https://dc.lft.to/lastmile_qr_scan", "ios": "https://dc.lft.to/lastmile_qr_scan"}, "name": "7d39f123230f7309c6c884ec69341cab", "is_reserved": 0}, {"is_disabled": 0, "fusion_lon": 0.0, "fusion_lat": 0.0, "lat": 38.91799233333333, "type": "electric_scooter", "lon": -77.03444066666667, "bike_id": "417baceca63bc6a6c8d8ce98d9c01812", "rental_uris": {"android": "https://dc.lft.to/lastmile_qr_scan", "ios": "https://dc.lft.to/lastmile_qr_scan"}, "name": "417baceca63bc6a6c8d8ce98d9c01812", "is_reserved": 0}, {"is_disabled": 0, "fusion_lon": 0.0, "fusion_lat": 0.0, "lat": 38.88352666666667, "type": "electric_scooter", "lon": -77.02462816666667, "bike_id": "3252e59c151f7683c51e9d5831b72261", "rental_uris": {"android": "https://dc.lft.to/lastmile_qr_scan", "ios": "https://dc.lft.to/lastmile_qr_scan"}, "name": "3252e59c151f7683c51e9d5831b72261", "is_reserved": 0}, {"is_disabled": 0, "fusion_lon": 0.0, "fusion_lat": 0.0, "lat": 38.92437533333333, "type": "electric_scooter", "lon": -77.02605733333333, "bike_id": "8f9132b7f96e0e9ff1a739ba23d1d608", "rental_uris": {"android": "https://dc.lft.to/lastmile_qr_scan", "ios": "https://dc.lft.to/lastmile_qr_scan"}, "name": "8f9132b7f96e0e9ff1a739ba23d1d608", "is_reserved": 0}, {"is_disabled": 0, "fusion_lon": 0.0, "fusion_lat": 0.0, "lat": 38.90952633333333, "type": "electric_scooter", "lon": -77.021811, "bike_id": "27cfad3db3336492ec8988604e146ac0", "rental_uris": {"android": "https://dc.lft.to/lastmile_qr_scan", "ios": "https://dc.lft.to/lastmile_qr_scan"}, "name": "27cfad3db3336492ec8988604e146ac0", "is_reserved": 0}, {"is_disabled": 0, "fusion_lon": 0.0, "fusion_lat": 0.0, "lat": 38.906499833333335, "type": "electric_scooter", "lon": -77.01187666666667, "bike_id": "9b974c77d880e7e06993a27749761632", "rental_uris": {"android": "https://dc.lft.to/lastmile_qr_scan", "ios": "https://dc.lft.to/lastmile_qr_scan"}, "name": "9b974c77d880e7e06993a27749761632", "is_reserved": 0}, {"is_disabled": 0, "fusion_lon": 0.0, "fusion_lat": 0.0, "lat": 38.910404166666666, "type": "electric_scooter", "lon": -77.0384755, "bike_id": "b84237a07a675508bcb121bd569ff0d4", "rental_uris": {"android": "https://dc.lft.to/lastmile_qr_scan", "ios": "https://dc.lft.to/lastmile_qr_scan"}, "name": "b84237a07a675508bcb121bd569ff0d4", "is_reserved": 0}, {"is_disabled": 0, "fusion_lon": 0.0, "fusion_lat": 0.0, "lat": 38.928513833333334, "type": "electric_scooter", "lon": -77.033099, "bike_id": "97b751ab326837f0a4aa813adafa3ac2", "rental_uris": {"android": "https://dc.lft.to/lastmile_qr_scan", "ios": "https://dc.lft.to/lastmile_qr_scan"}, "name": "97b751ab326837f0a4aa813adafa3ac2", "is_reserved": 0}, {"is_disabled": 0, "fusion_lon": 0.0, "fusion_lat": 0.0, "lat": 38.90335, "type": "electric_bike", "lon": -76.97524783333333, "bike_id": "860bc48f5fbcbca4c8c60c04bb4dd4d2", "rental_uris": {"android": "https://dc.lft.to/lastmile_qr_scan", "ios": "https://dc.lft.to/lastmile_qr_scan"}, "name": "860bc48f5fbcbca4c8c60c04bb4dd4d2", "is_reserved": 0}, {"is_disabled": 0, "fusion_lon": 0.0, "fusion_lat": 0.0, "lat": 38.934895, "type": "electric_scooter", "lon": -77.02722283333334, "bike_id": "21da46f96c9241ca8c172775f3b609ee", "rental_uris": {"android": "https://dc.lft.to/lastmile_qr_scan", "ios": "https://dc.lft.to/lastmile_qr_scan"}, "name": "21da46f96c9241ca8c172775f3b609ee", "is_reserved": 0}, {"is_disabled": 0, "fusion_lon": 0.0, "fusion_lat": 0.0, "lat": 38.92396566666667, "type": "electric_scooter", "lon": -77.0254055, "bike_id": "33b4e676c21128542bbe4099d0f38542", "rental_uris": {"android": "https://dc.lft.to/lastmile_qr_scan", "ios": "https://dc.lft.to/lastmile_qr_scan"}, "name": "33b4e676c21128542bbe4099d0f38542", "is_reserved": 0}, {"is_disabled": 0, "fusion_lon": 0.0, "fusion_lat": 0.0, "lat": 38.9159705, "type": "electric_scooter", "lon": -77.02341383333334, "bike_id": "11626ae19b395cca01a2e9365c7a4d37", "rental_uris": {"android": "https://dc.lft.to/lastmile_qr_scan", "ios": "https://dc.lft.to/lastmile_qr_scan"}, "name": "11626ae19b395cca01a2e9365c7a4d37", "is_reserved": 0}, {"is_disabled": 0, "fusion_lon": 0.0, "fusion_lat": 0.0, "lat": 38.88580366666667, "type": "electric_scooter", "lon": -77.012263, "bike_id": "9e0e305f4cbec234d5aec77a0b92a15c", "rental_uris": {"android": "https://dc.lft.to/lastmile_qr_scan", "ios": "https://dc.lft.to/lastmile_qr_scan"}, "name": "9e0e305f4cbec234d5aec77a0b92a15c", "is_reserved": 0}, {"is_disabled": 0, "fusion_lon": 0.0, "fusion_lat": 0.0, "lat": 38.90375016666667, "type": "electric_scooter", "lon": -77.00744366666666, "bike_id": "3fc67bbb329416be4eeaba4d1a24266b", "rental_uris": {"android": "https://dc.lft.to/lastmile_qr_scan", "ios": "https://dc.lft.to/lastmile_qr_scan"}, "name": "3fc67bbb329416be4eeaba4d1a24266b", "is_reserved": 0}, {"is_disabled": 0, "fusion_lon": 0.0, "fusion_lat": 0.0, "lat": 38.91558916666666, "type": "electric_scooter", "lon": -77.039428, "bike_id": "e7bddaf67617bb6feeda0781e12f8880", "rental_uris": {"android": "https://dc.lft.to/lastmile_qr_scan", "ios": "https://dc.lft.to/lastmile_qr_scan"}, "name": "e7bddaf67617bb6feeda0781e12f8880", "is_reserved": 0}, {"is_disabled": 0, "fusion_lon": 0.0, "fusion_lat": 0.0, "lat": 38.90548483333333, "type": "electric_scooter", "lon": -77.03628033333334, "bike_id": "68a76394701dcacf21aa823bfcab3c2c", "rental_uris": {"android": "https://dc.lft.to/lastmile_qr_scan", "ios": "https://dc.lft.to/lastmile_qr_scan"}, "name": "68a76394701dcacf21aa823bfcab3c2c", "is_reserved": 0}, {"is_disabled": 0, "fusion_lon": 0.0, "fusion_lat": 0.0, "lat": 38.9378205, "type": "electric_scooter", "lon": -77.01877766666667, "bike_id": "0fe4bee887a230cb8be525aef16bacc7", "rental_uris": {"android": "https://dc.lft.to/lastmile_qr_scan", "ios": "https://dc.lft.to/lastmile_qr_scan"}, "name": "0fe4bee887a230cb8be525aef16bacc7", "is_reserved": 0}, {"is_disabled": 0, "fusion_lon": 0.0, "fusion_lat": 0.0, "lat": 38.892277666666665, "type": "electric_scooter", "lon": -77.02592966666667, "bike_id": "6fe631db3a07ec64410fefe6b4aa6988", "rental_uris": {"android": "https://dc.lft.to/lastmile_qr_scan", "ios": "https://dc.lft.to/lastmile_qr_scan"}, "name": "6fe631db3a07ec64410fefe6b4aa6988", "is_reserved": 0}, {"is_disabled": 0, "fusion_lon": 0.0, "fusion_lat": 0.0, "lat": 38.9225295, "type": "electric_scooter", "lon": -77.041436, "bike_id": "5de39fa6cd9938a0f43a28e1094e2482", "rental_uris": {"android": "https://dc.lft.to/lastmile_qr_scan", "ios": "https://dc.lft.to/lastmile_qr_scan"}, "name": "5de39fa6cd9938a0f43a28e1094e2482", "is_reserved": 0}, {"is_disabled": 0, "fusion_lon": 0.0, "fusion_lat": 0.0, "lat": 38.915666, "type": "electric_scooter", "lon": -77.0117155, "bike_id": "1945e5aab045139a6f20e51f558336f6", "rental_uris": {"android": "https://dc.lft.to/lastmile_qr_scan", "ios": "https://dc.lft.to/lastmile_qr_scan"}, "name": "1945e5aab045139a6f20e51f558336f6", "is_reserved": 0}, {"is_disabled": 0, "fusion_lon": 0.0, "fusion_lat": 0.0, "lat": 38.92218166666667, "type": "electric_scooter", "lon": -77.03293066666667, "bike_id": "9371d4f46c9d9fc3ad869cdbfff6ec65", "rental_uris": {"android": "https://dc.lft.to/lastmile_qr_scan", "ios": "https://dc.lft.to/lastmile_qr_scan"}, "name": "9371d4f46c9d9fc3ad869cdbfff6ec65", "is_reserved": 0}, {"is_disabled": 0, "fusion_lon": 0.0, "fusion_lat": 0.0, "lat": 38.91994, "type": "electric_scooter", "lon": -77.02529716666666, "bike_id": "affd3ab768334d2d714e6c5147916ec1", "rental_uris": {"android": "https://dc.lft.to/lastmile_qr_scan", "ios": "https://dc.lft.to/lastmile_qr_scan"}, "name": "affd3ab768334d2d714e6c5147916ec1", "is_reserved": 0}, {"is_disabled": 0, "fusion_lon": 0.0, "fusion_lat": 0.0, "lat": 38.92575983333333, "type": "electric_scooter", "lon": -76.99492533333333, "bike_id": "b166b678ffb14c4133607fcfa5cb0b38", "rental_uris": {"android": "https://dc.lft.to/lastmile_qr_scan", "ios": "https://dc.lft.to/lastmile_qr_scan"}, "name": "b166b678ffb14c4133607fcfa5cb0b38", "is_reserved": 0}, {"is_disabled": 0, "fusion_lon": 0.0, "fusion_lat": 0.0, "lat": 38.8874485, "type": "electric_scooter", "lon": -77.01537533333334, "bike_id": "3ac9d4fff8ec1088b738af4e9518b60e", "rental_uris": {"android": "https://dc.lft.to/lastmile_qr_scan", "ios": "https://dc.lft.to/lastmile_qr_scan"}, "name": "3ac9d4fff8ec1088b738af4e9518b60e", "is_reserved": 0}, {"is_disabled": 0, "fusion_lon": 0.0, "fusion_lat": 0.0, "lat": 38.8956495, "type": "electric_bike", "lon": -77.12738283333333, "bike_id": "ec50ce66485e0c2d4b7d8229d86ed4fc", "rental_uris": {"android": "https://dc.lft.to/lastmile_qr_scan", "ios": "https://dc.lft.to/lastmile_qr_scan"}, "name": "ec50ce66485e0c2d4b7d8229d86ed4fc", "is_reserved": 0}, {"is_disabled": 0, "fusion_lon": 0.0, "fusion_lat": 0.0, "lat": 38.92903066666667, "type": "electric_bike", "lon": -77.03752183333333, "bike_id": "3a7bd9e9a9326a21cf676bb91f287af5", "rental_uris": {"android": "https://dc.lft.to/lastmile_qr_scan", "ios": "https://dc.lft.to/lastmile_qr_scan"}, "name": "3a7bd9e9a9326a21cf676bb91f287af5", "is_reserved": 0}, {"is_disabled": 0, "fusion_lon": 0.0, "fusion_lat": 0.0, "lat": 38.8965795, "type": "electric_scooter", "lon": -77.01184766666667, "bike_id": "c334d07b35d28ce7cf5874167b3ce4ec", "rental_uris": {"android": "https://dc.lft.to/lastmile_qr_scan", "ios": "https://dc.lft.to/lastmile_qr_scan"}, "name": "c334d07b35d28ce7cf5874167b3ce4ec", "is_reserved": 0}, {"is_disabled": 0, "fusion_lon": 0.0, "fusion_lat": 0.0, "lat": 38.916169333333336, "type": "electric_scooter", "lon": -77.048606, "bike_id": "89f746cc25b2ead5cc9ec7b278246d51", "rental_uris": {"android": "https://dc.lft.to/lastmile_qr_scan", "ios": "https://dc.lft.to/lastmile_qr_scan"}, "name": "89f746cc25b2ead5cc9ec7b278246d51", "is_reserved": 0}, {"is_disabled": 0, "fusion_lon": 0.0, "fusion_lat": 0.0, "lat": 38.90875966666667, "type": "electric_scooter", "lon": -77.03471283333333, "bike_id": "b9e14b46110339302a034a9dd2c78156", "rental_uris": {"android": "https://dc.lft.to/lastmile_qr_scan", "ios": "https://dc.lft.to/lastmile_qr_scan"}, "name": "b9e14b46110339302a034a9dd2c78156", "is_reserved": 0}, {"is_disabled": 0, "fusion_lon": 0.0, "fusion_lat": 0.0, "lat": 38.93412883333333, "type": "electric_scooter", "lon": -77.02446333333333, "bike_id": "058c662a42a4450f85195910e0180808", "rental_uris": {"android": "https://dc.lft.to/lastmile_qr_scan", "ios": "https://dc.lft.to/lastmile_qr_scan"}, "name": "058c662a42a4450f85195910e0180808", "is_reserved": 0}, {"is_disabled": 0, "fusion_lon": 0.0, "fusion_lat": 0.0, "lat": 38.867309666666664, "type": "electric_scooter", "lon": -76.9794045, "bike_id": "a4f22df9c9b9c9b55f2018a0b34975c4", "rental_uris": {"android": "https://dc.lft.to/lastmile_qr_scan", "ios": "https://dc.lft.to/lastmile_qr_scan"}, "name": "a4f22df9c9b9c9b55f2018a0b34975c4", "is_reserved": 0}, {"is_disabled": 0, "fusion_lon": 0.0, "fusion_lat": 0.0, "lat": 38.923143333333336, "type": "electric_scooter", "lon": -77.04621633333333, "bike_id": "87d8e41d3fd95662a86e982729a641e2", "rental_uris": {"android": "https://dc.lft.to/lastmile_qr_scan", "ios": "https://dc.lft.to/lastmile_qr_scan"}, "name": "87d8e41d3fd95662a86e982729a641e2", "is_reserved": 0}, {"is_disabled": 0, "fusion_lon": 0.0, "fusion_lat": 0.0, "lat": 38.885291, "type": "electric_scooter", "lon": -76.92690133333333, "bike_id": "637abe4013ceef587acffe2e2c98dea8", "rental_uris": {"android": "https://dc.lft.to/lastmile_qr_scan", "ios": "https://dc.lft.to/lastmile_qr_scan"}, "name": "637abe4013ceef587acffe2e2c98dea8", "is_reserved": 0}, {"is_disabled": 0, "fusion_lon": 0.0, "fusion_lat": 0.0, "lat": 38.8779315, "type": "electric_scooter", "lon": -77.01352483333334, "bike_id": "47f6a36dd2754f96b729a2de6e3b7cdf", "rental_uris": {"android": "https://dc.lft.to/lastmile_qr_scan", "ios": "https://dc.lft.to/lastmile_qr_scan"}, "name": "47f6a36dd2754f96b729a2de6e3b7cdf", "is_reserved": 0}, {"is_disabled": 0, "fusion_lon": 0.0, "fusion_lat": 0.0, "lat": 38.92439533333334, "type": "electric_scooter", "lon": -77.03521166666667, "bike_id": "91875422b926652328ab6f8b004017f2", "rental_uris": {"android": "https://dc.lft.to/lastmile_qr_scan", "ios": "https://dc.lft.to/lastmile_qr_scan"}, "name": "91875422b926652328ab6f8b004017f2", "is_reserved": 0}, {"is_disabled": 0, "fusion_lon": 0.0, "fusion_lat": 0.0, "lat": 38.921463333333335, "type": "electric_scooter", "lon": -77.0295975, "bike_id": "79d127798be31b279c332f2f19088c4d", "rental_uris": {"android": "https://dc.lft.to/lastmile_qr_scan", "ios": "https://dc.lft.to/lastmile_qr_scan"}, "name": "79d127798be31b279c332f2f19088c4d", "is_reserved": 0}, {"is_disabled": 0, "fusion_lon": 0.0, "fusion_lat": 0.0, "lat": 38.93336016666667, "type": "electric_scooter", "lon": -77.0412745, "bike_id": "0b7c9584d19760777cca161a6a428b71", "rental_uris": {"android": "https://dc.lft.to/lastmile_qr_scan", "ios": "https://dc.lft.to/lastmile_qr_scan"}, "name": "0b7c9584d19760777cca161a6a428b71", "is_reserved": 0}, {"is_disabled": 0, "fusion_lon": 0.0, "fusion_lat": 0.0, "lat": 38.895984, "type": "electric_scooter", "lon": -77.02683816666666, "bike_id": "003f1ee87782dbc6f38427c8da4444b9", "rental_uris": {"android": "https://dc.lft.to/lastmile_qr_scan", "ios": "https://dc.lft.to/lastmile_qr_scan"}, "name": "003f1ee87782dbc6f38427c8da4444b9", "is_reserved": 0}, {"is_disabled": 0, "fusion_lon": 0.0, "fusion_lat": 0.0, "lat": 38.942839166666666, "type": "electric_bike", "lon": -77.0692095, "bike_id": "ca112f4ca5373b2d8574bcd29c99a1a7", "rental_uris": {"android": "https://dc.lft.to/lastmile_qr_scan", "ios": "https://dc.lft.to/lastmile_qr_scan"}, "name": "ca112f4ca5373b2d8574bcd29c99a1a7", "is_reserved": 0}, {"is_disabled": 0, "fusion_lon": 0.0, "fusion_lat": 0.0, "lat": 38.9158185, "type": "electric_scooter", "lon": -77.06720733333333, "bike_id": "5eb24352b27894d7a3316fda9f48540d", "rental_uris": {"android": "https://dc.lft.to/lastmile_qr_scan", "ios": "https://dc.lft.to/lastmile_qr_scan"}, "name": "5eb24352b27894d7a3316fda9f48540d", "is_reserved": 0}, {"is_disabled": 0, "fusion_lon": 0.0, "fusion_lat": 0.0, "lat": 38.89523666666667, "type": "electric_scooter", "lon": -76.97715866666667, "bike_id": "f5fe6f6c2aad78f6ec8f56920b02d16e", "rental_uris": {"android": "https://dc.lft.to/lastmile_qr_scan", "ios": "https://dc.lft.to/lastmile_qr_scan"}, "name": "f5fe6f6c2aad78f6ec8f56920b02d16e", "is_reserved": 0}, {"is_disabled": 0, "fusion_lon": 0.0, "fusion_lat": 0.0, "lat": 38.9335965, "type": "electric_scooter", "lon": -77.02401166666667, "bike_id": "00a3ea7586d731f1bb492c65f2e80459", "rental_uris": {"android": "https://dc.lft.to/lastmile_qr_scan", "ios": "https://dc.lft.to/lastmile_qr_scan"}, "name": "00a3ea7586d731f1bb492c65f2e80459", "is_reserved": 0}, {"is_disabled": 0, "fusion_lon": 0.0, "fusion_lat": 0.0, "lat": 38.904358, "type": "electric_scooter", "lon": -77.02242333333334, "bike_id": "73dfaa0e7e180a9f70998e3304b688af", "rental_uris": {"android": "https://dc.lft.to/lastmile_qr_scan", "ios": "https://dc.lft.to/lastmile_qr_scan"}, "name": "73dfaa0e7e180a9f70998e3304b688af", "is_reserved": 0}, {"is_disabled": 0, "fusion_lon": 0.0, "fusion_lat": 0.0, "lat": 38.93963566666667, "type": "electric_scooter", "lon": -77.0326955, "bike_id": "815daeb0de3c6aafd4295c84c8909c6e", "rental_uris": {"android": "https://dc.lft.to/lastmile_qr_scan", "ios": "https://dc.lft.to/lastmile_qr_scan"}, "name": "815daeb0de3c6aafd4295c84c8909c6e", "is_reserved": 0}, {"is_disabled": 0, "fusion_lon": 0.0, "fusion_lat": 0.0, "lat": 38.9146055, "type": "electric_scooter", "lon": -77.0228515, "bike_id": "84c405cfdc3b1c9cd249eb729cb1a59b", "rental_uris": {"android": "https://dc.lft.to/lastmile_qr_scan", "ios": "https://dc.lft.to/lastmile_qr_scan"}, "name": "84c405cfdc3b1c9cd249eb729cb1a59b", "is_reserved": 0}, {"is_disabled": 0, "fusion_lon": 0.0, "fusion_lat": 0.0, "lat": 38.906548666666666, "type": "electric_scooter", "lon": -77.04524933333333, "bike_id": "cd795331bcd870e0db52ecf4a84dbd35", "rental_uris": {"android": "https://dc.lft.to/lastmile_qr_scan", "ios": "https://dc.lft.to/lastmile_qr_scan"}, "name": "cd795331bcd870e0db52ecf4a84dbd35", "is_reserved": 0}, {"is_disabled": 0, "fusion_lon": 0.0, "fusion_lat": 0.0, "lat": 39.007842333333336, "type": "electric_bike", "lon": -76.99565583333333, "bike_id": "6bd47fd40b63b41220983efe4bcec256", "rental_uris": {"android": "https://dc.lft.to/lastmile_qr_scan", "ios": "https://dc.lft.to/lastmile_qr_scan"}, "name": "6bd47fd40b63b41220983efe4bcec256", "is_reserved": 0}, {"is_disabled": 0, "fusion_lon": 0.0, "fusion_lat": 0.0, "lat": 38.900094333333335, "type": "electric_scooter", "lon": -77.0118885, "bike_id": "f417d8aa42946024e6cce699d8fa77da", "rental_uris": {"android": "https://dc.lft.to/lastmile_qr_scan", "ios": "https://dc.lft.to/lastmile_qr_scan"}, "name": "f417d8aa42946024e6cce699d8fa77da", "is_reserved": 0}, {"is_disabled": 0, "fusion_lon": 0.0, "fusion_lat": 0.0, "lat": 38.917098833333334, "type": "electric_scooter", "lon": -77.04121966666666, "bike_id": "d7cbb5080d3ba98b5e453502a306dd6c", "rental_uris": {"android": "https://dc.lft.to/lastmile_qr_scan", "ios": "https://dc.lft.to/lastmile_qr_scan"}, "name": "d7cbb5080d3ba98b5e453502a306dd6c", "is_reserved": 0}, {"is_disabled": 0, "fusion_lon": 0.0, "fusion_lat": 0.0, "lat": 38.9091815, "type": "electric_scooter", "lon": -77.02312833333333, "bike_id": "076bce462a909bfd1d4a3124b7f0470f", "rental_uris": {"android": "https://dc.lft.to/lastmile_qr_scan", "ios": "https://dc.lft.to/lastmile_qr_scan"}, "name": "076bce462a909bfd1d4a3124b7f0470f", "is_reserved": 0}, {"is_disabled": 0, "fusion_lon": 0.0, "fusion_lat": 0.0, "lat": 38.9049075, "type": "electric_scooter", "lon": -77.02510783333334, "bike_id": "5379fb161ded1c45f85c0f4a96579f1e", "rental_uris": {"android": "https://dc.lft.to/lastmile_qr_scan", "ios": "https://dc.lft.to/lastmile_qr_scan"}, "name": "5379fb161ded1c45f85c0f4a96579f1e", "is_reserved": 0}, {"is_disabled": 0, "fusion_lon": 0.0, "fusion_lat": 0.0, "lat": 38.915611, "type": "electric_scooter", "lon": -77.01023583333334, "bike_id": "61038bed63a6da34fd2e43c055703c80", "rental_uris": {"android": "https://dc.lft.to/lastmile_qr_scan", "ios": "https://dc.lft.to/lastmile_qr_scan"}, "name": "61038bed63a6da34fd2e43c055703c80", "is_reserved": 0}, {"is_disabled": 0, "fusion_lon": 0.0, "fusion_lat": 0.0, "lat": 38.9055395, "type": "electric_scooter", "lon": -77.03251383333334, "bike_id": "fa500a553c9d0e96f8d08e2180dffd30", "rental_uris": {"android": "https://dc.lft.to/lastmile_qr_scan", "ios": "https://dc.lft.to/lastmile_qr_scan"}, "name": "fa500a553c9d0e96f8d08e2180dffd30", "is_reserved": 0}, {"is_disabled": 0, "fusion_lon": 0.0, "fusion_lat": 0.0, "lat": 38.98500283333333, "type": "electric_bike", "lon": -76.98200433333334, "bike_id": "5ebe66c8908ee2a1c66b71ff719057f5", "rental_uris": {"android": "https://dc.lft.to/lastmile_qr_scan", "ios": "https://dc.lft.to/lastmile_qr_scan"}, "name": "5ebe66c8908ee2a1c66b71ff719057f5", "is_reserved": 0}, {"is_disabled": 0, "fusion_lon": 0.0, "fusion_lat": 0.0, "lat": 38.83190333333334, "type": "electric_bike", "lon": -77.076833, "bike_id": "3a0bc5e64db01909268c11f696ad0430", "rental_uris": {"android": "https://dc.lft.to/lastmile_qr_scan", "ios": "https://dc.lft.to/lastmile_qr_scan"}, "name": "3a0bc5e64db01909268c11f696ad0430", "is_reserved": 0}, {"is_disabled": 0, "fusion_lon": 0.0, "fusion_lat": 0.0, "lat": 38.95174333333333, "type": "electric_scooter", "lon": -77.0565285, "bike_id": "245a25ac28a200365282485267e60ead", "rental_uris": {"android": "https://dc.lft.to/lastmile_qr_scan", "ios": "https://dc.lft.to/lastmile_qr_scan"}, "name": "245a25ac28a200365282485267e60ead", "is_reserved": 0}, {"is_disabled": 0, "fusion_lon": 0.0, "fusion_lat": 0.0, "lat": 38.82871766666667, "type": "electric_bike", "lon": -77.11226416666666, "bike_id": "ee549cce64f8da209517e25e5da527e4", "rental_uris": {"android": "https://dc.lft.to/lastmile_qr_scan", "ios": "https://dc.lft.to/lastmile_qr_scan"}, "name": "ee549cce64f8da209517e25e5da527e4", "is_reserved": 0}, {"is_disabled": 0, "fusion_lon": 0.0, "fusion_lat": 0.0, "lat": 38.87476633333333, "type": "electric_scooter", "lon": -77.01065366666667, "bike_id": "3894f00c3cdfcebab421eb6d22efc220", "rental_uris": {"android": "https://dc.lft.to/lastmile_qr_scan", "ios": "https://dc.lft.to/lastmile_qr_scan"}, "name": "3894f00c3cdfcebab421eb6d22efc220", "is_reserved": 0}, {"is_disabled": 0, "fusion_lon": 0.0, "fusion_lat": 0.0, "lat": 38.91328683333333, "type": "electric_scooter", "lon": -77.048597, "bike_id": "9d802beefba2be9438df97ff3f0700b8", "rental_uris": {"android": "https://dc.lft.to/lastmile_qr_scan", "ios": "https://dc.lft.to/lastmile_qr_scan"}, "name": "9d802beefba2be9438df97ff3f0700b8", "is_reserved": 0}, {"is_disabled": 0, "fusion_lon": 0.0, "fusion_lat": 0.0, "lat": 38.83317533333334, "type": "electric_scooter", "lon": -77.00005983333334, "bike_id": "cf14126784ea2d76865a4670b708036c", "rental_uris": {"android": "https://dc.lft.to/lastmile_qr_scan", "ios": "https://dc.lft.to/lastmile_qr_scan"}, "name": "cf14126784ea2d76865a4670b708036c", "is_reserved": 0}, {"is_disabled": 0, "fusion_lon": 0.0, "fusion_lat": 0.0, "lat": 38.9282535, "type": "electric_scooter", "lon": -77.03705783333334, "bike_id": "4ee07dba53d547b9cc6adeebd44a0ac1", "rental_uris": {"android": "https://dc.lft.to/lastmile_qr_scan", "ios": "https://dc.lft.to/lastmile_qr_scan"}, "name": "4ee07dba53d547b9cc6adeebd44a0ac1", "is_reserved": 0}, {"is_disabled": 0, "fusion_lon": 0.0, "fusion_lat": 0.0, "lat": 38.9170565, "type": "electric_scooter", "lon": -77.02439516666666, "bike_id": "d157169f098c99e20cd7be1b4526bcde", "rental_uris": {"android": "https://dc.lft.to/lastmile_qr_scan", "ios": "https://dc.lft.to/lastmile_qr_scan"}, "name": "d157169f098c99e20cd7be1b4526bcde", "is_reserved": 0}, {"is_disabled": 0, "fusion_lon": 0.0, "fusion_lat": 0.0, "lat": 38.9555505, "type": "electric_bike", "lon": -76.93530633333333, "bike_id": "fc69aaced5a7d496c857edb5859e3203", "rental_uris": {"android": "https://dc.lft.to/lastmile_qr_scan", "ios": "https://dc.lft.to/lastmile_qr_scan"}, "name": "fc69aaced5a7d496c857edb5859e3203", "is_reserved": 0}, {"is_disabled": 0, "fusion_lon": 0.0, "fusion_lat": 0.0, "lat": 38.925895833333335, "type": "electric_scooter", "lon": -77.05528983333333, "bike_id": "7fb4d904a4b4a2dc2ef049a91f190474", "rental_uris": {"android": "https://dc.lft.to/lastmile_qr_scan", "ios": "https://dc.lft.to/lastmile_qr_scan"}, "name": "7fb4d904a4b4a2dc2ef049a91f190474", "is_reserved": 0}, {"is_disabled": 0, "fusion_lon": 0.0, "fusion_lat": 0.0, "lat": 38.950795666666664, "type": "electric_scooter", "lon": -77.02882866666667, "bike_id": "509eeda2806522e0a18b51563af9f131", "rental_uris": {"android": "https://dc.lft.to/lastmile_qr_scan", "ios": "https://dc.lft.to/lastmile_qr_scan"}, "name": "509eeda2806522e0a18b51563af9f131", "is_reserved": 0}, {"is_disabled": 0, "fusion_lon": 0.0, "fusion_lat": 0.0, "lat": 38.99252416666667, "type": "electric_bike", "lon": -77.04994833333333, "bike_id": "f18218f190850696bd752dcb1db48a32", "rental_uris": {"android": "https://dc.lft.to/lastmile_qr_scan", "ios": "https://dc.lft.to/lastmile_qr_scan"}, "name": "f18218f190850696bd752dcb1db48a32", "is_reserved": 0}, {"is_disabled": 0, "fusion_lon": 0.0, "fusion_lat": 0.0, "lat": 38.92287833333334, "type": "electric_scooter", "lon": -77.02965233333333, "bike_id": "278551888ac9a096797f28a3542adf0f", "rental_uris": {"android": "https://dc.lft.to/lastmile_qr_scan", "ios": "https://dc.lft.to/lastmile_qr_scan"}, "name": "278551888ac9a096797f28a3542adf0f", "is_reserved": 0}, {"is_disabled": 0, "fusion_lon": 0.0, "fusion_lat": 0.0, "lat": 38.931856333333336, "type": "electric_bike", "lon": -77.2293415, "bike_id": "9895dae5fd243e091b1a3ac3317d68ae", "rental_uris": {"android": "https://dc.lft.to/lastmile_qr_scan", "ios": "https://dc.lft.to/lastmile_qr_scan"}, "name": "9895dae5fd243e091b1a3ac3317d68ae", "is_reserved": 0}, {"is_disabled": 0, "fusion_lon": 0.0, "fusion_lat": 0.0, "lat": 38.92054066666667, "type": "electric_scooter", "lon": -76.9987765, "bike_id": "1ad88628a6a7c1c4b0e47b8d00710259", "rental_uris": {"android": "https://dc.lft.to/lastmile_qr_scan", "ios": "https://dc.lft.to/lastmile_qr_scan"}, "name": "1ad88628a6a7c1c4b0e47b8d00710259", "is_reserved": 0}, {"is_disabled": 0, "fusion_lon": 0.0, "fusion_lat": 0.0, "lat": 38.86859283333333, "type": "electric_bike", "lon": -76.91656516666667, "bike_id": "2f802146dd1af132aaa7fcbf749906f5", "rental_uris": {"android": "https://dc.lft.to/lastmile_qr_scan", "ios": "https://dc.lft.to/lastmile_qr_scan"}, "name": "2f802146dd1af132aaa7fcbf749906f5", "is_reserved": 0}, {"is_disabled": 0, "fusion_lon": 0.0, "fusion_lat": 0.0, "lat": 38.917572666666665, "type": "electric_scooter", "lon": -77.035887, "bike_id": "206eb9933c7df5ffb8225e1454bd6f60", "rental_uris": {"android": "https://dc.lft.to/lastmile_qr_scan", "ios": "https://dc.lft.to/lastmile_qr_scan"}, "name": "206eb9933c7df5ffb8225e1454bd6f60", "is_reserved": 0}, {"is_disabled": 0, "fusion_lon": 0.0, "fusion_lat": 0.0, "lat": 38.861215333333334, "type": "electric_scooter", "lon": -76.985767, "bike_id": "d0dfb43a7c8be0d48dfaf9d2ccd5bb7b", "rental_uris": {"android": "https://dc.lft.to/lastmile_qr_scan", "ios": "https://dc.lft.to/lastmile_qr_scan"}, "name": "d0dfb43a7c8be0d48dfaf9d2ccd5bb7b", "is_reserved": 0}, {"is_disabled": 0, "fusion_lon": 0.0, "fusion_lat": 0.0, "lat": 38.911880333333336, "type": "electric_scooter", "lon": -77.03834133333334, "bike_id": "39265644230465c8d2d39deab2829b8d", "rental_uris": {"android": "https://dc.lft.to/lastmile_qr_scan", "ios": "https://dc.lft.to/lastmile_qr_scan"}, "name": "39265644230465c8d2d39deab2829b8d", "is_reserved": 0}, {"is_disabled": 0, "fusion_lon": 0.0, "fusion_lat": 0.0, "lat": 38.9282825, "type": "electric_scooter", "lon": -77.01400983333333, "bike_id": "5ac536108157760d8cd7602ebd0acef8", "rental_uris": {"android": "https://dc.lft.to/lastmile_qr_scan", "ios": "https://dc.lft.to/lastmile_qr_scan"}, "name": "5ac536108157760d8cd7602ebd0acef8", "is_reserved": 0}, {"is_disabled": 0, "fusion_lon": 0.0, "fusion_lat": 0.0, "lat": 38.927297833333334, "type": "electric_scooter", "lon": -77.022446, "bike_id": "212de117dbb1d12767c4cfd822d63494", "rental_uris": {"android": "https://dc.lft.to/lastmile_qr_scan", "ios": "https://dc.lft.to/lastmile_qr_scan"}, "name": "212de117dbb1d12767c4cfd822d63494", "is_reserved": 0}, {"is_disabled": 0, "fusion_lon": 0.0, "fusion_lat": 0.0, "lat": 38.900422166666665, "type": "electric_scooter", "lon": -76.92271716666667, "bike_id": "539d42246410d050eb441a4fa05bad81", "rental_uris": {"android": "https://dc.lft.to/lastmile_qr_scan", "ios": "https://dc.lft.to/lastmile_qr_scan"}, "name": "539d42246410d050eb441a4fa05bad81", "is_reserved": 0}, {"is_disabled": 0, "fusion_lon": 0.0, "fusion_lat": 0.0, "lat": 38.900127833333336, "type": "electric_scooter", "lon": -77.01204083333333, "bike_id": "648d86e885a475b6de3a9a448e00eb92", "rental_uris": {"android": "https://dc.lft.to/lastmile_qr_scan", "ios": "https://dc.lft.to/lastmile_qr_scan"}, "name": "648d86e885a475b6de3a9a448e00eb92", "is_reserved": 0}, {"is_disabled": 0, "fusion_lon": 0.0, "fusion_lat": 0.0, "lat": 38.893710666666664, "type": "electric_scooter", "lon": -76.94996766666667, "bike_id": "06b05a46a85b453c3a3dbd3370823553", "rental_uris": {"android": "https://dc.lft.to/lastmile_qr_scan", "ios": "https://dc.lft.to/lastmile_qr_scan"}, "name": "06b05a46a85b453c3a3dbd3370823553", "is_reserved": 0}, {"is_disabled": 0, "fusion_lon": 0.0, "fusion_lat": 0.0, "lat": 38.9363075, "type": "electric_scooter", "lon": -77.024643, "bike_id": "2a9fb231adc2a5b0ec9d741d2c16e066", "rental_uris": {"android": "https://dc.lft.to/lastmile_qr_scan", "ios": "https://dc.lft.to/lastmile_qr_scan"}, "name": "2a9fb231adc2a5b0ec9d741d2c16e066", "is_reserved": 0}, {"is_disabled": 0, "fusion_lon": 0.0, "fusion_lat": 0.0, "lat": 38.911828666666665, "type": "electric_scooter", "lon": -77.03510833333333, "bike_id": "66198393d9d99e7ee89e5755046d1276", "rental_uris": {"android": "https://dc.lft.to/lastmile_qr_scan", "ios": "https://dc.lft.to/lastmile_qr_scan"}, "name": "66198393d9d99e7ee89e5755046d1276", "is_reserved": 0}, {"is_disabled": 0, "fusion_lon": 0.0, "fusion_lat": 0.0, "lat": 38.88759966666667, "type": "electric_bike", "lon": -76.90088183333333, "bike_id": "d47e1c33058a8f5ae4cbf757dee23fc8", "rental_uris": {"android": "https://dc.lft.to/lastmile_qr_scan", "ios": "https://dc.lft.to/lastmile_qr_scan"}, "name": "d47e1c33058a8f5ae4cbf757dee23fc8", "is_reserved": 0}, {"is_disabled": 0, "fusion_lon": 0.0, "fusion_lat": 0.0, "lat": 38.92705383333333, "type": "electric_scooter", "lon": -77.0232775, "bike_id": "8f5ee576433a8de92d89698f882f321d", "rental_uris": {"android": "https://dc.lft.to/lastmile_qr_scan", "ios": "https://dc.lft.to/lastmile_qr_scan"}, "name": "8f5ee576433a8de92d89698f882f321d", "is_reserved": 0}, {"is_disabled": 0, "fusion_lon": 0.0, "fusion_lat": 0.0, "lat": 38.911921666666665, "type": "electric_scooter", "lon": -77.03185783333333, "bike_id": "a264906fa36bcd3178daa1ed02dc477b", "rental_uris": {"android": "https://dc.lft.to/lastmile_qr_scan", "ios": "https://dc.lft.to/lastmile_qr_scan"}, "name": "a264906fa36bcd3178daa1ed02dc477b", "is_reserved": 0}, {"is_disabled": 0, "fusion_lon": 0.0, "fusion_lat": 0.0, "lat": 38.93204716666666, "type": "electric_scooter", "lon": -77.023845, "bike_id": "8298230facfce1b6c081a771d93723a6", "rental_uris": {"android": "https://dc.lft.to/lastmile_qr_scan", "ios": "https://dc.lft.to/lastmile_qr_scan"}, "name": "8298230facfce1b6c081a771d93723a6", "is_reserved": 0}, {"is_disabled": 0, "fusion_lon": 0.0, "fusion_lat": 0.0, "lat": 38.91560483333333, "type": "electric_scooter", "lon": -77.0323745, "bike_id": "e55bfba407e4ee2ef810c37f7c0bac17", "rental_uris": {"android": "https://dc.lft.to/lastmile_qr_scan", "ios": "https://dc.lft.to/lastmile_qr_scan"}, "name": "e55bfba407e4ee2ef810c37f7c0bac17", "is_reserved": 0}, {"is_disabled": 0, "fusion_lon": 0.0, "fusion_lat": 0.0, "lat": 39.0001795, "type": "electric_bike", "lon": -76.87283966666666, "bike_id": "c6c21ca7e29c7fbd83037a9e83d98219", "rental_uris": {"android": "https://dc.lft.to/lastmile_qr_scan", "ios": "https://dc.lft.to/lastmile_qr_scan"}, "name": "c6c21ca7e29c7fbd83037a9e83d98219", "is_reserved": 0}, {"is_disabled": 0, "fusion_lon": 0.0, "fusion_lat": 0.0, "lat": 38.8287145, "type": "electric_bike", "lon": -77.11223916666667, "bike_id": "98d7655a62103f1507fece247b2b33c8", "rental_uris": {"android": "https://dc.lft.to/lastmile_qr_scan", "ios": "https://dc.lft.to/lastmile_qr_scan"}, "name": "98d7655a62103f1507fece247b2b33c8", "is_reserved": 0}, {"is_disabled": 0, "fusion_lon": 0.0, "fusion_lat": 0.0, "lat": 38.91620233333333, "type": "electric_scooter", "lon": -77.04340616666667, "bike_id": "7d42f340aafbfe8c8d54b6e65d7f34ad", "rental_uris": {"android": "https://dc.lft.to/lastmile_qr_scan", "ios": "https://dc.lft.to/lastmile_qr_scan"}, "name": "7d42f340aafbfe8c8d54b6e65d7f34ad", "is_reserved": 0}, {"is_disabled": 0, "fusion_lon": 0.0, "fusion_lat": 0.0, "lat": 38.915523, "type": "electric_scooter", "lon": -77.04630133333333, "bike_id": "6961f10dfca0d35a9777b3cbcea56952", "rental_uris": {"android": "https://dc.lft.to/lastmile_qr_scan", "ios": "https://dc.lft.to/lastmile_qr_scan"}, "name": "6961f10dfca0d35a9777b3cbcea56952", "is_reserved": 0}, {"is_disabled": 0, "fusion_lon": 0.0, "fusion_lat": 0.0, "lat": 38.917021166666665, "type": "electric_scooter", "lon": -77.02836966666666, "bike_id": "3868c358c2fa0176be02cf17e383463a", "rental_uris": {"android": "https://dc.lft.to/lastmile_qr_scan", "ios": "https://dc.lft.to/lastmile_qr_scan"}, "name": "3868c358c2fa0176be02cf17e383463a", "is_reserved": 0}, {"is_disabled": 0, "fusion_lon": 0.0, "fusion_lat": 0.0, "lat": 38.902567, "type": "electric_scooter", "lon": -77.06103266666666, "bike_id": "0a65c1f51af4eb45f10f58d93fa7fc12", "rental_uris": {"android": "https://dc.lft.to/lastmile_qr_scan", "ios": "https://dc.lft.to/lastmile_qr_scan"}, "name": "0a65c1f51af4eb45f10f58d93fa7fc12", "is_reserved": 0}, {"is_disabled": 0, "fusion_lon": 0.0, "fusion_lat": 0.0, "lat": 38.92605016666667, "type": "electric_scooter", "lon": -77.0242945, "bike_id": "1bac95e6e1f5476326214c85e3f87b2b", "rental_uris": {"android": "https://dc.lft.to/lastmile_qr_scan", "ios": "https://dc.lft.to/lastmile_qr_scan"}, "name": "1bac95e6e1f5476326214c85e3f87b2b", "is_reserved": 0}, {"is_disabled": 0, "fusion_lon": 0.0, "fusion_lat": 0.0, "lat": 38.900620833333335, "type": "electric_scooter", "lon": -76.93383816666666, "bike_id": "f44900b29ea517ca8a6290e137af3c5a", "rental_uris": {"android": "https://dc.lft.to/lastmile_qr_scan", "ios": "https://dc.lft.to/lastmile_qr_scan"}, "name": "f44900b29ea517ca8a6290e137af3c5a", "is_reserved": 0}, {"is_disabled": 0, "fusion_lon": 0.0, "fusion_lat": 0.0, "lat": 38.931345, "type": "electric_scooter", "lon": -77.05726616666666, "bike_id": "33065399d2d83ded17367ac0dd5a8515", "rental_uris": {"android": "https://dc.lft.to/lastmile_qr_scan", "ios": "https://dc.lft.to/lastmile_qr_scan"}, "name": "33065399d2d83ded17367ac0dd5a8515", "is_reserved": 0}, {"is_disabled": 0, "fusion_lon": 0.0, "fusion_lat": 0.0, "lat": 38.9034925, "type": "electric_scooter", "lon": -77.0174305, "bike_id": "68f921d3ee9b0ff9c102a9f3161797f3", "rental_uris": {"android": "https://dc.lft.to/lastmile_qr_scan", "ios": "https://dc.lft.to/lastmile_qr_scan"}, "name": "68f921d3ee9b0ff9c102a9f3161797f3", "is_reserved": 0}, {"is_disabled": 0, "fusion_lon": 0.0, "fusion_lat": 0.0, "lat": 38.8789525, "type": "electric_scooter", "lon": -76.9352325, "bike_id": "9fba67157dfc9222fc28f3e26ff9092b", "rental_uris": {"android": "https://dc.lft.to/lastmile_qr_scan", "ios": "https://dc.lft.to/lastmile_qr_scan"}, "name": "9fba67157dfc9222fc28f3e26ff9092b", "is_reserved": 0}, {"is_disabled": 0, "fusion_lon": 0.0, "fusion_lat": 0.0, "lat": 38.974110833333334, "type": "electric_bike", "lon": -77.0249765, "bike_id": "3b6ccf26f3657554fb5b5eb644a56a50", "rental_uris": {"android": "https://dc.lft.to/lastmile_qr_scan", "ios": "https://dc.lft.to/lastmile_qr_scan"}, "name": "3b6ccf26f3657554fb5b5eb644a56a50", "is_reserved": 0}, {"is_disabled": 0, "fusion_lon": 0.0, "fusion_lat": 0.0, "lat": 38.906833, "type": "electric_scooter", "lon": -77.02688933333333, "bike_id": "7093e5d6f288a7c73112cdb7dbb72574", "rental_uris": {"android": "https://dc.lft.to/lastmile_qr_scan", "ios": "https://dc.lft.to/lastmile_qr_scan"}, "name": "7093e5d6f288a7c73112cdb7dbb72574", "is_reserved": 0}, {"is_disabled": 0, "fusion_lon": 0.0, "fusion_lat": 0.0, "lat": 38.917264833333334, "type": "electric_scooter", "lon": -77.022909, "bike_id": "4694da627753d0507f4ae5ef813ed226", "rental_uris": {"android": "https://dc.lft.to/lastmile_qr_scan", "ios": "https://dc.lft.to/lastmile_qr_scan"}, "name": "4694da627753d0507f4ae5ef813ed226", "is_reserved": 0}, {"is_disabled": 0, "fusion_lon": 0.0, "fusion_lat": 0.0, "lat": 38.918035, "type": "electric_scooter", "lon": -77.03442533333333, "bike_id": "cb284a63aac55f38e39850814ceae43b", "rental_uris": {"android": "https://dc.lft.to/lastmile_qr_scan", "ios": "https://dc.lft.to/lastmile_qr_scan"}, "name": "cb284a63aac55f38e39850814ceae43b", "is_reserved": 0}, {"is_disabled": 0, "fusion_lon": 0.0, "fusion_lat": 0.0, "lat": 38.842875666666664, "type": "electric_scooter", "lon": -76.99948833333333, "bike_id": "fba7b0f5dc669a85782f6309cf072ded", "rental_uris": {"android": "https://dc.lft.to/lastmile_qr_scan", "ios": "https://dc.lft.to/lastmile_qr_scan"}, "name": "fba7b0f5dc669a85782f6309cf072ded", "is_reserved": 0}, {"is_disabled": 0, "fusion_lon": 0.0, "fusion_lat": 0.0, "lat": 38.908318333333334, "type": "electric_scooter", "lon": -76.996934, "bike_id": "c78dfee1d32ae48d6e6c202593f6bbdc", "rental_uris": {"android": "https://dc.lft.to/lastmile_qr_scan", "ios": "https://dc.lft.to/lastmile_qr_scan"}, "name": "c78dfee1d32ae48d6e6c202593f6bbdc", "is_reserved": 0}, {"is_disabled": 0, "fusion_lon": 0.0, "fusion_lat": 0.0, "lat": 38.897306, "type": "electric_scooter", "lon": -77.00747383333334, "bike_id": "65ba42624d06841a65e141024c5b6fe5", "rental_uris": {"android": "https://dc.lft.to/lastmile_qr_scan", "ios": "https://dc.lft.to/lastmile_qr_scan"}, "name": "65ba42624d06841a65e141024c5b6fe5", "is_reserved": 0}, {"is_disabled": 0, "fusion_lon": 0.0, "fusion_lat": 0.0, "lat": 38.886974333333335, "type": "electric_scooter", "lon": -76.95358783333333, "bike_id": "d1939093be732631f423a2eb070aa969", "rental_uris": {"android": "https://dc.lft.to/lastmile_qr_scan", "ios": "https://dc.lft.to/lastmile_qr_scan"}, "name": "d1939093be732631f423a2eb070aa969", "is_reserved": 0}, {"is_disabled": 0, "fusion_lon": 0.0, "fusion_lat": 0.0, "lat": 38.91927466666667, "type": "electric_scooter", "lon": -77.02524633333333, "bike_id": "955b2b2b50cee22bb52bc3ac4e5cd3f8", "rental_uris": {"android": "https://dc.lft.to/lastmile_qr_scan", "ios": "https://dc.lft.to/lastmile_qr_scan"}, "name": "955b2b2b50cee22bb52bc3ac4e5cd3f8", "is_reserved": 0}, {"is_disabled": 0, "fusion_lon": 0.0, "fusion_lat": 0.0, "lat": 38.935474, "type": "electric_scooter", "lon": -77.05809683333334, "bike_id": "cec4ec56c2b06eec2744bda03ace3e1e", "rental_uris": {"android": "https://dc.lft.to/lastmile_qr_scan", "ios": "https://dc.lft.to/lastmile_qr_scan"}, "name": "cec4ec56c2b06eec2744bda03ace3e1e", "is_reserved": 0}, {"is_disabled": 0, "fusion_lon": 0.0, "fusion_lat": 0.0, "lat": 38.9448975, "type": "electric_bike", "lon": -76.98662133333333, "bike_id": "f17492b6ec813bc89b938a3da323e504", "rental_uris": {"android": "https://dc.lft.to/lastmile_qr_scan", "ios": "https://dc.lft.to/lastmile_qr_scan"}, "name": "f17492b6ec813bc89b938a3da323e504", "is_reserved": 0}, {"is_disabled": 0, "fusion_lon": 0.0, "fusion_lat": 0.0, "lat": 38.89474666666667, "type": "electric_scooter", "lon": -77.0229125, "bike_id": "91efa540ea45e579d2d41aebc8a4afb2", "rental_uris": {"android": "https://dc.lft.to/lastmile_qr_scan", "ios": "https://dc.lft.to/lastmile_qr_scan"}, "name": "91efa540ea45e579d2d41aebc8a4afb2", "is_reserved": 0}, {"is_disabled": 0, "fusion_lon": 0.0, "fusion_lat": 0.0, "lat": 38.926385833333335, "type": "electric_scooter", "lon": -77.03866133333334, "bike_id": "0cdf337dbac73d68ff17c67d0f0f7782", "rental_uris": {"android": "https://dc.lft.to/lastmile_qr_scan", "ios": "https://dc.lft.to/lastmile_qr_scan"}, "name": "0cdf337dbac73d68ff17c67d0f0f7782", "is_reserved": 0}, {"is_disabled": 0, "fusion_lon": 0.0, "fusion_lat": 0.0, "lat": 38.895645, "type": "electric_scooter", "lon": -77.0228365, "bike_id": "86c4e67cb51a4e7fdb28591a1fa7310a", "rental_uris": {"android": "https://dc.lft.to/lastmile_qr_scan", "ios": "https://dc.lft.to/lastmile_qr_scan"}, "name": "86c4e67cb51a4e7fdb28591a1fa7310a", "is_reserved": 0}, {"is_disabled": 0, "fusion_lon": 0.0, "fusion_lat": 0.0, "lat": 38.924240833333336, "type": "electric_scooter", "lon": -77.04480533333333, "bike_id": "92af052e162b58085d2a1b1abaa6354b", "rental_uris": {"android": "https://dc.lft.to/lastmile_qr_scan", "ios": "https://dc.lft.to/lastmile_qr_scan"}, "name": "92af052e162b58085d2a1b1abaa6354b", "is_reserved": 0}, {"is_disabled": 0, "fusion_lon": 0.0, "fusion_lat": 0.0, "lat": 38.911755666666664, "type": "electric_scooter", "lon": -77.0269015, "bike_id": "36cdd2c0ba742a5c113955cdc12ce2c9", "rental_uris": {"android": "https://dc.lft.to/lastmile_qr_scan", "ios": "https://dc.lft.to/lastmile_qr_scan"}, "name": "36cdd2c0ba742a5c113955cdc12ce2c9", "is_reserved": 0}, {"is_disabled": 0, "fusion_lon": 0.0, "fusion_lat": 0.0, "lat": 38.97573583333333, "type": "electric_bike", "lon": -76.96406466666667, "bike_id": "61d0d97e29526a0cb92979be087cc580", "rental_uris": {"android": "https://dc.lft.to/lastmile_qr_scan", "ios": "https://dc.lft.to/lastmile_qr_scan"}, "name": "61d0d97e29526a0cb92979be087cc580", "is_reserved": 0}, {"is_disabled": 0, "fusion_lon": 0.0, "fusion_lat": 0.0, "lat": 38.88738133333333, "type": "electric_scooter", "lon": -77.02272833333333, "bike_id": "ba128814c65e6199441dabc35f65f565", "rental_uris": {"android": "https://dc.lft.to/lastmile_qr_scan", "ios": "https://dc.lft.to/lastmile_qr_scan"}, "name": "ba128814c65e6199441dabc35f65f565", "is_reserved": 0}, {"is_disabled": 0, "fusion_lon": 0.0, "fusion_lat": 0.0, "lat": 38.889666, "type": "electric_bike", "lon": -76.94862266666667, "bike_id": "da3c2b7ac995d30bf1fafedb79bed0a9", "rental_uris": {"android": "https://dc.lft.to/lastmile_qr_scan", "ios": "https://dc.lft.to/lastmile_qr_scan"}, "name": "da3c2b7ac995d30bf1fafedb79bed0a9", "is_reserved": 0}, {"is_disabled": 0, "fusion_lon": 0.0, "fusion_lat": 0.0, "lat": 38.88822, "type": "electric_bike", "lon": -77.1273795, "bike_id": "907dc7565c3895c4b0705a7ae0b95592", "rental_uris": {"android": "https://dc.lft.to/lastmile_qr_scan", "ios": "https://dc.lft.to/lastmile_qr_scan"}, "name": "907dc7565c3895c4b0705a7ae0b95592", "is_reserved": 0}, {"is_disabled": 0, "fusion_lon": 0.0, "fusion_lat": 0.0, "lat": 38.90827, "type": "electric_bike", "lon": -76.9415715, "bike_id": "0735c522fa9cae0cd227ead91beb3592", "rental_uris": {"android": "https://dc.lft.to/lastmile_qr_scan", "ios": "https://dc.lft.to/lastmile_qr_scan"}, "name": "0735c522fa9cae0cd227ead91beb3592", "is_reserved": 0}, {"is_disabled": 0, "fusion_lon": 0.0, "fusion_lat": 0.0, "lat": 38.93290966666667, "type": "electric_scooter", "lon": -77.02394166666667, "bike_id": "2dd1b3dd2b97dbe48c452d9377cddd9a", "rental_uris": {"android": "https://dc.lft.to/lastmile_qr_scan", "ios": "https://dc.lft.to/lastmile_qr_scan"}, "name": "2dd1b3dd2b97dbe48c452d9377cddd9a", "is_reserved": 0}, {"is_disabled": 0, "fusion_lon": 0.0, "fusion_lat": 0.0, "lat": 38.99090233333333, "type": "electric_bike", "lon": -76.874952, "bike_id": "d6bfbdb1092ef72f45928404a5547539", "rental_uris": {"android": "https://dc.lft.to/lastmile_qr_scan", "ios": "https://dc.lft.to/lastmile_qr_scan"}, "name": "d6bfbdb1092ef72f45928404a5547539", "is_reserved": 0}, {"is_disabled": 0, "fusion_lon": 0.0, "fusion_lat": 0.0, "lat": 38.898361, "type": "electric_scooter", "lon": -77.0294345, "bike_id": "2f5bd2f286b7a44e214a225971a3fe4e", "rental_uris": {"android": "https://dc.lft.to/lastmile_qr_scan", "ios": "https://dc.lft.to/lastmile_qr_scan"}, "name": "2f5bd2f286b7a44e214a225971a3fe4e", "is_reserved": 0}, {"is_disabled": 0, "fusion_lon": 0.0, "fusion_lat": 0.0, "lat": 38.90769433333333, "type": "electric_scooter", "lon": -77.03278183333333, "bike_id": "c8c5cd0a9ef6d3396799095dc628e5c2", "rental_uris": {"android": "https://dc.lft.to/lastmile_qr_scan", "ios": "https://dc.lft.to/lastmile_qr_scan"}, "name": "c8c5cd0a9ef6d3396799095dc628e5c2", "is_reserved": 0}, {"is_disabled": 0, "fusion_lon": 0.0, "fusion_lat": 0.0, "lat": 38.918015, "type": "electric_scooter", "lon": -77.0344295, "bike_id": "b7ad934091170eb74a84460ba792fc6c", "rental_uris": {"android": "https://dc.lft.to/lastmile_qr_scan", "ios": "https://dc.lft.to/lastmile_qr_scan"}, "name": "b7ad934091170eb74a84460ba792fc6c", "is_reserved": 0}, {"is_disabled": 0, "fusion_lon": 0.0, "fusion_lat": 0.0, "lat": 38.972583, "type": "electric_bike", "lon": -76.99167616666666, "bike_id": "918a7432f72e2b6ade41b50643ef8fad", "rental_uris": {"android": "https://dc.lft.to/lastmile_qr_scan", "ios": "https://dc.lft.to/lastmile_qr_scan"}, "name": "918a7432f72e2b6ade41b50643ef8fad", "is_reserved": 0}, {"is_disabled": 0, "fusion_lon": 0.0, "fusion_lat": 0.0, "lat": 38.89724566666666, "type": "electric_scooter", "lon": -77.01005366666666, "bike_id": "fd5f03fe6722a0332b9ed49ebceef83f", "rental_uris": {"android": "https://dc.lft.to/lastmile_qr_scan", "ios": "https://dc.lft.to/lastmile_qr_scan"}, "name": "fd5f03fe6722a0332b9ed49ebceef83f", "is_reserved": 0}, {"is_disabled": 0, "fusion_lon": 0.0, "fusion_lat": 0.0, "lat": 38.932226666666665, "type": "electric_scooter", "lon": -76.9948355, "bike_id": "19addbc499e15d4594e8b7f1dabc2e0b", "rental_uris": {"android": "https://dc.lft.to/lastmile_qr_scan", "ios": "https://dc.lft.to/lastmile_qr_scan"}, "name": "19addbc499e15d4594e8b7f1dabc2e0b", "is_reserved": 0}, {"is_disabled": 0, "fusion_lon": 0.0, "fusion_lat": 0.0, "lat": 38.905521666666665, "type": "electric_scooter", "lon": -77.04559383333333, "bike_id": "d1faadb053de8ec729742c1563d92236", "rental_uris": {"android": "https://dc.lft.to/lastmile_qr_scan", "ios": "https://dc.lft.to/lastmile_qr_scan"}, "name": "d1faadb053de8ec729742c1563d92236", "is_reserved": 0}, {"is_disabled": 0, "fusion_lon": 0.0, "fusion_lat": 0.0, "lat": 38.83935, "type": "electric_bike", "lon": -77.07902683333333, "bike_id": "d4a01e52f4bcab7d05857e9216e93765", "rental_uris": {"android": "https://dc.lft.to/lastmile_qr_scan", "ios": "https://dc.lft.to/lastmile_qr_scan"}, "name": "d4a01e52f4bcab7d05857e9216e93765", "is_reserved": 0}, {"is_disabled": 0, "fusion_lon": 0.0, "fusion_lat": 0.0, "lat": 38.81269316666667, "type": "electric_bike", "lon": -77.061733, "bike_id": "78ad2bcc045b78d4072d2f9f590a3937", "rental_uris": {"android": "https://dc.lft.to/lastmile_qr_scan", "ios": "https://dc.lft.to/lastmile_qr_scan"}, "name": "78ad2bcc045b78d4072d2f9f590a3937", "is_reserved": 0}, {"is_disabled": 0, "fusion_lon": 0.0, "fusion_lat": 0.0, "lat": 38.917551833333334, "type": "electric_scooter", "lon": -77.02805016666667, "bike_id": "9e550e646647940613a72d1c577e1b6e", "rental_uris": {"android": "https://dc.lft.to/lastmile_qr_scan", "ios": "https://dc.lft.to/lastmile_qr_scan"}, "name": "9e550e646647940613a72d1c577e1b6e", "is_reserved": 0}, {"is_disabled": 0, "fusion_lon": 0.0, "fusion_lat": 0.0, "lat": 38.93467166666667, "type": "electric_scooter", "lon": -77.0687585, "bike_id": "91fe98b9e49f5bfdf1d651b0bd29e111", "rental_uris": {"android": "https://dc.lft.to/lastmile_qr_scan", "ios": "https://dc.lft.to/lastmile_qr_scan"}, "name": "91fe98b9e49f5bfdf1d651b0bd29e111", "is_reserved": 0}, {"is_disabled": 0, "fusion_lon": 0.0, "fusion_lat": 0.0, "lat": 38.908807, "type": "electric_scooter", "lon": -77.043564, "bike_id": "736822518f45469d1a88c63027b5dd8c", "rental_uris": {"android": "https://dc.lft.to/lastmile_qr_scan", "ios": "https://dc.lft.to/lastmile_qr_scan"}, "name": "736822518f45469d1a88c63027b5dd8c", "is_reserved": 0}, {"is_disabled": 0, "fusion_lon": 0.0, "fusion_lat": 0.0, "lat": 38.926916, "type": "electric_scooter", "lon": -77.03773516666666, "bike_id": "df849a0e7d384276513dae1363baefd8", "rental_uris": {"android": "https://dc.lft.to/lastmile_qr_scan", "ios": "https://dc.lft.to/lastmile_qr_scan"}, "name": "df849a0e7d384276513dae1363baefd8", "is_reserved": 0}, {"is_disabled": 0, "fusion_lon": 0.0, "fusion_lat": 0.0, "lat": 38.94615, "type": "electric_scooter", "lon": -77.036224, "bike_id": "7c9e6aa9da95258e68522fd648584eaf", "rental_uris": {"android": "https://dc.lft.to/lastmile_qr_scan", "ios": "https://dc.lft.to/lastmile_qr_scan"}, "name": "7c9e6aa9da95258e68522fd648584eaf", "is_reserved": 0}, {"is_disabled": 0, "fusion_lon": 0.0, "fusion_lat": 0.0, "lat": 38.92009516666667, "type": "electric_scooter", "lon": -77.0313785, "bike_id": "a37e14b14224875794c4963502255017", "rental_uris": {"android": "https://dc.lft.to/lastmile_qr_scan", "ios": "https://dc.lft.to/lastmile_qr_scan"}, "name": "a37e14b14224875794c4963502255017", "is_reserved": 0}, {"is_disabled": 0, "fusion_lon": 0.0, "fusion_lat": 0.0, "lat": 38.912642, "type": "electric_scooter", "lon": -77.03366583333333, "bike_id": "78e7986671e65c65381400c5181bc599", "rental_uris": {"android": "https://dc.lft.to/lastmile_qr_scan", "ios": "https://dc.lft.to/lastmile_qr_scan"}, "name": "78e7986671e65c65381400c5181bc599", "is_reserved": 0}, {"is_disabled": 0, "fusion_lon": 0.0, "fusion_lat": 0.0, "lat": 38.869058, "type": "electric_scooter", "lon": -77.0137065, "bike_id": "0e28afd48337089a7919dd6bf612f56d", "rental_uris": {"android": "https://dc.lft.to/lastmile_qr_scan", "ios": "https://dc.lft.to/lastmile_qr_scan"}, "name": "0e28afd48337089a7919dd6bf612f56d", "is_reserved": 0}, {"is_disabled": 0, "fusion_lon": 0.0, "fusion_lat": 0.0, "lat": 38.929707, "type": "electric_scooter", "lon": -77.04209066666667, "bike_id": "6cf2c78b1850a55573f9fb60145b8226", "rental_uris": {"android": "https://dc.lft.to/lastmile_qr_scan", "ios": "https://dc.lft.to/lastmile_qr_scan"}, "name": "6cf2c78b1850a55573f9fb60145b8226", "is_reserved": 0}, {"is_disabled": 0, "fusion_lon": 0.0, "fusion_lat": 0.0, "lat": 38.916552833333334, "type": "electric_scooter", "lon": -77.043749, "bike_id": "fee9779d35604535e6fee4647de8de2d", "rental_uris": {"android": "https://dc.lft.to/lastmile_qr_scan", "ios": "https://dc.lft.to/lastmile_qr_scan"}, "name": "fee9779d35604535e6fee4647de8de2d", "is_reserved": 0}, {"is_disabled": 0, "fusion_lon": 0.0, "fusion_lat": 0.0, "lat": 38.93332483333333, "type": "electric_bike", "lon": -77.042105, "bike_id": "0f627481a7eaeeeb0295d6ba1ab8391a", "rental_uris": {"android": "https://dc.lft.to/lastmile_qr_scan", "ios": "https://dc.lft.to/lastmile_qr_scan"}, "name": "0f627481a7eaeeeb0295d6ba1ab8391a", "is_reserved": 0}, {"is_disabled": 0, "fusion_lon": 0.0, "fusion_lat": 0.0, "lat": 38.87439233333333, "type": "electric_bike", "lon": -77.0088365, "bike_id": "2f9898a7c5223f25abb446123325e42e", "rental_uris": {"android": "https://dc.lft.to/lastmile_qr_scan", "ios": "https://dc.lft.to/lastmile_qr_scan"}, "name": "2f9898a7c5223f25abb446123325e42e", "is_reserved": 0}, {"is_disabled": 0, "fusion_lon": 0.0, "fusion_lat": 0.0, "lat": 38.863519, "type": "electric_scooter", "lon": -76.99064366666667, "bike_id": "19883caad42a72560501267f43f700fe", "rental_uris": {"android": "https://dc.lft.to/lastmile_qr_scan", "ios": "https://dc.lft.to/lastmile_qr_scan"}, "name": "19883caad42a72560501267f43f700fe", "is_reserved": 0}, {"is_disabled": 0, "fusion_lon": 0.0, "fusion_lat": 0.0, "lat": 38.93463966666667, "type": "electric_scooter", "lon": -77.0729465, "bike_id": "921a378b7977b9586c08717a0ceca334", "rental_uris": {"android": "https://dc.lft.to/lastmile_qr_scan", "ios": "https://dc.lft.to/lastmile_qr_scan"}, "name": "921a378b7977b9586c08717a0ceca334", "is_reserved": 0}, {"is_disabled": 0, "fusion_lon": 0.0, "fusion_lat": 0.0, "lat": 38.920286833333336, "type": "electric_scooter", "lon": -77.01876883333334, "bike_id": "6d76ec4b7d869d6da6a8e060c8efeea5", "rental_uris": {"android": "https://dc.lft.to/lastmile_qr_scan", "ios": "https://dc.lft.to/lastmile_qr_scan"}, "name": "6d76ec4b7d869d6da6a8e060c8efeea5", "is_reserved": 0}, {"is_disabled": 0, "fusion_lon": 0.0, "fusion_lat": 0.0, "lat": 38.90861616666667, "type": "electric_scooter", "lon": -77.03208833333333, "bike_id": "f5848756d02a887b9503bdc3fe8d7344", "rental_uris": {"android": "https://dc.lft.to/lastmile_qr_scan", "ios": "https://dc.lft.to/lastmile_qr_scan"}, "name": "f5848756d02a887b9503bdc3fe8d7344", "is_reserved": 0}, {"is_disabled": 0, "fusion_lon": 0.0, "fusion_lat": 0.0, "lat": 38.9225875, "type": "electric_scooter", "lon": -77.03400066666667, "bike_id": "151548cc387f793cbcaf3a99231bae23", "rental_uris": {"android": "https://dc.lft.to/lastmile_qr_scan", "ios": "https://dc.lft.to/lastmile_qr_scan"}, "name": "151548cc387f793cbcaf3a99231bae23", "is_reserved": 0}, {"is_disabled": 0, "fusion_lon": 0.0, "fusion_lat": 0.0, "lat": 38.919493, "type": "electric_scooter", "lon": -77.01380133333333, "bike_id": "3e1cb418b900aa3149ac46c7496829ee", "rental_uris": {"android": "https://dc.lft.to/lastmile_qr_scan", "ios": "https://dc.lft.to/lastmile_qr_scan"}, "name": "3e1cb418b900aa3149ac46c7496829ee", "is_reserved": 0}, {"is_disabled": 0, "fusion_lon": 0.0, "fusion_lat": 0.0, "lat": 38.9121355, "type": "electric_scooter", "lon": -77.03192316666667, "bike_id": "59fe6fcd668a0efbbf7561e9f57b6c71", "rental_uris": {"android": "https://dc.lft.to/lastmile_qr_scan", "ios": "https://dc.lft.to/lastmile_qr_scan"}, "name": "59fe6fcd668a0efbbf7561e9f57b6c71", "is_reserved": 0}, {"is_disabled": 0, "fusion_lon": 0.0, "fusion_lat": 0.0, "lat": 38.917037, "type": "electric_scooter", "lon": -77.02880166666667, "bike_id": "ecc8fc8251045b9e7ef1716d576bbae9", "rental_uris": {"android": "https://dc.lft.to/lastmile_qr_scan", "ios": "https://dc.lft.to/lastmile_qr_scan"}, "name": "ecc8fc8251045b9e7ef1716d576bbae9", "is_reserved": 0}, {"is_disabled": 0, "fusion_lon": 0.0, "fusion_lat": 0.0, "lat": 38.935962333333336, "type": "electric_scooter", "lon": -77.0560335, "bike_id": "74345ef6a5ae714a1552f6c476afcaa2", "rental_uris": {"android": "https://dc.lft.to/lastmile_qr_scan", "ios": "https://dc.lft.to/lastmile_qr_scan"}, "name": "74345ef6a5ae714a1552f6c476afcaa2", "is_reserved": 0}, {"is_disabled": 0, "fusion_lon": 0.0, "fusion_lat": 0.0, "lat": 38.93477566666667, "type": "electric_scooter", "lon": -77.02399033333333, "bike_id": "eca37d31c1b8acbc99eb6756b65dd54f", "rental_uris": {"android": "https://dc.lft.to/lastmile_qr_scan", "ios": "https://dc.lft.to/lastmile_qr_scan"}, "name": "eca37d31c1b8acbc99eb6756b65dd54f", "is_reserved": 0}, {"is_disabled": 0, "fusion_lon": 0.0, "fusion_lat": 0.0, "lat": 38.92030583333333, "type": "electric_scooter", "lon": -77.01906183333334, "bike_id": "8c3d0f083aecea61a5fb651d569edef3", "rental_uris": {"android": "https://dc.lft.to/lastmile_qr_scan", "ios": "https://dc.lft.to/lastmile_qr_scan"}, "name": "8c3d0f083aecea61a5fb651d569edef3", "is_reserved": 0}, {"is_disabled": 0, "fusion_lon": 0.0, "fusion_lat": 0.0, "lat": 38.88740333333333, "type": "electric_scooter", "lon": -77.01533616666667, "bike_id": "1e3280f6c5a79ab87133b5aa3abace1c", "rental_uris": {"android": "https://dc.lft.to/lastmile_qr_scan", "ios": "https://dc.lft.to/lastmile_qr_scan"}, "name": "1e3280f6c5a79ab87133b5aa3abace1c", "is_reserved": 0}, {"is_disabled": 0, "fusion_lon": 0.0, "fusion_lat": 0.0, "lat": 38.8029425, "type": "electric_bike", "lon": -77.03986666666667, "bike_id": "c95dc784d887ad3b10b30772fcc37c03", "rental_uris": {"android": "https://dc.lft.to/lastmile_qr_scan", "ios": "https://dc.lft.to/lastmile_qr_scan"}, "name": "c95dc784d887ad3b10b30772fcc37c03", "is_reserved": 0}, {"is_disabled": 0, "fusion_lon": 0.0, "fusion_lat": 0.0, "lat": 38.92569133333333, "type": "electric_scooter", "lon": -77.08059133333333, "bike_id": "e7d3069dde5f84a15bcad79addc53630", "rental_uris": {"android": "https://dc.lft.to/lastmile_qr_scan", "ios": "https://dc.lft.to/lastmile_qr_scan"}, "name": "e7d3069dde5f84a15bcad79addc53630", "is_reserved": 0}, {"is_disabled": 0, "fusion_lon": 0.0, "fusion_lat": 0.0, "lat": 38.921138166666665, "type": "electric_scooter", "lon": -77.01756183333333, "bike_id": "af08a7e41f4607cd2b942e86b9a925d4", "rental_uris": {"android": "https://dc.lft.to/lastmile_qr_scan", "ios": "https://dc.lft.to/lastmile_qr_scan"}, "name": "af08a7e41f4607cd2b942e86b9a925d4", "is_reserved": 0}, {"is_disabled": 0, "fusion_lon": 0.0, "fusion_lat": 0.0, "lat": 38.877562166666664, "type": "electric_bike", "lon": -76.97996033333334, "bike_id": "2d59432312756574b997d19123ba2a39", "rental_uris": {"android": "https://dc.lft.to/lastmile_qr_scan", "ios": "https://dc.lft.to/lastmile_qr_scan"}, "name": "2d59432312756574b997d19123ba2a39", "is_reserved": 0}, {"is_disabled": 0, "fusion_lon": 0.0, "fusion_lat": 0.0, "lat": 38.895202, "type": "electric_scooter", "lon": -77.04845716666667, "bike_id": "4bc49c2205e2e3016b0ba133f102c370", "rental_uris": {"android": "https://dc.lft.to/lastmile_qr_scan", "ios": "https://dc.lft.to/lastmile_qr_scan"}, "name": "4bc49c2205e2e3016b0ba133f102c370", "is_reserved": 0}, {"is_disabled": 0, "fusion_lon": 0.0, "fusion_lat": 0.0, "lat": 38.905795499999996, "type": "electric_scooter", "lon": -77.05589083333334, "bike_id": "29de66c71b0c471c4b039c358cb3ade5", "rental_uris": {"android": "https://dc.lft.to/lastmile_qr_scan", "ios": "https://dc.lft.to/lastmile_qr_scan"}, "name": "29de66c71b0c471c4b039c358cb3ade5", "is_reserved": 0}, {"is_disabled": 0, "fusion_lon": 0.0, "fusion_lat": 0.0, "lat": 38.93957416666667, "type": "electric_bike", "lon": -77.360905, "bike_id": "789febbaeca523f21c387ac8a32e6033", "rental_uris": {"android": "https://dc.lft.to/lastmile_qr_scan", "ios": "https://dc.lft.to/lastmile_qr_scan"}, "name": "789febbaeca523f21c387ac8a32e6033", "is_reserved": 0}, {"is_disabled": 0, "fusion_lon": 0.0, "fusion_lat": 0.0, "lat": 38.9297575, "type": "electric_scooter", "lon": -77.027978, "bike_id": "3b82caec57211a9460dd3f347c560b0c", "rental_uris": {"android": "https://dc.lft.to/lastmile_qr_scan", "ios": "https://dc.lft.to/lastmile_qr_scan"}, "name": "3b82caec57211a9460dd3f347c560b0c", "is_reserved": 0}, {"is_disabled": 0, "fusion_lon": 0.0, "fusion_lat": 0.0, "lat": 38.90950266666667, "type": "electric_scooter", "lon": -77.048768, "bike_id": "ef0d598c1ed27f0d31653705367d2983", "rental_uris": {"android": "https://dc.lft.to/lastmile_qr_scan", "ios": "https://dc.lft.to/lastmile_qr_scan"}, "name": "ef0d598c1ed27f0d31653705367d2983", "is_reserved": 0},