{"data": {"bikes": [{"bike_id": "131e9d8fb997e4b86b5066e40346b849", "type": "electric_scooter", "is_disabled": 0, "lat": 38.92331083333333, "rental_uris": {"ios": "https://dc.lft.to/lastmile_qr_scan", "android": "https://dc.lft.to/lastmile_qr_scan"}, "is_reserved": 0, "fusion_lon": 0.0, "fusion_lat": 0.0, "lon": -77.0211705, "name": "131e9d8fb997e4b86b5066e40346b849"}, {"bike_id": "c4718f8d96ce57bbdead7a3acec33eaa", "type": "electric_scooter", "is_disabled": 0, "lat": 38.89833316666667, "rental_uris": {"ios": "https://dc.lft.to/lastmile_qr_scan", "android": "https://dc.lft.to/lastmile_qr_scan"}, "is_reserved": 0, "fusion_lon": 0.0, "fusion_lat": 0.0, "lon": -76.91950716666666, "name": "c4718f8d96ce57bbdead7a3acec33eaa"}, {"bike_id": "f337adcb8bc636d9579e794324b69615", "type": "electric_scooter", "is_disabled": 0, "lat": 38.957338166666666, "rental_uris": {"ios": "https://dc.lft.to/lastmile_qr_scan", "android": "https://dc.lft.to/lastmile_qr_scan"}, "is_reserved": 0, "fusion_lon": 0.0, "fusion_lat": 0.0, "lon": -77.02404516666667, "name": "f337adcb8bc636d9579e794324b69615"}, {"bike_id": "6be3f035c01405dc9fa75fc83abdc74b", "type": "electric_scooter", "is_disabled": 0, "lat": 38.915515166666665, "rental_uris": {"ios": "https://dc.lft.to/lastmile_qr_scan", "android": "https://dc.lft.to/lastmile_qr_scan"}, "is_reserved": 0, "fusion_lon": 0.0, "fusion_lat": 0.0, "lon": -77.04447166666667, "name": "6be3f035c01405dc9fa75fc83abdc74b"}, {"bike_id": "d90c1715b7dbc8aff6efb0485a47191e", "type": "electric_scooter", "is_disabled": 0, "lat": 38.929720333333336, "rental_uris": {"ios": "https://dc.lft.to/lastmile_qr_scan", "android": "https://dc.lft.to/lastmile_qr_scan"}, "is_reserved": 0, "fusion_lon": 0.0, "fusion_lat": 0.0, "lon": -77.02790983333334, "name": "d90c1715b7dbc8aff6efb0485a47191e"}, {"bike_id": "09ecebcd918bce3036ebd57d6837a8a4", "type": "electric_scooter", "is_disabled": 0, "lat": 38.86507616666667, "rental_uris": {"ios": "https://dc.lft.to/lastmile_qr_scan", "android": "https://dc.lft.to/lastmile_qr_scan"}, "is_reserved": 0, "fusion_lon": 0.0, "fusion_lat": 0.0, "lon": -76.99002266666666, "name": "09ecebcd918bce3036ebd57d6837a8a4"}, {"bike_id": "c11f18539081730365b1b9d83c6d3e0e", "type": "electric_scooter", "is_disabled": 0, "lat": 38.9242045, "rental_uris": {"ios": "https://dc.lft.to/lastmile_qr_scan", "android": "https://dc.lft.to/lastmile_qr_scan"}, "is_reserved": 0, "fusion_lon": 0.0, "fusion_lat": 0.0, "lon": -77.04458066666666, "name": "c11f18539081730365b1b9d83c6d3e0e"}, {"bike_id": "3191200b06c89670978f1c2630565542", "type": "electric_scooter", "is_disabled": 0, "lat": 38.9168195, "rental_uris": {"ios": "https://dc.lft.to/lastmile_qr_scan", "android": "https://dc.lft.to/lastmile_qr_scan"}, "is_reserved": 0, "fusion_lon": 0.0, "fusion_lat": 0.0, "lon": -77.023264, "name": "3191200b06c89670978f1c2630565542"}, {"bike_id": "4c02687f775a42a2938b3286eeb08f26", "type": "electric_scooter", "is_disabled": 0, "lat": 38.911747166666665, "rental_uris": {"ios": "https://dc.lft.to/lastmile_qr_scan", "android": "https://dc.lft.to/lastmile_qr_scan"}, "is_reserved": 0, "fusion_lon": 0.0, "fusion_lat": 0.0, "lon": -77.0044585, "name": "4c02687f775a42a2938b3286eeb08f26"}, {"bike_id": "006fe939f59655ed6647de064a3e5bbe", "type": "electric_scooter", "is_disabled": 0, "lat": 38.90408466666667, "rental_uris": {"ios": "https://dc.lft.to/lastmile_qr_scan", "android": "https://dc.lft.to/lastmile_qr_scan"}, "is_reserved": 0, "fusion_lon": 0.0, "fusion_lat": 0.0, "lon": -76.973278, "name": "006fe939f59655ed6647de064a3e5bbe"}, {"bike_id": "124ad81d76f9f3f5dadb949ee403cff3", "type": "electric_scooter", "is_disabled": 0, "lat": 38.91708583333333, "rental_uris": {"ios": "https://dc.lft.to/lastmile_qr_scan", "android": "https://dc.lft.to/lastmile_qr_scan"}, "is_reserved": 0, "fusion_lon": 0.0, "fusion_lat": 0.0, "lon": -77.09582283333333, "name": "124ad81d76f9f3f5dadb949ee403cff3"}, {"bike_id": "f5e80025d2bcc9e333c60a838aca127e", "type": "electric_scooter", "is_disabled": 0, "lat": 38.883803, "rental_uris": {"ios": "https://dc.lft.to/lastmile_qr_scan", "android": "https://dc.lft.to/lastmile_qr_scan"}, "is_reserved": 0, "fusion_lon": 0.0, "fusion_lat": 0.0, "lon": -77.01763666666666, "name": "f5e80025d2bcc9e333c60a838aca127e"}, {"bike_id": "1392ceafbdd8bf601769a749978a5de7", "type": "electric_scooter", "is_disabled": 0, "lat": 38.92772883333333, "rental_uris": {"ios": "https://dc.lft.to/lastmile_qr_scan", "android": "https://dc.lft.to/lastmile_qr_scan"}, "is_reserved": 0, "fusion_lon": 0.0, "fusion_lat": 0.0, "lon": -76.98758433333333, "name": "1392ceafbdd8bf601769a749978a5de7"}, {"bike_id": "0bb9dd8b1318c775c7ffd79b0d05099c", "type": "electric_scooter", "is_disabled": 0, "lat": 38.90539966666667, "rental_uris": {"ios": "https://dc.lft.to/lastmile_qr_scan", "android": "https://dc.lft.to/lastmile_qr_scan"}, "is_reserved": 0, "fusion_lon": 0.0, "fusion_lat": 0.0, "lon": -77.0415285, "name": "0bb9dd8b1318c775c7ffd79b0d05099c"}, {"bike_id": "55fa763d624ea8055400b3a69f077738", "type": "electric_scooter", "is_disabled": 0, "lat": 38.904186333333335, "rental_uris": {"ios": "https://dc.lft.to/lastmile_qr_scan", "android": "https://dc.lft.to/lastmile_qr_scan"}, "is_reserved": 0, "fusion_lon": 0.0, "fusion_lat": 0.0, "lon": -77.04996066666666, "name": "55fa763d624ea8055400b3a69f077738"}, {"bike_id": "2a80d16d32a2b0259cc609c128205510", "type": "electric_bike", "is_disabled": 0, "lat": 38.91693166666667, "rental_uris": {"ios": "https://dc.lft.to/lastmile_qr_scan", "android": "https://dc.lft.to/lastmile_qr_scan"}, "is_reserved": 0, "fusion_lon": 0.0, "fusion_lat": 0.0, "lon": -77.0376445, "name": "2a80d16d32a2b0259cc609c128205510"}, {"bike_id": "590c99598287f0b4fafe5b00c3cacc8f", "type": "electric_scooter", "is_disabled": 0, "lat": 38.9127145, "rental_uris": {"ios": "https://dc.lft.to/lastmile_qr_scan", "android": "https://dc.lft.to/lastmile_qr_scan"}, "is_reserved": 0, "fusion_lon": 0.0, "fusion_lat": 0.0, "lon": -77.0222225, "name": "590c99598287f0b4fafe5b00c3cacc8f"}, {"bike_id": "25c10611b524ebbf142c93feeb4f444b", "type": "electric_scooter", "is_disabled": 0, "lat": 38.943499833333334, "rental_uris": {"ios": "https://dc.lft.to/lastmile_qr_scan", "android": "https://dc.lft.to/lastmile_qr_scan"}, "is_reserved": 0, "fusion_lon": 0.0, "fusion_lat": 0.0, "lon": -77.03763866666667, "name": "25c10611b524ebbf142c93feeb4f444b"}, {"bike_id": "dbd1f9c5b73d98fef4954830f42adae6", "type": "electric_scooter", "is_disabled": 0, "lat": 38.86687333333333, "rental_uris": {"ios": "https://dc.lft.to/lastmile_qr_scan", "android": "https://dc.lft.to/lastmile_qr_scan"}, "is_reserved": 0, "fusion_lon": 0.0, "fusion_lat": 0.0, "lon": -76.985746, "name": "dbd1f9c5b73d98fef4954830f42adae6"}, {"bike_id": "7d7e7f01d2f7e608b2de99ca86e61d46", "type": "electric_scooter", "is_disabled": 0, "lat": 38.90244366666667, "rental_uris": {"ios": "https://dc.lft.to/lastmile_qr_scan", "android": "https://dc.lft.to/lastmile_qr_scan"}, "is_reserved": 0, "fusion_lon": 0.0, "fusion_lat": 0.0, "lon": -77.05902466666667, "name": "7d7e7f01d2f7e608b2de99ca86e61d46"}, {"bike_id": "e6f9a5b5b9e9402ed4712f89830d4cee", "type": "electric_scooter", "is_disabled": 0, "lat": 38.90306266666666, "rental_uris": {"ios": "https://dc.lft.to/lastmile_qr_scan", "android": "https://dc.lft.to/lastmile_qr_scan"}, "is_reserved": 0, "fusion_lon": 0.0, "fusion_lat": 0.0, "lon": -77.00875233333333, "name": "e6f9a5b5b9e9402ed4712f89830d4cee"}, {"bike_id": "7ba9a2883ffd5d1599b6d3616a2cbc03", "type": "electric_scooter", "is_disabled": 0, "lat": 38.9077465, "rental_uris": {"ios": "https://dc.lft.to/lastmile_qr_scan", "android": "https://dc.lft.to/lastmile_qr_scan"}, "is_reserved": 0, "fusion_lon": 0.0, "fusion_lat": 0.0, "lon": -77.073888, "name": "7ba9a2883ffd5d1599b6d3616a2cbc03"}, {"bike_id": "2678c77c8a51c38ffbba2df09f4f1e1d", "type": "electric_scooter", "is_disabled": 0, "lat": 38.916912333333336, "rental_uris": {"ios": "https://dc.lft.to/lastmile_qr_scan", "android": "https://dc.lft.to/lastmile_qr_scan"}, "is_reserved": 0, "fusion_lon": 0.0, "fusion_lat": 0.0, "lon": -77.0265875, "name": "2678c77c8a51c38ffbba2df09f4f1e1d"}, {"bike_id": "0f0b36eff8001b94c4ae531623b5630b", "type": "electric_bike", "is_disabled": 0, "lat": 38.80974616666666, "rental_uris": {"ios": "https://dc.lft.to/lastmile_qr_scan", "android": "https://dc.lft.to/lastmile_qr_scan"}, "is_reserved": 0, "fusion_lon": 0.0, "fusion_lat": 0.0, "lon": -77.08630083333334, "name": "0f0b36eff8001b94c4ae531623b5630b"}, {"bike_id": "507e7ff1bb425ddc628ec408dbe131d9", "type": "electric_scooter", "is_disabled": 0, "lat": 38.86380783333333, "rental_uris": {"ios": "https://dc.lft.to/lastmile_qr_scan", "android": "https://dc.lft.to/lastmile_qr_scan"}, "is_reserved": 0, "fusion_lon": 0.0, "fusion_lat": 0.0, "lon": -76.9906285, "name": "507e7ff1bb425ddc628ec408dbe131d9"}, {"bike_id": "3460bd23da6594e5112e325482d3da59", "type": "electric_scooter", "is_disabled": 0, "lat": 38.916331, "rental_uris": {"ios": "https://dc.lft.to/lastmile_qr_scan", "android": "https://dc.lft.to/lastmile_qr_scan"}, "is_reserved": 0, "fusion_lon": 0.0, "fusion_lat": 0.0, "lon": -77.03196183333333, "name": "3460bd23da6594e5112e325482d3da59"}, {"bike_id": "7c809bd43877e826ddee35da8288f53c", "type": "electric_scooter", "is_disabled": 0, "lat": 38.886652, "rental_uris": {"ios": "https://dc.lft.to/lastmile_qr_scan", "android": "https://dc.lft.to/lastmile_qr_scan"}, "is_reserved": 0, "fusion_lon": 0.0, "fusion_lat": 0.0, "lon": -77.02820316666667, "name": "7c809bd43877e826ddee35da8288f53c"}, {"bike_id": "7056b4281dac3e397d911d49d3b9b55e", "type": "electric_scooter", "is_disabled": 0, "lat": 38.955784333333334, "rental_uris": {"ios": "https://dc.lft.to/lastmile_qr_scan", "android": "https://dc.lft.to/lastmile_qr_scan"}, "is_reserved": 0, "fusion_lon": 0.0, "fusion_lat": 0.0, "lon": -77.08037883333333, "name": "7056b4281dac3e397d911d49d3b9b55e"}, {"bike_id": "497bcdda7b0cabf47cee9b5442e90282", "type": "electric_scooter", "is_disabled": 0, "lat": 38.903652666666666, "rental_uris": {"ios": "https://dc.lft.to/lastmile_qr_scan", "android": "https://dc.lft.to/lastmile_qr_scan"}, "is_reserved": 0, "fusion_lon": 0.0, "fusion_lat": 0.0, "lon": -77.03212266666667, "name": "497bcdda7b0cabf47cee9b5442e90282"}, {"bike_id": "b0470422395de62f1f80e09bdb401e25", "type": "electric_scooter", "is_disabled": 0, "lat": 38.920727166666666, "rental_uris": {"ios": "https://dc.lft.to/lastmile_qr_scan", "android": "https://dc.lft.to/lastmile_qr_scan"}, "is_reserved": 0, "fusion_lon": 0.0, "fusion_lat": 0.0, "lon": -77.02210583333333, "name": "b0470422395de62f1f80e09bdb401e25"}, {"bike_id": "7ec2433be2a89055787c7a162395ae3b", "type": "electric_scooter", "is_disabled": 0, "lat": 38.907892, "rental_uris": {"ios": "https://dc.lft.to/lastmile_qr_scan", "android": "https://dc.lft.to/lastmile_qr_scan"}, "is_reserved": 0, "fusion_lon": 0.0, "fusion_lat": 0.0, "lon": -77.04370533333334, "name": "7ec2433be2a89055787c7a162395ae3b"}, {"bike_id": "018cee5b858ab14ce6bc351b17fbba07", "type": "electric_bike", "is_disabled": 0, "lat": 38.9931435, "rental_uris": {"ios": "https://dc.lft.to/lastmile_qr_scan", "android": "https://dc.lft.to/lastmile_qr_scan"}, "is_reserved": 0, "fusion_lon": 0.0, "fusion_lat": 0.0, "lon": -77.0231715, "name": "018cee5b858ab14ce6bc351b17fbba07"}, {"bike_id": "ba7ad86d2230038410d11722030da6bf", "type": "electric_scooter", "is_disabled": 0, "lat": 38.89745516666667, "rental_uris": {"ios": "https://dc.lft.to/lastmile_qr_scan", "android": "https://dc.lft.to/lastmile_qr_scan"}, "is_reserved": 0, "fusion_lon": 0.0, "fusion_lat": 0.0, "lon": -77.02184133333333, "name": "ba7ad86d2230038410d11722030da6bf"}, {"bike_id": "caf983139f6092f9a823bca4db7725b4", "type": "electric_bike", "is_disabled": 0, "lat": 38.935257, "rental_uris": {"ios": "https://dc.lft.to/lastmile_qr_scan", "android": "https://dc.lft.to/lastmile_qr_scan"}, "is_reserved": 0, "fusion_lon": 0.0, "fusion_lat": 0.0, "lon": -76.9644055, "name": "caf983139f6092f9a823bca4db7725b4"}, {"bike_id": "a7c26dc6f3855d1b02de675ae68fda36", "type": "electric_scooter", "is_disabled": 0, "lat": 38.917702166666665, "rental_uris": {"ios": "https://dc.lft.to/lastmile_qr_scan", "android": "https://dc.lft.to/lastmile_qr_scan"}, "is_reserved": 0, "fusion_lon": 0.0, "fusion_lat": 0.0, "lon": -77.04766933333333, "name": "a7c26dc6f3855d1b02de675ae68fda36"}, {"bike_id": "dabfa9ee8976682890802f38cdad3b5a", "type": "electric_scooter", "is_disabled": 0, "lat": 38.920427833333335, "rental_uris": {"ios": "https://dc.lft.to/lastmile_qr_scan", "android": "https://dc.lft.to/lastmile_qr_scan"}, "is_reserved": 0, "fusion_lon": 0.0, "fusion_lat": 0.0, "lon": -77.02569433333333, "name": "dabfa9ee8976682890802f38cdad3b5a"}, {"bike_id": "ed15d65ef4c51718dd7e3d31ca3af4c0", "type": "electric_scooter", "is_disabled": 0, "lat": 38.923488, "rental_uris": {"ios": "https://dc.lft.to/lastmile_qr_scan", "android": "https://dc.lft.to/lastmile_qr_scan"}, "is_reserved": 0, "fusion_lon": 0.0, "fusion_lat": 0.0, "lon": -77.03521333333333, "name": "ed15d65ef4c51718dd7e3d31ca3af4c0"}, {"bike_id": "edbd9e70479f41d665d70eb322bcab13", "type": "electric_scooter", "is_disabled": 0, "lat": 38.92483416666666, "rental_uris": {"ios": "https://dc.lft.to/lastmile_qr_scan", "android": "https://dc.lft.to/lastmile_qr_scan"}, "is_reserved": 0, "fusion_lon": 0.0, "fusion_lat": 0.0, "lon": -77.03185783333333, "name": "edbd9e70479f41d665d70eb322bcab13"}, {"bike_id": "4e4786b63253946ad8e36872c6d20f8d", "type": "electric_scooter", "is_disabled": 0, "lat": 38.90313866666666, "rental_uris": {"ios": "https://dc.lft.to/lastmile_qr_scan", "android": "https://dc.lft.to/lastmile_qr_scan"}, "is_reserved": 0, "fusion_lon": 0.0, "fusion_lat": 0.0, "lon": -77.01740116666667, "name": "4e4786b63253946ad8e36872c6d20f8d"}, {"bike_id": "791240d4d29279d054537fe8e6a8dc24", "type": "electric_scooter", "is_disabled": 0, "lat": 38.937126666666664, "rental_uris": {"ios": "https://dc.lft.to/lastmile_qr_scan", "android": "https://dc.lft.to/lastmile_qr_scan"}, "is_reserved": 0, "fusion_lon": 0.0, "fusion_lat": 0.0, "lon": -77.036396, "name": "791240d4d29279d054537fe8e6a8dc24"}, {"bike_id": "879ea00aea8c2fc1d20cf56c9fcd3db0", "type": "electric_scooter", "is_disabled": 0, "lat": 38.9022615, "rental_uris": {"ios": "https://dc.lft.to/lastmile_qr_scan", "android": "https://dc.lft.to/lastmile_qr_scan"}, "is_reserved": 0, "fusion_lon": 0.0, "fusion_lat": 0.0, "lon": -77.02371883333333, "name": "879ea00aea8c2fc1d20cf56c9fcd3db0"}, {"bike_id": "165bef1d79a3642d4c550d16285bff63", "type": "electric_scooter", "is_disabled": 0, "lat": 38.90312683333333, "rental_uris": {"ios": "https://dc.lft.to/lastmile_qr_scan", "android": "https://dc.lft.to/lastmile_qr_scan"}, "is_reserved": 0, "fusion_lon": 0.0, "fusion_lat": 0.0, "lon": -76.99126966666667, "name": "165bef1d79a3642d4c550d16285bff63"}, {"bike_id": "f06f8d91309b9c6bd842a25e42792c6e", "type": "electric_scooter", "is_disabled": 0, "lat": 38.885433166666665, "rental_uris": {"ios": "https://dc.lft.to/lastmile_qr_scan", "android": "https://dc.lft.to/lastmile_qr_scan"}, "is_reserved": 0, "fusion_lon": 0.0, "fusion_lat": 0.0, "lon": -77.00579916666666, "name": "f06f8d91309b9c6bd842a25e42792c6e"}, {"bike_id": "01d3e8e33a1a04c08fc8f94f813f6455", "type": "electric_scooter", "is_disabled": 0, "lat": 38.92399, "rental_uris": {"ios": "https://dc.lft.to/lastmile_qr_scan", "android": "https://dc.lft.to/lastmile_qr_scan"}, "is_reserved": 0, "fusion_lon": 0.0, "fusion_lat": 0.0, "lon": -76.99370683333333, "name": "01d3e8e33a1a04c08fc8f94f813f6455"}, {"bike_id": "8c92c4f8a96dcc1dfb80e56b54575cbe", "type": "electric_scooter", "is_disabled": 0, "lat": 38.91422333333333, "rental_uris": {"ios": "https://dc.lft.to/lastmile_qr_scan", "android": "https://dc.lft.to/lastmile_qr_scan"}, "is_reserved": 0, "fusion_lon": 0.0, "fusion_lat": 0.0, "lon": -77.01989533333334, "name": "8c92c4f8a96dcc1dfb80e56b54575cbe"}, {"bike_id": "14b71bf34597ef4acc260c8b126b4230", "type": "electric_scooter", "is_disabled": 0, "lat": 38.92092016666667, "rental_uris": {"ios": "https://dc.lft.to/lastmile_qr_scan", "android": "https://dc.lft.to/lastmile_qr_scan"}, "is_reserved": 0, "fusion_lon": 0.0, "fusion_lat": 0.0, "lon": -77.0415675, "name": "14b71bf34597ef4acc260c8b126b4230"}, {"bike_id": "fe90f4c1b80a34b145615641f087ec9e", "type": "electric_scooter", "is_disabled": 0, "lat": 38.887139833333336, "rental_uris": {"ios": "https://dc.lft.to/lastmile_qr_scan", "android": "https://dc.lft.to/lastmile_qr_scan"}, "is_reserved": 0, "fusion_lon": 0.0, "fusion_lat": 0.0, "lon": -77.01776633333333, "name": "fe90f4c1b80a34b145615641f087ec9e"}, {"bike_id": "b42eaf5e9d6530da4b8eea33f1bea2a7", "type": "electric_scooter", "is_disabled": 0, "lat": 38.9170765, "rental_uris": {"ios": "https://dc.lft.to/lastmile_qr_scan", "android": "https://dc.lft.to/lastmile_qr_scan"}, "is_reserved": 0, "fusion_lon": 0.0, "fusion_lat": 0.0, "lon": -77.024122, "name": "b42eaf5e9d6530da4b8eea33f1bea2a7"}, {"bike_id": "193cef76691992f93598f386ddcfd9a8", "type": "electric_bike", "is_disabled": 0, "lat": 39.013720166666666, "rental_uris": {"ios": "https://dc.lft.to/lastmile_qr_scan", "android": "https://dc.lft.to/lastmile_qr_scan"}, "is_reserved": 0, "fusion_lon": 0.0, "fusion_lat": 0.0, "lon": -76.92132933333333, "name": "193cef76691992f93598f386ddcfd9a8"}, {"bike_id": "76c3fed46dc895b3f1c20a1b5c96e396", "type": "electric_scooter", "is_disabled": 0, "lat": 38.9082425, "rental_uris": {"ios": "https://dc.lft.to/lastmile_qr_scan", "android": "https://dc.lft.to/lastmile_qr_scan"}, "is_reserved": 0, "fusion_lon": 0.0, "fusion_lat": 0.0, "lon": -76.9971105, "name": "76c3fed46dc895b3f1c20a1b5c96e396"}, {"bike_id": "fd153f47db4f563f9bcb85ecf26f6d77", "type": "electric_scooter", "is_disabled": 0, "lat": 38.9140685, "rental_uris": {"ios": "https://dc.lft.to/lastmile_qr_scan", "android": "https://dc.lft.to/lastmile_qr_scan"}, "is_reserved": 0, "fusion_lon": 0.0, "fusion_lat": 0.0, "lon": -77.0319925, "name": "fd153f47db4f563f9bcb85ecf26f6d77"}, {"bike_id": "1c868a9fb939126e561ad8ab7ccfbb21", "type": "electric_scooter", "is_disabled": 0, "lat": 38.9156695, "rental_uris": {"ios": "https://dc.lft.to/lastmile_qr_scan", "android": "https://dc.lft.to/lastmile_qr_scan"}, "is_reserved": 0, "fusion_lon": 0.0, "fusion_lat": 0.0, "lon": -77.02021833333333, "name": "1c868a9fb939126e561ad8ab7ccfbb21"}, {"bike_id": "ac721ca6ffb04b4b4062840a0f34aed1", "type": "electric_scooter", "is_disabled": 0, "lat": 38.8961145, "rental_uris": {"ios": "https://dc.lft.to/lastmile_qr_scan", "android": "https://dc.lft.to/lastmile_qr_scan"}, "is_reserved": 0, "fusion_lon": 0.0, "fusion_lat": 0.0, "lon": -77.0092765, "name": "ac721ca6ffb04b4b4062840a0f34aed1"}, {"bike_id": "af07190a0667114f68f035fbe060ba32", "type": "electric_scooter", "is_disabled": 0, "lat": 38.917729, "rental_uris": {"ios": "https://dc.lft.to/lastmile_qr_scan", "android": "https://dc.lft.to/lastmile_qr_scan"}, "is_reserved": 0, "fusion_lon": 0.0, "fusion_lat": 0.0, "lon": -77.02955533333333, "name": "af07190a0667114f68f035fbe060ba32"}, {"bike_id": "69b0b4b5b413569d10ba04c7507b8976", "type": "electric_bike", "is_disabled": 0, "lat": 38.92152466666667, "rental_uris": {"ios": "https://dc.lft.to/lastmile_qr_scan", "android": "https://dc.lft.to/lastmile_qr_scan"}, "is_reserved": 0, "fusion_lon": 0.0, "fusion_lat": 0.0, "lon": -77.03665633333334, "name": "69b0b4b5b413569d10ba04c7507b8976"}, {"bike_id": "09122842844d74ddd9e87cec5694b332", "type": "electric_scooter", "is_disabled": 0, "lat": 38.915638, "rental_uris": {"ios": "https://dc.lft.to/lastmile_qr_scan", "android": "https://dc.lft.to/lastmile_qr_scan"}, "is_reserved": 0, "fusion_lon": 0.0, "fusion_lat": 0.0, "lon": -77.0104285, "name": "09122842844d74ddd9e87cec5694b332"}, {"bike_id": "ed688bdcba19aa4cb7c6d76166ffbc42", "type": "electric_scooter", "is_disabled": 0, "lat": 38.92105816666667, "rental_uris": {"ios": "https://dc.lft.to/lastmile_qr_scan", "android": "https://dc.lft.to/lastmile_qr_scan"}, "is_reserved": 0, "fusion_lon": 0.0, "fusion_lat": 0.0, "lon": -77.031795, "name": "ed688bdcba19aa4cb7c6d76166ffbc42"}, {"bike_id": "cf93bec318dac78ad513e790939b1e2e", "type": "electric_scooter", "is_disabled": 0, "lat": 38.92086366666667, "rental_uris": {"ios": "https://dc.lft.to/lastmile_qr_scan", "android": "https://dc.lft.to/lastmile_qr_scan"}, "is_reserved": 0, "fusion_lon": 0.0, "fusion_lat": 0.0, "lon": -77.022993, "name": "cf93bec318dac78ad513e790939b1e2e"}, {"bike_id": "0a6a5662b3bca6dc9b19f3d00bba370f", "type": "electric_scooter", "is_disabled": 0, "lat": 38.8924275, "rental_uris": {"ios": "https://dc.lft.to/lastmile_qr_scan", "android": "https://dc.lft.to/lastmile_qr_scan"}, "is_reserved": 0, "fusion_lon": 0.0, "fusion_lat": 0.0, "lon": -77.0450065, "name": "0a6a5662b3bca6dc9b19f3d00bba370f"}, {"bike_id": "303c7b0a75e2fa251da22e713ecdf2a0", "type": "electric_scooter", "is_disabled": 0, "lat": 38.9012295, "rental_uris": {"ios": "https://dc.lft.to/lastmile_qr_scan", "android": "https://dc.lft.to/lastmile_qr_scan"}, "is_reserved": 0, "fusion_lon": 0.0, "fusion_lat": 0.0, "lon": -77.0181765, "name": "303c7b0a75e2fa251da22e713ecdf2a0"}, {"bike_id": "cb15529939bc5a90ad07031e7d806855", "type": "electric_scooter", "is_disabled": 0, "lat": 38.91274816666667, "rental_uris": {"ios": "https://dc.lft.to/lastmile_qr_scan", "android": "https://dc.lft.to/lastmile_qr_scan"}, "is_reserved": 0, "fusion_lon": 0.0, "fusion_lat": 0.0, "lon": -77.023027, "name": "cb15529939bc5a90ad07031e7d806855"}, {"bike_id": "f3c1f92312d6f79427b075fc746a4dd2", "type": "electric_scooter", "is_disabled": 0, "lat": 38.92321183333333, "rental_uris": {"ios": "https://dc.lft.to/lastmile_qr_scan", "android": "https://dc.lft.to/lastmile_qr_scan"}, "is_reserved": 0, "fusion_lon": 0.0, "fusion_lat": 0.0, "lon": -77.037428, "name": "f3c1f92312d6f79427b075fc746a4dd2"}, {"bike_id": "0aa401249d37f89fb70378d5eed5baac", "type": "electric_scooter", "is_disabled": 0, "lat": 38.9307715, "rental_uris": {"ios": "https://dc.lft.to/lastmile_qr_scan", "android": "https://dc.lft.to/lastmile_qr_scan"}, "is_reserved": 0, "fusion_lon": 0.0, "fusion_lat": 0.0, "lon": -77.02791783333333, "name": "0aa401249d37f89fb70378d5eed5baac"}, {"bike_id": "9b96332b6d230e200a9b8c50483c4d92", "type": "electric_scooter", "is_disabled": 0, "lat": 38.92262, "rental_uris": {"ios": "https://dc.lft.to/lastmile_qr_scan", "android": "https://dc.lft.to/lastmile_qr_scan"}, "is_reserved": 0, "fusion_lon": 0.0, "fusion_lat": 0.0, "lon": -77.03669266666667, "name": "9b96332b6d230e200a9b8c50483c4d92"}, {"bike_id": "de3b3d7863009b3fd63bade4c3b064c6", "type": "electric_scooter", "is_disabled": 0, "lat": 38.915033666666666, "rental_uris": {"ios": "https://dc.lft.to/lastmile_qr_scan", "android": "https://dc.lft.to/lastmile_qr_scan"}, "is_reserved": 0, "fusion_lon": 0.0, "fusion_lat": 0.0, "lon": -77.01775016666667, "name": "de3b3d7863009b3fd63bade4c3b064c6"}, {"bike_id": "aaadcc93fda43295729f91295cef7a8a", "type": "electric_scooter", "is_disabled": 0, "lat": 38.91559083333333, "rental_uris": {"ios": "https://dc.lft.to/lastmile_qr_scan", "android": "https://dc.lft.to/lastmile_qr_scan"}, "is_reserved": 0, "fusion_lon": 0.0, "fusion_lat": 0.0, "lon": -77.012322, "name": "aaadcc93fda43295729f91295cef7a8a"}, {"bike_id": "7812ec7ba58f0e7349231908f5fcce3c", "type": "electric_scooter", "is_disabled": 0, "lat": 38.902542, "rental_uris": {"ios": "https://dc.lft.to/lastmile_qr_scan", "android": "https://dc.lft.to/lastmile_qr_scan"}, "is_reserved": 0, "fusion_lon": 0.0, "fusion_lat": 0.0, "lon": -77.032782, "name": "7812ec7ba58f0e7349231908f5fcce3c"}, {"bike_id": "7d21b6cd29bd85f0272f5ca6d10e04ac", "type": "electric_bike", "is_disabled": 0, "lat": 38.9155205, "rental_uris": {"ios": "https://dc.lft.to/lastmile_qr_scan", "android": "https://dc.lft.to/lastmile_qr_scan"}, "is_reserved": 0, "fusion_lon": 0.0, "fusion_lat": 0.0, "lon": -77.066728, "name": "7d21b6cd29bd85f0272f5ca6d10e04ac"}, {"bike_id": "60db8ca8345bd9be64734a82d3855e88", "type": "electric_scooter", "is_disabled": 0, "lat": 38.91284483333333, "rental_uris": {"ios": "https://dc.lft.to/lastmile_qr_scan", "android": "https://dc.lft.to/lastmile_qr_scan"}, "is_reserved": 0, "fusion_lon": 0.0, "fusion_lat": 0.0, "lon": -77.03196883333334, "name": "60db8ca8345bd9be64734a82d3855e88"}, {"bike_id": "27f764787ab12cd5182e9e9641396b88", "type": "electric_scooter", "is_disabled": 0, "lat": 38.91191883333333, "rental_uris": {"ios": "https://dc.lft.to/lastmile_qr_scan", "android": "https://dc.lft.to/lastmile_qr_scan"}, "is_reserved": 0, "fusion_lon": 0.0, "fusion_lat": 0.0, "lon": -77.038288, "name": "27f764787ab12cd5182e9e9641396b88"}, {"bike_id": "323cc0dc6926c868cf28f39e9205071a", "type": "electric_scooter", "is_disabled": 0, "lat": 38.90952333333333, "rental_uris": {"ios": "https://dc.lft.to/lastmile_qr_scan", "android": "https://dc.lft.to/lastmile_qr_scan"}, "is_reserved": 0, "fusion_lon": 0.0, "fusion_lat": 0.0, "lon": -77.048681, "name": "323cc0dc6926c868cf28f39e9205071a"}, {"bike_id": "6d1fdcbc65482050663c555315efb77d", "type": "electric_scooter", "is_disabled": 0, "lat": 38.904090833333335, "rental_uris": {"ios": "https://dc.lft.to/lastmile_qr_scan", "android": "https://dc.lft.to/lastmile_qr_scan"}, "is_reserved": 0, "fusion_lon": 0.0, "fusion_lat": 0.0, "lon": -76.97333016666667, "name": "6d1fdcbc65482050663c555315efb77d"}, {"bike_id": "f3a1b885a1242383f0bd4168ab92d33f", "type": "electric_scooter", "is_disabled": 0, "lat": 38.920837666666664, "rental_uris": {"ios": "https://dc.lft.to/lastmile_qr_scan", "android": "https://dc.lft.to/lastmile_qr_scan"}, "is_reserved": 0, "fusion_lon": 0.0, "fusion_lat": 0.0, "lon": -77.02299283333333, "name": "f3a1b885a1242383f0bd4168ab92d33f"}, {"bike_id": "c38a8d1fc0e4a5b38bf5c6bf17771d12", "type": "electric_scooter", "is_disabled": 0, "lat": 38.866481666666665, "rental_uris": {"ios": "https://dc.lft.to/lastmile_qr_scan", "android": "https://dc.lft.to/lastmile_qr_scan"}, "is_reserved": 0, "fusion_lon": 0.0, "fusion_lat": 0.0, "lon": -76.9886995, "name": "c38a8d1fc0e4a5b38bf5c6bf17771d12"}, {"bike_id": "126a075f638218e457ca3eec7a0dc6e5", "type": "electric_scooter", "is_disabled": 0, "lat": 38.9172815, "rental_uris": {"ios": "https://dc.lft.to/lastmile_qr_scan", "android": "https://dc.lft.to/lastmile_qr_scan"}, "is_reserved": 0, "fusion_lon": 0.0, "fusion_lat": 0.0, "lon": -77.03213666666667, "name": "126a075f638218e457ca3eec7a0dc6e5"}, {"bike_id": "63c768edbdd1f764d392a28be3c19536", "type": "electric_scooter", "is_disabled": 0, "lat": 38.903595833333334, "rental_uris": {"ios": "https://dc.lft.to/lastmile_qr_scan", "android": "https://dc.lft.to/lastmile_qr_scan"}, "is_reserved": 0, "fusion_lon": 0.0, "fusion_lat": 0.0, "lon": -77.02207466666667, "name": "63c768edbdd1f764d392a28be3c19536"}, {"bike_id": "7c5121a3e7f2e9126ff84efbe0bc0b21", "type": "electric_scooter", "is_disabled": 0, "lat": 38.9170025, "rental_uris": {"ios": "https://dc.lft.to/lastmile_qr_scan", "android": "https://dc.lft.to/lastmile_qr_scan"}, "is_reserved": 0, "fusion_lon": 0.0, "fusion_lat": 0.0, "lon": -77.03142616666666, "name": "7c5121a3e7f2e9126ff84efbe0bc0b21"}, {"bike_id": "dc95ee71b432b784b34bcfd917c0cfa7", "type": "electric_scooter", "is_disabled": 0, "lat": 38.92161333333333, "rental_uris": {"ios": "https://dc.lft.to/lastmile_qr_scan", "android": "https://dc.lft.to/lastmile_qr_scan"}, "is_reserved": 0, "fusion_lon": 0.0, "fusion_lat": 0.0, "lon": -77.03335433333334, "name": "dc95ee71b432b784b34bcfd917c0cfa7"}, {"bike_id": "e8711c9fed0255b938162e5eb034d24a", "type": "electric_scooter", "is_disabled": 0, "lat": 38.91507933333333, "rental_uris": {"ios": "https://dc.lft.to/lastmile_qr_scan", "android": "https://dc.lft.to/lastmile_qr_scan"}, "is_reserved": 0, "fusion_lon": 0.0, "fusion_lat": 0.0, "lon": -77.0177545, "name": "e8711c9fed0255b938162e5eb034d24a"}, {"bike_id": "8b700b55fa881cc3f6284b0d4aa9e420", "type": "electric_scooter", "is_disabled": 0, "lat": 38.91268316666667, "rental_uris": {"ios": "https://dc.lft.to/lastmile_qr_scan", "android": "https://dc.lft.to/lastmile_qr_scan"}, "is_reserved": 0, "fusion_lon": 0.0, "fusion_lat": 0.0, "lon": -77.02214533333333, "name": "8b700b55fa881cc3f6284b0d4aa9e420"}, {"bike_id": "9484e0e5d6a451b68ff11c7fad414aa9", "type": "electric_scooter", "is_disabled": 0, "lat": 38.9141825, "rental_uris": {"ios": "https://dc.lft.to/lastmile_qr_scan", "android": "https://dc.lft.to/lastmile_qr_scan"}, "is_reserved": 0, "fusion_lon": 0.0, "fusion_lat": 0.0, "lon": -77.02406166666667, "name": "9484e0e5d6a451b68ff11c7fad414aa9"}, {"bike_id": "746cbb19c376dae1ca463cebcb0a4c85", "type": "electric_scooter", "is_disabled": 0, "lat": 38.90503316666667, "rental_uris": {"ios": "https://dc.lft.to/lastmile_qr_scan", "android": "https://dc.lft.to/lastmile_qr_scan"}, "is_reserved": 0, "fusion_lon": 0.0, "fusion_lat": 0.0, "lon": -77.04868533333334, "name": "746cbb19c376dae1ca463cebcb0a4c85"}, {"bike_id": "2de5f965e4f4efcdd549b2cc77599665", "type": "electric_bike", "is_disabled": 0, "lat": 38.947368833333336, "rental_uris": {"ios": "https://dc.lft.to/lastmile_qr_scan", "android": "https://dc.lft.to/lastmile_qr_scan"}, "is_reserved": 0, "fusion_lon": 0.0, "fusion_lat": 0.0, "lon": -76.9958245, "name": "2de5f965e4f4efcdd549b2cc77599665"}, {"bike_id": "beefa7a103af3b7fcd5dfe16b276f192", "type": "electric_scooter", "is_disabled": 0, "lat": 38.87563266666667, "rental_uris": {"ios": "https://dc.lft.to/lastmile_qr_scan", "android": "https://dc.lft.to/lastmile_qr_scan"}, "is_reserved": 0, "fusion_lon": 0.0, "fusion_lat": 0.0, "lon": -76.9586565, "name": "beefa7a103af3b7fcd5dfe16b276f192"}, {"bike_id": "351e9404c52625b72eabc96e4521cc14", "type": "electric_scooter", "is_disabled": 0, "lat": 38.912695666666664, "rental_uris": {"ios": "https://dc.lft.to/lastmile_qr_scan", "android": "https://dc.lft.to/lastmile_qr_scan"}, "is_reserved": 0, "fusion_lon": 0.0, "fusion_lat": 0.0, "lon": -77.0296315, "name": "351e9404c52625b72eabc96e4521cc14"}, {"bike_id": "44245843625ffa3219b0cc7348f86efd", "type": "electric_scooter", "is_disabled": 0, "lat": 38.922469666666665, "rental_uris": {"ios": "https://dc.lft.to/lastmile_qr_scan", "android": "https://dc.lft.to/lastmile_qr_scan"}, "is_reserved": 0, "fusion_lon": 0.0, "fusion_lat": 0.0, "lon": -77.042718, "name": "44245843625ffa3219b0cc7348f86efd"}, {"bike_id": "c806b0cca24b15f3a7102136e094af65", "type": "electric_bike", "is_disabled": 0, "lat": 39.03701366666667, "rental_uris": {"ios": "https://dc.lft.to/lastmile_qr_scan", "android": "https://dc.lft.to/lastmile_qr_scan"}, "is_reserved": 0, "fusion_lon": 0.0, "fusion_lat": 0.0, "lon": -77.0285585, "name": "c806b0cca24b15f3a7102136e094af65"}, {"bike_id": "ca26da6866ea378b99ee42ffdd69ef6f", "type": "electric_scooter", "is_disabled": 0, "lat": 38.9023055, "rental_uris": {"ios": "https://dc.lft.to/lastmile_qr_scan", "android": "https://dc.lft.to/lastmile_qr_scan"}, "is_reserved": 0, "fusion_lon": 0.0, "fusion_lat": 0.0, "lon": -77.05910216666666, "name": "ca26da6866ea378b99ee42ffdd69ef6f"}, {"bike_id": "c1499d092e8182dc259cdfc01b2ac1e6", "type": "electric_scooter", "is_disabled": 0, "lat": 38.932549, "rental_uris": {"ios": "https://dc.lft.to/lastmile_qr_scan", "android": "https://dc.lft.to/lastmile_qr_scan"}, "is_reserved": 0, "fusion_lon": 0.0, "fusion_lat": 0.0, "lon": -77.03281133333333, "name": "c1499d092e8182dc259cdfc01b2ac1e6"}, {"bike_id": "85781b419084dddc8907321605a245e8", "type": "electric_scooter", "is_disabled": 0, "lat": 38.8972275, "rental_uris": {"ios": "https://dc.lft.to/lastmile_qr_scan", "android": "https://dc.lft.to/lastmile_qr_scan"}, "is_reserved": 0, "fusion_lon": 0.0, "fusion_lat": 0.0, "lon": -76.983596, "name": "85781b419084dddc8907321605a245e8"}, {"bike_id": "444de758365020be3c350097d3b21cdd", "type": "electric_scooter", "is_disabled": 0, "lat": 38.915734, "rental_uris": {"ios": "https://dc.lft.to/lastmile_qr_scan", "android": "https://dc.lft.to/lastmile_qr_scan"}, "is_reserved": 0, "fusion_lon": 0.0, "fusion_lat": 0.0, "lon": -77.01960766666667, "name": "444de758365020be3c350097d3b21cdd"}, {"bike_id": "9e4c805044f5610a2da6629a40edacd2", "type": "electric_scooter", "is_disabled": 0, "lat": 38.914909, "rental_uris": {"ios": "https://dc.lft.to/lastmile_qr_scan", "android": "https://dc.lft.to/lastmile_qr_scan"}, "is_reserved": 0, "fusion_lon": 0.0, "fusion_lat": 0.0, "lon": -77.02575583333333, "name": "9e4c805044f5610a2da6629a40edacd2"}, {"bike_id": "9c55921ae1e993b2fea9eeb6b5e837bb", "type": "electric_scooter", "is_disabled": 0, "lat": 38.871736, "rental_uris": {"ios": "https://dc.lft.to/lastmile_qr_scan", "android": "https://dc.lft.to/lastmile_qr_scan"}, "is_reserved": 0, "fusion_lon": 0.0, "fusion_lat": 0.0, "lon": -77.00627366666667, "name": "9c55921ae1e993b2fea9eeb6b5e837bb"}, {"bike_id": "3bab0a63369e30a3fd3ece9052a0079a", "type": "electric_scooter", "is_disabled": 0, "lat": 38.89830766666667, "rental_uris": {"ios": "https://dc.lft.to/lastmile_qr_scan", "android": "https://dc.lft.to/lastmile_qr_scan"}, "is_reserved": 0, "fusion_lon": 0.0, "fusion_lat": 0.0, "lon": -77.017474, "name": "3bab0a63369e30a3fd3ece9052a0079a"}, {"bike_id": "cd73d8ef70c9f3286ef7d73a3acc175a", "type": "electric_scooter", "is_disabled": 0, "lat": 38.91535183333333, "rental_uris": {"ios": "https://dc.lft.to/lastmile_qr_scan", "android": "https://dc.lft.to/lastmile_qr_scan"}, "is_reserved": 0, "fusion_lon": 0.0, "fusion_lat": 0.0, "lon": -77.01841566666667, "name": "cd73d8ef70c9f3286ef7d73a3acc175a"}, {"bike_id": "d23dc2feae2934825660a887a52a1e6a", "type": "electric_scooter", "is_disabled": 0, "lat": 38.900271000000004, "rental_uris": {"ios": "https://dc.lft.to/lastmile_qr_scan", "android": "https://dc.lft.to/lastmile_qr_scan"}, "is_reserved": 0, "fusion_lon": 0.0, "fusion_lat": 0.0, "lon": -77.00214866666667, "name": "d23dc2feae2934825660a887a52a1e6a"}, {"bike_id": "62b97b8f583d8d033f1a5a4b16ced014", "type": "electric_scooter", "is_disabled": 0, "lat": 38.928786333333335, "rental_uris": {"ios": "https://dc.lft.to/lastmile_qr_scan", "android": "https://dc.lft.to/lastmile_qr_scan"}, "is_reserved": 0, "fusion_lon": 0.0, "fusion_lat": 0.0, "lon": -77.026722, "name": "62b97b8f583d8d033f1a5a4b16ced014"}, {"bike_id": "53b6a69c086f4bbfa876af4b33bd59ae", "type": "electric_scooter", "is_disabled": 0, "lat": 38.91525016666667, "rental_uris": {"ios": "https://dc.lft.to/lastmile_qr_scan", "android": "https://dc.lft.to/lastmile_qr_scan"}, "is_reserved": 0, "fusion_lon": 0.0, "fusion_lat": 0.0, "lon": -77.02304216666667, "name": "53b6a69c086f4bbfa876af4b33bd59ae"}, {"bike_id": "76f840e18e77b7450a0ce5b5707261f7", "type": "electric_scooter", "is_disabled": 0, "lat": 38.93920883333333, "rental_uris": {"ios": "https://dc.lft.to/lastmile_qr_scan", "android": "https://dc.lft.to/lastmile_qr_scan"}, "is_reserved": 0, "fusion_lon": 0.0, "fusion_lat": 0.0, "lon": -77.06047433333333, "name": "76f840e18e77b7450a0ce5b5707261f7"}, {"bike_id": "4e2dce1b198747269a1b23322c28f27f", "type": "electric_bike", "is_disabled": 0, "lat": 38.9509645, "rental_uris": {"ios": "https://dc.lft.to/lastmile_qr_scan", "android": "https://dc.lft.to/lastmile_qr_scan"}, "is_reserved": 0, "fusion_lon": 0.0, "fusion_lat": 0.0, "lon": -77.08080616666666, "name": "4e2dce1b198747269a1b23322c28f27f"}, {"bike_id": "dd4ba5715044120899c2eb4195517c88", "type": "electric_scooter", "is_disabled": 0, "lat": 38.903477, "rental_uris": {"ios": "https://dc.lft.to/lastmile_qr_scan", "android": "https://dc.lft.to/lastmile_qr_scan"}, "is_reserved": 0, "fusion_lon": 0.0, "fusion_lat": 0.0, "lon": -77.06267583333333, "name": "dd4ba5715044120899c2eb4195517c88"}, {"bike_id": "a7f1ecae70589dd6c42796fbc4e71069", "type": "electric_scooter", "is_disabled": 0, "lat": 38.877124, "rental_uris": {"ios": "https://dc.lft.to/lastmile_qr_scan", "android": "https://dc.lft.to/lastmile_qr_scan"}, "is_reserved": 0, "fusion_lon": 0.0, "fusion_lat": 0.0, "lon": -77.01761666666667, "name": "a7f1ecae70589dd6c42796fbc4e71069"}, {"bike_id": "44dbcce468605afe7c619e655434e98d", "type": "electric_scooter", "is_disabled": 0, "lat": 38.9301675, "rental_uris": {"ios": "https://dc.lft.to/lastmile_qr_scan", "android": "https://dc.lft.to/lastmile_qr_scan"}, "is_reserved": 0, "fusion_lon": 0.0, "fusion_lat": 0.0, "lon": -77.02101166666667, "name": "44dbcce468605afe7c619e655434e98d"}, {"bike_id": "b8d1df33098fe3b430256d3dbf33eb6b", "type": "electric_scooter", "is_disabled": 0, "lat": 38.928976166666665, "rental_uris": {"ios": "https://dc.lft.to/lastmile_qr_scan", "android": "https://dc.lft.to/lastmile_qr_scan"}, "is_reserved": 0, "fusion_lon": 0.0, "fusion_lat": 0.0, "lon": -77.02756266666667, "name": "b8d1df33098fe3b430256d3dbf33eb6b"}, {"bike_id": "607befa2ec89156a4032b5a07876555b", "type": "electric_scooter", "is_disabled": 0, "lat": 38.9224785, "rental_uris": {"ios": "https://dc.lft.to/lastmile_qr_scan", "android": "https://dc.lft.to/lastmile_qr_scan"}, "is_reserved": 0, "fusion_lon": 0.0, "fusion_lat": 0.0, "lon": -77.042717, "name": "607befa2ec89156a4032b5a07876555b"}, {"bike_id": "5bca159671846d8ccae17d0c9e65eb06", "type": "electric_scooter", "is_disabled": 0, "lat": 38.921266333333335, "rental_uris": {"ios": "https://dc.lft.to/lastmile_qr_scan", "android": "https://dc.lft.to/lastmile_qr_scan"}, "is_reserved": 0, "fusion_lon": 0.0, "fusion_lat": 0.0, "lon": -77.044211, "name": "5bca159671846d8ccae17d0c9e65eb06"}, {"bike_id": "53899bbb6a66345b0ea7347e8934480d", "type": "electric_scooter", "is_disabled": 0, "lat": 38.91274583333333, "rental_uris": {"ios": "https://dc.lft.to/lastmile_qr_scan", "android": "https://dc.lft.to/lastmile_qr_scan"}, "is_reserved": 0, "fusion_lon": 0.0, "fusion_lat": 0.0, "lon": -77.02214983333333, "name": "53899bbb6a66345b0ea7347e8934480d"}, {"bike_id": "42d1a703e203e836683f246ebbb9be9d", "type": "electric_bike", "is_disabled": 0, "lat": 38.92574283333333, "rental_uris": {"ios": "https://dc.lft.to/lastmile_qr_scan", "android": "https://dc.lft.to/lastmile_qr_scan"}, "is_reserved": 0, "fusion_lon": 0.0, "fusion_lat": 0.0, "lon": -77.04375333333333, "name": "42d1a703e203e836683f246ebbb9be9d"}, {"bike_id": "9d2af2569f33e1ce6c8f79480ca0e413", "type": "electric_scooter", "is_disabled": 0, "lat": 38.9204575, "rental_uris": {"ios": "https://dc.lft.to/lastmile_qr_scan", "android": "https://dc.lft.to/lastmile_qr_scan"}, "is_reserved": 0, "fusion_lon": 0.0, "fusion_lat": 0.0, "lon": -77.03355266666667, "name": "9d2af2569f33e1ce6c8f79480ca0e413"}, {"bike_id": "7ddbac9ee7fa3338585ed256ae6d2965", "type": "electric_scooter", "is_disabled": 0, "lat": 38.86247816666667, "rental_uris": {"ios": "https://dc.lft.to/lastmile_qr_scan", "android": "https://dc.lft.to/lastmile_qr_scan"}, "is_reserved": 0, "fusion_lon": 0.0, "fusion_lat": 0.0, "lon": -76.99503783333333, "name": "7ddbac9ee7fa3338585ed256ae6d2965"}, {"bike_id": "d8d5110a3c9adc7f1f6e6719d7ac1075", "type": "electric_scooter", "is_disabled": 0, "lat": 38.92867666666667, "rental_uris": {"ios": "https://dc.lft.to/lastmile_qr_scan", "android": "https://dc.lft.to/lastmile_qr_scan"}, "is_reserved": 0, "fusion_lon": 0.0, "fusion_lat": 0.0, "lon": -77.0340885, "name": "d8d5110a3c9adc7f1f6e6719d7ac1075"}, {"bike_id": "6204ae39144b9b778345e51b1aa52d4a", "type": "electric_scooter", "is_disabled": 0, "lat": 38.906816166666665, "rental_uris": {"ios": "https://dc.lft.to/lastmile_qr_scan", "android": "https://dc.lft.to/lastmile_qr_scan"}, "is_reserved": 0, "fusion_lon": 0.0, "fusion_lat": 0.0, "lon": -76.979984, "name": "6204ae39144b9b778345e51b1aa52d4a"}, {"bike_id": "7f62c1dcf6f486c110b0c65d9daa3540", "type": "electric_scooter", "is_disabled": 0, "lat": 38.883623666666665, "rental_uris": {"ios": "https://dc.lft.to/lastmile_qr_scan", "android": "https://dc.lft.to/lastmile_qr_scan"}, "is_reserved": 0, "fusion_lon": 0.0, "fusion_lat": 0.0, "lon": -77.01993683333333, "name": "7f62c1dcf6f486c110b0c65d9daa3540"}, {"bike_id": "b93ceb499aedd413574b26132bd81389", "type": "electric_scooter", "is_disabled": 0, "lat": 38.89850633333333, "rental_uris": {"ios": "https://dc.lft.to/lastmile_qr_scan", "android": "https://dc.lft.to/lastmile_qr_scan"}, "is_reserved": 0, "fusion_lon": 0.0, "fusion_lat": 0.0, "lon": -76.92912533333333, "name": "b93ceb499aedd413574b26132bd81389"}, {"bike_id": "23955ab3e420f083c476f50aa53008ed", "type": "electric_scooter", "is_disabled": 0, "lat": 38.931022166666665, "rental_uris": {"ios": "https://dc.lft.to/lastmile_qr_scan", "android": "https://dc.lft.to/lastmile_qr_scan"}, "is_reserved": 0, "fusion_lon": 0.0, "fusion_lat": 0.0, "lon": -77.04119, "name": "23955ab3e420f083c476f50aa53008ed"}, {"bike_id": "ff21adc6ebe6fa41b3a2c9f1aebc266a", "type": "electric_scooter", "is_disabled": 0, "lat": 38.89387833333333, "rental_uris": {"ios": "https://dc.lft.to/lastmile_qr_scan", "android": "https://dc.lft.to/lastmile_qr_scan"}, "is_reserved": 0, "fusion_lon": 0.0, "fusion_lat": 0.0, "lon": -77.022681, "name": "ff21adc6ebe6fa41b3a2c9f1aebc266a"}, {"bike_id": "c32edc6c3e2aff5a56ec57bbfebb1743", "type": "electric_scooter", "is_disabled": 0, "lat": 38.948209, "rental_uris": {"ios": "https://dc.lft.to/lastmile_qr_scan", "android": "https://dc.lft.to/lastmile_qr_scan"}, "is_reserved": 0, "fusion_lon": 0.0, "fusion_lat": 0.0, "lon": -77.02483983333333, "name": "c32edc6c3e2aff5a56ec57bbfebb1743"}, {"bike_id": "28fb0956c4b36bb661d775a7c083a9da", "type": "electric_scooter", "is_disabled": 0, "lat": 38.9142255, "rental_uris": {"ios": "https://dc.lft.to/lastmile_qr_scan", "android": "https://dc.lft.to/lastmile_qr_scan"}, "is_reserved": 0, "fusion_lon": 0.0, "fusion_lat": 0.0, "lon": -77.03205766666666, "name": "28fb0956c4b36bb661d775a7c083a9da"}, {"bike_id": "7e4aed9d333148549f8730523872d81f", "type": "electric_scooter", "is_disabled": 0, "lat": 38.88706033333333, "rental_uris": {"ios": "https://dc.lft.to/lastmile_qr_scan", "android": "https://dc.lft.to/lastmile_qr_scan"}, "is_reserved": 0, "fusion_lon": 0.0, "fusion_lat": 0.0, "lon": -77.02200533333334, "name": "7e4aed9d333148549f8730523872d81f"}, {"bike_id": "75bb2b3d43d7aeeccfdebd4254fe9084", "type": "electric_bike", "is_disabled": 0, "lat": 39.05116566666667, "rental_uris": {"ios": "https://dc.lft.to/lastmile_qr_scan", "android": "https://dc.lft.to/lastmile_qr_scan"}, "is_reserved": 0, "fusion_lon": 0.0, "fusion_lat": 0.0, "lon": -77.11737383333333, "name": "75bb2b3d43d7aeeccfdebd4254fe9084"}, {"bike_id": "552dd851bfb8ed9678f88b2ad82ff440", "type": "electric_scooter", "is_disabled": 0, "lat": 38.95639033333333, "rental_uris": {"ios": "https://dc.lft.to/lastmile_qr_scan", "android": "https://dc.lft.to/lastmile_qr_scan"}, "is_reserved": 0, "fusion_lon": 0.0, "fusion_lat": 0.0, "lon": -77.036289, "name": "552dd851bfb8ed9678f88b2ad82ff440"}, {"bike_id": "9824ae3cc40886d5ee54adbfd3eca2ff", "type": "electric_scooter", "is_disabled": 0, "lat": 38.922423333333334, "rental_uris": {"ios": "https://dc.lft.to/lastmile_qr_scan", "android": "https://dc.lft.to/lastmile_qr_scan"}, "is_reserved": 0, "fusion_lon": 0.0, "fusion_lat": 0.0, "lon": -77.0471565, "name": "9824ae3cc40886d5ee54adbfd3eca2ff"}, {"bike_id": "fd6ad640a223da482232e0dc2578ac14", "type": "electric_scooter", "is_disabled": 0, "lat": 38.8950745, "rental_uris": {"ios": "https://dc.lft.to/lastmile_qr_scan", "android": "https://dc.lft.to/lastmile_qr_scan"}, "is_reserved": 0, "fusion_lon": 0.0, "fusion_lat": 0.0, "lon": -77.04332666666667, "name": "fd6ad640a223da482232e0dc2578ac14"}, {"bike_id": "3418f41563fc162fcc161983ed7b9df3", "type": "electric_scooter", "is_disabled": 0, "lat": 38.907925666666664, "rental_uris": {"ios": "https://dc.lft.to/lastmile_qr_scan", "android": "https://dc.lft.to/lastmile_qr_scan"}, "is_reserved": 0, "fusion_lon": 0.0, "fusion_lat": 0.0, "lon": -77.02699416666667, "name": "3418f41563fc162fcc161983ed7b9df3"}, {"bike_id": "9fda2519ad9ca07d221d0abd4cf97076", "type": "electric_scooter", "is_disabled": 0, "lat": 38.93714716666667, "rental_uris": {"ios": "https://dc.lft.to/lastmile_qr_scan", "android": "https://dc.lft.to/lastmile_qr_scan"}, "is_reserved": 0, "fusion_lon": 0.0, "fusion_lat": 0.0, "lon": -77.0363805, "name": "9fda2519ad9ca07d221d0abd4cf97076"}, {"bike_id": "f1295a3bff45410f51763270e5501df8", "type": "electric_scooter", "is_disabled": 0, "lat": 38.88544233333333, "rental_uris": {"ios": "https://dc.lft.to/lastmile_qr_scan", "android": "https://dc.lft.to/lastmile_qr_scan"}, "is_reserved": 0, "fusion_lon": 0.0, "fusion_lat": 0.0, "lon": -77.00574366666666, "name": "f1295a3bff45410f51763270e5501df8"}, {"bike_id": "a76aeb73af7c03d346aa3595d7eafd9c", "type": "electric_scooter", "is_disabled": 0, "lat": 38.903564333333335, "rental_uris": {"ios": "https://dc.lft.to/lastmile_qr_scan", "android": "https://dc.lft.to/lastmile_qr_scan"}, "is_reserved": 0, "fusion_lon": 0.0, "fusion_lat": 0.0, "lon": -76.99215966666667, "name": "a76aeb73af7c03d346aa3595d7eafd9c"}, {"bike_id": "874db37d4d6ac88a48e6123c73c78363", "type": "electric_scooter", "is_disabled": 0, "lat": 38.9001845, "rental_uris": {"ios": "https://dc.lft.to/lastmile_qr_scan", "android": "https://dc.lft.to/lastmile_qr_scan"}, "is_reserved": 0, "fusion_lon": 0.0, "fusion_lat": 0.0, "lon": -77.038087, "name": "874db37d4d6ac88a48e6123c73c78363"}, {"bike_id": "2496c952e4aea3ef38d2d9d9afe93280", "type": "electric_scooter", "is_disabled": 0, "lat": 38.91694666666667, "rental_uris": {"ios": "https://dc.lft.to/lastmile_qr_scan", "android": "https://dc.lft.to/lastmile_qr_scan"}, "is_reserved": 0, "fusion_lon": 0.0, "fusion_lat": 0.0, "lon": -77.04109, "name": "2496c952e4aea3ef38d2d9d9afe93280"}, {"bike_id": "104ce7ddeb3fd66b8d4958abc527b3a1", "type": "electric_scooter", "is_disabled": 0, "lat": 38.89937666666667, "rental_uris": {"ios": "https://dc.lft.to/lastmile_qr_scan", "android": "https://dc.lft.to/lastmile_qr_scan"}, "is_reserved": 0, "fusion_lon": 0.0, "fusion_lat": 0.0, "lon": -77.01454516666666, "name": "104ce7ddeb3fd66b8d4958abc527b3a1"}, {"bike_id": "531f222ce2dcfbf09b500f7b1e7b6ca4", "type": "electric_scooter", "is_disabled": 0, "lat": 38.902583, "rental_uris": {"ios": "https://dc.lft.to/lastmile_qr_scan", "android": "https://dc.lft.to/lastmile_qr_scan"}, "is_reserved": 0, "fusion_lon": 0.0, "fusion_lat": 0.0, "lon": -77.01774733333333, "name": "531f222ce2dcfbf09b500f7b1e7b6ca4"}, {"bike_id": "b6e3da88fa4631dc2b7b6be42096899e", "type": "electric_scooter", "is_disabled": 0, "lat": 38.92245116666667, "rental_uris": {"ios": "https://dc.lft.to/lastmile_qr_scan", "android": "https://dc.lft.to/lastmile_qr_scan"}, "is_reserved": 0, "fusion_lon": 0.0, "fusion_lat": 0.0, "lon": -77.02980516666666, "name": "b6e3da88fa4631dc2b7b6be42096899e"}, {"bike_id": "dcb66deff7eb32b0fef6d7d0245ca2da", "type": "electric_scooter", "is_disabled": 0, "lat": 38.92602483333334, "rental_uris": {"ios": "https://dc.lft.to/lastmile_qr_scan", "android": "https://dc.lft.to/lastmile_qr_scan"}, "is_reserved": 0, "fusion_lon": 0.0, "fusion_lat": 0.0, "lon": -77.057035, "name": "dcb66deff7eb32b0fef6d7d0245ca2da"}, {"bike_id": "df9f785894ab4d4e8c98f81cfb72245c", "type": "electric_scooter", "is_disabled": 0, "lat": 38.895303166666665, "rental_uris": {"ios": "https://dc.lft.to/lastmile_qr_scan", "android": "https://dc.lft.to/lastmile_qr_scan"}, "is_reserved": 0, "fusion_lon": 0.0, "fusion_lat": 0.0, "lon": -77.0282045, "name": "df9f785894ab4d4e8c98f81cfb72245c"}, {"bike_id": "a7e8fe3e7e7245aa5001ba371a08911f", "type": "electric_bike", "is_disabled": 0, "lat": 38.836063833333334, "rental_uris": {"ios": "https://dc.lft.to/lastmile_qr_scan", "android": "https://dc.lft.to/lastmile_qr_scan"}, "is_reserved": 0, "fusion_lon": 0.0, "fusion_lat": 0.0, "lon": -77.00386916666666, "name": "a7e8fe3e7e7245aa5001ba371a08911f"}, {"bike_id": "2e6338fce511e20888b021dd2765b350", "type": "electric_scooter", "is_disabled": 0, "lat": 38.906749166666664, "rental_uris": {"ios": "https://dc.lft.to/lastmile_qr_scan", "android": "https://dc.lft.to/lastmile_qr_scan"}, "is_reserved": 0, "fusion_lon": 0.0, "fusion_lat": 0.0, "lon": -77.02703966666667, "name": "2e6338fce511e20888b021dd2765b350"}, {"bike_id": "1448fa0f9b24d70079340da7d3d3cce2", "type": "electric_scooter", "is_disabled": 0, "lat": 38.914231, "rental_uris": {"ios": "https://dc.lft.to/lastmile_qr_scan", "android": "https://dc.lft.to/lastmile_qr_scan"}, "is_reserved": 0, "fusion_lon": 0.0, "fusion_lat": 0.0, "lon": -77.01991933333333, "name": "1448fa0f9b24d70079340da7d3d3cce2"}, {"bike_id": "46b7f19b06788509ea8cd7e7684e3355", "type": "electric_scooter", "is_disabled": 0, "lat": 38.89609166666666, "rental_uris": {"ios": "https://dc.lft.to/lastmile_qr_scan", "android": "https://dc.lft.to/lastmile_qr_scan"}, "is_reserved": 0, "fusion_lon": 0.0, "fusion_lat": 0.0, "lon": -77.02626616666667, "name": "46b7f19b06788509ea8cd7e7684e3355"}, {"bike_id": "199f146707c0221db96452ba7ccc1e2a", "type": "electric_bike", "is_disabled": 0, "lat": 38.883377333333335, "rental_uris": {"ios": "https://dc.lft.to/lastmile_qr_scan", "android": "https://dc.lft.to/lastmile_qr_scan"}, "is_reserved": 0, "fusion_lon": 0.0, "fusion_lat": 0.0, "lon": -76.96058316666667, "name": "199f146707c0221db96452ba7ccc1e2a"}, {"bike_id": "a067adaac05d9b5cd743c09e275da6af", "type": "electric_scooter", "is_disabled": 0, "lat": 38.928706, "rental_uris": {"ios": "https://dc.lft.to/lastmile_qr_scan", "android": "https://dc.lft.to/lastmile_qr_scan"}, "is_reserved": 0, "fusion_lon": 0.0, "fusion_lat": 0.0, "lon": -77.02773083333334, "name": "a067adaac05d9b5cd743c09e275da6af"}, {"bike_id": "198c17d04a33e3a907a38006bd5e946e", "type": "electric_scooter", "is_disabled": 0, "lat": 38.904773166666665, "rental_uris": {"ios": "https://dc.lft.to/lastmile_qr_scan", "android": "https://dc.lft.to/lastmile_qr_scan"}, "is_reserved": 0, "fusion_lon": 0.0, "fusion_lat": 0.0, "lon": -77.04331416666666, "name": "198c17d04a33e3a907a38006bd5e946e"}, {"bike_id": "43d21011cae306693c7ff92209118fb4", "type": "electric_scooter", "is_disabled": 0, "lat": 38.88110233333333, "rental_uris": {"ios": "https://dc.lft.to/lastmile_qr_scan", "android": "https://dc.lft.to/lastmile_qr_scan"}, "is_reserved": 0, "fusion_lon": 0.0, "fusion_lat": 0.0, "lon": -77.01651133333333, "name": "43d21011cae306693c7ff92209118fb4"}, {"bike_id": "def270018a8351ec43992d30ff8606dc", "type": "electric_scooter", "is_disabled": 0, "lat": 38.90971033333334, "rental_uris": {"ios": "https://dc.lft.to/lastmile_qr_scan", "android": "https://dc.lft.to/lastmile_qr_scan"}, "is_reserved": 0, "fusion_lon": 0.0, "fusion_lat": 0.0, "lon": -77.02178133333334, "name": "def270018a8351ec43992d30ff8606dc"}, {"bike_id": "39f75a04b53a69dae4602c37b1b71d04", "type": "electric_scooter", "is_disabled": 0, "lat": 38.91721733333333, "rental_uris": {"ios": "https://dc.lft.to/lastmile_qr_scan", "android": "https://dc.lft.to/lastmile_qr_scan"}, "is_reserved": 0, "fusion_lon": 0.0, "fusion_lat": 0.0, "lon": -77.0316865, "name": "39f75a04b53a69dae4602c37b1b71d04"}, {"bike_id": "6df6bfd75efd9e5c0d1a67d44a4ac90b", "type": "electric_scooter", "is_disabled": 0, "lat": 38.873739666666665, "rental_uris": {"ios": "https://dc.lft.to/lastmile_qr_scan", "android": "https://dc.lft.to/lastmile_qr_scan"}, "is_reserved": 0, "fusion_lon": 0.0, "fusion_lat": 0.0, "lon": -77.00108016666667, "name": "6df6bfd75efd9e5c0d1a67d44a4ac90b"}, {"bike_id": "26ea1b89b3a9f19d96b9507054e4af2b", "type": "electric_scooter", "is_disabled": 0, "lat": 38.89229483333333, "rental_uris": {"ios": "https://dc.lft.to/lastmile_qr_scan", "android": "https://dc.lft.to/lastmile_qr_scan"}, "is_reserved": 0, "fusion_lon": 0.0, "fusion_lat": 0.0, "lon": -77.03016983333333, "name": "26ea1b89b3a9f19d96b9507054e4af2b"}, {"bike_id": "1aea7a90fff12e9a1186f62f437de70b", "type": "electric_scooter", "is_disabled": 0, "lat": 38.92475866666667, "rental_uris": {"ios": "https://dc.lft.to/lastmile_qr_scan", "android": "https://dc.lft.to/lastmile_qr_scan"}, "is_reserved": 0, "fusion_lon": 0.0, "fusion_lat": 0.0, "lon": -77.02718933333334, "name": "1aea7a90fff12e9a1186f62f437de70b"}, {"bike_id": "9fc05b0e4f5209c63d80545810603850", "type": "electric_scooter", "is_disabled": 0, "lat": 38.872865, "rental_uris": {"ios": "https://dc.lft.to/lastmile_qr_scan", "android": "https://dc.lft.to/lastmile_qr_scan"}, "is_reserved": 0, "fusion_lon": 0.0, "fusion_lat": 0.0, "lon": -77.009855, "name": "9fc05b0e4f5209c63d80545810603850"}, {"bike_id": "07d834e10a23ff6903f4594d56c26c61", "type": "electric_scooter", "is_disabled": 0, "lat": 38.87850183333333, "rental_uris": {"ios": "https://dc.lft.to/lastmile_qr_scan", "android": "https://dc.lft.to/lastmile_qr_scan"}, "is_reserved": 0, "fusion_lon": 0.0, "fusion_lat": 0.0, "lon": -77.00791283333334, "name": "07d834e10a23ff6903f4594d56c26c61"}, {"bike_id": "6d5793b7c861006ffce423ab152ee5ad", "type": "electric_bike", "is_disabled": 0, "lat": 38.889282, "rental_uris": {"ios": "https://dc.lft.to/lastmile_qr_scan", "android": "https://dc.lft.to/lastmile_qr_scan"}, "is_reserved": 0, "fusion_lon": 0.0, "fusion_lat": 0.0, "lon": -76.99102033333334, "name": "6d5793b7c861006ffce423ab152ee5ad"}, {"bike_id": "241a51d98e2226f90e4c68820f11cbdf", "type": "electric_scooter", "is_disabled": 0, "lat": 38.9181895, "rental_uris": {"ios": "https://dc.lft.to/lastmile_qr_scan", "android": "https://dc.lft.to/lastmile_qr_scan"}, "is_reserved": 0, "fusion_lon": 0.0, "fusion_lat": 0.0, "lon": -77.0271355, "name": "241a51d98e2226f90e4c68820f11cbdf"}, {"bike_id": "be448fd8a5a42ed263653f3e3c704823", "type": "electric_scooter", "is_disabled": 0, "lat": 38.904683166666665, "rental_uris": {"ios": "https://dc.lft.to/lastmile_qr_scan", "android": "https://dc.lft.to/lastmile_qr_scan"}, "is_reserved": 0, "fusion_lon": 0.0, "fusion_lat": 0.0, "lon": -76.976117, "name": "be448fd8a5a42ed263653f3e3c704823"}, {"bike_id": "f08bc24eabdfdc3a4d82868207fc37d4", "type": "electric_scooter", "is_disabled": 0, "lat": 38.912103333333334, "rental_uris": {"ios": "https://dc.lft.to/lastmile_qr_scan", "android": "https://dc.lft.to/lastmile_qr_scan"}, "is_reserved": 0, "fusion_lon": 0.0, "fusion_lat": 0.0, "lon": -77.04469233333333, "name": "f08bc24eabdfdc3a4d82868207fc37d4"}, {"bike_id": "232c1488652317db4dbc41cb3f03aea7", "type": "electric_scooter", "is_disabled": 0, "lat": 38.90679516666667, "rental_uris": {"ios": "https://dc.lft.to/lastmile_qr_scan", "android": "https://dc.lft.to/lastmile_qr_scan"}, "is_reserved": 0, "fusion_lon": 0.0, "fusion_lat": 0.0, "lon": -76.98000716666667, "name": "232c1488652317db4dbc41cb3f03aea7"}, {"bike_id": "6c3ebb94cbb7710123e98ae87b92cf59", "type": "electric_scooter", "is_disabled": 0, "lat": 38.90354716666667, "rental_uris": {"ios": "https://dc.lft.to/lastmile_qr_scan", "android": "https://dc.lft.to/lastmile_qr_scan"}, "is_reserved": 0, "fusion_lon": 0.0, "fusion_lat": 0.0, "lon": -76.97478033333333, "name": "6c3ebb94cbb7710123e98ae87b92cf59"}, {"bike_id": "9036b6bfcc7a0929dace3e93552272d5", "type": "electric_scooter", "is_disabled": 0, "lat": 38.92967066666667, "rental_uris": {"ios": "https://dc.lft.to/lastmile_qr_scan", "android": "https://dc.lft.to/lastmile_qr_scan"}, "is_reserved": 0, "fusion_lon": 0.0, "fusion_lat": 0.0, "lon": -77.04373533333333, "name": "9036b6bfcc7a0929dace3e93552272d5"}, {"bike_id": "d993c7b084e32242e7c88b04ce2c8782", "type": "electric_scooter", "is_disabled": 0, "lat": 38.91610266666667, "rental_uris": {"ios": "https://dc.lft.to/lastmile_qr_scan", "android": "https://dc.lft.to/lastmile_qr_scan"}, "is_reserved": 0, "fusion_lon": 0.0, "fusion_lat": 0.0, "lon": -77.048769, "name": "d993c7b084e32242e7c88b04ce2c8782"}, {"bike_id": "4f770705f7a87eccc9bd44ae79f90d85", "type": "electric_bike", "is_disabled": 0, "lat": 38.93222466666667, "rental_uris": {"ios": "https://dc.lft.to/lastmile_qr_scan", "android": "https://dc.lft.to/lastmile_qr_scan"}, "is_reserved": 0, "fusion_lon": 0.0, "fusion_lat": 0.0, "lon": -77.18120766666667, "name": "4f770705f7a87eccc9bd44ae79f90d85"}, {"bike_id": "e8efbc4b6452aa0bd1c7c37411592bbc", "type": "electric_scooter", "is_disabled": 0, "lat": 38.92152316666667, "rental_uris": {"ios": "https://dc.lft.to/lastmile_qr_scan", "android": "https://dc.lft.to/lastmile_qr_scan"}, "is_reserved": 0, "fusion_lon": 0.0, "fusion_lat": 0.0, "lon": -77.03383533333333, "name": "e8efbc4b6452aa0bd1c7c37411592bbc"}, {"bike_id": "0762c1faa71db08d4067ae4250fd2748", "type": "electric_bike", "is_disabled": 0, "lat": 38.84282433333333, "rental_uris": {"ios": "https://dc.lft.to/lastmile_qr_scan", "android": "https://dc.lft.to/lastmile_qr_scan"}, "is_reserved": 0, "fusion_lon": 0.0, "fusion_lat": 0.0, "lon": -76.9884085, "name": "0762c1faa71db08d4067ae4250fd2748"}, {"bike_id": "3252cc3289b690f48dced14ad72c1dca", "type": "electric_scooter", "is_disabled": 0, "lat": 38.92344466666667, "rental_uris": {"ios": "https://dc.lft.to/lastmile_qr_scan", "android": "https://dc.lft.to/lastmile_qr_scan"}, "is_reserved": 0, "fusion_lon": 0.0, "fusion_lat": 0.0, "lon": -77.05119083333334, "name": "3252cc3289b690f48dced14ad72c1dca"}, {"bike_id": "37d5a06b3a3411aabdf6f6baa4215871", "type": "electric_scooter", "is_disabled": 0, "lat": 38.89476483333333, "rental_uris": {"ios": "https://dc.lft.to/lastmile_qr_scan", "android": "https://dc.lft.to/lastmile_qr_scan"}, "is_reserved": 0, "fusion_lon": 0.0, "fusion_lat": 0.0, "lon": -77.02190766666666, "name": "37d5a06b3a3411aabdf6f6baa4215871"}, {"bike_id": "88fea43969bd5380704d77e58c1dfe28", "type": "electric_scooter", "is_disabled": 0, "lat": 38.963949666666664, "rental_uris": {"ios": "https://dc.lft.to/lastmile_qr_scan", "android": "https://dc.lft.to/lastmile_qr_scan"}, "is_reserved": 0, "fusion_lon": 0.0, "fusion_lat": 0.0, "lon": -77.02592016666667, "name": "88fea43969bd5380704d77e58c1dfe28"}, {"bike_id": "6937f2ae82a56bb8c1b115b9f1553441", "type": "electric_scooter", "is_disabled": 0, "lat": 38.873610666666664, "rental_uris": {"ios": "https://dc.lft.to/lastmile_qr_scan", "android": "https://dc.lft.to/lastmile_qr_scan"}, "is_reserved": 0, "fusion_lon": 0.0, "fusion_lat": 0.0, "lon": -76.97031566666666, "name": "6937f2ae82a56bb8c1b115b9f1553441"}, {"bike_id": "4f51920a5386e6c940263763859b6d34", "type": "electric_scooter", "is_disabled": 0, "lat": 38.898376999999996, "rental_uris": {"ios": "https://dc.lft.to/lastmile_qr_scan", "android": "https://dc.lft.to/lastmile_qr_scan"}, "is_reserved": 0, "fusion_lon": 0.0, "fusion_lat": 0.0, "lon": -77.030945, "name": "4f51920a5386e6c940263763859b6d34"}, {"bike_id": "fde9d9190d7a123eb14df85325e223a7", "type": "electric_scooter", "is_disabled": 0, "lat": 38.893859666666664, "rental_uris": {"ios": "https://dc.lft.to/lastmile_qr_scan", "android": "https://dc.lft.to/lastmile_qr_scan"}, "is_reserved": 0, "fusion_lon": 0.0, "fusion_lat": 0.0, "lon": -77.02268366666667, "name": "fde9d9190d7a123eb14df85325e223a7"}, {"bike_id": "5554143614dea7abdae690fb3d792ef9", "type": "electric_scooter", "is_disabled": 0, "lat": 38.916396, "rental_uris": {"ios": "https://dc.lft.to/lastmile_qr_scan", "android": "https://dc.lft.to/lastmile_qr_scan"}, "is_reserved": 0, "fusion_lon": 0.0, "fusion_lat": 0.0, "lon": -77.03202283333333, "name": "5554143614dea7abdae690fb3d792ef9"}, {"bike_id": "69aef7b686f9c82dca9b30ef1e0beef0", "type": "electric_scooter", "is_disabled": 0, "lat": 38.9170685, "rental_uris": {"ios": "https://dc.lft.to/lastmile_qr_scan", "android": "https://dc.lft.to/lastmile_qr_scan"}, "is_reserved": 0, "fusion_lon": 0.0, "fusion_lat": 0.0, "lon": -77.02835433333334, "name": "69aef7b686f9c82dca9b30ef1e0beef0"}, {"bike_id": "059acc540e05ee869a3c9b1f30dabeeb", "type": "electric_scooter", "is_disabled": 0, "lat": 38.919321, "rental_uris": {"ios": "https://dc.lft.to/lastmile_qr_scan", "android": "https://dc.lft.to/lastmile_qr_scan"}, "is_reserved": 0, "fusion_lon": 0.0, "fusion_lat": 0.0, "lon": -77.02510616666666, "name": "059acc540e05ee869a3c9b1f30dabeeb"}, {"bike_id": "af9c9baa2ad33857654f9f18bcb2bce4", "type": "electric_scooter", "is_disabled": 0, "lat": 38.93078583333333, "rental_uris": {"ios": "https://dc.lft.to/lastmile_qr_scan", "android": "https://dc.lft.to/lastmile_qr_scan"}, "is_reserved": 0, "fusion_lon": 0.0, "fusion_lat": 0.0, "lon": -77.02792666666667, "name": "af9c9baa2ad33857654f9f18bcb2bce4"}, {"bike_id": "2b4cb5fb2e370268ab560ad078751227", "type": "electric_scooter", "is_disabled": 0, "lat": 38.892852833333336, "rental_uris": {"ios": "https://dc.lft.to/lastmile_qr_scan", "android": "https://dc.lft.to/lastmile_qr_scan"}, "is_reserved": 0, "fusion_lon": 0.0, "fusion_lat": 0.0, "lon": -77.03358266666666, "name": "2b4cb5fb2e370268ab560ad078751227"}, {"bike_id": "9ef473f1107440a95feb731e6467ccc5", "type": "electric_scooter", "is_disabled": 0, "lat": 38.93926916666667, "rental_uris": {"ios": "https://dc.lft.to/lastmile_qr_scan", "android": "https://dc.lft.to/lastmile_qr_scan"}, "is_reserved": 0, "fusion_lon": 0.0, "fusion_lat": 0.0, "lon": -77.06045816666666, "name": "9ef473f1107440a95feb731e6467ccc5"}, {"bike_id": "2e82eb476dafcc2f20883baf50db42c9", "type": "electric_scooter", "is_disabled": 0, "lat": 38.905395666666664, "rental_uris": {"ios": "https://dc.lft.to/lastmile_qr_scan", "android": "https://dc.lft.to/lastmile_qr_scan"}, "is_reserved": 0, "fusion_lon": 0.0, "fusion_lat": 0.0, "lon": -77.04160783333333, "name": "2e82eb476dafcc2f20883baf50db42c9"}, {"bike_id": "1161ac2064a94fec3413777100ce590f", "type": "electric_scooter", "is_disabled": 0, "lat": 38.9036315, "rental_uris": {"ios": "https://dc.lft.to/lastmile_qr_scan", "android": "https://dc.lft.to/lastmile_qr_scan"}, "is_reserved": 0, "fusion_lon": 0.0, "fusion_lat": 0.0, "lon": -77.044637, "name": "1161ac2064a94fec3413777100ce590f"}, {"bike_id": "a7cec1ce31634a3cc007fdf9179ca875", "type": "electric_scooter", "is_disabled": 0, "lat": 38.899164, "rental_uris": {"ios": "https://dc.lft.to/lastmile_qr_scan", "android": "https://dc.lft.to/lastmile_qr_scan"}, "is_reserved": 0, "fusion_lon": 0.0, "fusion_lat": 0.0, "lon": -76.9336865, "name": "a7cec1ce31634a3cc007fdf9179ca875"}, {"bike_id": "8377c420d1265eb9ac7bc1f4859a7bef", "type": "electric_bike", "is_disabled": 0, "lat": 38.8729905, "rental_uris": {"ios": "https://dc.lft.to/lastmile_qr_scan", "android": "https://dc.lft.to/lastmile_qr_scan"}, "is_reserved": 0, "fusion_lon": 0.0, "fusion_lat": 0.0, "lon": -77.13920883333333, "name": "8377c420d1265eb9ac7bc1f4859a7bef"}, {"bike_id": "93502a864fdad7d50b8e3fc11573ae40", "type": "electric_scooter", "is_disabled": 0, "lat": 38.9573555, "rental_uris": {"ios": "https://dc.lft.to/lastmile_qr_scan", "android": "https://dc.lft.to/lastmile_qr_scan"}, "is_reserved": 0, "fusion_lon": 0.0, "fusion_lat": 0.0, "lon": -77.02799316666666, "name": "93502a864fdad7d50b8e3fc11573ae40"}, {"bike_id": "a4d5ae14013aa5c0ce8050d5487b7b48", "type": "electric_scooter", "is_disabled": 0, "lat": 38.900485, "rental_uris": {"ios": "https://dc.lft.to/lastmile_qr_scan", "android": "https://dc.lft.to/lastmile_qr_scan"}, "is_reserved": 0, "fusion_lon": 0.0, "fusion_lat": 0.0, "lon": -76.99153483333333, "name": "a4d5ae14013aa5c0ce8050d5487b7b48"}, {"bike_id": "bf2a79d3d5a0f88b5ee4ed6327c5f9d3", "type": "electric_scooter", "is_disabled": 0, "lat": 38.915641666666666, "rental_uris": {"ios": "https://dc.lft.to/lastmile_qr_scan", "android": "https://dc.lft.to/lastmile_qr_scan"}, "is_reserved": 0, "fusion_lon": 0.0, "fusion_lat": 0.0, "lon": -77.0256505, "name": "bf2a79d3d5a0f88b5ee4ed6327c5f9d3"}, {"bike_id": "7c20a5a3545408d71fd68f186480ce05", "type": "electric_scooter", "is_disabled": 0, "lat": 38.91693433333333, "rental_uris": {"ios": "https://dc.lft.to/lastmile_qr_scan", "android": "https://dc.lft.to/lastmile_qr_scan"}, "is_reserved": 0, "fusion_lon": 0.0, "fusion_lat": 0.0, "lon": -77.03861766666667, "name": "7c20a5a3545408d71fd68f186480ce05"}, {"bike_id": "6088316989318275253ececc3b22b055", "type": "electric_scooter", "is_disabled": 0, "lat": 38.89231916666667, "rental_uris": {"ios": "https://dc.lft.to/lastmile_qr_scan", "android": "https://dc.lft.to/lastmile_qr_scan"}, "is_reserved": 0, "fusion_lon": 0.0, "fusion_lat": 0.0, "lon": -77.01372333333333, "name": "6088316989318275253ececc3b22b055"}, {"bike_id": "8f9b7aed75e3ed5a6bf911b17ad8960a", "type": "electric_scooter", "is_disabled": 0, "lat": 38.92330066666667, "rental_uris": {"ios": "https://dc.lft.to/lastmile_qr_scan", "android": "https://dc.lft.to/lastmile_qr_scan"}, "is_reserved": 0, "fusion_lon": 0.0, "fusion_lat": 0.0, "lon": -77.03680266666667, "name": "8f9b7aed75e3ed5a6bf911b17ad8960a"}, {"bike_id": "4ec890ca5bfdf2d4bc3769a1945febad", "type": "electric_scooter", "is_disabled": 0, "lat": 38.92241583333333, "rental_uris": {"ios": "https://dc.lft.to/lastmile_qr_scan", "android": "https://dc.lft.to/lastmile_qr_scan"}, "is_reserved": 0, "fusion_lon": 0.0, "fusion_lat": 0.0, "lon": -77.0298075, "name": "4ec890ca5bfdf2d4bc3769a1945febad"}, {"bike_id": "5b24c3e02c2d1ebd43c768f45daceb7f", "type": "electric_scooter", "is_disabled": 0, "lat": 38.92332016666667, "rental_uris": {"ios": "https://dc.lft.to/lastmile_qr_scan", "android": "https://dc.lft.to/lastmile_qr_scan"}, "is_reserved": 0, "fusion_lon": 0.0, "fusion_lat": 0.0, "lon": -77.03679066666666, "name": "5b24c3e02c2d1ebd43c768f45daceb7f"}, {"bike_id": "4c4d7fbeffc17e5d8e6f72947009d8bf", "type": "electric_bike", "is_disabled": 0, "lat": 38.853590833333335, "rental_uris": {"ios": "https://dc.lft.to/lastmile_qr_scan", "android": "https://dc.lft.to/lastmile_qr_scan"}, "is_reserved": 0, "fusion_lon": 0.0, "fusion_lat": 0.0, "lon": -77.086862, "name": "4c4d7fbeffc17e5d8e6f72947009d8bf"}, {"bike_id": "e1cc08ef4c4075656461b867382d1424", "type": "electric_scooter", "is_disabled": 0, "lat": 38.8650565, "rental_uris": {"ios": "https://dc.lft.to/lastmile_qr_scan", "android": "https://dc.lft.to/lastmile_qr_scan"}, "is_reserved": 0, "fusion_lon": 0.0, "fusion_lat": 0.0, "lon": -76.99001583333333, "name": "e1cc08ef4c4075656461b867382d1424"}, {"bike_id": "8a91f54df5709c6256367f7f00a8d7c3", "type": "electric_bike", "is_disabled": 0, "lat": 38.957585333333334, "rental_uris": {"ios": "https://dc.lft.to/lastmile_qr_scan", "android": "https://dc.lft.to/lastmile_qr_scan"}, "is_reserved": 0, "fusion_lon": 0.0, "fusion_lat": 0.0, "lon": -77.02058316666667, "name": "8a91f54df5709c6256367f7f00a8d7c3"}, {"bike_id": "bdc16fe2c952530a7522ea94d85bdc7d", "type": "electric_scooter", "is_disabled": 0, "lat": 38.92278616666667, "rental_uris": {"ios": "https://dc.lft.to/lastmile_qr_scan", "android": "https://dc.lft.to/lastmile_qr_scan"}, "is_reserved": 0, "fusion_lon": 0.0, "fusion_lat": 0.0, "lon": -77.042398, "name": "bdc16fe2c952530a7522ea94d85bdc7d"}, {"bike_id": "e23f9dcd8fd00905917bf10f918d8372", "type": "electric_scooter", "is_disabled": 0, "lat": 38.947915, "rental_uris": {"ios": "https://dc.lft.to/lastmile_qr_scan", "android": "https://dc.lft.to/lastmile_qr_scan"}, "is_reserved": 0, "fusion_lon": 0.0, "fusion_lat": 0.0, "lon": -77.02137916666666, "name": "e23f9dcd8fd00905917bf10f918d8372"}, {"bike_id": "a1c3eefdd6512a193fcdbec6568d3d16", "type": "electric_scooter", "is_disabled": 0, "lat": 38.8922295, "rental_uris": {"ios": "https://dc.lft.to/lastmile_qr_scan", "android": "https://dc.lft.to/lastmile_qr_scan"}, "is_reserved": 0, "fusion_lon": 0.0, "fusion_lat": 0.0, "lon": -77.04010366666667, "name": "a1c3eefdd6512a193fcdbec6568d3d16"}, {"bike_id": "c351fde4a870ece8316e75e0c52e1ab6", "type": "electric_scooter", "is_disabled": 0, "lat": 38.917805333333334, "rental_uris": {"ios": "https://dc.lft.to/lastmile_qr_scan", "android": "https://dc.lft.to/lastmile_qr_scan"}, "is_reserved": 0, "fusion_lon": 0.0, "fusion_lat": 0.0, "lon": -77.02305066666666, "name": "c351fde4a870ece8316e75e0c52e1ab6"}, {"bike_id": "98ac76a0a0fc19a29418b550b49c8ffc", "type": "electric_bike", "is_disabled": 0, "lat": 38.845296, "rental_uris": {"ios": "https://dc.lft.to/lastmile_qr_scan", "android": "https://dc.lft.to/lastmile_qr_scan"}, "is_reserved": 0, "fusion_lon": 0.0, "fusion_lat": 0.0, "lon": -76.9739365, "name": "98ac76a0a0fc19a29418b550b49c8ffc"}, {"bike_id": "9f79bd73130703397d0a06ef07ab0066", "type": "electric_scooter", "is_disabled": 0, "lat": 38.925251, "rental_uris": {"ios": "https://dc.lft.to/lastmile_qr_scan", "android": "https://dc.lft.to/lastmile_qr_scan"}, "is_reserved": 0, "fusion_lon": 0.0, "fusion_lat": 0.0, "lon": -77.07632383333333, "name": "9f79bd73130703397d0a06ef07ab0066"}, {"bike_id": "0f4863109543f008a8539537c8e96140", "type": "electric_scooter", "is_disabled": 0, "lat": 38.91685416666667, "rental_uris": {"ios": "https://dc.lft.to/lastmile_qr_scan", "android": "https://dc.lft.to/lastmile_qr_scan"}, "is_reserved": 0, "fusion_lon": 0.0, "fusion_lat": 0.0, "lon": -77.02324633333333, "name": "0f4863109543f008a8539537c8e96140"}, {"bike_id": "8b6aa7db6945b90367b90bac061fb805", "type": "electric_scooter", "is_disabled": 0, "lat": 38.920280166666664, "rental_uris": {"ios": "https://dc.lft.to/lastmile_qr_scan", "android": "https://dc.lft.to/lastmile_qr_scan"}, "is_reserved": 0, "fusion_lon": 0.0, "fusion_lat": 0.0, "lon": -77.0311145, "name": "8b6aa7db6945b90367b90bac061fb805"}, {"bike_id": "1a53dcc8a7be75bc39c2067f58a47217", "type": "electric_scooter", "is_disabled": 0, "lat": 38.91251316666666, "rental_uris": {"ios": "https://dc.lft.to/lastmile_qr_scan", "android": "https://dc.lft.to/lastmile_qr_scan"}, "is_reserved": 0, "fusion_lon": 0.0, "fusion_lat": 0.0, "lon": -77.044761, "name": "1a53dcc8a7be75bc39c2067f58a47217"}, {"bike_id": "cd9434aa8a4049868bf16f2305cb8e1d", "type": "electric_scooter", "is_disabled": 0, "lat": 38.893367, "rental_uris": {"ios": "https://dc.lft.to/lastmile_qr_scan", "android": "https://dc.lft.to/lastmile_qr_scan"}, "is_reserved": 0, "fusion_lon": 0.0, "fusion_lat": 0.0, "lon": -77.03179, "name": "cd9434aa8a4049868bf16f2305cb8e1d"}, {"bike_id": "f4b455bd45a433d87d475b30efd7d637", "type": "electric_scooter", "is_disabled": 0, "lat": 38.920764, "rental_uris": {"ios": "https://dc.lft.to/lastmile_qr_scan", "android": "https://dc.lft.to/lastmile_qr_scan"}, "is_reserved": 0, "fusion_lon": 0.0, "fusion_lat": 0.0, "lon": -77.02386783333333, "name": "f4b455bd45a433d87d475b30efd7d637"}, {"bike_id": "2091ccc98f1659962814459a22785f2c", "type": "electric_scooter", "is_disabled": 0, "lat": 38.90479283333333, "rental_uris": {"ios": "https://dc.lft.to/lastmile_qr_scan", "android": "https://dc.lft.to/lastmile_qr_scan"}, "is_reserved": 0, "fusion_lon": 0.0, "fusion_lat": 0.0, "lon": -76.99624616666667, "name": "2091ccc98f1659962814459a22785f2c"}, {"bike_id": "907e93767d602fd6a3274e2acaee1111", "type": "electric_scooter", "is_disabled": 0, "lat": 38.92223466666667, "rental_uris": {"ios": "https://dc.lft.to/lastmile_qr_scan", "android": "https://dc.lft.to/lastmile_qr_scan"}, "is_reserved": 0, "fusion_lon": 0.0, "fusion_lat": 0.0, "lon": -77.04336766666667, "name": "907e93767d602fd6a3274e2acaee1111"}, {"bike_id": "d2c0f767619773c027d41b8d3b274b84", "type": "electric_scooter", "is_disabled": 0, "lat": 38.93101566666667, "rental_uris": {"ios": "https://dc.lft.to/lastmile_qr_scan", "android": "https://dc.lft.to/lastmile_qr_scan"}, "is_reserved": 0, "fusion_lon": 0.0, "fusion_lat": 0.0, "lon": -77.02666083333334, "name": "d2c0f767619773c027d41b8d3b274b84"}, {"bike_id": "05a7d64bbb26c1dd61e1d5927b9b86e0", "type": "electric_scooter", "is_disabled": 0, "lat": 38.897302833333335, "rental_uris": {"ios": "https://dc.lft.to/lastmile_qr_scan", "android": "https://dc.lft.to/lastmile_qr_scan"}, "is_reserved": 0, "fusion_lon": 0.0, "fusion_lat": 0.0, "lon": -77.02165266666667, "name": "05a7d64bbb26c1dd61e1d5927b9b86e0"}, {"bike_id": "621b759f9a3364147411bc4baea78b9a", "type": "electric_scooter", "is_disabled": 0, "lat": 38.896095333333335, "rental_uris": {"ios": "https://dc.lft.to/lastmile_qr_scan", "android": "https://dc.lft.to/lastmile_qr_scan"}, "is_reserved": 0, "fusion_lon": 0.0, "fusion_lat": 0.0, "lon": -77.02331016666666, "name": "621b759f9a3364147411bc4baea78b9a"}, {"bike_id": "80830144c400646dec2f0773667a1ba6", "type": "electric_bike", "is_disabled": 0, "lat": 38.85766383333333, "rental_uris": {"ios": "https://dc.lft.to/lastmile_qr_scan", "android": "https://dc.lft.to/lastmile_qr_scan"}, "is_reserved": 0, "fusion_lon": 0.0, "fusion_lat": 0.0, "lon": -76.98767333333333, "name": "80830144c400646dec2f0773667a1ba6"}, {"bike_id": "af765621c47f1c69c9e79b04fccf214e", "type": "electric_scooter", "is_disabled": 0, "lat": 38.91920983333333, "rental_uris": {"ios": "https://dc.lft.to/lastmile_qr_scan", "android": "https://dc.lft.to/lastmile_qr_scan"}, "is_reserved": 0, "fusion_lon": 0.0, "fusion_lat": 0.0, "lon": -77.0317905, "name": "af765621c47f1c69c9e79b04fccf214e"}, {"bike_id": "2d3c5060492cd9e9da833f9e0dc0661c", "type": "electric_scooter", "is_disabled": 0, "lat": 38.912842, "rental_uris": {"ios": "https://dc.lft.to/lastmile_qr_scan", "android": "https://dc.lft.to/lastmile_qr_scan"}, "is_reserved": 0, "fusion_lon": 0.0, "fusion_lat": 0.0, "lon": -77.06107016666667, "name": "2d3c5060492cd9e9da833f9e0dc0661c"}, {"bike_id": "e2f2a244a7b85aa2b01c3376e0ae445e", "type": "electric_scooter", "is_disabled": 0, "lat": 38.89748633333333, "rental_uris": {"ios": "https://dc.lft.to/lastmile_qr_scan", "android": "https://dc.lft.to/lastmile_qr_scan"}, "is_reserved": 0, "fusion_lon": 0.0, "fusion_lat": 0.0, "lon": -76.94185833333333, "name": "e2f2a244a7b85aa2b01c3376e0ae445e"}, {"bike_id": "132864cd3294bdacdbc9a48ff069005a", "type": "electric_scooter", "is_disabled": 0, "lat": 38.915442, "rental_uris": {"ios": "https://dc.lft.to/lastmile_qr_scan", "android": "https://dc.lft.to/lastmile_qr_scan"}, "is_reserved": 0, "fusion_lon": 0.0, "fusion_lat": 0.0, "lon": -77.036449, "name": "132864cd3294bdacdbc9a48ff069005a"}, {"bike_id": "9a3b940bde926799a9b75badf7394503", "type": "electric_scooter", "is_disabled": 0, "lat": 38.91479116666667, "rental_uris": {"ios": "https://dc.lft.to/lastmile_qr_scan", "android": "https://dc.lft.to/lastmile_qr_scan"}, "is_reserved": 0, "fusion_lon": 0.0, "fusion_lat": 0.0, "lon": -77.02577366666667, "name": "9a3b940bde926799a9b75badf7394503"}, {"bike_id": "ef533062f60b2c781a31baf96add39df", "type": "electric_scooter", "is_disabled": 0, "lat": 38.923449, "rental_uris": {"ios": "https://dc.lft.to/lastmile_qr_scan", "android": "https://dc.lft.to/lastmile_qr_scan"}, "is_reserved": 0, "fusion_lon": 0.0, "fusion_lat": 0.0, "lon": -77.03480866666666, "name": "ef533062f60b2c781a31baf96add39df"}, {"bike_id": "719c3beac8931aa218446b2aeded093f", "type": "electric_scooter", "is_disabled": 0, "lat": 38.911755166666666, "rental_uris": {"ios": "https://dc.lft.to/lastmile_qr_scan", "android": "https://dc.lft.to/lastmile_qr_scan"}, "is_reserved": 0, "fusion_lon": 0.0, "fusion_lat": 0.0, "lon": -77.01697433333334, "name": "719c3beac8931aa218446b2aeded093f"}, {"bike_id": "0a10dd856aadd136e901bedbe13092e1", "type": "electric_scooter", "is_disabled": 0, "lat": 38.917029, "rental_uris": {"ios": "https://dc.lft.to/lastmile_qr_scan", "android": "https://dc.lft.to/lastmile_qr_scan"}, "is_reserved": 0, "fusion_lon": 0.0, "fusion_lat": 0.0, "lon": -77.00812333333333, "name": "0a10dd856aadd136e901bedbe13092e1"}, {"bike_id": "9428601174767b75917511bd66f9450d", "type": "electric_scooter", "is_disabled": 0, "lat": 38.86247083333333, "rental_uris": {"ios": "https://dc.lft.to/lastmile_qr_scan", "android": "https://dc.lft.to/lastmile_qr_scan"}, "is_reserved": 0, "fusion_lon": 0.0, "fusion_lat": 0.0, "lon": -76.99501266666667, "name": "9428601174767b75917511bd66f9450d"}, {"bike_id": "a1919d3c6db7f66b3a29eac9d3d32bb3", "type": "electric_scooter", "is_disabled": 0, "lat": 38.82579533333333, "rental_uris": {"ios": "https://dc.lft.to/lastmile_qr_scan", "android": "https://dc.lft.to/lastmile_qr_scan"}, "is_reserved": 0, "fusion_lon": 0.0, "fusion_lat": 0.0, "lon": -77.007929, "name": "a1919d3c6db7f66b3a29eac9d3d32bb3"}, {"bike_id": "786b7318c3ad48c061b7b96e66f01e75", "type": "electric_scooter", "is_disabled": 0, "lat": 38.912671, "rental_uris": {"ios": "https://dc.lft.to/lastmile_qr_scan", "android": "https://dc.lft.to/lastmile_qr_scan"}, "is_reserved": 0, "fusion_lon": 0.0, "fusion_lat": 0.0, "lon": -77.04707583333334, "name": "786b7318c3ad48c061b7b96e66f01e75"}, {"bike_id": "f3cf82d36739000e90cc50902ffeeb45", "type": "electric_scooter", "is_disabled": 0, "lat": 38.903736333333335, "rental_uris": {"ios": "https://dc.lft.to/lastmile_qr_scan", "android": "https://dc.lft.to/lastmile_qr_scan"}, "is_reserved": 0, "fusion_lon": 0.0, "fusion_lat": 0.0, "lon": -77.03221916666666, "name": "f3cf82d36739000e90cc50902ffeeb45"}, {"bike_id": "61f2b8138aa75aced69495cfdbac8280", "type": "electric_scooter", "is_disabled": 0, "lat": 38.91168616666667, "rental_uris": {"ios": "https://dc.lft.to/lastmile_qr_scan", "android": "https://dc.lft.to/lastmile_qr_scan"}, "is_reserved": 0, "fusion_lon": 0.0, "fusion_lat": 0.0, "lon": -77.03181866666667, "name": "61f2b8138aa75aced69495cfdbac8280"}, {"bike_id": "053338d35a39f50283a949a57e19f32c", "type": "electric_scooter", "is_disabled": 0, "lat": 38.9252935, "rental_uris": {"ios": "https://dc.lft.to/lastmile_qr_scan", "android": "https://dc.lft.to/lastmile_qr_scan"}, "is_reserved": 0, "fusion_lon": 0.0, "fusion_lat": 0.0, "lon": -77.04113683333334, "name": "053338d35a39f50283a949a57e19f32c"}, {"bike_id": "ebca635b96729424bea8dce3ec814eed", "type": "electric_scooter", "is_disabled": 0, "lat": 38.919920833333336, "rental_uris": {"ios": "https://dc.lft.to/lastmile_qr_scan", "android": "https://dc.lft.to/lastmile_qr_scan"}, "is_reserved": 0, "fusion_lon": 0.0, "fusion_lat": 0.0, "lon": -77.032547, "name": "ebca635b96729424bea8dce3ec814eed"}, {"bike_id": "f447f050538e8969109a9a120ddd43d4", "type": "electric_scooter", "is_disabled": 0, "lat": 38.900806333333335, "rental_uris": {"ios": "https://dc.lft.to/lastmile_qr_scan", "android": "https://dc.lft.to/lastmile_qr_scan"}, "is_reserved": 0, "fusion_lon": 0.0, "fusion_lat": 0.0, "lon": -77.048263, "name": "f447f050538e8969109a9a120ddd43d4"}, {"bike_id": "7e6465d0ba7ff6eeae12cc9130bf27cf", "type": "electric_scooter", "is_disabled": 0, "lat": 38.905651, "rental_uris": {"ios": "https://dc.lft.to/lastmile_qr_scan", "android": "https://dc.lft.to/lastmile_qr_scan"}, "is_reserved": 0, "fusion_lon": 0.0, "fusion_lat": 0.0, "lon": -77.04171183333334, "name": "7e6465d0ba7ff6eeae12cc9130bf27cf"}, {"bike_id": "083a88ad147b6f55204ef612db2492ca", "type": "electric_scooter", "is_disabled": 0, "lat": 38.92404633333334, "rental_uris": {"ios": "https://dc.lft.to/lastmile_qr_scan", "android": "https://dc.lft.to/lastmile_qr_scan"}, "is_reserved": 0, "fusion_lon": 0.0, "fusion_lat": 0.0, "lon": -77.02976366666667, "name": "083a88ad147b6f55204ef612db2492ca"}, {"bike_id": "a7a1f7e7cf8fc53f92bfe8f7ddb136e4", "type": "electric_scooter", "is_disabled": 0, "lat": 38.90641383333333, "rental_uris": {"ios": "https://dc.lft.to/lastmile_qr_scan", "android": "https://dc.lft.to/lastmile_qr_scan"}, "is_reserved": 0, "fusion_lon": 0.0, "fusion_lat": 0.0, "lon": -77.02811783333334, "name": "a7a1f7e7cf8fc53f92bfe8f7ddb136e4"}, {"bike_id": "60a73b5dc37b41e362437b422332fb38", "type": "electric_scooter", "is_disabled": 0, "lat": 38.933971166666666, "rental_uris": {"ios": "https://dc.lft.to/lastmile_qr_scan", "android": "https://dc.lft.to/lastmile_qr_scan"}, "is_reserved": 0, "fusion_lon": 0.0, "fusion_lat": 0.0, "lon": -77.057393, "name": "60a73b5dc37b41e362437b422332fb38"}, {"bike_id": "1e73c8d59dcba2d58004e91a817affac", "type": "electric_bike", "is_disabled": 0, "lat": 38.906248166666664, "rental_uris": {"ios": "https://dc.lft.to/lastmile_qr_scan", "android": "https://dc.lft.to/lastmile_qr_scan"}, "is_reserved": 0, "fusion_lon": 0.0, "fusion_lat": 0.0, "lon": -76.986099, "name": "1e73c8d59dcba2d58004e91a817affac"}, {"bike_id": "b3671a8ece1a87bc49f16f7e53584b2f", "type": "electric_scooter", "is_disabled": 0, "lat": 38.896398166666664, "rental_uris": {"ios": "https://dc.lft.to/lastmile_qr_scan", "android": "https://dc.lft.to/lastmile_qr_scan"}, "is_reserved": 0, "fusion_lon": 0.0, "fusion_lat": 0.0, "lon": -77.02592933333334, "name": "b3671a8ece1a87bc49f16f7e53584b2f"}, {"bike_id": "d910be02f1452639824eb8bcb65c51e1", "type": "electric_scooter", "is_disabled": 0, "lat": 38.88410566666667, "rental_uris": {"ios": "https://dc.lft.to/lastmile_qr_scan", "android": "https://dc.lft.to/lastmile_qr_scan"}, "is_reserved": 0, "fusion_lon": 0.0, "fusion_lat": 0.0, "lon": -76.948224, "name": "d910be02f1452639824eb8bcb65c51e1"}, {"bike_id": "92d11bef4db57e98013fc65b40f5c65d", "type": "electric_scooter", "is_disabled": 0, "lat": 38.91553583333334, "rental_uris": {"ios": "https://dc.lft.to/lastmile_qr_scan", "android": "https://dc.lft.to/lastmile_qr_scan"}, "is_reserved": 0, "fusion_lon": 0.0, "fusion_lat": 0.0, "lon": -77.04448783333333, "name": "92d11bef4db57e98013fc65b40f5c65d"}, {"bike_id": "40fcd699d5642b590132bf9fca983bfd", "type": "electric_scooter", "is_disabled": 0, "lat": 38.93469566666667, "rental_uris": {"ios": "https://dc.lft.to/lastmile_qr_scan", "android": "https://dc.lft.to/lastmile_qr_scan"}, "is_reserved": 0, "fusion_lon": 0.0, "fusion_lat": 0.0, "lon": -77.04538083333334, "name": "40fcd699d5642b590132bf9fca983bfd"}, {"bike_id": "ecafb90bb8ce3da94c24bb1e3d7f3ac4", "type": "electric_scooter", "is_disabled": 0, "lat": 38.907401666666665, "rental_uris": {"ios": "https://dc.lft.to/lastmile_qr_scan", "android": "https://dc.lft.to/lastmile_qr_scan"}, "is_reserved": 0, "fusion_lon": 0.0, "fusion_lat": 0.0, "lon": -77.031955, "name": "ecafb90bb8ce3da94c24bb1e3d7f3ac4"}, {"bike_id": "7fa42b676c47be8c709098fa6b770dea", "type": "electric_scooter", "is_disabled": 0, "lat": 38.89951466666667, "rental_uris": {"ios": "https://dc.lft.to/lastmile_qr_scan", "android": "https://dc.lft.to/lastmile_qr_scan"}, "is_reserved": 0, "fusion_lon": 0.0, "fusion_lat": 0.0, "lon": -77.01443616666667, "name": "7fa42b676c47be8c709098fa6b770dea"}, {"bike_id": "fd980296c3db7a7e71e7ef4b410d3ebe", "type": "electric_scooter", "is_disabled": 0, "lat": 38.882838, "rental_uris": {"ios": "https://dc.lft.to/lastmile_qr_scan", "android": "https://dc.lft.to/lastmile_qr_scan"}, "is_reserved": 0, "fusion_lon": 0.0, "fusion_lat": 0.0, "lon": -77.02140366666667, "name": "fd980296c3db7a7e71e7ef4b410d3ebe"}, {"bike_id": "cf9906ba7d7660ffc721a2ada3c3f755", "type": "electric_bike", "is_disabled": 0, "lat": 38.966331333333336, "rental_uris": {"ios": "https://dc.lft.to/lastmile_qr_scan", "android": "https://dc.lft.to/lastmile_qr_scan"}, "is_reserved": 0, "fusion_lon": 0.0, "fusion_lat": 0.0, "lon": -76.976746, "name": "cf9906ba7d7660ffc721a2ada3c3f755"}, {"bike_id": "739964815565697a057f684453ef351d", "type": "electric_scooter", "is_disabled": 0, "lat": 38.92249133333333, "rental_uris": {"ios": "https://dc.lft.to/lastmile_qr_scan", "android": "https://dc.lft.to/lastmile_qr_scan"}, "is_reserved": 0, "fusion_lon": 0.0, "fusion_lat": 0.0, "lon": -77.042091, "name": "739964815565697a057f684453ef351d"}, {"bike_id": "1cebbdfca3970ad91cc15fdf3fcb5d33", "type": "electric_scooter", "is_disabled": 0, "lat": 38.8991745, "rental_uris": {"ios": "https://dc.lft.to/lastmile_qr_scan", "android": "https://dc.lft.to/lastmile_qr_scan"}, "is_reserved": 0, "fusion_lon": 0.0, "fusion_lat": 0.0, "lon": -76.93362683333334, "name": "1cebbdfca3970ad91cc15fdf3fcb5d33"}, {"bike_id": "1651204d79aff9bf0a8025db30cb71a7", "type": "electric_bike", "is_disabled": 0, "lat": 38.922441666666664, "rental_uris": {"ios": "https://dc.lft.to/lastmile_qr_scan", "android": "https://dc.lft.to/lastmile_qr_scan"}, "is_reserved": 0, "fusion_lon": 0.0, "fusion_lat": 0.0, "lon": -77.04475583333334, "name": "1651204d79aff9bf0a8025db30cb71a7"}, {"bike_id": "6e05be4e032a6773d8235a7a4263c4c8", "type": "electric_scooter", "is_disabled": 0, "lat": 38.90032083333333, "rental_uris": {"ios": "https://dc.lft.to/lastmile_qr_scan", "android": "https://dc.lft.to/lastmile_qr_scan"}, "is_reserved": 0, "fusion_lon": 0.0, "fusion_lat": 0.0, "lon": -76.98856616666667, "name": "6e05be4e032a6773d8235a7a4263c4c8"}, {"bike_id": "a832d5c42961e5dfb43513ceacef82a3", "type": "electric_scooter", "is_disabled": 0, "lat": 38.90498133333333, "rental_uris": {"ios": "https://dc.lft.to/lastmile_qr_scan", "android": "https://dc.lft.to/lastmile_qr_scan"}, "is_reserved": 0, "fusion_lon": 0.0, "fusion_lat": 0.0, "lon": -77.029585, "name": "a832d5c42961e5dfb43513ceacef82a3"}, {"bike_id": "9fc3e4a5ba1994085ffcf50bc79994a9", "type": "electric_scooter", "is_disabled": 0, "lat": 38.91701116666667, "rental_uris": {"ios": "https://dc.lft.to/lastmile_qr_scan", "android": "https://dc.lft.to/lastmile_qr_scan"}, "is_reserved": 0, "fusion_lon": 0.0, "fusion_lat": 0.0, "lon": -77.00808933333333, "name": "9fc3e4a5ba1994085ffcf50bc79994a9"}, {"bike_id": "4e69fb37d37b1c681de445923ab04b39", "type": "electric_scooter", "is_disabled": 0, "lat": 38.915539833333334, "rental_uris": {"ios": "https://dc.lft.to/lastmile_qr_scan", "android": "https://dc.lft.to/lastmile_qr_scan"}, "is_reserved": 0, "fusion_lon": 0.0, "fusion_lat": 0.0, "lon": -77.04449216666667, "name": "4e69fb37d37b1c681de445923ab04b39"}, {"bike_id": "59c9bc1b087ce1779a18fa3efb13a723", "type": "electric_scooter", "is_disabled": 0, "lat": 38.935223666666666, "rental_uris": {"ios": "https://dc.lft.to/lastmile_qr_scan", "android": "https://dc.lft.to/lastmile_qr_scan"}, "is_reserved": 0, "fusion_lon": 0.0, "fusion_lat": 0.0, "lon": -77.03355533333334, "name": "59c9bc1b087ce1779a18fa3efb13a723"}, {"bike_id": "720f11d83c6f8f2b1d6723a42e6f7c85", "type": "electric_scooter", "is_disabled": 0, "lat": 38.91251416666667, "rental_uris": {"ios": "https://dc.lft.to/lastmile_qr_scan", "android": "https://dc.lft.to/lastmile_qr_scan"}, "is_reserved": 0, "fusion_lon": 0.0, "fusion_lat": 0.0, "lon": -77.00951766666667, "name": "720f11d83c6f8f2b1d6723a42e6f7c85"}, {"bike_id": "9b7ab98fec9ea3b898b013793e54ecb7", "type": "electric_scooter", "is_disabled": 0, "lat": 38.915614833333336, "rental_uris": {"ios": "https://dc.lft.to/lastmile_qr_scan", "android": "https://dc.lft.to/lastmile_qr_scan"}, "is_reserved": 0, "fusion_lon": 0.0, "fusion_lat": 0.0, "lon": -77.02589416666666, "name": "9b7ab98fec9ea3b898b013793e54ecb7"}, {"bike_id": "2aa8a479a222f955837c7c486544b9b1", "type": "electric_scooter", "is_disabled": 0, "lat": 38.88714183333333, "rental_uris": {"ios": "https://dc.lft.to/lastmile_qr_scan", "android": "https://dc.lft.to/lastmile_qr_scan"}, "is_reserved": 0, "fusion_lon": 0.0, "fusion_lat": 0.0, "lon": -77.01771666666667, "name": "2aa8a479a222f955837c7c486544b9b1"}, {"bike_id": "670234606fab903ac4dfff5192e3caf7", "type": "electric_bike", "is_disabled": 0, "lat": 38.897424, "rental_uris": {"ios": "https://dc.lft.to/lastmile_qr_scan", "android": "https://dc.lft.to/lastmile_qr_scan"}, "is_reserved": 0, "fusion_lon": 0.0, "fusion_lat": 0.0, "lon": -76.92049716666666, "name": "670234606fab903ac4dfff5192e3caf7"}, {"bike_id": "fa64e3ee33174d93bc7ff686e44c623b", "type": "electric_scooter", "is_disabled": 0, "lat": 38.887476, "rental_uris": {"ios": "https://dc.lft.to/lastmile_qr_scan", "android": "https://dc.lft.to/lastmile_qr_scan"}, "is_reserved": 0, "fusion_lon": 0.0, "fusion_lat": 0.0, "lon": -77.01527466666667, "name": "fa64e3ee33174d93bc7ff686e44c623b"}, {"bike_id": "04cbf6fbd1985f7fd33622fc25b021d1", "type": "electric_scooter", "is_disabled": 0, "lat": 38.874726, "rental_uris": {"ios": "https://dc.lft.to/lastmile_qr_scan", "android": "https://dc.lft.to/lastmile_qr_scan"}, "is_reserved": 0, "fusion_lon": 0.0, "fusion_lat": 0.0, "lon": -77.00556383333333, "name": "04cbf6fbd1985f7fd33622fc25b021d1"}, {"bike_id": "6b24303f53f34a96bb91679cfb6ddc01", "type": "electric_scooter", "is_disabled": 0, "lat": 38.90301483333333, "rental_uris": {"ios": "https://dc.lft.to/lastmile_qr_scan", "android": "https://dc.lft.to/lastmile_qr_scan"}, "is_reserved": 0, "fusion_lon": 0.0, "fusion_lat": 0.0, "lon": -77.03362833333334, "name": "6b24303f53f34a96bb91679cfb6ddc01"}, {"bike_id": "7d78ec14d23cfa132d6cbb219b57937b", "type": "electric_scooter", "is_disabled": 0, "lat": 38.909628166666664, "rental_uris": {"ios": "https://dc.lft.to/lastmile_qr_scan", "android": "https://dc.lft.to/lastmile_qr_scan"}, "is_reserved": 0, "fusion_lon": 0.0, "fusion_lat": 0.0, "lon": -77.036321, "name": "7d78ec14d23cfa132d6cbb219b57937b"}, {"bike_id": "63b2d0b46c23a7f45a3e750656fea06c", "type": "electric_scooter", "is_disabled": 0, "lat": 38.9155235, "rental_uris": {"ios": "https://dc.lft.to/lastmile_qr_scan", "android": "https://dc.lft.to/lastmile_qr_scan"}, "is_reserved": 0, "fusion_lon": 0.0, "fusion_lat": 0.0, "lon": -77.0321325, "name": "63b2d0b46c23a7f45a3e750656fea06c"}, {"bike_id": "12fd68da07c180f40e5af22cb4a94b4a", "type": "electric_scooter", "is_disabled": 0, "lat": 38.918270166666666, "rental_uris": {"ios": "https://dc.lft.to/lastmile_qr_scan", "android": "https://dc.lft.to/lastmile_qr_scan"}, "is_reserved": 0, "fusion_lon": 0.0, "fusion_lat": 0.0, "lon": -77.04943683333333, "name": "12fd68da07c180f40e5af22cb4a94b4a"}, {"bike_id": "e699f2f39bca7b96ec7c16e0678c7999", "type": "electric_scooter", "is_disabled": 0, "lat": 38.936148833333334, "rental_uris": {"ios": "https://dc.lft.to/lastmile_qr_scan", "android": "https://dc.lft.to/lastmile_qr_scan"}, "is_reserved": 0, "fusion_lon": 0.0, "fusion_lat": 0.0, "lon": -77.058871, "name": "e699f2f39bca7b96ec7c16e0678c7999"}, {"bike_id": "77f93e8bea16301a371a5e0db91e3248", "type": "electric_scooter", "is_disabled": 0, "lat": 38.943135833333336, "rental_uris": {"ios": "https://dc.lft.to/lastmile_qr_scan", "android": "https://dc.lft.to/lastmile_qr_scan"}, "is_reserved": 0, "fusion_lon": 0.0, "fusion_lat": 0.0, "lon": -77.06168433333333, "name": "77f93e8bea16301a371a5e0db91e3248"}, {"bike_id": "beb8deaae4423c0b26ec3c79033beaf7", "type": "electric_scooter", "is_disabled": 0, "lat": 38.9100045, "rental_uris": {"ios": "https://dc.lft.to/lastmile_qr_scan", "android": "https://dc.lft.to/lastmile_qr_scan"}, "is_reserved": 0, "fusion_lon": 0.0, "fusion_lat": 0.0, "lon": -77.02180866666667, "name": "beb8deaae4423c0b26ec3c79033beaf7"}, {"bike_id": "b5621ddda6172bb4060693b3e18d3013", "type": "electric_scooter", "is_disabled": 0, "lat": 38.92502416666667, "rental_uris": {"ios": "https://dc.lft.to/lastmile_qr_scan", "android": "https://dc.lft.to/lastmile_qr_scan"}, "is_reserved": 0, "fusion_lon": 0.0, "fusion_lat": 0.0, "lon": -77.03787633333333, "name": "b5621ddda6172bb4060693b3e18d3013"}, {"bike_id": "98839a88dbb025f6b6db51a68736c1bf", "type": "electric_scooter", "is_disabled": 0, "lat": 38.92504433333333, "rental_uris": {"ios": "https://dc.lft.to/lastmile_qr_scan", "android": "https://dc.lft.to/lastmile_qr_scan"}, "is_reserved": 0, "fusion_lon": 0.0, "fusion_lat": 0.0, "lon": -77.021617, "name": "98839a88dbb025f6b6db51a68736c1bf"}, {"bike_id": "3be4b326fb6a3e11d743b1092a32bf1f", "type": "electric_scooter", "is_disabled": 0, "lat": 38.9096855, "rental_uris": {"ios": "https://dc.lft.to/lastmile_qr_scan", "android": "https://dc.lft.to/lastmile_qr_scan"}, "is_reserved": 0, "fusion_lon": 0.0, "fusion_lat": 0.0, "lon": -77.021735, "name": "3be4b326fb6a3e11d743b1092a32bf1f"}, {"bike_id": "ff9af0bca6dc9777e6741d98d6d3bbc8", "type": "electric_scooter", "is_disabled": 0, "lat": 38.90573966666667, "rental_uris": {"ios": "https://dc.lft.to/lastmile_qr_scan", "android": "https://dc.lft.to/lastmile_qr_scan"}, "is_reserved": 0, "fusion_lon": 0.0, "fusion_lat": 0.0, "lon": -77.03079266666667, "name": "ff9af0bca6dc9777e6741d98d6d3bbc8"}, {"bike_id": "87cfd5eb4782329b5c054369185ef64e", "type": "electric_scooter", "is_disabled": 0, "lat": 38.89237, "rental_uris": {"ios": "https://dc.lft.to/lastmile_qr_scan", "android": "https://dc.lft.to/lastmile_qr_scan"}, "is_reserved": 0, "fusion_lon": 0.0, "fusion_lat": 0.0, "lon": -77.04162616666666, "name": "87cfd5eb4782329b5c054369185ef64e"}, {"bike_id": "3c7bb91bf213cccb91eca2acf815e693", "type": "electric_scooter", "is_disabled": 0, "lat": 38.8985445, "rental_uris": {"ios": "https://dc.lft.to/lastmile_qr_scan", "android": "https://dc.lft.to/lastmile_qr_scan"}, "is_reserved": 0, "fusion_lon": 0.0, "fusion_lat": 0.0, "lon": -77.02181116666667, "name": "3c7bb91bf213cccb91eca2acf815e693"}, {"bike_id": "941181c4a85792d796b7895bac10ea2f", "type": "electric_scooter", "is_disabled": 0, "lat": 38.88400033333333, "rental_uris": {"ios": "https://dc.lft.to/lastmile_qr_scan", "android": "https://dc.lft.to/lastmile_qr_scan"}, "is_reserved": 0, "fusion_lon": 0.0, "fusion_lat": 0.0, "lon": -77.01990033333334, "name": "941181c4a85792d796b7895bac10ea2f"}, {"bike_id": "4f38942495de78df1485f6d0bc01e4d8", "type": "electric_scooter", "is_disabled": 0, "lat": 38.911846833333335, "rental_uris": {"ios": "https://dc.lft.to/lastmile_qr_scan", "android": "https://dc.lft.to/lastmile_qr_scan"}, "is_reserved": 0, "fusion_lon": 0.0, "fusion_lat": 0.0, "lon": -77.03214566666666, "name": "4f38942495de78df1485f6d0bc01e4d8"}, {"bike_id": "dc3bb5eed74537df75fb287ab1f4602f", "type": "electric_scooter", "is_disabled": 0, "lat": 38.91473033333333, "rental_uris": {"ios": "https://dc.lft.to/lastmile_qr_scan", "android": "https://dc.lft.to/lastmile_qr_scan"}, "is_reserved": 0, "fusion_lon": 0.0, "fusion_lat": 0.0, "lon": -77.04590166666667, "name": "dc3bb5eed74537df75fb287ab1f4602f"}, {"bike_id": "3c6158da51ab61c8f65869b7e9d8c4c7", "type": "electric_scooter", "is_disabled": 0, "lat": 38.90265216666667, "rental_uris": {"ios": "https://dc.lft.to/lastmile_qr_scan", "android": "https://dc.lft.to/lastmile_qr_scan"}, "is_reserved": 0, "fusion_lon": 0.0, "fusion_lat": 0.0, "lon": -76.9812135, "name": "3c6158da51ab61c8f65869b7e9d8c4c7"}, {"bike_id": "0c8ef3ce74b62d02f7f8dcd5151c644c", "type": "electric_scooter", "is_disabled": 0, "lat": 38.919230666666664, "rental_uris": {"ios": "https://dc.lft.to/lastmile_qr_scan", "android": "https://dc.lft.to/lastmile_qr_scan"}, "is_reserved": 0, "fusion_lon": 0.0, "fusion_lat": 0.0, "lon": -77.0318135, "name": "0c8ef3ce74b62d02f7f8dcd5151c644c"}, {"bike_id": "56552deb859c99971aae44d2ebb5d03d", "type": "electric_scooter", "is_disabled": 0, "lat": 38.92752183333333, "rental_uris": {"ios": "https://dc.lft.to/lastmile_qr_scan", "android": "https://dc.lft.to/lastmile_qr_scan"}, "is_reserved": 0, "fusion_lon": 0.0, "fusion_lat": 0.0, "lon": -77.02536, "name": "56552deb859c99971aae44d2ebb5d03d"}, {"bike_id": "36bf26a73c0db48df0391ead1ac087ae", "type": "electric_scooter", "is_disabled": 0, "lat": 38.88849366666667, "rental_uris": {"ios": "https://dc.lft.to/lastmile_qr_scan", "android": "https://dc.lft.to/lastmile_qr_scan"}, "is_reserved": 0, "fusion_lon": 0.0, "fusion_lat": 0.0, "lon": -76.92680766666666, "name": "36bf26a73c0db48df0391ead1ac087ae"}, {"bike_id": "5b37552189fc24e9fb4c8ea19a65cd24", "type": "electric_scooter", "is_disabled": 0, "lat": 38.89222633333333, "rental_uris": {"ios": "https://dc.lft.to/lastmile_qr_scan", "android": "https://dc.lft.to/lastmile_qr_scan"}, "is_reserved": 0, "fusion_lon": 0.0, "fusion_lat": 0.0, "lon": -77.02231333333333, "name": "5b37552189fc24e9fb4c8ea19a65cd24"}, {"bike_id": "ccce2524ecf8cb57153f545333000262", "type": "electric_scooter", "is_disabled": 0, "lat": 38.92875933333333, "rental_uris": {"ios": "https://dc.lft.to/lastmile_qr_scan", "android": "https://dc.lft.to/lastmile_qr_scan"}, "is_reserved": 0, "fusion_lon": 0.0, "fusion_lat": 0.0, "lon": -77.03290666666666, "name": "ccce2524ecf8cb57153f545333000262"}, {"bike_id": "be0d2386c50990d88c2603c20ba90d28", "type": "electric_scooter", "is_disabled": 0, "lat": 38.878631166666665, "rental_uris": {"ios": "https://dc.lft.to/lastmile_qr_scan", "android": "https://dc.lft.to/lastmile_qr_scan"}, "is_reserved": 0, "fusion_lon": 0.0, "fusion_lat": 0.0, "lon": -76.96985133333334, "name": "be0d2386c50990d88c2603c20ba90d28"}, {"bike_id": "fd9c69867e768bf9e2c5485738fdd0a2", "type": "electric_scooter", "is_disabled": 0, "lat": 38.91973316666667, "rental_uris": {"ios": "https://dc.lft.to/lastmile_qr_scan", "android": "https://dc.lft.to/lastmile_qr_scan"}, "is_reserved": 0, "fusion_lon": 0.0, "fusion_lat": 0.0, "lon": -77.04072866666667, "name": "fd9c69867e768bf9e2c5485738fdd0a2"}, {"bike_id": "2f1fb5829a500e66d99f4193f66ef14e", "type": "electric_scooter", "is_disabled": 0, "lat": 38.8875065, "rental_uris": {"ios": "https://dc.lft.to/lastmile_qr_scan", "android": "https://dc.lft.to/lastmile_qr_scan"}, "is_reserved": 0, "fusion_lon": 0.0, "fusion_lat": 0.0, "lon": -77.02567133333334, "name": "2f1fb5829a500e66d99f4193f66ef14e"}, {"bike_id": "02b645efe7aea525949cea2a0042ab21", "type": "electric_scooter", "is_disabled": 0, "lat": 38.90538466666667, "rental_uris": {"ios": "https://dc.lft.to/lastmile_qr_scan", "android": "https://dc.lft.to/lastmile_qr_scan"}, "is_reserved": 0, "fusion_lon": 0.0, "fusion_lat": 0.0, "lon": -77.01725783333333, "name": "02b645efe7aea525949cea2a0042ab21"}, {"bike_id": "4f0284d4f60e731e31fa651ee0b583de", "type": "electric_bike", "is_disabled": 0, "lat": 38.934923833333336, "rental_uris": {"ios": "https://dc.lft.to/lastmile_qr_scan", "android": "https://dc.lft.to/lastmile_qr_scan"}, "is_reserved": 0, "fusion_lon": 0.0, "fusion_lat": 0.0, "lon": -77.0301205, "name": "4f0284d4f60e731e31fa651ee0b583de"}, {"bike_id": "59196febb6e8c384c83ea1e936a9ecaf", "type": "electric_scooter", "is_disabled": 0, "lat": 38.874215666666665, "rental_uris": {"ios": "https://dc.lft.to/lastmile_qr_scan", "android": "https://dc.lft.to/lastmile_qr_scan"}, "is_reserved": 0, "fusion_lon": 0.0, "fusion_lat": 0.0, "lon": -76.96907933333334, "name": "59196febb6e8c384c83ea1e936a9ecaf"}, {"bike_id": "d51f2735c6d17b9c0fddd3f5d874d8d0", "type": "electric_scooter", "is_disabled": 0, "lat": 38.91777183333333, "rental_uris": {"ios": "https://dc.lft.to/lastmile_qr_scan", "android": "https://dc.lft.to/lastmile_qr_scan"}, "is_reserved": 0, "fusion_lon": 0.0, "fusion_lat": 0.0, "lon": -77.02301783333333, "name": "d51f2735c6d17b9c0fddd3f5d874d8d0"}, {"bike_id": "d0cc61ec53c841ec6c0e85cdd32a1f2c", "type": "electric_scooter", "is_disabled": 0, "lat": 38.91271583333333, "rental_uris": {"ios": "https://dc.lft.to/lastmile_qr_scan", "android": "https://dc.lft.to/lastmile_qr_scan"}, "is_reserved": 0, "fusion_lon": 0.0, "fusion_lat": 0.0, "lon": -77.022272, "name": "d0cc61ec53c841ec6c0e85cdd32a1f2c"}, {"bike_id": "e940ce4013621aa35ea3f4ba975897a3", "type": "electric_scooter", "is_disabled": 0, "lat": 38.86691116666667, "rental_uris": {"ios": "https://dc.lft.to/lastmile_qr_scan", "android": "https://dc.lft.to/lastmile_qr_scan"}, "is_reserved": 0, "fusion_lon": 0.0, "fusion_lat": 0.0, "lon": -76.985731, "name": "e940ce4013621aa35ea3f4ba975897a3"}, {"bike_id": "877c68f526896e093dde9d33e70f9b1d", "type": "electric_scooter", "is_disabled": 0, "lat": 38.91886066666667, "rental_uris": {"ios": "https://dc.lft.to/lastmile_qr_scan", "android": "https://dc.lft.to/lastmile_qr_scan"}, "is_reserved": 0, "fusion_lon": 0.0, "fusion_lat": 0.0, "lon": -77.04830416666667, "name": "877c68f526896e093dde9d33e70f9b1d"}, {"bike_id": "45089624be5af48bea737b4852fd0ce8", "type": "electric_scooter", "is_disabled": 0, "lat": 38.95038316666667, "rental_uris": {"ios": "https://dc.lft.to/lastmile_qr_scan", "android": "https://dc.lft.to/lastmile_qr_scan"}, "is_reserved": 0, "fusion_lon": 0.0, "fusion_lat": 0.0, "lon": -77.02722066666666, "name": "45089624be5af48bea737b4852fd0ce8"}, {"bike_id": "fb0bfee6e5fdffc26bf812bc78372c33", "type": "electric_scooter", "is_disabled": 0, "lat": 38.91802933333334, "rental_uris": {"ios": "https://dc.lft.to/lastmile_qr_scan", "android": "https://dc.lft.to/lastmile_qr_scan"}, "is_reserved": 0, "fusion_lon": 0.0, "fusion_lat": 0.0, "lon": -77.0344195, "name": "fb0bfee6e5fdffc26bf812bc78372c33"}, {"bike_id": "4fc55b5a88301805af4a33c454f93220", "type": "electric_scooter", "is_disabled": 0, "lat": 38.921541500000004, "rental_uris": {"ios": "https://dc.lft.to/lastmile_qr_scan", "android": "https://dc.lft.to/lastmile_qr_scan"}, "is_reserved": 0, "fusion_lon": 0.0, "fusion_lat": 0.0, "lon": -77.038728, "name": "4fc55b5a88301805af4a33c454f93220"},