{"data": {"bikes": [{"bike_id": "a190886383cf094d9a1e7c49557e1fb2", "fusion_lon": 0.0, "type": "electric_scooter", "name": "a190886383cf094d9a1e7c49557e1fb2", "rental_uris": {"android": "https://dc.lft.to/lastmile_qr_scan", "ios": "https://dc.lft.to/lastmile_qr_scan"}, "fusion_lat": 0.0, "lat": 38.914579833333335, "is_disabled": 0, "lon": -77.04162833333334, "is_reserved": 0}, {"bike_id": "58984c0efef40b239fa12e657ac42880", "fusion_lon": 0.0, "type": "electric_bike", "name": "58984c0efef40b239fa12e657ac42880", "rental_uris": {"android": "https://dc.lft.to/lastmile_qr_scan", "ios": "https://dc.lft.to/lastmile_qr_scan"}, "fusion_lat": 0.0, "lat": 38.96505533333333, "is_disabled": 0, "lon": -77.02827, "is_reserved": 0}, {"bike_id": "a1c2fc3574f3dd73dd6387927fa58617", "fusion_lon": 0.0, "type": "electric_scooter", "name": "a1c2fc3574f3dd73dd6387927fa58617", "rental_uris": {"android": "https://dc.lft.to/lastmile_qr_scan", "ios": "https://dc.lft.to/lastmile_qr_scan"}, "fusion_lat": 0.0, "lat": 38.8442715, "is_disabled": 0, "lon": -76.99779766666667, "is_reserved": 0}, {"bike_id": "75936e6429fba46db007304c7bb0d5ca", "fusion_lon": 0.0, "type": "electric_scooter", "name": "75936e6429fba46db007304c7bb0d5ca", "rental_uris": {"android": "https://dc.lft.to/lastmile_qr_scan", "ios": "https://dc.lft.to/lastmile_qr_scan"}, "fusion_lat": 0.0, "lat": 38.922345666666665, "is_disabled": 0, "lon": -77.042471, "is_reserved": 0}, {"bike_id": "9c346235e6036e1ac07b7233abba2e56", "fusion_lon": 0.0, "type": "electric_scooter", "name": "9c346235e6036e1ac07b7233abba2e56", "rental_uris": {"android": "https://dc.lft.to/lastmile_qr_scan", "ios": "https://dc.lft.to/lastmile_qr_scan"}, "fusion_lat": 0.0, "lat": 38.914568333333335, "is_disabled": 0, "lon": -77.07166583333333, "is_reserved": 0}, {"bike_id": "8c2c1efd2c52298ea49ad06cf8b47a85", "fusion_lon": 0.0, "type": "electric_scooter", "name": "8c2c1efd2c52298ea49ad06cf8b47a85", "rental_uris": {"android": "https://dc.lft.to/lastmile_qr_scan", "ios": "https://dc.lft.to/lastmile_qr_scan"}, "fusion_lat": 0.0, "lat": 38.88633033333333, "is_disabled": 0, "lon": -77.02166, "is_reserved": 0}, {"bike_id": "c0b9d51fc152a681fb6cfced35515708", "fusion_lon": 0.0, "type": "electric_scooter", "name": "c0b9d51fc152a681fb6cfced35515708", "rental_uris": {"android": "https://dc.lft.to/lastmile_qr_scan", "ios": "https://dc.lft.to/lastmile_qr_scan"}, "fusion_lat": 0.0, "lat": 38.8462115, "is_disabled": 0, "lon": -76.99633633333333, "is_reserved": 0}, {"bike_id": "7584c4732aea5829fcc4139592cbf151", "fusion_lon": 0.0, "type": "electric_bike", "name": "7584c4732aea5829fcc4139592cbf151", "rental_uris": {"android": "https://dc.lft.to/lastmile_qr_scan", "ios": "https://dc.lft.to/lastmile_qr_scan"}, "fusion_lat": 0.0, "lat": 38.95410716666667, "is_disabled": 0, "lon": -76.9428905, "is_reserved": 0}, {"bike_id": "be55518b04cffda1e78d838f6a1baa57", "fusion_lon": 0.0, "type": "electric_scooter", "name": "be55518b04cffda1e78d838f6a1baa57", "rental_uris": {"android": "https://dc.lft.to/lastmile_qr_scan", "ios": "https://dc.lft.to/lastmile_qr_scan"}, "fusion_lat": 0.0, "lat": 38.897665333333336, "is_disabled": 0, "lon": -77.02887866666667, "is_reserved": 0}, {"bike_id": "97c406ecaabee184986fd68f7b981ed7", "fusion_lon": 0.0, "type": "electric_bike", "name": "97c406ecaabee184986fd68f7b981ed7", "rental_uris": {"android": "https://dc.lft.to/lastmile_qr_scan", "ios": "https://dc.lft.to/lastmile_qr_scan"}, "fusion_lat": 0.0, "lat": 38.85217983333333, "is_disabled": 0, "lon": -77.12962216666666, "is_reserved": 0}, {"bike_id": "cefd3b282ad5207c8531e2e94f707630", "fusion_lon": 0.0, "type": "electric_scooter", "name": "cefd3b282ad5207c8531e2e94f707630", "rental_uris": {"android": "https://dc.lft.to/lastmile_qr_scan", "ios": "https://dc.lft.to/lastmile_qr_scan"}, "fusion_lat": 0.0, "lat": 38.91324766666666, "is_disabled": 0, "lon": -77.01411933333333, "is_reserved": 0}, {"bike_id": "6e9ba01a50dcee682a3b278d3c91c4b8", "fusion_lon": 0.0, "type": "electric_scooter", "name": "6e9ba01a50dcee682a3b278d3c91c4b8", "rental_uris": {"android": "https://dc.lft.to/lastmile_qr_scan", "ios": "https://dc.lft.to/lastmile_qr_scan"}, "fusion_lat": 0.0, "lat": 38.912555166666664, "is_disabled": 0, "lon": -77.009299, "is_reserved": 0}, {"bike_id": "99f3365e8d09f653c1ffb29cb37e8c6f", "fusion_lon": 0.0, "type": "electric_scooter", "name": "99f3365e8d09f653c1ffb29cb37e8c6f", "rental_uris": {"android": "https://dc.lft.to/lastmile_qr_scan", "ios": "https://dc.lft.to/lastmile_qr_scan"}, "fusion_lat": 0.0, "lat": 38.89677866666667, "is_disabled": 0, "lon": -76.94212383333333, "is_reserved": 0}, {"bike_id": "5135cef172bee87b86241cca100d2b0e", "fusion_lon": 0.0, "type": "electric_scooter", "name": "5135cef172bee87b86241cca100d2b0e", "rental_uris": {"android": "https://dc.lft.to/lastmile_qr_scan", "ios": "https://dc.lft.to/lastmile_qr_scan"}, "fusion_lat": 0.0, "lat": 38.919182666666664, "is_disabled": 0, "lon": -77.03383433333333, "is_reserved": 0}, {"bike_id": "f2d2643b8653d6b6a563a3b06053b721", "fusion_lon": 0.0, "type": "electric_bike", "name": "f2d2643b8653d6b6a563a3b06053b721", "rental_uris": {"android": "https://dc.lft.to/lastmile_qr_scan", "ios": "https://dc.lft.to/lastmile_qr_scan"}, "fusion_lat": 0.0, "lat": 38.86595233333333, "is_disabled": 0, "lon": -76.9322995, "is_reserved": 0}, {"bike_id": "e80085742c926344f961e464d0df2dae", "fusion_lon": 0.0, "type": "electric_scooter", "name": "e80085742c926344f961e464d0df2dae", "rental_uris": {"android": "https://dc.lft.to/lastmile_qr_scan", "ios": "https://dc.lft.to/lastmile_qr_scan"}, "fusion_lat": 0.0, "lat": 38.92795666666667, "is_disabled": 0, "lon": -77.0273455, "is_reserved": 0}, {"bike_id": "114ced8e2dceb0f1f22b8d1d4a7bb130", "fusion_lon": 0.0, "type": "electric_scooter", "name": "114ced8e2dceb0f1f22b8d1d4a7bb130", "rental_uris": {"android": "https://dc.lft.to/lastmile_qr_scan", "ios": "https://dc.lft.to/lastmile_qr_scan"}, "fusion_lat": 0.0, "lat": 38.89485883333333, "is_disabled": 0, "lon": -76.99518033333334, "is_reserved": 0}, {"bike_id": "86f87fb198dbab08d71f906c23555906", "fusion_lon": 0.0, "type": "electric_bike", "name": "86f87fb198dbab08d71f906c23555906", "rental_uris": {"android": "https://dc.lft.to/lastmile_qr_scan", "ios": "https://dc.lft.to/lastmile_qr_scan"}, "fusion_lat": 0.0, "lat": 38.903825499999996, "is_disabled": 0, "lon": -77.01777766666666, "is_reserved": 0}, {"bike_id": "2364ee29e7cb28e37dab8fcaa3fb6044", "fusion_lon": 0.0, "type": "electric_scooter", "name": "2364ee29e7cb28e37dab8fcaa3fb6044", "rental_uris": {"android": "https://dc.lft.to/lastmile_qr_scan", "ios": "https://dc.lft.to/lastmile_qr_scan"}, "fusion_lat": 0.0, "lat": 38.90075516666667, "is_disabled": 0, "lon": -77.002078, "is_reserved": 0}, {"bike_id": "7417b25126041e666bb438dac39ab842", "fusion_lon": 0.0, "type": "electric_scooter", "name": "7417b25126041e666bb438dac39ab842", "rental_uris": {"android": "https://dc.lft.to/lastmile_qr_scan", "ios": "https://dc.lft.to/lastmile_qr_scan"}, "fusion_lat": 0.0, "lat": 38.905705833333336, "is_disabled": 0, "lon": -77.00606533333334, "is_reserved": 0}, {"bike_id": "fc859396f6a14ff5dcd18f10f7168a1a", "fusion_lon": 0.0, "type": "electric_scooter", "name": "fc859396f6a14ff5dcd18f10f7168a1a", "rental_uris": {"android": "https://dc.lft.to/lastmile_qr_scan", "ios": "https://dc.lft.to/lastmile_qr_scan"}, "fusion_lat": 0.0, "lat": 38.941372, "is_disabled": 0, "lon": -77.09206683333333, "is_reserved": 0}, {"bike_id": "e2b37cdb6b35fe30b791b0deaa9e2b5c", "fusion_lon": 0.0, "type": "electric_scooter", "name": "e2b37cdb6b35fe30b791b0deaa9e2b5c", "rental_uris": {"android": "https://dc.lft.to/lastmile_qr_scan", "ios": "https://dc.lft.to/lastmile_qr_scan"}, "fusion_lat": 0.0, "lat": 38.9557055, "is_disabled": 0, "lon": -77.0063905, "is_reserved": 0}, {"bike_id": "fdc017fd31e69791d7812d478ef4a8f3", "fusion_lon": 0.0, "type": "electric_scooter", "name": "fdc017fd31e69791d7812d478ef4a8f3", "rental_uris": {"android": "https://dc.lft.to/lastmile_qr_scan", "ios": "https://dc.lft.to/lastmile_qr_scan"}, "fusion_lat": 0.0, "lat": 38.927845166666664, "is_disabled": 0, "lon": -77.02314866666667, "is_reserved": 0}, {"bike_id": "a7930d6bcc94cc92cc70e71ab0154c86", "fusion_lon": 0.0, "type": "electric_scooter", "name": "a7930d6bcc94cc92cc70e71ab0154c86", "rental_uris": {"android": "https://dc.lft.to/lastmile_qr_scan", "ios": "https://dc.lft.to/lastmile_qr_scan"}, "fusion_lat": 0.0, "lat": 38.90514866666667, "is_disabled": 0, "lon": -77.04054516666666, "is_reserved": 0}, {"bike_id": "a82b6c1afa032c1651b0f349618c9d58", "fusion_lon": 0.0, "type": "electric_scooter", "name": "a82b6c1afa032c1651b0f349618c9d58", "rental_uris": {"android": "https://dc.lft.to/lastmile_qr_scan", "ios": "https://dc.lft.to/lastmile_qr_scan"}, "fusion_lat": 0.0, "lat": 38.91757916666667, "is_disabled": 0, "lon": -77.02485616666667, "is_reserved": 0}, {"bike_id": "6dbd32a94f2d368bdea60d1963b950fe", "fusion_lon": 0.0, "type": "electric_bike", "name": "6dbd32a94f2d368bdea60d1963b950fe", "rental_uris": {"android": "https://dc.lft.to/lastmile_qr_scan", "ios": "https://dc.lft.to/lastmile_qr_scan"}, "fusion_lat": 0.0, "lat": 38.9358495, "is_disabled": 0, "lon": -77.10683533333334, "is_reserved": 0}, {"bike_id": "b11a9f8acca9b656f59f8c53e314cbe1", "fusion_lon": 0.0, "type": "electric_scooter", "name": "b11a9f8acca9b656f59f8c53e314cbe1", "rental_uris": {"android": "https://dc.lft.to/lastmile_qr_scan", "ios": "https://dc.lft.to/lastmile_qr_scan"}, "fusion_lat": 0.0, "lat": 38.921336833333335, "is_disabled": 0, "lon": -77.01027516666667, "is_reserved": 0}, {"bike_id": "6ee32c79b53218845d01fb94e00a210a", "fusion_lon": 0.0, "type": "electric_scooter", "name": "6ee32c79b53218845d01fb94e00a210a", "rental_uris": {"android": "https://dc.lft.to/lastmile_qr_scan", "ios": "https://dc.lft.to/lastmile_qr_scan"}, "fusion_lat": 0.0, "lat": 38.93041633333333, "is_disabled": 0, "lon": -77.03222116666667, "is_reserved": 0}, {"bike_id": "378d2261e88a75656b24a81a5d071266", "fusion_lon": 0.0, "type": "electric_scooter", "name": "378d2261e88a75656b24a81a5d071266", "rental_uris": {"android": "https://dc.lft.to/lastmile_qr_scan", "ios": "https://dc.lft.to/lastmile_qr_scan"}, "fusion_lat": 0.0, "lat": 38.91399366666667, "is_disabled": 0, "lon": -77.03877433333334, "is_reserved": 0}, {"bike_id": "363b135f93dd6cd9abd4922adcc72d6e", "fusion_lon": 0.0, "type": "electric_scooter", "name": "363b135f93dd6cd9abd4922adcc72d6e", "rental_uris": {"android": "https://dc.lft.to/lastmile_qr_scan", "ios": "https://dc.lft.to/lastmile_qr_scan"}, "fusion_lat": 0.0, "lat": 38.90031483333333, "is_disabled": 0, "lon": -76.99114833333333, "is_reserved": 0}, {"bike_id": "5c3a72ba34fadaa3e95f82e1f0e54dfc", "fusion_lon": 0.0, "type": "electric_scooter", "name": "5c3a72ba34fadaa3e95f82e1f0e54dfc", "rental_uris": {"android": "https://dc.lft.to/lastmile_qr_scan", "ios": "https://dc.lft.to/lastmile_qr_scan"}, "fusion_lat": 0.0, "lat": 38.894381333333335, "is_disabled": 0, "lon": -76.97910216666666, "is_reserved": 0}, {"bike_id": "32240494db721dcbd806c708c233d9a5", "fusion_lon": 0.0, "type": "electric_scooter", "name": "32240494db721dcbd806c708c233d9a5", "rental_uris": {"android": "https://dc.lft.to/lastmile_qr_scan", "ios": "https://dc.lft.to/lastmile_qr_scan"}, "fusion_lat": 0.0, "lat": 38.89338816666667, "is_disabled": 0, "lon": -77.04659283333334, "is_reserved": 0}, {"bike_id": "c65bb01a79e478b544825df0cfea5a23", "fusion_lon": 0.0, "type": "electric_scooter", "name": "c65bb01a79e478b544825df0cfea5a23", "rental_uris": {"android": "https://dc.lft.to/lastmile_qr_scan", "ios": "https://dc.lft.to/lastmile_qr_scan"}, "fusion_lat": 0.0, "lat": 38.90280383333333, "is_disabled": 0, "lon": -77.04511666666667, "is_reserved": 0}, {"bike_id": "053c8504595d26446a77a0b35623f957", "fusion_lon": 0.0, "type": "electric_scooter", "name": "053c8504595d26446a77a0b35623f957", "rental_uris": {"android": "https://dc.lft.to/lastmile_qr_scan", "ios": "https://dc.lft.to/lastmile_qr_scan"}, "fusion_lat": 0.0, "lat": 38.91843433333333, "is_disabled": 0, "lon": -77.0392185, "is_reserved": 0}, {"bike_id": "11d9d7a4672de5363fb184c565909410", "fusion_lon": 0.0, "type": "electric_scooter", "name": "11d9d7a4672de5363fb184c565909410", "rental_uris": {"android": "https://dc.lft.to/lastmile_qr_scan", "ios": "https://dc.lft.to/lastmile_qr_scan"}, "fusion_lat": 0.0, "lat": 38.90422483333333, "is_disabled": 0, "lon": -77.024087, "is_reserved": 0}, {"bike_id": "bfa23e960701e68f2a4e773306511465", "fusion_lon": 0.0, "type": "electric_scooter", "name": "bfa23e960701e68f2a4e773306511465", "rental_uris": {"android": "https://dc.lft.to/lastmile_qr_scan", "ios": "https://dc.lft.to/lastmile_qr_scan"}, "fusion_lat": 0.0, "lat": 38.918798833333334, "is_disabled": 0, "lon": -77.036393, "is_reserved": 0}, {"bike_id": "2302ff6ba628aa7163228a24ca8591d1", "fusion_lon": 0.0, "type": "electric_scooter", "name": "2302ff6ba628aa7163228a24ca8591d1", "rental_uris": {"android": "https://dc.lft.to/lastmile_qr_scan", "ios": "https://dc.lft.to/lastmile_qr_scan"}, "fusion_lat": 0.0, "lat": 38.900844666666664, "is_disabled": 0, "lon": -77.05017, "is_reserved": 0}, {"bike_id": "33c89efb4efca93f2b3e7ee46949a284", "fusion_lon": 0.0, "type": "electric_scooter", "name": "33c89efb4efca93f2b3e7ee46949a284", "rental_uris": {"android": "https://dc.lft.to/lastmile_qr_scan", "ios": "https://dc.lft.to/lastmile_qr_scan"}, "fusion_lat": 0.0, "lat": 38.90249633333333, "is_disabled": 0, "lon": -77.04764616666667, "is_reserved": 0}, {"bike_id": "17ad6261c8688ba7948888ab03bc4a64", "fusion_lon": 0.0, "type": "electric_scooter", "name": "17ad6261c8688ba7948888ab03bc4a64", "rental_uris": {"android": "https://dc.lft.to/lastmile_qr_scan", "ios": "https://dc.lft.to/lastmile_qr_scan"}, "fusion_lat": 0.0, "lat": 38.919752833333334, "is_disabled": 0, "lon": -77.01214583333334, "is_reserved": 0}, {"bike_id": "a6b91924417a0b121adb380410294ec4", "fusion_lon": 0.0, "type": "electric_scooter", "name": "a6b91924417a0b121adb380410294ec4", "rental_uris": {"android": "https://dc.lft.to/lastmile_qr_scan", "ios": "https://dc.lft.to/lastmile_qr_scan"}, "fusion_lat": 0.0, "lat": 38.924170833333335, "is_disabled": 0, "lon": -77.05638566666667, "is_reserved": 0}, {"bike_id": "b468ebe6b41c70174da377d8e1adbc17", "fusion_lon": 0.0, "type": "electric_bike", "name": "b468ebe6b41c70174da377d8e1adbc17", "rental_uris": {"android": "https://dc.lft.to/lastmile_qr_scan", "ios": "https://dc.lft.to/lastmile_qr_scan"}, "fusion_lat": 0.0, "lat": 38.94434316666667, "is_disabled": 0, "lon": -76.9873595, "is_reserved": 0}, {"bike_id": "88d9d35469fe5990831c9cabc16dfe89", "fusion_lon": 0.0, "type": "electric_scooter", "name": "88d9d35469fe5990831c9cabc16dfe89", "rental_uris": {"android": "https://dc.lft.to/lastmile_qr_scan", "ios": "https://dc.lft.to/lastmile_qr_scan"}, "fusion_lat": 0.0, "lat": 38.920905, "is_disabled": 0, "lon": -77.075621, "is_reserved": 0}, {"bike_id": "436ae61ff2e710a5550ae92fac8716a0", "fusion_lon": 0.0, "type": "electric_scooter", "name": "436ae61ff2e710a5550ae92fac8716a0", "rental_uris": {"android": "https://dc.lft.to/lastmile_qr_scan", "ios": "https://dc.lft.to/lastmile_qr_scan"}, "fusion_lat": 0.0, "lat": 38.9002045, "is_disabled": 0, "lon": -77.0015045, "is_reserved": 0}, {"bike_id": "e44c7fb14503dad1e034f021d14b2d96", "fusion_lon": 0.0, "type": "electric_scooter", "name": "e44c7fb14503dad1e034f021d14b2d96", "rental_uris": {"android": "https://dc.lft.to/lastmile_qr_scan", "ios": "https://dc.lft.to/lastmile_qr_scan"}, "fusion_lat": 0.0, "lat": 38.957262, "is_disabled": 0, "lon": -77.0357155, "is_reserved": 0}, {"bike_id": "f35e49fa990ff3dc238b50dbf4000674", "fusion_lon": 0.0, "type": "electric_scooter", "name": "f35e49fa990ff3dc238b50dbf4000674", "rental_uris": {"android": "https://dc.lft.to/lastmile_qr_scan", "ios": "https://dc.lft.to/lastmile_qr_scan"}, "fusion_lat": 0.0, "lat": 38.87652966666667, "is_disabled": 0, "lon": -77.01581716666666, "is_reserved": 0}, {"bike_id": "f01e169ac833769cff24e2e7a5c4b90d", "fusion_lon": 0.0, "type": "electric_scooter", "name": "f01e169ac833769cff24e2e7a5c4b90d", "rental_uris": {"android": "https://dc.lft.to/lastmile_qr_scan", "ios": "https://dc.lft.to/lastmile_qr_scan"}, "fusion_lat": 0.0, "lat": 38.9336565, "is_disabled": 0, "lon": -77.07367316666667, "is_reserved": 0}, {"bike_id": "e2561320d707286d6907f686abf7e150", "fusion_lon": 0.0, "type": "electric_scooter", "name": "e2561320d707286d6907f686abf7e150", "rental_uris": {"android": "https://dc.lft.to/lastmile_qr_scan", "ios": "https://dc.lft.to/lastmile_qr_scan"}, "fusion_lat": 0.0, "lat": 38.905568333333335, "is_disabled": 0, "lon": -77.01095, "is_reserved": 0}, {"bike_id": "3d635e538e0f6b3679d8fd54e30543f9", "fusion_lon": 0.0, "type": "electric_bike", "name": "3d635e538e0f6b3679d8fd54e30543f9", "rental_uris": {"android": "https://dc.lft.to/lastmile_qr_scan", "ios": "https://dc.lft.to/lastmile_qr_scan"}, "fusion_lat": 0.0, "lat": 38.8319455, "is_disabled": 0, "lon": -77.07686666666666, "is_reserved": 0}, {"bike_id": "133f0684633b8934469240ebda521bc9", "fusion_lon": 0.0, "type": "electric_scooter", "name": "133f0684633b8934469240ebda521bc9", "rental_uris": {"android": "https://dc.lft.to/lastmile_qr_scan", "ios": "https://dc.lft.to/lastmile_qr_scan"}, "fusion_lat": 0.0, "lat": 38.956146833333335, "is_disabled": 0, "lon": -77.0281535, "is_reserved": 0}, {"bike_id": "87cd96a47532b80fd58eea3df996c396", "fusion_lon": 0.0, "type": "electric_scooter", "name": "87cd96a47532b80fd58eea3df996c396", "rental_uris": {"android": "https://dc.lft.to/lastmile_qr_scan", "ios": "https://dc.lft.to/lastmile_qr_scan"}, "fusion_lat": 0.0, "lat": 38.90305816666667, "is_disabled": 0, "lon": -77.034806, "is_reserved": 0}, {"bike_id": "c6cce9a0e41951202ee9d2854beb38f3", "fusion_lon": 0.0, "type": "electric_bike", "name": "c6cce9a0e41951202ee9d2854beb38f3", "rental_uris": {"android": "https://dc.lft.to/lastmile_qr_scan", "ios": "https://dc.lft.to/lastmile_qr_scan"}, "fusion_lat": 0.0, "lat": 38.891906666666664, "is_disabled": 0, "lon": -77.122638, "is_reserved": 0}, {"bike_id": "08adfb0612cb01b1e4a8fb6d5c4e78cf", "fusion_lon": 0.0, "type": "electric_scooter", "name": "08adfb0612cb01b1e4a8fb6d5c4e78cf", "rental_uris": {"android": "https://dc.lft.to/lastmile_qr_scan", "ios": "https://dc.lft.to/lastmile_qr_scan"}, "fusion_lat": 0.0, "lat": 38.902437166666665, "is_disabled": 0, "lon": -77.04782216666666, "is_reserved": 0}, {"bike_id": "3a392326912b980a45770e15177ca131", "fusion_lon": 0.0, "type": "electric_scooter", "name": "3a392326912b980a45770e15177ca131", "rental_uris": {"android": "https://dc.lft.to/lastmile_qr_scan", "ios": "https://dc.lft.to/lastmile_qr_scan"}, "fusion_lat": 0.0, "lat": 38.901815, "is_disabled": 0, "lon": -77.0240745, "is_reserved": 0}, {"bike_id": "1c0b0c62188d45ed4321b3660d712c08", "fusion_lon": 0.0, "type": "electric_bike", "name": "1c0b0c62188d45ed4321b3660d712c08", "rental_uris": {"android": "https://dc.lft.to/lastmile_qr_scan", "ios": "https://dc.lft.to/lastmile_qr_scan"}, "fusion_lat": 0.0, "lat": 38.828780333333334, "is_disabled": 0, "lon": -77.11222933333333, "is_reserved": 0}, {"bike_id": "4edada345c61c0fdd8b2de807abd0337", "fusion_lon": 0.0, "type": "electric_scooter", "name": "4edada345c61c0fdd8b2de807abd0337", "rental_uris": {"android": "https://dc.lft.to/lastmile_qr_scan", "ios": "https://dc.lft.to/lastmile_qr_scan"}, "fusion_lat": 0.0, "lat": 38.901248, "is_disabled": 0, "lon": -77.04874533333333, "is_reserved": 0}, {"bike_id": "f5f1b27cc06fd6e0fe9f4b0f75d6f327", "fusion_lon": 0.0, "type": "electric_bike", "name": "f5f1b27cc06fd6e0fe9f4b0f75d6f327", "rental_uris": {"android": "https://dc.lft.to/lastmile_qr_scan", "ios": "https://dc.lft.to/lastmile_qr_scan"}, "fusion_lat": 0.0, "lat": 38.955557, "is_disabled": 0, "lon": -76.93544933333334, "is_reserved": 0}, {"bike_id": "aef5d81eeed75c375ba9d633f4759f7d", "fusion_lon": 0.0, "type": "electric_scooter", "name": "aef5d81eeed75c375ba9d633f4759f7d", "rental_uris": {"android": "https://dc.lft.to/lastmile_qr_scan", "ios": "https://dc.lft.to/lastmile_qr_scan"}, "fusion_lat": 0.0, "lat": 38.905819, "is_disabled": 0, "lon": -77.04010366666667, "is_reserved": 0}, {"bike_id": "ad6285134dba233b8db4bbecd3204f5b", "fusion_lon": 0.0, "type": "electric_scooter", "name": "ad6285134dba233b8db4bbecd3204f5b", "rental_uris": {"android": "https://dc.lft.to/lastmile_qr_scan", "ios": "https://dc.lft.to/lastmile_qr_scan"}, "fusion_lat": 0.0, "lat": 38.940356, "is_disabled": 0, "lon": -77.06890016666667, "is_reserved": 0}, {"bike_id": "80748ee6ac56bd952e0aa0bb4bca85e5", "fusion_lon": 0.0, "type": "electric_scooter", "name": "80748ee6ac56bd952e0aa0bb4bca85e5", "rental_uris": {"android": "https://dc.lft.to/lastmile_qr_scan", "ios": "https://dc.lft.to/lastmile_qr_scan"}, "fusion_lat": 0.0, "lat": 38.92909066666667, "is_disabled": 0, "lon": -77.06393133333333, "is_reserved": 0}, {"bike_id": "80a3cd98645d41e941fa8f09a50def9c", "fusion_lon": 0.0, "type": "electric_bike", "name": "80a3cd98645d41e941fa8f09a50def9c", "rental_uris": {"android": "https://dc.lft.to/lastmile_qr_scan", "ios": "https://dc.lft.to/lastmile_qr_scan"}, "fusion_lat": 0.0, "lat": 38.92848, "is_disabled": 0, "lon": -77.02060733333333, "is_reserved": 0}, {"bike_id": "3c173b337a198611b73a231546c689af", "fusion_lon": 0.0, "type": "electric_scooter", "name": "3c173b337a198611b73a231546c689af", "rental_uris": {"android": "https://dc.lft.to/lastmile_qr_scan", "ios": "https://dc.lft.to/lastmile_qr_scan"}, "fusion_lat": 0.0, "lat": 38.90612333333333, "is_disabled": 0, "lon": -77.003969, "is_reserved": 0}, {"bike_id": "3d49d4864e37da01b9e6c43b1aa9f0ae", "fusion_lon": 0.0, "type": "electric_bike", "name": "3d49d4864e37da01b9e6c43b1aa9f0ae", "rental_uris": {"android": "https://dc.lft.to/lastmile_qr_scan", "ios": "https://dc.lft.to/lastmile_qr_scan"}, "fusion_lat": 0.0, "lat": 38.82446783333333, "is_disabled": 0, "lon": -77.070479, "is_reserved": 0}, {"bike_id": "18a0ef297225f053c970edd4d41b8638", "fusion_lon": 0.0, "type": "electric_bike", "name": "18a0ef297225f053c970edd4d41b8638", "rental_uris": {"android": "https://dc.lft.to/lastmile_qr_scan", "ios": "https://dc.lft.to/lastmile_qr_scan"}, "fusion_lat": 0.0, "lat": 38.79990766666667, "is_disabled": 0, "lon": -77.129813, "is_reserved": 0}, {"bike_id": "f8d4efecaefa6d70cec2ad71e6b77d9a", "fusion_lon": 0.0, "type": "electric_scooter", "name": "f8d4efecaefa6d70cec2ad71e6b77d9a", "rental_uris": {"android": "https://dc.lft.to/lastmile_qr_scan", "ios": "https://dc.lft.to/lastmile_qr_scan"}, "fusion_lat": 0.0, "lat": 38.92056483333333, "is_disabled": 0, "lon": -77.03394516666667, "is_reserved": 0}, {"bike_id": "9e92860072351609a62a28d064a9b2ad", "fusion_lon": 0.0, "type": "electric_scooter", "name": "9e92860072351609a62a28d064a9b2ad", "rental_uris": {"android": "https://dc.lft.to/lastmile_qr_scan", "ios": "https://dc.lft.to/lastmile_qr_scan"}, "fusion_lat": 0.0, "lat": 38.90515533333333, "is_disabled": 0, "lon": -77.01693683333333, "is_reserved": 0}, {"bike_id": "02133f3822cd022ad3b29290b7a2f827", "fusion_lon": 0.0, "type": "electric_bike", "name": "02133f3822cd022ad3b29290b7a2f827", "rental_uris": {"android": "https://dc.lft.to/lastmile_qr_scan", "ios": "https://dc.lft.to/lastmile_qr_scan"}, "fusion_lat": 0.0, "lat": 38.879800833333334, "is_disabled": 0, "lon": -76.91602433333334, "is_reserved": 0}, {"bike_id": "5a4d73983dc06f2507dba87cac9ddfbe", "fusion_lon": 0.0, "type": "electric_scooter", "name": "5a4d73983dc06f2507dba87cac9ddfbe", "rental_uris": {"android": "https://dc.lft.to/lastmile_qr_scan", "ios": "https://dc.lft.to/lastmile_qr_scan"}, "fusion_lat": 0.0, "lat": 38.896852, "is_disabled": 0, "lon": -76.94714783333333, "is_reserved": 0}, {"bike_id": "ea4875806df5ef61d3d166d05660e16e", "fusion_lon": 0.0, "type": "electric_bike", "name": "ea4875806df5ef61d3d166d05660e16e", "rental_uris": {"android": "https://dc.lft.to/lastmile_qr_scan", "ios": "https://dc.lft.to/lastmile_qr_scan"}, "fusion_lat": 0.0, "lat": 38.865368833333335, "is_disabled": 0, "lon": -77.128155, "is_reserved": 0}, {"bike_id": "c1fe1e9aca990fd39e5f00d30b045f3e", "fusion_lon": 0.0, "type": "electric_scooter", "name": "c1fe1e9aca990fd39e5f00d30b045f3e", "rental_uris": {"android": "https://dc.lft.to/lastmile_qr_scan", "ios": "https://dc.lft.to/lastmile_qr_scan"}, "fusion_lat": 0.0, "lat": 38.89233483333334, "is_disabled": 0, "lon": -77.025494, "is_reserved": 0}, {"bike_id": "89a0552bca3bc23ee3e1432c45385be4", "fusion_lon": 0.0, "type": "electric_bike", "name": "89a0552bca3bc23ee3e1432c45385be4", "rental_uris": {"android": "https://dc.lft.to/lastmile_qr_scan", "ios": "https://dc.lft.to/lastmile_qr_scan"}, "fusion_lat": 0.0, "lat": 38.88345533333333, "is_disabled": 0, "lon": -77.18298616666667, "is_reserved": 0}, {"bike_id": "ec13de75f7ca635028e38b789aa65f1f", "fusion_lon": 0.0, "type": "electric_scooter", "name": "ec13de75f7ca635028e38b789aa65f1f", "rental_uris": {"android": "https://dc.lft.to/lastmile_qr_scan", "ios": "https://dc.lft.to/lastmile_qr_scan"}, "fusion_lat": 0.0, "lat": 38.90012733333333, "is_disabled": 0, "lon": -76.995316, "is_reserved": 0}, {"bike_id": "92a1a4733fc12538d7ffe14a7b82bf39", "fusion_lon": 0.0, "type": "electric_scooter", "name": "92a1a4733fc12538d7ffe14a7b82bf39", "rental_uris": {"android": "https://dc.lft.to/lastmile_qr_scan", "ios": "https://dc.lft.to/lastmile_qr_scan"}, "fusion_lat": 0.0, "lat": 38.899043166666665, "is_disabled": 0, "lon": -76.9334575, "is_reserved": 0}, {"bike_id": "f0fa4614393f619850723d178370240c", "fusion_lon": 0.0, "type": "electric_scooter", "name": "f0fa4614393f619850723d178370240c", "rental_uris": {"android": "https://dc.lft.to/lastmile_qr_scan", "ios": "https://dc.lft.to/lastmile_qr_scan"}, "fusion_lat": 0.0, "lat": 38.907894, "is_disabled": 0, "lon": -77.03206316666666, "is_reserved": 0}, {"bike_id": "ceedcf42f6a50242a08fb922b3ece1bf", "fusion_lon": 0.0, "type": "electric_scooter", "name": "ceedcf42f6a50242a08fb922b3ece1bf", "rental_uris": {"android": "https://dc.lft.to/lastmile_qr_scan", "ios": "https://dc.lft.to/lastmile_qr_scan"}, "fusion_lat": 0.0, "lat": 38.905029166666665, "is_disabled": 0, "lon": -76.99176766666666, "is_reserved": 0}, {"bike_id": "9484deab60246184829cbea8897fe386", "fusion_lon": 0.0, "type": "electric_scooter", "name": "9484deab60246184829cbea8897fe386", "rental_uris": {"android": "https://dc.lft.to/lastmile_qr_scan", "ios": "https://dc.lft.to/lastmile_qr_scan"}, "fusion_lat": 0.0, "lat": 38.858712833333335, "is_disabled": 0, "lon": -76.99020566666667, "is_reserved": 0}, {"bike_id": "b5465302dea63f4c8a4ae215bdefd526", "fusion_lon": 0.0, "type": "electric_scooter", "name": "b5465302dea63f4c8a4ae215bdefd526", "rental_uris": {"android": "https://dc.lft.to/lastmile_qr_scan", "ios": "https://dc.lft.to/lastmile_qr_scan"}, "fusion_lat": 0.0, "lat": 38.89482233333333, "is_disabled": 0, "lon": -77.027779, "is_reserved": 0}, {"bike_id": "9f06f82587d1971df54c7706aad64ee7", "fusion_lon": 0.0, "type": "electric_scooter", "name": "9f06f82587d1971df54c7706aad64ee7", "rental_uris": {"android": "https://dc.lft.to/lastmile_qr_scan", "ios": "https://dc.lft.to/lastmile_qr_scan"}, "fusion_lat": 0.0, "lat": 38.90342116666667, "is_disabled": 0, "lon": -77.0434455, "is_reserved": 0}, {"bike_id": "9121ee4a1c4f813717f681ed38c1bbf0", "fusion_lon": 0.0, "type": "electric_scooter", "name": "9121ee4a1c4f813717f681ed38c1bbf0", "rental_uris": {"android": "https://dc.lft.to/lastmile_qr_scan", "ios": "https://dc.lft.to/lastmile_qr_scan"}, "fusion_lat": 0.0, "lat": 38.90530783333333, "is_disabled": 0, "lon": -77.03162916666666, "is_reserved": 0}, {"bike_id": "b66a1f4abe042d8e805506bae8471a37", "fusion_lon": 0.0, "type": "electric_scooter", "name": "b66a1f4abe042d8e805506bae8471a37", "rental_uris": {"android": "https://dc.lft.to/lastmile_qr_scan", "ios": "https://dc.lft.to/lastmile_qr_scan"}, "fusion_lat": 0.0, "lat": 38.91969433333333, "is_disabled": 0, "lon": -77.04855383333333, "is_reserved": 0}, {"bike_id": "18a0b50f57a3e613fb9783c50b8cd0d1", "fusion_lon": 0.0, "type": "electric_scooter", "name": "18a0b50f57a3e613fb9783c50b8cd0d1", "rental_uris": {"android": "https://dc.lft.to/lastmile_qr_scan", "ios": "https://dc.lft.to/lastmile_qr_scan"}, "fusion_lat": 0.0, "lat": 38.9148085, "is_disabled": 0, "lon": -77.002827, "is_reserved": 0}, {"bike_id": "e3238ff4f221e6db74be7041e341ea2e", "fusion_lon": 0.0, "type": "electric_bike", "name": "e3238ff4f221e6db74be7041e341ea2e", "rental_uris": {"android": "https://dc.lft.to/lastmile_qr_scan", "ios": "https://dc.lft.to/lastmile_qr_scan"}, "fusion_lat": 0.0, "lat": 38.85421316666667, "is_disabled": 0, "lon": -76.90967183333333, "is_reserved": 0}, {"bike_id": "6a73c1f9ed4d10cc7f8dcb68fbc65e4a", "fusion_lon": 0.0, "type": "electric_scooter", "name": "6a73c1f9ed4d10cc7f8dcb68fbc65e4a", "rental_uris": {"android": "https://dc.lft.to/lastmile_qr_scan", "ios": "https://dc.lft.to/lastmile_qr_scan"}, "fusion_lat": 0.0, "lat": 38.89532833333333, "is_disabled": 0, "lon": -77.03346166666667, "is_reserved": 0}, {"bike_id": "fc16cba972244897038df36d58fd544a", "fusion_lon": 0.0, "type": "electric_scooter", "name": "fc16cba972244897038df36d58fd544a", "rental_uris": {"android": "https://dc.lft.to/lastmile_qr_scan", "ios": "https://dc.lft.to/lastmile_qr_scan"}, "fusion_lat": 0.0, "lat": 38.88747383333333, "is_disabled": 0, "lon": -77.0187105, "is_reserved": 0}, {"bike_id": "d72eb7a45dc34ddfbf4dfd41305084af", "fusion_lon": 0.0, "type": "electric_scooter", "name": "d72eb7a45dc34ddfbf4dfd41305084af", "rental_uris": {"android": "https://dc.lft.to/lastmile_qr_scan", "ios": "https://dc.lft.to/lastmile_qr_scan"}, "fusion_lat": 0.0, "lat": 38.909431833333336, "is_disabled": 0, "lon": -77.026946, "is_reserved": 0}, {"bike_id": "6c1d166d838e813a8921645d40f7aa2a", "fusion_lon": 0.0, "type": "electric_scooter", "name": "6c1d166d838e813a8921645d40f7aa2a", "rental_uris": {"android": "https://dc.lft.to/lastmile_qr_scan", "ios": "https://dc.lft.to/lastmile_qr_scan"}, "fusion_lat": 0.0, "lat": 38.9096045, "is_disabled": 0, "lon": -77.0237745, "is_reserved": 0}, {"bike_id": "7950eeb97d975c3b860da4f3d6b03258", "fusion_lon": 0.0, "type": "electric_scooter", "name": "7950eeb97d975c3b860da4f3d6b03258", "rental_uris": {"android": "https://dc.lft.to/lastmile_qr_scan", "ios": "https://dc.lft.to/lastmile_qr_scan"}, "fusion_lat": 0.0, "lat": 38.930642166666665, "is_disabled": 0, "lon": -77.04180933333333, "is_reserved": 0}, {"bike_id": "cb5291f3d8b0991055debc30f88992f1", "fusion_lon": 0.0, "type": "electric_scooter", "name": "cb5291f3d8b0991055debc30f88992f1", "rental_uris": {"android": "https://dc.lft.to/lastmile_qr_scan", "ios": "https://dc.lft.to/lastmile_qr_scan"}, "fusion_lat": 0.0, "lat": 38.902724166666665, "is_disabled": 0, "lon": -77.009177, "is_reserved": 0}, {"bike_id": "7c4a2ab72e1866f1ff8830ac1e7f9b7f", "fusion_lon": 0.0, "type": "electric_scooter", "name": "7c4a2ab72e1866f1ff8830ac1e7f9b7f", "rental_uris": {"android": "https://dc.lft.to/lastmile_qr_scan", "ios": "https://dc.lft.to/lastmile_qr_scan"}, "fusion_lat": 0.0, "lat": 38.93865483333333, "is_disabled": 0, "lon": -77.02665766666667, "is_reserved": 0}, {"bike_id": "43ba19231409e69fd95970334cd7fef1", "fusion_lon": 0.0, "type": "electric_scooter", "name": "43ba19231409e69fd95970334cd7fef1", "rental_uris": {"android": "https://dc.lft.to/lastmile_qr_scan", "ios": "https://dc.lft.to/lastmile_qr_scan"}, "fusion_lat": 0.0, "lat": 38.928355, "is_disabled": 0, "lon": -77.01399133333334, "is_reserved": 0}, {"bike_id": "716bb8d88000ac2d0d00e46a41f8591a", "fusion_lon": 0.0, "type": "electric_scooter", "name": "716bb8d88000ac2d0d00e46a41f8591a", "rental_uris": {"android": "https://dc.lft.to/lastmile_qr_scan", "ios": "https://dc.lft.to/lastmile_qr_scan"}, "fusion_lat": 0.0, "lat": 38.943696, "is_disabled": 0, "lon": -77.06095816666667, "is_reserved": 0}, {"bike_id": "228a139f4cb3d9d2bc5975e00654e405", "fusion_lon": 0.0, "type": "electric_scooter", "name": "228a139f4cb3d9d2bc5975e00654e405", "rental_uris": {"android": "https://dc.lft.to/lastmile_qr_scan", "ios": "https://dc.lft.to/lastmile_qr_scan"}, "fusion_lat": 0.0, "lat": 38.904127, "is_disabled": 0, "lon": -77.0499875, "is_reserved": 0}, {"bike_id": "b66420d020ec386dd595237919ceb8a3", "fusion_lon": 0.0, "type": "electric_scooter", "name": "b66420d020ec386dd595237919ceb8a3", "rental_uris": {"android": "https://dc.lft.to/lastmile_qr_scan", "ios": "https://dc.lft.to/lastmile_qr_scan"}, "fusion_lat": 0.0, "lat": 38.9054325, "is_disabled": 0, "lon": -77.02196733333334, "is_reserved": 0}, {"bike_id": "f2d439fe1db73c460494dc12d3023c8f", "fusion_lon": 0.0, "type": "electric_scooter", "name": "f2d439fe1db73c460494dc12d3023c8f", "rental_uris": {"android": "https://dc.lft.to/lastmile_qr_scan", "ios": "https://dc.lft.to/lastmile_qr_scan"}, "fusion_lat": 0.0, "lat": 38.92233233333333, "is_disabled": 0, "lon": -77.04611783333333, "is_reserved": 0}, {"bike_id": "b2ab4dd924cd74ae2f3661e9fc969bee", "fusion_lon": 0.0, "type": "electric_scooter", "name": "b2ab4dd924cd74ae2f3661e9fc969bee", "rental_uris": {"android": "https://dc.lft.to/lastmile_qr_scan", "ios": "https://dc.lft.to/lastmile_qr_scan"}, "fusion_lat": 0.0, "lat": 38.89553033333333, "is_disabled": 0, "lon": -76.9915565, "is_reserved": 0}, {"bike_id": "038ab421d7a133bf83b2a513dbd5ecd9", "fusion_lon": 0.0, "type": "electric_scooter", "name": "038ab421d7a133bf83b2a513dbd5ecd9", "rental_uris": {"android": "https://dc.lft.to/lastmile_qr_scan", "ios": "https://dc.lft.to/lastmile_qr_scan"}, "fusion_lat": 0.0, "lat": 38.92442533333333, "is_disabled": 0, "lon": -77.02025366666666, "is_reserved": 0}, {"bike_id": "c5770a0a5162bc8374063ba5af26b68e", "fusion_lon": 0.0, "type": "electric_scooter", "name": "c5770a0a5162bc8374063ba5af26b68e", "rental_uris": {"android": "https://dc.lft.to/lastmile_qr_scan", "ios": "https://dc.lft.to/lastmile_qr_scan"}, "fusion_lat": 0.0, "lat": 38.92279583333333, "is_disabled": 0, "lon": -77.03401533333333, "is_reserved": 0}, {"bike_id": "281cf6ca7ffd39691bb48711f6c5547e", "fusion_lon": 0.0, "type": "electric_scooter", "name": "281cf6ca7ffd39691bb48711f6c5547e", "rental_uris": {"android": "https://dc.lft.to/lastmile_qr_scan", "ios": "https://dc.lft.to/lastmile_qr_scan"}, "fusion_lat": 0.0, "lat": 38.91623883333333, "is_disabled": 0, "lon": -77.04176033333333, "is_reserved": 0}, {"bike_id": "3be973993113bdf5e889eae35ee24c57", "fusion_lon": 0.0, "type": "electric_scooter", "name": "3be973993113bdf5e889eae35ee24c57", "rental_uris": {"android": "https://dc.lft.to/lastmile_qr_scan", "ios": "https://dc.lft.to/lastmile_qr_scan"}, "fusion_lat": 0.0, "lat": 38.864079333333336, "is_disabled": 0, "lon": -76.990284, "is_reserved": 0}, {"bike_id": "88948473b7008dfde9496d71c74e6896", "fusion_lon": 0.0, "type": "electric_scooter", "name": "88948473b7008dfde9496d71c74e6896", "rental_uris": {"android": "https://dc.lft.to/lastmile_qr_scan", "ios": "https://dc.lft.to/lastmile_qr_scan"}, "fusion_lat": 0.0, "lat": 38.90365766666667, "is_disabled": 0, "lon": -77.0676135, "is_reserved": 0}, {"bike_id": "9a29042f41ef26fe73064b189fd10c02", "fusion_lon": 0.0, "type": "electric_scooter", "name": "9a29042f41ef26fe73064b189fd10c02", "rental_uris": {"android": "https://dc.lft.to/lastmile_qr_scan", "ios": "https://dc.lft.to/lastmile_qr_scan"}, "fusion_lat": 0.0, "lat": 38.934299833333334, "is_disabled": 0, "lon": -77.058486, "is_reserved": 0}, {"bike_id": "d10894c49f5199df1e0df242f08ba3e4", "fusion_lon": 0.0, "type": "electric_scooter", "name": "d10894c49f5199df1e0df242f08ba3e4", "rental_uris": {"android": "https://dc.lft.to/lastmile_qr_scan", "ios": "https://dc.lft.to/lastmile_qr_scan"}, "fusion_lat": 0.0, "lat": 38.893632333333336, "is_disabled": 0, "lon": -76.9496745, "is_reserved": 0}, {"bike_id": "b3491e9f1aff4d6621cea8917de32508", "fusion_lon": 0.0, "type": "electric_scooter", "name": "b3491e9f1aff4d6621cea8917de32508", "rental_uris": {"android": "https://dc.lft.to/lastmile_qr_scan", "ios": "https://dc.lft.to/lastmile_qr_scan"}, "fusion_lat": 0.0, "lat": 38.8840745, "is_disabled": 0, "lon": -77.030467, "is_reserved": 0}, {"bike_id": "a4e2a45cd7062483c9eee3dac14ff65d", "fusion_lon": 0.0, "type": "electric_scooter", "name": "a4e2a45cd7062483c9eee3dac14ff65d", "rental_uris": {"android": "https://dc.lft.to/lastmile_qr_scan", "ios": "https://dc.lft.to/lastmile_qr_scan"}, "fusion_lat": 0.0, "lat": 38.84502616666666, "is_disabled": 0, "lon": -76.987589, "is_reserved": 0}, {"bike_id": "6940891ec0caed005bcc62b58a8910fb", "fusion_lon": 0.0, "type": "electric_scooter", "name": "6940891ec0caed005bcc62b58a8910fb", "rental_uris": {"android": "https://dc.lft.to/lastmile_qr_scan", "ios": "https://dc.lft.to/lastmile_qr_scan"}, "fusion_lat": 0.0, "lat": 38.9291715, "is_disabled": 0, "lon": -77.03620416666666, "is_reserved": 0}, {"bike_id": "48785267a7f0ee0d4df0e9d3d506f338", "fusion_lon": 0.0, "type": "electric_scooter", "name": "48785267a7f0ee0d4df0e9d3d506f338", "rental_uris": {"android": "https://dc.lft.to/lastmile_qr_scan", "ios": "https://dc.lft.to/lastmile_qr_scan"}, "fusion_lat": 0.0, "lat": 38.911764166666664, "is_disabled": 0, "lon": -77.03663266666666, "is_reserved": 0}, {"bike_id": "97dac088e98f5a666c9ac73d2f303ed2", "fusion_lon": 0.0, "type": "electric_scooter", "name": "97dac088e98f5a666c9ac73d2f303ed2", "rental_uris": {"android": "https://dc.lft.to/lastmile_qr_scan", "ios": "https://dc.lft.to/lastmile_qr_scan"}, "fusion_lat": 0.0, "lat": 38.89220533333334, "is_disabled": 0, "lon": -77.02630066666667, "is_reserved": 0}, {"bike_id": "623e60570467d23ad55d803800e34c82", "fusion_lon": 0.0, "type": "electric_bike", "name": "623e60570467d23ad55d803800e34c82", "rental_uris": {"android": "https://dc.lft.to/lastmile_qr_scan", "ios": "https://dc.lft.to/lastmile_qr_scan"}, "fusion_lat": 0.0, "lat": 39.05348716666666, "is_disabled": 0, "lon": -77.13596783333334, "is_reserved": 0}, {"bike_id": "ea4bd4b90dafe5c1066bdcb84008a636", "fusion_lon": 0.0, "type": "electric_bike", "name": "ea4bd4b90dafe5c1066bdcb84008a636", "rental_uris": {"android": "https://dc.lft.to/lastmile_qr_scan", "ios": "https://dc.lft.to/lastmile_qr_scan"}, "fusion_lat": 0.0, "lat": 38.84334716666667, "is_disabled": 0, "lon": -77.06425816666666, "is_reserved": 0}, {"bike_id": "cbc2009d661c09f7162955ae89ccbd19", "fusion_lon": 0.0, "type": "electric_scooter", "name": "cbc2009d661c09f7162955ae89ccbd19", "rental_uris": {"android": "https://dc.lft.to/lastmile_qr_scan", "ios": "https://dc.lft.to/lastmile_qr_scan"}, "fusion_lat": 0.0, "lat": 38.92863783333333, "is_disabled": 0, "lon": -77.03471583333334, "is_reserved": 0}, {"bike_id": "e876988b7c79548e972113417fa090d5", "fusion_lon": 0.0, "type": "electric_scooter", "name": "e876988b7c79548e972113417fa090d5", "rental_uris": {"android": "https://dc.lft.to/lastmile_qr_scan", "ios": "https://dc.lft.to/lastmile_qr_scan"}, "fusion_lat": 0.0, "lat": 38.877830333333335, "is_disabled": 0, "lon": -77.01439666666667, "is_reserved": 0}, {"bike_id": "02956cce83e8b63ba16b7df85745df6c", "fusion_lon": 0.0, "type": "electric_scooter", "name": "02956cce83e8b63ba16b7df85745df6c", "rental_uris": {"android": "https://dc.lft.to/lastmile_qr_scan", "ios": "https://dc.lft.to/lastmile_qr_scan"}, "fusion_lat": 0.0, "lat": 38.90200466666667, "is_disabled": 0, "lon": -77.02371, "is_reserved": 0}, {"bike_id": "cccf9bb020f8093914f77c6e39def04e", "fusion_lon": 0.0, "type": "electric_scooter", "name": "cccf9bb020f8093914f77c6e39def04e", "rental_uris": {"android": "https://dc.lft.to/lastmile_qr_scan", "ios": "https://dc.lft.to/lastmile_qr_scan"}, "fusion_lat": 0.0, "lat": 38.882986333333335, "is_disabled": 0, "lon": -76.94853666666667, "is_reserved": 0}, {"bike_id": "5092a6477632dc828ac41be512f9bb2f", "fusion_lon": 0.0, "type": "electric_scooter", "name": "5092a6477632dc828ac41be512f9bb2f", "rental_uris": {"android": "https://dc.lft.to/lastmile_qr_scan", "ios": "https://dc.lft.to/lastmile_qr_scan"}, "fusion_lat": 0.0, "lat": 38.909945666666665, "is_disabled": 0, "lon": -77.030841, "is_reserved": 0}, {"bike_id": "db67c05a8ca1091979e324c71cf2d187", "fusion_lon": 0.0, "type": "electric_scooter", "name": "db67c05a8ca1091979e324c71cf2d187", "rental_uris": {"android": "https://dc.lft.to/lastmile_qr_scan", "ios": "https://dc.lft.to/lastmile_qr_scan"}, "fusion_lat": 0.0, "lat": 38.904768, "is_disabled": 0, "lon": -77.01998433333333, "is_reserved": 0}, {"bike_id": "1fbe16e48a1707410fb593e209a0a44d", "fusion_lon": 0.0, "type": "electric_scooter", "name": "1fbe16e48a1707410fb593e209a0a44d", "rental_uris": {"android": "https://dc.lft.to/lastmile_qr_scan", "ios": "https://dc.lft.to/lastmile_qr_scan"}, "fusion_lat": 0.0, "lat": 38.916254333333335, "is_disabled": 0, "lon": -77.02274266666667, "is_reserved": 0}, {"bike_id": "5f2d794f24ac738b6bddceeecb141e2c", "fusion_lon": 0.0, "type": "electric_bike", "name": "5f2d794f24ac738b6bddceeecb141e2c", "rental_uris": {"android": "https://dc.lft.to/lastmile_qr_scan", "ios": "https://dc.lft.to/lastmile_qr_scan"}, "fusion_lat": 0.0, "lat": 38.897398333333335, "is_disabled": 0, "lon": -76.90538433333333, "is_reserved": 0}, {"bike_id": "612822b94d8fd6f68c2dcb2fcc01cfdc", "fusion_lon": 0.0, "type": "electric_scooter", "name": "612822b94d8fd6f68c2dcb2fcc01cfdc", "rental_uris": {"android": "https://dc.lft.to/lastmile_qr_scan", "ios": "https://dc.lft.to/lastmile_qr_scan"}, "fusion_lat": 0.0, "lat": 38.92735, "is_disabled": 0, "lon": -77.03525233333333, "is_reserved": 0}, {"bike_id": "cfe11f44d788ca392f5e7f07806eae6a", "fusion_lon": 0.0, "type": "electric_scooter", "name": "cfe11f44d788ca392f5e7f07806eae6a", "rental_uris": {"android": "https://dc.lft.to/lastmile_qr_scan", "ios": "https://dc.lft.to/lastmile_qr_scan"}, "fusion_lat": 0.0, "lat": 38.89287566666667, "is_disabled": 0, "lon": -77.02612466666666, "is_reserved": 0}, {"bike_id": "3e2116201fdbc66413d31a29e90818bf", "fusion_lon": 0.0, "type": "electric_bike", "name": "3e2116201fdbc66413d31a29e90818bf", "rental_uris": {"android": "https://dc.lft.to/lastmile_qr_scan", "ios": "https://dc.lft.to/lastmile_qr_scan"}, "fusion_lat": 0.0, "lat": 38.9496515, "is_disabled": 0, "lon": -76.96095933333334, "is_reserved": 0}, {"bike_id": "2c878a0bc90bf3b57f72e18685142005", "fusion_lon": 0.0, "type": "electric_scooter", "name": "2c878a0bc90bf3b57f72e18685142005", "rental_uris": {"android": "https://dc.lft.to/lastmile_qr_scan", "ios": "https://dc.lft.to/lastmile_qr_scan"}, "fusion_lat": 0.0, "lat": 38.937044, "is_disabled": 0, "lon": -77.02116633333333, "is_reserved": 0}, {"bike_id": "c69a7a8fa404c084403dac89ac3fc7e3", "fusion_lon": 0.0, "type": "electric_scooter", "name": "c69a7a8fa404c084403dac89ac3fc7e3", "rental_uris": {"android": "https://dc.lft.to/lastmile_qr_scan", "ios": "https://dc.lft.to/lastmile_qr_scan"}, "fusion_lat": 0.0, "lat": 38.923124, "is_disabled": 0, "lon": -77.0404125, "is_reserved": 0}, {"bike_id": "5b699ca5a8c61d10011434c74b414aa8", "fusion_lon": 0.0, "type": "electric_scooter", "name": "5b699ca5a8c61d10011434c74b414aa8", "rental_uris": {"android": "https://dc.lft.to/lastmile_qr_scan", "ios": "https://dc.lft.to/lastmile_qr_scan"}, "fusion_lat": 0.0, "lat": 38.926458, "is_disabled": 0, "lon": -77.03704483333334, "is_reserved": 0}, {"bike_id": "7df1c7536ba6f97ad925d9cfd25ba8a2", "fusion_lon": 0.0, "type": "electric_scooter", "name": "7df1c7536ba6f97ad925d9cfd25ba8a2", "rental_uris": {"android": "https://dc.lft.to/lastmile_qr_scan", "ios": "https://dc.lft.to/lastmile_qr_scan"}, "fusion_lat": 0.0, "lat": 38.91553966666667, "is_disabled": 0, "lon": -77.0083615, "is_reserved": 0}, {"bike_id": "22102f3564b0d386d5332eb6cf1ec3f1", "fusion_lon": 0.0, "type": "electric_scooter", "name": "22102f3564b0d386d5332eb6cf1ec3f1", "rental_uris": {"android": "https://dc.lft.to/lastmile_qr_scan", "ios": "https://dc.lft.to/lastmile_qr_scan"}, "fusion_lat": 0.0, "lat": 38.9210915, "is_disabled": 0, "lon": -77.04699516666666, "is_reserved": 0}, {"bike_id": "74c1cfc4d0a9716f59071a668c57d5a4", "fusion_lon": 0.0, "type": "electric_scooter", "name": "74c1cfc4d0a9716f59071a668c57d5a4", "rental_uris": {"android": "https://dc.lft.to/lastmile_qr_scan", "ios": "https://dc.lft.to/lastmile_qr_scan"}, "fusion_lat": 0.0, "lat": 38.875369, "is_disabled": 0, "lon": -77.0055415, "is_reserved": 0}, {"bike_id": "35896600ffcd7181b1abc23908759e19", "fusion_lon": 0.0, "type": "electric_scooter", "name": "35896600ffcd7181b1abc23908759e19", "rental_uris": {"android": "https://dc.lft.to/lastmile_qr_scan", "ios": "https://dc.lft.to/lastmile_qr_scan"}, "fusion_lat": 0.0, "lat": 38.93097933333333, "is_disabled": 0, "lon": -77.02398966666667, "is_reserved": 0}, {"bike_id": "e4827e0ee9988c2bcdd73440a0fd0dbc", "fusion_lon": 0.0, "type": "electric_scooter", "name": "e4827e0ee9988c2bcdd73440a0fd0dbc", "rental_uris": {"android": "https://dc.lft.to/lastmile_qr_scan", "ios": "https://dc.lft.to/lastmile_qr_scan"}, "fusion_lat": 0.0, "lat": 38.88664283333333, "is_disabled": 0, "lon": -77.033908, "is_reserved": 0}, {"bike_id": "03855e166641fa5d31afde8c81a40bd9", "fusion_lon": 0.0, "type": "electric_scooter", "name": "03855e166641fa5d31afde8c81a40bd9", "rental_uris": {"android": "https://dc.lft.to/lastmile_qr_scan", "ios": "https://dc.lft.to/lastmile_qr_scan"}, "fusion_lat": 0.0, "lat": 38.90054, "is_disabled": 0, "lon": -77.0448535, "is_reserved": 0}, {"bike_id": "617b69da630531f4c9e597a941e5623a", "fusion_lon": 0.0, "type": "electric_scooter", "name": "617b69da630531f4c9e597a941e5623a", "rental_uris": {"android": "https://dc.lft.to/lastmile_qr_scan", "ios": "https://dc.lft.to/lastmile_qr_scan"}, "fusion_lat": 0.0, "lat": 38.91484916666667, "is_disabled": 0, "lon": -77.0465285, "is_reserved": 0}, {"bike_id": "1a15679410caa90c69f17c2bfc630330", "fusion_lon": 0.0, "type": "electric_scooter", "name": "1a15679410caa90c69f17c2bfc630330", "rental_uris": {"android": "https://dc.lft.to/lastmile_qr_scan", "ios": "https://dc.lft.to/lastmile_qr_scan"}, "fusion_lat": 0.0, "lat": 38.91885283333333, "is_disabled": 0, "lon": -77.03509766666667, "is_reserved": 0}, {"bike_id": "75ca8b9c2f5005612ffc338921458d8c", "fusion_lon": 0.0, "type": "electric_scooter", "name": "75ca8b9c2f5005612ffc338921458d8c", "rental_uris": {"android": "https://dc.lft.to/lastmile_qr_scan", "ios": "https://dc.lft.to/lastmile_qr_scan"}, "fusion_lat": 0.0, "lat": 38.9392125, "is_disabled": 0, "lon": -77.06040766666666, "is_reserved": 0}, {"bike_id": "154b6df60235b3204d0397d3a92b1f2c", "fusion_lon": 0.0, "type": "electric_scooter", "name": "154b6df60235b3204d0397d3a92b1f2c", "rental_uris": {"android": "https://dc.lft.to/lastmile_qr_scan", "ios": "https://dc.lft.to/lastmile_qr_scan"}, "fusion_lat": 0.0, "lat": 38.896936333333336, "is_disabled": 0, "lon": -77.02187916666666, "is_reserved": 0}, {"bike_id": "96f6d94d9639c2f2b8b7b39611e686bf", "fusion_lon": 0.0, "type": "electric_scooter", "name": "96f6d94d9639c2f2b8b7b39611e686bf", "rental_uris": {"android": "https://dc.lft.to/lastmile_qr_scan", "ios": "https://dc.lft.to/lastmile_qr_scan"}, "fusion_lat": 0.0, "lat": 38.94280833333333, "is_disabled": 0, "lon": -77.02935366666667, "is_reserved": 0}, {"bike_id": "06b691f4d08161b82efc9374849e1a5a", "fusion_lon": 0.0, "type": "electric_bike", "name": "06b691f4d08161b82efc9374849e1a5a", "rental_uris": {"android": "https://dc.lft.to/lastmile_qr_scan", "ios": "https://dc.lft.to/lastmile_qr_scan"}, "fusion_lat": 0.0, "lat": 38.863785166666666, "is_disabled": 0, "lon": -77.12902166666667, "is_reserved": 0}, {"bike_id": "4cb2d93742560daf7e1794bed0d13b1d", "fusion_lon": 0.0, "type": "electric_scooter", "name": "4cb2d93742560daf7e1794bed0d13b1d", "rental_uris": {"android": "https://dc.lft.to/lastmile_qr_scan", "ios": "https://dc.lft.to/lastmile_qr_scan"}, "fusion_lat": 0.0, "lat": 38.9106145, "is_disabled": 0, "lon": -77.038506, "is_reserved": 0}, {"bike_id": "33c8cd6058e2f67e2347e9f8cb468e0d", "fusion_lon": 0.0, "type": "electric_scooter", "name": "33c8cd6058e2f67e2347e9f8cb468e0d", "rental_uris": {"android": "https://dc.lft.to/lastmile_qr_scan", "ios": "https://dc.lft.to/lastmile_qr_scan"}, "fusion_lat": 0.0, "lat": 38.92483983333333, "is_disabled": 0, "lon": -77.02898416666666, "is_reserved": 0}, {"bike_id": "1956539ba7b9428d0660bfdd52272421", "fusion_lon": 0.0, "type": "electric_scooter", "name": "1956539ba7b9428d0660bfdd52272421", "rental_uris": {"android": "https://dc.lft.to/lastmile_qr_scan", "ios": "https://dc.lft.to/lastmile_qr_scan"}, "fusion_lat": 0.0, "lat": 38.90720966666667, "is_disabled": 0, "lon": -77.02373766666666, "is_reserved": 0}, {"bike_id": "09f98f4c4ef77efa481d2bd4436c15fd", "fusion_lon": 0.0, "type": "electric_scooter", "name": "09f98f4c4ef77efa481d2bd4436c15fd", "rental_uris": {"android": "https://dc.lft.to/lastmile_qr_scan", "ios": "https://dc.lft.to/lastmile_qr_scan"}, "fusion_lat": 0.0, "lat": 38.90344866666667, "is_disabled": 0, "lon": -76.98852366666667, "is_reserved": 0}, {"bike_id": "ee038f03486f1529cec0060fdcef4e20", "fusion_lon": 0.0, "type": "electric_scooter", "name": "ee038f03486f1529cec0060fdcef4e20", "rental_uris": {"android": "https://dc.lft.to/lastmile_qr_scan", "ios": "https://dc.lft.to/lastmile_qr_scan"}, "fusion_lat": 0.0, "lat": 38.914072166666664, "is_disabled": 0, "lon": -77.0418145, "is_reserved": 0}, {"bike_id": "c48be46bc3304df8225d9577710dc402", "fusion_lon": 0.0, "type": "electric_bike", "name": "c48be46bc3304df8225d9577710dc402", "rental_uris": {"android": "https://dc.lft.to/lastmile_qr_scan", "ios": "https://dc.lft.to/lastmile_qr_scan"}, "fusion_lat": 0.0, "lat": 38.8641275, "is_disabled": 0, "lon": -76.97428816666667, "is_reserved": 0}, {"bike_id": "3b44af449da5f876f575396fe79a5f34", "fusion_lon": 0.0, "type": "electric_scooter", "name": "3b44af449da5f876f575396fe79a5f34", "rental_uris": {"android": "https://dc.lft.to/lastmile_qr_scan", "ios": "https://dc.lft.to/lastmile_qr_scan"}, "fusion_lat": 0.0, "lat": 38.903540166666666, "is_disabled": 0, "lon": -77.02705366666666, "is_reserved": 0}, {"bike_id": "12c8755cd603447a3ca3d17f231a65a6", "fusion_lon": 0.0, "type": "electric_scooter", "name": "12c8755cd603447a3ca3d17f231a65a6", "rental_uris": {"android": "https://dc.lft.to/lastmile_qr_scan", "ios": "https://dc.lft.to/lastmile_qr_scan"}, "fusion_lat": 0.0, "lat": 38.89224733333333, "is_disabled": 0, "lon": -77.02773, "is_reserved": 0}, {"bike_id": "bf1513ce46928f91cd0a81b4527ca34c", "fusion_lon": 0.0, "type": "electric_scooter", "name": "bf1513ce46928f91cd0a81b4527ca34c", "rental_uris": {"android": "https://dc.lft.to/lastmile_qr_scan", "ios": "https://dc.lft.to/lastmile_qr_scan"}, "fusion_lat": 0.0, "lat": 38.89841283333333, "is_disabled": 0, "lon": -77.03342783333333, "is_reserved": 0}, {"bike_id": "2c5750df42429e5aa44bbdd28394f160", "fusion_lon": 0.0, "type": "electric_bike", "name": "2c5750df42429e5aa44bbdd28394f160", "rental_uris": {"android": "https://dc.lft.to/lastmile_qr_scan", "ios": "https://dc.lft.to/lastmile_qr_scan"}, "fusion_lat": 0.0, "lat": 38.925761666666666, "is_disabled": 0, "lon": -76.98611433333333, "is_reserved": 0}, {"bike_id": "c95f8b1eeac6712368c634eec1a12373", "fusion_lon": 0.0, "type": "electric_scooter", "name": "c95f8b1eeac6712368c634eec1a12373", "rental_uris": {"android": "https://dc.lft.to/lastmile_qr_scan", "ios": "https://dc.lft.to/lastmile_qr_scan"}, "fusion_lat": 0.0, "lat": 38.90872266666667, "is_disabled": 0, "lon": -76.99965166666667, "is_reserved": 0}, {"bike_id": "642803d6de6a8169d151d14955fc6470", "fusion_lon": 0.0, "type": "electric_scooter", "name": "642803d6de6a8169d151d14955fc6470", "rental_uris": {"android": "https://dc.lft.to/lastmile_qr_scan", "ios": "https://dc.lft.to/lastmile_qr_scan"}, "fusion_lat": 0.0, "lat": 38.93918333333333, "is_disabled": 0, "lon": -77.01897183333334, "is_reserved": 0}, {"bike_id": "5f28fe2ec3b4a1c3437b8a262bbe460f", "fusion_lon": 0.0, "type": "electric_scooter", "name": "5f28fe2ec3b4a1c3437b8a262bbe460f", "rental_uris": {"android": "https://dc.lft.to/lastmile_qr_scan", "ios": "https://dc.lft.to/lastmile_qr_scan"}, "fusion_lat": 0.0, "lat": 38.842865, "is_disabled": 0, "lon": -76.99076166666667, "is_reserved": 0}, {"bike_id": "04d69e506746a635857b221859cfa26e", "fusion_lon": 0.0, "type": "electric_scooter", "name": "04d69e506746a635857b221859cfa26e", "rental_uris": {"android": "https://dc.lft.to/lastmile_qr_scan", "ios": "https://dc.lft.to/lastmile_qr_scan"}, "fusion_lat": 0.0, "lat": 38.916838, "is_disabled": 0, "lon": -77.0297705, "is_reserved": 0}, {"bike_id": "dac5fdf0edbcbd381dae575a006da9fe", "fusion_lon": 0.0, "type": "electric_scooter", "name": "dac5fdf0edbcbd381dae575a006da9fe", "rental_uris": {"android": "https://dc.lft.to/lastmile_qr_scan", "ios": "https://dc.lft.to/lastmile_qr_scan"}, "fusion_lat": 0.0, "lat": 38.92034983333333, "is_disabled": 0, "lon": -76.9701925, "is_reserved": 0}, {"bike_id": "8d29dde426d25806bc50aef3afca333a", "fusion_lon": 0.0, "type": "electric_scooter", "name": "8d29dde426d25806bc50aef3afca333a", "rental_uris": {"android": "https://dc.lft.to/lastmile_qr_scan", "ios": "https://dc.lft.to/lastmile_qr_scan"}, "fusion_lat": 0.0, "lat": 38.90702, "is_disabled": 0, "lon": -76.9869755, "is_reserved": 0}, {"bike_id": "6c82994d709277f45b49a42058661e21", "fusion_lon": 0.0, "type": "electric_scooter", "name": "6c82994d709277f45b49a42058661e21", "rental_uris": {"android": "https://dc.lft.to/lastmile_qr_scan", "ios": "https://dc.lft.to/lastmile_qr_scan"}, "fusion_lat": 0.0, "lat": 38.922162166666666, "is_disabled": 0, "lon": -77.03753533333334, "is_reserved": 0}, {"bike_id": "dae56f1b0ca234f2c5250fc79c097b79", "fusion_lon": 0.0, "type": "electric_scooter", "name": "dae56f1b0ca234f2c5250fc79c097b79", "rental_uris": {"android": "https://dc.lft.to/lastmile_qr_scan", "ios": "https://dc.lft.to/lastmile_qr_scan"}, "fusion_lat": 0.0, "lat": 38.93672866666667, "is_disabled": 0, "lon": -77.05932933333334, "is_reserved": 0}, {"bike_id": "7338784082956a5ca7ddeeb1795e5d1e", "fusion_lon": 0.0, "type": "electric_scooter", "name": "7338784082956a5ca7ddeeb1795e5d1e", "rental_uris": {"android": "https://dc.lft.to/lastmile_qr_scan", "ios": "https://dc.lft.to/lastmile_qr_scan"}, "fusion_lat": 0.0, "lat": 38.900153333333336, "is_disabled": 0, "lon": -77.04500233333333, "is_reserved": 0}, {"bike_id": "5f9796e6ab1da6b8c03be784277ebc57", "fusion_lon": 0.0, "type": "electric_scooter", "name": "5f9796e6ab1da6b8c03be784277ebc57", "rental_uris": {"android": "https://dc.lft.to/lastmile_qr_scan", "ios": "https://dc.lft.to/lastmile_qr_scan"}, "fusion_lat": 0.0, "lat": 38.887442666666665, "is_disabled": 0, "lon": -77.02829066666666, "is_reserved": 0}, {"bike_id": "3a33af7e5ad107f6cbc81eddd272a8f0", "fusion_lon": 0.0, "type": "electric_bike", "name": "3a33af7e5ad107f6cbc81eddd272a8f0", "rental_uris": {"android": "https://dc.lft.to/lastmile_qr_scan", "ios": "https://dc.lft.to/lastmile_qr_scan"}, "fusion_lat": 0.0, "lat": 38.89637866666666, "is_disabled": 0, "lon": -76.94776, "is_reserved": 0}, {"bike_id": "fe96190e3b645a0d03a9057c16f7091d", "fusion_lon": 0.0, "type": "electric_scooter", "name": "fe96190e3b645a0d03a9057c16f7091d", "rental_uris": {"android": "https://dc.lft.to/lastmile_qr_scan", "ios": "https://dc.lft.to/lastmile_qr_scan"}, "fusion_lat": 0.0, "lat": 38.892609, "is_disabled": 0, "lon": -77.03217716666667, "is_reserved": 0}, {"bike_id": "80ac8cde473ce78137c66c3cf16cbb4a", "fusion_lon": 0.0, "type": "electric_scooter", "name": "80ac8cde473ce78137c66c3cf16cbb4a", "rental_uris": {"android": "https://dc.lft.to/lastmile_qr_scan", "ios": "https://dc.lft.to/lastmile_qr_scan"}, "fusion_lat": 0.0, "lat": 38.894810166666666, "is_disabled": 0, "lon": -77.045393, "is_reserved": 0}, {"bike_id": "55b85796f1837522082690a55b22d179", "fusion_lon": 0.0, "type": "electric_scooter", "name": "55b85796f1837522082690a55b22d179", "rental_uris": {"android": "https://dc.lft.to/lastmile_qr_scan", "ios": "https://dc.lft.to/lastmile_qr_scan"}, "fusion_lat": 0.0, "lat": 38.937411166666664, "is_disabled": 0, "lon": -77.03500666666666, "is_reserved": 0}, {"bike_id": "ceb0211558410588503b00e9ad452e86", "fusion_lon": 0.0, "type": "electric_scooter", "name": "ceb0211558410588503b00e9ad452e86", "rental_uris": {"android": "https://dc.lft.to/lastmile_qr_scan", "ios": "https://dc.lft.to/lastmile_qr_scan"}, "fusion_lat": 0.0, "lat": 38.9284945, "is_disabled": 0, "lon": -77.015861, "is_reserved": 0}, {"bike_id": "7ae8fb39ae31790927ae0a30b26b1716", "fusion_lon": 0.0, "type": "electric_scooter", "name": "7ae8fb39ae31790927ae0a30b26b1716", "rental_uris": {"android": "https://dc.lft.to/lastmile_qr_scan", "ios": "https://dc.lft.to/lastmile_qr_scan"}, "fusion_lat": 0.0, "lat": 38.91683166666667, "is_disabled": 0, "lon": -77.02972466666667, "is_reserved": 0}, {"bike_id": "16762ef01411d41af83fb142a8967098", "fusion_lon": 0.0, "type": "electric_scooter", "name": "16762ef01411d41af83fb142a8967098", "rental_uris": {"android": "https://dc.lft.to/lastmile_qr_scan", "ios": "https://dc.lft.to/lastmile_qr_scan"}, "fusion_lat": 0.0, "lat": 38.91698733333333, "is_disabled": 0, "lon": -77.005224, "is_reserved": 0}, {"bike_id": "b1f2898a5c68c117b9b1dc3c731424ec", "fusion_lon": 0.0, "type": "electric_scooter", "name": "b1f2898a5c68c117b9b1dc3c731424ec", "rental_uris": {"android": "https://dc.lft.to/lastmile_qr_scan", "ios": "https://dc.lft.to/lastmile_qr_scan"}, "fusion_lat": 0.0, "lat": 38.93881566666667, "is_disabled": 0, "lon": -77.0248055, "is_reserved": 0}, {"bike_id": "052614efdb5d6632e037c8cca13800ad", "fusion_lon": 0.0, "type": "electric_scooter", "name": "052614efdb5d6632e037c8cca13800ad", "rental_uris": {"android": "https://dc.lft.to/lastmile_qr_scan", "ios": "https://dc.lft.to/lastmile_qr_scan"}, "fusion_lat": 0.0, "lat": 38.9172555, "is_disabled": 0, "lon": -77.03856883333333, "is_reserved": 0}, {"bike_id": "8e7b22936afcb9fb2b81b36f9ac52a25", "fusion_lon": 0.0, "type": "electric_bike", "name": "8e7b22936afcb9fb2b81b36f9ac52a25", "rental_uris": {"android": "https://dc.lft.to/lastmile_qr_scan", "ios": "https://dc.lft.to/lastmile_qr_scan"}, "fusion_lat": 0.0, "lat": 38.895808833333334, "is_disabled": 0, "lon": -76.97623816666666, "is_reserved": 0}, {"bike_id": "61c227964b0122313a4c6d785b07ee21", "fusion_lon": 0.0, "type": "electric_scooter", "name": "61c227964b0122313a4c6d785b07ee21", "rental_uris": {"android": "https://dc.lft.to/lastmile_qr_scan", "ios": "https://dc.lft.to/lastmile_qr_scan"}, "fusion_lat": 0.0, "lat": 38.91925666666667, "is_disabled": 0, "lon": -77.07893183333333, "is_reserved": 0}, {"bike_id": "7bb6101559497ad75a56e2f54bf10e48", "fusion_lon": 0.0, "type": "electric_scooter", "name": "7bb6101559497ad75a56e2f54bf10e48", "rental_uris": {"android": "https://dc.lft.to/lastmile_qr_scan", "ios": "https://dc.lft.to/lastmile_qr_scan"}, "fusion_lat": 0.0, "lat": 38.926468166666666, "is_disabled": 0, "lon": -77.03703566666667, "is_reserved": 0}, {"bike_id": "477366d7fd4f1dd7d128adb820d03642", "fusion_lon": 0.0, "type": "electric_scooter", "name": "477366d7fd4f1dd7d128adb820d03642", "rental_uris": {"android": "https://dc.lft.to/lastmile_qr_scan", "ios": "https://dc.lft.to/lastmile_qr_scan"}, "fusion_lat": 0.0, "lat": 38.91704216666667, "is_disabled": 0, "lon": -77.00796866666667, "is_reserved": 0}, {"bike_id": "9a3c1ebca15d93224bf112fe06231fe4", "fusion_lon": 0.0, "type": "electric_scooter", "name": "9a3c1ebca15d93224bf112fe06231fe4", "rental_uris": {"android": "https://dc.lft.to/lastmile_qr_scan", "ios": "https://dc.lft.to/lastmile_qr_scan"}, "fusion_lat": 0.0, "lat": 38.872452, "is_disabled": 0, "lon": -77.010608, "is_reserved": 0}, {"bike_id": "1be43e522bc7cfe55a754fc54973a7d9", "fusion_lon": 0.0, "type": "electric_scooter", "name": "1be43e522bc7cfe55a754fc54973a7d9", "rental_uris": {"android": "https://dc.lft.to/lastmile_qr_scan", "ios": "https://dc.lft.to/lastmile_qr_scan"}, "fusion_lat": 0.0, "lat": 38.91042983333333, "is_disabled": 0, "lon": -77.0337725, "is_reserved": 0}, {"bike_id": "85798c31956c998b2f553f2dd052ec6d", "fusion_lon": 0.0, "type": "electric_bike", "name": "85798c31956c998b2f553f2dd052ec6d", "rental_uris": {"android": "https://dc.lft.to/lastmile_qr_scan", "ios": "https://dc.lft.to/lastmile_qr_scan"}, "fusion_lat": 0.0, "lat": 38.962064833333336, "is_disabled": 0, "lon": -77.02621916666666, "is_reserved": 0}, {"bike_id": "1487277880de2861b2a4b06f958dc62b", "fusion_lon": 0.0, "type": "electric_bike", "name": "1487277880de2861b2a4b06f958dc62b", "rental_uris": {"android": "https://dc.lft.to/lastmile_qr_scan", "ios": "https://dc.lft.to/lastmile_qr_scan"}, "fusion_lat": 0.0, "lat": 38.91684033333333, "is_disabled": 0, "lon": -77.02417483333333, "is_reserved": 0}, {"bike_id": "177278303adaad3b647a269a323dd8ce", "fusion_lon": 0.0, "type": "electric_scooter", "name": "177278303adaad3b647a269a323dd8ce", "rental_uris": {"android": "https://dc.lft.to/lastmile_qr_scan", "ios": "https://dc.lft.to/lastmile_qr_scan"}, "fusion_lat": 0.0, "lat": 38.925002666666664, "is_disabled": 0, "lon": -77.02150433333334, "is_reserved": 0}, {"bike_id": "ada7ec0f9802350113d2cf357380578c", "fusion_lon": 0.0, "type": "electric_scooter", "name": "ada7ec0f9802350113d2cf357380578c", "rental_uris": {"android": "https://dc.lft.to/lastmile_qr_scan", "ios": "https://dc.lft.to/lastmile_qr_scan"}, "fusion_lat": 0.0, "lat": 38.8831325, "is_disabled": 0, "lon": -77.02308633333334, "is_reserved": 0}, {"bike_id": "f83abbba225b6e2390b0500b1a098928", "fusion_lon": 0.0, "type": "electric_scooter", "name": "f83abbba225b6e2390b0500b1a098928", "rental_uris": {"android": "https://dc.lft.to/lastmile_qr_scan", "ios": "https://dc.lft.to/lastmile_qr_scan"}, "fusion_lat": 0.0, "lat": 38.8742755, "is_disabled": 0, "lon": -77.04405666666666, "is_reserved": 0}, {"bike_id": "31ee8a6e7e5a80ddaca913dc75334ed9", "fusion_lon": 0.0, "type": "electric_scooter", "name": "31ee8a6e7e5a80ddaca913dc75334ed9", "rental_uris": {"android": "https://dc.lft.to/lastmile_qr_scan", "ios": "https://dc.lft.to/lastmile_qr_scan"}, "fusion_lat": 0.0, "lat": 38.91177316666667, "is_disabled": 0, "lon": -77.038605, "is_reserved": 0}, {"bike_id": "e46447daefb9933c87fef94b9678235b", "fusion_lon": 0.0, "type": "electric_scooter", "name": "e46447daefb9933c87fef94b9678235b", "rental_uris": {"android": "https://dc.lft.to/lastmile_qr_scan", "ios": "https://dc.lft.to/lastmile_qr_scan"}, "fusion_lat": 0.0, "lat": 38.9306375, "is_disabled": 0, "lon": -77.032855, "is_reserved": 0}, {"bike_id": "54c987047b6ce1d4622f55572e516f4b", "fusion_lon": 0.0, "type": "electric_scooter", "name": "54c987047b6ce1d4622f55572e516f4b", "rental_uris": {"android": "https://dc.lft.to/lastmile_qr_scan", "ios": "https://dc.lft.to/lastmile_qr_scan"}, "fusion_lat": 0.0, "lat": 38.921686333333334, "is_disabled": 0, "lon": -77.041191, "is_reserved": 0}, {"bike_id": "afc67b10439de9ef510411da67641dda", "fusion_lon": 0.0, "type": "electric_scooter", "name": "afc67b10439de9ef510411da67641dda", "rental_uris": {"android": "https://dc.lft.to/lastmile_qr_scan", "ios": "https://dc.lft.to/lastmile_qr_scan"}, "fusion_lat": 0.0, "lat": 38.9034745, "is_disabled": 0, "lon": -77.03434, "is_reserved": 0}, {"bike_id": "98ba991e819b97535157550edb67680f", "fusion_lon": 0.0, "type": "electric_bike", "name": "98ba991e819b97535157550edb67680f", "rental_uris": {"android": "https://dc.lft.to/lastmile_qr_scan", "ios": "https://dc.lft.to/lastmile_qr_scan"}, "fusion_lat": 0.0, "lat": 38.96760533333333, "is_disabled": 0, "lon": -77.09164733333333, "is_reserved": 0}, {"bike_id": "7876aff415f5dd1ab66fadf7b96629af", "fusion_lon": 0.0, "type": "electric_scooter", "name": "7876aff415f5dd1ab66fadf7b96629af", "rental_uris": {"android": "https://dc.lft.to/lastmile_qr_scan", "ios": "https://dc.lft.to/lastmile_qr_scan"}, "fusion_lat": 0.0, "lat": 38.91258533333333, "is_disabled": 0, "lon": -77.03267316666667, "is_reserved": 0}, {"bike_id": "2d11e31566f9e7970cff032ed2f841d8", "fusion_lon": 0.0, "type": "electric_scooter", "name": "2d11e31566f9e7970cff032ed2f841d8", "rental_uris": {"android": "https://dc.lft.to/lastmile_qr_scan", "ios": "https://dc.lft.to/lastmile_qr_scan"}, "fusion_lat": 0.0, "lat": 38.85531483333333, "is_disabled": 0, "lon": -76.9691705, "is_reserved": 0}, {"bike_id": "839e87e19677cf4564ceaa0611f2e1bf", "fusion_lon": 0.0, "type": "electric_scooter", "name": "839e87e19677cf4564ceaa0611f2e1bf", "rental_uris": {"android": "https://dc.lft.to/lastmile_qr_scan", "ios": "https://dc.lft.to/lastmile_qr_scan"}, "fusion_lat": 0.0, "lat": 38.932422, "is_disabled": 0, "lon": -77.03884083333334, "is_reserved": 0}, {"bike_id": "c513cd6a1fed0dddbfb45bf8a872351f", "fusion_lon": 0.0, "type": "electric_scooter", "name": "c513cd6a1fed0dddbfb45bf8a872351f", "rental_uris": {"android": "https://dc.lft.to/lastmile_qr_scan", "ios": "https://dc.lft.to/lastmile_qr_scan"}, "fusion_lat": 0.0, "lat": 38.973789833333335, "is_disabled": 0, "lon": -77.03122866666666, "is_reserved": 0}, {"bike_id": "d7b61e2978dd902192c7ba9f8c13faa0", "fusion_lon": 0.0, "type": "electric_scooter", "name": "d7b61e2978dd902192c7ba9f8c13faa0", "rental_uris": {"android": "https://dc.lft.to/lastmile_qr_scan", "ios": "https://dc.lft.to/lastmile_qr_scan"}, "fusion_lat": 0.0, "lat": 38.893001, "is_disabled": 0, "lon": -77.04658716666667, "is_reserved": 0}, {"bike_id": "549b32933282a7cb38799cc2d6ba83e9", "fusion_lon": 0.0, "type": "electric_scooter", "name": "549b32933282a7cb38799cc2d6ba83e9", "rental_uris": {"android": "https://dc.lft.to/lastmile_qr_scan", "ios": "https://dc.lft.to/lastmile_qr_scan"}, "fusion_lat": 0.0, "lat": 38.93702316666667, "is_disabled": 0, "lon": -77.05599733333334, "is_reserved": 0}, {"bike_id": "d653111f5caa1f9e706fa6c674e7a151", "fusion_lon": 0.0, "type": "electric_scooter", "name": "d653111f5caa1f9e706fa6c674e7a151", "rental_uris": {"android": "https://dc.lft.to/lastmile_qr_scan", "ios": "https://dc.lft.to/lastmile_qr_scan"}, "fusion_lat": 0.0, "lat": 38.93965816666667, "is_disabled": 0, "lon": -77.02499133333333, "is_reserved": 0}, {"bike_id": "d49218b188c0e2e7ed7e5be58c8e6cfd", "fusion_lon": 0.0, "type": "electric_scooter", "name": "d49218b188c0e2e7ed7e5be58c8e6cfd", "rental_uris": {"android": "https://dc.lft.to/lastmile_qr_scan", "ios": "https://dc.lft.to/lastmile_qr_scan"}, "fusion_lat": 0.0, "lat": 38.928748166666665, "is_disabled": 0, "lon": -77.02817933333333, "is_reserved": 0}, {"bike_id": "39eaf51237b1949e522bd76c5c910308", "fusion_lon": 0.0, "type": "electric_scooter", "name": "39eaf51237b1949e522bd76c5c910308", "rental_uris": {"android": "https://dc.lft.to/lastmile_qr_scan", "ios": "https://dc.lft.to/lastmile_qr_scan"}, "fusion_lat": 0.0, "lat": 38.95527416666667, "is_disabled": 0, "lon": -77.00739133333333, "is_reserved": 0}, {"bike_id": "843999582ca823516329a970c4eb1d2a", "fusion_lon": 0.0, "type": "electric_scooter", "name": "843999582ca823516329a970c4eb1d2a", "rental_uris": {"android": "https://dc.lft.to/lastmile_qr_scan", "ios": "https://dc.lft.to/lastmile_qr_scan"}, "fusion_lat": 0.0, "lat": 38.90545483333333, "is_disabled": 0, "lon": -77.02196183333334, "is_reserved": 0}, {"bike_id": "e51de31e1f4e124deb858eb7681886d3", "fusion_lon": 0.0, "type": "electric_scooter", "name": "e51de31e1f4e124deb858eb7681886d3", "rental_uris": {"android": "https://dc.lft.to/lastmile_qr_scan", "ios": "https://dc.lft.to/lastmile_qr_scan"}, "fusion_lat": 0.0, "lat": 38.924225666666665, "is_disabled": 0, "lon": -77.0201335, "is_reserved": 0}, {"bike_id": "f06cb5430ca7e22a193e4ed4a7685127", "fusion_lon": 0.0, "type": "electric_scooter", "name": "f06cb5430ca7e22a193e4ed4a7685127", "rental_uris": {"android": "https://dc.lft.to/lastmile_qr_scan", "ios": "https://dc.lft.to/lastmile_qr_scan"}, "fusion_lat": 0.0, "lat": 38.902242333333334, "is_disabled": 0, "lon": -77.00210683333333, "is_reserved": 0}, {"bike_id": "546a2540d60f60a57a20beeb00bf6ba2", "fusion_lon": 0.0, "type": "electric_scooter", "name": "546a2540d60f60a57a20beeb00bf6ba2", "rental_uris": {"android": "https://dc.lft.to/lastmile_qr_scan", "ios": "https://dc.lft.to/lastmile_qr_scan"}, "fusion_lat": 0.0, "lat": 38.9140485, "is_disabled": 0, "lon": -77.0417945, "is_reserved": 0}, {"bike_id": "de99f0dd0a1457e34289420df8d5f85a", "fusion_lon": 0.0, "type": "electric_scooter", "name": "de99f0dd0a1457e34289420df8d5f85a", "rental_uris": {"android": "https://dc.lft.to/lastmile_qr_scan", "ios": "https://dc.lft.to/lastmile_qr_scan"}, "fusion_lat": 0.0, "lat": 38.95214716666667, "is_disabled": 0, "lon": -77.06779683333333, "is_reserved": 0}, {"bike_id": "1efe61dd661751b29c4d4844b9964dbe", "fusion_lon": 0.0, "type": "electric_scooter", "name": "1efe61dd661751b29c4d4844b9964dbe", "rental_uris": {"android": "https://dc.lft.to/lastmile_qr_scan", "ios": "https://dc.lft.to/lastmile_qr_scan"}, "fusion_lat": 0.0, "lat": 38.93043333333333, "is_disabled": 0, "lon": -77.03304916666667, "is_reserved": 0}, {"bike_id": "59baf05c78045bf5119d1995e2004335", "fusion_lon": 0.0, "type": "electric_scooter", "name": "59baf05c78045bf5119d1995e2004335", "rental_uris": {"android": "https://dc.lft.to/lastmile_qr_scan", "ios": "https://dc.lft.to/lastmile_qr_scan"}, "fusion_lat": 0.0, "lat": 38.94998016666667, "is_disabled": 0, "lon": -77.01845666666667, "is_reserved": 0}, {"bike_id": "4f378e39d00841939e501c55855e9948", "fusion_lon": 0.0, "type": "electric_scooter", "name": "4f378e39d00841939e501c55855e9948", "rental_uris": {"android": "https://dc.lft.to/lastmile_qr_scan", "ios": "https://dc.lft.to/lastmile_qr_scan"}, "fusion_lat": 0.0, "lat": 38.919154166666665, "is_disabled": 0, "lon": -77.03178916666667, "is_reserved": 0}, {"bike_id": "20f355df253ee704d5f3ef05a690cef6", "fusion_lon": 0.0, "type": "electric_scooter", "name": "20f355df253ee704d5f3ef05a690cef6", "rental_uris": {"android": "https://dc.lft.to/lastmile_qr_scan", "ios": "https://dc.lft.to/lastmile_qr_scan"}, "fusion_lat": 0.0, "lat": 38.88790266666667, "is_disabled": 0, "lon": -76.95110866666667, "is_reserved": 0}, {"bike_id": "099a40fd5c87e0fe7402e2b14bc0da46", "fusion_lon": 0.0, "type": "electric_scooter", "name": "099a40fd5c87e0fe7402e2b14bc0da46", "rental_uris": {"android": "https://dc.lft.to/lastmile_qr_scan", "ios": "https://dc.lft.to/lastmile_qr_scan"}, "fusion_lat": 0.0, "lat": 38.87089366666667, "is_disabled": 0, "lon": -77.01110983333334, "is_reserved": 0}, {"bike_id": "ce298c70055afb9b4d96ccb6eede9176", "fusion_lon": 0.0, "type": "electric_scooter", "name": "ce298c70055afb9b4d96ccb6eede9176", "rental_uris": {"android": "https://dc.lft.to/lastmile_qr_scan", "ios": "https://dc.lft.to/lastmile_qr_scan"}, "fusion_lat": 0.0, "lat": 38.90961583333333, "is_disabled": 0, "lon": -76.985376, "is_reserved": 0}, {"bike_id": "c6d671b564321d3dd5b9e9eb795d20aa", "fusion_lon": 0.0, "type": "electric_scooter", "name": "c6d671b564321d3dd5b9e9eb795d20aa", "rental_uris": {"android": "https://dc.lft.to/lastmile_qr_scan", "ios": "https://dc.lft.to/lastmile_qr_scan"}, "fusion_lat": 0.0, "lat": 38.9004915, "is_disabled": 0, "lon": -77.01233583333334, "is_reserved": 0}, {"bike_id": "e05fdbdd1578474e08bf62772ecca73b", "fusion_lon": 0.0, "type": "electric_scooter", "name": "e05fdbdd1578474e08bf62772ecca73b", "rental_uris": {"android": "https://dc.lft.to/lastmile_qr_scan", "ios": "https://dc.lft.to/lastmile_qr_scan"}, "fusion_lat": 0.0, "lat": 38.91598, "is_disabled": 0, "lon": -77.016515, "is_reserved": 0}, {"bike_id": "056d15dfdcac7e468a220c1b706d7e64", "fusion_lon": 0.0, "type": "electric_scooter", "name": "056d15dfdcac7e468a220c1b706d7e64", "rental_uris": {"android": "https://dc.lft.to/lastmile_qr_scan", "ios": "https://dc.lft.to/lastmile_qr_scan"}, "fusion_lat": 0.0, "lat": 38.90372466666667, "is_disabled": 0, "lon": -77.02196516666666, "is_reserved": 0}, {"bike_id": "96a268ca8d1aba8e91b0c18d43951074", "fusion_lon": 0.0, "type": "electric_scooter", "name": "96a268ca8d1aba8e91b0c18d43951074", "rental_uris": {"android": "https://dc.lft.to/lastmile_qr_scan", "ios": "https://dc.lft.to/lastmile_qr_scan"}, "fusion_lat": 0.0, "lat": 38.898867333333335, "is_disabled": 0, "lon": -76.93174583333334, "is_reserved": 0}, {"bike_id": "db11ca20d365fa7dde42f16dac1d3617", "fusion_lon": 0.0, "type": "electric_scooter", "name": "db11ca20d365fa7dde42f16dac1d3617", "rental_uris": {"android": "https://dc.lft.to/lastmile_qr_scan", "ios": "https://dc.lft.to/lastmile_qr_scan"}, "fusion_lat": 0.0, "lat": 38.907257, "is_disabled": 0, "lon": -77.042859, "is_reserved": 0}, {"bike_id": "68934617bf151de8a289b16f1a4eaf02", "fusion_lon": 0.0, "type": "electric_scooter", "name": "68934617bf151de8a289b16f1a4eaf02", "rental_uris": {"android": "https://dc.lft.to/lastmile_qr_scan", "ios": "https://dc.lft.to/lastmile_qr_scan"}, "fusion_lat": 0.0, "lat": 38.905182833333335, "is_disabled": 0, "lon": -77.02977166666666, "is_reserved": 0}, {"bike_id": "f89eb857d4d6893b6d62f614411a20fb", "fusion_lon": 0.0, "type": "electric_scooter", "name": "f89eb857d4d6893b6d62f614411a20fb", "rental_uris": {"android": "https://dc.lft.to/lastmile_qr_scan", "ios": "https://dc.lft.to/lastmile_qr_scan"}, "fusion_lat": 0.0, "lat": 38.918429333333336, "is_disabled": 0, "lon": -77.0482765, "is_reserved": 0}, {"bike_id": "9b3a1e9a2b856676a96cf54caac86f1a", "fusion_lon": 0.0, "type": "electric_bike", "name": "9b3a1e9a2b856676a96cf54caac86f1a", "rental_uris": {"android": "https://dc.lft.to/lastmile_qr_scan", "ios": "https://dc.lft.to/lastmile_qr_scan"}, "fusion_lat": 0.0, "lat": 38.8484455, "is_disabled": 0, "lon": -77.08050616666667, "is_reserved": 0}, {"bike_id": "f53aa3c3bdb2907b479477bf65d7ffc4", "fusion_lon": 0.0, "type": "electric_scooter", "name": "f53aa3c3bdb2907b479477bf65d7ffc4", "rental_uris": {"android": "https://dc.lft.to/lastmile_qr_scan", "ios": "https://dc.lft.to/lastmile_qr_scan"}, "fusion_lat": 0.0, "lat": 38.918192166666664, "is_disabled": 0, "lon": -77.03255866666667, "is_reserved": 0}, {"bike_id": "2e8ae434f90d05c7592d01986cd7ce9a", "fusion_lon": 0.0, "type": "electric_scooter", "name": "2e8ae434f90d05c7592d01986cd7ce9a", "rental_uris": {"android": "https://dc.lft.to/lastmile_qr_scan", "ios": "https://dc.lft.to/lastmile_qr_scan"}, "fusion_lat": 0.0, "lat": 38.851655666666666, "is_disabled": 0, "lon": -76.9945945, "is_reserved": 0}, {"bike_id": "190936cf16088131930683aff8c8d29c", "fusion_lon": 0.0, "type": "electric_bike", "name": "190936cf16088131930683aff8c8d29c", "rental_uris": {"android": "https://dc.lft.to/lastmile_qr_scan", "ios": "https://dc.lft.to/lastmile_qr_scan"}, "fusion_lat": 0.0, "lat": 38.94731016666667, "is_disabled": 0, "lon": -76.95678433333333, "is_reserved": 0}, {"bike_id": "a0ee86962bac4208b850449769ff7d44", "fusion_lon": 0.0, "type": "electric_scooter", "name": "a0ee86962bac4208b850449769ff7d44", "rental_uris": {"android": "https://dc.lft.to/lastmile_qr_scan", "ios": "https://dc.lft.to/lastmile_qr_scan"}, "fusion_lat": 0.0, "lat": 38.903506666666665, "is_disabled": 0, "lon": -77.01898766666666, "is_reserved": 0}, {"bike_id": "67efb2fcd97675a9da45db0a7dad62bb", "fusion_lon": 0.0, "type": "electric_bike", "name": "67efb2fcd97675a9da45db0a7dad62bb", "rental_uris": {"android": "https://dc.lft.to/lastmile_qr_scan", "ios": "https://dc.lft.to/lastmile_qr_scan"}, "fusion_lat": 0.0, "lat": 38.95975466666667, "is_disabled": 0, "lon": -76.9815605, "is_reserved": 0}, {"bike_id": "f8c6458c791327adffc23d721372d951", "fusion_lon": 0.0, "type": "electric_scooter", "name": "f8c6458c791327adffc23d721372d951", "rental_uris": {"android": "https://dc.lft.to/lastmile_qr_scan", "ios": "https://dc.lft.to/lastmile_qr_scan"}, "fusion_lat": 0.0, "lat": 38.914361166666666, "is_disabled": 0, "lon": -77.0219085, "is_reserved": 0}, {"bike_id": "b8fa5572f1760dc22a4f503b8612cc1f", "fusion_lon": 0.0, "type": "electric_scooter", "name": "b8fa5572f1760dc22a4f503b8612cc1f", "rental_uris": {"android": "https://dc.lft.to/lastmile_qr_scan", "ios": "https://dc.lft.to/lastmile_qr_scan"}, "fusion_lat": 0.0, "lat": 38.9276515, "is_disabled": 0, "lon": -77.02788516666666, "is_reserved": 0}, {"bike_id": "8983f201fee65455a3d7030b5bb7be37", "fusion_lon": 0.0, "type": "electric_scooter", "name": "8983f201fee65455a3d7030b5bb7be37", "rental_uris": {"android": "https://dc.lft.to/lastmile_qr_scan", "ios": "https://dc.lft.to/lastmile_qr_scan"}, "fusion_lat": 0.0, "lat": 38.898784166666665, "is_disabled": 0, "lon": -76.93187016666667, "is_reserved": 0}, {"bike_id": "66184c55a3250a0bcaf70d2c9a48de4a", "fusion_lon": 0.0, "type": "electric_scooter", "name": "66184c55a3250a0bcaf70d2c9a48de4a", "rental_uris": {"android": "https://dc.lft.to/lastmile_qr_scan", "ios": "https://dc.lft.to/lastmile_qr_scan"}, "fusion_lat": 0.0, "lat": 38.90045383333333, "is_disabled": 0, "lon": -76.98845683333333, "is_reserved": 0}, {"bike_id": "d966824c0ae0f0f568d143f9da6f3b69", "fusion_lon": 0.0, "type": "electric_scooter", "name": "d966824c0ae0f0f568d143f9da6f3b69", "rental_uris": {"android": "https://dc.lft.to/lastmile_qr_scan", "ios": "https://dc.lft.to/lastmile_qr_scan"}, "fusion_lat": 0.0, "lat": 38.876817, "is_disabled": 0, "lon": -77.01606633333333, "is_reserved": 0}, {"bike_id": "120a2e124e5dcd878c3709df08deed83", "fusion_lon": 0.0, "type": "electric_scooter", "name": "120a2e124e5dcd878c3709df08deed83", "rental_uris": {"android": "https://dc.lft.to/lastmile_qr_scan", "ios": "https://dc.lft.to/lastmile_qr_scan"}, "fusion_lat": 0.0, "lat": 38.90411133333333, "is_disabled": 0, "lon": -77.00138616666666, "is_reserved": 0}, {"bike_id": "9b869c65d0ef956cc435f889496293ac", "fusion_lon": 0.0, "type": "electric_scooter", "name": "9b869c65d0ef956cc435f889496293ac", "rental_uris": {"android": "https://dc.lft.to/lastmile_qr_scan", "ios": "https://dc.lft.to/lastmile_qr_scan"}, "fusion_lat": 0.0, "lat": 38.923737, "is_disabled": 0, "lon": -77.03532233333334, "is_reserved": 0}, {"bike_id": "07b222dc05243b5bc469a0fb0c315661", "fusion_lon": 0.0, "type": "electric_bike", "name": "07b222dc05243b5bc469a0fb0c315661", "rental_uris": {"android": "https://dc.lft.to/lastmile_qr_scan", "ios": "https://dc.lft.to/lastmile_qr_scan"}, "fusion_lat": 0.0, "lat": 38.93669383333334, "is_disabled": 0, "lon": -76.95207766666667, "is_reserved": 0}, {"bike_id": "739dac2eb4311576a5f2739e257c157d", "fusion_lon": 0.0, "type": "electric_scooter", "name": "739dac2eb4311576a5f2739e257c157d", "rental_uris": {"android": "https://dc.lft.to/lastmile_qr_scan", "ios": "https://dc.lft.to/lastmile_qr_scan"}, "fusion_lat": 0.0, "lat": 38.928771833333336, "is_disabled": 0, "lon": -77.01369016666666, "is_reserved": 0}, {"bike_id": "15d50893337ec763dc06f334daf40a41", "fusion_lon": 0.0, "type": "electric_scooter", "name": "15d50893337ec763dc06f334daf40a41", "rental_uris": {"android": "https://dc.lft.to/lastmile_qr_scan", "ios": "https://dc.lft.to/lastmile_qr_scan"}, "fusion_lat": 0.0, "lat": 38.896176, "is_disabled": 0, "lon": -76.99933283333333, "is_reserved": 0}, {"bike_id": "8e78e6616b4dc827ce490e2e5296e6b7", "fusion_lon": 0.0, "type": "electric_scooter", "name": "8e78e6616b4dc827ce490e2e5296e6b7", "rental_uris": {"android": "https://dc.lft.to/lastmile_qr_scan", "ios": "https://dc.lft.to/lastmile_qr_scan"}, "fusion_lat": 0.0, "lat": 38.91599033333333, "is_disabled": 0, "lon": -77.01716033333334, "is_reserved": 0}, {"bike_id": "03d69fccc31aaccc281f2d0346d3339f", "fusion_lon": 0.0, "type": "electric_scooter", "name": "03d69fccc31aaccc281f2d0346d3339f", "rental_uris": {"android": "https://dc.lft.to/lastmile_qr_scan", "ios": "https://dc.lft.to/lastmile_qr_scan"}, "fusion_lat": 0.0, "lat": 38.92988183333333, "is_disabled": 0, "lon": -77.02343516666667, "is_reserved": 0}, {"bike_id": "dff2dc2d59ebb2cdaedb4f5667e06dc5", "fusion_lon": 0.0, "type": "electric_bike", "name": "dff2dc2d59ebb2cdaedb4f5667e06dc5", "rental_uris": {"android": "https://dc.lft.to/lastmile_qr_scan", "ios": "https://dc.lft.to/lastmile_qr_scan"}, "fusion_lat": 0.0, "lat": 38.875530166666664, "is_disabled": 0, "lon": -76.96493383333333, "is_reserved": 0}, {"bike_id": "0ed8bcca2783615f8e9369a05473383a", "fusion_lon": 0.0, "type": "electric_scooter", "name": "0ed8bcca2783615f8e9369a05473383a", "rental_uris": {"android": "https://dc.lft.to/lastmile_qr_scan", "ios": "https://dc.lft.to/lastmile_qr_scan"}, "fusion_lat": 0.0, "lat": 38.902683, "is_disabled": 0, "lon": -77.05434833333334, "is_reserved": 0}, {"bike_id": "d764bc5c1f8b098621cd81d855e081ac", "fusion_lon": 0.0, "type": "electric_scooter", "name": "d764bc5c1f8b098621cd81d855e081ac", "rental_uris": {"android": "https://dc.lft.to/lastmile_qr_scan", "ios": "https://dc.lft.to/lastmile_qr_scan"}, "fusion_lat": 0.0, "lat": 38.91734616666667, "is_disabled": 0, "lon": -77.03207, "is_reserved": 0}, {"bike_id": "5ff82e000acac40b9f158319b3eeec8c", "fusion_lon": 0.0, "type": "electric_scooter", "name": "5ff82e000acac40b9f158319b3eeec8c", "rental_uris": {"android": "https://dc.lft.to/lastmile_qr_scan", "ios": "https://dc.lft.to/lastmile_qr_scan"}, "fusion_lat": 0.0, "lat": 38.91934766666667, "is_disabled": 0, "lon": -77.03404166666667, "is_reserved": 0}, {"bike_id": "51b41009a05b636c3f264899a7048d9f", "fusion_lon": 0.0, "type": "electric_bike", "name": "51b41009a05b636c3f264899a7048d9f", "rental_uris": {"android": "https://dc.lft.to/lastmile_qr_scan", "ios": "https://dc.lft.to/lastmile_qr_scan"}, "fusion_lat": 0.0, "lat": 39.054535333333334, "is_disabled": 0, "lon": -77.043073, "is_reserved": 0}, {"bike_id": "a3c36161e330765b8b36378ce44cc266", "fusion_lon": 0.0, "type": "electric_bike", "name": "a3c36161e330765b8b36378ce44cc266", "rental_uris": {"android": "https://dc.lft.to/lastmile_qr_scan", "ios": "https://dc.lft.to/lastmile_qr_scan"}, "fusion_lat": 0.0, "lat": 39.0885045, "is_disabled": 0, "lon": -77.17840966666667, "is_reserved": 0}, {"bike_id": "0cbe3468560b1958e8cc423d7c8c7ea1", "fusion_lon": 0.0, "type": "electric_scooter", "name": "0cbe3468560b1958e8cc423d7c8c7ea1", "rental_uris": {"android": "https://dc.lft.to/lastmile_qr_scan", "ios": "https://dc.lft.to/lastmile_qr_scan"}, "fusion_lat": 0.0, "lat": 38.91414316666667, "is_disabled": 0, "lon": -77.04205666666667, "is_reserved": 0}, {"bike_id": "ad1faf5101ac5601cd4329e0944f3af4", "fusion_lon": 0.0, "type": "electric_scooter", "name": "ad1faf5101ac5601cd4329e0944f3af4", "rental_uris": {"android": "https://dc.lft.to/lastmile_qr_scan", "ios": "https://dc.lft.to/lastmile_qr_scan"}, "fusion_lat": 0.0, "lat": 38.949988166666664, "is_disabled": 0, "lon": -77.0270685, "is_reserved": 0}, {"bike_id": "87b8ef32ba97a57778f6fd5b92f56185", "fusion_lon": 0.0, "type": "electric_scooter", "name": "87b8ef32ba97a57778f6fd5b92f56185", "rental_uris": {"android": "https://dc.lft.to/lastmile_qr_scan", "ios": "https://dc.lft.to/lastmile_qr_scan"}, "fusion_lat": 0.0, "lat": 38.9355575, "is_disabled": 0, "lon": -77.0821705, "is_reserved": 0}, {"bike_id": "09d7f9f1c44650f9275b3ce4b2aa0571", "fusion_lon": 0.0, "type": "electric_scooter", "name": "09d7f9f1c44650f9275b3ce4b2aa0571", "rental_uris": {"android": "https://dc.lft.to/lastmile_qr_scan", "ios": "https://dc.lft.to/lastmile_qr_scan"}, "fusion_lat": 0.0, "lat": 38.8946195, "is_disabled": 0, "lon": -77.003481, "is_reserved": 0}, {"bike_id": "8d4a1fb5e44c89c45639b88e89030382", "fusion_lon": 0.0, "type": "electric_scooter", "name": "8d4a1fb5e44c89c45639b88e89030382", "rental_uris": {"android": "https://dc.lft.to/lastmile_qr_scan", "ios": "https://dc.lft.to/lastmile_qr_scan"}, "fusion_lat": 0.0, "lat": 38.9011505, "is_disabled": 0, "lon": -77.049901, "is_reserved": 0}, {"bike_id": "e5882244ca49b180975c1d6d32d25d58", "fusion_lon": 0.0, "type": "electric_scooter", "name": "e5882244ca49b180975c1d6d32d25d58", "rental_uris": {"android": "https://dc.lft.to/lastmile_qr_scan", "ios": "https://dc.lft.to/lastmile_qr_scan"}, "fusion_lat": 0.0, "lat": 38.89887216666666, "is_disabled": 0, "lon": -76.93175516666666, "is_reserved": 0}, {"bike_id": "c888c158d9e5cc193ab355a85ff0aff5", "fusion_lon": 0.0, "type": "electric_scooter", "name": "c888c158d9e5cc193ab355a85ff0aff5", "rental_uris": {"android": "https://dc.lft.to/lastmile_qr_scan", "ios": "https://dc.lft.to/lastmile_qr_scan"}, "fusion_lat": 0.0, "lat": 38.879728166666666, "is_disabled": 0, "lon": -76.9950705, "is_reserved": 0}, {"bike_id": "f6d6596954ac239bbcddf00c6cb64c5a", "fusion_lon": 0.0, "type": "electric_scooter", "name": "f6d6596954ac239bbcddf00c6cb64c5a", "rental_uris": {"android": "https://dc.lft.to/lastmile_qr_scan", "ios": "https://dc.lft.to/lastmile_qr_scan"}, "fusion_lat": 0.0, "lat": 38.88631766666666, "is_disabled": 0, "lon": -77.031697, "is_reserved": 0}, {"bike_id": "1781e4ee352d7be357bec76d888159df", "fusion_lon": 0.0, "type": "electric_scooter", "name": "1781e4ee352d7be357bec76d888159df", "rental_uris": {"android": "https://dc.lft.to/lastmile_qr_scan", "ios": "https://dc.lft.to/lastmile_qr_scan"}, "fusion_lat": 0.0, "lat": 38.915412333333336, "is_disabled": 0, "lon": -77.012256, "is_reserved": 0}, {"bike_id": "6f75c7a024f81eb35b51ad81b49ade2f", "fusion_lon": 0.0, "type": "electric_scooter", "name": "6f75c7a024f81eb35b51ad81b49ade2f", "rental_uris": {"android": "https://dc.lft.to/lastmile_qr_scan", "ios": "https://dc.lft.to/lastmile_qr_scan"}, "fusion_lat": 0.0, "lat": 38.90415816666667, "is_disabled": 0, "lon": -77.03267716666667, "is_reserved": 0}, {"bike_id": "ecb98b4ecf83e4ed7f86920f7161e9d4", "fusion_lon": 0.0, "type": "electric_scooter", "name": "ecb98b4ecf83e4ed7f86920f7161e9d4", "rental_uris": {"android": "https://dc.lft.to/lastmile_qr_scan", "ios": "https://dc.lft.to/lastmile_qr_scan"}, "fusion_lat": 0.0, "lat": 38.8933685, "is_disabled": 0, "lon": -77.04661183333333, "is_reserved": 0}, {"bike_id": "c9dc4e8475b74da16346c7f49c144fc2", "fusion_lon": 0.0, "type": "electric_scooter", "name": "c9dc4e8475b74da16346c7f49c144fc2", "rental_uris": {"android": "https://dc.lft.to/lastmile_qr_scan", "ios": "https://dc.lft.to/lastmile_qr_scan"}, "fusion_lat": 0.0, "lat": 38.902226166666665, "is_disabled": 0, "lon": -77.0021265, "is_reserved": 0}, {"bike_id": "2f0b649fc0e90bfde7d52ca8c0ffbc45", "fusion_lon": 0.0, "type": "electric_bike", "name": "2f0b649fc0e90bfde7d52ca8c0ffbc45", "rental_uris": {"android": "https://dc.lft.to/lastmile_qr_scan", "ios": "https://dc.lft.to/lastmile_qr_scan"}, "fusion_lat": 0.0, "lat": 38.91735583333333, "is_disabled": 0, "lon": -77.001687, "is_reserved": 0}, {"bike_id": "9c73e2bcaa1ed5b037ff037146b025c0", "fusion_lon": 0.0, "type": "electric_scooter", "name": "9c73e2bcaa1ed5b037ff037146b025c0", "rental_uris": {"android": "https://dc.lft.to/lastmile_qr_scan", "ios": "https://dc.lft.to/lastmile_qr_scan"}, "fusion_lat": 0.0, "lat": 38.907773166666665, "is_disabled": 0, "lon": -77.03862816666667, "is_reserved": 0}, {"bike_id": "e09650044e80d8670cce791d3cc38526", "fusion_lon": 0.0, "type": "electric_scooter", "name": "e09650044e80d8670cce791d3cc38526", "rental_uris": {"android": "https://dc.lft.to/lastmile_qr_scan", "ios": "https://dc.lft.to/lastmile_qr_scan"}, "fusion_lat": 0.0, "lat": 38.902838, "is_disabled": 0, "lon": -77.0220525, "is_reserved": 0}, {"bike_id": "f6455a5cf3dfd5d2a57dc00d9facd16e", "fusion_lon": 0.0, "type": "electric_scooter", "name": "f6455a5cf3dfd5d2a57dc00d9facd16e", "rental_uris": {"android": "https://dc.lft.to/lastmile_qr_scan", "ios": "https://dc.lft.to/lastmile_qr_scan"}, "fusion_lat": 0.0, "lat": 38.90213516666667, "is_disabled": 0, "lon": -77.02201883333333, "is_reserved": 0}, {"bike_id": "c4f56c9b98562b2397e785085ead8877", "fusion_lon": 0.0, "type": "electric_scooter", "name": "c4f56c9b98562b2397e785085ead8877", "rental_uris": {"android": "https://dc.lft.to/lastmile_qr_scan", "ios": "https://dc.lft.to/lastmile_qr_scan"}, "fusion_lat": 0.0, "lat": 38.89963383333333, "is_disabled": 0, "lon": -76.93428933333334, "is_reserved": 0}, {"bike_id": "c335f628a9b2e74a3abc4c0833ca56e1", "fusion_lon": 0.0, "type": "electric_scooter", "name": "c335f628a9b2e74a3abc4c0833ca56e1", "rental_uris": {"android": "https://dc.lft.to/lastmile_qr_scan", "ios": "https://dc.lft.to/lastmile_qr_scan"}, "fusion_lat": 0.0, "lat": 38.9080485, "is_disabled": 0, "lon": -77.05142516666666, "is_reserved": 0}, {"bike_id": "6891d9ac9fcc092e87f3a389af949acf", "fusion_lon": 0.0, "type": "electric_scooter", "name": "6891d9ac9fcc092e87f3a389af949acf", "rental_uris": {"android": "https://dc.lft.to/lastmile_qr_scan", "ios": "https://dc.lft.to/lastmile_qr_scan"}, "fusion_lat": 0.0, "lat": 38.91479566666667, "is_disabled": 0, "lon": -77.01454033333333, "is_reserved": 0}, {"bike_id": "294435f4632406b58cd07aaf89ddebcb", "fusion_lon": 0.0, "type": "electric_scooter", "name": "294435f4632406b58cd07aaf89ddebcb", "rental_uris": {"android": "https://dc.lft.to/lastmile_qr_scan", "ios": "https://dc.lft.to/lastmile_qr_scan"}, "fusion_lat": 0.0, "lat": 38.917869833333334, "is_disabled": 0, "lon": -77.02304366666667, "is_reserved": 0}, {"bike_id": "f0909043a7285a633a5ed77b75cf1a8f", "fusion_lon": 0.0, "type": "electric_scooter", "name": "f0909043a7285a633a5ed77b75cf1a8f", "rental_uris": {"android": "https://dc.lft.to/lastmile_qr_scan", "ios": "https://dc.lft.to/lastmile_qr_scan"}, "fusion_lat": 0.0, "lat": 38.933261, "is_disabled": 0, "lon": -76.990947, "is_reserved": 0}, {"bike_id": "b3fd8a24f97658120ebc2791d88d68ce", "fusion_lon": 0.0, "type": "electric_scooter", "name": "b3fd8a24f97658120ebc2791d88d68ce", "rental_uris": {"android": "https://dc.lft.to/lastmile_qr_scan", "ios": "https://dc.lft.to/lastmile_qr_scan"}, "fusion_lat": 0.0, "lat": 38.934843, "is_disabled": 0, "lon": -77.02415733333333, "is_reserved": 0}, {"bike_id": "2ae2dc6c388ab89c866265841badb027", "fusion_lon": 0.0, "type": "electric_scooter", "name": "2ae2dc6c388ab89c866265841badb027", "rental_uris": {"android": "https://dc.lft.to/lastmile_qr_scan", "ios": "https://dc.lft.to/lastmile_qr_scan"}, "fusion_lat": 0.0, "lat": 38.90480316666667, "is_disabled": 0, "lon": -77.019964, "is_reserved": 0}, {"bike_id": "1af97a20c81dcaab1b5d8d2db545226e", "fusion_lon": 0.0, "type": "electric_scooter", "name": "1af97a20c81dcaab1b5d8d2db545226e", "rental_uris": {"android": "https://dc.lft.to/lastmile_qr_scan", "ios": "https://dc.lft.to/lastmile_qr_scan"}, "fusion_lat": 0.0, "lat": 38.900252, "is_disabled": 0, "lon": -76.9987355, "is_reserved": 0}, {"bike_id": "6dd84ae18adf7d86b21669ff2845bd72", "fusion_lon": 0.0, "type": "electric_scooter", "name": "6dd84ae18adf7d86b21669ff2845bd72", "rental_uris": {"android": "https://dc.lft.to/lastmile_qr_scan", "ios": "https://dc.lft.to/lastmile_qr_scan"}, "fusion_lat": 0.0, "lat": 38.86506466666667, "is_disabled": 0, "lon": -76.99002966666667, "is_reserved": 0}, {"bike_id": "b227b41790c6d408a2d8103b5572aeb0", "fusion_lon": 0.0, "type": "electric_scooter", "name": "b227b41790c6d408a2d8103b5572aeb0", "rental_uris": {"android": "https://dc.lft.to/lastmile_qr_scan", "ios": "https://dc.lft.to/lastmile_qr_scan"}, "fusion_lat": 0.0, "lat": 38.90138683333333, "is_disabled": 0, "lon": -76.99417416666667, "is_reserved": 0}, {"bike_id": "a21df225957d87e3f7c42404fd6994b0", "fusion_lon": 0.0, "type": "electric_scooter", "name": "a21df225957d87e3f7c42404fd6994b0", "rental_uris": {"android": "https://dc.lft.to/lastmile_qr_scan", "ios": "https://dc.lft.to/lastmile_qr_scan"}, "fusion_lat": 0.0, "lat": 38.89865266666666, "is_disabled": 0, "lon": -76.97681866666667, "is_reserved": 0}, {"bike_id": "53f76170b7378830d6dc339d6e6467ef", "fusion_lon": 0.0, "type": "electric_scooter", "name": "53f76170b7378830d6dc339d6e6467ef", "rental_uris": {"android": "https://dc.lft.to/lastmile_qr_scan", "ios": "https://dc.lft.to/lastmile_qr_scan"}, "fusion_lat": 0.0, "lat": 38.91348333333333, "is_disabled": 0, "lon": -77.01510366666666, "is_reserved": 0}, {"bike_id": "7d4eb71fcd82bbdeebaff5c63470298c", "fusion_lon": 0.0, "type": "electric_scooter", "name": "7d4eb71fcd82bbdeebaff5c63470298c", "rental_uris": {"android": "https://dc.lft.to/lastmile_qr_scan", "ios": "https://dc.lft.to/lastmile_qr_scan"}, "fusion_lat": 0.0, "lat": 38.90268533333333, "is_disabled": 0, "lon": -77.02654516666666, "is_reserved": 0}, {"bike_id": "393b7f3838f166207cc724bfcb5a4656", "fusion_lon": 0.0, "type": "electric_scooter", "name": "393b7f3838f166207cc724bfcb5a4656", "rental_uris": {"android": "https://dc.lft.to/lastmile_qr_scan", "ios": "https://dc.lft.to/lastmile_qr_scan"}, "fusion_lat": 0.0, "lat": 38.892470833333334, "is_disabled": 0, "lon": -77.02816533333333, "is_reserved": 0}, {"bike_id": "91afa92ec831cdafacaa8f941d0443a6", "fusion_lon": 0.0, "type": "electric_bike", "name": "91afa92ec831cdafacaa8f941d0443a6", "rental_uris": {"android": "https://dc.lft.to/lastmile_qr_scan", "ios": "https://dc.lft.to/lastmile_qr_scan"}, "fusion_lat": 0.0, "lat": 38.97384983333333, "is_disabled": 0, "lon": -77.06475666666667, "is_reserved": 0}, {"bike_id": "35b05cb9487dac0c7d9a4aa381652507", "fusion_lon": 0.0, "type": "electric_scooter", "name": "35b05cb9487dac0c7d9a4aa381652507", "rental_uris": {"android": "https://dc.lft.to/lastmile_qr_scan", "ios": "https://dc.lft.to/lastmile_qr_scan"}, "fusion_lat": 0.0, "lat": 38.879245166666664, "is_disabled": 0, "lon": -76.991691, "is_reserved": 0}, {"bike_id": "dae369a0e6cb5b3c991fc0da3c96b121", "fusion_lon": 0.0, "type": "electric_scooter", "name": "dae369a0e6cb5b3c991fc0da3c96b121", "rental_uris": {"android": "https://dc.lft.to/lastmile_qr_scan", "ios": "https://dc.lft.to/lastmile_qr_scan"}, "fusion_lat": 0.0, "lat": 38.9075095, "is_disabled": 0, "lon": -76.99883533333333, "is_reserved": 0}, {"bike_id": "4e5ee8eebcc4faf56b49b2f7c6a275f3", "fusion_lon": 0.0, "type": "electric_scooter", "name": "4e5ee8eebcc4faf56b49b2f7c6a275f3", "rental_uris": {"android": "https://dc.lft.to/lastmile_qr_scan", "ios": "https://dc.lft.to/lastmile_qr_scan"}, "fusion_lat": 0.0, "lat": 38.90023983333333, "is_disabled": 0, "lon": -76.99870966666667, "is_reserved": 0}, {"bike_id": "538ce49d06e764a2a3f1ec293b08e901", "fusion_lon": 0.0, "type": "electric_scooter", "name": "538ce49d06e764a2a3f1ec293b08e901", "rental_uris": {"android": "https://dc.lft.to/lastmile_qr_scan", "ios": "https://dc.lft.to/lastmile_qr_scan"}, "fusion_lat": 0.0, "lat": 38.910309, "is_disabled": 0, "lon": -77.02925133333333, "is_reserved": 0}, {"bike_id": "85e3891d9ed8e17a21a26a9e27334d6d", "fusion_lon": 0.0, "type": "electric_scooter", "name": "85e3891d9ed8e17a21a26a9e27334d6d", "rental_uris": {"android": "https://dc.lft.to/lastmile_qr_scan", "ios": "https://dc.lft.to/lastmile_qr_scan"}, "fusion_lat": 0.0, "lat": 38.904751, "is_disabled": 0, "lon": -77.03482466666667, "is_reserved": 0}, {"bike_id": "58616a5511bd54c97b6c43a505bdb1a1", "fusion_lon": 0.0, "type": "electric_scooter", "name": "58616a5511bd54c97b6c43a505bdb1a1", "rental_uris": {"android": "https://dc.lft.to/lastmile_qr_scan", "ios": "https://dc.lft.to/lastmile_qr_scan"}, "fusion_lat": 0.0, "lat": 38.92149883333333, "is_disabled": 0, "lon": -77.0338115, "is_reserved": 0}, {"bike_id": "58df11c47c40de449ef6c140e0a895c5", "fusion_lon": 0.0, "type": "electric_scooter", "name": "58df11c47c40de449ef6c140e0a895c5", "rental_uris": {"android": "https://dc.lft.to/lastmile_qr_scan", "ios": "https://dc.lft.to/lastmile_qr_scan"}, "fusion_lat": 0.0, "lat": 38.91848266666667, "is_disabled": 0, "lon": -76.96557883333334, "is_reserved": 0}, {"bike_id": "59214d9319992c8a41cadd2eba964a21", "fusion_lon": 0.0, "type": "electric_scooter", "name": "59214d9319992c8a41cadd2eba964a21", "rental_uris": {"android": "https://dc.lft.to/lastmile_qr_scan", "ios": "https://dc.lft.to/lastmile_qr_scan"}, "fusion_lat": 0.0, "lat": 38.914168, "is_disabled": 0, "lon": -77.03164533333333, "is_reserved": 0}, {"bike_id": "60a77d16b8ea47558d1669318f7ae6b4", "fusion_lon": 0.0, "type": "electric_scooter", "name": "60a77d16b8ea47558d1669318f7ae6b4", "rental_uris": {"android": "https://dc.lft.to/lastmile_qr_scan", "ios": "https://dc.lft.to/lastmile_qr_scan"}, "fusion_lat": 0.0, "lat": 38.908774333333334, "is_disabled": 0, "lon": -77.04282883333333, "is_reserved": 0}, {"bike_id": "d45ce49a6c7a6da95b1b57c82c956f0a", "fusion_lon": 0.0, "type": "electric_scooter", "name": "d45ce49a6c7a6da95b1b57c82c956f0a", "rental_uris": {"android": "https://dc.lft.to/lastmile_qr_scan", "ios": "https://dc.lft.to/lastmile_qr_scan"}, "fusion_lat": 0.0, "lat": 38.905733166666664, "is_disabled": 0, "lon": -77.0627615, "is_reserved": 0}, {"bike_id": "54801d802bd437aadba8f88506aa61ec", "fusion_lon": 0.0, "type": "electric_scooter", "name": "54801d802bd437aadba8f88506aa61ec", "rental_uris": {"android": "https://dc.lft.to/lastmile_qr_scan", "ios": "https://dc.lft.to/lastmile_qr_scan"}, "fusion_lat": 0.0, "lat": 38.890932, "is_disabled": 0, "lon": -76.9978835, "is_reserved": 0}, {"bike_id": "ab9a0bc068f349c7e946a856475e8ac4", "fusion_lon": 0.0, "type": "electric_scooter", "name": "ab9a0bc068f349c7e946a856475e8ac4", "rental_uris": {"android": "https://dc.lft.to/lastmile_qr_scan", "ios": "https://dc.lft.to/lastmile_qr_scan"}, "fusion_lat": 0.0, "lat": 38.894087666666664, "is_disabled": 0, "lon": -76.98559083333333, "is_reserved": 0}, {"bike_id": "8e9db0ab080a4e942e47bf1fac0445f0", "fusion_lon": 0.0, "type": "electric_scooter", "name": "8e9db0ab080a4e942e47bf1fac0445f0", "rental_uris": {"android": "https://dc.lft.to/lastmile_qr_scan", "ios": "https://dc.lft.to/lastmile_qr_scan"}, "fusion_lat": 0.0, "lat": 38.9251015, "is_disabled": 0, "lon": -77.02580316666666, "is_reserved": 0}, {"bike_id": "98e7cb0504e1b198913b289edd6029cc", "fusion_lon": 0.0, "type": "electric_scooter", "name": "98e7cb0504e1b198913b289edd6029cc", "rental_uris": {"android": "https://dc.lft.to/lastmile_qr_scan", "ios": "https://dc.lft.to/lastmile_qr_scan"}, "fusion_lat": 0.0, "lat": 38.9366935, "is_disabled": 0, "lon": -77.05933283333333, "is_reserved": 0}, {"bike_id": "9d2df3f815ebffa17428fdbb3c43f5ec", "fusion_lon": 0.0, "type": "electric_scooter", "name": "9d2df3f815ebffa17428fdbb3c43f5ec", "rental_uris": {"android": "https://dc.lft.to/lastmile_qr_scan", "ios": "https://dc.lft.to/lastmile_qr_scan"}, "fusion_lat": 0.0, "lat": 38.927761333333336, "is_disabled": 0, "lon": -77.0279145, "is_reserved": 0}, {"bike_id": "c015d65b3dc01d339c43e5429d1269c2", "fusion_lon": 0.0, "type": "electric_bike", "name": "c015d65b3dc01d339c43e5429d1269c2", "rental_uris": {"android": "https://dc.lft.to/lastmile_qr_scan", "ios": "https://dc.lft.to/lastmile_qr_scan"}, "fusion_lat": 0.0, "lat": 38.94925633333333, "is_disabled": 0, "lon": -77.00793133333333, "is_reserved": 0}, {"bike_id": "1fe6c4d865fb096b0a4ce792d63b3f02", "fusion_lon": 0.0, "type": "electric_scooter", "name": "1fe6c4d865fb096b0a4ce792d63b3f02", "rental_uris": {"android": "https://dc.lft.to/lastmile_qr_scan", "ios": "https://dc.lft.to/lastmile_qr_scan"}, "fusion_lat": 0.0, "lat": 38.90418966666667, "is_disabled": 0, "lon": -77.02872216666667, "is_reserved": 0}, {"bike_id": "51cf4e566708bb0304940d9d06dd309d", "fusion_lon": 0.0, "type": "electric_scooter", "name": "51cf4e566708bb0304940d9d06dd309d", "rental_uris": {"android": "https://dc.lft.to/lastmile_qr_scan", "ios": "https://dc.lft.to/lastmile_qr_scan"}, "fusion_lat": 0.0, "lat": 38.951341666666664, "is_disabled": 0, "lon": -77.02723916666666, "is_reserved": 0}, {"bike_id": "b13aadd44b0d68a5500d5ed76695a72a", "fusion_lon": 0.0, "type": "electric_scooter", "name": "b13aadd44b0d68a5500d5ed76695a72a", "rental_uris": {"android": "https://dc.lft.to/lastmile_qr_scan", "ios": "https://dc.lft.to/lastmile_qr_scan"}, "fusion_lat": 0.0, "lat": 38.93012916666667, "is_disabled": 0, "lon": -77.02106766666667, "is_reserved": 0}, {"bike_id": "c18a0dfd201b37334367cc9bb9b2a84d", "fusion_lon": 0.0, "type": "electric_scooter", "name": "c18a0dfd201b37334367cc9bb9b2a84d", "rental_uris": {"android": "https://dc.lft.to/lastmile_qr_scan", "ios": "https://dc.lft.to/lastmile_qr_scan"}, "fusion_lat": 0.0, "lat": 38.91553733333333, "is_disabled": 0, "lon": -77.02428133333333, "is_reserved": 0}, {"bike_id": "0f592ba6a1a3d49827ec04f2ca17d1c9", "fusion_lon": 0.0, "type": "electric_scooter", "name": "0f592ba6a1a3d49827ec04f2ca17d1c9", "rental_uris": {"android": "https://dc.lft.to/lastmile_qr_scan", "ios": "https://dc.lft.to/lastmile_qr_scan"}, "fusion_lat": 0.0, "lat": 38.93589733333334, "is_disabled": 0, "lon": -77.03364533333334, "is_reserved": 0},