{"data": {"bikes": [{"rental_uris": {"ios": "https://dc.lft.to/lastmile_qr_scan", "android": "https://dc.lft.to/lastmile_qr_scan"}, "type": "electric_scooter", "name": "40afd9a9da1da39b6c67e656a189d324", "is_reserved": 0, "lon": -77.02725616666666, "is_disabled": 0, "fusion_lat": 0.0, "lat": 38.92491233333333, "bike_id": "40afd9a9da1da39b6c67e656a189d324", "fusion_lon": 0.0}, {"rental_uris": {"ios": "https://dc.lft.to/lastmile_qr_scan", "android": "https://dc.lft.to/lastmile_qr_scan"}, "type": "electric_scooter", "name": "262eb9c8cbd1b7209322a1ea64a2f3da", "is_reserved": 0, "lon": -76.98082966666666, "is_disabled": 0, "fusion_lat": 0.0, "lat": 38.9041655, "bike_id": "262eb9c8cbd1b7209322a1ea64a2f3da", "fusion_lon": 0.0}, {"rental_uris": {"ios": "https://dc.lft.to/lastmile_qr_scan", "android": "https://dc.lft.to/lastmile_qr_scan"}, "type": "electric_scooter", "name": "88dbc465eef77598c254931fd4b13d68", "is_reserved": 0, "lon": -77.04675483333334, "is_disabled": 0, "fusion_lat": 0.0, "lat": 38.892258, "bike_id": "88dbc465eef77598c254931fd4b13d68", "fusion_lon": 0.0}, {"rental_uris": {"ios": "https://dc.lft.to/lastmile_qr_scan", "android": "https://dc.lft.to/lastmile_qr_scan"}, "type": "electric_scooter", "name": "787cc4540752dee485099ffb2b7a5c01", "is_reserved": 0, "lon": -77.02278033333333, "is_disabled": 0, "fusion_lat": 0.0, "lat": 38.92662766666667, "bike_id": "787cc4540752dee485099ffb2b7a5c01", "fusion_lon": 0.0}, {"rental_uris": {"ios": "https://dc.lft.to/lastmile_qr_scan", "android": "https://dc.lft.to/lastmile_qr_scan"}, "type": "electric_scooter", "name": "d2262a580e24c3e2567fa275d68814b1", "is_reserved": 0, "lon": -77.02445083333333, "is_disabled": 0, "fusion_lat": 0.0, "lat": 38.91785633333333, "bike_id": "d2262a580e24c3e2567fa275d68814b1", "fusion_lon": 0.0}, {"rental_uris": {"ios": "https://dc.lft.to/lastmile_qr_scan", "android": "https://dc.lft.to/lastmile_qr_scan"}, "type": "electric_scooter", "name": "5204bf5cb164596d3dbbf73608b24d48", "is_reserved": 0, "lon": -77.03476133333334, "is_disabled": 0, "fusion_lat": 0.0, "lat": 38.9303505, "bike_id": "5204bf5cb164596d3dbbf73608b24d48", "fusion_lon": 0.0}, {"rental_uris": {"ios": "https://dc.lft.to/lastmile_qr_scan", "android": "https://dc.lft.to/lastmile_qr_scan"}, "type": "electric_scooter", "name": "0fb2ca89c23153d2f574414cf42b7ba3", "is_reserved": 0, "lon": -77.039618, "is_disabled": 0, "fusion_lat": 0.0, "lat": 38.9315705, "bike_id": "0fb2ca89c23153d2f574414cf42b7ba3", "fusion_lon": 0.0}, {"rental_uris": {"ios": "https://dc.lft.to/lastmile_qr_scan", "android": "https://dc.lft.to/lastmile_qr_scan"}, "type": "electric_bike", "name": "2a97d39332326ec7509db4389b74db9f", "is_reserved": 0, "lon": -77.04349766666667, "is_disabled": 0, "fusion_lat": 0.0, "lat": 38.89730566666667, "bike_id": "2a97d39332326ec7509db4389b74db9f", "fusion_lon": 0.0}, {"rental_uris": {"ios": "https://dc.lft.to/lastmile_qr_scan", "android": "https://dc.lft.to/lastmile_qr_scan"}, "type": "electric_scooter", "name": "281c7a293792fe9df339710dae745aca", "is_reserved": 0, "lon": -77.05412466666667, "is_disabled": 0, "fusion_lat": 0.0, "lat": 38.9283185, "bike_id": "281c7a293792fe9df339710dae745aca", "fusion_lon": 0.0}, {"rental_uris": {"ios": "https://dc.lft.to/lastmile_qr_scan", "android": "https://dc.lft.to/lastmile_qr_scan"}, "type": "electric_scooter", "name": "23006e08c8f3d4e8040b7eeee61a5261", "is_reserved": 0, "lon": -77.02202783333334, "is_disabled": 0, "fusion_lat": 0.0, "lat": 38.87900416666667, "bike_id": "23006e08c8f3d4e8040b7eeee61a5261", "fusion_lon": 0.0}, {"rental_uris": {"ios": "https://dc.lft.to/lastmile_qr_scan", "android": "https://dc.lft.to/lastmile_qr_scan"}, "type": "electric_scooter", "name": "87bb29d2d2f85fcdc6f42a1a6911da44", "is_reserved": 0, "lon": -77.02164616666667, "is_disabled": 0, "fusion_lat": 0.0, "lat": 38.92501716666666, "bike_id": "87bb29d2d2f85fcdc6f42a1a6911da44", "fusion_lon": 0.0}, {"rental_uris": {"ios": "https://dc.lft.to/lastmile_qr_scan", "android": "https://dc.lft.to/lastmile_qr_scan"}, "type": "electric_scooter", "name": "eae5adc37c2ce826841ef5c2f935c4c0", "is_reserved": 0, "lon": -77.042403, "is_disabled": 0, "fusion_lat": 0.0, "lat": 38.92436983333333, "bike_id": "eae5adc37c2ce826841ef5c2f935c4c0", "fusion_lon": 0.0}, {"rental_uris": {"ios": "https://dc.lft.to/lastmile_qr_scan", "android": "https://dc.lft.to/lastmile_qr_scan"}, "type": "electric_scooter", "name": "6f4d143eff330e5e24643fa111443b0a", "is_reserved": 0, "lon": -77.00737083333334, "is_disabled": 0, "fusion_lat": 0.0, "lat": 38.87854166666666, "bike_id": "6f4d143eff330e5e24643fa111443b0a", "fusion_lon": 0.0}, {"rental_uris": {"ios": "https://dc.lft.to/lastmile_qr_scan", "android": "https://dc.lft.to/lastmile_qr_scan"}, "type": "electric_scooter", "name": "34dd83cbab6d799c64e4dea64610a7e7", "is_reserved": 0, "lon": -77.03254233333334, "is_disabled": 0, "fusion_lat": 0.0, "lat": 38.904564666666666, "bike_id": "34dd83cbab6d799c64e4dea64610a7e7", "fusion_lon": 0.0}, {"rental_uris": {"ios": "https://dc.lft.to/lastmile_qr_scan", "android": "https://dc.lft.to/lastmile_qr_scan"}, "type": "electric_scooter", "name": "94219fc00f3b59485b622756c142e83a", "is_reserved": 0, "lon": -77.04671, "is_disabled": 0, "fusion_lat": 0.0, "lat": 38.89285433333333, "bike_id": "94219fc00f3b59485b622756c142e83a", "fusion_lon": 0.0}, {"rental_uris": {"ios": "https://dc.lft.to/lastmile_qr_scan", "android": "https://dc.lft.to/lastmile_qr_scan"}, "type": "electric_scooter", "name": "090067f61d4e28454762cef065053d16", "is_reserved": 0, "lon": -77.0459975, "is_disabled": 0, "fusion_lat": 0.0, "lat": 38.92337966666667, "bike_id": "090067f61d4e28454762cef065053d16", "fusion_lon": 0.0}, {"rental_uris": {"ios": "https://dc.lft.to/lastmile_qr_scan", "android": "https://dc.lft.to/lastmile_qr_scan"}, "type": "electric_scooter", "name": "05b1cba69cafb160ddbaea5ef04dc039", "is_reserved": 0, "lon": -77.06607066666666, "is_disabled": 0, "fusion_lat": 0.0, "lat": 38.91115683333334, "bike_id": "05b1cba69cafb160ddbaea5ef04dc039", "fusion_lon": 0.0}, {"rental_uris": {"ios": "https://dc.lft.to/lastmile_qr_scan", "android": "https://dc.lft.to/lastmile_qr_scan"}, "type": "electric_scooter", "name": "d63eac41ac3fbc9e9f09eba5faca40df", "is_reserved": 0, "lon": -77.04754483333333, "is_disabled": 0, "fusion_lat": 0.0, "lat": 38.895896, "bike_id": "d63eac41ac3fbc9e9f09eba5faca40df", "fusion_lon": 0.0}, {"rental_uris": {"ios": "https://dc.lft.to/lastmile_qr_scan", "android": "https://dc.lft.to/lastmile_qr_scan"}, "type": "electric_scooter", "name": "b13321312d4aed0a9d1a0a076268a0d4", "is_reserved": 0, "lon": -77.04184016666666, "is_disabled": 0, "fusion_lat": 0.0, "lat": 38.910984166666665, "bike_id": "b13321312d4aed0a9d1a0a076268a0d4", "fusion_lon": 0.0}, {"rental_uris": {"ios": "https://dc.lft.to/lastmile_qr_scan", "android": "https://dc.lft.to/lastmile_qr_scan"}, "type": "electric_scooter", "name": "5ed8bd9932ed1b13c00e287f9977612c", "is_reserved": 0, "lon": -77.068614, "is_disabled": 0, "fusion_lat": 0.0, "lat": 38.9528095, "bike_id": "5ed8bd9932ed1b13c00e287f9977612c", "fusion_lon": 0.0}, {"rental_uris": {"ios": "https://dc.lft.to/lastmile_qr_scan", "android": "https://dc.lft.to/lastmile_qr_scan"}, "type": "electric_scooter", "name": "0f69c90848fdf7a5efe40a292f4c7bb0", "is_reserved": 0, "lon": -77.01745916666667, "is_disabled": 0, "fusion_lat": 0.0, "lat": 38.914168833333335, "bike_id": "0f69c90848fdf7a5efe40a292f4c7bb0", "fusion_lon": 0.0}, {"rental_uris": {"ios": "https://dc.lft.to/lastmile_qr_scan", "android": "https://dc.lft.to/lastmile_qr_scan"}, "type": "electric_bike", "name": "9465e844090808237ed08a482ae962e9", "is_reserved": 0, "lon": -76.99921416666666, "is_disabled": 0, "fusion_lat": 0.0, "lat": 38.99470216666667, "bike_id": "9465e844090808237ed08a482ae962e9", "fusion_lon": 0.0}, {"rental_uris": {"ios": "https://dc.lft.to/lastmile_qr_scan", "android": "https://dc.lft.to/lastmile_qr_scan"}, "type": "electric_scooter", "name": "bcb05457a2131ffad2a8501dd7337fca", "is_reserved": 0, "lon": -76.9949055, "is_disabled": 0, "fusion_lat": 0.0, "lat": 38.89974333333333, "bike_id": "bcb05457a2131ffad2a8501dd7337fca", "fusion_lon": 0.0}, {"rental_uris": {"ios": "https://dc.lft.to/lastmile_qr_scan", "android": "https://dc.lft.to/lastmile_qr_scan"}, "type": "electric_scooter", "name": "8d38037c2c9220dcb0d3f3d16d89f637", "is_reserved": 0, "lon": -77.083396, "is_disabled": 0, "fusion_lat": 0.0, "lat": 38.89419683333333, "bike_id": "8d38037c2c9220dcb0d3f3d16d89f637", "fusion_lon": 0.0}, {"rental_uris": {"ios": "https://dc.lft.to/lastmile_qr_scan", "android": "https://dc.lft.to/lastmile_qr_scan"}, "type": "electric_scooter", "name": "b91f89d00609f9759983936f02d732fc", "is_reserved": 0, "lon": -77.03350283333333, "is_disabled": 0, "fusion_lat": 0.0, "lat": 38.9024, "bike_id": "b91f89d00609f9759983936f02d732fc", "fusion_lon": 0.0}, {"rental_uris": {"ios": "https://dc.lft.to/lastmile_qr_scan", "android": "https://dc.lft.to/lastmile_qr_scan"}, "type": "electric_scooter", "name": "376333fb2d85978b06b5316847febaba", "is_reserved": 0, "lon": -77.018108, "is_disabled": 0, "fusion_lat": 0.0, "lat": 38.922186833333335, "bike_id": "376333fb2d85978b06b5316847febaba", "fusion_lon": 0.0}, {"rental_uris": {"ios": "https://dc.lft.to/lastmile_qr_scan", "android": "https://dc.lft.to/lastmile_qr_scan"}, "type": "electric_scooter", "name": "64b053ecca495a52458cbf408929bcf6", "is_reserved": 0, "lon": -76.99763916666667, "is_disabled": 0, "fusion_lat": 0.0, "lat": 38.92294583333333, "bike_id": "64b053ecca495a52458cbf408929bcf6", "fusion_lon": 0.0}, {"rental_uris": {"ios": "https://dc.lft.to/lastmile_qr_scan", "android": "https://dc.lft.to/lastmile_qr_scan"}, "type": "electric_bike", "name": "de4eb1171770b9c9c8cbe0cbc9aff54b", "is_reserved": 0, "lon": -77.06422383333333, "is_disabled": 0, "fusion_lat": 0.0, "lat": 38.90645766666667, "bike_id": "de4eb1171770b9c9c8cbe0cbc9aff54b", "fusion_lon": 0.0}, {"rental_uris": {"ios": "https://dc.lft.to/lastmile_qr_scan", "android": "https://dc.lft.to/lastmile_qr_scan"}, "type": "electric_scooter", "name": "39ccec61ca24855db82170dfe0563aab", "is_reserved": 0, "lon": -77.01362616666667, "is_disabled": 0, "fusion_lat": 0.0, "lat": 38.91930516666667, "bike_id": "39ccec61ca24855db82170dfe0563aab", "fusion_lon": 0.0}, {"rental_uris": {"ios": "https://dc.lft.to/lastmile_qr_scan", "android": "https://dc.lft.to/lastmile_qr_scan"}, "type": "electric_scooter", "name": "83d97b4e4f92fd6b27e2ce8c24a3ac4f", "is_reserved": 0, "lon": -77.01575233333334, "is_disabled": 0, "fusion_lat": 0.0, "lat": 38.87661283333333, "bike_id": "83d97b4e4f92fd6b27e2ce8c24a3ac4f", "fusion_lon": 0.0}, {"rental_uris": {"ios": "https://dc.lft.to/lastmile_qr_scan", "android": "https://dc.lft.to/lastmile_qr_scan"}, "type": "electric_scooter", "name": "403db7dc50394c88baf81e03729417a7", "is_reserved": 0, "lon": -77.04337666666666, "is_disabled": 0, "fusion_lat": 0.0, "lat": 38.913826666666665, "bike_id": "403db7dc50394c88baf81e03729417a7", "fusion_lon": 0.0}, {"rental_uris": {"ios": "https://dc.lft.to/lastmile_qr_scan", "android": "https://dc.lft.to/lastmile_qr_scan"}, "type": "electric_scooter", "name": "da5981aa337d81cc1d2e569baf9a3d06", "is_reserved": 0, "lon": -77.019024, "is_disabled": 0, "fusion_lat": 0.0, "lat": 38.90371016666667, "bike_id": "da5981aa337d81cc1d2e569baf9a3d06", "fusion_lon": 0.0}, {"rental_uris": {"ios": "https://dc.lft.to/lastmile_qr_scan", "android": "https://dc.lft.to/lastmile_qr_scan"}, "type": "electric_scooter", "name": "e7243084468650f9e73c19b05a1da3e3", "is_reserved": 0, "lon": -77.040043, "is_disabled": 0, "fusion_lat": 0.0, "lat": 38.88866616666667, "bike_id": "e7243084468650f9e73c19b05a1da3e3", "fusion_lon": 0.0}, {"rental_uris": {"ios": "https://dc.lft.to/lastmile_qr_scan", "android": "https://dc.lft.to/lastmile_qr_scan"}, "type": "electric_scooter", "name": "3530e4ad8891a93586335570beef0ed8", "is_reserved": 0, "lon": -77.02578433333333, "is_disabled": 0, "fusion_lat": 0.0, "lat": 38.8847625, "bike_id": "3530e4ad8891a93586335570beef0ed8", "fusion_lon": 0.0}, {"rental_uris": {"ios": "https://dc.lft.to/lastmile_qr_scan", "android": "https://dc.lft.to/lastmile_qr_scan"}, "type": "electric_scooter", "name": "3eef516dcbccb11936f56b99e11a3da3", "is_reserved": 0, "lon": -77.04534716666667, "is_disabled": 0, "fusion_lat": 0.0, "lat": 38.9111425, "bike_id": "3eef516dcbccb11936f56b99e11a3da3", "fusion_lon": 0.0}, {"rental_uris": {"ios": "https://dc.lft.to/lastmile_qr_scan", "android": "https://dc.lft.to/lastmile_qr_scan"}, "type": "electric_scooter", "name": "23b2d40a757ba92e689c344c51c7c464", "is_reserved": 0, "lon": -77.02319933333334, "is_disabled": 0, "fusion_lat": 0.0, "lat": 38.940201, "bike_id": "23b2d40a757ba92e689c344c51c7c464", "fusion_lon": 0.0}, {"rental_uris": {"ios": "https://dc.lft.to/lastmile_qr_scan", "android": "https://dc.lft.to/lastmile_qr_scan"}, "type": "electric_scooter", "name": "e303ecd79517c35b118bec2d04b21cab", "is_reserved": 0, "lon": -77.03949333333334, "is_disabled": 0, "fusion_lat": 0.0, "lat": 38.902518, "bike_id": "e303ecd79517c35b118bec2d04b21cab", "fusion_lon": 0.0}, {"rental_uris": {"ios": "https://dc.lft.to/lastmile_qr_scan", "android": "https://dc.lft.to/lastmile_qr_scan"}, "type": "electric_scooter", "name": "df2468fdb682c889744972f86b713f87", "is_reserved": 0, "lon": -77.01264616666667, "is_disabled": 0, "fusion_lat": 0.0, "lat": 38.897235333333334, "bike_id": "df2468fdb682c889744972f86b713f87", "fusion_lon": 0.0}, {"rental_uris": {"ios": "https://dc.lft.to/lastmile_qr_scan", "android": "https://dc.lft.to/lastmile_qr_scan"}, "type": "electric_scooter", "name": "da9528319b15c58430867da35e3ca1ba", "is_reserved": 0, "lon": -77.05204733333333, "is_disabled": 0, "fusion_lat": 0.0, "lat": 38.90357016666667, "bike_id": "da9528319b15c58430867da35e3ca1ba", "fusion_lon": 0.0}, {"rental_uris": {"ios": "https://dc.lft.to/lastmile_qr_scan", "android": "https://dc.lft.to/lastmile_qr_scan"}, "type": "electric_scooter", "name": "3e510d7eb75ffe7e6214eabc0b37986a", "is_reserved": 0, "lon": -77.07212683333333, "is_disabled": 0, "fusion_lat": 0.0, "lat": 38.9068075, "bike_id": "3e510d7eb75ffe7e6214eabc0b37986a", "fusion_lon": 0.0}, {"rental_uris": {"ios": "https://dc.lft.to/lastmile_qr_scan", "android": "https://dc.lft.to/lastmile_qr_scan"}, "type": "electric_scooter", "name": "a6500d3d5473ff777a3ef650f3b3195b", "is_reserved": 0, "lon": -76.98661666666666, "is_disabled": 0, "fusion_lat": 0.0, "lat": 38.90617866666667, "bike_id": "a6500d3d5473ff777a3ef650f3b3195b", "fusion_lon": 0.0}, {"rental_uris": {"ios": "https://dc.lft.to/lastmile_qr_scan", "android": "https://dc.lft.to/lastmile_qr_scan"}, "type": "electric_scooter", "name": "e73e3ded44e1c2693b7f438c9783bbca", "is_reserved": 0, "lon": -77.02964016666667, "is_disabled": 0, "fusion_lat": 0.0, "lat": 38.905006, "bike_id": "e73e3ded44e1c2693b7f438c9783bbca", "fusion_lon": 0.0}, {"rental_uris": {"ios": "https://dc.lft.to/lastmile_qr_scan", "android": "https://dc.lft.to/lastmile_qr_scan"}, "type": "electric_bike", "name": "6c7386b69ca548cd9fa87e60a73a2b91", "is_reserved": 0, "lon": -76.9525035, "is_disabled": 0, "fusion_lat": 0.0, "lat": 38.90697333333333, "bike_id": "6c7386b69ca548cd9fa87e60a73a2b91", "fusion_lon": 0.0}, {"rental_uris": {"ios": "https://dc.lft.to/lastmile_qr_scan", "android": "https://dc.lft.to/lastmile_qr_scan"}, "type": "electric_bike", "name": "2787af41de086b3e42ad5c175cfb6385", "is_reserved": 0, "lon": -77.07895783333333, "is_disabled": 0, "fusion_lat": 0.0, "lat": 38.8393435, "bike_id": "2787af41de086b3e42ad5c175cfb6385", "fusion_lon": 0.0}, {"rental_uris": {"ios": "https://dc.lft.to/lastmile_qr_scan", "android": "https://dc.lft.to/lastmile_qr_scan"}, "type": "electric_scooter", "name": "2f0d6387068f5fcb78c635cc7144fe16", "is_reserved": 0, "lon": -77.02393716666667, "is_disabled": 0, "fusion_lat": 0.0, "lat": 38.904089, "bike_id": "2f0d6387068f5fcb78c635cc7144fe16", "fusion_lon": 0.0}, {"rental_uris": {"ios": "https://dc.lft.to/lastmile_qr_scan", "android": "https://dc.lft.to/lastmile_qr_scan"}, "type": "electric_bike", "name": "d6a282473e5a3f39b53300b253577a8e", "is_reserved": 0, "lon": -77.024475, "is_disabled": 0, "fusion_lat": 0.0, "lat": 38.95745083333333, "bike_id": "d6a282473e5a3f39b53300b253577a8e", "fusion_lon": 0.0}, {"rental_uris": {"ios": "https://dc.lft.to/lastmile_qr_scan", "android": "https://dc.lft.to/lastmile_qr_scan"}, "type": "electric_scooter", "name": "8be7080c73b91af16fa112ce9c3b5ca0", "is_reserved": 0, "lon": -77.0128455, "is_disabled": 0, "fusion_lat": 0.0, "lat": 38.91038483333333, "bike_id": "8be7080c73b91af16fa112ce9c3b5ca0", "fusion_lon": 0.0}, {"rental_uris": {"ios": "https://dc.lft.to/lastmile_qr_scan", "android": "https://dc.lft.to/lastmile_qr_scan"}, "type": "electric_scooter", "name": "1cc8fa5b5cfc611836942486469a90be", "is_reserved": 0, "lon": -77.03342983333333, "is_disabled": 0, "fusion_lat": 0.0, "lat": 38.900028166666665, "bike_id": "1cc8fa5b5cfc611836942486469a90be", "fusion_lon": 0.0}, {"rental_uris": {"ios": "https://dc.lft.to/lastmile_qr_scan", "android": "https://dc.lft.to/lastmile_qr_scan"}, "type": "electric_scooter", "name": "c5d5e2c9e7e6a6448df7fef8dfbb1b86", "is_reserved": 0, "lon": -76.93182983333334, "is_disabled": 0, "fusion_lat": 0.0, "lat": 38.898793166666664, "bike_id": "c5d5e2c9e7e6a6448df7fef8dfbb1b86", "fusion_lon": 0.0}, {"rental_uris": {"ios": "https://dc.lft.to/lastmile_qr_scan", "android": "https://dc.lft.to/lastmile_qr_scan"}, "type": "electric_scooter", "name": "50ab3b63340e49ee23e27297e0c0a5f6", "is_reserved": 0, "lon": -77.03503833333333, "is_disabled": 0, "fusion_lat": 0.0, "lat": 38.90675533333334, "bike_id": "50ab3b63340e49ee23e27297e0c0a5f6", "fusion_lon": 0.0}, {"rental_uris": {"ios": "https://dc.lft.to/lastmile_qr_scan", "android": "https://dc.lft.to/lastmile_qr_scan"}, "type": "electric_scooter", "name": "8525058cf3a5d16ed3afddabf967e920", "is_reserved": 0, "lon": -77.07221616666666, "is_disabled": 0, "fusion_lat": 0.0, "lat": 38.919749, "bike_id": "8525058cf3a5d16ed3afddabf967e920", "fusion_lon": 0.0}, {"rental_uris": {"ios": "https://dc.lft.to/lastmile_qr_scan", "android": "https://dc.lft.to/lastmile_qr_scan"}, "type": "electric_scooter", "name": "83cd733365f8a66fcde81603f28fe042", "is_reserved": 0, "lon": -77.006268, "is_disabled": 0, "fusion_lat": 0.0, "lat": 38.8717705, "bike_id": "83cd733365f8a66fcde81603f28fe042", "fusion_lon": 0.0}, {"rental_uris": {"ios": "https://dc.lft.to/lastmile_qr_scan", "android": "https://dc.lft.to/lastmile_qr_scan"}, "type": "electric_scooter", "name": "e45218958eca4f4007afdea924ecf9f9", "is_reserved": 0, "lon": -77.063736, "is_disabled": 0, "fusion_lat": 0.0, "lat": 38.93560516666667, "bike_id": "e45218958eca4f4007afdea924ecf9f9", "fusion_lon": 0.0}, {"rental_uris": {"ios": "https://dc.lft.to/lastmile_qr_scan", "android": "https://dc.lft.to/lastmile_qr_scan"}, "type": "electric_scooter", "name": "fc7594587b96519b49d69cc76d6f5f3c", "is_reserved": 0, "lon": -77.03818033333333, "is_disabled": 0, "fusion_lat": 0.0, "lat": 38.9310935, "bike_id": "fc7594587b96519b49d69cc76d6f5f3c", "fusion_lon": 0.0}, {"rental_uris": {"ios": "https://dc.lft.to/lastmile_qr_scan", "android": "https://dc.lft.to/lastmile_qr_scan"}, "type": "electric_scooter", "name": "fb490412b2f07cf9ab58e789fa209792", "is_reserved": 0, "lon": -77.03474066666666, "is_disabled": 0, "fusion_lat": 0.0, "lat": 38.905614, "bike_id": "fb490412b2f07cf9ab58e789fa209792", "fusion_lon": 0.0}, {"rental_uris": {"ios": "https://dc.lft.to/lastmile_qr_scan", "android": "https://dc.lft.to/lastmile_qr_scan"}, "type": "electric_scooter", "name": "c9aad5b5bf3ed0836eee4444478b649d", "is_reserved": 0, "lon": -76.97718566666667, "is_disabled": 0, "fusion_lat": 0.0, "lat": 38.888221333333334, "bike_id": "c9aad5b5bf3ed0836eee4444478b649d", "fusion_lon": 0.0}, {"rental_uris": {"ios": "https://dc.lft.to/lastmile_qr_scan", "android": "https://dc.lft.to/lastmile_qr_scan"}, "type": "electric_bike", "name": "3ae478b586462f5189c761e7d2fa6fc9", "is_reserved": 0, "lon": -77.12649433333333, "is_disabled": 0, "fusion_lat": 0.0, "lat": 38.81909666666667, "bike_id": "3ae478b586462f5189c761e7d2fa6fc9", "fusion_lon": 0.0}, {"rental_uris": {"ios": "https://dc.lft.to/lastmile_qr_scan", "android": "https://dc.lft.to/lastmile_qr_scan"}, "type": "electric_scooter", "name": "7ef66d2b3a26d2b70cf6079f47bf97e6", "is_reserved": 0, "lon": -77.03361933333333, "is_disabled": 0, "fusion_lat": 0.0, "lat": 38.9010125, "bike_id": "7ef66d2b3a26d2b70cf6079f47bf97e6", "fusion_lon": 0.0}, {"rental_uris": {"ios": "https://dc.lft.to/lastmile_qr_scan", "android": "https://dc.lft.to/lastmile_qr_scan"}, "type": "electric_scooter", "name": "ecb53555c153759a1ac9bd7671f4aef6", "is_reserved": 0, "lon": -77.03506583333333, "is_disabled": 0, "fusion_lat": 0.0, "lat": 38.921523, "bike_id": "ecb53555c153759a1ac9bd7671f4aef6", "fusion_lon": 0.0}, {"rental_uris": {"ios": "https://dc.lft.to/lastmile_qr_scan", "android": "https://dc.lft.to/lastmile_qr_scan"}, "type": "electric_scooter", "name": "9da2555fb5c9439ffde7812fdcffa942", "is_reserved": 0, "lon": -77.0578725, "is_disabled": 0, "fusion_lat": 0.0, "lat": 38.905095333333335, "bike_id": "9da2555fb5c9439ffde7812fdcffa942", "fusion_lon": 0.0}, {"rental_uris": {"ios": "https://dc.lft.to/lastmile_qr_scan", "android": "https://dc.lft.to/lastmile_qr_scan"}, "type": "electric_scooter", "name": "718a14af007e2eabec2f7c83995767cb", "is_reserved": 0, "lon": -77.03324766666667, "is_disabled": 0, "fusion_lat": 0.0, "lat": 38.919057, "bike_id": "718a14af007e2eabec2f7c83995767cb", "fusion_lon": 0.0}, {"rental_uris": {"ios": "https://dc.lft.to/lastmile_qr_scan", "android": "https://dc.lft.to/lastmile_qr_scan"}, "type": "electric_scooter", "name": "9706928573cc2cfca3fb7599e0f772e3", "is_reserved": 0, "lon": -77.04884533333333, "is_disabled": 0, "fusion_lat": 0.0, "lat": 38.90076116666667, "bike_id": "9706928573cc2cfca3fb7599e0f772e3", "fusion_lon": 0.0}, {"rental_uris": {"ios": "https://dc.lft.to/lastmile_qr_scan", "android": "https://dc.lft.to/lastmile_qr_scan"}, "type": "electric_scooter", "name": "5553439cb8d64ebe2e06546b48622c32", "is_reserved": 0, "lon": -77.021502, "is_disabled": 0, "fusion_lat": 0.0, "lat": 38.887427333333335, "bike_id": "5553439cb8d64ebe2e06546b48622c32", "fusion_lon": 0.0}, {"rental_uris": {"ios": "https://dc.lft.to/lastmile_qr_scan", "android": "https://dc.lft.to/lastmile_qr_scan"}, "type": "electric_scooter", "name": "715d37ffbda79715381932e6b0f0be3c", "is_reserved": 0, "lon": -76.99642516666667, "is_disabled": 0, "fusion_lat": 0.0, "lat": 38.88767383333333, "bike_id": "715d37ffbda79715381932e6b0f0be3c", "fusion_lon": 0.0}, {"rental_uris": {"ios": "https://dc.lft.to/lastmile_qr_scan", "android": "https://dc.lft.to/lastmile_qr_scan"}, "type": "electric_scooter", "name": "10d19481adcff181c36eb284f067c371", "is_reserved": 0, "lon": -77.02629333333333, "is_disabled": 0, "fusion_lat": 0.0, "lat": 38.92671833333333, "bike_id": "10d19481adcff181c36eb284f067c371", "fusion_lon": 0.0}, {"rental_uris": {"ios": "https://dc.lft.to/lastmile_qr_scan", "android": "https://dc.lft.to/lastmile_qr_scan"}, "type": "electric_scooter", "name": "5095fbc5e0c62ff9b31570a0ec68a2d3", "is_reserved": 0, "lon": -76.95286983333334, "is_disabled": 0, "fusion_lat": 0.0, "lat": 38.890289, "bike_id": "5095fbc5e0c62ff9b31570a0ec68a2d3", "fusion_lon": 0.0}, {"rental_uris": {"ios": "https://dc.lft.to/lastmile_qr_scan", "android": "https://dc.lft.to/lastmile_qr_scan"}, "type": "electric_scooter", "name": "262322dfbc9c8d527dcf34fe16322eca", "is_reserved": 0, "lon": -77.00928333333333, "is_disabled": 0, "fusion_lat": 0.0, "lat": 38.89608233333333, "bike_id": "262322dfbc9c8d527dcf34fe16322eca", "fusion_lon": 0.0}, {"rental_uris": {"ios": "https://dc.lft.to/lastmile_qr_scan", "android": "https://dc.lft.to/lastmile_qr_scan"}, "type": "electric_scooter", "name": "fe1b1135b4acee9e18322b8e076a85a7", "is_reserved": 0, "lon": -76.97934816666667, "is_disabled": 0, "fusion_lat": 0.0, "lat": 38.90660066666667, "bike_id": "fe1b1135b4acee9e18322b8e076a85a7", "fusion_lon": 0.0}, {"rental_uris": {"ios": "https://dc.lft.to/lastmile_qr_scan", "android": "https://dc.lft.to/lastmile_qr_scan"}, "type": "electric_bike", "name": "5c6c1ffeb40f23cea7fb88abdb26c0df", "is_reserved": 0, "lon": -76.98092216666667, "is_disabled": 0, "fusion_lat": 0.0, "lat": 38.95359233333333, "bike_id": "5c6c1ffeb40f23cea7fb88abdb26c0df", "fusion_lon": 0.0}, {"rental_uris": {"ios": "https://dc.lft.to/lastmile_qr_scan", "android": "https://dc.lft.to/lastmile_qr_scan"}, "type": "electric_scooter", "name": "e359993aaa7d13e06ed7467831ae1164", "is_reserved": 0, "lon": -77.00904866666667, "is_disabled": 0, "fusion_lat": 0.0, "lat": 38.89869133333333, "bike_id": "e359993aaa7d13e06ed7467831ae1164", "fusion_lon": 0.0}, {"rental_uris": {"ios": "https://dc.lft.to/lastmile_qr_scan", "android": "https://dc.lft.to/lastmile_qr_scan"}, "type": "electric_bike", "name": "95d896c3a94d2065fe1dedfd1712ae83", "is_reserved": 0, "lon": -76.99545916666666, "is_disabled": 0, "fusion_lat": 0.0, "lat": 38.83159833333333, "bike_id": "95d896c3a94d2065fe1dedfd1712ae83", "fusion_lon": 0.0}, {"rental_uris": {"ios": "https://dc.lft.to/lastmile_qr_scan", "android": "https://dc.lft.to/lastmile_qr_scan"}, "type": "electric_scooter", "name": "4bc417c9b0072629b3eb9e28c7452df0", "is_reserved": 0, "lon": -77.02833483333333, "is_disabled": 0, "fusion_lat": 0.0, "lat": 38.887390333333336, "bike_id": "4bc417c9b0072629b3eb9e28c7452df0", "fusion_lon": 0.0}, {"rental_uris": {"ios": "https://dc.lft.to/lastmile_qr_scan", "android": "https://dc.lft.to/lastmile_qr_scan"}, "type": "electric_bike", "name": "a00285add9c005ccb6b43db41508dae8", "is_reserved": 0, "lon": -77.0168845, "is_disabled": 0, "fusion_lat": 0.0, "lat": 38.97516266666667, "bike_id": "a00285add9c005ccb6b43db41508dae8", "fusion_lon": 0.0}, {"rental_uris": {"ios": "https://dc.lft.to/lastmile_qr_scan", "android": "https://dc.lft.to/lastmile_qr_scan"}, "type": "electric_scooter", "name": "3ec8a3c342272f47a4720e25f7a0a279", "is_reserved": 0, "lon": -77.0146345, "is_disabled": 0, "fusion_lat": 0.0, "lat": 38.879429, "bike_id": "3ec8a3c342272f47a4720e25f7a0a279", "fusion_lon": 0.0}, {"rental_uris": {"ios": "https://dc.lft.to/lastmile_qr_scan", "android": "https://dc.lft.to/lastmile_qr_scan"}, "type": "electric_scooter", "name": "b01000999bccf38544dcad75bcf40450", "is_reserved": 0, "lon": -77.04345033333334, "is_disabled": 0, "fusion_lat": 0.0, "lat": 38.9073665, "bike_id": "b01000999bccf38544dcad75bcf40450", "fusion_lon": 0.0}, {"rental_uris": {"ios": "https://dc.lft.to/lastmile_qr_scan", "android": "https://dc.lft.to/lastmile_qr_scan"}, "type": "electric_scooter", "name": "e504eb2bd03fc282e31e97b80eddd0f9", "is_reserved": 0, "lon": -77.03925016666666, "is_disabled": 0, "fusion_lat": 0.0, "lat": 38.92474083333333, "bike_id": "e504eb2bd03fc282e31e97b80eddd0f9", "fusion_lon": 0.0}, {"rental_uris": {"ios": "https://dc.lft.to/lastmile_qr_scan", "android": "https://dc.lft.to/lastmile_qr_scan"}, "type": "electric_scooter", "name": "4f918187f128c738edad3d7aefc1f46e", "is_reserved": 0, "lon": -77.04485866666667, "is_disabled": 0, "fusion_lat": 0.0, "lat": 38.9144175, "bike_id": "4f918187f128c738edad3d7aefc1f46e", "fusion_lon": 0.0}, {"rental_uris": {"ios": "https://dc.lft.to/lastmile_qr_scan", "android": "https://dc.lft.to/lastmile_qr_scan"}, "type": "electric_scooter", "name": "1adf6dfb78f49f2a2950f68063fcc3e6", "is_reserved": 0, "lon": -77.03435066666667, "is_disabled": 0, "fusion_lat": 0.0, "lat": 38.917991, "bike_id": "1adf6dfb78f49f2a2950f68063fcc3e6", "fusion_lon": 0.0}, {"rental_uris": {"ios": "https://dc.lft.to/lastmile_qr_scan", "android": "https://dc.lft.to/lastmile_qr_scan"}, "type": "electric_scooter", "name": "5560f13abcd1699d85b0a8bd969afc3c", "is_reserved": 0, "lon": -77.04654533333333, "is_disabled": 0, "fusion_lat": 0.0, "lat": 38.900203166666664, "bike_id": "5560f13abcd1699d85b0a8bd969afc3c", "fusion_lon": 0.0}, {"rental_uris": {"ios": "https://dc.lft.to/lastmile_qr_scan", "android": "https://dc.lft.to/lastmile_qr_scan"}, "type": "electric_scooter", "name": "1cccc05a8a4ccba5747e17771936744d", "is_reserved": 0, "lon": -77.03138966666667, "is_disabled": 0, "fusion_lat": 0.0, "lat": 38.92373583333333, "bike_id": "1cccc05a8a4ccba5747e17771936744d", "fusion_lon": 0.0}, {"rental_uris": {"ios": "https://dc.lft.to/lastmile_qr_scan", "android": "https://dc.lft.to/lastmile_qr_scan"}, "type": "electric_bike", "name": "d982eee746a75f2fe8f79e2c273f0d65", "is_reserved": 0, "lon": -77.0527455, "is_disabled": 0, "fusion_lat": 0.0, "lat": 38.94096283333333, "bike_id": "d982eee746a75f2fe8f79e2c273f0d65", "fusion_lon": 0.0}, {"rental_uris": {"ios": "https://dc.lft.to/lastmile_qr_scan", "android": "https://dc.lft.to/lastmile_qr_scan"}, "type": "electric_scooter", "name": "c6d9a9cae692c3e74a5b6efaf08e7791", "is_reserved": 0, "lon": -77.03282016666667, "is_disabled": 0, "fusion_lat": 0.0, "lat": 38.932538666666666, "bike_id": "c6d9a9cae692c3e74a5b6efaf08e7791", "fusion_lon": 0.0}, {"rental_uris": {"ios": "https://dc.lft.to/lastmile_qr_scan", "android": "https://dc.lft.to/lastmile_qr_scan"}, "type": "electric_scooter", "name": "46adcc06cac8e337f8f5c3d9fc79d886", "is_reserved": 0, "lon": -77.01796883333333, "is_disabled": 0, "fusion_lat": 0.0, "lat": 38.9026465, "bike_id": "46adcc06cac8e337f8f5c3d9fc79d886", "fusion_lon": 0.0}, {"rental_uris": {"ios": "https://dc.lft.to/lastmile_qr_scan", "android": "https://dc.lft.to/lastmile_qr_scan"}, "type": "electric_scooter", "name": "3a68c331cce384dbf60b3ef50c7f441e", "is_reserved": 0, "lon": -77.02400466666667, "is_disabled": 0, "fusion_lat": 0.0, "lat": 38.91706116666667, "bike_id": "3a68c331cce384dbf60b3ef50c7f441e", "fusion_lon": 0.0}, {"rental_uris": {"ios": "https://dc.lft.to/lastmile_qr_scan", "android": "https://dc.lft.to/lastmile_qr_scan"}, "type": "electric_scooter", "name": "ae09a0ab6a1fb714e2725c99a790c266", "is_reserved": 0, "lon": -77.03370016666666, "is_disabled": 0, "fusion_lat": 0.0, "lat": 38.910406333333334, "bike_id": "ae09a0ab6a1fb714e2725c99a790c266", "fusion_lon": 0.0}, {"rental_uris": {"ios": "https://dc.lft.to/lastmile_qr_scan", "android": "https://dc.lft.to/lastmile_qr_scan"}, "type": "electric_bike", "name": "2232576fa6f9014b1b3e77368da1c2c6", "is_reserved": 0, "lon": -77.01303033333333, "is_disabled": 0, "fusion_lat": 0.0, "lat": 38.900455, "bike_id": "2232576fa6f9014b1b3e77368da1c2c6", "fusion_lon": 0.0}, {"rental_uris": {"ios": "https://dc.lft.to/lastmile_qr_scan", "android": "https://dc.lft.to/lastmile_qr_scan"}, "type": "electric_scooter", "name": "a3811b4cff02d09cd4c25b1082602e56", "is_reserved": 0, "lon": -77.0281635, "is_disabled": 0, "fusion_lat": 0.0, "lat": 38.956429166666666, "bike_id": "a3811b4cff02d09cd4c25b1082602e56", "fusion_lon": 0.0}, {"rental_uris": {"ios": "https://dc.lft.to/lastmile_qr_scan", "android": "https://dc.lft.to/lastmile_qr_scan"}, "type": "electric_scooter", "name": "99f8880ce95539371df5ecd39b98e189", "is_reserved": 0, "lon": -77.00562883333333, "is_disabled": 0, "fusion_lat": 0.0, "lat": 38.875532, "bike_id": "99f8880ce95539371df5ecd39b98e189", "fusion_lon": 0.0}, {"rental_uris": {"ios": "https://dc.lft.to/lastmile_qr_scan", "android": "https://dc.lft.to/lastmile_qr_scan"}, "type": "electric_scooter", "name": "a8728d72b15cdcd5363442716a684495", "is_reserved": 0, "lon": -77.04422016666666, "is_disabled": 0, "fusion_lat": 0.0, "lat": 38.89741466666667, "bike_id": "a8728d72b15cdcd5363442716a684495", "fusion_lon": 0.0}, {"rental_uris": {"ios": "https://dc.lft.to/lastmile_qr_scan", "android": "https://dc.lft.to/lastmile_qr_scan"}, "type": "electric_scooter", "name": "07bb4ed40c6ca976be14adbe1cfcab72", "is_reserved": 0, "lon": -77.03340566666667, "is_disabled": 0, "fusion_lat": 0.0, "lat": 38.9025345, "bike_id": "07bb4ed40c6ca976be14adbe1cfcab72", "fusion_lon": 0.0}, {"rental_uris": {"ios": "https://dc.lft.to/lastmile_qr_scan", "android": "https://dc.lft.to/lastmile_qr_scan"}, "type": "electric_scooter", "name": "998a05e4bbeaace6a5099af133e21bc4", "is_reserved": 0, "lon": -77.03454966666666, "is_disabled": 0, "fusion_lat": 0.0, "lat": 38.9084585, "bike_id": "998a05e4bbeaace6a5099af133e21bc4", "fusion_lon": 0.0}, {"rental_uris": {"ios": "https://dc.lft.to/lastmile_qr_scan", "android": "https://dc.lft.to/lastmile_qr_scan"}, "type": "electric_bike", "name": "eca2963eee5e85e9bce25978c6869d32", "is_reserved": 0, "lon": -77.0020585, "is_disabled": 0, "fusion_lat": 0.0, "lat": 38.98850266666667, "bike_id": "eca2963eee5e85e9bce25978c6869d32", "fusion_lon": 0.0}, {"rental_uris": {"ios": "https://dc.lft.to/lastmile_qr_scan", "android": "https://dc.lft.to/lastmile_qr_scan"}, "type": "electric_scooter", "name": "e39611c0f4c85b662f5c4202b2a6e021", "is_reserved": 0, "lon": -77.02301066666666, "is_disabled": 0, "fusion_lat": 0.0, "lat": 38.961316, "bike_id": "e39611c0f4c85b662f5c4202b2a6e021", "fusion_lon": 0.0}, {"rental_uris": {"ios": "https://dc.lft.to/lastmile_qr_scan", "android": "https://dc.lft.to/lastmile_qr_scan"}, "type": "electric_scooter", "name": "77505bca97e7ca7d003e139cfeee3051", "is_reserved": 0, "lon": -77.0338305, "is_disabled": 0, "fusion_lat": 0.0, "lat": 38.89926783333333, "bike_id": "77505bca97e7ca7d003e139cfeee3051", "fusion_lon": 0.0}, {"rental_uris": {"ios": "https://dc.lft.to/lastmile_qr_scan", "android": "https://dc.lft.to/lastmile_qr_scan"}, "type": "electric_scooter", "name": "eac59c814df4aac507c8fbbdb7e9ea0a", "is_reserved": 0, "lon": -77.02298616666667, "is_disabled": 0, "fusion_lat": 0.0, "lat": 38.91841766666667, "bike_id": "eac59c814df4aac507c8fbbdb7e9ea0a", "fusion_lon": 0.0}, {"rental_uris": {"ios": "https://dc.lft.to/lastmile_qr_scan", "android": "https://dc.lft.to/lastmile_qr_scan"}, "type": "electric_scooter", "name": "cdaf9395283a95e74687d7b66c8cb1c4", "is_reserved": 0, "lon": -77.02834833333333, "is_disabled": 0, "fusion_lat": 0.0, "lat": 38.91020866666667, "bike_id": "cdaf9395283a95e74687d7b66c8cb1c4", "fusion_lon": 0.0}, {"rental_uris": {"ios": "https://dc.lft.to/lastmile_qr_scan", "android": "https://dc.lft.to/lastmile_qr_scan"}, "type": "electric_scooter", "name": "2f85b9fdccba1e489bf9edf1b9dc17d2", "is_reserved": 0, "lon": -77.032784, "is_disabled": 0, "fusion_lat": 0.0, "lat": 38.907255, "bike_id": "2f85b9fdccba1e489bf9edf1b9dc17d2", "fusion_lon": 0.0}, {"rental_uris": {"ios": "https://dc.lft.to/lastmile_qr_scan", "android": "https://dc.lft.to/lastmile_qr_scan"}, "type": "electric_scooter", "name": "c321e9b2934835fd465d8cd0b200ad8c", "is_reserved": 0, "lon": -77.02347383333333, "is_disabled": 0, "fusion_lat": 0.0, "lat": 38.931336333333334, "bike_id": "c321e9b2934835fd465d8cd0b200ad8c", "fusion_lon": 0.0}, {"rental_uris": {"ios": "https://dc.lft.to/lastmile_qr_scan", "android": "https://dc.lft.to/lastmile_qr_scan"}, "type": "electric_scooter", "name": "2bd6a70702e69aef7d5ffb347a318f7c", "is_reserved": 0, "lon": -77.0174565, "is_disabled": 0, "fusion_lat": 0.0, "lat": 38.88735483333333, "bike_id": "2bd6a70702e69aef7d5ffb347a318f7c", "fusion_lon": 0.0}, {"rental_uris": {"ios": "https://dc.lft.to/lastmile_qr_scan", "android": "https://dc.lft.to/lastmile_qr_scan"}, "type": "electric_scooter", "name": "651d63796184b004088fbc7f63ec2575", "is_reserved": 0, "lon": -76.95855233333333, "is_disabled": 0, "fusion_lat": 0.0, "lat": 38.9185585, "bike_id": "651d63796184b004088fbc7f63ec2575", "fusion_lon": 0.0}, {"rental_uris": {"ios": "https://dc.lft.to/lastmile_qr_scan", "android": "https://dc.lft.to/lastmile_qr_scan"}, "type": "electric_scooter", "name": "6a56a154764626f90fcbb576f9101f3c", "is_reserved": 0, "lon": -77.0417255, "is_disabled": 0, "fusion_lat": 0.0, "lat": 38.903709666666664, "bike_id": "6a56a154764626f90fcbb576f9101f3c", "fusion_lon": 0.0}, {"rental_uris": {"ios": "https://dc.lft.to/lastmile_qr_scan", "android": "https://dc.lft.to/lastmile_qr_scan"}, "type": "electric_scooter", "name": "96a5d3bdad58545188eef5d6ebe6fa5c", "is_reserved": 0, "lon": -77.03857766666667, "is_disabled": 0, "fusion_lat": 0.0, "lat": 38.91714983333333, "bike_id": "96a5d3bdad58545188eef5d6ebe6fa5c", "fusion_lon": 0.0}, {"rental_uris": {"ios": "https://dc.lft.to/lastmile_qr_scan", "android": "https://dc.lft.to/lastmile_qr_scan"}, "type": "electric_bike", "name": "069d9e44ad8a8434439b9f4c4450e72c", "is_reserved": 0, "lon": -77.01229366666666, "is_disabled": 0, "fusion_lat": 0.0, "lat": 38.950799, "bike_id": "069d9e44ad8a8434439b9f4c4450e72c", "fusion_lon": 0.0}, {"rental_uris": {"ios": "https://dc.lft.to/lastmile_qr_scan", "android": "https://dc.lft.to/lastmile_qr_scan"}, "type": "electric_scooter", "name": "9b8a9eaf8c1f8ab7f923a7f6674477f6", "is_reserved": 0, "lon": -77.02124783333333, "is_disabled": 0, "fusion_lat": 0.0, "lat": 38.927969166666664, "bike_id": "9b8a9eaf8c1f8ab7f923a7f6674477f6", "fusion_lon": 0.0}, {"rental_uris": {"ios": "https://dc.lft.to/lastmile_qr_scan", "android": "https://dc.lft.to/lastmile_qr_scan"}, "type": "electric_scooter", "name": "f1f7a666f8545c22eea65fce29bd5f5e", "is_reserved": 0, "lon": -77.03465883333334, "is_disabled": 0, "fusion_lat": 0.0, "lat": 38.921549666666664, "bike_id": "f1f7a666f8545c22eea65fce29bd5f5e", "fusion_lon": 0.0}, {"rental_uris": {"ios": "https://dc.lft.to/lastmile_qr_scan", "android": "https://dc.lft.to/lastmile_qr_scan"}, "type": "electric_scooter", "name": "16c154d3ea189ea61aca293db5647349", "is_reserved": 0, "lon": -77.06848766666667, "is_disabled": 0, "fusion_lat": 0.0, "lat": 38.90405766666667, "bike_id": "16c154d3ea189ea61aca293db5647349", "fusion_lon": 0.0}, {"rental_uris": {"ios": "https://dc.lft.to/lastmile_qr_scan", "android": "https://dc.lft.to/lastmile_qr_scan"}, "type": "electric_scooter", "name": "b7c21a010f98abc62bb1cba53a05497a", "is_reserved": 0, "lon": -77.01755233333333, "is_disabled": 0, "fusion_lat": 0.0, "lat": 38.87688, "bike_id": "b7c21a010f98abc62bb1cba53a05497a", "fusion_lon": 0.0}, {"rental_uris": {"ios": "https://dc.lft.to/lastmile_qr_scan", "android": "https://dc.lft.to/lastmile_qr_scan"}, "type": "electric_scooter", "name": "0ecf63f8d1dec3aafced56d802db5c9d", "is_reserved": 0, "lon": -76.934358, "is_disabled": 0, "fusion_lat": 0.0, "lat": 38.893479166666665, "bike_id": "0ecf63f8d1dec3aafced56d802db5c9d", "fusion_lon": 0.0}, {"rental_uris": {"ios": "https://dc.lft.to/lastmile_qr_scan", "android": "https://dc.lft.to/lastmile_qr_scan"}, "type": "electric_scooter", "name": "f659097ac057c9e8ae05bbf69d70410c", "is_reserved": 0, "lon": -77.04025833333333, "is_disabled": 0, "fusion_lat": 0.0, "lat": 38.92176, "bike_id": "f659097ac057c9e8ae05bbf69d70410c", "fusion_lon": 0.0}, {"rental_uris": {"ios": "https://dc.lft.to/lastmile_qr_scan", "android": "https://dc.lft.to/lastmile_qr_scan"}, "type": "electric_scooter", "name": "7097cf0bf11093372222600a91644ff6", "is_reserved": 0, "lon": -77.03071183333333, "is_disabled": 0, "fusion_lat": 0.0, "lat": 38.9238425, "bike_id": "7097cf0bf11093372222600a91644ff6", "fusion_lon": 0.0}, {"rental_uris": {"ios": "https://dc.lft.to/lastmile_qr_scan", "android": "https://dc.lft.to/lastmile_qr_scan"}, "type": "electric_scooter", "name": "361ff53c6ec1e03514380a9c50d2cf23", "is_reserved": 0, "lon": -77.021862, "is_disabled": 0, "fusion_lat": 0.0, "lat": 38.929157833333335, "bike_id": "361ff53c6ec1e03514380a9c50d2cf23", "fusion_lon": 0.0}, {"rental_uris": {"ios": "https://dc.lft.to/lastmile_qr_scan", "android": "https://dc.lft.to/lastmile_qr_scan"}, "type": "electric_scooter", "name": "1a2518373aecac05ed503e7ab357c95f", "is_reserved": 0, "lon": -77.00819216666666, "is_disabled": 0, "fusion_lat": 0.0, "lat": 38.91562283333333, "bike_id": "1a2518373aecac05ed503e7ab357c95f", "fusion_lon": 0.0}, {"rental_uris": {"ios": "https://dc.lft.to/lastmile_qr_scan", "android": "https://dc.lft.to/lastmile_qr_scan"}, "type": "electric_bike", "name": "4516212548d1ebf66037a4f29e724843", "is_reserved": 0, "lon": -77.04326916666666, "is_disabled": 0, "fusion_lat": 0.0, "lat": 38.92793866666667, "bike_id": "4516212548d1ebf66037a4f29e724843", "fusion_lon": 0.0}, {"rental_uris": {"ios": "https://dc.lft.to/lastmile_qr_scan", "android": "https://dc.lft.to/lastmile_qr_scan"}, "type": "electric_bike", "name": "60beeff297363ddd4ff21fc7777fc0b2", "is_reserved": 0, "lon": -77.11284, "is_disabled": 0, "fusion_lat": 0.0, "lat": 38.831068333333334, "bike_id": "60beeff297363ddd4ff21fc7777fc0b2", "fusion_lon": 0.0}, {"rental_uris": {"ios": "https://dc.lft.to/lastmile_qr_scan", "android": "https://dc.lft.to/lastmile_qr_scan"}, "type": "electric_bike", "name": "c6fb37927faca5e67912003a7a30bf01", "is_reserved": 0, "lon": -76.993652, "is_disabled": 0, "fusion_lat": 0.0, "lat": 38.927387, "bike_id": "c6fb37927faca5e67912003a7a30bf01", "fusion_lon": 0.0}, {"rental_uris": {"ios": "https://dc.lft.to/lastmile_qr_scan", "android": "https://dc.lft.to/lastmile_qr_scan"}, "type": "electric_bike", "name": "cd10c43bea9893862a68ff830520a5ac", "is_reserved": 0, "lon": -77.0200465, "is_disabled": 0, "fusion_lat": 0.0, "lat": 39.0262215, "bike_id": "cd10c43bea9893862a68ff830520a5ac", "fusion_lon": 0.0}, {"rental_uris": {"ios": "https://dc.lft.to/lastmile_qr_scan", "android": "https://dc.lft.to/lastmile_qr_scan"}, "type": "electric_scooter", "name": "7231b77e9acd1929ced26367e92de056", "is_reserved": 0, "lon": -77.0631795, "is_disabled": 0, "fusion_lat": 0.0, "lat": 38.913419166666664, "bike_id": "7231b77e9acd1929ced26367e92de056", "fusion_lon": 0.0}, {"rental_uris": {"ios": "https://dc.lft.to/lastmile_qr_scan", "android": "https://dc.lft.to/lastmile_qr_scan"}, "type": "electric_scooter", "name": "d00a4283b98c1ca0667906c98de026e1", "is_reserved": 0, "lon": -77.0877765, "is_disabled": 0, "fusion_lat": 0.0, "lat": 38.9356265, "bike_id": "d00a4283b98c1ca0667906c98de026e1", "fusion_lon": 0.0}, {"rental_uris": {"ios": "https://dc.lft.to/lastmile_qr_scan", "android": "https://dc.lft.to/lastmile_qr_scan"}, "type": "electric_scooter", "name": "2e342591afad5a3c06c24ef5889e1b75", "is_reserved": 0, "lon": -77.0021775, "is_disabled": 0, "fusion_lat": 0.0, "lat": 38.900464, "bike_id": "2e342591afad5a3c06c24ef5889e1b75", "fusion_lon": 0.0}, {"rental_uris": {"ios": "https://dc.lft.to/lastmile_qr_scan", "android": "https://dc.lft.to/lastmile_qr_scan"}, "type": "electric_scooter", "name": "d5c323a8c32518488bd84f213d6d5275", "is_reserved": 0, "lon": -77.039258, "is_disabled": 0, "fusion_lat": 0.0, "lat": 38.898549, "bike_id": "d5c323a8c32518488bd84f213d6d5275", "fusion_lon": 0.0}, {"rental_uris": {"ios": "https://dc.lft.to/lastmile_qr_scan", "android": "https://dc.lft.to/lastmile_qr_scan"}, "type": "electric_scooter", "name": "0ec5381f843c5d5c1d2727930e4db56a", "is_reserved": 0, "lon": -76.94144033333333, "is_disabled": 0, "fusion_lat": 0.0, "lat": 38.901695833333335, "bike_id": "0ec5381f843c5d5c1d2727930e4db56a", "fusion_lon": 0.0}, {"rental_uris": {"ios": "https://dc.lft.to/lastmile_qr_scan", "android": "https://dc.lft.to/lastmile_qr_scan"}, "type": "electric_scooter", "name": "9c5261e7d474a559aa53b1ab75e20015", "is_reserved": 0, "lon": -77.026993, "is_disabled": 0, "fusion_lat": 0.0, "lat": 38.9179985, "bike_id": "9c5261e7d474a559aa53b1ab75e20015", "fusion_lon": 0.0}, {"rental_uris": {"ios": "https://dc.lft.to/lastmile_qr_scan", "android": "https://dc.lft.to/lastmile_qr_scan"}, "type": "electric_scooter", "name": "947f675d6fdbe800cf6516386c1d7599", "is_reserved": 0, "lon": -77.032671, "is_disabled": 0, "fusion_lat": 0.0, "lat": 38.92162966666667, "bike_id": "947f675d6fdbe800cf6516386c1d7599", "fusion_lon": 0.0}, {"rental_uris": {"ios": "https://dc.lft.to/lastmile_qr_scan", "android": "https://dc.lft.to/lastmile_qr_scan"}, "type": "electric_bike", "name": "50ff3de8d17d987aefd0d89a0e425da4", "is_reserved": 0, "lon": -77.09958233333333, "is_disabled": 0, "fusion_lat": 0.0, "lat": 38.8578865, "bike_id": "50ff3de8d17d987aefd0d89a0e425da4", "fusion_lon": 0.0}, {"rental_uris": {"ios": "https://dc.lft.to/lastmile_qr_scan", "android": "https://dc.lft.to/lastmile_qr_scan"}, "type": "electric_scooter", "name": "c61802a00aead9bb349619a625a57ea7", "is_reserved": 0, "lon": -76.97652116666667, "is_disabled": 0, "fusion_lat": 0.0, "lat": 38.90365883333333, "bike_id": "c61802a00aead9bb349619a625a57ea7", "fusion_lon": 0.0}, {"rental_uris": {"ios": "https://dc.lft.to/lastmile_qr_scan", "android": "https://dc.lft.to/lastmile_qr_scan"}, "type": "electric_scooter", "name": "56e8a518e3cd4bea7a63e2edeaae8f66", "is_reserved": 0, "lon": -77.01778183333333, "is_disabled": 0, "fusion_lat": 0.0, "lat": 38.879202166666666, "bike_id": "56e8a518e3cd4bea7a63e2edeaae8f66", "fusion_lon": 0.0}, {"rental_uris": {"ios": "https://dc.lft.to/lastmile_qr_scan", "android": "https://dc.lft.to/lastmile_qr_scan"}, "type": "electric_scooter", "name": "19a884cbead9e4715cd5ac0d6db4a4ed", "is_reserved": 0, "lon": -77.0409165, "is_disabled": 0, "fusion_lat": 0.0, "lat": 38.92076316666667, "bike_id": "19a884cbead9e4715cd5ac0d6db4a4ed", "fusion_lon": 0.0}, {"rental_uris": {"ios": "https://dc.lft.to/lastmile_qr_scan", "android": "https://dc.lft.to/lastmile_qr_scan"}, "type": "electric_scooter", "name": "50aa192f160857a673f5f81e43a0bbea", "is_reserved": 0, "lon": -77.007559, "is_disabled": 0, "fusion_lat": 0.0, "lat": 38.8711435, "bike_id": "50aa192f160857a673f5f81e43a0bbea", "fusion_lon": 0.0}, {"rental_uris": {"ios": "https://dc.lft.to/lastmile_qr_scan", "android": "https://dc.lft.to/lastmile_qr_scan"}, "type": "electric_scooter", "name": "595d23c0fce5fc8864c39533e55acb54", "is_reserved": 0, "lon": -77.02495983333333, "is_disabled": 0, "fusion_lat": 0.0, "lat": 38.91944783333334, "bike_id": "595d23c0fce5fc8864c39533e55acb54", "fusion_lon": 0.0}, {"rental_uris": {"ios": "https://dc.lft.to/lastmile_qr_scan", "android": "https://dc.lft.to/lastmile_qr_scan"}, "type": "electric_scooter", "name": "39819dc9bf0c89653034e387e210c9a7", "is_reserved": 0, "lon": -77.0316415, "is_disabled": 0, "fusion_lat": 0.0, "lat": 38.899506833333334, "bike_id": "39819dc9bf0c89653034e387e210c9a7", "fusion_lon": 0.0}, {"rental_uris": {"ios": "https://dc.lft.to/lastmile_qr_scan", "android": "https://dc.lft.to/lastmile_qr_scan"}, "type": "electric_scooter", "name": "6a958a635ef27672b393891cf3b724e4", "is_reserved": 0, "lon": -77.02777616666667, "is_disabled": 0, "fusion_lat": 0.0, "lat": 38.965866, "bike_id": "6a958a635ef27672b393891cf3b724e4", "fusion_lon": 0.0}, {"rental_uris": {"ios": "https://dc.lft.to/lastmile_qr_scan", "android": "https://dc.lft.to/lastmile_qr_scan"}, "type": "electric_scooter", "name": "bd8e773a0db6fed26bfa162d8fd4eba0", "is_reserved": 0, "lon": -77.07701983333334, "is_disabled": 0, "fusion_lat": 0.0, "lat": 38.89348833333333, "bike_id": "bd8e773a0db6fed26bfa162d8fd4eba0", "fusion_lon": 0.0}, {"rental_uris": {"ios": "https://dc.lft.to/lastmile_qr_scan", "android": "https://dc.lft.to/lastmile_qr_scan"}, "type": "electric_scooter", "name": "88d3e8e1a838c86e6ce5b60126edb704", "is_reserved": 0, "lon": -77.01802233333333, "is_disabled": 0, "fusion_lat": 0.0, "lat": 38.9213195, "bike_id": "88d3e8e1a838c86e6ce5b60126edb704", "fusion_lon": 0.0}, {"rental_uris": {"ios": "https://dc.lft.to/lastmile_qr_scan", "android": "https://dc.lft.to/lastmile_qr_scan"}, "type": "electric_scooter", "name": "aee7b6465c2caf240ae51e39bf53e3a9", "is_reserved": 0, "lon": -76.98210466666667, "is_disabled": 0, "fusion_lat": 0.0, "lat": 38.886434333333334, "bike_id": "aee7b6465c2caf240ae51e39bf53e3a9", "fusion_lon": 0.0}, {"rental_uris": {"ios": "https://dc.lft.to/lastmile_qr_scan", "android": "https://dc.lft.to/lastmile_qr_scan"}, "type": "electric_scooter", "name": "0de181cd85e0563cd4a05994a6d057ab", "is_reserved": 0, "lon": -77.03344666666666, "is_disabled": 0, "fusion_lat": 0.0, "lat": 38.932176, "bike_id": "0de181cd85e0563cd4a05994a6d057ab", "fusion_lon": 0.0}, {"rental_uris": {"ios": "https://dc.lft.to/lastmile_qr_scan", "android": "https://dc.lft.to/lastmile_qr_scan"}, "type": "electric_scooter", "name": "feb0f010c9705050637cb69c94871b4c", "is_reserved": 0, "lon": -77.01773566666667, "is_disabled": 0, "fusion_lat": 0.0, "lat": 38.900333333333336, "bike_id": "feb0f010c9705050637cb69c94871b4c", "fusion_lon": 0.0}, {"rental_uris": {"ios": "https://dc.lft.to/lastmile_qr_scan", "android": "https://dc.lft.to/lastmile_qr_scan"}, "type": "electric_scooter", "name": "bafba240ed60c7355b3b6251d47586c8", "is_reserved": 0, "lon": -77.07832783333333, "is_disabled": 0, "fusion_lat": 0.0, "lat": 38.9457075, "bike_id": "bafba240ed60c7355b3b6251d47586c8", "fusion_lon": 0.0}, {"rental_uris": {"ios": "https://dc.lft.to/lastmile_qr_scan", "android": "https://dc.lft.to/lastmile_qr_scan"}, "type": "electric_scooter", "name": "7edb86ef0380160581bfd4bcb3ba4966", "is_reserved": 0, "lon": -76.9585595, "is_disabled": 0, "fusion_lat": 0.0, "lat": 38.918592, "bike_id": "7edb86ef0380160581bfd4bcb3ba4966", "fusion_lon": 0.0}, {"rental_uris": {"ios": "https://dc.lft.to/lastmile_qr_scan", "android": "https://dc.lft.to/lastmile_qr_scan"}, "type": "electric_scooter", "name": "ba7676ee61ea0caa0b4dbcad04b0a0dc", "is_reserved": 0, "lon": -77.00282083333333, "is_disabled": 0, "fusion_lat": 0.0, "lat": 38.846148, "bike_id": "ba7676ee61ea0caa0b4dbcad04b0a0dc", "fusion_lon": 0.0}, {"rental_uris": {"ios": "https://dc.lft.to/lastmile_qr_scan", "android": "https://dc.lft.to/lastmile_qr_scan"}, "type": "electric_scooter", "name": "080d80fb994f8fbfa9d8a98d1c59ab0c", "is_reserved": 0, "lon": -77.03995766666667, "is_disabled": 0, "fusion_lat": 0.0, "lat": 38.90246966666667, "bike_id": "080d80fb994f8fbfa9d8a98d1c59ab0c", "fusion_lon": 0.0}, {"rental_uris": {"ios": "https://dc.lft.to/lastmile_qr_scan", "android": "https://dc.lft.to/lastmile_qr_scan"}, "type": "electric_scooter", "name": "65cd7d7c9793ad85c8a539385b87b7b2", "is_reserved": 0, "lon": -77.04600683333334, "is_disabled": 0, "fusion_lat": 0.0, "lat": 38.90569033333333, "bike_id": "65cd7d7c9793ad85c8a539385b87b7b2", "fusion_lon": 0.0}, {"rental_uris": {"ios": "https://dc.lft.to/lastmile_qr_scan", "android": "https://dc.lft.to/lastmile_qr_scan"}, "type": "electric_scooter", "name": "7623af3d1aa79b39697e7b71ebc593d9", "is_reserved": 0, "lon": -77.04659366666667, "is_disabled": 0, "fusion_lat": 0.0, "lat": 38.91794566666667, "bike_id": "7623af3d1aa79b39697e7b71ebc593d9", "fusion_lon": 0.0}, {"rental_uris": {"ios": "https://dc.lft.to/lastmile_qr_scan", "android": "https://dc.lft.to/lastmile_qr_scan"}, "type": "electric_scooter", "name": "8fbf55f6a444321c2845362e33c85d11", "is_reserved": 0, "lon": -77.0659675, "is_disabled": 0, "fusion_lat": 0.0, "lat": 38.90396966666667, "bike_id": "8fbf55f6a444321c2845362e33c85d11", "fusion_lon": 0.0}, {"rental_uris": {"ios": "https://dc.lft.to/lastmile_qr_scan", "android": "https://dc.lft.to/lastmile_qr_scan"}, "type": "electric_scooter", "name": "ef0ac08a04b2b7b0fad3de8d2956b2a0", "is_reserved": 0, "lon": -77.07920733333333, "is_disabled": 0, "fusion_lat": 0.0, "lat": 38.945666833333334, "bike_id": "ef0ac08a04b2b7b0fad3de8d2956b2a0", "fusion_lon": 0.0}, {"rental_uris": {"ios": "https://dc.lft.to/lastmile_qr_scan", "android": "https://dc.lft.to/lastmile_qr_scan"}, "type": "electric_scooter", "name": "7fbd16b543040a6adee3a3589f1f6120", "is_reserved": 0, "lon": -77.00339916666667, "is_disabled": 0, "fusion_lat": 0.0, "lat": 38.877304, "bike_id": "7fbd16b543040a6adee3a3589f1f6120", "fusion_lon": 0.0}, {"rental_uris": {"ios": "https://dc.lft.to/lastmile_qr_scan", "android": "https://dc.lft.to/lastmile_qr_scan"}, "type": "electric_scooter", "name": "3a55c88de77f48ef53af76adffaa4da9", "is_reserved": 0, "lon": -77.018903, "is_disabled": 0, "fusion_lat": 0.0, "lat": 38.89754766666667, "bike_id": "3a55c88de77f48ef53af76adffaa4da9", "fusion_lon": 0.0}, {"rental_uris": {"ios": "https://dc.lft.to/lastmile_qr_scan", "android": "https://dc.lft.to/lastmile_qr_scan"}, "type": "electric_scooter", "name": "d895a1ad51365e7af0fe1e86a27bdecc", "is_reserved": 0, "lon": -76.99607966666667, "is_disabled": 0, "fusion_lat": 0.0, "lat": 38.903217166666664, "bike_id": "d895a1ad51365e7af0fe1e86a27bdecc", "fusion_lon": 0.0}, {"rental_uris": {"ios": "https://dc.lft.to/lastmile_qr_scan", "android": "https://dc.lft.to/lastmile_qr_scan"}, "type": "electric_scooter", "name": "9ec3d374ef8ec0bc08f4126a37c3666c", "is_reserved": 0, "lon": -77.02491116666667, "is_disabled": 0, "fusion_lat": 0.0, "lat": 38.94051133333333, "bike_id": "9ec3d374ef8ec0bc08f4126a37c3666c", "fusion_lon": 0.0}, {"rental_uris": {"ios": "https://dc.lft.to/lastmile_qr_scan", "android": "https://dc.lft.to/lastmile_qr_scan"}, "type": "electric_bike", "name": "49ab4a958721bc08250997858e0654fd", "is_reserved": 0, "lon": -77.04308733333333, "is_disabled": 0, "fusion_lat": 0.0, "lat": 39.03425516666667, "bike_id": "49ab4a958721bc08250997858e0654fd", "fusion_lon": 0.0}, {"rental_uris": {"ios": "https://dc.lft.to/lastmile_qr_scan", "android": "https://dc.lft.to/lastmile_qr_scan"}, "type": "electric_scooter", "name": "59199ea9d2af72b60581473fa8faef98", "is_reserved": 0, "lon": -77.03200416666667, "is_disabled": 0, "fusion_lat": 0.0, "lat": 38.907366833333334, "bike_id": "59199ea9d2af72b60581473fa8faef98", "fusion_lon": 0.0}, {"rental_uris": {"ios": "https://dc.lft.to/lastmile_qr_scan", "android": "https://dc.lft.to/lastmile_qr_scan"}, "type": "electric_scooter", "name": "1d0696cae70403446a619d9e8f6ed389", "is_reserved": 0, "lon": -77.045015, "is_disabled": 0, "fusion_lat": 0.0, "lat": 38.907991833333334, "bike_id": "1d0696cae70403446a619d9e8f6ed389", "fusion_lon": 0.0}, {"rental_uris": {"ios": "https://dc.lft.to/lastmile_qr_scan", "android": "https://dc.lft.to/lastmile_qr_scan"}, "type": "electric_scooter", "name": "778d07814a7f203ba4243f1eb6f31618", "is_reserved": 0, "lon": -77.0009495, "is_disabled": 0, "fusion_lat": 0.0, "lat": 38.9084425, "bike_id": "778d07814a7f203ba4243f1eb6f31618", "fusion_lon": 0.0}, {"rental_uris": {"ios": "https://dc.lft.to/lastmile_qr_scan", "android": "https://dc.lft.to/lastmile_qr_scan"}, "type": "electric_bike", "name": "a91ca212341944a53c945501e2b1bb15", "is_reserved": 0, "lon": -77.1135225, "is_disabled": 0, "fusion_lat": 0.0, "lat": 38.841932, "bike_id": "a91ca212341944a53c945501e2b1bb15", "fusion_lon": 0.0}, {"rental_uris": {"ios": "https://dc.lft.to/lastmile_qr_scan", "android": "https://dc.lft.to/lastmile_qr_scan"}, "type": "electric_scooter", "name": "c013785aa90c7dcbcba92c6daff8daf2", "is_reserved": 0, "lon": -77.0050515, "is_disabled": 0, "fusion_lat": 0.0, "lat": 38.87945333333333, "bike_id": "c013785aa90c7dcbcba92c6daff8daf2", "fusion_lon": 0.0}, {"rental_uris": {"ios": "https://dc.lft.to/lastmile_qr_scan", "android": "https://dc.lft.to/lastmile_qr_scan"}, "type": "electric_scooter", "name": "05db8e688b5a143d35c8405ed18c06c6", "is_reserved": 0, "lon": -76.97370983333333, "is_disabled": 0, "fusion_lat": 0.0, "lat": 38.850008833333334, "bike_id": "05db8e688b5a143d35c8405ed18c06c6", "fusion_lon": 0.0}, {"rental_uris": {"ios": "https://dc.lft.to/lastmile_qr_scan", "android": "https://dc.lft.to/lastmile_qr_scan"}, "type": "electric_scooter", "name": "e57595d198e0d0171479de7d422cf8db", "is_reserved": 0, "lon": -77.0328025, "is_disabled": 0, "fusion_lat": 0.0, "lat": 38.93266333333333, "bike_id": "e57595d198e0d0171479de7d422cf8db", "fusion_lon": 0.0}, {"rental_uris": {"ios": "https://dc.lft.to/lastmile_qr_scan", "android": "https://dc.lft.to/lastmile_qr_scan"}, "type": "electric_scooter", "name": "7846610f1ab961effc2574da55463148", "is_reserved": 0, "lon": -77.009984, "is_disabled": 0, "fusion_lat": 0.0, "lat": 38.906453166666665, "bike_id": "7846610f1ab961effc2574da55463148", "fusion_lon": 0.0}, {"rental_uris": {"ios": "https://dc.lft.to/lastmile_qr_scan", "android": "https://dc.lft.to/lastmile_qr_scan"}, "type": "electric_scooter", "name": "1d305938a3b958cb29c228b51ad81842", "is_reserved": 0, "lon": -77.07456766666667, "is_disabled": 0, "fusion_lat": 0.0, "lat": 38.937866666666665, "bike_id": "1d305938a3b958cb29c228b51ad81842", "fusion_lon": 0.0}, {"rental_uris": {"ios": "https://dc.lft.to/lastmile_qr_scan", "android": "https://dc.lft.to/lastmile_qr_scan"}, "type": "electric_scooter", "name": "daf2ed7d484a7988073c0ee533179e67", "is_reserved": 0, "lon": -77.01759883333334, "is_disabled": 0, "fusion_lat": 0.0, "lat": 38.876896, "bike_id": "daf2ed7d484a7988073c0ee533179e67", "fusion_lon": 0.0}, {"rental_uris": {"ios": "https://dc.lft.to/lastmile_qr_scan", "android": "https://dc.lft.to/lastmile_qr_scan"}, "type": "electric_scooter", "name": "f999fa50f6ab2f80302cde0caa1de520", "is_reserved": 0, "lon": -77.00219, "is_disabled": 0, "fusion_lat": 0.0, "lat": 38.914659666666665, "bike_id": "f999fa50f6ab2f80302cde0caa1de520", "fusion_lon": 0.0}, {"rental_uris": {"ios": "https://dc.lft.to/lastmile_qr_scan", "android": "https://dc.lft.to/lastmile_qr_scan"}, "type": "electric_scooter", "name": "c6e43dca87671ddec6835c160c20797e", "is_reserved": 0, "lon": -77.0178075, "is_disabled": 0, "fusion_lat": 0.0, "lat": 38.90038883333333, "bike_id": "c6e43dca87671ddec6835c160c20797e", "fusion_lon": 0.0}, {"rental_uris": {"ios": "https://dc.lft.to/lastmile_qr_scan", "android": "https://dc.lft.to/lastmile_qr_scan"}, "type": "electric_scooter", "name": "580d12de25a92702b5e66d755fa66f44", "is_reserved": 0, "lon": -76.99352333333333, "is_disabled": 0, "fusion_lat": 0.0, "lat": 38.87691616666667, "bike_id": "580d12de25a92702b5e66d755fa66f44", "fusion_lon": 0.0}, {"rental_uris": {"ios": "https://dc.lft.to/lastmile_qr_scan", "android": "https://dc.lft.to/lastmile_qr_scan"}, "type": "electric_scooter", "name": "1f38fca73664b5eab3351d2fedf3a2ab", "is_reserved": 0, "lon": -76.98110466666667, "is_disabled": 0, "fusion_lat": 0.0, "lat": 38.90252, "bike_id": "1f38fca73664b5eab3351d2fedf3a2ab", "fusion_lon": 0.0}, {"rental_uris": {"ios": "https://dc.lft.to/lastmile_qr_scan", "android": "https://dc.lft.to/lastmile_qr_scan"}, "type": "electric_scooter", "name": "76f83fe723ab5ac70b00c66b2687d273", "is_reserved": 0, "lon": -76.99674383333334, "is_disabled": 0, "fusion_lat": 0.0, "lat": 38.88478383333333, "bike_id": "76f83fe723ab5ac70b00c66b2687d273", "fusion_lon": 0.0}, {"rental_uris": {"ios": "https://dc.lft.to/lastmile_qr_scan", "android": "https://dc.lft.to/lastmile_qr_scan"}, "type": "electric_scooter", "name": "bedae023e52dbd8b5cb263ec84db4b96", "is_reserved": 0, "lon": -77.01217216666667, "is_disabled": 0, "fusion_lat": 0.0, "lat": 38.90170483333333, "bike_id": "bedae023e52dbd8b5cb263ec84db4b96", "fusion_lon": 0.0}, {"rental_uris": {"ios": "https://dc.lft.to/lastmile_qr_scan", "android": "https://dc.lft.to/lastmile_qr_scan"}, "type": "electric_scooter", "name": "3e6be43564bac0c5f98195c3fdacc06f", "is_reserved": 0, "lon": -77.0007855, "is_disabled": 0, "fusion_lat": 0.0, "lat": 38.87392283333333, "bike_id": "3e6be43564bac0c5f98195c3fdacc06f", "fusion_lon": 0.0}, {"rental_uris": {"ios": "https://dc.lft.to/lastmile_qr_scan", "android": "https://dc.lft.to/lastmile_qr_scan"}, "type": "electric_scooter", "name": "d5a0dcc31a98954357402097f7fa85dd", "is_reserved": 0, "lon": -77.04360566666666, "is_disabled": 0, "fusion_lat": 0.0, "lat": 38.908256, "bike_id": "d5a0dcc31a98954357402097f7fa85dd", "fusion_lon": 0.0}, {"rental_uris": {"ios": "https://dc.lft.to/lastmile_qr_scan", "android": "https://dc.lft.to/lastmile_qr_scan"}, "type": "electric_scooter", "name": "d472d157460a108597f2cf674e25d490", "is_reserved": 0, "lon": -77.04473483333334, "is_disabled": 0, "fusion_lat": 0.0, "lat": 38.9038425, "bike_id": "d472d157460a108597f2cf674e25d490", "fusion_lon": 0.0}, {"rental_uris": {"ios": "https://dc.lft.to/lastmile_qr_scan", "android": "https://dc.lft.to/lastmile_qr_scan"}, "type": "electric_scooter", "name": "b2f5d90964881034511976d30f5ee3f0", "is_reserved": 0, "lon": -77.0271385, "is_disabled": 0, "fusion_lat": 0.0, "lat": 38.910169, "bike_id": "b2f5d90964881034511976d30f5ee3f0", "fusion_lon": 0.0}, {"rental_uris": {"ios": "https://dc.lft.to/lastmile_qr_scan", "android": "https://dc.lft.to/lastmile_qr_scan"}, "type": "electric_scooter", "name": "2126172910770bd202fb0c17f1f272c6", "is_reserved": 0, "lon": -77.03209166666667, "is_disabled": 0, "fusion_lat": 0.0, "lat": 38.916466666666665, "bike_id": "2126172910770bd202fb0c17f1f272c6", "fusion_lon": 0.0}, {"rental_uris": {"ios": "https://dc.lft.to/lastmile_qr_scan", "android": "https://dc.lft.to/lastmile_qr_scan"}, "type": "electric_scooter", "name": "18816cd1d2942ea1b0a04e8f47c120c7", "is_reserved": 0, "lon": -77.08186266666667, "is_disabled": 0, "fusion_lat": 0.0, "lat": 38.93335366666667, "bike_id": "18816cd1d2942ea1b0a04e8f47c120c7", "fusion_lon": 0.0}, {"rental_uris": {"ios": "https://dc.lft.to/lastmile_qr_scan", "android": "https://dc.lft.to/lastmile_qr_scan"}, "type": "electric_scooter", "name": "89f0847a27bae1f8b0f17821529b2a9e", "is_reserved": 0, "lon": -76.98530783333334, "is_disabled": 0, "fusion_lat": 0.0, "lat": 38.880849833333336, "bike_id": "89f0847a27bae1f8b0f17821529b2a9e", "fusion_lon": 0.0}, {"rental_uris": {"ios": "https://dc.lft.to/lastmile_qr_scan", "android": "https://dc.lft.to/lastmile_qr_scan"}, "type": "electric_scooter", "name": "e9353e28fa470e517a1d282c56004bd7", "is_reserved": 0, "lon": -76.9870135, "is_disabled": 0, "fusion_lat": 0.0, "lat": 38.8596855, "bike_id": "e9353e28fa470e517a1d282c56004bd7", "fusion_lon": 0.0}, {"rental_uris": {"ios": "https://dc.lft.to/lastmile_qr_scan", "android": "https://dc.lft.to/lastmile_qr_scan"}, "type": "electric_scooter", "name": "1227b22803890fa39f3c166b9920480c", "is_reserved": 0, "lon": -76.9951105, "is_disabled": 0, "fusion_lat": 0.0, "lat": 38.88992566666667, "bike_id": "1227b22803890fa39f3c166b9920480c", "fusion_lon": 0.0}, {"rental_uris": {"ios": "https://dc.lft.to/lastmile_qr_scan", "android": "https://dc.lft.to/lastmile_qr_scan"}, "type": "electric_scooter", "name": "399aae1751fdab8bf01d2c22c60fd06c", "is_reserved": 0, "lon": -77.00115, "is_disabled": 0, "fusion_lat": 0.0, "lat": 38.877933666666664, "bike_id": "399aae1751fdab8bf01d2c22c60fd06c", "fusion_lon": 0.0}, {"rental_uris": {"ios": "https://dc.lft.to/lastmile_qr_scan", "android": "https://dc.lft.to/lastmile_qr_scan"}, "type": "electric_scooter", "name": "0a76b89188341c7c7684726a5400b9e6", "is_reserved": 0, "lon": -77.01429933333333, "is_disabled": 0, "fusion_lat": 0.0, "lat": 38.92029183333333, "bike_id": "0a76b89188341c7c7684726a5400b9e6", "fusion_lon": 0.0}, {"rental_uris": {"ios": "https://dc.lft.to/lastmile_qr_scan", "android": "https://dc.lft.to/lastmile_qr_scan"}, "type": "electric_scooter", "name": "9d4d1bd0ca293e672fa88f268e065f83", "is_reserved": 0, "lon": -77.04743616666667, "is_disabled": 0, "fusion_lat": 0.0, "lat": 38.91775716666667, "bike_id": "9d4d1bd0ca293e672fa88f268e065f83", "fusion_lon": 0.0}, {"rental_uris": {"ios": "https://dc.lft.to/lastmile_qr_scan", "android": "https://dc.lft.to/lastmile_qr_scan"}, "type": "electric_bike", "name": "81a82457eaa42d1992933627a761c341", "is_reserved": 0, "lon": -76.98346133333334, "is_disabled": 0, "fusion_lat": 0.0, "lat": 38.862633, "bike_id": "81a82457eaa42d1992933627a761c341", "fusion_lon": 0.0}, {"rental_uris": {"ios": "https://dc.lft.to/lastmile_qr_scan", "android": "https://dc.lft.to/lastmile_qr_scan"}, "type": "electric_scooter", "name": "60e2d0646c5e63b03b4a9ffc69b5fc73", "is_reserved": 0, "lon": -77.00049716666666, "is_disabled": 0, "fusion_lat": 0.0, "lat": 38.87923833333333, "bike_id": "60e2d0646c5e63b03b4a9ffc69b5fc73", "fusion_lon": 0.0}, {"rental_uris": {"ios": "https://dc.lft.to/lastmile_qr_scan", "android": "https://dc.lft.to/lastmile_qr_scan"}, "type": "electric_bike", "name": "eebf1a526274e29464230d09c1c3da6b", "is_reserved": 0, "lon": -76.918055, "is_disabled": 0, "fusion_lat": 0.0, "lat": 39.000089833333334, "bike_id": "eebf1a526274e29464230d09c1c3da6b", "fusion_lon": 0.0}, {"rental_uris": {"ios": "https://dc.lft.to/lastmile_qr_scan", "android": "https://dc.lft.to/lastmile_qr_scan"}, "type": "electric_scooter", "name": "6f706ccd4e1a70029e4f570a7cfe3e36", "is_reserved": 0, "lon": -77.02707216666667, "is_disabled": 0, "fusion_lat": 0.0, "lat": 38.91769933333333, "bike_id": "6f706ccd4e1a70029e4f570a7cfe3e36", "fusion_lon": 0.0}, {"rental_uris": {"ios": "https://dc.lft.to/lastmile_qr_scan", "android": "https://dc.lft.to/lastmile_qr_scan"}, "type": "electric_scooter", "name": "97493ad3631efffc18710c9e8552160f", "is_reserved": 0, "lon": -77.04361866666666, "is_disabled": 0, "fusion_lat": 0.0, "lat": 38.92241583333333, "bike_id": "97493ad3631efffc18710c9e8552160f", "fusion_lon": 0.0}, {"rental_uris": {"ios": "https://dc.lft.to/lastmile_qr_scan", "android": "https://dc.lft.to/lastmile_qr_scan"}, "type": "electric_bike", "name": "dbf1c0e3bfbc3b0d2d980013817bea98", "is_reserved": 0, "lon": -77.13227333333333, "is_disabled": 0, "fusion_lat": 0.0, "lat": 38.8045005, "bike_id": "dbf1c0e3bfbc3b0d2d980013817bea98", "fusion_lon": 0.0}, {"rental_uris": {"ios": "https://dc.lft.to/lastmile_qr_scan", "android": "https://dc.lft.to/lastmile_qr_scan"}, "type": "electric_scooter", "name": "2848c82c9bb521a4d7513fe07c884166", "is_reserved": 0, "lon": -77.03167083333334, "is_disabled": 0, "fusion_lat": 0.0, "lat": 38.913253166666664, "bike_id": "2848c82c9bb521a4d7513fe07c884166", "fusion_lon": 0.0}, {"rental_uris": {"ios": "https://dc.lft.to/lastmile_qr_scan", "android": "https://dc.lft.to/lastmile_qr_scan"}, "type": "electric_scooter", "name": "6b175a6f615a7076c8226fae91b53625", "is_reserved": 0, "lon": -77.04168183333333, "is_disabled": 0, "fusion_lat": 0.0, "lat": 38.911939833333335, "bike_id": "6b175a6f615a7076c8226fae91b53625", "fusion_lon": 0.0}, {"rental_uris": {"ios": "https://dc.lft.to/lastmile_qr_scan", "android": "https://dc.lft.to/lastmile_qr_scan"}, "type": "electric_scooter", "name": "5b6f3a797b23255aaf04db63a1ce0ce3", "is_reserved": 0, "lon": -77.03847866666666, "is_disabled": 0, "fusion_lat": 0.0, "lat": 38.9263765, "bike_id": "5b6f3a797b23255aaf04db63a1ce0ce3", "fusion_lon": 0.0}, {"rental_uris": {"ios": "https://dc.lft.to/lastmile_qr_scan", "android": "https://dc.lft.to/lastmile_qr_scan"}, "type": "electric_scooter", "name": "1226de682cc01d1ea85ea8943d0daafa", "is_reserved": 0, "lon": -77.02694233333334, "is_disabled": 0, "fusion_lat": 0.0, "lat": 38.9084025, "bike_id": "1226de682cc01d1ea85ea8943d0daafa", "fusion_lon": 0.0}, {"rental_uris": {"ios": "https://dc.lft.to/lastmile_qr_scan", "android": "https://dc.lft.to/lastmile_qr_scan"}, "type": "electric_scooter", "name": "a5d070ec58ca71dbe07a51469eb9830b", "is_reserved": 0, "lon": -77.0062515, "is_disabled": 0, "fusion_lat": 0.0, "lat": 38.8716535, "bike_id": "a5d070ec58ca71dbe07a51469eb9830b", "fusion_lon": 0.0}, {"rental_uris": {"ios": "https://dc.lft.to/lastmile_qr_scan", "android": "https://dc.lft.to/lastmile_qr_scan"}, "type": "electric_scooter", "name": "ad87339522af3f5eecc1da64976e3310", "is_reserved": 0, "lon": -77.06663566666667, "is_disabled": 0, "fusion_lat": 0.0, "lat": 38.903619166666665, "bike_id": "ad87339522af3f5eecc1da64976e3310", "fusion_lon": 0.0}, {"rental_uris": {"ios": "https://dc.lft.to/lastmile_qr_scan", "android": "https://dc.lft.to/lastmile_qr_scan"}, "type": "electric_scooter", "name": "ba6a43e1579c33bb60e5c038800fabdf", "is_reserved": 0, "lon": -77.01793583333334, "is_disabled": 0, "fusion_lat": 0.0, "lat": 38.8860105, "bike_id": "ba6a43e1579c33bb60e5c038800fabdf", "fusion_lon": 0.0}, {"rental_uris": {"ios": "https://dc.lft.to/lastmile_qr_scan", "android": "https://dc.lft.to/lastmile_qr_scan"}, "type": "electric_scooter", "name": "1edbc817bb97d6a2ac3237f889d55986", "is_reserved": 0, "lon": -77.026343, "is_disabled": 0, "fusion_lat": 0.0, "lat": 38.9248005, "bike_id": "1edbc817bb97d6a2ac3237f889d55986", "fusion_lon": 0.0}, {"rental_uris": {"ios": "https://dc.lft.to/lastmile_qr_scan", "android": "https://dc.lft.to/lastmile_qr_scan"}, "type": "electric_scooter", "name": "5fd671cb0caf8c4cd5e0c59b28396240", "is_reserved": 0, "lon": -77.00456866666667, "is_disabled": 0, "fusion_lat": 0.0, "lat": 38.920761, "bike_id": "5fd671cb0caf8c4cd5e0c59b28396240", "fusion_lon": 0.0}, {"rental_uris": {"ios": "https://dc.lft.to/lastmile_qr_scan", "android": "https://dc.lft.to/lastmile_qr_scan"}, "type": "electric_scooter", "name": "e5a89e6a35618192e94363e6d1f11a3f", "is_reserved": 0, "lon": -77.03449866666666, "is_disabled": 0, "fusion_lat": 0.0, "lat": 38.9084455, "bike_id": "e5a89e6a35618192e94363e6d1f11a3f", "fusion_lon": 0.0}, {"rental_uris": {"ios": "https://dc.lft.to/lastmile_qr_scan", "android": "https://dc.lft.to/lastmile_qr_scan"}, "type": "electric_scooter", "name": "ee5d04afe4eda4dea88ea7936f0cb4a4", "is_reserved": 0, "lon": -77.04763416666667, "is_disabled": 0, "fusion_lat": 0.0, "lat": 38.91253966666667, "bike_id": "ee5d04afe4eda4dea88ea7936f0cb4a4", "fusion_lon": 0.0}, {"rental_uris": {"ios": "https://dc.lft.to/lastmile_qr_scan", "android": "https://dc.lft.to/lastmile_qr_scan"}, "type": "electric_scooter", "name": "a849b2f63ba0194f4376b92a9d3c9b49", "is_reserved": 0, "lon": -77.05385283333334, "is_disabled": 0, "fusion_lat": 0.0, "lat": 38.89841116666667, "bike_id": "a849b2f63ba0194f4376b92a9d3c9b49", "fusion_lon": 0.0}, {"rental_uris": {"ios": "https://dc.lft.to/lastmile_qr_scan", "android": "https://dc.lft.to/lastmile_qr_scan"}, "type": "electric_bike", "name": "4998f607c1ea70d41536bb431de3d98a", "is_reserved": 0, "lon": -76.99071383333333, "is_disabled": 0, "fusion_lat": 0.0, "lat": 38.930600166666665, "bike_id": "4998f607c1ea70d41536bb431de3d98a", "fusion_lon": 0.0}, {"rental_uris": {"ios": "https://dc.lft.to/lastmile_qr_scan", "android": "https://dc.lft.to/lastmile_qr_scan"}, "type": "electric_scooter", "name": "376e18b617b660edf6390bd510883a91", "is_reserved": 0, "lon": -77.02802466666667, "is_disabled": 0, "fusion_lat": 0.0, "lat": 38.892264, "bike_id": "376e18b617b660edf6390bd510883a91", "fusion_lon": 0.0}, {"rental_uris": {"ios": "https://dc.lft.to/lastmile_qr_scan", "android": "https://dc.lft.to/lastmile_qr_scan"}, "type": "electric_scooter", "name": "61d62f10ded86c37746a8b21001f0e52", "is_reserved": 0, "lon": -77.03233333333333, "is_disabled": 0, "fusion_lat": 0.0, "lat": 38.9104295, "bike_id": "61d62f10ded86c37746a8b21001f0e52", "fusion_lon": 0.0}, {"rental_uris": {"ios": "https://dc.lft.to/lastmile_qr_scan", "android": "https://dc.lft.to/lastmile_qr_scan"}, "type": "electric_scooter", "name": "a9794a440e50ed8cbd4f70a304574f94", "is_reserved": 0, "lon": -77.0178185, "is_disabled": 0, "fusion_lat": 0.0, "lat": 38.92045133333333, "bike_id": "a9794a440e50ed8cbd4f70a304574f94", "fusion_lon": 0.0}, {"rental_uris": {"ios": "https://dc.lft.to/lastmile_qr_scan", "android": "https://dc.lft.to/lastmile_qr_scan"}, "type": "electric_scooter", "name": "6669614482405428d02858822ce5d177", "is_reserved": 0, "lon": -77.025767, "is_disabled": 0, "fusion_lat": 0.0, "lat": 38.887198, "bike_id": "6669614482405428d02858822ce5d177", "fusion_lon": 0.0}, {"rental_uris": {"ios": "https://dc.lft.to/lastmile_qr_scan", "android": "https://dc.lft.to/lastmile_qr_scan"}, "type": "electric_scooter", "name": "cd4e7ce2fd50b9c303febaa5fb4cbaa9", "is_reserved": 0, "lon": -77.055156, "is_disabled": 0, "fusion_lat": 0.0, "lat": 38.928441166666666, "bike_id": "cd4e7ce2fd50b9c303febaa5fb4cbaa9", "fusion_lon": 0.0}, {"rental_uris": {"ios": "https://dc.lft.to/lastmile_qr_scan", "android": "https://dc.lft.to/lastmile_qr_scan"}, "type": "electric_scooter", "name": "2de685203a7314b8e8c8c69d3fc21947", "is_reserved": 0, "lon": -77.041162, "is_disabled": 0, "fusion_lat": 0.0, "lat": 38.928848333333335, "bike_id": "2de685203a7314b8e8c8c69d3fc21947", "fusion_lon": 0.0}, {"rental_uris": {"ios": "https://dc.lft.to/lastmile_qr_scan", "android": "https://dc.lft.to/lastmile_qr_scan"}, "type": "electric_scooter", "name": "915b41f562c6db0975018fdb5eb73314", "is_reserved": 0, "lon": -77.03335166666666, "is_disabled": 0, "fusion_lat": 0.0, "lat": 38.915606333333336, "bike_id": "915b41f562c6db0975018fdb5eb73314", "fusion_lon": 0.0}, {"rental_uris": {"ios": "https://dc.lft.to/lastmile_qr_scan", "android": "https://dc.lft.to/lastmile_qr_scan"}, "type": "electric_scooter", "name": "558e1c55e91b6d8757dfd70d604d3499", "is_reserved": 0, "lon": -76.99959833333334, "is_disabled": 0, "fusion_lat": 0.0, "lat": 38.89199716666667, "bike_id": "558e1c55e91b6d8757dfd70d604d3499", "fusion_lon": 0.0}, {"rental_uris": {"ios": "https://dc.lft.to/lastmile_qr_scan", "android": "https://dc.lft.to/lastmile_qr_scan"}, "type": "electric_scooter", "name": "11ac728a77a09506d8e799bb0bd59b8c", "is_reserved": 0, "lon": -77.0725955, "is_disabled": 0, "fusion_lat": 0.0, "lat": 38.934415, "bike_id": "11ac728a77a09506d8e799bb0bd59b8c", "fusion_lon": 0.0}, {"rental_uris": {"ios": "https://dc.lft.to/lastmile_qr_scan", "android": "https://dc.lft.to/lastmile_qr_scan"}, "type": "electric_scooter", "name": "f79afe083161e8fd83c186c690f6b8bf", "is_reserved": 0, "lon": -76.93719883333333, "is_disabled": 0, "fusion_lat": 0.0, "lat": 38.890303, "bike_id": "f79afe083161e8fd83c186c690f6b8bf", "fusion_lon": 0.0}, {"rental_uris": {"ios": "https://dc.lft.to/lastmile_qr_scan", "android": "https://dc.lft.to/lastmile_qr_scan"}, "type": "electric_scooter", "name": "649a6cb8c0cde1fea49d85f4de59a0a8", "is_reserved": 0, "lon": -77.04366083333333, "is_disabled": 0, "fusion_lat": 0.0, "lat": 38.8922715, "bike_id": "649a6cb8c0cde1fea49d85f4de59a0a8", "fusion_lon": 0.0}, {"rental_uris": {"ios": "https://dc.lft.to/lastmile_qr_scan", "android": "https://dc.lft.to/lastmile_qr_scan"}, "type": "electric_scooter", "name": "08fa0f7491b21af14bed8d1cf17a4b0f", "is_reserved": 0, "lon": -77.02388883333333, "is_disabled": 0, "fusion_lat": 0.0, "lat": 38.920789, "bike_id": "08fa0f7491b21af14bed8d1cf17a4b0f", "fusion_lon": 0.0}, {"rental_uris": {"ios": "https://dc.lft.to/lastmile_qr_scan", "android": "https://dc.lft.to/lastmile_qr_scan"}, "type": "electric_scooter", "name": "2888339f4659480ab1963a551c6370ca", "is_reserved": 0, "lon": -77.05061866666667, "is_disabled": 0, "fusion_lat": 0.0, "lat": 38.92361016666667, "bike_id": "2888339f4659480ab1963a551c6370ca", "fusion_lon": 0.0}, {"rental_uris": {"ios": "https://dc.lft.to/lastmile_qr_scan", "android": "https://dc.lft.to/lastmile_qr_scan"}, "type": "electric_scooter", "name": "42bf9d449fb81ad7727b77277cfaaae9", "is_reserved": 0, "lon": -77.071614, "is_disabled": 0, "fusion_lat": 0.0, "lat": 38.90774433333333, "bike_id": "42bf9d449fb81ad7727b77277cfaaae9", "fusion_lon": 0.0}, {"rental_uris": {"ios": "https://dc.lft.to/lastmile_qr_scan", "android": "https://dc.lft.to/lastmile_qr_scan"}, "type": "electric_scooter", "name": "75d281c0573cc7a6105cc489758f7d03", "is_reserved": 0, "lon": -77.000511, "is_disabled": 0, "fusion_lat": 0.0, "lat": 38.90010083333333, "bike_id": "75d281c0573cc7a6105cc489758f7d03", "fusion_lon": 0.0}, {"rental_uris": {"ios": "https://dc.lft.to/lastmile_qr_scan", "android": "https://dc.lft.to/lastmile_qr_scan"}, "type": "electric_scooter", "name": "fa81d39cae4457fde17d64d8a1e95164", "is_reserved": 0, "lon": -76.92894266666667, "is_disabled": 0, "fusion_lat": 0.0, "lat": 38.87946016666667, "bike_id": "fa81d39cae4457fde17d64d8a1e95164", "fusion_lon": 0.0}, {"rental_uris": {"ios": "https://dc.lft.to/lastmile_qr_scan", "android": "https://dc.lft.to/lastmile_qr_scan"}, "type": "electric_scooter", "name": "996b2e85331bb85526d1bc461bd36275", "is_reserved": 0, "lon": -76.98493683333334, "is_disabled": 0, "fusion_lat": 0.0, "lat": 38.90365716666667, "bike_id": "996b2e85331bb85526d1bc461bd36275", "fusion_lon": 0.0}, {"rental_uris": {"ios": "https://dc.lft.to/lastmile_qr_scan", "android": "https://dc.lft.to/lastmile_qr_scan"}, "type": "electric_scooter", "name": "120a1c461a71dce120074c62e9043326", "is_reserved": 0, "lon": -77.0114535, "is_disabled": 0, "fusion_lat": 0.0, "lat": 38.906445166666664, "bike_id": "120a1c461a71dce120074c62e9043326", "fusion_lon": 0.0}, {"rental_uris": {"ios": "https://dc.lft.to/lastmile_qr_scan", "android": "https://dc.lft.to/lastmile_qr_scan"}, "type": "electric_scooter", "name": "5163b0f3ca4b1c60253e959c5906e42f", "is_reserved": 0, "lon": -77.03661966666667, "is_disabled": 0, "fusion_lat": 0.0, "lat": 38.92349566666667, "bike_id": "5163b0f3ca4b1c60253e959c5906e42f", "fusion_lon": 0.0}, {"rental_uris": {"ios": "https://dc.lft.to/lastmile_qr_scan", "android": "https://dc.lft.to/lastmile_qr_scan"}, "type": "electric_scooter", "name": "b9df8182242ea51d7740ba220dcba7f1", "is_reserved": 0, "lon": -77.03261683333334, "is_disabled": 0, "fusion_lat": 0.0, "lat": 38.90462316666667, "bike_id": "b9df8182242ea51d7740ba220dcba7f1", "fusion_lon": 0.0}, {"rental_uris": {"ios": "https://dc.lft.to/lastmile_qr_scan", "android": "https://dc.lft.to/lastmile_qr_scan"}, "type": "electric_scooter", "name": "ca4051d7e8c360ca4829a7d67b9c16ed", "is_reserved": 0, "lon": -77.02351266666666, "is_disabled": 0, "fusion_lat": 0.0, "lat": 38.94198733333333, "bike_id": "ca4051d7e8c360ca4829a7d67b9c16ed", "fusion_lon": 0.0}, {"rental_uris": {"ios": "https://dc.lft.to/lastmile_qr_scan", "android": "https://dc.lft.to/lastmile_qr_scan"}, "type": "electric_scooter", "name": "5b68bcf6e4b07142561663b93435607a", "is_reserved": 0, "lon": -77.00079, "is_disabled": 0, "fusion_lat": 0.0, "lat": 38.8738865, "bike_id": "5b68bcf6e4b07142561663b93435607a", "fusion_lon": 0.0}, {"rental_uris": {"ios": "https://dc.lft.to/lastmile_qr_scan", "android": "https://dc.lft.to/lastmile_qr_scan"}, "type": "electric_scooter", "name": "5315d60b251cdab92c66131335678a7a", "is_reserved": 0, "lon": -77.01460316666666, "is_disabled": 0, "fusion_lat": 0.0, "lat": 38.917676166666666, "bike_id": "5315d60b251cdab92c66131335678a7a", "fusion_lon": 0.0}, {"rental_uris": {"ios": "https://dc.lft.to/lastmile_qr_scan", "android": "https://dc.lft.to/lastmile_qr_scan"}, "type": "electric_scooter", "name": "ecec4acc9b368f0c7f7453f06b05e1f9", "is_reserved": 0, "lon": -77.00596266666666, "is_disabled": 0, "fusion_lat": 0.0, "lat": 38.906903666666665, "bike_id": "ecec4acc9b368f0c7f7453f06b05e1f9", "fusion_lon": 0.0}, {"rental_uris": {"ios": "https://dc.lft.to/lastmile_qr_scan", "android": "https://dc.lft.to/lastmile_qr_scan"}, "type": "electric_scooter", "name": "a9abfb465bbb5dc5d297ffe8cfb8fc0a", "is_reserved": 0, "lon": -77.012322, "is_disabled": 0, "fusion_lat": 0.0, "lat": 38.91584066666667, "bike_id": "a9abfb465bbb5dc5d297ffe8cfb8fc0a", "fusion_lon": 0.0}, {"rental_uris": {"ios": "https://dc.lft.to/lastmile_qr_scan", "android": "https://dc.lft.to/lastmile_qr_scan"}, "type": "electric_scooter", "name": "c63f203d8df8f55211c6818418b8d988", "is_reserved": 0, "lon": -77.06337716666667, "is_disabled": 0, "fusion_lat": 0.0, "lat": 38.943688, "bike_id": "c63f203d8df8f55211c6818418b8d988", "fusion_lon": 0.0}, {"rental_uris": {"ios": "https://dc.lft.to/lastmile_qr_scan", "android": "https://dc.lft.to/lastmile_qr_scan"}, "type": "electric_scooter", "name": "5634674c808afae1075f2f0ddc2b1138", "is_reserved": 0, "lon": -77.03428483333333, "is_disabled": 0, "fusion_lat": 0.0, "lat": 38.919189333333335, "bike_id": "5634674c808afae1075f2f0ddc2b1138", "fusion_lon": 0.0}, {"rental_uris": {"ios": "https://dc.lft.to/lastmile_qr_scan", "android": "https://dc.lft.to/lastmile_qr_scan"}, "type": "electric_scooter", "name": "61052f145d1df6f89b9d602c333a86be", "is_reserved": 0, "lon": -77.04735, "is_disabled": 0, "fusion_lat": 0.0, "lat": 38.8955495, "bike_id": "61052f145d1df6f89b9d602c333a86be", "fusion_lon": 0.0}, {"rental_uris": {"ios": "https://dc.lft.to/lastmile_qr_scan", "android": "https://dc.lft.to/lastmile_qr_scan"}, "type": "electric_scooter", "name": "8904983f602bbd608afb7055009087e8", "is_reserved": 0, "lon": -77.034944, "is_disabled": 0, "fusion_lat": 0.0, "lat": 38.9156355, "bike_id": "8904983f602bbd608afb7055009087e8", "fusion_lon": 0.0}, {"rental_uris": {"ios": "https://dc.lft.to/lastmile_qr_scan", "android": "https://dc.lft.to/lastmile_qr_scan"}, "type": "electric_scooter", "name": "1d5fd8b8df696a668f8bfad58945964d", "is_reserved": 0, "lon": -77.02689266666667, "is_disabled": 0, "fusion_lat": 0.0, "lat": 38.908415166666664, "bike_id": "1d5fd8b8df696a668f8bfad58945964d", "fusion_lon": 0.0}, {"rental_uris": {"ios": "https://dc.lft.to/lastmile_qr_scan", "android": "https://dc.lft.to/lastmile_qr_scan"}, "type": "electric_scooter", "name": "7bde43d5f665e9fe9b3350358751e8a7", "is_reserved": 0, "lon": -77.01016483333333, "is_disabled": 0, "fusion_lat": 0.0, "lat": 38.91261, "bike_id": "7bde43d5f665e9fe9b3350358751e8a7", "fusion_lon": 0.0}, {"rental_uris": {"ios": "https://dc.lft.to/lastmile_qr_scan", "android": "https://dc.lft.to/lastmile_qr_scan"}, "type": "electric_scooter", "name": "6efcd63afd7973ca7a4caf7b530ee509", "is_reserved": 0, "lon": -77.02278683333333, "is_disabled": 0, "fusion_lat": 0.0, "lat": 38.91674033333334, "bike_id": "6efcd63afd7973ca7a4caf7b530ee509", "fusion_lon": 0.0}, {"rental_uris": {"ios": "https://dc.lft.to/lastmile_qr_scan", "android": "https://dc.lft.to/lastmile_qr_scan"}, "type": "electric_scooter", "name": "f56e2c99a0faf6c75133e58d5962a0f3", "is_reserved": 0, "lon": -76.93184683333334, "is_disabled": 0, "fusion_lat": 0.0, "lat": 38.89878483333333, "bike_id": "f56e2c99a0faf6c75133e58d5962a0f3", "fusion_lon": 0.0}, {"rental_uris": {"ios": "https://dc.lft.to/lastmile_qr_scan", "android": "https://dc.lft.to/lastmile_qr_scan"}, "type": "electric_scooter", "name": "87e61ec1eede2f5958e36a1bdb12c65c", "is_reserved": 0, "lon": -77.01821666666666, "is_disabled": 0, "fusion_lat": 0.0, "lat": 38.905113166666666, "bike_id": "87e61ec1eede2f5958e36a1bdb12c65c", "fusion_lon": 0.0}, {"rental_uris": {"ios": "https://dc.lft.to/lastmile_qr_scan", "android": "https://dc.lft.to/lastmile_qr_scan"}, "type": "electric_scooter", "name": "302776af6b33a5f6af41b0ad813c7c29", "is_reserved": 0, "lon": -77.03435166666667, "is_disabled": 0, "fusion_lat": 0.0, "lat": 38.91806716666667, "bike_id": "302776af6b33a5f6af41b0ad813c7c29", "fusion_lon": 0.0}, {"rental_uris": {"ios": "https://dc.lft.to/lastmile_qr_scan", "android": "https://dc.lft.to/lastmile_qr_scan"}, "type": "electric_scooter", "name": "7a189205f147cba32a8540cb40732792", "is_reserved": 0, "lon": -77.0377675, "is_disabled": 0, "fusion_lat": 0.0, "lat": 38.9233095, "bike_id": "7a189205f147cba32a8540cb40732792", "fusion_lon": 0.0}, {"rental_uris": {"ios": "https://dc.lft.to/lastmile_qr_scan", "android": "https://dc.lft.to/lastmile_qr_scan"}, "type": "electric_scooter", "name": "a348452ba57c81161bf2d9496e555d94", "is_reserved": 0, "lon": -77.0091615, "is_disabled": 0, "fusion_lat": 0.0, "lat": 38.912409, "bike_id": "a348452ba57c81161bf2d9496e555d94", "fusion_lon": 0.0}, {"rental_uris": {"ios": "https://dc.lft.to/lastmile_qr_scan", "android": "https://dc.lft.to/lastmile_qr_scan"}, "type": "electric_scooter", "name": "0e6c86dfd0ea84d9b21219f6bae5b76a", "is_reserved": 0, "lon": -77.03200033333333, "is_disabled": 0, "fusion_lat": 0.0, "lat": 38.907089, "bike_id": "0e6c86dfd0ea84d9b21219f6bae5b76a", "fusion_lon": 0.0}, {"rental_uris": {"ios": "https://dc.lft.to/lastmile_qr_scan", "android": "https://dc.lft.to/lastmile_qr_scan"}, "type": "electric_scooter", "name": "1cc843d8bca9b8df1e9f9da2e77f57bd", "is_reserved": 0, "lon": -76.95256383333333, "is_disabled": 0, "fusion_lat": 0.0, "lat": 38.89274066666667, "bike_id": "1cc843d8bca9b8df1e9f9da2e77f57bd", "fusion_lon": 0.0}, {"rental_uris": {"ios": "https://dc.lft.to/lastmile_qr_scan", "android": "https://dc.lft.to/lastmile_qr_scan"}, "type": "electric_scooter", "name": "91fd7b2120ab1931e2b8ba554b7c0f11", "is_reserved": 0, "lon": -76.94379666666667, "is_disabled": 0, "fusion_lat": 0.0, "lat": 38.891112166666666, "bike_id": "91fd7b2120ab1931e2b8ba554b7c0f11", "fusion_lon": 0.0}, {"rental_uris": {"ios": "https://dc.lft.to/lastmile_qr_scan", "android": "https://dc.lft.to/lastmile_qr_scan"}, "type": "electric_scooter", "name": "85f33995f54ccaeb4c6c011c48cb96b8", "is_reserved": 0, "lon": -77.0361635, "is_disabled": 0, "fusion_lat": 0.0, "lat": 38.923383, "bike_id": "85f33995f54ccaeb4c6c011c48cb96b8", "fusion_lon": 0.0}, {"rental_uris": {"ios": "https://dc.lft.to/lastmile_qr_scan", "android": "https://dc.lft.to/lastmile_qr_scan"}, "type": "electric_scooter", "name": "e2e4c018f0977a5dadb7aae99ac22da7", "is_reserved": 0, "lon": -76.94649466666667, "is_disabled": 0, "fusion_lat": 0.0, "lat": 38.898316333333334, "bike_id": "e2e4c018f0977a5dadb7aae99ac22da7", "fusion_lon": 0.0}, {"rental_uris": {"ios": "https://dc.lft.to/lastmile_qr_scan", "android": "https://dc.lft.to/lastmile_qr_scan"}, "type": "electric_scooter", "name": "83a79583f6e9ac28e70dce91674db512", "is_reserved": 0, "lon": -77.0280295, "is_disabled": 0, "fusion_lat": 0.0, "lat": 38.89353583333333, "bike_id": "83a79583f6e9ac28e70dce91674db512", "fusion_lon": 0.0}, {"rental_uris": {"ios": "https://dc.lft.to/lastmile_qr_scan", "android": "https://dc.lft.to/lastmile_qr_scan"}, "type": "electric_scooter", "name": "91aa86d88ffcfd365a02ca2fb808091e", "is_reserved": 0, "lon": -77.0247375, "is_disabled": 0, "fusion_lat": 0.0, "lat": 38.9181545, "bike_id": "91aa86d88ffcfd365a02ca2fb808091e", "fusion_lon": 0.0}, {"rental_uris": {"ios": "https://dc.lft.to/lastmile_qr_scan", "android": "https://dc.lft.to/lastmile_qr_scan"}, "type": "electric_scooter", "name": "103d23cd1c73bcbb8b59550a88542039", "is_reserved": 0, "lon": -77.038557, "is_disabled": 0, "fusion_lat": 0.0, "lat": 38.910928, "bike_id": "103d23cd1c73bcbb8b59550a88542039", "fusion_lon": 0.0}, {"rental_uris": {"ios": "https://dc.lft.to/lastmile_qr_scan", "android": "https://dc.lft.to/lastmile_qr_scan"}, "type": "electric_scooter", "name": "c16b21f37c6ac37a09c0577acdacd4cf", "is_reserved": 0, "lon": -77.06506283333333, "is_disabled": 0, "fusion_lat": 0.0, "lat": 38.905226666666664, "bike_id": "c16b21f37c6ac37a09c0577acdacd4cf", "fusion_lon": 0.0}, {"rental_uris": {"ios": "https://dc.lft.to/lastmile_qr_scan", "android": "https://dc.lft.to/lastmile_qr_scan"}, "type": "electric_bike", "name": "f29b1ba1933e0908e970bd8952048d98", "is_reserved": 0, "lon": -77.07014916666667, "is_disabled": 0, "fusion_lat": 0.0, "lat": 38.84112016666667, "bike_id": "f29b1ba1933e0908e970bd8952048d98", "fusion_lon": 0.0}, {"rental_uris": {"ios": "https://dc.lft.to/lastmile_qr_scan", "android": "https://dc.lft.to/lastmile_qr_scan"}, "type": "electric_scooter", "name": "f56eca4c3548ac4160d2be9564377f30", "is_reserved": 0, "lon": -77.05987716666667, "is_disabled": 0, "fusion_lat": 0.0, "lat": 38.902396333333336, "bike_id": "f56eca4c3548ac4160d2be9564377f30", "fusion_lon": 0.0}, {"rental_uris": {"ios": "https://dc.lft.to/lastmile_qr_scan", "android": "https://dc.lft.to/lastmile_qr_scan"}, "type": "electric_scooter", "name": "62bb8f9155a73e385b4d85ab9b32f9d8", "is_reserved": 0, "lon": -77.04472916666667, "is_disabled": 0, "fusion_lat": 0.0, "lat": 38.9154425, "bike_id": "62bb8f9155a73e385b4d85ab9b32f9d8", "fusion_lon": 0.0}, {"rental_uris": {"ios": "https://dc.lft.to/lastmile_qr_scan", "android": "https://dc.lft.to/lastmile_qr_scan"}, "type": "electric_scooter", "name": "9a28ed8cedda3f90275a5b2ba57ee5de", "is_reserved": 0, "lon": -77.01700733333334, "is_disabled": 0, "fusion_lat": 0.0, "lat": 38.904677, "bike_id": "9a28ed8cedda3f90275a5b2ba57ee5de", "fusion_lon": 0.0}, {"rental_uris": {"ios": "https://dc.lft.to/lastmile_qr_scan", "android": "https://dc.lft.to/lastmile_qr_scan"}, "type": "electric_scooter", "name": "0be14d3d3c1badab6e51bbd9e6d8a8a8", "is_reserved": 0, "lon": -77.024434, "is_disabled": 0, "fusion_lat": 0.0, "lat": 38.920693666666665, "bike_id": "0be14d3d3c1badab6e51bbd9e6d8a8a8", "fusion_lon": 0.0}, {"rental_uris": {"ios": "https://dc.lft.to/lastmile_qr_scan", "android": "https://dc.lft.to/lastmile_qr_scan"}, "type": "electric_scooter", "name": "251d85ce5536dfb6acb4a620e74454c4", "is_reserved": 0, "lon": -77.05318583333333, "is_disabled": 0, "fusion_lat": 0.0, "lat": 38.923563333333334, "bike_id": "251d85ce5536dfb6acb4a620e74454c4", "fusion_lon": 0.0}, {"rental_uris": {"ios": "https://dc.lft.to/lastmile_qr_scan", "android": "https://dc.lft.to/lastmile_qr_scan"}, "type": "electric_scooter", "name": "226a52ceeb2b56f5808eb50b7e2190ea", "is_reserved": 0, "lon": -77.010922, "is_disabled": 0, "fusion_lat": 0.0, "lat": 38.9068265, "bike_id": "226a52ceeb2b56f5808eb50b7e2190ea", "fusion_lon": 0.0}, {"rental_uris": {"ios": "https://dc.lft.to/lastmile_qr_scan", "android": "https://dc.lft.to/lastmile_qr_scan"}, "type": "electric_scooter", "name": "875115cab1d1ea81cb05ac87bdea3c93", "is_reserved": 0, "lon": -77.02539083333333, "is_disabled": 0, "fusion_lat": 0.0, "lat": 38.9072715, "bike_id": "875115cab1d1ea81cb05ac87bdea3c93", "fusion_lon": 0.0}, {"rental_uris": {"ios": "https://dc.lft.to/lastmile_qr_scan", "android": "https://dc.lft.to/lastmile_qr_scan"}, "type": "electric_bike", "name": "72319c134a9bdafc5e4203afdf72f1f0", "is_reserved": 0, "lon": -76.97318516666667, "is_disabled": 0, "fusion_lat": 0.0, "lat": 38.8578185, "bike_id": "72319c134a9bdafc5e4203afdf72f1f0", "fusion_lon": 0.0}, {"rental_uris": {"ios": "https://dc.lft.to/lastmile_qr_scan", "android": "https://dc.lft.to/lastmile_qr_scan"}, "type": "electric_scooter", "name": "279e67a6893b7f1d3d5ab429d5400acc", "is_reserved": 0, "lon": -76.98562766666667, "is_disabled": 0, "fusion_lat": 0.0, "lat": 38.90028366666667, "bike_id": "279e67a6893b7f1d3d5ab429d5400acc", "fusion_lon": 0.0}, {"rental_uris": {"ios": "https://dc.lft.to/lastmile_qr_scan", "android": "https://dc.lft.to/lastmile_qr_scan"}, "type": "electric_scooter", "name": "e126ab2730730071b3d191467862348a", "is_reserved": 0, "lon": -77.06346183333333, "is_disabled": 0, "fusion_lat": 0.0, "lat": 38.94371316666667, "bike_id": "e126ab2730730071b3d191467862348a", "fusion_lon": 0.0}, {"rental_uris": {"ios": "https://dc.lft.to/lastmile_qr_scan", "android": "https://dc.lft.to/lastmile_qr_scan"}, "type": "electric_scooter", "name": "ade505340d4194f973a60c3c07309bab", "is_reserved": 0, "lon": -77.02648633333334, "is_disabled": 0, "fusion_lat": 0.0, "lat": 38.896166666666666, "bike_id": "ade505340d4194f973a60c3c07309bab", "fusion_lon": 0.0}, {"rental_uris": {"ios": "https://dc.lft.to/lastmile_qr_scan", "android": "https://dc.lft.to/lastmile_qr_scan"}, "type": "electric_bike", "name": "1f732b43e3f14c2ec40b737c7a982ea4", "is_reserved": 0, "lon": -77.09957616666667, "is_disabled": 0, "fusion_lat": 0.0, "lat": 38.857944, "bike_id": "1f732b43e3f14c2ec40b737c7a982ea4", "fusion_lon": 0.0}, {"rental_uris": {"ios": "https://dc.lft.to/lastmile_qr_scan", "android": "https://dc.lft.to/lastmile_qr_scan"}, "type": "electric_scooter", "name": "571c8cd2b8d09ae683b2617db6483330", "is_reserved": 0, "lon": -77.0378015, "is_disabled": 0, "fusion_lat": 0.0, "lat": 38.91695433333334, "bike_id": "571c8cd2b8d09ae683b2617db6483330", "fusion_lon": 0.0}, {"rental_uris": {"ios": "https://dc.lft.to/lastmile_qr_scan", "android": "https://dc.lft.to/lastmile_qr_scan"}, "type": "electric_bike", "name": "3710dfde1b39f83c9dc0eda90f2bd90f", "is_reserved": 0, "lon": -77.08870783333333, "is_disabled": 0, "fusion_lat": 0.0, "lat": 38.938911, "bike_id": "3710dfde1b39f83c9dc0eda90f2bd90f", "fusion_lon": 0.0}, {"rental_uris": {"ios": "https://dc.lft.to/lastmile_qr_scan", "android": "https://dc.lft.to/lastmile_qr_scan"}, "type": "electric_bike", "name": "e5ae8703623900e107f156951e6e4806", "is_reserved": 0, "lon": -76.97854583333333, "is_disabled": 0, "fusion_lat": 0.0, "lat": 38.98383616666667, "bike_id": "e5ae8703623900e107f156951e6e4806", "fusion_lon": 0.0}, {"rental_uris": {"ios": "https://dc.lft.to/lastmile_qr_scan", "android": "https://dc.lft.to/lastmile_qr_scan"}, "type": "electric_scooter", "name": "e306f99466834471a7bdd085b2b69d7f", "is_reserved": 0, "lon": -77.0094025, "is_disabled": 0, "fusion_lat": 0.0, "lat": 38.912685, "bike_id": "e306f99466834471a7bdd085b2b69d7f", "fusion_lon": 0.0}, {"rental_uris": {"ios": "https://dc.lft.to/lastmile_qr_scan", "android": "https://dc.lft.to/lastmile_qr_scan"}, "type": "electric_scooter", "name": "a19e49375dfc054bd93cbab6b409e415", "is_reserved": 0, "lon": -77.00570416666666, "is_disabled": 0, "fusion_lat": 0.0, "lat": 38.8745265, "bike_id": "a19e49375dfc054bd93cbab6b409e415", "fusion_lon": 0.0}, {"rental_uris": {"ios": "https://dc.lft.to/lastmile_qr_scan", "android": "https://dc.lft.to/lastmile_qr_scan"}, "type": "electric_scooter", "name": "061fa9854b66df4a02d2d743b6bc5518", "is_reserved": 0, "lon": -77.04201933333333, "is_disabled": 0, "fusion_lat": 0.0, "lat": 38.91701183333333, "bike_id": "061fa9854b66df4a02d2d743b6bc5518", "fusion_lon": 0.0}, {"rental_uris": {"ios": "https://dc.lft.to/lastmile_qr_scan", "android": "https://dc.lft.to/lastmile_qr_scan"}, "type": "electric_scooter", "name": "35565f55ae47924acdf7f292f32759ec", "is_reserved": 0, "lon": -77.03274533333334, "is_disabled": 0, "fusion_lat": 0.0, "lat": 38.9200015, "bike_id": "35565f55ae47924acdf7f292f32759ec", "fusion_lon": 0.0}, {"rental_uris": {"ios": "https://dc.lft.to/lastmile_qr_scan", "android": "https://dc.lft.to/lastmile_qr_scan"}, "type": "electric_scooter", "name": "f035cfeccdb5e31c412f7a96032704b6", "is_reserved": 0, "lon": -76.98699616666667, "is_disabled": 0, "fusion_lat": 0.0, "lat": 38.88843983333334, "bike_id": "f035cfeccdb5e31c412f7a96032704b6", "fusion_lon": 0.0}, {"rental_uris": {"ios": "https://dc.lft.to/lastmile_qr_scan", "android": "https://dc.lft.to/lastmile_qr_scan"}, "type": "electric_scooter", "name": "91387ebe1f3688b839d769e3dee38ad7", "is_reserved": 0, "lon": -76.97940133333333, "is_disabled": 0, "fusion_lat": 0.0, "lat": 38.916025833333336, "bike_id": "91387ebe1f3688b839d769e3dee38ad7", "fusion_lon": 0.0}, {"rental_uris": {"ios": "https://dc.lft.to/lastmile_qr_scan", "android": "https://dc.lft.to/lastmile_qr_scan"}, "type": "electric_scooter", "name": "9e4b5fcff13bc0e8816d9ee11363fa5f", "is_reserved": 0, "lon": -77.02574883333334, "is_disabled": 0, "fusion_lat": 0.0, "lat": 38.887196, "bike_id": "9e4b5fcff13bc0e8816d9ee11363fa5f", "fusion_lon": 0.0}, {"rental_uris": {"ios": "https://dc.lft.to/lastmile_qr_scan", "android": "https://dc.lft.to/lastmile_qr_scan"}, "type": "electric_scooter", "name": "659b779ecf4fdbcc363ad252b2f1b223", "is_reserved": 0, "lon": -77.02010416666667, "is_disabled": 0, "fusion_lat": 0.0, "lat": 38.911147166666666, "bike_id": "659b779ecf4fdbcc363ad252b2f1b223", "fusion_lon": 0.0}, {"rental_uris": {"ios": "https://dc.lft.to/lastmile_qr_scan", "android": "https://dc.lft.to/lastmile_qr_scan"}, "type": "electric_bike", "name": "3696008366ea2d64736686bfba88cafd", "is_reserved": 0, "lon": -76.90739233333333, "is_disabled": 0, "fusion_lat": 0.0, "lat": 38.896193833333335, "bike_id": "3696008366ea2d64736686bfba88cafd", "fusion_lon": 0.0}, {"rental_uris": {"ios": "https://dc.lft.to/lastmile_qr_scan", "android": "https://dc.lft.to/lastmile_qr_scan"}, "type": "electric_scooter", "name": "ed3bb2338f73ea5a674331bb0ceafdb3", "is_reserved": 0, "lon": -77.02195316666666, "is_disabled": 0, "fusion_lat": 0.0, "lat": 38.91123133333333, "bike_id": "ed3bb2338f73ea5a674331bb0ceafdb3", "fusion_lon": 0.0}, {"rental_uris": {"ios": "https://dc.lft.to/lastmile_qr_scan", "android": "https://dc.lft.to/lastmile_qr_scan"}, "type": "electric_scooter", "name": "eb37a56433f4073274d04e3b6c866aee", "is_reserved": 0, "lon": -77.03018433333334, "is_disabled": 0, "fusion_lat": 0.0, "lat": 38.878491, "bike_id": "eb37a56433f4073274d04e3b6c866aee", "fusion_lon": 0.0}, {"rental_uris": {"ios": "https://dc.lft.to/lastmile_qr_scan", "android": "https://dc.lft.to/lastmile_qr_scan"}, "type": "electric_scooter", "name": "a073144f8d0e2ee712cff7e5711fabeb", "is_reserved": 0, "lon": -77.007509, "is_disabled": 0, "fusion_lat": 0.0, "lat": 38.8989565, "bike_id": "a073144f8d0e2ee712cff7e5711fabeb", "fusion_lon": 0.0}, {"rental_uris": {"ios": "https://dc.lft.to/lastmile_qr_scan", "android": "https://dc.lft.to/lastmile_qr_scan"}, "type": "electric_scooter", "name": "951c271c16acc4fd71ebaf74164687eb", "is_reserved": 0, "lon": -77.05770433333333, "is_disabled": 0, "fusion_lat": 0.0, "lat": 38.925065833333335, "bike_id": "951c271c16acc4fd71ebaf74164687eb", "fusion_lon": 0.0}, {"rental_uris": {"ios": "https://dc.lft.to/lastmile_qr_scan", "android": "https://dc.lft.to/lastmile_qr_scan"}, "type": "electric_bike", "name": "bf581360a141ce252a6a258a4679776c", "is_reserved": 0, "lon": -76.99803583333333, "is_disabled": 0, "fusion_lat": 0.0, "lat": 38.9085145, "bike_id": "bf581360a141ce252a6a258a4679776c", "fusion_lon": 0.0}, {"rental_uris": {"ios": "https://dc.lft.to/lastmile_qr_scan", "android": "https://dc.lft.to/lastmile_qr_scan"}, "type": "electric_scooter", "name": "bd818a57887524b95d27cf6bbcd1725b", "is_reserved": 0, "lon": -77.04600933333333, "is_disabled": 0, "fusion_lat": 0.0, "lat": 38.90579116666667, "bike_id": "bd818a57887524b95d27cf6bbcd1725b", "fusion_lon": 0.0}, {"rental_uris": {"ios": "https://dc.lft.to/lastmile_qr_scan", "android": "https://dc.lft.to/lastmile_qr_scan"}, "type": "electric_bike", "name": "798d67fd22a527a0a8fd806459cee25d", "is_reserved": 0, "lon": -76.9954505, "is_disabled": 0, "fusion_lat": 0.0, "lat": 38.86216733333333, "bike_id": "798d67fd22a527a0a8fd806459cee25d", "fusion_lon": 0.0}, {"rental_uris": {"ios": "https://dc.lft.to/lastmile_qr_scan", "android": "https://dc.lft.to/lastmile_qr_scan"}, "type": "electric_scooter", "name": "19def3e1b67a9fd0f7c82acb7820ff35", "is_reserved": 0, "lon": -77.05029783333333, "is_disabled": 0, "fusion_lat": 0.0, "lat": 38.89659066666667, "bike_id": "19def3e1b67a9fd0f7c82acb7820ff35", "fusion_lon": 0.0}, {"rental_uris": {"ios": "https://dc.lft.to/lastmile_qr_scan", "android": "https://dc.lft.to/lastmile_qr_scan"}, "type": "electric_scooter", "name": "a086705d44bf35e3447eddbb26506595", "is_reserved": 0, "lon": -77.007478, "is_disabled": 0, "fusion_lat": 0.0, "lat": 38.878423, "bike_id": "a086705d44bf35e3447eddbb26506595", "fusion_lon": 0.0}, {"rental_uris": {"ios": "https://dc.lft.to/lastmile_qr_scan", "android": "https://dc.lft.to/lastmile_qr_scan"}, "type": "electric_scooter", "name": "7053d49edc9a108e7c9147eb447e8604", "is_reserved": 0, "lon": -77.04384066666667, "is_disabled": 0, "fusion_lat": 0.0, "lat": 38.923589666666665, "bike_id": "7053d49edc9a108e7c9147eb447e8604", "fusion_lon": 0.0}, {"rental_uris": {"ios": "https://dc.lft.to/lastmile_qr_scan", "android": "https://dc.lft.to/lastmile_qr_scan"}, "type": "electric_scooter", "name": "a39cc8b33746194c760b57dfb7e8c48a", "is_reserved": 0, "lon": -76.9803615, "is_disabled": 0, "fusion_lat": 0.0, "lat": 38.9168075, "bike_id": "a39cc8b33746194c760b57dfb7e8c48a", "fusion_lon": 0.0}, {"rental_uris": {"ios": "https://dc.lft.to/lastmile_qr_scan", "android": "https://dc.lft.to/lastmile_qr_scan"}, "type": "electric_scooter", "name": "27dffbd337a9a8c816df40a440ca14ff", "is_reserved": 0, "lon": -77.0492125, "is_disabled": 0, "fusion_lat": 0.0, "lat": 38.91938533333333, "bike_id": "27dffbd337a9a8c816df40a440ca14ff", "fusion_lon": 0.0}, {"rental_uris": {"ios": "https://dc.lft.to/lastmile_qr_scan", "android": "https://dc.lft.to/lastmile_qr_scan"}, "type": "electric_scooter", "name": "a93e26e1e127355014e03439a33b1891", "is_reserved": 0, "lon": -77.03714916666667, "is_disabled": 0, "fusion_lat": 0.0, "lat": 38.9148555, "bike_id": "a93e26e1e127355014e03439a33b1891", "fusion_lon": 0.0}, {"rental_uris": {"ios": "https://dc.lft.to/lastmile_qr_scan", "android": "https://dc.lft.to/lastmile_qr_scan"}, "type": "electric_scooter", "name": "faed94d0113ac693e67695c084ea6f6c", "is_reserved": 0, "lon": -77.03871616666666, "is_disabled": 0, "fusion_lat": 0.0, "lat": 38.92155183333333, "bike_id": "faed94d0113ac693e67695c084ea6f6c", "fusion_lon": 0.0}, {"rental_uris": {"ios": "https://dc.lft.to/lastmile_qr_scan", "android": "https://dc.lft.to/lastmile_qr_scan"}, "type": "electric_scooter", "name": "d0114467242f532fdfd69b82627e9c8d", "is_reserved": 0, "lon": -77.00987616666667, "is_disabled": 0, "fusion_lat": 0.0, "lat": 38.87294716666667, "bike_id": "d0114467242f532fdfd69b82627e9c8d", "fusion_lon": 0.0}, {"rental_uris": {"ios": "https://dc.lft.to/lastmile_qr_scan", "android": "https://dc.lft.to/lastmile_qr_scan"},