{"data": {"bikes": [{"type": "electric_scooter", "name": "8db4202694941e548996b2c66d6b8696", "fusion_lat": 0.0, "fusion_lon": 0.0, "lon": -76.9381285, "is_disabled": 0, "bike_id": "8db4202694941e548996b2c66d6b8696", "is_reserved": 0, "rental_uris": {"android": "https://dc.lft.to/lastmile_qr_scan", "ios": "https://dc.lft.to/lastmile_qr_scan"}, "lat": 38.898429166666666}, {"type": "electric_scooter", "name": "a6382f73a0ba1b84df6061e1790c2ea7", "fusion_lat": 0.0, "fusion_lon": 0.0, "lon": -77.039175, "is_disabled": 0, "bike_id": "a6382f73a0ba1b84df6061e1790c2ea7", "is_reserved": 0, "rental_uris": {"android": "https://dc.lft.to/lastmile_qr_scan", "ios": "https://dc.lft.to/lastmile_qr_scan"}, "lat": 38.92577166666667}, {"type": "electric_scooter", "name": "939fecc7695bcf31752616969b0fbf57", "fusion_lat": 0.0, "fusion_lon": 0.0, "lon": -77.01329916666667, "is_disabled": 0, "bike_id": "939fecc7695bcf31752616969b0fbf57", "is_reserved": 0, "rental_uris": {"android": "https://dc.lft.to/lastmile_qr_scan", "ios": "https://dc.lft.to/lastmile_qr_scan"}, "lat": 38.89617066666667}, {"type": "electric_scooter", "name": "09877b98363d5e69fabc8e8e650c8667", "fusion_lat": 0.0, "fusion_lon": 0.0, "lon": -77.04642266666667, "is_disabled": 0, "bike_id": "09877b98363d5e69fabc8e8e650c8667", "is_reserved": 0, "rental_uris": {"android": "https://dc.lft.to/lastmile_qr_scan", "ios": "https://dc.lft.to/lastmile_qr_scan"}, "lat": 38.90639433333333}, {"type": "electric_bike", "name": "2402ab5d4bdb76edd54d922b089c8fc5", "fusion_lat": 0.0, "fusion_lon": 0.0, "lon": -76.99404233333334, "is_disabled": 0, "bike_id": "2402ab5d4bdb76edd54d922b089c8fc5", "is_reserved": 0, "rental_uris": {"android": "https://dc.lft.to/lastmile_qr_scan", "ios": "https://dc.lft.to/lastmile_qr_scan"}, "lat": 38.83142816666667}, {"type": "electric_scooter", "name": "c50cbbe892fff91e8a172e10ce9e83f5", "fusion_lat": 0.0, "fusion_lon": 0.0, "lon": -76.99738733333334, "is_disabled": 0, "bike_id": "c50cbbe892fff91e8a172e10ce9e83f5", "is_reserved": 0, "rental_uris": {"android": "https://dc.lft.to/lastmile_qr_scan", "ios": "https://dc.lft.to/lastmile_qr_scan"}, "lat": 38.89617966666667}, {"type": "electric_scooter", "name": "03123ed8a74dce2564f0f331f2a321f3", "fusion_lat": 0.0, "fusion_lon": 0.0, "lon": -77.01878683333334, "is_disabled": 0, "bike_id": "03123ed8a74dce2564f0f331f2a321f3", "is_reserved": 0, "rental_uris": {"android": "https://dc.lft.to/lastmile_qr_scan", "ios": "https://dc.lft.to/lastmile_qr_scan"}, "lat": 38.906126}, {"type": "electric_bike", "name": "a9f8f5611fdcf2064e05223622a11fd7", "fusion_lat": 0.0, "fusion_lon": 0.0, "lon": -77.00406683333334, "is_disabled": 0, "bike_id": "a9f8f5611fdcf2064e05223622a11fd7", "is_reserved": 0, "rental_uris": {"android": "https://dc.lft.to/lastmile_qr_scan", "ios": "https://dc.lft.to/lastmile_qr_scan"}, "lat": 38.985433666666665}, {"type": "electric_scooter", "name": "d599af943bfcbe1c4d2a978763094414", "fusion_lat": 0.0, "fusion_lon": 0.0, "lon": -77.03357916666667, "is_disabled": 0, "bike_id": "d599af943bfcbe1c4d2a978763094414", "is_reserved": 0, "rental_uris": {"android": "https://dc.lft.to/lastmile_qr_scan", "ios": "https://dc.lft.to/lastmile_qr_scan"}, "lat": 38.9215205}, {"type": "electric_scooter", "name": "a2e967f0d8bed3e3e5d1c29be133607b", "fusion_lat": 0.0, "fusion_lon": 0.0, "lon": -77.024802, "is_disabled": 0, "bike_id": "a2e967f0d8bed3e3e5d1c29be133607b", "is_reserved": 0, "rental_uris": {"android": "https://dc.lft.to/lastmile_qr_scan", "ios": "https://dc.lft.to/lastmile_qr_scan"}, "lat": 38.93105166666667}, {"type": "electric_scooter", "name": "bca03e745321771b0f3d3bedd150fd65", "fusion_lat": 0.0, "fusion_lon": 0.0, "lon": -76.999406, "is_disabled": 0, "bike_id": "bca03e745321771b0f3d3bedd150fd65", "is_reserved": 0, "rental_uris": {"android": "https://dc.lft.to/lastmile_qr_scan", "ios": "https://dc.lft.to/lastmile_qr_scan"}, "lat": 38.89171866666667}, {"type": "electric_scooter", "name": "c2ad6ca9710806aec906a391e44d1284", "fusion_lat": 0.0, "fusion_lon": 0.0, "lon": -77.04246433333333, "is_disabled": 0, "bike_id": "c2ad6ca9710806aec906a391e44d1284", "is_reserved": 0, "rental_uris": {"android": "https://dc.lft.to/lastmile_qr_scan", "ios": "https://dc.lft.to/lastmile_qr_scan"}, "lat": 38.904055}, {"type": "electric_bike", "name": "5c32b46b2cbf8cbe2abab166acce2df5", "fusion_lat": 0.0, "fusion_lon": 0.0, "lon": -77.09823866666666, "is_disabled": 0, "bike_id": "5c32b46b2cbf8cbe2abab166acce2df5", "is_reserved": 0, "rental_uris": {"android": "https://dc.lft.to/lastmile_qr_scan", "ios": "https://dc.lft.to/lastmile_qr_scan"}, "lat": 38.85020216666667}, {"type": "electric_scooter", "name": "61ac06af15cfc1b70b027ebd25151a8c", "fusion_lat": 0.0, "fusion_lon": 0.0, "lon": -77.03222366666667, "is_disabled": 0, "bike_id": "61ac06af15cfc1b70b027ebd25151a8c", "is_reserved": 0, "rental_uris": {"android": "https://dc.lft.to/lastmile_qr_scan", "ios": "https://dc.lft.to/lastmile_qr_scan"}, "lat": 38.92881666666667}, {"type": "electric_scooter", "name": "946e5e6c4266b7e85967f99bf7461b4e", "fusion_lat": 0.0, "fusion_lon": 0.0, "lon": -77.072687, "is_disabled": 0, "bike_id": "946e5e6c4266b7e85967f99bf7461b4e", "is_reserved": 0, "rental_uris": {"android": "https://dc.lft.to/lastmile_qr_scan", "ios": "https://dc.lft.to/lastmile_qr_scan"}, "lat": 38.90905216666667}, {"type": "electric_scooter", "name": "9e07ba01578b724d67fed83b545cd94b", "fusion_lat": 0.0, "fusion_lon": 0.0, "lon": -77.02189183333333, "is_disabled": 0, "bike_id": "9e07ba01578b724d67fed83b545cd94b", "is_reserved": 0, "rental_uris": {"android": "https://dc.lft.to/lastmile_qr_scan", "ios": "https://dc.lft.to/lastmile_qr_scan"}, "lat": 38.91482416666667}, {"type": "electric_scooter", "name": "12145146d632b992f25359050d4e50bb", "fusion_lat": 0.0, "fusion_lon": 0.0, "lon": -77.072912, "is_disabled": 0, "bike_id": "12145146d632b992f25359050d4e50bb", "is_reserved": 0, "rental_uris": {"android": "https://dc.lft.to/lastmile_qr_scan", "ios": "https://dc.lft.to/lastmile_qr_scan"}, "lat": 38.9228575}, {"type": "electric_scooter", "name": "78c9644d465989892ac412ce2c816784", "fusion_lat": 0.0, "fusion_lon": 0.0, "lon": -77.03859016666667, "is_disabled": 0, "bike_id": "78c9644d465989892ac412ce2c816784", "is_reserved": 0, "rental_uris": {"android": "https://dc.lft.to/lastmile_qr_scan", "ios": "https://dc.lft.to/lastmile_qr_scan"}, "lat": 38.91704433333334}, {"type": "electric_scooter", "name": "e12873677f3bc15997d0052e56c702df", "fusion_lat": 0.0, "fusion_lon": 0.0, "lon": -77.006, "is_disabled": 0, "bike_id": "e12873677f3bc15997d0052e56c702df", "is_reserved": 0, "rental_uris": {"android": "https://dc.lft.to/lastmile_qr_scan", "ios": "https://dc.lft.to/lastmile_qr_scan"}, "lat": 38.905657}, {"type": "electric_scooter", "name": "a3daab7272de682186255e8a65a86811", "fusion_lat": 0.0, "fusion_lon": 0.0, "lon": -77.03987, "is_disabled": 0, "bike_id": "a3daab7272de682186255e8a65a86811", "is_reserved": 0, "rental_uris": {"android": "https://dc.lft.to/lastmile_qr_scan", "ios": "https://dc.lft.to/lastmile_qr_scan"}, "lat": 38.899099166666666}, {"type": "electric_scooter", "name": "88ff4e64e5d1b6d070cd6ea48000495c", "fusion_lat": 0.0, "fusion_lon": 0.0, "lon": -77.02409, "is_disabled": 0, "bike_id": "88ff4e64e5d1b6d070cd6ea48000495c", "is_reserved": 0, "rental_uris": {"android": "https://dc.lft.to/lastmile_qr_scan", "ios": "https://dc.lft.to/lastmile_qr_scan"}, "lat": 38.91683783333333}, {"type": "electric_scooter", "name": "01273b0a5dfb1a29ebf6bdd1b0ee62fd", "fusion_lat": 0.0, "fusion_lon": 0.0, "lon": -77.01262583333333, "is_disabled": 0, "bike_id": "01273b0a5dfb1a29ebf6bdd1b0ee62fd", "is_reserved": 0, "rental_uris": {"android": "https://dc.lft.to/lastmile_qr_scan", "ios": "https://dc.lft.to/lastmile_qr_scan"}, "lat": 38.89725516666667}, {"type": "electric_scooter", "name": "2f95fb7cf54409f7de5ec35c3314cbb9", "fusion_lat": 0.0, "fusion_lon": 0.0, "lon": -77.03268933333334, "is_disabled": 0, "bike_id": "2f95fb7cf54409f7de5ec35c3314cbb9", "is_reserved": 0, "rental_uris": {"android": "https://dc.lft.to/lastmile_qr_scan", "ios": "https://dc.lft.to/lastmile_qr_scan"}, "lat": 38.9199515}, {"type": "electric_scooter", "name": "4917d4dd7f2ee2a2860f60951a5a61e8", "fusion_lat": 0.0, "fusion_lon": 0.0, "lon": -77.03848083333334, "is_disabled": 0, "bike_id": "4917d4dd7f2ee2a2860f60951a5a61e8", "is_reserved": 0, "rental_uris": {"android": "https://dc.lft.to/lastmile_qr_scan", "ios": "https://dc.lft.to/lastmile_qr_scan"}, "lat": 38.91663483333333}, {"type": "electric_scooter", "name": "a12892f3a6c455adefdfa402c3d0dcef", "fusion_lat": 0.0, "fusion_lon": 0.0, "lon": -77.02523033333334, "is_disabled": 0, "bike_id": "a12892f3a6c455adefdfa402c3d0dcef", "is_reserved": 0, "rental_uris": {"android": "https://dc.lft.to/lastmile_qr_scan", "ios": "https://dc.lft.to/lastmile_qr_scan"}, "lat": 38.920988}, {"type": "electric_scooter", "name": "b397630caabb532fe054f952259a0550", "fusion_lat": 0.0, "fusion_lon": 0.0, "lon": -77.0563485, "is_disabled": 0, "bike_id": "b397630caabb532fe054f952259a0550", "is_reserved": 0, "rental_uris": {"android": "https://dc.lft.to/lastmile_qr_scan", "ios": "https://dc.lft.to/lastmile_qr_scan"}, "lat": 38.936012}, {"type": "electric_scooter", "name": "04cdc6857e948d38c5853f48db033e35", "fusion_lat": 0.0, "fusion_lon": 0.0, "lon": -77.0259745, "is_disabled": 0, "bike_id": "04cdc6857e948d38c5853f48db033e35", "is_reserved": 0, "rental_uris": {"android": "https://dc.lft.to/lastmile_qr_scan", "ios": "https://dc.lft.to/lastmile_qr_scan"}, "lat": 38.91693516666667}, {"type": "electric_scooter", "name": "533d5d51e9e18137dc55cbabe8f6149d", "fusion_lat": 0.0, "fusion_lon": 0.0, "lon": -77.0591065, "is_disabled": 0, "bike_id": "533d5d51e9e18137dc55cbabe8f6149d", "is_reserved": 0, "rental_uris": {"android": "https://dc.lft.to/lastmile_qr_scan", "ios": "https://dc.lft.to/lastmile_qr_scan"}, "lat": 38.90273083333334}, {"type": "electric_scooter", "name": "7dcc05b2995956be24d5e01edce894b7", "fusion_lat": 0.0, "fusion_lon": 0.0, "lon": -77.0786715, "is_disabled": 0, "bike_id": "7dcc05b2995956be24d5e01edce894b7", "is_reserved": 0, "rental_uris": {"android": "https://dc.lft.to/lastmile_qr_scan", "ios": "https://dc.lft.to/lastmile_qr_scan"}, "lat": 38.9246785}, {"type": "electric_scooter", "name": "d4dfb4ef6daff3e18099ddecb03ee434", "fusion_lat": 0.0, "fusion_lon": 0.0, "lon": -77.03632333333333, "is_disabled": 0, "bike_id": "d4dfb4ef6daff3e18099ddecb03ee434", "is_reserved": 0, "rental_uris": {"android": "https://dc.lft.to/lastmile_qr_scan", "ios": "https://dc.lft.to/lastmile_qr_scan"}, "lat": 38.925959166666665}, {"type": "electric_scooter", "name": "22eff1e255e42ac89c731a85f4beb151", "fusion_lat": 0.0, "fusion_lon": 0.0, "lon": -77.03955716666667, "is_disabled": 0, "bike_id": "22eff1e255e42ac89c731a85f4beb151", "is_reserved": 0, "rental_uris": {"android": "https://dc.lft.to/lastmile_qr_scan", "ios": "https://dc.lft.to/lastmile_qr_scan"}, "lat": 38.892494666666664}, {"type": "electric_scooter", "name": "bfa10d02020b693500fdc9c65673ebf6", "fusion_lat": 0.0, "fusion_lon": 0.0, "lon": -77.01836366666667, "is_disabled": 0, "bike_id": "bfa10d02020b693500fdc9c65673ebf6", "is_reserved": 0, "rental_uris": {"android": "https://dc.lft.to/lastmile_qr_scan", "ios": "https://dc.lft.to/lastmile_qr_scan"}, "lat": 38.909542333333334}, {"type": "electric_scooter", "name": "0e8f4dea5b47b0f62fe216e5bc1cd434", "fusion_lat": 0.0, "fusion_lon": 0.0, "lon": -77.02181933333334, "is_disabled": 0, "bike_id": "0e8f4dea5b47b0f62fe216e5bc1cd434", "is_reserved": 0, "rental_uris": {"android": "https://dc.lft.to/lastmile_qr_scan", "ios": "https://dc.lft.to/lastmile_qr_scan"}, "lat": 38.909553}, {"type": "electric_scooter", "name": "f1b053ec82bf728ab4ddc4cb220d7f24", "fusion_lat": 0.0, "fusion_lon": 0.0, "lon": -77.00818016666666, "is_disabled": 0, "bike_id": "f1b053ec82bf728ab4ddc4cb220d7f24", "is_reserved": 0, "rental_uris": {"android": "https://dc.lft.to/lastmile_qr_scan", "ios": "https://dc.lft.to/lastmile_qr_scan"}, "lat": 38.913767}, {"type": "electric_scooter", "name": "014cf850634dfc37edb1ee8eecd2107a", "fusion_lat": 0.0, "fusion_lon": 0.0, "lon": -77.00530216666667, "is_disabled": 0, "bike_id": "014cf850634dfc37edb1ee8eecd2107a", "is_reserved": 0, "rental_uris": {"android": "https://dc.lft.to/lastmile_qr_scan", "ios": "https://dc.lft.to/lastmile_qr_scan"}, "lat": 38.874736}, {"type": "electric_scooter", "name": "885d339ca8097249a3602816e47c5c4e", "fusion_lat": 0.0, "fusion_lon": 0.0, "lon": -77.005361, "is_disabled": 0, "bike_id": "885d339ca8097249a3602816e47c5c4e", "is_reserved": 0, "rental_uris": {"android": "https://dc.lft.to/lastmile_qr_scan", "ios": "https://dc.lft.to/lastmile_qr_scan"}, "lat": 38.87940066666667}, {"type": "electric_scooter", "name": "b8b414b74bf0bb4fc06bfc704d1fd5cf", "fusion_lat": 0.0, "fusion_lon": 0.0, "lon": -77.038364, "is_disabled": 0, "bike_id": "b8b414b74bf0bb4fc06bfc704d1fd5cf", "is_reserved": 0, "rental_uris": {"android": "https://dc.lft.to/lastmile_qr_scan", "ios": "https://dc.lft.to/lastmile_qr_scan"}, "lat": 38.90728166666667}, {"type": "electric_scooter", "name": "75f23c7198f6326b1f92fc63e2c15a74", "fusion_lat": 0.0, "fusion_lon": 0.0, "lon": -77.048831, "is_disabled": 0, "bike_id": "75f23c7198f6326b1f92fc63e2c15a74", "is_reserved": 0, "rental_uris": {"android": "https://dc.lft.to/lastmile_qr_scan", "ios": "https://dc.lft.to/lastmile_qr_scan"}, "lat": 38.916318833333335}, {"type": "electric_bike", "name": "70a50c5b3156be56d7690cf798afb8fa", "fusion_lat": 0.0, "fusion_lon": 0.0, "lon": -76.90736366666667, "is_disabled": 0, "bike_id": "70a50c5b3156be56d7690cf798afb8fa", "is_reserved": 0, "rental_uris": {"android": "https://dc.lft.to/lastmile_qr_scan", "ios": "https://dc.lft.to/lastmile_qr_scan"}, "lat": 38.8962355}, {"type": "electric_scooter", "name": "bbf788bbecfcd8f3bef352c455b81979", "fusion_lat": 0.0, "fusion_lon": 0.0, "lon": -77.02732566666667, "is_disabled": 0, "bike_id": "bbf788bbecfcd8f3bef352c455b81979", "is_reserved": 0, "rental_uris": {"android": "https://dc.lft.to/lastmile_qr_scan", "ios": "https://dc.lft.to/lastmile_qr_scan"}, "lat": 38.923896666666664}, {"type": "electric_scooter", "name": "fb08f6ea8b63cfd3315fbbbcd0517a11", "fusion_lat": 0.0, "fusion_lon": 0.0, "lon": -77.00740033333334, "is_disabled": 0, "bike_id": "fb08f6ea8b63cfd3315fbbbcd0517a11", "is_reserved": 0, "rental_uris": {"android": "https://dc.lft.to/lastmile_qr_scan", "ios": "https://dc.lft.to/lastmile_qr_scan"}, "lat": 38.9252725}, {"type": "electric_scooter", "name": "f3449d519f3cf1f94bc5049ac7398a8f", "fusion_lat": 0.0, "fusion_lon": 0.0, "lon": -77.03530383333333, "is_disabled": 0, "bike_id": "f3449d519f3cf1f94bc5049ac7398a8f", "is_reserved": 0, "rental_uris": {"android": "https://dc.lft.to/lastmile_qr_scan", "ios": "https://dc.lft.to/lastmile_qr_scan"}, "lat": 38.924707}, {"type": "electric_scooter", "name": "d7f9958ca0399904d17bab12dad4c242", "fusion_lat": 0.0, "fusion_lon": 0.0, "lon": -77.03199216666667, "is_disabled": 0, "bike_id": "d7f9958ca0399904d17bab12dad4c242", "is_reserved": 0, "rental_uris": {"android": "https://dc.lft.to/lastmile_qr_scan", "ios": "https://dc.lft.to/lastmile_qr_scan"}, "lat": 38.884752666666664}, {"type": "electric_scooter", "name": "dacdb07a2846caa116ec292266f25be6", "fusion_lat": 0.0, "fusion_lon": 0.0, "lon": -77.031853, "is_disabled": 0, "bike_id": "dacdb07a2846caa116ec292266f25be6", "is_reserved": 0, "rental_uris": {"android": "https://dc.lft.to/lastmile_qr_scan", "ios": "https://dc.lft.to/lastmile_qr_scan"}, "lat": 38.914253}, {"type": "electric_scooter", "name": "e86392446b93522571dc0f6366a7ec9f", "fusion_lat": 0.0, "fusion_lon": 0.0, "lon": -77.04757933333333, "is_disabled": 0, "bike_id": "e86392446b93522571dc0f6366a7ec9f", "is_reserved": 0, "rental_uris": {"android": "https://dc.lft.to/lastmile_qr_scan", "ios": "https://dc.lft.to/lastmile_qr_scan"}, "lat": 38.94100183333333}, {"type": "electric_scooter", "name": "24cf2c72ccff385a3b9c46d4913cf087", "fusion_lat": 0.0, "fusion_lon": 0.0, "lon": -77.02478216666667, "is_disabled": 0, "bike_id": "24cf2c72ccff385a3b9c46d4913cf087", "is_reserved": 0, "rental_uris": {"android": "https://dc.lft.to/lastmile_qr_scan", "ios": "https://dc.lft.to/lastmile_qr_scan"}, "lat": 38.938586666666666}, {"type": "electric_scooter", "name": "46a7fe34b386e1f016d98244b4c54465", "fusion_lat": 0.0, "fusion_lon": 0.0, "lon": -77.0280455, "is_disabled": 0, "bike_id": "46a7fe34b386e1f016d98244b4c54465", "is_reserved": 0, "rental_uris": {"android": "https://dc.lft.to/lastmile_qr_scan", "ios": "https://dc.lft.to/lastmile_qr_scan"}, "lat": 38.93083566666667}, {"type": "electric_scooter", "name": "1d7e1390428181d9b53e11d73d055338", "fusion_lat": 0.0, "fusion_lon": 0.0, "lon": -77.02067433333333, "is_disabled": 0, "bike_id": "1d7e1390428181d9b53e11d73d055338", "is_reserved": 0, "rental_uris": {"android": "https://dc.lft.to/lastmile_qr_scan", "ios": "https://dc.lft.to/lastmile_qr_scan"}, "lat": 38.90857333333334}, {"type": "electric_bike", "name": "61fffdc34cb9316a4f4e3667b9d0d029", "fusion_lat": 0.0, "fusion_lon": 0.0, "lon": -76.98458066666667, "is_disabled": 0, "bike_id": "61fffdc34cb9316a4f4e3667b9d0d029", "is_reserved": 0, "rental_uris": {"android": "https://dc.lft.to/lastmile_qr_scan", "ios": "https://dc.lft.to/lastmile_qr_scan"}, "lat": 38.89612566666667}, {"type": "electric_scooter", "name": "30cd93738db6b3ff3a6a6106b7c85122", "fusion_lat": 0.0, "fusion_lon": 0.0, "lon": -77.03182883333334, "is_disabled": 0, "bike_id": "30cd93738db6b3ff3a6a6106b7c85122", "is_reserved": 0, "rental_uris": {"android": "https://dc.lft.to/lastmile_qr_scan", "ios": "https://dc.lft.to/lastmile_qr_scan"}, "lat": 38.921081}, {"type": "electric_scooter", "name": "caa6d2eca562a5ba7e93816a15832056", "fusion_lat": 0.0, "fusion_lon": 0.0, "lon": -77.0243755, "is_disabled": 0, "bike_id": "caa6d2eca562a5ba7e93816a15832056", "is_reserved": 0, "rental_uris": {"android": "https://dc.lft.to/lastmile_qr_scan", "ios": "https://dc.lft.to/lastmile_qr_scan"}, "lat": 38.92051033333333}, {"type": "electric_bike", "name": "722303f149e4f49e622e911471c0e7f8", "fusion_lat": 0.0, "fusion_lon": 0.0, "lon": -77.07894633333333, "is_disabled": 0, "bike_id": "722303f149e4f49e622e911471c0e7f8", "is_reserved": 0, "rental_uris": {"android": "https://dc.lft.to/lastmile_qr_scan", "ios": "https://dc.lft.to/lastmile_qr_scan"}, "lat": 38.92549133333333}, {"type": "electric_bike", "name": "4b62cfc7a147c479c37ad9fbf5e5a865", "fusion_lat": 0.0, "fusion_lon": 0.0, "lon": -77.0198515, "is_disabled": 0, "bike_id": "4b62cfc7a147c479c37ad9fbf5e5a865", "is_reserved": 0, "rental_uris": {"android": "https://dc.lft.to/lastmile_qr_scan", "ios": "https://dc.lft.to/lastmile_qr_scan"}, "lat": 38.90047116666667}, {"type": "electric_scooter", "name": "62c5a6b147131b111d0e92f2e6458f9c", "fusion_lat": 0.0, "fusion_lon": 0.0, "lon": -77.01456216666666, "is_disabled": 0, "bike_id": "62c5a6b147131b111d0e92f2e6458f9c", "is_reserved": 0, "rental_uris": {"android": "https://dc.lft.to/lastmile_qr_scan", "ios": "https://dc.lft.to/lastmile_qr_scan"}, "lat": 38.90653533333333}, {"type": "electric_scooter", "name": "89611d106620928462e19b1a940e6d22", "fusion_lat": 0.0, "fusion_lon": 0.0, "lon": -77.03071633333333, "is_disabled": 0, "bike_id": "89611d106620928462e19b1a940e6d22", "is_reserved": 0, "rental_uris": {"android": "https://dc.lft.to/lastmile_qr_scan", "ios": "https://dc.lft.to/lastmile_qr_scan"}, "lat": 38.92028083333334}, {"type": "electric_scooter", "name": "4ffdbaf7d425ed3ed129246b87e29576", "fusion_lat": 0.0, "fusion_lon": 0.0, "lon": -77.0280655, "is_disabled": 0, "bike_id": "4ffdbaf7d425ed3ed129246b87e29576", "is_reserved": 0, "rental_uris": {"android": "https://dc.lft.to/lastmile_qr_scan", "ios": "https://dc.lft.to/lastmile_qr_scan"}, "lat": 38.93081166666666}, {"type": "electric_scooter", "name": "80e0aeb8f7dcd3b14b8b38307d22036a", "fusion_lat": 0.0, "fusion_lon": 0.0, "lon": -76.99348866666666, "is_disabled": 0, "bike_id": "80e0aeb8f7dcd3b14b8b38307d22036a", "is_reserved": 0, "rental_uris": {"android": "https://dc.lft.to/lastmile_qr_scan", "ios": "https://dc.lft.to/lastmile_qr_scan"}, "lat": 38.900095666666665}, {"type": "electric_scooter", "name": "1824501d82ddc444610b58953b7b0901", "fusion_lat": 0.0, "fusion_lon": 0.0, "lon": -77.03446433333333, "is_disabled": 0, "bike_id": "1824501d82ddc444610b58953b7b0901", "is_reserved": 0, "rental_uris": {"android": "https://dc.lft.to/lastmile_qr_scan", "ios": "https://dc.lft.to/lastmile_qr_scan"}, "lat": 38.9179795}, {"type": "electric_scooter", "name": "4a7599e9293269677ce9735cb86d2eac", "fusion_lat": 0.0, "fusion_lon": 0.0, "lon": -77.01383633333333, "is_disabled": 0, "bike_id": "4a7599e9293269677ce9735cb86d2eac", "is_reserved": 0, "rental_uris": {"android": "https://dc.lft.to/lastmile_qr_scan", "ios": "https://dc.lft.to/lastmile_qr_scan"}, "lat": 38.87601266666667}, {"type": "electric_bike", "name": "61f4b25639dbc2a69eaff9664f827831", "fusion_lat": 0.0, "fusion_lon": 0.0, "lon": -77.00377566666667, "is_disabled": 0, "bike_id": "61f4b25639dbc2a69eaff9664f827831", "is_reserved": 0, "rental_uris": {"android": "https://dc.lft.to/lastmile_qr_scan", "ios": "https://dc.lft.to/lastmile_qr_scan"}, "lat": 38.83607516666667}, {"type": "electric_scooter", "name": "43e4713ae0eca74d1a04bd4ec75d0509", "fusion_lat": 0.0, "fusion_lon": 0.0, "lon": -77.01849816666666, "is_disabled": 0, "bike_id": "43e4713ae0eca74d1a04bd4ec75d0509", "is_reserved": 0, "rental_uris": {"android": "https://dc.lft.to/lastmile_qr_scan", "ios": "https://dc.lft.to/lastmile_qr_scan"}, "lat": 38.91508683333333}, {"type": "electric_bike", "name": "73b7b07e1e282bfa40356aca609ea10e", "fusion_lat": 0.0, "fusion_lon": 0.0, "lon": -76.96322, "is_disabled": 0, "bike_id": "73b7b07e1e282bfa40356aca609ea10e", "is_reserved": 0, "rental_uris": {"android": "https://dc.lft.to/lastmile_qr_scan", "ios": "https://dc.lft.to/lastmile_qr_scan"}, "lat": 38.938976333333336}, {"type": "electric_scooter", "name": "3ec45d9db1218b60ff54dabe9f452cba", "fusion_lat": 0.0, "fusion_lon": 0.0, "lon": -77.04369433333333, "is_disabled": 0, "bike_id": "3ec45d9db1218b60ff54dabe9f452cba", "is_reserved": 0, "rental_uris": {"android": "https://dc.lft.to/lastmile_qr_scan", "ios": "https://dc.lft.to/lastmile_qr_scan"}, "lat": 38.92070183333333}, {"type": "electric_scooter", "name": "3dd578c9071816615b236e391a22dbb5", "fusion_lat": 0.0, "fusion_lon": 0.0, "lon": -77.02816433333334, "is_disabled": 0, "bike_id": "3dd578c9071816615b236e391a22dbb5", "is_reserved": 0, "rental_uris": {"android": "https://dc.lft.to/lastmile_qr_scan", "ios": "https://dc.lft.to/lastmile_qr_scan"}, "lat": 38.899550166666664}, {"type": "electric_bike", "name": "4adf55a517f1e505b9112408c6000517", "fusion_lat": 0.0, "fusion_lon": 0.0, "lon": -76.97535566666667, "is_disabled": 0, "bike_id": "4adf55a517f1e505b9112408c6000517", "is_reserved": 0, "rental_uris": {"android": "https://dc.lft.to/lastmile_qr_scan", "ios": "https://dc.lft.to/lastmile_qr_scan"}, "lat": 38.90332033333333}, {"type": "electric_scooter", "name": "e0cb1d736ec9679ea5e42f92fd412d0b", "fusion_lat": 0.0, "fusion_lon": 0.0, "lon": -77.0364055, "is_disabled": 0, "bike_id": "e0cb1d736ec9679ea5e42f92fd412d0b", "is_reserved": 0, "rental_uris": {"android": "https://dc.lft.to/lastmile_qr_scan", "ios": "https://dc.lft.to/lastmile_qr_scan"}, "lat": 38.917382}, {"type": "electric_scooter", "name": "e83839dd7880f27cac5657fc4e6de80d", "fusion_lat": 0.0, "fusion_lon": 0.0, "lon": -77.00215566666667, "is_disabled": 0, "bike_id": "e83839dd7880f27cac5657fc4e6de80d", "is_reserved": 0, "rental_uris": {"android": "https://dc.lft.to/lastmile_qr_scan", "ios": "https://dc.lft.to/lastmile_qr_scan"}, "lat": 38.91105983333333}, {"type": "electric_scooter", "name": "4eb5bdb1c073e4c6d7d6fd5f66bf14a8", "fusion_lat": 0.0, "fusion_lon": 0.0, "lon": -77.02074266666666, "is_disabled": 0, "bike_id": "4eb5bdb1c073e4c6d7d6fd5f66bf14a8", "is_reserved": 0, "rental_uris": {"android": "https://dc.lft.to/lastmile_qr_scan", "ios": "https://dc.lft.to/lastmile_qr_scan"}, "lat": 38.930269333333335}, {"type": "electric_scooter", "name": "f7b5788aa18a661acae651994049552b", "fusion_lat": 0.0, "fusion_lon": 0.0, "lon": -76.995592, "is_disabled": 0, "bike_id": "f7b5788aa18a661acae651994049552b", "is_reserved": 0, "rental_uris": {"android": "https://dc.lft.to/lastmile_qr_scan", "ios": "https://dc.lft.to/lastmile_qr_scan"}, "lat": 38.903737166666666}, {"type": "electric_scooter", "name": "812020b0c3d8ca9a15b15687c8a52142", "fusion_lat": 0.0, "fusion_lon": 0.0, "lon": -76.99026166666667, "is_disabled": 0, "bike_id": "812020b0c3d8ca9a15b15687c8a52142", "is_reserved": 0, "rental_uris": {"android": "https://dc.lft.to/lastmile_qr_scan", "ios": "https://dc.lft.to/lastmile_qr_scan"}, "lat": 38.8887625}, {"type": "electric_scooter", "name": "bd2fab8561c7ea84daefad692278c5b0", "fusion_lat": 0.0, "fusion_lon": 0.0, "lon": -77.0388535, "is_disabled": 0, "bike_id": "bd2fab8561c7ea84daefad692278c5b0", "is_reserved": 0, "rental_uris": {"android": "https://dc.lft.to/lastmile_qr_scan", "ios": "https://dc.lft.to/lastmile_qr_scan"}, "lat": 38.91851583333333}, {"type": "electric_bike", "name": "8affa31c52202d75ad5e5ff866243d50", "fusion_lat": 0.0, "fusion_lon": 0.0, "lon": -77.02855583333333, "is_disabled": 0, "bike_id": "8affa31c52202d75ad5e5ff866243d50", "is_reserved": 0, "rental_uris": {"android": "https://dc.lft.to/lastmile_qr_scan", "ios": "https://dc.lft.to/lastmile_qr_scan"}, "lat": 38.93758533333333}, {"type": "electric_scooter", "name": "0281985223a9698a872891747b7d0e37", "fusion_lat": 0.0, "fusion_lon": 0.0, "lon": -77.03723866666667, "is_disabled": 0, "bike_id": "0281985223a9698a872891747b7d0e37", "is_reserved": 0, "rental_uris": {"android": "https://dc.lft.to/lastmile_qr_scan", "ios": "https://dc.lft.to/lastmile_qr_scan"}, "lat": 38.92028}, {"type": "electric_scooter", "name": "57fdeb2ec307301974211eaedb44c102", "fusion_lat": 0.0, "fusion_lon": 0.0, "lon": -76.99850016666667, "is_disabled": 0, "bike_id": "57fdeb2ec307301974211eaedb44c102", "is_reserved": 0, "rental_uris": {"android": "https://dc.lft.to/lastmile_qr_scan", "ios": "https://dc.lft.to/lastmile_qr_scan"}, "lat": 38.90062566666667}, {"type": "electric_scooter", "name": "a92596e5337aee0573e80d1282e4dbb2", "fusion_lat": 0.0, "fusion_lon": 0.0, "lon": -77.03508133333334, "is_disabled": 0, "bike_id": "a92596e5337aee0573e80d1282e4dbb2", "is_reserved": 0, "rental_uris": {"android": "https://dc.lft.to/lastmile_qr_scan", "ios": "https://dc.lft.to/lastmile_qr_scan"}, "lat": 38.921599666666665}, {"type": "electric_scooter", "name": "eb49d3303d9c1656b60b80f6508af985", "fusion_lat": 0.0, "fusion_lon": 0.0, "lon": -77.02835733333333, "is_disabled": 0, "bike_id": "eb49d3303d9c1656b60b80f6508af985", "is_reserved": 0, "rental_uris": {"android": "https://dc.lft.to/lastmile_qr_scan", "ios": "https://dc.lft.to/lastmile_qr_scan"}, "lat": 38.8873615}, {"type": "electric_scooter", "name": "2f2ed793afd7acaa607413df44619a4d", "fusion_lat": 0.0, "fusion_lon": 0.0, "lon": -77.03958733333333, "is_disabled": 0, "bike_id": "2f2ed793afd7acaa607413df44619a4d", "is_reserved": 0, "rental_uris": {"android": "https://dc.lft.to/lastmile_qr_scan", "ios": "https://dc.lft.to/lastmile_qr_scan"}, "lat": 38.901373666666665}, {"type": "electric_scooter", "name": "bac5d5e209db4cc68c80b1aeb0de6dbc", "fusion_lat": 0.0, "fusion_lon": 0.0, "lon": -77.04904733333333, "is_disabled": 0, "bike_id": "bac5d5e209db4cc68c80b1aeb0de6dbc", "is_reserved": 0, "rental_uris": {"android": "https://dc.lft.to/lastmile_qr_scan", "ios": "https://dc.lft.to/lastmile_qr_scan"}, "lat": 38.8972975}, {"type": "electric_bike", "name": "210c9b79af461491dfad579738638993", "fusion_lat": 0.0, "fusion_lon": 0.0, "lon": -77.00719116666667, "is_disabled": 0, "bike_id": "210c9b79af461491dfad579738638993", "is_reserved": 0, "rental_uris": {"android": "https://dc.lft.to/lastmile_qr_scan", "ios": "https://dc.lft.to/lastmile_qr_scan"}, "lat": 38.995076}, {"type": "electric_scooter", "name": "e1c93c29e7d25a1a8e2e2819ff5fde9d", "fusion_lat": 0.0, "fusion_lon": 0.0, "lon": -77.02952666666667, "is_disabled": 0, "bike_id": "e1c93c29e7d25a1a8e2e2819ff5fde9d", "is_reserved": 0, "rental_uris": {"android": "https://dc.lft.to/lastmile_qr_scan", "ios": "https://dc.lft.to/lastmile_qr_scan"}, "lat": 38.916720833333336}, {"type": "electric_scooter", "name": "08dc26ba557b1fe9e82d89984b2e3b76", "fusion_lat": 0.0, "fusion_lon": 0.0, "lon": -77.06567816666667, "is_disabled": 0, "bike_id": "08dc26ba557b1fe9e82d89984b2e3b76", "is_reserved": 0, "rental_uris": {"android": "https://dc.lft.to/lastmile_qr_scan", "ios": "https://dc.lft.to/lastmile_qr_scan"}, "lat": 38.8833465}, {"type": "electric_scooter", "name": "f0dabb8fda96780f2bdd96e7e912f8f9", "fusion_lat": 0.0, "fusion_lon": 0.0, "lon": -76.99628683333333, "is_disabled": 0, "bike_id": "f0dabb8fda96780f2bdd96e7e912f8f9", "is_reserved": 0, "rental_uris": {"android": "https://dc.lft.to/lastmile_qr_scan", "ios": "https://dc.lft.to/lastmile_qr_scan"}, "lat": 38.87738366666667}, {"type": "electric_scooter", "name": "9ce8735160306cda875814cb9343dcf9", "fusion_lat": 0.0, "fusion_lon": 0.0, "lon": -77.0230525, "is_disabled": 0, "bike_id": "9ce8735160306cda875814cb9343dcf9", "is_reserved": 0, "rental_uris": {"android": "https://dc.lft.to/lastmile_qr_scan", "ios": "https://dc.lft.to/lastmile_qr_scan"}, "lat": 38.89886216666667}, {"type": "electric_scooter", "name": "86b3ffcd8abdc1cd2b53cfbfb1794321", "fusion_lat": 0.0, "fusion_lon": 0.0, "lon": -77.0379725, "is_disabled": 0, "bike_id": "86b3ffcd8abdc1cd2b53cfbfb1794321", "is_reserved": 0, "rental_uris": {"android": "https://dc.lft.to/lastmile_qr_scan", "ios": "https://dc.lft.to/lastmile_qr_scan"}, "lat": 38.929966666666665}, {"type": "electric_bike", "name": "3cab89c1e2a7b14bc4b372b0ac214d03", "fusion_lat": 0.0, "fusion_lon": 0.0, "lon": -77.05269666666666, "is_disabled": 0, "bike_id": "3cab89c1e2a7b14bc4b372b0ac214d03", "is_reserved": 0, "rental_uris": {"android": "https://dc.lft.to/lastmile_qr_scan", "ios": "https://dc.lft.to/lastmile_qr_scan"}, "lat": 38.940934}, {"type": "electric_scooter", "name": "238a03e369ffddbf4a962caecd66a498", "fusion_lat": 0.0, "fusion_lon": 0.0, "lon": -77.0400955, "is_disabled": 0, "bike_id": "238a03e369ffddbf4a962caecd66a498", "is_reserved": 0, "rental_uris": {"android": "https://dc.lft.to/lastmile_qr_scan", "ios": "https://dc.lft.to/lastmile_qr_scan"}, "lat": 38.89883666666667}, {"type": "electric_scooter", "name": "7b6d92eeec5fe9598655973f00b1567a", "fusion_lat": 0.0, "fusion_lon": 0.0, "lon": -76.99854, "is_disabled": 0, "bike_id": "7b6d92eeec5fe9598655973f00b1567a", "is_reserved": 0, "rental_uris": {"android": "https://dc.lft.to/lastmile_qr_scan", "ios": "https://dc.lft.to/lastmile_qr_scan"}, "lat": 38.891875166666665}, {"type": "electric_scooter", "name": "5361be5e3cb24d197717bc935ba797df", "fusion_lat": 0.0, "fusion_lon": 0.0, "lon": -77.03165166666666, "is_disabled": 0, "bike_id": "5361be5e3cb24d197717bc935ba797df", "is_reserved": 0, "rental_uris": {"android": "https://dc.lft.to/lastmile_qr_scan", "ios": "https://dc.lft.to/lastmile_qr_scan"}, "lat": 38.92872333333333}, {"type": "electric_scooter", "name": "6f03451116e39a9b2cc5c228954cae63", "fusion_lat": 0.0, "fusion_lon": 0.0, "lon": -77.0256465, "is_disabled": 0, "bike_id": "6f03451116e39a9b2cc5c228954cae63", "is_reserved": 0, "rental_uris": {"android": "https://dc.lft.to/lastmile_qr_scan", "ios": "https://dc.lft.to/lastmile_qr_scan"}, "lat": 38.887583}, {"type": "electric_scooter", "name": "37fe3e095df9739e02117630b748a8c1", "fusion_lat": 0.0, "fusion_lon": 0.0, "lon": -77.01711433333334, "is_disabled": 0, "bike_id": "37fe3e095df9739e02117630b748a8c1", "is_reserved": 0, "rental_uris": {"android": "https://dc.lft.to/lastmile_qr_scan", "ios": "https://dc.lft.to/lastmile_qr_scan"}, "lat": 38.904733}, {"type": "electric_scooter", "name": "664eeaf2c06a03c587342ebfdfb2f1c9", "fusion_lat": 0.0, "fusion_lon": 0.0, "lon": -76.98854216666666, "is_disabled": 0, "bike_id": "664eeaf2c06a03c587342ebfdfb2f1c9", "is_reserved": 0, "rental_uris": {"android": "https://dc.lft.to/lastmile_qr_scan", "ios": "https://dc.lft.to/lastmile_qr_scan"}, "lat": 38.84424166666667}, {"type": "electric_bike", "name": "bdde165de3523d3c7766039b0040e8d5", "fusion_lat": 0.0, "fusion_lon": 0.0, "lon": -76.9902765, "is_disabled": 0, "bike_id": "bdde165de3523d3c7766039b0040e8d5", "is_reserved": 0, "rental_uris": {"android": "https://dc.lft.to/lastmile_qr_scan", "ios": "https://dc.lft.to/lastmile_qr_scan"}, "lat": 38.8358565}, {"type": "electric_bike", "name": "6207cb975e87ec9cf2651bb81534c591", "fusion_lat": 0.0, "fusion_lon": 0.0, "lon": -76.96091383333334, "is_disabled": 0, "bike_id": "6207cb975e87ec9cf2651bb81534c591", "is_reserved": 0, "rental_uris": {"android": "https://dc.lft.to/lastmile_qr_scan", "ios": "https://dc.lft.to/lastmile_qr_scan"}, "lat": 38.91862183333333}, {"type": "electric_scooter", "name": "359d8e70641cb7468697f88d2ef885e3", "fusion_lat": 0.0, "fusion_lon": 0.0, "lon": -77.01765333333333, "is_disabled": 0, "bike_id": "359d8e70641cb7468697f88d2ef885e3", "is_reserved": 0, "rental_uris": {"android": "https://dc.lft.to/lastmile_qr_scan", "ios": "https://dc.lft.to/lastmile_qr_scan"}, "lat": 38.92112916666667}, {"type": "electric_bike", "name": "78ed00d9508fa7fe988b26c7ca41158d", "fusion_lat": 0.0, "fusion_lon": 0.0, "lon": -77.0274355, "is_disabled": 0, "bike_id": "78ed00d9508fa7fe988b26c7ca41158d", "is_reserved": 0, "rental_uris": {"android": "https://dc.lft.to/lastmile_qr_scan", "ios": "https://dc.lft.to/lastmile_qr_scan"}, "lat": 38.969399333333335}, {"type": "electric_scooter", "name": "7d9a5369426c98a6c25b45b6e6fabdbe", "fusion_lat": 0.0, "fusion_lon": 0.0, "lon": -77.03391216666667, "is_disabled": 0, "bike_id": "7d9a5369426c98a6c25b45b6e6fabdbe", "is_reserved": 0, "rental_uris": {"android": "https://dc.lft.to/lastmile_qr_scan", "ios": "https://dc.lft.to/lastmile_qr_scan"}, "lat": 38.8997105}, {"type": "electric_scooter", "name": "a8f942c2c04f6fa6752367548bb9a8e8", "fusion_lat": 0.0, "fusion_lon": 0.0, "lon": -77.0344745, "is_disabled": 0, "bike_id": "a8f942c2c04f6fa6752367548bb9a8e8", "is_reserved": 0, "rental_uris": {"android": "https://dc.lft.to/lastmile_qr_scan", "ios": "https://dc.lft.to/lastmile_qr_scan"}, "lat": 38.9139575}, {"type": "electric_scooter", "name": "1cad32e69379ae8391df9e9947816b9f", "fusion_lat": 0.0, "fusion_lon": 0.0, "lon": -77.02780316666667, "is_disabled": 0, "bike_id": "1cad32e69379ae8391df9e9947816b9f", "is_reserved": 0, "rental_uris": {"android": "https://dc.lft.to/lastmile_qr_scan", "ios": "https://dc.lft.to/lastmile_qr_scan"}, "lat": 38.897554}, {"type": "electric_scooter", "name": "25a34e4f2bba666527e787c42c4ee7d6", "fusion_lat": 0.0, "fusion_lon": 0.0, "lon": -76.998058, "is_disabled": 0, "bike_id": "25a34e4f2bba666527e787c42c4ee7d6", "is_reserved": 0, "rental_uris": {"android": "https://dc.lft.to/lastmile_qr_scan", "ios": "https://dc.lft.to/lastmile_qr_scan"}, "lat": 38.905649}, {"type": "electric_scooter", "name": "55cc9b7825ce1597d43c3e913d9addc4", "fusion_lat": 0.0, "fusion_lon": 0.0, "lon": -77.0086975, "is_disabled": 0, "bike_id": "55cc9b7825ce1597d43c3e913d9addc4", "is_reserved": 0, "rental_uris": {"android": "https://dc.lft.to/lastmile_qr_scan", "ios": "https://dc.lft.to/lastmile_qr_scan"}, "lat": 38.9117745}, {"type": "electric_scooter", "name": "f79d59ed3c6e13a80a00293f1e1ec76c", "fusion_lat": 0.0, "fusion_lon": 0.0, "lon": -77.0302595, "is_disabled": 0, "bike_id": "f79d59ed3c6e13a80a00293f1e1ec76c", "is_reserved": 0, "rental_uris": {"android": "https://dc.lft.to/lastmile_qr_scan", "ios": "https://dc.lft.to/lastmile_qr_scan"}, "lat": 38.87848866666667}, {"type": "electric_scooter", "name": "f9313b48a4639a487e18ac517f23123e", "fusion_lat": 0.0, "fusion_lon": 0.0, "lon": -77.03542416666667, "is_disabled": 0, "bike_id": "f9313b48a4639a487e18ac517f23123e", "is_reserved": 0, "rental_uris": {"android": "https://dc.lft.to/lastmile_qr_scan", "ios": "https://dc.lft.to/lastmile_qr_scan"}, "lat": 38.925997}, {"type": "electric_bike", "name": "254aaf5e71a73f1ebfeaefdd57b022d9", "fusion_lat": 0.0, "fusion_lon": 0.0, "lon": -76.98990683333334, "is_disabled": 0, "bike_id": "254aaf5e71a73f1ebfeaefdd57b022d9", "is_reserved": 0, "rental_uris": {"android": "https://dc.lft.to/lastmile_qr_scan", "ios": "https://dc.lft.to/lastmile_qr_scan"}, "lat": 38.92442666666667}, {"type": "electric_scooter", "name": "b4bfd519d820bb74701551f778c3ba8b", "fusion_lat": 0.0, "fusion_lon": 0.0, "lon": -77.051163, "is_disabled": 0, "bike_id": "b4bfd519d820bb74701551f778c3ba8b", "is_reserved": 0, "rental_uris": {"android": "https://dc.lft.to/lastmile_qr_scan", "ios": "https://dc.lft.to/lastmile_qr_scan"}, "lat": 38.923452}, {"type": "electric_scooter", "name": "bf08cb4edba31ccb19c9f31c36050081", "fusion_lat": 0.0, "fusion_lon": 0.0, "lon": -77.024729, "is_disabled": 0, "bike_id": "bf08cb4edba31ccb19c9f31c36050081", "is_reserved": 0, "rental_uris": {"android": "https://dc.lft.to/lastmile_qr_scan", "ios": "https://dc.lft.to/lastmile_qr_scan"}, "lat": 38.91818883333333}, {"type": "electric_scooter", "name": "277da18e43d36ef7084b4f3565c39a53", "fusion_lat": 0.0, "fusion_lon": 0.0, "lon": -77.04289466666667, "is_disabled": 0, "bike_id": "277da18e43d36ef7084b4f3565c39a53", "is_reserved": 0, "rental_uris": {"android": "https://dc.lft.to/lastmile_qr_scan", "ios": "https://dc.lft.to/lastmile_qr_scan"}, "lat": 38.92270766666667}, {"type": "electric_scooter", "name": "d2366ca8f6059179c785d2117d3cea38", "fusion_lat": 0.0, "fusion_lon": 0.0, "lon": -77.03339066666666, "is_disabled": 0, "bike_id": "d2366ca8f6059179c785d2117d3cea38", "is_reserved": 0, "rental_uris": {"android": "https://dc.lft.to/lastmile_qr_scan", "ios": "https://dc.lft.to/lastmile_qr_scan"}, "lat": 38.91408583333333}, {"type": "electric_scooter", "name": "ecd954b195949c05eed8a6ed40f58520", "fusion_lat": 0.0, "fusion_lon": 0.0, "lon": -77.031841, "is_disabled": 0, "bike_id": "ecd954b195949c05eed8a6ed40f58520", "is_reserved": 0, "rental_uris": {"android": "https://dc.lft.to/lastmile_qr_scan", "ios": "https://dc.lft.to/lastmile_qr_scan"}, "lat": 38.915750833333334}, {"type": "electric_scooter", "name": "d9a91ab6d667764b45709c1262d4e4e2", "fusion_lat": 0.0, "fusion_lon": 0.0, "lon": -76.92660683333334, "is_disabled": 0, "bike_id": "d9a91ab6d667764b45709c1262d4e4e2", "is_reserved": 0, "rental_uris": {"android": "https://dc.lft.to/lastmile_qr_scan", "ios": "https://dc.lft.to/lastmile_qr_scan"}, "lat": 38.882360166666665}, {"type": "electric_scooter", "name": "9edff767e0d88c5c858b1b2dd54699b0", "fusion_lat": 0.0, "fusion_lon": 0.0, "lon": -77.0284215, "is_disabled": 0, "bike_id": "9edff767e0d88c5c858b1b2dd54699b0", "is_reserved": 0, "rental_uris": {"android": "https://dc.lft.to/lastmile_qr_scan", "ios": "https://dc.lft.to/lastmile_qr_scan"}, "lat": 38.88183}, {"type": "electric_scooter", "name": "c13374fe9b12dc3d0e4c26176baa5215", "fusion_lat": 0.0, "fusion_lon": 0.0, "lon": -77.041667, "is_disabled": 0, "bike_id": "c13374fe9b12dc3d0e4c26176baa5215", "is_reserved": 0, "rental_uris": {"android": "https://dc.lft.to/lastmile_qr_scan", "ios": "https://dc.lft.to/lastmile_qr_scan"}, "lat": 38.90147233333333}, {"type": "electric_bike", "name": "62db8791fa0d68287150463be3f09a4f", "fusion_lat": 0.0, "fusion_lon": 0.0, "lon": -77.02823183333334, "is_disabled": 0, "bike_id": "62db8791fa0d68287150463be3f09a4f", "is_reserved": 0, "rental_uris": {"android": "https://dc.lft.to/lastmile_qr_scan", "ios": "https://dc.lft.to/lastmile_qr_scan"}, "lat": 38.965644166666664}, {"type": "electric_scooter", "name": "273317c1ef1bde15d67f4fb73cec03ed", "fusion_lat": 0.0, "fusion_lon": 0.0, "lon": -77.02021366666666, "is_disabled": 0, "bike_id": "273317c1ef1bde15d67f4fb73cec03ed", "is_reserved": 0, "rental_uris": {"android": "https://dc.lft.to/lastmile_qr_scan", "ios": "https://dc.lft.to/lastmile_qr_scan"}, "lat": 38.924467}, {"type": "electric_bike", "name": "77206af1fe136ae3829985e38d60d54b", "fusion_lat": 0.0, "fusion_lon": 0.0, "lon": -77.1264455, "is_disabled": 0, "bike_id": "77206af1fe136ae3829985e38d60d54b", "is_reserved": 0, "rental_uris": {"android": "https://dc.lft.to/lastmile_qr_scan", "ios": "https://dc.lft.to/lastmile_qr_scan"}, "lat": 38.8190715}, {"type": "electric_bike", "name": "4fbcda29a92d70fdd11c092728588759", "fusion_lat": 0.0, "fusion_lon": 0.0, "lon": -77.0015305, "is_disabled": 0, "bike_id": "4fbcda29a92d70fdd11c092728588759", "is_reserved": 0, "rental_uris": {"android": "https://dc.lft.to/lastmile_qr_scan", "ios": "https://dc.lft.to/lastmile_qr_scan"}, "lat": 38.8993595}, {"type": "electric_scooter", "name": "ac13e881ccf55ad48afc8f4b2ddddb70", "fusion_lat": 0.0, "fusion_lon": 0.0, "lon": -77.04139783333333, "is_disabled": 0, "bike_id": "ac13e881ccf55ad48afc8f4b2ddddb70", "is_reserved": 0, "rental_uris": {"android": "https://dc.lft.to/lastmile_qr_scan", "ios": "https://dc.lft.to/lastmile_qr_scan"}, "lat": 38.893559333333336}, {"type": "electric_scooter", "name": "c23a42ceca0a1392257b0fc44ba9bb5c", "fusion_lat": 0.0, "fusion_lon": 0.0, "lon": -77.0399955, "is_disabled": 0, "bike_id": "c23a42ceca0a1392257b0fc44ba9bb5c", "is_reserved": 0, "rental_uris": {"android": "https://dc.lft.to/lastmile_qr_scan", "ios": "https://dc.lft.to/lastmile_qr_scan"}, "lat": 38.9342855}, {"type": "electric_scooter", "name": "56c9eba5eb62ed8e60323b79a88ef029", "fusion_lat": 0.0, "fusion_lon": 0.0, "lon": -77.02729016666666, "is_disabled": 0, "bike_id": "56c9eba5eb62ed8e60323b79a88ef029", "is_reserved": 0, "rental_uris": {"android": "https://dc.lft.to/lastmile_qr_scan", "ios": "https://dc.lft.to/lastmile_qr_scan"}, "lat": 38.91701833333333}, {"type": "electric_scooter", "name": "9c5e75e71081130c274fa8a50320a419", "fusion_lat": 0.0, "fusion_lon": 0.0, "lon": -77.04746366666667, "is_disabled": 0, "bike_id": "9c5e75e71081130c274fa8a50320a419", "is_reserved": 0, "rental_uris": {"android": "https://dc.lft.to/lastmile_qr_scan", "ios": "https://dc.lft.to/lastmile_qr_scan"}, "lat": 38.92334433333333}, {"type": "electric_scooter", "name": "297b10d8d3daf4e04e8852ed7cbac361", "fusion_lat": 0.0, "fusion_lon": 0.0, "lon": -77.03643966666667, "is_disabled": 0, "bike_id": "297b10d8d3daf4e04e8852ed7cbac361", "is_reserved": 0, "rental_uris": {"android": "https://dc.lft.to/lastmile_qr_scan", "ios": "https://dc.lft.to/lastmile_qr_scan"}, "lat": 38.912512}, {"type": "electric_scooter", "name": "2121d54a96d323e65c0c85bdf1866866", "fusion_lat": 0.0, "fusion_lon": 0.0, "lon": -76.98358616666667, "is_disabled": 0, "bike_id": "2121d54a96d323e65c0c85bdf1866866", "is_reserved": 0, "rental_uris": {"android": "https://dc.lft.to/lastmile_qr_scan", "ios": "https://dc.lft.to/lastmile_qr_scan"}, "lat": 38.8873375}, {"type": "electric_scooter", "name": "1f5ab27b682bfa479123d735c73c9df2", "fusion_lat": 0.0, "fusion_lon": 0.0, "lon": -76.932183, "is_disabled": 0, "bike_id": "1f5ab27b682bfa479123d735c73c9df2", "is_reserved": 0, "rental_uris": {"android": "https://dc.lft.to/lastmile_qr_scan", "ios": "https://dc.lft.to/lastmile_qr_scan"}, "lat": 38.880604}, {"type": "electric_scooter", "name": "7edeb19e25bbf658ef55616ed84d20ec", "fusion_lat": 0.0, "fusion_lon": 0.0, "lon": -77.02871216666666, "is_disabled": 0, "bike_id": "7edeb19e25bbf658ef55616ed84d20ec", "is_reserved": 0, "rental_uris": {"android": "https://dc.lft.to/lastmile_qr_scan", "ios": "https://dc.lft.to/lastmile_qr_scan"}, "lat": 38.912706666666665}, {"type": "electric_scooter", "name": "c96f04d6b9ecc388dcc6da977f88e8ec", "fusion_lat": 0.0, "fusion_lon": 0.0, "lon": -76.96526783333333, "is_disabled": 0, "bike_id": "c96f04d6b9ecc388dcc6da977f88e8ec", "is_reserved": 0, "rental_uris": {"android": "https://dc.lft.to/lastmile_qr_scan", "ios": "https://dc.lft.to/lastmile_qr_scan"}, "lat": 38.8763115}, {"type": "electric_scooter", "name": "5876d0972b1432157e8e43f797768913", "fusion_lat": 0.0, "fusion_lon": 0.0, "lon": -77.03858116666666, "is_disabled": 0, "bike_id": "5876d0972b1432157e8e43f797768913", "is_reserved": 0, "rental_uris": {"android": "https://dc.lft.to/lastmile_qr_scan", "ios": "https://dc.lft.to/lastmile_qr_scan"}, "lat": 38.911308}, {"type": "electric_scooter", "name": "68ccfbf5ac8b3e344448847336f7e332", "fusion_lat": 0.0, "fusion_lon": 0.0, "lon": -76.98306133333334, "is_disabled": 0, "bike_id": "68ccfbf5ac8b3e344448847336f7e332", "is_reserved": 0, "rental_uris": {"android": "https://dc.lft.to/lastmile_qr_scan", "ios": "https://dc.lft.to/lastmile_qr_scan"}, "lat": 38.868915333333334}, {"type": "electric_scooter", "name": "631d05f56978bfe5146232c1d7e6a6ee", "fusion_lat": 0.0, "fusion_lon": 0.0, "lon": -76.99516616666666, "is_disabled": 0, "bike_id": "631d05f56978bfe5146232c1d7e6a6ee", "is_reserved": 0, "rental_uris": {"android": "https://dc.lft.to/lastmile_qr_scan", "ios": "https://dc.lft.to/lastmile_qr_scan"}, "lat": 38.88797666666667}, {"type": "electric_scooter", "name": "e6592171a6d2effe317badf779256b1e", "fusion_lat": 0.0, "fusion_lon": 0.0, "lon": -77.03327166666666, "is_disabled": 0, "bike_id": "e6592171a6d2effe317badf779256b1e", "is_reserved": 0, "rental_uris": {"android": "https://dc.lft.to/lastmile_qr_scan", "ios": "https://dc.lft.to/lastmile_qr_scan"}, "lat": 38.919121833333335}, {"type": "electric_bike", "name": "035e8d4b255d10ec1f2a986b49fb0261", "fusion_lat": 0.0, "fusion_lon": 0.0, "lon": -77.07473916666666, "is_disabled": 0, "bike_id": "035e8d4b255d10ec1f2a986b49fb0261", "is_reserved": 0, "rental_uris": {"android": "https://dc.lft.to/lastmile_qr_scan", "ios": "https://dc.lft.to/lastmile_qr_scan"}, "lat": 38.92061133333333}, {"type": "electric_scooter", "name": "212664148cd8b8b85360a89aaf396e5a", "fusion_lat": 0.0, "fusion_lon": 0.0, "lon": -77.02400716666666, "is_disabled": 0, "bike_id": "212664148cd8b8b85360a89aaf396e5a", "is_reserved": 0, "rental_uris": {"android": "https://dc.lft.to/lastmile_qr_scan", "ios": "https://dc.lft.to/lastmile_qr_scan"}, "lat": 38.931015333333335}, {"type": "electric_scooter", "name": "e4202742a7591a745e7fa53e17cca3f6", "fusion_lat": 0.0, "fusion_lon": 0.0, "lon": -77.016065, "is_disabled": 0, "bike_id": "e4202742a7591a745e7fa53e17cca3f6", "is_reserved": 0, "rental_uris": {"android": "https://dc.lft.to/lastmile_qr_scan", "ios": "https://dc.lft.to/lastmile_qr_scan"}, "lat": 38.906092666666666}, {"type": "electric_scooter", "name": "72939a47fb242bc6b763bc298b1c163b", "fusion_lat": 0.0, "fusion_lon": 0.0, "lon": -77.02448416666667, "is_disabled": 0, "bike_id": "72939a47fb242bc6b763bc298b1c163b", "is_reserved": 0, "rental_uris": {"android": "https://dc.lft.to/lastmile_qr_scan", "ios": "https://dc.lft.to/lastmile_qr_scan"}, "lat": 38.949799}, {"type": "electric_scooter", "name": "10dd1e11cfd775a1dbe1c6eab5854238", "fusion_lat": 0.0, "fusion_lon": 0.0, "lon": -76.98992883333334, "is_disabled": 0, "bike_id": "10dd1e11cfd775a1dbe1c6eab5854238", "is_reserved": 0, "rental_uris": {"android": "https://dc.lft.to/lastmile_qr_scan", "ios": "https://dc.lft.to/lastmile_qr_scan"}, "lat": 38.86431416666667}, {"type": "electric_scooter", "name": "2df86672a223abbe76537dbe5bd749c0", "fusion_lat": 0.0, "fusion_lon": 0.0, "lon": -77.0271345, "is_disabled": 0, "bike_id": "2df86672a223abbe76537dbe5bd749c0", "is_reserved": 0, "rental_uris": {"android": "https://dc.lft.to/lastmile_qr_scan", "ios": "https://dc.lft.to/lastmile_qr_scan"}, "lat": 38.922384}, {"type": "electric_scooter", "name": "61f025d2da9d9cc110696bf183ba3b61", "fusion_lat": 0.0, "fusion_lon": 0.0, "lon": -77.03210866666667, "is_disabled": 0, "bike_id": "61f025d2da9d9cc110696bf183ba3b61", "is_reserved": 0, "rental_uris": {"android": "https://dc.lft.to/lastmile_qr_scan", "ios": "https://dc.lft.to/lastmile_qr_scan"}, "lat": 38.918468833333336}, {"type": "electric_scooter", "name": "418626b2c4c8b197775c13aff3c9f3a4", "fusion_lat": 0.0, "fusion_lon": 0.0, "lon": -77.02610066666666, "is_disabled": 0, "bike_id": "418626b2c4c8b197775c13aff3c9f3a4", "is_reserved": 0, "rental_uris": {"android": "https://dc.lft.to/lastmile_qr_scan", "ios": "https://dc.lft.to/lastmile_qr_scan"}, "lat": 38.90602533333333}, {"type": "electric_scooter", "name": "f9d4b6f8a64aafc7915e1a3f7757113c", "fusion_lat": 0.0, "fusion_lon": 0.0, "lon": -77.03804166666667, "is_disabled": 0, "bike_id": "f9d4b6f8a64aafc7915e1a3f7757113c", "is_reserved": 0, "rental_uris": {"android": "https://dc.lft.to/lastmile_qr_scan", "ios": "https://dc.lft.to/lastmile_qr_scan"}, "lat": 38.910431}, {"type": "electric_scooter", "name": "cf53a2d237e6bc638511fcfa89022a32", "fusion_lat": 0.0, "fusion_lon": 0.0, "lon": -77.0488195, "is_disabled": 0, "bike_id": "cf53a2d237e6bc638511fcfa89022a32", "is_reserved": 0, "rental_uris": {"android": "https://dc.lft.to/lastmile_qr_scan", "ios": "https://dc.lft.to/lastmile_qr_scan"}, "lat": 38.900805166666665}, {"type": "electric_bike", "name": "e8ecc76551ddfddc9405903ec310a4ba", "fusion_lat": 0.0, "fusion_lon": 0.0, "lon": -77.0450345, "is_disabled": 0, "bike_id": "e8ecc76551ddfddc9405903ec310a4ba", "is_reserved": 0, "rental_uris": {"android": "https://dc.lft.to/lastmile_qr_scan", "ios": "https://dc.lft.to/lastmile_qr_scan"}, "lat": 39.021116166666665}, {"type": "electric_scooter", "name": "cc55b7786ffeb41b8ba1b61dca5f59c6", "fusion_lat": 0.0, "fusion_lon": 0.0, "lon": -77.04681816666667, "is_disabled": 0, "bike_id": "cc55b7786ffeb41b8ba1b61dca5f59c6", "is_reserved": 0, "rental_uris": {"android": "https://dc.lft.to/lastmile_qr_scan", "ios": "https://dc.lft.to/lastmile_qr_scan"}, "lat": 38.902985}, {"type": "electric_scooter", "name": "b4ab25423592e35df9187852ea6c5d9b", "fusion_lat": 0.0, "fusion_lon": 0.0, "lon": -77.03172283333333, "is_disabled": 0, "bike_id": "b4ab25423592e35df9187852ea6c5d9b", "is_reserved": 0, "rental_uris": {"android": "https://dc.lft.to/lastmile_qr_scan", "ios": "https://dc.lft.to/lastmile_qr_scan"}, "lat": 38.918344166666664}, {"type": "electric_scooter", "name": "fdd0c2730e586d9f035c44f8290cb984", "fusion_lat": 0.0, "fusion_lon": 0.0, "lon": -76.94700233333333, "is_disabled": 0, "bike_id": "fdd0c2730e586d9f035c44f8290cb984", "is_reserved": 0, "rental_uris": {"android": "https://dc.lft.to/lastmile_qr_scan", "ios": "https://dc.lft.to/lastmile_qr_scan"}, "lat": 38.89732216666667}, {"type": "electric_scooter", "name": "ac0e6283669235dea7d27d0b7102f231", "fusion_lat": 0.0, "fusion_lon": 0.0, "lon": -77.03640816666666, "is_disabled": 0, "bike_id": "ac0e6283669235dea7d27d0b7102f231", "is_reserved": 0, "rental_uris": {"android": "https://dc.lft.to/lastmile_qr_scan", "ios": "https://dc.lft.to/lastmile_qr_scan"}, "lat": 38.91736983333333}, {"type": "electric_bike", "name": "f3ec52f45cdd600dfeb064cc1803378d", "fusion_lat": 0.0, "fusion_lon": 0.0, "lon": -77.02069716666666, "is_disabled": 0, "bike_id": "f3ec52f45cdd600dfeb064cc1803378d", "is_reserved": 0, "rental_uris": {"android": "https://dc.lft.to/lastmile_qr_scan", "ios": "https://dc.lft.to/lastmile_qr_scan"}, "lat": 38.96442716666667}, {"type": "electric_scooter", "name": "49aa98a7a38f353c772c52a61f2bee66", "fusion_lat": 0.0, "fusion_lon": 0.0, "lon": -77.01433366666667, "is_disabled": 0, "bike_id": "49aa98a7a38f353c772c52a61f2bee66", "is_reserved": 0, "rental_uris": {"android": "https://dc.lft.to/lastmile_qr_scan", "ios": "https://dc.lft.to/lastmile_qr_scan"}, "lat": 38.913158333333335}, {"type": "electric_scooter", "name": "e5d1051595dc546d1d226fbbdd7b47d5", "fusion_lat": 0.0, "fusion_lon": 0.0, "lon": -76.990342, "is_disabled": 0, "bike_id": "e5d1051595dc546d1d226fbbdd7b47d5", "is_reserved": 0, "rental_uris": {"android": "https://dc.lft.to/lastmile_qr_scan", "ios": "https://dc.lft.to/lastmile_qr_scan"}, "lat": 38.888797333333336}, {"type": "electric_scooter", "name": "554a5eb5e7da3e0b755f5096d3ad8198", "fusion_lat": 0.0, "fusion_lon": 0.0, "lon": -77.01088016666667, "is_disabled": 0, "bike_id": "554a5eb5e7da3e0b755f5096d3ad8198", "is_reserved": 0, "rental_uris": {"android": "https://dc.lft.to/lastmile_qr_scan", "ios": "https://dc.lft.to/lastmile_qr_scan"}, "lat": 38.8955245}, {"type": "electric_scooter", "name": "75dbfeda2ed55abcbae8f4bc8c5630d2", "fusion_lat": 0.0, "fusion_lon": 0.0, "lon": -77.03656416666666, "is_disabled": 0, "bike_id": "75dbfeda2ed55abcbae8f4bc8c5630d2", "is_reserved": 0, "rental_uris": {"android": "https://dc.lft.to/lastmile_qr_scan", "ios": "https://dc.lft.to/lastmile_qr_scan"}, "lat": 38.922877666666665}, {"type": "electric_scooter", "name": "1ca39e976c56861cd8ae78a6437b663a", "fusion_lat": 0.0, "fusion_lon": 0.0, "lon": -77.03380266666667, "is_disabled": 0, "bike_id": "1ca39e976c56861cd8ae78a6437b663a", "is_reserved": 0, "rental_uris": {"android": "https://dc.lft.to/lastmile_qr_scan", "ios": "https://dc.lft.to/lastmile_qr_scan"}, "lat": 38.90147366666667}, {"type": "electric_scooter", "name": "f868bc43cbb2656cf27ad78761245c8a", "fusion_lat": 0.0, "fusion_lon": 0.0, "lon": -76.94186116666667, "is_disabled": 0, "bike_id": "f868bc43cbb2656cf27ad78761245c8a", "is_reserved": 0, "rental_uris": {"android": "https://dc.lft.to/lastmile_qr_scan", "ios": "https://dc.lft.to/lastmile_qr_scan"}, "lat": 38.8976005}, {"type": "electric_scooter", "name": "aeda8deca09a57845cdd3ffff902ac5b", "fusion_lat": 0.0, "fusion_lon": 0.0, "lon": -77.06271383333333, "is_disabled": 0, "bike_id": "aeda8deca09a57845cdd3ffff902ac5b", "is_reserved": 0, "rental_uris": {"android": "https://dc.lft.to/lastmile_qr_scan", "ios": "https://dc.lft.to/lastmile_qr_scan"}, "lat": 38.903157}, {"type": "electric_bike", "name": "a4c353a486c8ceae3eaaa2f193423124", "fusion_lat": 0.0, "fusion_lon": 0.0, "lon": -77.076593, "is_disabled": 0, "bike_id": "a4c353a486c8ceae3eaaa2f193423124", "is_reserved": 0, "rental_uris": {"android": "https://dc.lft.to/lastmile_qr_scan", "ios": "https://dc.lft.to/lastmile_qr_scan"}, "lat": 38.8098245}, {"type": "electric_scooter", "name": "56e88917359fbe9dd491b673dfdb678c", "fusion_lat": 0.0, "fusion_lon": 0.0, "lon": -77.03564366666667, "is_disabled": 0, "bike_id": "56e88917359fbe9dd491b673dfdb678c", "is_reserved": 0, "rental_uris": {"android": "https://dc.lft.to/lastmile_qr_scan", "ios": "https://dc.lft.to/lastmile_qr_scan"}, "lat": 38.924823833333335}, {"type": "electric_scooter", "name": "4a0ee15e6f69e1d3e4ee66f783db98ad", "fusion_lat": 0.0, "fusion_lon": 0.0, "lon": -76.9771595, "is_disabled": 0, "bike_id": "4a0ee15e6f69e1d3e4ee66f783db98ad", "is_reserved": 0, "rental_uris": {"android": "https://dc.lft.to/lastmile_qr_scan", "ios": "https://dc.lft.to/lastmile_qr_scan"}, "lat": 38.90059866666667}, {"type": "electric_scooter", "name": "429c939dcc4eee6198282cbf4a9d003c", "fusion_lat": 0.0, "fusion_lon": 0.0, "lon": -77.01733083333333, "is_disabled": 0, "bike_id": "429c939dcc4eee6198282cbf4a9d003c", "is_reserved": 0, "rental_uris": {"android": "https://dc.lft.to/lastmile_qr_scan", "ios": "https://dc.lft.to/lastmile_qr_scan"}, "lat": 38.905604833333335}, {"type": "electric_scooter", "name": "1dffd45be2acc9bae01f18e19dd8c532", "fusion_lat": 0.0, "fusion_lon": 0.0, "lon": -76.99207466666667, "is_disabled": 0, "bike_id": "1dffd45be2acc9bae01f18e19dd8c532", "is_reserved": 0, "rental_uris": {"android": "https://dc.lft.to/lastmile_qr_scan", "ios": "https://dc.lft.to/lastmile_qr_scan"}, "lat": 38.904811}, {"type": "electric_scooter", "name": "6df8472fcf3ff2d367ecbcfcb3fcb5ec", "fusion_lat": 0.0, "fusion_lon": 0.0, "lon": -77.0684925, "is_disabled": 0, "bike_id": "6df8472fcf3ff2d367ecbcfcb3fcb5ec", "is_reserved": 0, "rental_uris": {"android": "https://dc.lft.to/lastmile_qr_scan", "ios": "https://dc.lft.to/lastmile_qr_scan"}, "lat": 38.904071}, {"type": "electric_scooter", "name": "b8b24731d94e46c516977aee05818802", "fusion_lat": 0.0, "fusion_lon": 0.0, "lon": -77.06041516666667, "is_disabled": 0, "bike_id": "b8b24731d94e46c516977aee05818802", "is_reserved": 0, "rental_uris": {"android": "https://dc.lft.to/lastmile_qr_scan", "ios": "https://dc.lft.to/lastmile_qr_scan"}, "lat": 38.90232366666667}, {"type": "electric_scooter", "name": "b94203fab690245ae5a334e8c076ca0d", "fusion_lat": 0.0, "fusion_lon": 0.0, "lon": -77.00047866666667, "is_disabled": 0, "bike_id": "b94203fab690245ae5a334e8c076ca0d", "is_reserved": 0, "rental_uris": {"android": "https://dc.lft.to/lastmile_qr_scan", "ios": "https://dc.lft.to/lastmile_qr_scan"}, "lat": 38.87506583333333}, {"type": "electric_scooter", "name": "036f6fa5c60d7007962b0adb4c54f90c", "fusion_lat": 0.0, "fusion_lon": 0.0, "lon": -77.03506316666666, "is_disabled": 0, "bike_id": "036f6fa5c60d7007962b0adb4c54f90c", "is_reserved": 0, "rental_uris": {"android": "https://dc.lft.to/lastmile_qr_scan", "ios": "https://dc.lft.to/lastmile_qr_scan"}, "lat": 38.92215733333333}, {"type": "electric_scooter", "name": "5c6ee26bcdb442b86b505d274f3b1552", "fusion_lat": 0.0, "fusion_lon": 0.0, "lon": -77.02132766666666, "is_disabled": 0, "bike_id": "5c6ee26bcdb442b86b505d274f3b1552", "is_reserved": 0, "rental_uris": {"android": "https://dc.lft.to/lastmile_qr_scan", "ios": "https://dc.lft.to/lastmile_qr_scan"}, "lat": 38.92695333333333}, {"type": "electric_scooter", "name": "bef85b19bbd5284a4624b5300ad9a393", "fusion_lat": 0.0, "fusion_lon": 0.0, "lon": -76.98861933333333, "is_disabled": 0, "bike_id": "bef85b19bbd5284a4624b5300ad9a393", "is_reserved": 0, "rental_uris": {"android": "https://dc.lft.to/lastmile_qr_scan", "ios": "https://dc.lft.to/lastmile_qr_scan"}, "lat": 38.84422333333333}, {"type": "electric_bike", "name": "68a14b714803918f55c2aee7089d0be9", "fusion_lat": 0.0, "fusion_lon": 0.0, "lon": -77.01231416666667, "is_disabled": 0, "bike_id": "68a14b714803918f55c2aee7089d0be9", "is_reserved": 0, "rental_uris": {"android": "https://dc.lft.to/lastmile_qr_scan", "ios": "https://dc.lft.to/lastmile_qr_scan"}, "lat": 38.950823}, {"type": "electric_scooter", "name": "44b2b1d4e8d88edf86eb265ed1f8119e", "fusion_lat": 0.0, "fusion_lon": 0.0, "lon": -77.02391783333333, "is_disabled": 0, "bike_id": "44b2b1d4e8d88edf86eb265ed1f8119e", "is_reserved": 0, "rental_uris": {"android": "https://dc.lft.to/lastmile_qr_scan", "ios": "https://dc.lft.to/lastmile_qr_scan"}, "lat": 38.90703966666667}, {"type": "electric_bike", "name": "b12159af0ff2cdd808aa1c76244e013b", "fusion_lat": 0.0, "fusion_lon": 0.0, "lon": -76.996812, "is_disabled": 0, "bike_id": "b12159af0ff2cdd808aa1c76244e013b", "is_reserved": 0, "rental_uris": {"android": "https://dc.lft.to/lastmile_qr_scan", "ios": "https://dc.lft.to/lastmile_qr_scan"}, "lat": 38.838180666666666}, {"type": "electric_scooter", "name": "cc5cf492e454014d39f1e0bf4b992ee9", "fusion_lat": 0.0, "fusion_lon": 0.0, "lon": -77.04586233333333, "is_disabled": 0, "bike_id": "cc5cf492e454014d39f1e0bf4b992ee9", "is_reserved": 0, "rental_uris": {"android": "https://dc.lft.to/lastmile_qr_scan", "ios": "https://dc.lft.to/lastmile_qr_scan"}, "lat": 38.914462666666665}, {"type": "electric_scooter", "name": "5e7586de1e47f87f8cf03ed8e5820668", "fusion_lat": 0.0, "fusion_lon": 0.0, "lon": -77.01562533333333, "is_disabled": 0, "bike_id": "5e7586de1e47f87f8cf03ed8e5820668", "is_reserved": 0, "rental_uris": {"android": "https://dc.lft.to/lastmile_qr_scan", "ios": "https://dc.lft.to/lastmile_qr_scan"}, "lat": 38.884988}, {"type": "electric_scooter", "name": "aa4d5b37c24f906a02a3b7209f20ea4b", "fusion_lat": 0.0, "fusion_lon": 0.0, "lon": -77.0378495, "is_disabled": 0, "bike_id": "aa4d5b37c24f906a02a3b7209f20ea4b", "is_reserved": 0, "rental_uris": {"android": "https://dc.lft.to/lastmile_qr_scan", "ios": "https://dc.lft.to/lastmile_qr_scan"}, "lat": 38.93325933333333}, {"type": "electric_scooter", "name": "f6d8989831c6da75d2f4531a5532ec21", "fusion_lat": 0.0, "fusion_lon": 0.0, "lon": -77.041918, "is_disabled": 0, "bike_id": "f6d8989831c6da75d2f4531a5532ec21", "is_reserved": 0, "rental_uris": {"android": "https://dc.lft.to/lastmile_qr_scan", "ios": "https://dc.lft.to/lastmile_qr_scan"}, "lat": 38.92258183333333}, {"type": "electric_scooter", "name": "93b880e74b6e8a708c8f3d6ec5799115", "fusion_lat": 0.0, "fusion_lon": 0.0, "lon": -77.04216516666666, "is_disabled": 0, "bike_id": "93b880e74b6e8a708c8f3d6ec5799115", "is_reserved": 0, "rental_uris": {"android": "https://dc.lft.to/lastmile_qr_scan", "ios": "https://dc.lft.to/lastmile_qr_scan"}, "lat": 38.92108833333333}, {"type": "electric_scooter", "name": "10aad31a3b7fb0f8b8843c02ad7a2513", "fusion_lat": 0.0, "fusion_lon": 0.0, "lon": -77.01029, "is_disabled": 0, "bike_id": "10aad31a3b7fb0f8b8843c02ad7a2513", "is_reserved": 0, "rental_uris": {"android": "https://dc.lft.to/lastmile_qr_scan", "ios": "https://dc.lft.to/lastmile_qr_scan"}, "lat": 38.9114275}, {"type": "electric_bike", "name": "21fc5c657961145fffd30cf423a5bb93", "fusion_lat": 0.0, "fusion_lon": 0.0, "lon": -76.97896616666667, "is_disabled": 0, "bike_id": "21fc5c657961145fffd30cf423a5bb93", "is_reserved": 0, "rental_uris": {"android": "https://dc.lft.to/lastmile_qr_scan", "ios": "https://dc.lft.to/lastmile_qr_scan"}, "lat": 38.926986166666666}, {"type": "electric_scooter", "name": "e73bf4edd59fe804a5a080a1819a50d6", "fusion_lat": 0.0, "fusion_lon": 0.0, "lon": -77.00573216666666, "is_disabled": 0, "bike_id": "e73bf4edd59fe804a5a080a1819a50d6", "is_reserved": 0, "rental_uris": {"android": "https://dc.lft.to/lastmile_qr_scan", "ios": "https://dc.lft.to/lastmile_qr_scan"}, "lat": 38.90274016666667}, {"type": "electric_scooter", "name": "0b8da9b56be4a73b6c3faf4bfed8eb46", "fusion_lat": 0.0, "fusion_lon": 0.0, "lon": -77.010585, "is_disabled": 0, "bike_id": "0b8da9b56be4a73b6c3faf4bfed8eb46", "is_reserved": 0, "rental_uris": {"android": "https://dc.lft.to/lastmile_qr_scan", "ios": "https://dc.lft.to/lastmile_qr_scan"}, "lat": 38.911912666666666}, {"type": "electric_scooter", "name": "b036ad3d2b94262463a47bd59167591b", "fusion_lat": 0.0, "fusion_lon": 0.0, "lon": -77.02308016666667, "is_disabled": 0, "bike_id": "b036ad3d2b94262463a47bd59167591b", "is_reserved": 0, "rental_uris": {"android": "https://dc.lft.to/lastmile_qr_scan", "ios": "https://dc.lft.to/lastmile_qr_scan"}, "lat": 38.91787016666667}, {"type": "electric_scooter", "name": "4a1c35c7f70df890ca9b2574c000e26a", "fusion_lat": 0.0, "fusion_lon": 0.0, "lon": -77.03439533333334, "is_disabled": 0, "bike_id": "4a1c35c7f70df890ca9b2574c000e26a", "is_reserved": 0, "rental_uris": {"android": "https://dc.lft.to/lastmile_qr_scan", "ios": "https://dc.lft.to/lastmile_qr_scan"}, "lat": 38.90718316666667}, {"type": "electric_scooter", "name": "f081e12792cab8d21117d965486d4ff1", "fusion_lat": 0.0, "fusion_lon": 0.0, "lon": -77.00920133333334, "is_disabled": 0, "bike_id": "f081e12792cab8d21117d965486d4ff1", "is_reserved": 0, "rental_uris": {"android": "https://dc.lft.to/lastmile_qr_scan", "ios": "https://dc.lft.to/lastmile_qr_scan"}, "lat": 38.9162605}, {"type": "electric_scooter", "name": "271de98453955424ed571e8ddf91dc6f", "fusion_lat": 0.0, "fusion_lon": 0.0, "lon": -77.01338033333333, "is_disabled": 0, "bike_id": "271de98453955424ed571e8ddf91dc6f", "is_reserved": 0, "rental_uris": {"android": "https://dc.lft.to/lastmile_qr_scan", "ios": "https://dc.lft.to/lastmile_qr_scan"}, "lat": 38.881314}, {"type": "electric_scooter", "name": "346a5d448cb3ea46cf36f835cd017d9c", "fusion_lat": 0.0, "fusion_lon": 0.0, "lon": -77.034392, "is_disabled": 0, "bike_id": "346a5d448cb3ea46cf36f835cd017d9c", "is_reserved": 0, "rental_uris": {"android": "https://dc.lft.to/lastmile_qr_scan", "ios": "https://dc.lft.to/lastmile_qr_scan"}, "lat": 38.918086}, {"type": "electric_scooter", "name": "fbb5d98cdf2412a18b885b8480e7e4a5", "fusion_lat": 0.0, "fusion_lon": 0.0, "lon": -77.01803483333333, "is_disabled": 0, "bike_id": "fbb5d98cdf2412a18b885b8480e7e4a5", "is_reserved": 0, "rental_uris": {"android": "https://dc.lft.to/lastmile_qr_scan", "ios": "https://dc.lft.to/lastmile_qr_scan"}, "lat": 38.92116633333333}, {"type": "electric_scooter", "name": "19bd35a16f33ed56b88f334b0af03ea2", "fusion_lat": 0.0, "fusion_lon": 0.0, "lon": -77.06027916666666, "is_disabled": 0, "bike_id": "19bd35a16f33ed56b88f334b0af03ea2", "is_reserved": 0, "rental_uris": {"android": "https://dc.lft.to/lastmile_qr_scan", "ios": "https://dc.lft.to/lastmile_qr_scan"}, "lat": 38.90238633333333}, {"type": "electric_scooter", "name": "f6da3eebf2148f9ddb2b6bf1c045ab33", "fusion_lat": 0.0, "fusion_lon": 0.0, "lon": -77.04037283333334, "is_disabled": 0, "bike_id": "f6da3eebf2148f9ddb2b6bf1c045ab33", "is_reserved": 0, "rental_uris": {"android": "https://dc.lft.to/lastmile_qr_scan", "ios": "https://dc.lft.to/lastmile_qr_scan"}, "lat": 38.89918466666666}, {"type": "electric_scooter", "name": "c7468c5ec08e7214057e82a4b7ddb9de", "fusion_lat": 0.0, "fusion_lon": 0.0, "lon": -77.04166816666667, "is_disabled": 0, "bike_id": "c7468c5ec08e7214057e82a4b7ddb9de", "is_reserved": 0, "rental_uris": {"android": "https://dc.lft.to/lastmile_qr_scan", "ios": "https://dc.lft.to/lastmile_qr_scan"}, "lat": 38.901468}, {"type": "electric_scooter", "name": "b2df98df9c388568e82ac5452f086d5c", "fusion_lat": 0.0, "fusion_lon": 0.0, "lon": -77.0508295, "is_disabled": 0, "bike_id": "b2df98df9c388568e82ac5452f086d5c", "is_reserved": 0, "rental_uris": {"android": "https://dc.lft.to/lastmile_qr_scan", "ios": "https://dc.lft.to/lastmile_qr_scan"}, "lat": 38.9038165}, {"type": "electric_scooter", "name": "cc49767eddb20e9c8fc9870967bf20cc", "fusion_lat": 0.0, "fusion_lon": 0.0, "lon": -77.02952433333333, "is_disabled": 0, "bike_id": "cc49767eddb20e9c8fc9870967bf20cc", "is_reserved": 0, "rental_uris": {"android": "https://dc.lft.to/lastmile_qr_scan", "ios": "https://dc.lft.to/lastmile_qr_scan"}, "lat": 38.9167445}, {"type": "electric_scooter", "name": "341585b45209c11ef31d64854719586b", "fusion_lat": 0.0, "fusion_lon": 0.0, "lon": -76.983364, "is_disabled": 0, "bike_id": "341585b45209c11ef31d64854719586b", "is_reserved": 0, "rental_uris": {"android": "https://dc.lft.to/lastmile_qr_scan", "ios": "https://dc.lft.to/lastmile_qr_scan"}, "lat": 38.89542733333333}, {"type": "electric_scooter", "name": "64ebfb4aac5f1d583d2df8a825b81db7", "fusion_lat": 0.0, "fusion_lon": 0.0, "lon": -77.0457845, "is_disabled": 0, "bike_id": "64ebfb4aac5f1d583d2df8a825b81db7", "is_reserved": 0, "rental_uris": {"android": "https://dc.lft.to/lastmile_qr_scan", "ios": "https://dc.lft.to/lastmile_qr_scan"}, "lat": 38.9038495}, {"type": "electric_scooter", "name": "bbd506681c7fd1d8f96e19e088f7aa05", "fusion_lat": 0.0, "fusion_lon": 0.0, "lon": -77.06341383333333, "is_disabled": 0, "bike_id": "bbd506681c7fd1d8f96e19e088f7aa05", "is_reserved": 0, "rental_uris": {"android": "https://dc.lft.to/lastmile_qr_scan", "ios": "https://dc.lft.to/lastmile_qr_scan"}, "lat": 38.943679333333336}, {"type": "electric_scooter", "name": "407ea0112af0768d067a68744cd11f74", "fusion_lat": 0.0, "fusion_lon": 0.0, "lon": -77.0005205, "is_disabled": 0, "bike_id": "407ea0112af0768d067a68744cd11f74", "is_reserved": 0, "rental_uris": {"android": "https://dc.lft.to/lastmile_qr_scan", "ios": "https://dc.lft.to/lastmile_qr_scan"}, "lat": 38.878835}, {"type": "electric_scooter", "name": "38d769e40e48b25d5bfcf3862024dad9", "fusion_lat": 0.0, "fusion_lon": 0.0, "lon": -77.03663933333333, "is_disabled": 0, "bike_id": "38d769e40e48b25d5bfcf3862024dad9", "is_reserved": 0, "rental_uris": {"android": "https://dc.lft.to/lastmile_qr_scan", "ios": "https://dc.lft.to/lastmile_qr_scan"}, "lat": 38.91818583333333}, {"type": "electric_scooter", "name": "516a7bdfcce6bfabaf7e004d83bd9b21", "fusion_lat": 0.0, "fusion_lon": 0.0, "lon": -76.9833925, "is_disabled": 0, "bike_id": "516a7bdfcce6bfabaf7e004d83bd9b21", "is_reserved": 0, "rental_uris": {"android": "https://dc.lft.to/lastmile_qr_scan", "ios": "https://dc.lft.to/lastmile_qr_scan"}, "lat": 38.900920166666666}, {"type": "electric_bike", "name": "53d44bbaf98817d0e6fe663873be2d54", "fusion_lat": 0.0, "fusion_lon": 0.0, "lon": -76.96304783333333, "is_disabled": 0, "bike_id": "53d44bbaf98817d0e6fe663873be2d54", "is_reserved": 0, "rental_uris": {"android": "https://dc.lft.to/lastmile_qr_scan", "ios": "https://dc.lft.to/lastmile_qr_scan"}, "lat": 38.897013333333334}, {"type": "electric_scooter", "name": "fcce837a58a50a956353241e6b16a18d", "fusion_lat": 0.0, "fusion_lon": 0.0, "lon": -77.01066766666666, "is_disabled": 0, "bike_id": "fcce837a58a50a956353241e6b16a18d", "is_reserved": 0, "rental_uris": {"android": "https://dc.lft.to/lastmile_qr_scan", "ios": "https://dc.lft.to/lastmile_qr_scan"}, "lat": 38.9182125}, {"type": "electric_bike", "name": "15c368e9ab83b9ce4d2f9232787e2c52", "fusion_lat": 0.0, "fusion_lon": 0.0, "lon": -77.03552966666666, "is_disabled": 0, "bike_id": "15c368e9ab83b9ce4d2f9232787e2c52", "is_reserved": 0, "rental_uris": {"android": "https://dc.lft.to/lastmile_qr_scan", "ios": "https://dc.lft.to/lastmile_qr_scan"}, "lat": 38.934043333333335}, {"type": "electric_scooter", "name": "2dd2db2a13cd4f43b6d45ebce7e68977", "fusion_lat": 0.0, "fusion_lon": 0.0, "lon": -77.0260925, "is_disabled": 0, "bike_id": "2dd2db2a13cd4f43b6d45ebce7e68977", "is_reserved": 0, "rental_uris": {"android": "https://dc.lft.to/lastmile_qr_scan", "ios": "https://dc.lft.to/lastmile_qr_scan"}, "lat": 38.90346183333333}, {"type": "electric_scooter", "name": "f07487b69f5371d62f3dff88cde23c0c", "fusion_lat": 0.0, "fusion_lon": 0.0, "lon": -77.02495333333333, "is_disabled": 0, "bike_id": "f07487b69f5371d62f3dff88cde23c0c", "is_reserved": 0, "rental_uris": {"android": "https://dc.lft.to/lastmile_qr_scan", "ios": "https://dc.lft.to/lastmile_qr_scan"}, "lat": 38.90574216666667}, {"type": "electric_scooter", "name": "56676fca3258592685055720b8cdf548", "fusion_lat": 0.0, "fusion_lon": 0.0, "lon": -77.04764233333333, "is_disabled": 0, "bike_id": "56676fca3258592685055720b8cdf548", "is_reserved": 0, "rental_uris": {"android": "https://dc.lft.to/lastmile_qr_scan", "ios": "https://dc.lft.to/lastmile_qr_scan"}, "lat": 38.91754683333333}, {"type": "electric_scooter", "name": "24b8823c80c5693bb816ecdca2319128", "fusion_lat": 0.0, "fusion_lon": 0.0, "lon": -77.02411233333333, "is_disabled": 0, "bike_id": "24b8823c80c5693bb816ecdca2319128", "is_reserved": 0, "rental_uris": {"android": "https://dc.lft.to/lastmile_qr_scan", "ios": "https://dc.lft.to/lastmile_qr_scan"}, "lat": 38.93819}, {"type": "electric_scooter", "name": "9d36cea530eac6ec5d0d6728f8131bd7", "fusion_lat": 0.0, "fusion_lon": 0.0, "lon": -77.017921, "is_disabled": 0, "bike_id": "9d36cea530eac6ec5d0d6728f8131bd7", "is_reserved": 0, "rental_uris": {"android": "https://dc.lft.to/lastmile_qr_scan", "ios": "https://dc.lft.to/lastmile_qr_scan"}, "lat": 38.87681233333333}, {"type": "electric_scooter", "name": "ed777d3439dd7efbdafb95e19b80e9c3", "fusion_lat": 0.0, "fusion_lon": 0.0, "lon": -76.98077966666666, "is_disabled": 0, "bike_id": "ed777d3439dd7efbdafb95e19b80e9c3", "is_reserved": 0, "rental_uris": {"android": "https://dc.lft.to/lastmile_qr_scan", "ios": "https://dc.lft.to/lastmile_qr_scan"}, "lat": 38.90156616666667}, {"type": "electric_scooter", "name": "522ae748877ea2e978d33f26253fcc97", "fusion_lat": 0.0, "fusion_lon": 0.0, "lon": -77.02866766666666, "is_disabled": 0, "bike_id": "522ae748877ea2e978d33f26253fcc97", "is_reserved": 0, "rental_uris": {"android": "https://dc.lft.to/lastmile_qr_scan", "ios": "https://dc.lft.to/lastmile_qr_scan"}, "lat": 38.913597}, {"type": "electric_scooter", "name": "2f1fb8193495f0c1364fa72257fef5bd", "fusion_lat": 0.0, "fusion_lon": 0.0, "lon": -77.0053975, "is_disabled": 0, "bike_id": "2f1fb8193495f0c1364fa72257fef5bd", "is_reserved": 0, "rental_uris": {"android": "https://dc.lft.to/lastmile_qr_scan", "ios": "https://dc.lft.to/lastmile_qr_scan"}, "lat": 38.87475533333333}, {"type": "electric_bike", "name": "8efd6439aaf46587b5a7a1fd2c2d363d", "fusion_lat": 0.0, "fusion_lon": 0.0, "lon": -76.99278316666667, "is_disabled": 0, "bike_id": "8efd6439aaf46587b5a7a1fd2c2d363d", "is_reserved": 0, "rental_uris": {"android": "https://dc.lft.to/lastmile_qr_scan", "ios": "https://dc.lft.to/lastmile_qr_scan"}, "lat": 38.9725935}, {"type": "electric_scooter", "name": "bab188de0629a5fed04502f7aea9ee43", "fusion_lat": 0.0, "fusion_lon": 0.0, "lon": -77.04170033333334, "is_disabled": 0, "bike_id": "bab188de0629a5fed04502f7aea9ee43", "is_reserved": 0, "rental_uris": {"android": "https://dc.lft.to/lastmile_qr_scan", "ios": "https://dc.lft.to/lastmile_qr_scan"}, "lat": 38.918183666666664}, {"type": "electric_scooter", "name": "9a462ff01a9726a3e193bc9c472243f9", "fusion_lat": 0.0, "fusion_lon": 0.0, "lon": -76.99296433333333, "is_disabled": 0, "bike_id": "9a462ff01a9726a3e193bc9c472243f9", "is_reserved": 0, "rental_uris": {"android": "https://dc.lft.to/lastmile_qr_scan", "ios": "https://dc.lft.to/lastmile_qr_scan"}, "lat": 38.8812415}, {"type": "electric_scooter", "name": "c83d9d4c562d72cac84f8204f28a9aa0", "fusion_lat": 0.0, "fusion_lon": 0.0, "lon": -77.0402945, "is_disabled": 0, "bike_id": "c83d9d4c562d72cac84f8204f28a9aa0", "is_reserved": 0, "rental_uris": {"android": "https://dc.lft.to/lastmile_qr_scan", "ios": "https://dc.lft.to/lastmile_qr_scan"}, "lat": 38.911901666666665}, {"type": "electric_bike", "name": "73db424ba93f2260aca3b5e70708707c", "fusion_lat": 0.0, "fusion_lon": 0.0, "lon": -76.99700566666667, "is_disabled": 0, "bike_id": "73db424ba93f2260aca3b5e70708707c", "is_reserved": 0, "rental_uris": {"android": "https://dc.lft.to/lastmile_qr_scan", "ios": "https://dc.lft.to/lastmile_qr_scan"}, "lat": 38.83870266666667}, {"type": "electric_scooter", "name": "4c56420ac58b41849b53ecd366785704", "fusion_lat": 0.0, "fusion_lon": 0.0, "lon": -77.05196766666667, "is_disabled": 0, "bike_id": "4c56420ac58b41849b53ecd366785704", "is_reserved": 0, "rental_uris": {"android": "https://dc.lft.to/lastmile_qr_scan", "ios": "https://dc.lft.to/lastmile_qr_scan"}, "lat": 38.92462483333333}, {"type": "electric_scooter", "name": "5776c8a19b71ff5e6535ecf061c9e686", "fusion_lat": 0.0, "fusion_lon": 0.0, "lon": -77.024741, "is_disabled": 0, "bike_id": "5776c8a19b71ff5e6535ecf061c9e686", "is_reserved": 0, "rental_uris": {"android": "https://dc.lft.to/lastmile_qr_scan", "ios": "https://dc.lft.to/lastmile_qr_scan"}, "lat": 38.93856}, {"type": "electric_bike", "name": "12e3467918a8672043e11b6df36d3b04", "fusion_lat": 0.0, "fusion_lon": 0.0, "lon": -77.079712, "is_disabled": 0, "bike_id": "12e3467918a8672043e11b6df36d3b04", "is_reserved": 0, "rental_uris": {"android": "https://dc.lft.to/lastmile_qr_scan", "ios": "https://dc.lft.to/lastmile_qr_scan"}, "lat": 38.919496}, {"type": "electric_scooter", "name": "1f01c3194492448e3c6b978a6b3337a6", "fusion_lat": 0.0, "fusion_lon": 0.0, "lon": -77.02628766666666, "is_disabled": 0, "bike_id": "1f01c3194492448e3c6b978a6b3337a6", "is_reserved": 0, "rental_uris": {"android": "https://dc.lft.to/lastmile_qr_scan", "ios": "https://dc.lft.to/lastmile_qr_scan"}, "lat": 38.93867066666667}, {"type": "electric_scooter", "name": "bf0d688bb18f7c315d95f2e7d66390c0", "fusion_lat": 0.0, "fusion_lon": 0.0, "lon": -77.00047916666666, "is_disabled": 0, "bike_id": "bf0d688bb18f7c315d95f2e7d66390c0", "is_reserved": 0, "rental_uris": {"android": "https://dc.lft.to/lastmile_qr_scan", "ios": "https://dc.lft.to/lastmile_qr_scan"}, "lat": 38.87886316666667}, {"type": "electric_scooter", "name": "8361bea587b090defbfbb883c4fea547", "fusion_lat": 0.0, "fusion_lon": 0.0, "lon": -77.02114233333333, "is_disabled": 0, "bike_id": "8361bea587b090defbfbb883c4fea547", "is_reserved": 0, "rental_uris": {"android": "https://dc.lft.to/lastmile_qr_scan", "ios": "https://dc.lft.to/lastmile_qr_scan"}, "lat": 38.896012166666665}, {"type": "electric_scooter", "name": "7372654fdbef9e998aac7bbddac07848", "fusion_lat": 0.0, "fusion_lon": 0.0, "lon": -77.03806816666666, "is_disabled": 0, "bike_id": "7372654fdbef9e998aac7bbddac07848", "is_reserved": 0, "rental_uris": {"android": "https://dc.lft.to/lastmile_qr_scan", "ios": "https://dc.lft.to/lastmile_qr_scan"}, "lat": 38.925605833333336}, {"type": "electric_bike", "name": "0206df5db02072937c490c5443ce54d7", "fusion_lat": 0.0, "fusion_lon": 0.0, "lon": -77.04995016666666, "is_disabled": 0, "bike_id": "0206df5db02072937c490c5443ce54d7", "is_reserved": 0, "rental_uris": {"android": "https://dc.lft.to/lastmile_qr_scan", "ios": "https://dc.lft.to/lastmile_qr_scan"}, "lat": 38.805308333333336}, {"type": "electric_scooter", "name": "8130fd5be2f6ae33a36ec662f4f7afb1", "fusion_lat": 0.0, "fusion_lon": 0.0, "lon": -77.04566133333333, "is_disabled": 0, "bike_id": "8130fd5be2f6ae33a36ec662f4f7afb1", "is_reserved": 0, "rental_uris": {"android": "https://dc.lft.to/lastmile_qr_scan", "ios": "https://dc.lft.to/lastmile_qr_scan"}, "lat": 38.903952333333336}, {"type": "electric_scooter", "name": "cf04ffdfe1b73115e5447f98477173cb", "fusion_lat": 0.0, "fusion_lon": 0.0, "lon": -77.0464175, "is_disabled": 0, "bike_id": "cf04ffdfe1b73115e5447f98477173cb", "is_reserved": 0, "rental_uris": {"android": "https://dc.lft.to/lastmile_qr_scan", "ios": "https://dc.lft.to/lastmile_qr_scan"}, "lat": 38.906677333333334}, {"type": "electric_scooter", "name": "a2b8d5b81d3ee138efcb34d77e34e12e", "fusion_lat": 0.0, "fusion_lon": 0.0, "lon": -77.002019, "is_disabled": 0, "bike_id": "a2b8d5b81d3ee138efcb34d77e34e12e", "is_reserved": 0, "rental_uris": {"android": "https://dc.lft.to/lastmile_qr_scan", "ios": "https://dc.lft.to/lastmile_qr_scan"}, "lat": 38.9024285}, {"type": "electric_scooter", "name": "9d21143b6e2e5d5eff902edff1808670", "fusion_lat": 0.0, "fusion_lon": 0.0, "lon": -77.024264, "is_disabled": 0, "bike_id": "9d21143b6e2e5d5eff902edff1808670", "is_reserved": 0, "rental_uris": {"android": "https://dc.lft.to/lastmile_qr_scan", "ios": "https://dc.lft.to/lastmile_qr_scan"}, "lat": 38.9155525}, {"type": "electric_scooter", "name": "56e1e171882c753fa5c2ccaffebe57fe", "fusion_lat": 0.0, "fusion_lon": 0.0, "lon": -76.9901025, "is_disabled": 0, "bike_id": "56e1e171882c753fa5c2ccaffebe57fe", "is_reserved": 0, "rental_uris": {"android": "https://dc.lft.to/lastmile_qr_scan", "ios": "https://dc.lft.to/lastmile_qr_scan"}, "lat": 38.90397466666667}, {"type": "electric_scooter", "name": "f280b387bcdd834b6c11d6a9045aa76d", "fusion_lat": 0.0, "fusion_lon": 0.0, "lon": -76.99868466666666, "is_disabled": 0, "bike_id": "f280b387bcdd834b6c11d6a9045aa76d", "is_reserved": 0, "rental_uris": {"android": "https://dc.lft.to/lastmile_qr_scan", "ios": "https://dc.lft.to/lastmile_qr_scan"}, "lat": 38.900293}, {"type": "electric_scooter", "name": "0d3fb79562bc9c6eb104cf1a85d1123e", "fusion_lat": 0.0, "fusion_lon": 0.0, "lon": -76.997759, "is_disabled": 0, "bike_id": "0d3fb79562bc9c6eb104cf1a85d1123e", "is_reserved": 0, "rental_uris": {"android": "https://dc.lft.to/lastmile_qr_scan", "ios": "https://dc.lft.to/lastmile_qr_scan"}, "lat": 38.911273}, {"type": "electric_scooter", "name": "0d08285072131c85c7d0762d2f3174df", "fusion_lat": 0.0, "fusion_lon": 0.0, "lon": -77.046305, "is_disabled": 0, "bike_id": "0d08285072131c85c7d0762d2f3174df", "is_reserved": 0, "rental_uris": {"android": "https://dc.lft.to/lastmile_qr_scan", "ios": "https://dc.lft.to/lastmile_qr_scan"}, "lat": 38.914054}, {"type": "electric_scooter", "name": "74ba8d5265644444d42970da71da5a42", "fusion_lat": 0.0, "fusion_lon": 0.0, "lon": -77.05511933333334, "is_disabled": 0, "bike_id": "74ba8d5265644444d42970da71da5a42", "is_reserved": 0, "rental_uris": {"android": "https://dc.lft.to/lastmile_qr_scan", "ios": "https://dc.lft.to/lastmile_qr_scan"}, "lat": 38.928416}, {"type": "electric_scooter", "name": "052115540d242c8e1d4689877b995631", "fusion_lat": 0.0, "fusion_lon": 0.0, "lon": -77.01861816666667, "is_disabled": 0, "bike_id": "052115540d242c8e1d4689877b995631", "is_reserved": 0, "rental_uris": {"android": "https://dc.lft.to/lastmile_qr_scan", "ios": "https://dc.lft.to/lastmile_qr_scan"}, "lat": 38.930431}, {"type": "electric_scooter", "name": "fe2e51d213d490a4ece633bf4ed3fa75", "fusion_lat": 0.0, "fusion_lon": 0.0, "lon": -77.01225516666666, "is_disabled": 0, "bike_id": "fe2e51d213d490a4ece633bf4ed3fa75", "is_reserved": 0, "rental_uris": {"android": "https://dc.lft.to/lastmile_qr_scan", "ios": "https://dc.lft.to/lastmile_qr_scan"}, "lat": 38.914043166666666}, {"type": "electric_bike", "name": "a46f4ecdc4c592374f7301fc8918ac70", "fusion_lat": 0.0, "fusion_lon": 0.0, "lon": -77.09720816666666, "is_disabled": 0, "bike_id": "a46f4ecdc4c592374f7301fc8918ac70", "is_reserved": 0, "rental_uris": {"android": "https://dc.lft.to/lastmile_qr_scan", "ios": "https://dc.lft.to/lastmile_qr_scan"}, "lat": 38.807396833333335}, {"type": "electric_bike", "name": "977bc9119011c027e714b4945e42e24a", "fusion_lat": 0.0, "fusion_lon": 0.0, "lon": -77.00127833333333, "is_disabled": 0, "bike_id": "977bc9119011c027e714b4945e42e24a", "is_reserved": 0, "rental_uris": {"android": "https://dc.lft.to/lastmile_qr_scan", "ios": "https://dc.lft.to/lastmile_qr_scan"}, "lat": 38.925551666666664}, {"type": "electric_scooter", "name": "ccf099fdaa8aae79daa5ffe7fb490eaa", "fusion_lat": 0.0, "fusion_lon": 0.0, "lon": -77.034596, "is_disabled": 0, "bike_id": "ccf099fdaa8aae79daa5ffe7fb490eaa", "is_reserved": 0, "rental_uris": {"android": "https://dc.lft.to/lastmile_qr_scan", "ios": "https://dc.lft.to/lastmile_qr_scan"}, "lat": 38.9172675}, {"type": "electric_scooter", "name": "07b3b271c8b48b2b2a8a3f69fe03ccb9", "fusion_lat": 0.0, "fusion_lon": 0.0, "lon": -77.01575716666666, "is_disabled": 0, "bike_id": "07b3b271c8b48b2b2a8a3f69fe03ccb9", "is_reserved": 0, "rental_uris": {"android": "https://dc.lft.to/lastmile_qr_scan", "ios": "https://dc.lft.to/lastmile_qr_scan"}, "lat": 38.876270166666664}, {"type": "electric_bike", "name": "ff9c119c1208b97088e19511806b108b", "fusion_lat": 0.0, "fusion_lon": 0.0, "lon": -77.06533966666667, "is_disabled": 0, "bike_id": "ff9c119c1208b97088e19511806b108b", "is_reserved": 0, "rental_uris": {"android": "https://dc.lft.to/lastmile_qr_scan", "ios": "https://dc.lft.to/lastmile_qr_scan"}, "lat": 38.99232966666667}, {"type": "electric_bike", "name": "2a4b2785971c991d13e40eacd41051ea", "fusion_lat": 0.0, "fusion_lon": 0.0, "lon": -77.02421166666667, "is_disabled": 0, "bike_id": "2a4b2785971c991d13e40eacd41051ea", "is_reserved": 0, "rental_uris": {"android": "https://dc.lft.to/lastmile_qr_scan", "ios": "https://dc.lft.to/lastmile_qr_scan"}, "lat": 38.9911855}, {"type": "electric_scooter", "name": "2b2bd65aec89409fe0c22d5a40d18e76", "fusion_lat": 0.0, "fusion_lon": 0.0, "lon": -77.07192616666667, "is_disabled": 0, "bike_id": "2b2bd65aec89409fe0c22d5a40d18e76", "is_reserved": 0, "rental_uris": {"android": "https://dc.lft.to/lastmile_qr_scan", "ios": "https://dc.lft.to/lastmile_qr_scan"}, "lat": 38.91269283333333}, {"type": "electric_scooter", "name": "cbd8946a2bf41c3b0f831067870246a6", "fusion_lat": 0.0, "fusion_lon": 0.0, "lon": -77.0233975, "is_disabled": 0, "bike_id": "cbd8946a2bf41c3b0f831067870246a6", "is_reserved": 0, "rental_uris": {"android": "https://dc.lft.to/lastmile_qr_scan", "ios": "https://dc.lft.to/lastmile_qr_scan"}, "lat": 38.881335}, {"type": "electric_bike", "name": "a4f44ae4551bee3d017f262237240afb", "fusion_lat": 0.0, "fusion_lon": 0.0, "lon": -76.981828, "is_disabled": 0, "bike_id": "a4f44ae4551bee3d017f262237240afb", "is_reserved": 0, "rental_uris": {"android": "https://dc.lft.to/lastmile_qr_scan", "ios": "https://dc.lft.to/lastmile_qr_scan"}, "lat": 38.88408783333333}, {"type": "electric_scooter", "name": "70088c9ea7313a8328fac7a63c7bd14a", "fusion_lat": 0.0, "fusion_lon": 0.0, "lon": -77.00758366666666, "is_disabled": 0, "bike_id": "70088c9ea7313a8328fac7a63c7bd14a", "is_reserved": 0, "rental_uris": {"android": "https://dc.lft.to/lastmile_qr_scan", "ios": "https://dc.lft.to/lastmile_qr_scan"}, "lat": 38.904751166666664}, {"type": "electric_scooter", "name": "a494edef4ea5daf2d0bd937136619555", "fusion_lat": 0.0, "fusion_lon": 0.0, "lon": -77.04133983333334, "is_disabled": 0, "bike_id": "a494edef4ea5daf2d0bd937136619555", "is_reserved": 0, "rental_uris": {"android": "https://dc.lft.to/lastmile_qr_scan", "ios": "https://dc.lft.to/lastmile_qr_scan"}, "lat": 38.9211725}, {"type": "electric_scooter", "name": "eb876135db5b9ba5a6b21f384f7273e6", "fusion_lat": 0.0, "fusion_lon": 0.0, "lon": -77.06289133333334, "is_disabled": 0, "bike_id": "eb876135db5b9ba5a6b21f384f7273e6", "is_reserved": 0, "rental_uris": {"android": "https://dc.lft.to/lastmile_qr_scan", "ios": "https://dc.lft.to/lastmile_qr_scan"}, "lat": 38.90458266666667}, {"type": "electric_scooter", "name": "cdcb1fafc03a3489abf3b7468254dec1", "fusion_lat": 0.0, "fusion_lon": 0.0, "lon": -77.00392583333333, "is_disabled": 0, "bike_id": "cdcb1fafc03a3489abf3b7468254dec1", "is_reserved": 0, "rental_uris": {"android": "https://dc.lft.to/lastmile_qr_scan", "ios": "https://dc.lft.to/lastmile_qr_scan"}, "lat": 38.876063333333335}, {"type": "electric_scooter", "name": "90bf44444905daf25aebaa44583ad072", "fusion_lat": 0.0, "fusion_lon": 0.0, "lon": -77.004806, "is_disabled": 0, "bike_id": "90bf44444905daf25aebaa44583ad072", "is_reserved": 0, "rental_uris": {"android": "https://dc.lft.to/lastmile_qr_scan", "ios": "https://dc.lft.to/lastmile_qr_scan"}, "lat": 38.8745835}, {"type": "electric_scooter", "name": "181317dfa5b47be83103fa6f79de95e6", "fusion_lat": 0.0, "fusion_lon": 0.0, "lon": -76.99031966666666, "is_disabled": 0, "bike_id": "181317dfa5b47be83103fa6f79de95e6", "is_reserved": 0, "rental_uris": {"android": "https://dc.lft.to/lastmile_qr_scan", "ios": "https://dc.lft.to/lastmile_qr_scan"}, "lat": 38.88874416666667}, {"type": "electric_scooter", "name": "ae2ad7382bb8f16063ac44c67ba1b514", "fusion_lat": 0.0, "fusion_lon": 0.0, "lon": -77.01644416666667, "is_disabled": 0, "bike_id": "ae2ad7382bb8f16063ac44c67ba1b514", "is_reserved": 0, "rental_uris": {"android": "https://dc.lft.to/lastmile_qr_scan", "ios": "https://dc.lft.to/lastmile_qr_scan"}, "lat": 38.91592133333333}, {"type": "electric_scooter", "name": "7fcdb120b5026b870b3e93e0acda42a0", "fusion_lat": 0.0, "fusion_lon": 0.0, "lon": -77.03172683333334, "is_disabled": 0, "bike_id": "7fcdb120b5026b870b3e93e0acda42a0", "is_reserved": 0, "rental_uris": {"android": "https://dc.lft.to/lastmile_qr_scan", "ios": "https://dc.lft.to/lastmile_qr_scan"}, "lat": 38.92487833333333}, {"type": "electric_scooter", "name": "9b1752b29195d089d89cb03921c30d54", "fusion_lat": 0.0, "fusion_lon": 0.0, "lon": -77.03662266666667, "is_disabled": 0, "bike_id": "9b1752b29195d089d89cb03921c30d54", "is_reserved": 0, "rental_uris": {"android": "https://dc.lft.to/lastmile_qr_scan", "ios": "https://dc.lft.to/lastmile_qr_scan"}, "lat": 38.921000666666664}, {"type": "electric_scooter", "name": "ea2a035b27853045b3a9b74be953db49", "fusion_lat": 0.0, "fusion_lon": 0.0, "lon": -77.021836, "is_disabled": 0, "bike_id": "ea2a035b27853045b3a9b74be953db49", "is_reserved": 0, "rental_uris": {"android": "https://dc.lft.to/lastmile_qr_scan", "ios": "https://dc.lft.to/lastmile_qr_scan"}, "lat": 38.901848}, {"type": "electric_scooter", "name": "d4aa846fa8c1725f26bb6a5167a5500c", "fusion_lat": 0.0, "fusion_lon": 0.0, "lon": -77.02875766666666, "is_disabled": 0, "bike_id": "d4aa846fa8c1725f26bb6a5167a5500c", "is_reserved": 0, "rental_uris": {"android": "https://dc.lft.to/lastmile_qr_scan", "ios": "https://dc.lft.to/lastmile_qr_scan"}, "lat": 38.903308333333335}, {"type": "electric_scooter", "name": "d60145b6ce372d2ffa3e5bdc7c5365c6", "fusion_lat": 0.0, "fusion_lon": 0.0, "lon": -77.0218915, "is_disabled": 0, "bike_id": "d60145b6ce372d2ffa3e5bdc7c5365c6", "is_reserved": 0, "rental_uris": {"android": "https://dc.lft.to/lastmile_qr_scan", "ios": "https://dc.lft.to/lastmile_qr_scan"}, "lat": 38.909584}, {"type": "electric_scooter", "name": "0d1d93742e2af2d17375630a99f6e493", "fusion_lat": 0.0, "fusion_lon": 0.0, "lon": -77.032754, "is_disabled": 0, "bike_id": "0d1d93742e2af2d17375630a99f6e493", "is_reserved": 0, "rental_uris": {"android": "https://dc.lft.to/lastmile_qr_scan", "ios": "https://dc.lft.to/lastmile_qr_scan"}, "lat": 38.92863333333333}, {"type": "electric_scooter", "name": "27b1e4a0697ac05a8982f11e902f02be", "fusion_lat": 0.0, "fusion_lon": 0.0, "lon": -77.0395705, "is_disabled": 0, "bike_id": "27b1e4a0697ac05a8982f11e902f02be", "is_reserved": 0, "rental_uris": {"android": "https://dc.lft.to/lastmile_qr_scan", "ios": "https://dc.lft.to/lastmile_qr_scan"}, "lat": 38.926078833333335}, {"type": "electric_scooter", "name": "a77a2ab902a016517441acf63dd69af3", "fusion_lat": 0.0, "fusion_lon": 0.0, "lon": -77.02192983333333, "is_disabled": 0, "bike_id": "a77a2ab902a016517441acf63dd69af3", "is_reserved": 0, "rental_uris": {"android": "https://dc.lft.to/lastmile_qr_scan", "ios": "https://dc.lft.to/lastmile_qr_scan"}, "lat": 38.92486566666667}, {"type": "electric_scooter", "name": "f4fd8a44135e3626f3893f385c4f807c", "fusion_lat": 0.0, "fusion_lon": 0.0, "lon": -77.03477266666667, "is_disabled": 0, "bike_id": "f4fd8a44135e3626f3893f385c4f807c", "is_reserved": 0, "rental_uris": {"android": "https://dc.lft.to/lastmile_qr_scan", "ios": "https://dc.lft.to/lastmile_qr_scan"}, "lat": 38.907785}, {"type": "electric_scooter", "name": "03f12eba12553159b06eb8d90d0ff3d2", "fusion_lat": 0.0, "fusion_lon": 0.0, "lon": -77.00621466666666, "is_disabled": 0, "bike_id": "03f12eba12553159b06eb8d90d0ff3d2", "is_reserved": 0, "rental_uris": {"android": "https://dc.lft.to/lastmile_qr_scan", "ios": "https://dc.lft.to/lastmile_qr_scan"}, "lat": 38.871978}, {"type": "electric_scooter", "name": "8d9aa725aefa7c1c22d399673ccf3ff3", "fusion_lat": 0.0, "fusion_lon": 0.0, "lon": -77.03928833333333, "is_disabled": 0, "bike_id": "8d9aa725aefa7c1c22d399673ccf3ff3", "is_reserved": 0, "rental_uris": {"android": "https://dc.lft.to/lastmile_qr_scan", "ios": "https://dc.lft.to/lastmile_qr_scan"}, "lat": 38.9140595}, {"type": "electric_bike", "name": "87deca62ba77c3ffa2bf26393fe5fb58", "fusion_lat": 0.0, "fusion_lon": 0.0, "lon": -77.0202985, "is_disabled": 0, "bike_id": "87deca62ba77c3ffa2bf26393fe5fb58", "is_reserved": 0, "rental_uris": {"android": "https://dc.lft.to/lastmile_qr_scan", "ios": "https://dc.lft.to/lastmile_qr_scan"}, "lat": 38.965561666666666}, {"type": "electric_scooter", "name": "b86066df67848c0f0dfc417e1a600f2d", "fusion_lat": 0.0, "fusion_lon": 0.0, "lon": -77.05298966666666, "is_disabled": 0, "bike_id": "b86066df67848c0f0dfc417e1a600f2d", "is_reserved": 0, "rental_uris": {"android": "https://dc.lft.to/lastmile_qr_scan", "ios": "https://dc.lft.to/lastmile_qr_scan"}, "lat": 38.90268283333333}, {"type": "electric_bike", "name": "7ff06e1ca6cb3fedd66c4809f94fffc2", "fusion_lat": 0.0, "fusion_lon": 0.0, "lon": -76.98818966666667, "is_disabled": 0, "bike_id": "7ff06e1ca6cb3fedd66c4809f94fffc2", "is_reserved": 0, "rental_uris": {"android": "https://dc.lft.to/lastmile_qr_scan", "ios": "https://dc.lft.to/lastmile_qr_scan"}, "lat": 38.842802666666664}, {"type": "electric_scooter", "name": "0bbb4d1e79431d3921241ec1103751ca", "fusion_lat": 0.0, "fusion_lon": 0.0, "lon": -77.0512285, "is_disabled": 0, "bike_id": "0bbb4d1e79431d3921241ec1103751ca", "is_reserved": 0, "rental_uris": {"android": "https://dc.lft.to/lastmile_qr_scan", "ios": "https://dc.lft.to/lastmile_qr_scan"}, "lat": 38.92345616666667}, {"type": "electric_scooter", "name": "403ff4b915a80bb9eacbeb07f69d3e67", "fusion_lat": 0.0, "fusion_lon": 0.0, "lon": -77.00598933333333, "is_disabled": 0, "bike_id": "403ff4b915a80bb9eacbeb07f69d3e67", "is_reserved": 0, "rental_uris": {"android": "https://dc.lft.to/lastmile_qr_scan", "ios": "https://dc.lft.to/lastmile_qr_scan"}, "lat": 38.87571066666667}, {"type": "electric_scooter", "name": "1f5f8ba2481e08d2bf121d0f0c3d06da", "fusion_lat": 0.0, "fusion_lon": 0.0, "lon": -77.02801066666666, "is_disabled": 0, "bike_id": "1f5f8ba2481e08d2bf121d0f0c3d06da", "is_reserved": 0, "rental_uris": {"android": "https://dc.lft.to/lastmile_qr_scan", "ios": "https://dc.lft.to/lastmile_qr_scan"}, "lat": 38.92320816666667}, {"type": "electric_scooter", "name": "0aeb9710e2fd281f3152d8d6c1ce6857", "fusion_lat": 0.0, "fusion_lon": 0.0, "lon": -77.0009565, "is_disabled": 0, "bike_id": "0aeb9710e2fd281f3152d8d6c1ce6857", "is_reserved": 0, "rental_uris": {"android": "https://dc.lft.to/lastmile_qr_scan", "ios": "https://dc.lft.to/lastmile_qr_scan"}, "lat": 38.876355333333336}, {"type": "electric_bike", "name": "c540994abf2e181b8ec648aaf45b6fbd", "fusion_lat": 0.0, "fusion_lon": 0.0, "lon": -76.98716183333333, "is_disabled": 0, "bike_id": "c540994abf2e181b8ec648aaf45b6fbd", "is_reserved": 0, "rental_uris": {"android": "https://dc.lft.to/lastmile_qr_scan", "ios": "https://dc.lft.to/lastmile_qr_scan"}, "lat": 38.86323433333333}, {"type": "electric_scooter", "name": "aec8fbbd6d0bddc329926549bd1c8b16", "fusion_lat": 0.0, "fusion_lon": 0.0, "lon": -77.02300166666667, "is_disabled": 0, "bike_id": "aec8fbbd6d0bddc329926549bd1c8b16", "is_reserved": 0, "rental_uris": {"android": "https://dc.lft.to/lastmile_qr_scan", "ios": "https://dc.lft.to/lastmile_qr_scan"}, "lat": 38.96132766666667}, {"type": "electric_bike", "name": "78022fbe60d939954273038314d681b1", "fusion_lat": 0.0, "fusion_lon": 0.0, "lon": -77.032734, "is_disabled": 0, "bike_id": "78022fbe60d939954273038314d681b1", "is_reserved": 0, "rental_uris": {"android": "https://dc.lft.to/lastmile_qr_scan", "ios": "https://dc.lft.to/lastmile_qr_scan"}, "lat": 38.96127083333333}, {"type": "electric_scooter", "name": "2c41d4429901d5d12749379b6c9bdc44", "fusion_lat": 0.0, "fusion_lon": 0.0, "lon": -77.01388083333333, "is_disabled": 0, "bike_id": "2c41d4429901d5d12749379b6c9bdc44", "is_reserved": 0, "rental_uris": {"android": "https://dc.lft.to/lastmile_qr_scan", "ios": "https://dc.lft.to/lastmile_qr_scan"}, "lat": 38.87894283333333}, {"type": "electric_scooter", "name": "f11f571a5a495261713ac9d21a765139", "fusion_lat": 0.0, "fusion_lon": 0.0, "lon": -77.0337205, "is_disabled": 0, "bike_id": "f11f571a5a495261713ac9d21a765139", "is_reserved": 0, "rental_uris": {"android": "https://dc.lft.to/lastmile_qr_scan", "ios": "https://dc.lft.to/lastmile_qr_scan"}, "lat": 38.910439}, {"type": "electric_scooter", "name": "fcff66f61dd3c244d058f7a51e5f8ebb", "fusion_lat": 0.0, "fusion_lon": 0.0, "lon": -77.03308366666667, "is_disabled": 0, "bike_id": "fcff66f61dd3c244d058f7a51e5f8ebb", "is_reserved": 0, "rental_uris": {"android": "https://dc.lft.to/lastmile_qr_scan", "ios": "https://dc.lft.to/lastmile_qr_scan"}, "lat": 38.926571833333334}, {"type": "electric_scooter", "name": "b0bc88a36b4086e9763006153be4b0f0", "fusion_lat": 0.0, "fusion_lon": 0.0, "lon": -77.03869866666666, "is_disabled": 0, "bike_id": "b0bc88a36b4086e9763006153be4b0f0", "is_reserved": 0, "rental_uris": {"android": "https://dc.lft.to/lastmile_qr_scan", "ios": "https://dc.lft.to/lastmile_qr_scan"}, "lat": 38.91264266666667}, {"type": "electric_scooter", "name": "1d7240212378ce136a6aca62d2117c24", "fusion_lat": 0.0, "fusion_lon": 0.0, "lon": -77.05368716666666, "is_disabled": 0, "bike_id": "1d7240212378ce136a6aca62d2117c24", "is_reserved": 0, "rental_uris": {"android": "https://dc.lft.to/lastmile_qr_scan", "ios": "https://dc.lft.to/lastmile_qr_scan"}, "lat": 38.903916833333334}, {"type": "electric_scooter", "name": "d140589554e6af76d3ec02adb5966e45", "fusion_lat": 0.0, "fusion_lon": 0.0, "lon": -77.039845, "is_disabled": 0, "bike_id": "d140589554e6af76d3ec02adb5966e45", "is_reserved": 0, "rental_uris": {"android": "https://dc.lft.to/lastmile_qr_scan", "ios": "https://dc.lft.to/lastmile_qr_scan"}, "lat": 38.900279166666664}, {"type": "electric_bike", "name": "798ec2f41ad2d050a7f5b6401ce6d7a0", "fusion_lat": 0.0, "fusion_lon": 0.0, "lon": -77.00212833333333, "is_disabled": 0, "bike_id": "798ec2f41ad2d050a7f5b6401ce6d7a0", "is_reserved": 0, "rental_uris": {"android": "https://dc.lft.to/lastmile_qr_scan", "ios": "https://dc.lft.to/lastmile_qr_scan"}, "lat": 38.988496}, {"type": "electric_bike", "name": "504cb8737d1a10d90f23b5c5280051c8", "fusion_lat": 0.0, "fusion_lon": 0.0, "lon": -77.0370745, "is_disabled": 0, "bike_id": "504cb8737d1a10d90f23b5c5280051c8", "is_reserved": 0, "rental_uris": {"android": "https://dc.lft.to/lastmile_qr_scan", "ios": "https://dc.lft.to/lastmile_qr_scan"}, "lat": 38.93559166666667}, {"type": "electric_scooter", "name": "6c47f3ae44b0e97d2ac526234f85ede4", "fusion_lat": 0.0, "fusion_lon": 0.0, "lon": -77.0217305, "is_disabled": 0, "bike_id": "6c47f3ae44b0e97d2ac526234f85ede4", "is_reserved": 0, "rental_uris": {"android": "https://dc.lft.to/lastmile_qr_scan", "ios": "https://dc.lft.to/lastmile_qr_scan"}, "lat": 38.9110955}, {"type": "electric_scooter", "name": "7d755e77885d83133db2c2aefc65b4a5", "fusion_lat": 0.0, "fusion_lon": 0.0, "lon": -77.0295085, "is_disabled": 0, "bike_id": "7d755e77885d83133db2c2aefc65b4a5", "is_reserved": 0, "rental_uris": {"android": "https://dc.lft.to/lastmile_qr_scan", "ios": "https://dc.lft.to/lastmile_qr_scan"}, "lat": 38.90405716666667}, {"type": "electric_scooter", "name": "cdd0dfa9c1b67b74d99964aef3fc86e7", "fusion_lat": 0.0, "fusion_lon": 0.0, "lon": -77.04153583333333, "is_disabled": 0, "bike_id": "cdd0dfa9c1b67b74d99964aef3fc86e7", "is_reserved": 0, "rental_uris": {"android": "https://dc.lft.to/lastmile_qr_scan", "ios": "https://dc.lft.to/lastmile_qr_scan"}, "lat": 38.9154895}, {"type": "electric_bike", "name": "cdce7c28dbe5eb65aa987be18d15f301", "fusion_lat": 0.0, "fusion_lon": 0.0, "lon": -76.96056383333334, "is_disabled": 0, "bike_id": "cdce7c28dbe5eb65aa987be18d15f301", "is_reserved": 0, "rental_uris": {"android": "https://dc.lft.to/lastmile_qr_scan", "ios": "https://dc.lft.to/lastmile_qr_scan"}, "lat": 38.88408233333333}, {"type": "electric_scooter", "name": "253b5a57656f61e8cf9a9a5e451d0739", "fusion_lat": 0.0, "fusion_lon": 0.0, "lon": -76.98492416666667, "is_disabled": 0, "bike_id": "253b5a57656f61e8cf9a9a5e451d0739", "is_reserved": 0, "rental_uris": {"android": "https://dc.lft.to/lastmile_qr_scan", "ios": "https://dc.lft.to/lastmile_qr_scan"}, "lat": 38.90365033333333}, {"type": "electric_scooter", "name": "4c33128e8a84fdae8caac0e547c11c5c", "fusion_lat": 0.0, "fusion_lon": 0.0, "lon": -76.92893566666666, "is_disabled": 0, "bike_id": "4c33128e8a84fdae8caac0e547c11c5c", "is_reserved": 0, "rental_uris": {"android": "https://dc.lft.to/lastmile_qr_scan", "ios": "https://dc.lft.to/lastmile_qr_scan"}, "lat": 38.87944383333333}, {"type": "electric_scooter", "name": "00c153e5578f81ae273a1f2ccb6d830a", "fusion_lat": 0.0, "fusion_lon": 0.0, "lon": -77.00557533333334, "is_disabled": 0, "bike_id": "00c153e5578f81ae273a1f2ccb6d830a", "is_reserved": 0, "rental_uris": {"android": "https://dc.lft.to/lastmile_qr_scan", "ios": "https://dc.lft.to/lastmile_qr_scan"}, "lat": 38.91816716666666}, {"type": "electric_scooter", "name": "2e43067baf21ab75a4dcb79571f2b00d", "fusion_lat": 0.0, "fusion_lon": 0.0, "lon": -77.03428066666666, "is_disabled": 0, "bike_id": "2e43067baf21ab75a4dcb79571f2b00d", "is_reserved": 0, "rental_uris": {"android": "https://dc.lft.to/lastmile_qr_scan", "ios": "https://dc.lft.to/lastmile_qr_scan"}, "lat": 38.906147833333335}, {"type": "electric_scooter", "name": "3fe927117f0782050e9209676212981d", "fusion_lat": 0.0, "fusion_lon": 0.0, "lon": -77.00059433333334, "is_disabled": 0, "bike_id": "3fe927117f0782050e9209676212981d", "is_reserved": 0, "rental_uris": {"android": "https://dc.lft.to/lastmile_qr_scan", "ios": "https://dc.lft.to/lastmile_qr_scan"}, "lat": 38.8738225}, {"type": "electric_scooter", "name": "01d0430cbbaf8ab3230ed421a23eef82", "fusion_lat": 0.0, "fusion_lon": 0.0, "lon": -77.016113, "is_disabled": 0, "bike_id": "01d0430cbbaf8ab3230ed421a23eef82", "is_reserved": 0, "rental_uris": {"android": "https://dc.lft.to/lastmile_qr_scan", "ios": "https://dc.lft.to/lastmile_qr_scan"}, "lat": 38.90959183333333}, {"type": "electric_scooter", "name": "d867ae0a69fcf9c853e9a64dcf8716e3", "fusion_lat": 0.0, "fusion_lon": 0.0, "lon": -77.05137833333333, "is_disabled": 0, "bike_id": "d867ae0a69fcf9c853e9a64dcf8716e3", "is_reserved": 0, "rental_uris": {"android": "https://dc.lft.to/lastmile_qr_scan", "ios": "https://dc.lft.to/lastmile_qr_scan"}, "lat": 38.89862166666666},