{"data": {"bikes": [{"lat": 38.96018316666667, "is_disabled": 0, "type": "electric_bike", "lon": -77.017287, "bike_id": "5ed9dfbc473453a652d7ae809c7b6506", "fusion_lat": 0.0, "name": "5ed9dfbc473453a652d7ae809c7b6506", "is_reserved": 0, "rental_uris": {"android": "https://dc.lft.to/lastmile_qr_scan", "ios": "https://dc.lft.to/lastmile_qr_scan"}, "fusion_lon": 0.0}, {"lat": 38.95324033333333, "is_disabled": 0, "type": "electric_scooter", "lon": -77.027522, "bike_id": "1ebe15338019e57492bf5139c6fcf1cd", "fusion_lat": 0.0, "name": "1ebe15338019e57492bf5139c6fcf1cd", "is_reserved": 0, "rental_uris": {"android": "https://dc.lft.to/lastmile_qr_scan", "ios": "https://dc.lft.to/lastmile_qr_scan"}, "fusion_lon": 0.0}, {"lat": 38.91403283333333, "is_disabled": 0, "type": "electric_scooter", "lon": -77.03221016666667, "bike_id": "6bf4f3953e8a6ac4f147e9312bd59a50", "fusion_lat": 0.0, "name": "6bf4f3953e8a6ac4f147e9312bd59a50", "is_reserved": 0, "rental_uris": {"android": "https://dc.lft.to/lastmile_qr_scan", "ios": "https://dc.lft.to/lastmile_qr_scan"}, "fusion_lon": 0.0}, {"lat": 38.8846715, "is_disabled": 0, "type": "electric_scooter", "lon": -76.99260583333333, "bike_id": "09d51502629c0e21ab65642a57761228", "fusion_lat": 0.0, "name": "09d51502629c0e21ab65642a57761228", "is_reserved": 0, "rental_uris": {"android": "https://dc.lft.to/lastmile_qr_scan", "ios": "https://dc.lft.to/lastmile_qr_scan"}, "fusion_lon": 0.0}, {"lat": 39.02935316666667, "is_disabled": 0, "type": "electric_bike", "lon": -77.049273, "bike_id": "6e38e805b93db1d3053272886c26d4e5", "fusion_lat": 0.0, "name": "6e38e805b93db1d3053272886c26d4e5", "is_reserved": 0, "rental_uris": {"android": "https://dc.lft.to/lastmile_qr_scan", "ios": "https://dc.lft.to/lastmile_qr_scan"}, "fusion_lon": 0.0}, {"lat": 38.919817333333334, "is_disabled": 0, "type": "electric_scooter", "lon": -76.973095, "bike_id": "c9a16638f772f40ee2eea66b110321d4", "fusion_lat": 0.0, "name": "c9a16638f772f40ee2eea66b110321d4", "is_reserved": 0, "rental_uris": {"android": "https://dc.lft.to/lastmile_qr_scan", "ios": "https://dc.lft.to/lastmile_qr_scan"}, "fusion_lon": 0.0}, {"lat": 38.88492983333333, "is_disabled": 0, "type": "electric_scooter", "lon": -77.00716766666666, "bike_id": "7ab2979c25030c172df939bcaff73597", "fusion_lat": 0.0, "name": "7ab2979c25030c172df939bcaff73597", "is_reserved": 0, "rental_uris": {"android": "https://dc.lft.to/lastmile_qr_scan", "ios": "https://dc.lft.to/lastmile_qr_scan"}, "fusion_lon": 0.0}, {"lat": 38.97345383333333, "is_disabled": 0, "type": "electric_scooter", "lon": -77.01797566666667, "bike_id": "bd1f7d44ed0eb1400abc0fb30cac8651", "fusion_lat": 0.0, "name": "bd1f7d44ed0eb1400abc0fb30cac8651", "is_reserved": 0, "rental_uris": {"android": "https://dc.lft.to/lastmile_qr_scan", "ios": "https://dc.lft.to/lastmile_qr_scan"}, "fusion_lon": 0.0}, {"lat": 38.9308275, "is_disabled": 0, "type": "electric_scooter", "lon": -77.02797783333334, "bike_id": "8a174c740f9b02d413202189de22a9d1", "fusion_lat": 0.0, "name": "8a174c740f9b02d413202189de22a9d1", "is_reserved": 0, "rental_uris": {"android": "https://dc.lft.to/lastmile_qr_scan", "ios": "https://dc.lft.to/lastmile_qr_scan"}, "fusion_lon": 0.0}, {"lat": 38.896033333333335, "is_disabled": 0, "type": "electric_scooter", "lon": -77.01334216666666, "bike_id": "6272a3f7967f5261e76995b5344623aa", "fusion_lat": 0.0, "name": "6272a3f7967f5261e76995b5344623aa", "is_reserved": 0, "rental_uris": {"android": "https://dc.lft.to/lastmile_qr_scan", "ios": "https://dc.lft.to/lastmile_qr_scan"}, "fusion_lon": 0.0}, {"lat": 38.931092166666666, "is_disabled": 0, "type": "electric_scooter", "lon": -77.03819066666667, "bike_id": "081db43d36b2a2791f6c31f2764b8c66", "fusion_lat": 0.0, "name": "081db43d36b2a2791f6c31f2764b8c66", "is_reserved": 0, "rental_uris": {"android": "https://dc.lft.to/lastmile_qr_scan", "ios": "https://dc.lft.to/lastmile_qr_scan"}, "fusion_lon": 0.0}, {"lat": 38.9186975, "is_disabled": 0, "type": "electric_scooter", "lon": -77.040333, "bike_id": "5c691c713b79ad964a0e5ca176736908", "fusion_lat": 0.0, "name": "5c691c713b79ad964a0e5ca176736908", "is_reserved": 0, "rental_uris": {"android": "https://dc.lft.to/lastmile_qr_scan", "ios": "https://dc.lft.to/lastmile_qr_scan"}, "fusion_lon": 0.0}, {"lat": 38.903771666666664, "is_disabled": 0, "type": "electric_scooter", "lon": -77.02813, "bike_id": "cd38856ef5fa012ad2f888e9899635f7", "fusion_lat": 0.0, "name": "cd38856ef5fa012ad2f888e9899635f7", "is_reserved": 0, "rental_uris": {"android": "https://dc.lft.to/lastmile_qr_scan", "ios": "https://dc.lft.to/lastmile_qr_scan"}, "fusion_lon": 0.0}, {"lat": 38.91822883333333, "is_disabled": 0, "type": "electric_scooter", "lon": -77.01211333333333, "bike_id": "c343c72213575321b5a71b8b37a47c0e", "fusion_lat": 0.0, "name": "c343c72213575321b5a71b8b37a47c0e", "is_reserved": 0, "rental_uris": {"android": "https://dc.lft.to/lastmile_qr_scan", "ios": "https://dc.lft.to/lastmile_qr_scan"}, "fusion_lon": 0.0}, {"lat": 38.8644585, "is_disabled": 0, "type": "electric_bike", "lon": -76.94543316666666, "bike_id": "e30d8dfb78030c64f40cafdd6bc10186", "fusion_lat": 0.0, "name": "e30d8dfb78030c64f40cafdd6bc10186", "is_reserved": 0, "rental_uris": {"android": "https://dc.lft.to/lastmile_qr_scan", "ios": "https://dc.lft.to/lastmile_qr_scan"}, "fusion_lon": 0.0}, {"lat": 38.89222733333333, "is_disabled": 0, "type": "electric_scooter", "lon": -77.04867133333333, "bike_id": "ecf698a86f7d73bd35889abe615c9063", "fusion_lat": 0.0, "name": "ecf698a86f7d73bd35889abe615c9063", "is_reserved": 0, "rental_uris": {"android": "https://dc.lft.to/lastmile_qr_scan", "ios": "https://dc.lft.to/lastmile_qr_scan"}, "fusion_lon": 0.0}, {"lat": 38.8997435, "is_disabled": 0, "type": "electric_scooter", "lon": -77.02216883333334, "bike_id": "93270aeae6be41c795769c9cca82b0ae", "fusion_lat": 0.0, "name": "93270aeae6be41c795769c9cca82b0ae", "is_reserved": 0, "rental_uris": {"android": "https://dc.lft.to/lastmile_qr_scan", "ios": "https://dc.lft.to/lastmile_qr_scan"}, "fusion_lon": 0.0}, {"lat": 38.900134666666666, "is_disabled": 0, "type": "electric_scooter", "lon": -77.02029833333333, "bike_id": "b3623be12e606972ea654a56a737237f", "fusion_lat": 0.0, "name": "b3623be12e606972ea654a56a737237f", "is_reserved": 0, "rental_uris": {"android": "https://dc.lft.to/lastmile_qr_scan", "ios": "https://dc.lft.to/lastmile_qr_scan"}, "fusion_lon": 0.0}, {"lat": 38.8714205, "is_disabled": 0, "type": "electric_bike", "lon": -76.93702833333333, "bike_id": "25d4c71b11d8df43580cee53b1d3d9eb", "fusion_lat": 0.0, "name": "25d4c71b11d8df43580cee53b1d3d9eb", "is_reserved": 0, "rental_uris": {"android": "https://dc.lft.to/lastmile_qr_scan", "ios": "https://dc.lft.to/lastmile_qr_scan"}, "fusion_lon": 0.0}, {"lat": 38.96136333333333, "is_disabled": 0, "type": "electric_scooter", "lon": -77.02239316666666, "bike_id": "9f9a4541a9854b2534fb99f96a972594", "fusion_lat": 0.0, "name": "9f9a4541a9854b2534fb99f96a972594", "is_reserved": 0, "rental_uris": {"android": "https://dc.lft.to/lastmile_qr_scan", "ios": "https://dc.lft.to/lastmile_qr_scan"}, "fusion_lon": 0.0}, {"lat": 38.854417166666664, "is_disabled": 0, "type": "electric_scooter", "lon": -76.98586516666667, "bike_id": "588f914d8de0ce958ccadc781ad80790", "fusion_lat": 0.0, "name": "588f914d8de0ce958ccadc781ad80790", "is_reserved": 0, "rental_uris": {"android": "https://dc.lft.to/lastmile_qr_scan", "ios": "https://dc.lft.to/lastmile_qr_scan"}, "fusion_lon": 0.0}, {"lat": 38.922477666666666, "is_disabled": 0, "type": "electric_scooter", "lon": -77.02727183333333, "bike_id": "5be00d5b30bf341de6e98b2fb902b6ca", "fusion_lat": 0.0, "name": "5be00d5b30bf341de6e98b2fb902b6ca", "is_reserved": 0, "rental_uris": {"android": "https://dc.lft.to/lastmile_qr_scan", "ios": "https://dc.lft.to/lastmile_qr_scan"}, "fusion_lon": 0.0}, {"lat": 38.92976516666667, "is_disabled": 0, "type": "electric_scooter", "lon": -77.01305183333334, "bike_id": "4ce6c61ade7172e7a5f30fbea3dc6bf2", "fusion_lat": 0.0, "name": "4ce6c61ade7172e7a5f30fbea3dc6bf2", "is_reserved": 0, "rental_uris": {"android": "https://dc.lft.to/lastmile_qr_scan", "ios": "https://dc.lft.to/lastmile_qr_scan"}, "fusion_lon": 0.0}, {"lat": 38.9540335, "is_disabled": 0, "type": "electric_scooter", "lon": -77.027492, "bike_id": "31b6e99bc97e0741f303281d5cfd3eec", "fusion_lat": 0.0, "name": "31b6e99bc97e0741f303281d5cfd3eec", "is_reserved": 0, "rental_uris": {"android": "https://dc.lft.to/lastmile_qr_scan", "ios": "https://dc.lft.to/lastmile_qr_scan"}, "fusion_lon": 0.0}, {"lat": 38.90781, "is_disabled": 0, "type": "electric_scooter", "lon": -77.06414983333333, "bike_id": "da89e31659974f683c63373b2d3b1f9f", "fusion_lat": 0.0, "name": "da89e31659974f683c63373b2d3b1f9f", "is_reserved": 0, "rental_uris": {"android": "https://dc.lft.to/lastmile_qr_scan", "ios": "https://dc.lft.to/lastmile_qr_scan"}, "fusion_lon": 0.0}, {"lat": 38.918207833333334, "is_disabled": 0, "type": "electric_scooter", "lon": -77.026103, "bike_id": "52d7f303b579e64b63bfe944d036d70b", "fusion_lat": 0.0, "name": "52d7f303b579e64b63bfe944d036d70b", "is_reserved": 0, "rental_uris": {"android": "https://dc.lft.to/lastmile_qr_scan", "ios": "https://dc.lft.to/lastmile_qr_scan"}, "fusion_lon": 0.0}, {"lat": 38.93344166666667, "is_disabled": 0, "type": "electric_scooter", "lon": -77.02391216666666, "bike_id": "d189ac635c7cc483a682930a19da0dea", "fusion_lat": 0.0, "name": "d189ac635c7cc483a682930a19da0dea", "is_reserved": 0, "rental_uris": {"android": "https://dc.lft.to/lastmile_qr_scan", "ios": "https://dc.lft.to/lastmile_qr_scan"}, "fusion_lon": 0.0}, {"lat": 38.90309516666667, "is_disabled": 0, "type": "electric_scooter", "lon": -77.02562083333333, "bike_id": "eaf18d1ec72a2cf3cb6c670c00f13345", "fusion_lat": 0.0, "name": "eaf18d1ec72a2cf3cb6c670c00f13345", "is_reserved": 0, "rental_uris": {"android": "https://dc.lft.to/lastmile_qr_scan", "ios": "https://dc.lft.to/lastmile_qr_scan"}, "fusion_lon": 0.0}, {"lat": 38.928729833333335, "is_disabled": 0, "type": "electric_scooter", "lon": -77.03222533333333, "bike_id": "9c8225ee56c94153cd3ada198fd9a8c1", "fusion_lat": 0.0, "name": "9c8225ee56c94153cd3ada198fd9a8c1", "is_reserved": 0, "rental_uris": {"android": "https://dc.lft.to/lastmile_qr_scan", "ios": "https://dc.lft.to/lastmile_qr_scan"}, "fusion_lon": 0.0}, {"lat": 38.909512166666666, "is_disabled": 0, "type": "electric_scooter", "lon": -77.04065716666666, "bike_id": "fd519744fe9c8bfd6a59122cadeaf1a3", "fusion_lat": 0.0, "name": "fd519744fe9c8bfd6a59122cadeaf1a3", "is_reserved": 0, "rental_uris": {"android": "https://dc.lft.to/lastmile_qr_scan", "ios": "https://dc.lft.to/lastmile_qr_scan"}, "fusion_lon": 0.0}, {"lat": 38.802681666666665, "is_disabled": 0, "type": "electric_bike", "lon": -77.08113633333333, "bike_id": "dbb41ef797bac08ddadae15cbe66f21c", "fusion_lat": 0.0, "name": "dbb41ef797bac08ddadae15cbe66f21c", "is_reserved": 0, "rental_uris": {"android": "https://dc.lft.to/lastmile_qr_scan", "ios": "https://dc.lft.to/lastmile_qr_scan"}, "fusion_lon": 0.0}, {"lat": 38.9002665, "is_disabled": 0, "type": "electric_scooter", "lon": -77.03197316666666, "bike_id": "a94364c9f2e59c471d18ed15c531c13e", "fusion_lat": 0.0, "name": "a94364c9f2e59c471d18ed15c531c13e", "is_reserved": 0, "rental_uris": {"android": "https://dc.lft.to/lastmile_qr_scan", "ios": "https://dc.lft.to/lastmile_qr_scan"}, "fusion_lon": 0.0}, {"lat": 38.896170833333336, "is_disabled": 0, "type": "electric_scooter", "lon": -77.022989, "bike_id": "69b12a911d6e5a17667449a1431ef5d8", "fusion_lat": 0.0, "name": "69b12a911d6e5a17667449a1431ef5d8", "is_reserved": 0, "rental_uris": {"android": "https://dc.lft.to/lastmile_qr_scan", "ios": "https://dc.lft.to/lastmile_qr_scan"}, "fusion_lon": 0.0}, {"lat": 38.91709866666667, "is_disabled": 0, "type": "electric_scooter", "lon": -77.0350045, "bike_id": "effdf20a2d2c77c1c16c5417d3d04d8f", "fusion_lat": 0.0, "name": "effdf20a2d2c77c1c16c5417d3d04d8f", "is_reserved": 0, "rental_uris": {"android": "https://dc.lft.to/lastmile_qr_scan", "ios": "https://dc.lft.to/lastmile_qr_scan"}, "fusion_lon": 0.0}, {"lat": 38.920540333333335, "is_disabled": 0, "type": "electric_scooter", "lon": -77.0339305, "bike_id": "55bc92c82ebc534e307c92a49c8a0018", "fusion_lat": 0.0, "name": "55bc92c82ebc534e307c92a49c8a0018", "is_reserved": 0, "rental_uris": {"android": "https://dc.lft.to/lastmile_qr_scan", "ios": "https://dc.lft.to/lastmile_qr_scan"}, "fusion_lon": 0.0}, {"lat": 38.89893983333333, "is_disabled": 0, "type": "electric_scooter", "lon": -76.98426133333334, "bike_id": "d2be3bea3a7fbea28512ad6c2bb817ea", "fusion_lat": 0.0, "name": "d2be3bea3a7fbea28512ad6c2bb817ea", "is_reserved": 0, "rental_uris": {"android": "https://dc.lft.to/lastmile_qr_scan", "ios": "https://dc.lft.to/lastmile_qr_scan"}, "fusion_lon": 0.0}, {"lat": 38.9037425, "is_disabled": 0, "type": "electric_scooter", "lon": -77.05806716666666, "bike_id": "cada067de5102e4ac8cbc056f46dd8a9", "fusion_lat": 0.0, "name": "cada067de5102e4ac8cbc056f46dd8a9", "is_reserved": 0, "rental_uris": {"android": "https://dc.lft.to/lastmile_qr_scan", "ios": "https://dc.lft.to/lastmile_qr_scan"}, "fusion_lon": 0.0}, {"lat": 38.869588, "is_disabled": 0, "type": "electric_bike", "lon": -77.01083433333334, "bike_id": "c19af9dc0b0825a789b438db294d1e42", "fusion_lat": 0.0, "name": "c19af9dc0b0825a789b438db294d1e42", "is_reserved": 0, "rental_uris": {"android": "https://dc.lft.to/lastmile_qr_scan", "ios": "https://dc.lft.to/lastmile_qr_scan"}, "fusion_lon": 0.0}, {"lat": 38.897331, "is_disabled": 0, "type": "electric_scooter", "lon": -76.94724533333333, "bike_id": "edc1b24191f976beef9fa695ab2bc52e", "fusion_lat": 0.0, "name": "edc1b24191f976beef9fa695ab2bc52e", "is_reserved": 0, "rental_uris": {"android": "https://dc.lft.to/lastmile_qr_scan", "ios": "https://dc.lft.to/lastmile_qr_scan"}, "fusion_lon": 0.0}, {"lat": 38.91416666666667, "is_disabled": 0, "type": "electric_scooter", "lon": -77.03536016666666, "bike_id": "4dbc0bca8cea5a62ee7edfc96bfad483", "fusion_lat": 0.0, "name": "4dbc0bca8cea5a62ee7edfc96bfad483", "is_reserved": 0, "rental_uris": {"android": "https://dc.lft.to/lastmile_qr_scan", "ios": "https://dc.lft.to/lastmile_qr_scan"}, "fusion_lon": 0.0}, {"lat": 38.88208983333333, "is_disabled": 0, "type": "electric_scooter", "lon": -76.99041916666667, "bike_id": "17dc018353301ac95afc3eb209cbcbe2", "fusion_lat": 0.0, "name": "17dc018353301ac95afc3eb209cbcbe2", "is_reserved": 0, "rental_uris": {"android": "https://dc.lft.to/lastmile_qr_scan", "ios": "https://dc.lft.to/lastmile_qr_scan"}, "fusion_lon": 0.0}, {"lat": 38.92246566666667, "is_disabled": 0, "type": "electric_scooter", "lon": -77.02888466666667, "bike_id": "959d0ed6bfdea76923a8adf552bdfc3f", "fusion_lat": 0.0, "name": "959d0ed6bfdea76923a8adf552bdfc3f", "is_reserved": 0, "rental_uris": {"android": "https://dc.lft.to/lastmile_qr_scan", "ios": "https://dc.lft.to/lastmile_qr_scan"}, "fusion_lon": 0.0}, {"lat": 38.9196465, "is_disabled": 0, "type": "electric_scooter", "lon": -77.02503066666667, "bike_id": "882b16a160c16fdcf7e06b4c102ae1fd", "fusion_lat": 0.0, "name": "882b16a160c16fdcf7e06b4c102ae1fd", "is_reserved": 0, "rental_uris": {"android": "https://dc.lft.to/lastmile_qr_scan", "ios": "https://dc.lft.to/lastmile_qr_scan"}, "fusion_lon": 0.0}, {"lat": 38.923129, "is_disabled": 0, "type": "electric_scooter", "lon": -77.022603, "bike_id": "f0ac48d8f73a200d890ed59fed96dff3", "fusion_lat": 0.0, "name": "f0ac48d8f73a200d890ed59fed96dff3", "is_reserved": 0, "rental_uris": {"android": "https://dc.lft.to/lastmile_qr_scan", "ios": "https://dc.lft.to/lastmile_qr_scan"}, "fusion_lon": 0.0}, {"lat": 38.89674816666667, "is_disabled": 0, "type": "electric_scooter", "lon": -77.00518433333333, "bike_id": "e66b8deb5fcc5c3a138de8d28fba7a16", "fusion_lat": 0.0, "name": "e66b8deb5fcc5c3a138de8d28fba7a16", "is_reserved": 0, "rental_uris": {"android": "https://dc.lft.to/lastmile_qr_scan", "ios": "https://dc.lft.to/lastmile_qr_scan"}, "fusion_lon": 0.0}, {"lat": 38.904072, "is_disabled": 0, "type": "electric_scooter", "lon": -76.99301183333333, "bike_id": "fcd6b1492c8c5418b68fd12314405a3d", "fusion_lat": 0.0, "name": "fcd6b1492c8c5418b68fd12314405a3d", "is_reserved": 0, "rental_uris": {"android": "https://dc.lft.to/lastmile_qr_scan", "ios": "https://dc.lft.to/lastmile_qr_scan"}, "fusion_lon": 0.0}, {"lat": 38.89973366666667, "is_disabled": 0, "type": "electric_scooter", "lon": -77.0217195, "bike_id": "39dbb1bc1f80728ddf278f899f4df5f4", "fusion_lat": 0.0, "name": "39dbb1bc1f80728ddf278f899f4df5f4", "is_reserved": 0, "rental_uris": {"android": "https://dc.lft.to/lastmile_qr_scan", "ios": "https://dc.lft.to/lastmile_qr_scan"}, "fusion_lon": 0.0}, {"lat": 38.978303, "is_disabled": 0, "type": "electric_bike", "lon": -77.02645116666666, "bike_id": "fe634cd26b1417b50931a40288d3c0b2", "fusion_lat": 0.0, "name": "fe634cd26b1417b50931a40288d3c0b2", "is_reserved": 0, "rental_uris": {"android": "https://dc.lft.to/lastmile_qr_scan", "ios": "https://dc.lft.to/lastmile_qr_scan"}, "fusion_lon": 0.0}, {"lat": 38.924450666666665, "is_disabled": 0, "type": "electric_scooter", "lon": -77.02038616666667, "bike_id": "7863d9a296db0074fd3ac955318b9603", "fusion_lat": 0.0, "name": "7863d9a296db0074fd3ac955318b9603", "is_reserved": 0, "rental_uris": {"android": "https://dc.lft.to/lastmile_qr_scan", "ios": "https://dc.lft.to/lastmile_qr_scan"}, "fusion_lon": 0.0}, {"lat": 38.91702383333333, "is_disabled": 0, "type": "electric_scooter", "lon": -77.03714233333334, "bike_id": "ee9d198fd326f2096945c841f35dbccd", "fusion_lat": 0.0, "name": "ee9d198fd326f2096945c841f35dbccd", "is_reserved": 0, "rental_uris": {"android": "https://dc.lft.to/lastmile_qr_scan", "ios": "https://dc.lft.to/lastmile_qr_scan"}, "fusion_lon": 0.0}, {"lat": 38.943057833333334, "is_disabled": 0, "type": "electric_scooter", "lon": -77.05929583333334, "bike_id": "93b09401e12343d26e16670dcb8b9dcb", "fusion_lat": 0.0, "name": "93b09401e12343d26e16670dcb8b9dcb", "is_reserved": 0, "rental_uris": {"android": "https://dc.lft.to/lastmile_qr_scan", "ios": "https://dc.lft.to/lastmile_qr_scan"}, "fusion_lon": 0.0}, {"lat": 38.86714333333333, "is_disabled": 0, "type": "electric_scooter", "lon": -77.0101375, "bike_id": "9a207e0ed0f2bada2d235eaca73091f7", "fusion_lat": 0.0, "name": "9a207e0ed0f2bada2d235eaca73091f7", "is_reserved": 0, "rental_uris": {"android": "https://dc.lft.to/lastmile_qr_scan", "ios": "https://dc.lft.to/lastmile_qr_scan"}, "fusion_lon": 0.0}, {"lat": 38.86505066666667, "is_disabled": 0, "type": "electric_bike", "lon": -76.97348, "bike_id": "d4eb72722942fd24fe38a966e5b88176", "fusion_lat": 0.0, "name": "d4eb72722942fd24fe38a966e5b88176", "is_reserved": 0, "rental_uris": {"android": "https://dc.lft.to/lastmile_qr_scan", "ios": "https://dc.lft.to/lastmile_qr_scan"}, "fusion_lon": 0.0}, {"lat": 38.85514516666667, "is_disabled": 0, "type": "electric_bike", "lon": -77.12047433333333, "bike_id": "fe906d6556fa2a3131555fd61c68e89c", "fusion_lat": 0.0, "name": "fe906d6556fa2a3131555fd61c68e89c", "is_reserved": 0, "rental_uris": {"android": "https://dc.lft.to/lastmile_qr_scan", "ios": "https://dc.lft.to/lastmile_qr_scan"}, "fusion_lon": 0.0}, {"lat": 38.923694833333336, "is_disabled": 0, "type": "electric_scooter", "lon": -77.04029433333334, "bike_id": "159b711d10916570cb6cf57dea228058", "fusion_lat": 0.0, "name": "159b711d10916570cb6cf57dea228058", "is_reserved": 0, "rental_uris": {"android": "https://dc.lft.to/lastmile_qr_scan", "ios": "https://dc.lft.to/lastmile_qr_scan"}, "fusion_lon": 0.0}, {"lat": 38.8638085, "is_disabled": 0, "type": "electric_scooter", "lon": -76.99252416666667, "bike_id": "202934e490bf6c773c831a919b35318c", "fusion_lat": 0.0, "name": "202934e490bf6c773c831a919b35318c", "is_reserved": 0, "rental_uris": {"android": "https://dc.lft.to/lastmile_qr_scan", "ios": "https://dc.lft.to/lastmile_qr_scan"}, "fusion_lon": 0.0}, {"lat": 38.90413733333333, "is_disabled": 0, "type": "electric_scooter", "lon": -77.0295085, "bike_id": "dcb5ee817a946697eb004bb174d2f15a", "fusion_lat": 0.0, "name": "dcb5ee817a946697eb004bb174d2f15a", "is_reserved": 0, "rental_uris": {"android": "https://dc.lft.to/lastmile_qr_scan", "ios": "https://dc.lft.to/lastmile_qr_scan"}, "fusion_lon": 0.0}, {"lat": 38.8609055, "is_disabled": 0, "type": "electric_scooter", "lon": -76.98377233333333, "bike_id": "2d7b07faed72c4f3b2f0948b2d45808a", "fusion_lat": 0.0, "name": "2d7b07faed72c4f3b2f0948b2d45808a", "is_reserved": 0, "rental_uris": {"android": "https://dc.lft.to/lastmile_qr_scan", "ios": "https://dc.lft.to/lastmile_qr_scan"}, "fusion_lon": 0.0}, {"lat": 38.912555, "is_disabled": 0, "type": "electric_scooter", "lon": -77.03244433333333, "bike_id": "1321893f458d3ecd44548f5c214e8792", "fusion_lat": 0.0, "name": "1321893f458d3ecd44548f5c214e8792", "is_reserved": 0, "rental_uris": {"android": "https://dc.lft.to/lastmile_qr_scan", "ios": "https://dc.lft.to/lastmile_qr_scan"}, "fusion_lon": 0.0}, {"lat": 38.93133916666667, "is_disabled": 0, "type": "electric_scooter", "lon": -77.02151433333333, "bike_id": "fc661bd7be0907c646513c4a2465e1ce", "fusion_lat": 0.0, "name": "fc661bd7be0907c646513c4a2465e1ce", "is_reserved": 0, "rental_uris": {"android": "https://dc.lft.to/lastmile_qr_scan", "ios": "https://dc.lft.to/lastmile_qr_scan"}, "fusion_lon": 0.0}, {"lat": 38.90646533333334, "is_disabled": 0, "type": "electric_scooter", "lon": -77.00847883333333, "bike_id": "8fbbd3204fe4728d0f051f0598b436ae", "fusion_lat": 0.0, "name": "8fbbd3204fe4728d0f051f0598b436ae", "is_reserved": 0, "rental_uris": {"android": "https://dc.lft.to/lastmile_qr_scan", "ios": "https://dc.lft.to/lastmile_qr_scan"}, "fusion_lon": 0.0}, {"lat": 38.866598833333335, "is_disabled": 0, "type": "electric_scooter", "lon": -76.98900766666667, "bike_id": "1162cc604c418d976bc30e36d0ff256e", "fusion_lat": 0.0, "name": "1162cc604c418d976bc30e36d0ff256e", "is_reserved": 0, "rental_uris": {"android": "https://dc.lft.to/lastmile_qr_scan", "ios": "https://dc.lft.to/lastmile_qr_scan"}, "fusion_lon": 0.0}, {"lat": 38.90678666666667, "is_disabled": 0, "type": "electric_scooter", "lon": -77.062779, "bike_id": "f2924f5f92bb17521fbd8b82075bd82a", "fusion_lat": 0.0, "name": "f2924f5f92bb17521fbd8b82075bd82a", "is_reserved": 0, "rental_uris": {"android": "https://dc.lft.to/lastmile_qr_scan", "ios": "https://dc.lft.to/lastmile_qr_scan"}, "fusion_lon": 0.0}, {"lat": 38.8965455, "is_disabled": 0, "type": "electric_scooter", "lon": -77.04676116666667, "bike_id": "e96be0951a912f9c8b6dd6aeac8897f5", "fusion_lat": 0.0, "name": "e96be0951a912f9c8b6dd6aeac8897f5", "is_reserved": 0, "rental_uris": {"android": "https://dc.lft.to/lastmile_qr_scan", "ios": "https://dc.lft.to/lastmile_qr_scan"}, "fusion_lon": 0.0}, {"lat": 38.938477666666664, "is_disabled": 0, "type": "electric_scooter", "lon": -77.0339895, "bike_id": "cb5671de09e63bad1cc5d7e30fc7bca3", "fusion_lat": 0.0, "name": "cb5671de09e63bad1cc5d7e30fc7bca3", "is_reserved": 0, "rental_uris": {"android": "https://dc.lft.to/lastmile_qr_scan", "ios": "https://dc.lft.to/lastmile_qr_scan"}, "fusion_lon": 0.0}, {"lat": 38.91715383333333, "is_disabled": 0, "type": "electric_scooter", "lon": -77.03040616666667, "bike_id": "7429552ca7e8d5d1804bca9c6b3bf513", "fusion_lat": 0.0, "name": "7429552ca7e8d5d1804bca9c6b3bf513", "is_reserved": 0, "rental_uris": {"android": "https://dc.lft.to/lastmile_qr_scan", "ios": "https://dc.lft.to/lastmile_qr_scan"}, "fusion_lon": 0.0}, {"lat": 38.91703433333333, "is_disabled": 0, "type": "electric_scooter", "lon": -77.02901166666666, "bike_id": "eae62d9a25faa0e17ece3939f3b71cd1", "fusion_lat": 0.0, "name": "eae62d9a25faa0e17ece3939f3b71cd1", "is_reserved": 0, "rental_uris": {"android": "https://dc.lft.to/lastmile_qr_scan", "ios": "https://dc.lft.to/lastmile_qr_scan"}, "fusion_lon": 0.0}, {"lat": 38.9098845, "is_disabled": 0, "type": "electric_scooter", "lon": -76.9974345, "bike_id": "8b2c92fb422b8f11c301120cfcbe9cd3", "fusion_lat": 0.0, "name": "8b2c92fb422b8f11c301120cfcbe9cd3", "is_reserved": 0, "rental_uris": {"android": "https://dc.lft.to/lastmile_qr_scan", "ios": "https://dc.lft.to/lastmile_qr_scan"}, "fusion_lon": 0.0}, {"lat": 38.9283715, "is_disabled": 0, "type": "electric_scooter", "lon": -77.0542455, "bike_id": "4e6c75bdd205361de7d497e097ac356c", "fusion_lat": 0.0, "name": "4e6c75bdd205361de7d497e097ac356c", "is_reserved": 0, "rental_uris": {"android": "https://dc.lft.to/lastmile_qr_scan", "ios": "https://dc.lft.to/lastmile_qr_scan"}, "fusion_lon": 0.0}, {"lat": 38.8812915, "is_disabled": 0, "type": "electric_scooter", "lon": -76.9872275, "bike_id": "76a47cd653654c4284f58dcdad549cc0", "fusion_lat": 0.0, "name": "76a47cd653654c4284f58dcdad549cc0", "is_reserved": 0, "rental_uris": {"android": "https://dc.lft.to/lastmile_qr_scan", "ios": "https://dc.lft.to/lastmile_qr_scan"}, "fusion_lon": 0.0}, {"lat": 38.919329, "is_disabled": 0, "type": "electric_scooter", "lon": -77.04174516666667, "bike_id": "ad29a00c90babf04137da462cc0eb402", "fusion_lat": 0.0, "name": "ad29a00c90babf04137da462cc0eb402", "is_reserved": 0, "rental_uris": {"android": "https://dc.lft.to/lastmile_qr_scan", "ios": "https://dc.lft.to/lastmile_qr_scan"}, "fusion_lon": 0.0}, {"lat": 38.91591116666667, "is_disabled": 0, "type": "electric_scooter", "lon": -77.0321395, "bike_id": "0a0f6d6c462037e39501cf6fa49dccf5", "fusion_lat": 0.0, "name": "0a0f6d6c462037e39501cf6fa49dccf5", "is_reserved": 0, "rental_uris": {"android": "https://dc.lft.to/lastmile_qr_scan", "ios": "https://dc.lft.to/lastmile_qr_scan"}, "fusion_lon": 0.0}, {"lat": 38.918602, "is_disabled": 0, "type": "electric_scooter", "lon": -77.04592416666667, "bike_id": "70a53cec1b0e5f495b8e5219970b8570", "fusion_lat": 0.0, "name": "70a53cec1b0e5f495b8e5219970b8570", "is_reserved": 0, "rental_uris": {"android": "https://dc.lft.to/lastmile_qr_scan", "ios": "https://dc.lft.to/lastmile_qr_scan"}, "fusion_lon": 0.0}, {"lat": 38.91952883333333, "is_disabled": 0, "type": "electric_scooter", "lon": -76.98080116666667, "bike_id": "22844dda01ec871d5cacaf1dfdc951c3", "fusion_lat": 0.0, "name": "22844dda01ec871d5cacaf1dfdc951c3", "is_reserved": 0, "rental_uris": {"android": "https://dc.lft.to/lastmile_qr_scan", "ios": "https://dc.lft.to/lastmile_qr_scan"}, "fusion_lon": 0.0}, {"lat": 38.90325166666667, "is_disabled": 0, "type": "electric_scooter", "lon": -77.03779066666667, "bike_id": "3f524478f531f647a5db0fcf76a3ea0d", "fusion_lat": 0.0, "name": "3f524478f531f647a5db0fcf76a3ea0d", "is_reserved": 0, "rental_uris": {"android": "https://dc.lft.to/lastmile_qr_scan", "ios": "https://dc.lft.to/lastmile_qr_scan"}, "fusion_lon": 0.0}, {"lat": 38.972264333333335, "is_disabled": 0, "type": "electric_bike", "lon": -76.99348966666666, "bike_id": "a67d4ebd198352193289a8c677771f0a", "fusion_lat": 0.0, "name": "a67d4ebd198352193289a8c677771f0a", "is_reserved": 0, "rental_uris": {"android": "https://dc.lft.to/lastmile_qr_scan", "ios": "https://dc.lft.to/lastmile_qr_scan"}, "fusion_lon": 0.0}, {"lat": 38.86055066666667, "is_disabled": 0, "type": "electric_scooter", "lon": -77.05760883333333, "bike_id": "6da62099c400b090a8e55f04f2cb31e8", "fusion_lat": 0.0, "name": "6da62099c400b090a8e55f04f2cb31e8", "is_reserved": 0, "rental_uris": {"android": "https://dc.lft.to/lastmile_qr_scan", "ios": "https://dc.lft.to/lastmile_qr_scan"}, "fusion_lon": 0.0}, {"lat": 38.892366, "is_disabled": 0, "type": "electric_scooter", "lon": -77.03218383333333, "bike_id": "ef457362933bb47d9430a2ed249b0dbb", "fusion_lat": 0.0, "name": "ef457362933bb47d9430a2ed249b0dbb", "is_reserved": 0, "rental_uris": {"android": "https://dc.lft.to/lastmile_qr_scan", "ios": "https://dc.lft.to/lastmile_qr_scan"}, "fusion_lon": 0.0}, {"lat": 38.92242666666667, "is_disabled": 0, "type": "electric_scooter", "lon": -77.04572983333334, "bike_id": "29cea434ccd4b88c5333d471934b8e95", "fusion_lat": 0.0, "name": "29cea434ccd4b88c5333d471934b8e95", "is_reserved": 0, "rental_uris": {"android": "https://dc.lft.to/lastmile_qr_scan", "ios": "https://dc.lft.to/lastmile_qr_scan"}, "fusion_lon": 0.0}, {"lat": 38.936948666666666, "is_disabled": 0, "type": "electric_bike", "lon": -77.0298435, "bike_id": "9d3a669aed6e3ba18a5a83f311cd5cf8", "fusion_lat": 0.0, "name": "9d3a669aed6e3ba18a5a83f311cd5cf8", "is_reserved": 0, "rental_uris": {"android": "https://dc.lft.to/lastmile_qr_scan", "ios": "https://dc.lft.to/lastmile_qr_scan"}, "fusion_lon": 0.0}, {"lat": 38.95095333333333, "is_disabled": 0, "type": "electric_scooter", "lon": -77.023395, "bike_id": "6f5711fd7255cdbbc22ee883c55afd4b", "fusion_lat": 0.0, "name": "6f5711fd7255cdbbc22ee883c55afd4b", "is_reserved": 0, "rental_uris": {"android": "https://dc.lft.to/lastmile_qr_scan", "ios": "https://dc.lft.to/lastmile_qr_scan"}, "fusion_lon": 0.0}, {"lat": 38.91011866666667, "is_disabled": 0, "type": "electric_scooter", "lon": -77.0889425, "bike_id": "9ee35dea1f53b121a4257a48395c7c06", "fusion_lat": 0.0, "name": "9ee35dea1f53b121a4257a48395c7c06", "is_reserved": 0, "rental_uris": {"android": "https://dc.lft.to/lastmile_qr_scan", "ios": "https://dc.lft.to/lastmile_qr_scan"}, "fusion_lon": 0.0}, {"lat": 38.917845166666666, "is_disabled": 0, "type": "electric_bike", "lon": -76.9719085, "bike_id": "6fc13baa4bb4b61a70ff20c8c5d623a4", "fusion_lat": 0.0, "name": "6fc13baa4bb4b61a70ff20c8c5d623a4", "is_reserved": 0, "rental_uris": {"android": "https://dc.lft.to/lastmile_qr_scan", "ios": "https://dc.lft.to/lastmile_qr_scan"}, "fusion_lon": 0.0}, {"lat": 38.921540666666665, "is_disabled": 0, "type": "electric_scooter", "lon": -77.033898, "bike_id": "0712ec97aa8322d90ccced2f545ccfe9", "fusion_lat": 0.0, "name": "0712ec97aa8322d90ccced2f545ccfe9", "is_reserved": 0, "rental_uris": {"android": "https://dc.lft.to/lastmile_qr_scan", "ios": "https://dc.lft.to/lastmile_qr_scan"}, "fusion_lon": 0.0}, {"lat": 38.90096966666667, "is_disabled": 0, "type": "electric_scooter", "lon": -77.00332133333333, "bike_id": "da73cc6947884c7e509465bb70a9896e", "fusion_lat": 0.0, "name": "da73cc6947884c7e509465bb70a9896e", "is_reserved": 0, "rental_uris": {"android": "https://dc.lft.to/lastmile_qr_scan", "ios": "https://dc.lft.to/lastmile_qr_scan"}, "fusion_lon": 0.0}, {"lat": 38.87233366666667, "is_disabled": 0, "type": "electric_bike", "lon": -77.01182133333333, "bike_id": "d619d7ed43e4409e72a843c46137b59d", "fusion_lat": 0.0, "name": "d619d7ed43e4409e72a843c46137b59d", "is_reserved": 0, "rental_uris": {"android": "https://dc.lft.to/lastmile_qr_scan", "ios": "https://dc.lft.to/lastmile_qr_scan"}, "fusion_lon": 0.0}, {"lat": 38.86166383333333, "is_disabled": 0, "type": "electric_bike", "lon": -77.13150166666667, "bike_id": "6357147198d8ac803592b8e6f119d283", "fusion_lat": 0.0, "name": "6357147198d8ac803592b8e6f119d283", "is_reserved": 0, "rental_uris": {"android": "https://dc.lft.to/lastmile_qr_scan", "ios": "https://dc.lft.to/lastmile_qr_scan"}, "fusion_lon": 0.0}, {"lat": 38.907193, "is_disabled": 0, "type": "electric_scooter", "lon": -76.99819383333333, "bike_id": "556b52853207bba7ca7b008aff712f8e", "fusion_lat": 0.0, "name": "556b52853207bba7ca7b008aff712f8e", "is_reserved": 0, "rental_uris": {"android": "https://dc.lft.to/lastmile_qr_scan", "ios": "https://dc.lft.to/lastmile_qr_scan"}, "fusion_lon": 0.0}, {"lat": 38.9386455, "is_disabled": 0, "type": "electric_scooter", "lon": -77.026569, "bike_id": "9a81afdd223da81f8eefad38b0066086", "fusion_lat": 0.0, "name": "9a81afdd223da81f8eefad38b0066086", "is_reserved": 0, "rental_uris": {"android": "https://dc.lft.to/lastmile_qr_scan", "ios": "https://dc.lft.to/lastmile_qr_scan"}, "fusion_lon": 0.0}, {"lat": 38.896232833333336, "is_disabled": 0, "type": "electric_scooter", "lon": -76.99853233333333, "bike_id": "a63613983c19efcde137391d82e87db9", "fusion_lat": 0.0, "name": "a63613983c19efcde137391d82e87db9", "is_reserved": 0, "rental_uris": {"android": "https://dc.lft.to/lastmile_qr_scan", "ios": "https://dc.lft.to/lastmile_qr_scan"}, "fusion_lon": 0.0}, {"lat": 39.03411533333333, "is_disabled": 0, "type": "electric_bike", "lon": -77.04218083333333, "bike_id": "de4c8241662becacf3a0a17635b2eddd", "fusion_lat": 0.0, "name": "de4c8241662becacf3a0a17635b2eddd", "is_reserved": 0, "rental_uris": {"android": "https://dc.lft.to/lastmile_qr_scan", "ios": "https://dc.lft.to/lastmile_qr_scan"}, "fusion_lon": 0.0}, {"lat": 38.87628433333333, "is_disabled": 0, "type": "electric_scooter", "lon": -76.96527816666666, "bike_id": "92e5c03e8b6f2b9cd3f997271164406b", "fusion_lat": 0.0, "name": "92e5c03e8b6f2b9cd3f997271164406b", "is_reserved": 0, "rental_uris": {"android": "https://dc.lft.to/lastmile_qr_scan", "ios": "https://dc.lft.to/lastmile_qr_scan"}, "fusion_lon": 0.0}, {"lat": 38.92268383333333, "is_disabled": 0, "type": "electric_scooter", "lon": -77.03644766666666, "bike_id": "ff08521b66483d2cd40d45f2a854fc02", "fusion_lat": 0.0, "name": "ff08521b66483d2cd40d45f2a854fc02", "is_reserved": 0, "rental_uris": {"android": "https://dc.lft.to/lastmile_qr_scan", "ios": "https://dc.lft.to/lastmile_qr_scan"}, "fusion_lon": 0.0}, {"lat": 38.91695583333333, "is_disabled": 0, "type": "electric_scooter", "lon": -77.03315783333333, "bike_id": "9a1356dcf0c1aaf713a247b55d11eb20", "fusion_lat": 0.0, "name": "9a1356dcf0c1aaf713a247b55d11eb20", "is_reserved": 0, "rental_uris": {"android": "https://dc.lft.to/lastmile_qr_scan", "ios": "https://dc.lft.to/lastmile_qr_scan"}, "fusion_lon": 0.0}, {"lat": 38.90769433333333, "is_disabled": 0, "type": "electric_scooter", "lon": -77.00397783333334, "bike_id": "f5251e5d7a0613c8e46b1debe93a3a5e", "fusion_lat": 0.0, "name": "f5251e5d7a0613c8e46b1debe93a3a5e", "is_reserved": 0, "rental_uris": {"android": "https://dc.lft.to/lastmile_qr_scan", "ios": "https://dc.lft.to/lastmile_qr_scan"}, "fusion_lon": 0.0}, {"lat": 38.8988085, "is_disabled": 0, "type": "electric_scooter", "lon": -77.03319033333334, "bike_id": "08ecc8d4c7ea7028b3a4106f7be72b08", "fusion_lat": 0.0, "name": "08ecc8d4c7ea7028b3a4106f7be72b08", "is_reserved": 0, "rental_uris": {"android": "https://dc.lft.to/lastmile_qr_scan", "ios": "https://dc.lft.to/lastmile_qr_scan"}, "fusion_lon": 0.0}, {"lat": 38.893289833333334, "is_disabled": 0, "type": "electric_scooter", "lon": -76.92990483333334, "bike_id": "4ab3af51b1031a2637bbfec48461ef9b", "fusion_lat": 0.0, "name": "4ab3af51b1031a2637bbfec48461ef9b", "is_reserved": 0, "rental_uris": {"android": "https://dc.lft.to/lastmile_qr_scan", "ios": "https://dc.lft.to/lastmile_qr_scan"}, "fusion_lon": 0.0}, {"lat": 38.897297, "is_disabled": 0, "type": "electric_scooter", "lon": -77.02646066666667, "bike_id": "065a731d40c61114b54891947047c464", "fusion_lat": 0.0, "name": "065a731d40c61114b54891947047c464", "is_reserved": 0, "rental_uris": {"android": "https://dc.lft.to/lastmile_qr_scan", "ios": "https://dc.lft.to/lastmile_qr_scan"}, "fusion_lon": 0.0}, {"lat": 38.91707016666667, "is_disabled": 0, "type": "electric_scooter", "lon": -77.03496816666667, "bike_id": "44e60dd050c7cc77e049e9b6b57c2767", "fusion_lat": 0.0, "name": "44e60dd050c7cc77e049e9b6b57c2767", "is_reserved": 0, "rental_uris": {"android": "https://dc.lft.to/lastmile_qr_scan", "ios": "https://dc.lft.to/lastmile_qr_scan"}, "fusion_lon": 0.0}, {"lat": 38.89834966666667, "is_disabled": 0, "type": "electric_scooter", "lon": -77.0434595, "bike_id": "855fdb548713931c6de68d5e273d2e9b", "fusion_lat": 0.0, "name": "855fdb548713931c6de68d5e273d2e9b", "is_reserved": 0, "rental_uris": {"android": "https://dc.lft.to/lastmile_qr_scan", "ios": "https://dc.lft.to/lastmile_qr_scan"}, "fusion_lon": 0.0}, {"lat": 38.9111355, "is_disabled": 0, "type": "electric_scooter", "lon": -77.04502583333333, "bike_id": "976b6b09648464f616e0c33673a28552", "fusion_lat": 0.0, "name": "976b6b09648464f616e0c33673a28552", "is_reserved": 0, "rental_uris": {"android": "https://dc.lft.to/lastmile_qr_scan", "ios": "https://dc.lft.to/lastmile_qr_scan"}, "fusion_lon": 0.0}, {"lat": 38.837241666666664, "is_disabled": 0, "type": "electric_bike", "lon": -76.99767633333333, "bike_id": "e382212933f9f98c5ba442fa6dd3bc66", "fusion_lat": 0.0, "name": "e382212933f9f98c5ba442fa6dd3bc66", "is_reserved": 0, "rental_uris": {"android": "https://dc.lft.to/lastmile_qr_scan", "ios": "https://dc.lft.to/lastmile_qr_scan"}, "fusion_lon": 0.0}, {"lat": 38.85512666666666, "is_disabled": 0, "type": "electric_bike", "lon": -76.98428833333334, "bike_id": "104de079002336be9e535bcfcc6f8d33", "fusion_lat": 0.0, "name": "104de079002336be9e535bcfcc6f8d33", "is_reserved": 0, "rental_uris": {"android": "https://dc.lft.to/lastmile_qr_scan", "ios": "https://dc.lft.to/lastmile_qr_scan"}, "fusion_lon": 0.0}, {"lat": 38.919986333333334, "is_disabled": 0, "type": "electric_scooter", "lon": -76.99297816666666, "bike_id": "6cbd1cc586815e03a137a34cfc462222", "fusion_lat": 0.0, "name": "6cbd1cc586815e03a137a34cfc462222", "is_reserved": 0, "rental_uris": {"android": "https://dc.lft.to/lastmile_qr_scan", "ios": "https://dc.lft.to/lastmile_qr_scan"}, "fusion_lon": 0.0}, {"lat": 38.8568495, "is_disabled": 0, "type": "electric_scooter", "lon": -76.98172016666666, "bike_id": "3b5ce574f12cec6b14605381bdeabebc", "fusion_lat": 0.0, "name": "3b5ce574f12cec6b14605381bdeabebc", "is_reserved": 0, "rental_uris": {"android": "https://dc.lft.to/lastmile_qr_scan", "ios": "https://dc.lft.to/lastmile_qr_scan"}, "fusion_lon": 0.0}, {"lat": 38.9822555, "is_disabled": 0, "type": "electric_bike", "lon": -77.02606383333334, "bike_id": "9ccdf6768ff4fdae92c3345032b94a36", "fusion_lat": 0.0, "name": "9ccdf6768ff4fdae92c3345032b94a36", "is_reserved": 0, "rental_uris": {"android": "https://dc.lft.to/lastmile_qr_scan", "ios": "https://dc.lft.to/lastmile_qr_scan"}, "fusion_lon": 0.0}, {"lat": 38.9341995, "is_disabled": 0, "type": "electric_scooter", "lon": -77.04145833333334, "bike_id": "8caeef41cd672c575afae5c26ba9016e", "fusion_lat": 0.0, "name": "8caeef41cd672c575afae5c26ba9016e", "is_reserved": 0, "rental_uris": {"android": "https://dc.lft.to/lastmile_qr_scan", "ios": "https://dc.lft.to/lastmile_qr_scan"}, "fusion_lon": 0.0}, {"lat": 38.899548833333334, "is_disabled": 0, "type": "electric_scooter", "lon": -77.025033, "bike_id": "7290ddb2859f7857218ccbfd853e33c7", "fusion_lat": 0.0, "name": "7290ddb2859f7857218ccbfd853e33c7", "is_reserved": 0, "rental_uris": {"android": "https://dc.lft.to/lastmile_qr_scan", "ios": "https://dc.lft.to/lastmile_qr_scan"}, "fusion_lon": 0.0}, {"lat": 38.90255483333333, "is_disabled": 0, "type": "electric_scooter", "lon": -77.04365816666666, "bike_id": "9ecc8a0c38c8fd4511ec9d948b7a8b0b", "fusion_lat": 0.0, "name": "9ecc8a0c38c8fd4511ec9d948b7a8b0b", "is_reserved": 0, "rental_uris": {"android": "https://dc.lft.to/lastmile_qr_scan", "ios": "https://dc.lft.to/lastmile_qr_scan"}, "fusion_lon": 0.0}, {"lat": 38.889919666666664, "is_disabled": 0, "type": "electric_scooter", "lon": -76.95568783333333, "bike_id": "c5a65a20076f6783b2b7f04ebe8fa44c", "fusion_lat": 0.0, "name": "c5a65a20076f6783b2b7f04ebe8fa44c", "is_reserved": 0, "rental_uris": {"android": "https://dc.lft.to/lastmile_qr_scan", "ios": "https://dc.lft.to/lastmile_qr_scan"}, "fusion_lon": 0.0}, {"lat": 38.903610666666665, "is_disabled": 0, "type": "electric_scooter", "lon": -77.03839616666667, "bike_id": "d2fdcaa4682f3a79cd2fec648b36ad14", "fusion_lat": 0.0, "name": "d2fdcaa4682f3a79cd2fec648b36ad14", "is_reserved": 0, "rental_uris": {"android": "https://dc.lft.to/lastmile_qr_scan", "ios": "https://dc.lft.to/lastmile_qr_scan"}, "fusion_lon": 0.0}, {"lat": 38.9038875, "is_disabled": 0, "type": "electric_scooter", "lon": -77.02161766666667, "bike_id": "5ab445c80bb287b418200fc338ccf998", "fusion_lat": 0.0, "name": "5ab445c80bb287b418200fc338ccf998", "is_reserved": 0, "rental_uris": {"android": "https://dc.lft.to/lastmile_qr_scan", "ios": "https://dc.lft.to/lastmile_qr_scan"}, "fusion_lon": 0.0}, {"lat": 38.9296515, "is_disabled": 0, "type": "electric_scooter", "lon": -77.0317795, "bike_id": "ac21f6ffa594427b3132479995a2f98a", "fusion_lat": 0.0, "name": "ac21f6ffa594427b3132479995a2f98a", "is_reserved": 0, "rental_uris": {"android": "https://dc.lft.to/lastmile_qr_scan", "ios": "https://dc.lft.to/lastmile_qr_scan"}, "fusion_lon": 0.0}, {"lat": 38.93190666666667, "is_disabled": 0, "type": "electric_scooter", "lon": -77.0296835, "bike_id": "e2ccf9e2f91f296e50d269bceb998706", "fusion_lat": 0.0, "name": "e2ccf9e2f91f296e50d269bceb998706", "is_reserved": 0, "rental_uris": {"android": "https://dc.lft.to/lastmile_qr_scan", "ios": "https://dc.lft.to/lastmile_qr_scan"}, "fusion_lon": 0.0}, {"lat": 38.95651183333333, "is_disabled": 0, "type": "electric_scooter", "lon": -77.01284383333333, "bike_id": "faece91cd5ad3182a9e46f1c59e926d3", "fusion_lat": 0.0, "name": "faece91cd5ad3182a9e46f1c59e926d3", "is_reserved": 0, "rental_uris": {"android": "https://dc.lft.to/lastmile_qr_scan", "ios": "https://dc.lft.to/lastmile_qr_scan"}, "fusion_lon": 0.0}, {"lat": 38.913725, "is_disabled": 0, "type": "electric_scooter", "lon": -77.01625833333334, "bike_id": "10ce307af98364b8551e2c09cd35686d", "fusion_lat": 0.0, "name": "10ce307af98364b8551e2c09cd35686d", "is_reserved": 0, "rental_uris": {"android": "https://dc.lft.to/lastmile_qr_scan", "ios": "https://dc.lft.to/lastmile_qr_scan"}, "fusion_lon": 0.0}, {"lat": 38.90018116666667, "is_disabled": 0, "type": "electric_scooter", "lon": -77.00708833333333, "bike_id": "b1e2c03cd03a76092295f9ddaef77818", "fusion_lat": 0.0, "name": "b1e2c03cd03a76092295f9ddaef77818", "is_reserved": 0, "rental_uris": {"android": "https://dc.lft.to/lastmile_qr_scan", "ios": "https://dc.lft.to/lastmile_qr_scan"}, "fusion_lon": 0.0}, {"lat": 38.82869916666667, "is_disabled": 0, "type": "electric_bike", "lon": -77.11224016666667, "bike_id": "1045a691987a3b04d24def66f2e07d5b", "fusion_lat": 0.0, "name": "1045a691987a3b04d24def66f2e07d5b", "is_reserved": 0, "rental_uris": {"android": "https://dc.lft.to/lastmile_qr_scan", "ios": "https://dc.lft.to/lastmile_qr_scan"}, "fusion_lon": 0.0}, {"lat": 39.000048666666665, "is_disabled": 0, "type": "electric_bike", "lon": -76.91079566666667, "bike_id": "9dbb1e98bb6b91a369fee99dfd011e53", "fusion_lat": 0.0, "name": "9dbb1e98bb6b91a369fee99dfd011e53", "is_reserved": 0, "rental_uris": {"android": "https://dc.lft.to/lastmile_qr_scan", "ios": "https://dc.lft.to/lastmile_qr_scan"}, "fusion_lon": 0.0}, {"lat": 38.909867, "is_disabled": 0, "type": "electric_scooter", "lon": -76.9973905, "bike_id": "3403f2d5dbabc2558d72e04673673d82", "fusion_lat": 0.0, "name": "3403f2d5dbabc2558d72e04673673d82", "is_reserved": 0, "rental_uris": {"android": "https://dc.lft.to/lastmile_qr_scan", "ios": "https://dc.lft.to/lastmile_qr_scan"}, "fusion_lon": 0.0}, {"lat": 38.8738135, "is_disabled": 0, "type": "electric_bike", "lon": -77.00935933333334, "bike_id": "2fa4d827841591b24d4b646bfff73fd7", "fusion_lat": 0.0, "name": "2fa4d827841591b24d4b646bfff73fd7", "is_reserved": 0, "rental_uris": {"android": "https://dc.lft.to/lastmile_qr_scan", "ios": "https://dc.lft.to/lastmile_qr_scan"}, "fusion_lon": 0.0}, {"lat": 38.9191945, "is_disabled": 0, "type": "electric_scooter", "lon": -77.03132633333334, "bike_id": "b4f6a00d988932a2f6d35e0adc022b40", "fusion_lat": 0.0, "name": "b4f6a00d988932a2f6d35e0adc022b40", "is_reserved": 0, "rental_uris": {"android": "https://dc.lft.to/lastmile_qr_scan", "ios": "https://dc.lft.to/lastmile_qr_scan"}, "fusion_lon": 0.0}, {"lat": 38.90766266666667, "is_disabled": 0, "type": "electric_scooter", "lon": -77.06073733333334, "bike_id": "3462b8cfb0a4880d4e13b97eb369404f", "fusion_lat": 0.0, "name": "3462b8cfb0a4880d4e13b97eb369404f", "is_reserved": 0, "rental_uris": {"android": "https://dc.lft.to/lastmile_qr_scan", "ios": "https://dc.lft.to/lastmile_qr_scan"}, "fusion_lon": 0.0}, {"lat": 38.865188, "is_disabled": 0, "type": "electric_scooter", "lon": -76.99033, "bike_id": "0bb89df4d1a5ec5a79b338c2bba4449c", "fusion_lat": 0.0, "name": "0bb89df4d1a5ec5a79b338c2bba4449c", "is_reserved": 0, "rental_uris": {"android": "https://dc.lft.to/lastmile_qr_scan", "ios": "https://dc.lft.to/lastmile_qr_scan"}, "fusion_lon": 0.0}, {"lat": 38.905003, "is_disabled": 0, "type": "electric_scooter", "lon": -77.05813033333334, "bike_id": "fd22ac85e0dd1573b7c0b4a03344295f", "fusion_lat": 0.0, "name": "fd22ac85e0dd1573b7c0b4a03344295f", "is_reserved": 0, "rental_uris": {"android": "https://dc.lft.to/lastmile_qr_scan", "ios": "https://dc.lft.to/lastmile_qr_scan"}, "fusion_lon": 0.0}, {"lat": 38.90092516666667, "is_disabled": 0, "type": "electric_scooter", "lon": -77.02036666666666, "bike_id": "112067fde3f90289cca24fb34cca23b3", "fusion_lat": 0.0, "name": "112067fde3f90289cca24fb34cca23b3", "is_reserved": 0, "rental_uris": {"android": "https://dc.lft.to/lastmile_qr_scan", "ios": "https://dc.lft.to/lastmile_qr_scan"}, "fusion_lon": 0.0}, {"lat": 38.93356633333333, "is_disabled": 0, "type": "electric_bike", "lon": -77.09967, "bike_id": "f4fb72736da7824b3b3acc3218eb9f2c", "fusion_lat": 0.0, "name": "f4fb72736da7824b3b3acc3218eb9f2c", "is_reserved": 0, "rental_uris": {"android": "https://dc.lft.to/lastmile_qr_scan", "ios": "https://dc.lft.to/lastmile_qr_scan"}, "fusion_lon": 0.0}, {"lat": 38.91910133333333, "is_disabled": 0, "type": "electric_scooter", "lon": -77.04631233333333, "bike_id": "ab25d29f0b5e80f419bf5aa0b675a373", "fusion_lat": 0.0, "name": "ab25d29f0b5e80f419bf5aa0b675a373", "is_reserved": 0, "rental_uris": {"android": "https://dc.lft.to/lastmile_qr_scan", "ios": "https://dc.lft.to/lastmile_qr_scan"}, "fusion_lon": 0.0}, {"lat": 38.8224915, "is_disabled": 0, "type": "electric_scooter", "lon": -76.99989183333334, "bike_id": "bf9a8cc96cfa9a3ff3aaf4873a7eb3e9", "fusion_lat": 0.0, "name": "bf9a8cc96cfa9a3ff3aaf4873a7eb3e9", "is_reserved": 0, "rental_uris": {"android": "https://dc.lft.to/lastmile_qr_scan", "ios": "https://dc.lft.to/lastmile_qr_scan"}, "fusion_lon": 0.0}, {"lat": 38.90955866666667, "is_disabled": 0, "type": "electric_scooter", "lon": -77.03730916666666, "bike_id": "1c48a1a72b02c644b99e4ef469c5d9ad", "fusion_lat": 0.0, "name": "1c48a1a72b02c644b99e4ef469c5d9ad", "is_reserved": 0, "rental_uris": {"android": "https://dc.lft.to/lastmile_qr_scan", "ios": "https://dc.lft.to/lastmile_qr_scan"}, "fusion_lon": 0.0}, {"lat": 38.882598333333334, "is_disabled": 0, "type": "electric_scooter", "lon": -76.98827033333333, "bike_id": "a26f1938c446cf5bdc841204eb3cd291", "fusion_lat": 0.0, "name": "a26f1938c446cf5bdc841204eb3cd291", "is_reserved": 0, "rental_uris": {"android": "https://dc.lft.to/lastmile_qr_scan", "ios": "https://dc.lft.to/lastmile_qr_scan"}, "fusion_lon": 0.0}, {"lat": 38.917012, "is_disabled": 0, "type": "electric_scooter", "lon": -77.04028516666666, "bike_id": "3b37fc63639a985f771c246fac61fa93", "fusion_lat": 0.0, "name": "3b37fc63639a985f771c246fac61fa93", "is_reserved": 0, "rental_uris": {"android": "https://dc.lft.to/lastmile_qr_scan", "ios": "https://dc.lft.to/lastmile_qr_scan"}, "fusion_lon": 0.0}, {"lat": 38.91062016666667, "is_disabled": 0, "type": "electric_scooter", "lon": -77.029235, "bike_id": "e6f857f3d734241c42497dc79357582a", "fusion_lat": 0.0, "name": "e6f857f3d734241c42497dc79357582a", "is_reserved": 0, "rental_uris": {"android": "https://dc.lft.to/lastmile_qr_scan", "ios": "https://dc.lft.to/lastmile_qr_scan"}, "fusion_lon": 0.0}, {"lat": 38.942431166666665, "is_disabled": 0, "type": "electric_scooter", "lon": -77.035916, "bike_id": "33bf76655f75347574f401d4ea104479", "fusion_lat": 0.0, "name": "33bf76655f75347574f401d4ea104479", "is_reserved": 0, "rental_uris": {"android": "https://dc.lft.to/lastmile_qr_scan", "ios": "https://dc.lft.to/lastmile_qr_scan"}, "fusion_lon": 0.0}, {"lat": 38.92977283333333, "is_disabled": 0, "type": "electric_scooter", "lon": -77.0383595, "bike_id": "86b5c433770669a3181b2f0c3590a933", "fusion_lat": 0.0, "name": "86b5c433770669a3181b2f0c3590a933", "is_reserved": 0, "rental_uris": {"android": "https://dc.lft.to/lastmile_qr_scan", "ios": "https://dc.lft.to/lastmile_qr_scan"}, "fusion_lon": 0.0}, {"lat": 38.942267, "is_disabled": 0, "type": "electric_scooter", "lon": -77.025182, "bike_id": "8e6ffd436784b9b085d1c2470a6a4084", "fusion_lat": 0.0, "name": "8e6ffd436784b9b085d1c2470a6a4084", "is_reserved": 0, "rental_uris": {"android": "https://dc.lft.to/lastmile_qr_scan", "ios": "https://dc.lft.to/lastmile_qr_scan"}, "fusion_lon": 0.0}, {"lat": 38.89497733333333, "is_disabled": 0, "type": "electric_scooter", "lon": -77.00215316666667, "bike_id": "92d5c0e8fe10b826bf092c853d283399", "fusion_lat": 0.0, "name": "92d5c0e8fe10b826bf092c853d283399", "is_reserved": 0, "rental_uris": {"android": "https://dc.lft.to/lastmile_qr_scan", "ios": "https://dc.lft.to/lastmile_qr_scan"}, "fusion_lon": 0.0}, {"lat": 38.903603, "is_disabled": 0, "type": "electric_scooter", "lon": -77.041231, "bike_id": "0e2fc96f15667c99d2405adbbed6aedd", "fusion_lat": 0.0, "name": "0e2fc96f15667c99d2405adbbed6aedd", "is_reserved": 0, "rental_uris": {"android": "https://dc.lft.to/lastmile_qr_scan", "ios": "https://dc.lft.to/lastmile_qr_scan"}, "fusion_lon": 0.0}, {"lat": 38.905195, "is_disabled": 0, "type": "electric_scooter", "lon": -77.04479416666666, "bike_id": "7c0b689f566fb0f2e265ba72a25a0898", "fusion_lat": 0.0, "name": "7c0b689f566fb0f2e265ba72a25a0898", "is_reserved": 0, "rental_uris": {"android": "https://dc.lft.to/lastmile_qr_scan", "ios": "https://dc.lft.to/lastmile_qr_scan"}, "fusion_lon": 0.0}, {"lat": 38.935952666666665, "is_disabled": 0, "type": "electric_scooter", "lon": -77.05637666666667, "bike_id": "45061bd2a7ad7b7e9e689cd91d36c20c", "fusion_lat": 0.0, "name": "45061bd2a7ad7b7e9e689cd91d36c20c", "is_reserved": 0, "rental_uris": {"android": "https://dc.lft.to/lastmile_qr_scan", "ios": "https://dc.lft.to/lastmile_qr_scan"}, "fusion_lon": 0.0}, {"lat": 38.913952, "is_disabled": 0, "type": "electric_scooter", "lon": -77.03188916666667, "bike_id": "0b148ec56406130d190950578c351094", "fusion_lat": 0.0, "name": "0b148ec56406130d190950578c351094", "is_reserved": 0, "rental_uris": {"android": "https://dc.lft.to/lastmile_qr_scan", "ios": "https://dc.lft.to/lastmile_qr_scan"}, "fusion_lon": 0.0}, {"lat": 38.90420816666666, "is_disabled": 0, "type": "electric_scooter", "lon": -77.02400133333333, "bike_id": "58c04d6e8ae35c9ddd01378bc0fa3f4d", "fusion_lat": 0.0, "name": "58c04d6e8ae35c9ddd01378bc0fa3f4d", "is_reserved": 0, "rental_uris": {"android": "https://dc.lft.to/lastmile_qr_scan", "ios": "https://dc.lft.to/lastmile_qr_scan"}, "fusion_lon": 0.0}, {"lat": 38.91988, "is_disabled": 0, "type": "electric_scooter", "lon": -77.02159316666666, "bike_id": "c0b418d9a8aa6d8f16e6be7c284e0a24", "fusion_lat": 0.0, "name": "c0b418d9a8aa6d8f16e6be7c284e0a24", "is_reserved": 0, "rental_uris": {"android": "https://dc.lft.to/lastmile_qr_scan", "ios": "https://dc.lft.to/lastmile_qr_scan"}, "fusion_lon": 0.0}, {"lat": 38.92247233333333, "is_disabled": 0, "type": "electric_scooter", "lon": -77.02711816666667, "bike_id": "7cee90259bb370ba1f9def39de728dd7", "fusion_lat": 0.0, "name": "7cee90259bb370ba1f9def39de728dd7", "is_reserved": 0, "rental_uris": {"android": "https://dc.lft.to/lastmile_qr_scan", "ios": "https://dc.lft.to/lastmile_qr_scan"}, "fusion_lon": 0.0}, {"lat": 38.930812333333336, "is_disabled": 0, "type": "electric_scooter", "lon": -77.02798333333334, "bike_id": "305d1481380fe1a68efac023a756f0f2", "fusion_lat": 0.0, "name": "305d1481380fe1a68efac023a756f0f2", "is_reserved": 0, "rental_uris": {"android": "https://dc.lft.to/lastmile_qr_scan", "ios": "https://dc.lft.to/lastmile_qr_scan"}, "fusion_lon": 0.0}, {"lat": 38.892835, "is_disabled": 0, "type": "electric_scooter", "lon": -76.958524, "bike_id": "999dc19f500d2e7b42143e8578baea6f", "fusion_lat": 0.0, "name": "999dc19f500d2e7b42143e8578baea6f", "is_reserved": 0, "rental_uris": {"android": "https://dc.lft.to/lastmile_qr_scan", "ios": "https://dc.lft.to/lastmile_qr_scan"}, "fusion_lon": 0.0}, {"lat": 38.90720066666667, "is_disabled": 0, "type": "electric_scooter", "lon": -77.025044, "bike_id": "0dcb2e50a93d4450251cc4fc8c48cbbb", "fusion_lat": 0.0, "name": "0dcb2e50a93d4450251cc4fc8c48cbbb", "is_reserved": 0, "rental_uris": {"android": "https://dc.lft.to/lastmile_qr_scan", "ios": "https://dc.lft.to/lastmile_qr_scan"}, "fusion_lon": 0.0}, {"lat": 38.89547016666667, "is_disabled": 0, "type": "electric_scooter", "lon": -77.050115, "bike_id": "8058f2ec68e8b3291763c3e69640083b", "fusion_lat": 0.0, "name": "8058f2ec68e8b3291763c3e69640083b", "is_reserved": 0, "rental_uris": {"android": "https://dc.lft.to/lastmile_qr_scan", "ios": "https://dc.lft.to/lastmile_qr_scan"}, "fusion_lon": 0.0}, {"lat": 38.900298166666666, "is_disabled": 0, "type": "electric_scooter", "lon": -76.99605516666666, "bike_id": "d7980e819c5d9a074d0fdb9db8295f42", "fusion_lat": 0.0, "name": "d7980e819c5d9a074d0fdb9db8295f42", "is_reserved": 0, "rental_uris": {"android": "https://dc.lft.to/lastmile_qr_scan", "ios": "https://dc.lft.to/lastmile_qr_scan"}, "fusion_lon": 0.0}, {"lat": 38.909271, "is_disabled": 0, "type": "electric_scooter", "lon": -77.061744, "bike_id": "e9eca8aa774f232872ce5a2c730ea41a", "fusion_lat": 0.0, "name": "e9eca8aa774f232872ce5a2c730ea41a", "is_reserved": 0, "rental_uris": {"android": "https://dc.lft.to/lastmile_qr_scan", "ios": "https://dc.lft.to/lastmile_qr_scan"}, "fusion_lon": 0.0}, {"lat": 38.9335605, "is_disabled": 0, "type": "electric_scooter", "lon": -77.07374, "bike_id": "20b44f190cb2e0e67c418e4f4b332ea0", "fusion_lat": 0.0, "name": "20b44f190cb2e0e67c418e4f4b332ea0", "is_reserved": 0, "rental_uris": {"android": "https://dc.lft.to/lastmile_qr_scan", "ios": "https://dc.lft.to/lastmile_qr_scan"}, "fusion_lon": 0.0}, {"lat": 38.917005333333336, "is_disabled": 0, "type": "electric_scooter", "lon": -77.0347195, "bike_id": "ba8f08f82b9ccdd124446cdb83628223", "fusion_lat": 0.0, "name": "ba8f08f82b9ccdd124446cdb83628223", "is_reserved": 0, "rental_uris": {"android": "https://dc.lft.to/lastmile_qr_scan", "ios": "https://dc.lft.to/lastmile_qr_scan"}, "fusion_lon": 0.0}, {"lat": 38.9660225, "is_disabled": 0, "type": "electric_bike", "lon": -76.9833995, "bike_id": "b4a622b21921839c5251ad96b64cbd12", "fusion_lat": 0.0, "name": "b4a622b21921839c5251ad96b64cbd12", "is_reserved": 0, "rental_uris": {"android": "https://dc.lft.to/lastmile_qr_scan", "ios": "https://dc.lft.to/lastmile_qr_scan"}, "fusion_lon": 0.0}, {"lat": 38.92319583333333, "is_disabled": 0, "type": "electric_scooter", "lon": -77.02962983333333, "bike_id": "9b0eb9e637868d20cd950107ffa01856", "fusion_lat": 0.0, "name": "9b0eb9e637868d20cd950107ffa01856", "is_reserved": 0, "rental_uris": {"android": "https://dc.lft.to/lastmile_qr_scan", "ios": "https://dc.lft.to/lastmile_qr_scan"}, "fusion_lon": 0.0}, {"lat": 38.920642666666666, "is_disabled": 0, "type": "electric_scooter", "lon": -77.02497383333333, "bike_id": "0c67c23fc0ee838a92624d98973f054e", "fusion_lat": 0.0, "name": "0c67c23fc0ee838a92624d98973f054e", "is_reserved": 0, "rental_uris": {"android": "https://dc.lft.to/lastmile_qr_scan", "ios": "https://dc.lft.to/lastmile_qr_scan"}, "fusion_lon": 0.0}, {"lat": 38.89249133333333, "is_disabled": 0, "type": "electric_scooter", "lon": -77.04896966666666, "bike_id": "0c18bb35ec02e6c877e2ef417447e626", "fusion_lat": 0.0, "name": "0c18bb35ec02e6c877e2ef417447e626", "is_reserved": 0, "rental_uris": {"android": "https://dc.lft.to/lastmile_qr_scan", "ios": "https://dc.lft.to/lastmile_qr_scan"}, "fusion_lon": 0.0}, {"lat": 38.93819633333333, "is_disabled": 0, "type": "electric_scooter", "lon": -77.06042816666667, "bike_id": "170d94448f687e741b2d93d8255b7ee0", "fusion_lat": 0.0, "name": "170d94448f687e741b2d93d8255b7ee0", "is_reserved": 0, "rental_uris": {"android": "https://dc.lft.to/lastmile_qr_scan", "ios": "https://dc.lft.to/lastmile_qr_scan"}, "fusion_lon": 0.0}, {"lat": 38.89836716666667, "is_disabled": 0, "type": "electric_scooter", "lon": -76.931059, "bike_id": "be8a0202343ddaaf7030aae7a40fcf02", "fusion_lat": 0.0, "name": "be8a0202343ddaaf7030aae7a40fcf02", "is_reserved": 0, "rental_uris": {"android": "https://dc.lft.to/lastmile_qr_scan", "ios": "https://dc.lft.to/lastmile_qr_scan"}, "fusion_lon": 0.0}, {"lat": 38.905657, "is_disabled": 0, "type": "electric_scooter", "lon": -77.03304066666666, "bike_id": "95646e8922d3d3cf79bb56266791f3e2", "fusion_lat": 0.0, "name": "95646e8922d3d3cf79bb56266791f3e2", "is_reserved": 0, "rental_uris": {"android": "https://dc.lft.to/lastmile_qr_scan", "ios": "https://dc.lft.to/lastmile_qr_scan"}, "fusion_lon": 0.0}, {"lat": 38.917056, "is_disabled": 0, "type": "electric_scooter", "lon": -77.03871466666666, "bike_id": "c17163439148ba78f9aeaf10a8b26cc1", "fusion_lat": 0.0, "name": "c17163439148ba78f9aeaf10a8b26cc1", "is_reserved": 0, "rental_uris": {"android": "https://dc.lft.to/lastmile_qr_scan", "ios": "https://dc.lft.to/lastmile_qr_scan"}, "fusion_lon": 0.0}, {"lat": 38.892216, "is_disabled": 0, "type": "electric_bike", "lon": -77.10783916666666, "bike_id": "94e028273d8bd5202b353eef1e8cfbd1", "fusion_lat": 0.0, "name": "94e028273d8bd5202b353eef1e8cfbd1", "is_reserved": 0, "rental_uris": {"android": "https://dc.lft.to/lastmile_qr_scan", "ios": "https://dc.lft.to/lastmile_qr_scan"}, "fusion_lon": 0.0}, {"lat": 38.89717366666667, "is_disabled": 0, "type": "electric_scooter", "lon": -77.00797566666667, "bike_id": "fd59963803cffc828b4982192d4b7611", "fusion_lat": 0.0, "name": "fd59963803cffc828b4982192d4b7611", "is_reserved": 0, "rental_uris": {"android": "https://dc.lft.to/lastmile_qr_scan", "ios": "https://dc.lft.to/lastmile_qr_scan"}, "fusion_lon": 0.0}, {"lat": 38.9267705, "is_disabled": 0, "type": "electric_scooter", "lon": -77.00744166666667, "bike_id": "edc5c41b084befc1cd37d8cceb17043d", "fusion_lat": 0.0, "name": "edc5c41b084befc1cd37d8cceb17043d", "is_reserved": 0, "rental_uris": {"android": "https://dc.lft.to/lastmile_qr_scan", "ios": "https://dc.lft.to/lastmile_qr_scan"}, "fusion_lon": 0.0}, {"lat": 38.89497766666667, "is_disabled": 0, "type": "electric_scooter", "lon": -77.002127, "bike_id": "13814b49b75d9b1b42536123a9198a56", "fusion_lat": 0.0, "name": "13814b49b75d9b1b42536123a9198a56", "is_reserved": 0, "rental_uris": {"android": "https://dc.lft.to/lastmile_qr_scan", "ios": "https://dc.lft.to/lastmile_qr_scan"}, "fusion_lon": 0.0}, {"lat": 38.884580166666666, "is_disabled": 0, "type": "electric_scooter", "lon": -77.0154105, "bike_id": "550985cafd6487c83dc8c21fc5f7c2e7", "fusion_lat": 0.0, "name": "550985cafd6487c83dc8c21fc5f7c2e7", "is_reserved": 0, "rental_uris": {"android": "https://dc.lft.to/lastmile_qr_scan", "ios": "https://dc.lft.to/lastmile_qr_scan"}, "fusion_lon": 0.0}, {"lat": 38.900373333333334, "is_disabled": 0, "type": "electric_scooter", "lon": -77.00538333333333, "bike_id": "269a84d057a648d5cee0b2c8ef3caeb3", "fusion_lat": 0.0, "name": "269a84d057a648d5cee0b2c8ef3caeb3", "is_reserved": 0, "rental_uris": {"android": "https://dc.lft.to/lastmile_qr_scan", "ios": "https://dc.lft.to/lastmile_qr_scan"}, "fusion_lon": 0.0}, {"lat": 38.9173145, "is_disabled": 0, "type": "electric_scooter", "lon": -77.0367025, "bike_id": "37507c2cac02be4c3a1a1b8e0d37fa80", "fusion_lat": 0.0, "name": "37507c2cac02be4c3a1a1b8e0d37fa80", "is_reserved": 0, "rental_uris": {"android": "https://dc.lft.to/lastmile_qr_scan", "ios": "https://dc.lft.to/lastmile_qr_scan"}, "fusion_lon": 0.0}, {"lat": 38.908684, "is_disabled": 0, "type": "electric_scooter", "lon": -77.00275183333333, "bike_id": "9820ce913439323ba0e10222940f34bb", "fusion_lat": 0.0, "name": "9820ce913439323ba0e10222940f34bb", "is_reserved": 0, "rental_uris": {"android": "https://dc.lft.to/lastmile_qr_scan", "ios": "https://dc.lft.to/lastmile_qr_scan"}, "fusion_lon": 0.0}, {"lat": 38.957373833333335, "is_disabled": 0, "type": "electric_bike", "lon": -77.02325133333333, "bike_id": "d61695a93f1b4e70b0e0307b3ecaf00f", "fusion_lat": 0.0, "name": "d61695a93f1b4e70b0e0307b3ecaf00f", "is_reserved": 0, "rental_uris": {"android": "https://dc.lft.to/lastmile_qr_scan", "ios": "https://dc.lft.to/lastmile_qr_scan"}, "fusion_lon": 0.0}, {"lat": 38.920202833333335, "is_disabled": 0, "type": "electric_scooter", "lon": -77.03128216666667, "bike_id": "e4c769c7a3d2c7b1afd236bdcffd4779", "fusion_lat": 0.0, "name": "e4c769c7a3d2c7b1afd236bdcffd4779", "is_reserved": 0, "rental_uris": {"android": "https://dc.lft.to/lastmile_qr_scan", "ios": "https://dc.lft.to/lastmile_qr_scan"}, "fusion_lon": 0.0}, {"lat": 38.891430166666666, "is_disabled": 0, "type": "electric_bike", "lon": -77.11307866666667, "bike_id": "9ac8691e9c08c1df5da2560718eb8462", "fusion_lat": 0.0, "name": "9ac8691e9c08c1df5da2560718eb8462", "is_reserved": 0, "rental_uris": {"android": "https://dc.lft.to/lastmile_qr_scan", "ios": "https://dc.lft.to/lastmile_qr_scan"}, "fusion_lon": 0.0}, {"lat": 38.868872333333336, "is_disabled": 0, "type": "electric_scooter", "lon": -76.9831695, "bike_id": "90a002ae8dff43762653630247826b8f", "fusion_lat": 0.0, "name": "90a002ae8dff43762653630247826b8f", "is_reserved": 0, "rental_uris": {"android": "https://dc.lft.to/lastmile_qr_scan", "ios": "https://dc.lft.to/lastmile_qr_scan"}, "fusion_lon": 0.0}, {"lat": 38.88126416666667, "is_disabled": 0, "type": "electric_scooter", "lon": -76.99514716666667, "bike_id": "d3f7f067748241529d4bba78fd34fe1e", "fusion_lat": 0.0, "name": "d3f7f067748241529d4bba78fd34fe1e", "is_reserved": 0, "rental_uris": {"android": "https://dc.lft.to/lastmile_qr_scan", "ios": "https://dc.lft.to/lastmile_qr_scan"}, "fusion_lon": 0.0}, {"lat": 38.899956833333334, "is_disabled": 0, "type": "electric_scooter", "lon": -77.039936, "bike_id": "f754424a856a1ee981f4a437d6330414", "fusion_lat": 0.0, "name": "f754424a856a1ee981f4a437d6330414", "is_reserved": 0, "rental_uris": {"android": "https://dc.lft.to/lastmile_qr_scan", "ios": "https://dc.lft.to/lastmile_qr_scan"}, "fusion_lon": 0.0}, {"lat": 38.92242016666667, "is_disabled": 0, "type": "electric_scooter", "lon": -77.02188533333333, "bike_id": "80882580aa7b1ddeafee394a814262da", "fusion_lat": 0.0, "name": "80882580aa7b1ddeafee394a814262da", "is_reserved": 0, "rental_uris": {"android": "https://dc.lft.to/lastmile_qr_scan", "ios": "https://dc.lft.to/lastmile_qr_scan"}, "fusion_lon": 0.0}, {"lat": 38.88381833333333, "is_disabled": 0, "type": "electric_scooter", "lon": -77.01893633333333, "bike_id": "36ee370aecc7b9c0ddfb457367f9e83f", "fusion_lat": 0.0, "name": "36ee370aecc7b9c0ddfb457367f9e83f", "is_reserved": 0, "rental_uris": {"android": "https://dc.lft.to/lastmile_qr_scan", "ios": "https://dc.lft.to/lastmile_qr_scan"}, "fusion_lon": 0.0}, {"lat": 38.90976466666667, "is_disabled": 0, "type": "electric_scooter", "lon": -77.03363716666667, "bike_id": "4b41c2eaa02f8a729db1ba0a2689629c", "fusion_lat": 0.0, "name": "4b41c2eaa02f8a729db1ba0a2689629c", "is_reserved": 0, "rental_uris": {"android": "https://dc.lft.to/lastmile_qr_scan", "ios": "https://dc.lft.to/lastmile_qr_scan"}, "fusion_lon": 0.0}, {"lat": 38.903669666666666, "is_disabled": 0, "type": "electric_scooter", "lon": -77.02216383333334, "bike_id": "d925b48b284d70eb44af883e67c6bafc", "fusion_lat": 0.0, "name": "d925b48b284d70eb44af883e67c6bafc", "is_reserved": 0, "rental_uris": {"android": "https://dc.lft.to/lastmile_qr_scan", "ios": "https://dc.lft.to/lastmile_qr_scan"}, "fusion_lon": 0.0}, {"lat": 38.9048575, "is_disabled": 0, "type": "electric_scooter", "lon": -76.98724883333334, "bike_id": "8ac3f8e090457cae5ec104cebb7cb2fe", "fusion_lat": 0.0, "name": "8ac3f8e090457cae5ec104cebb7cb2fe", "is_reserved": 0, "rental_uris": {"android": "https://dc.lft.to/lastmile_qr_scan", "ios": "https://dc.lft.to/lastmile_qr_scan"}, "fusion_lon": 0.0}, {"lat": 38.905876, "is_disabled": 0, "type": "electric_scooter", "lon": -77.0405315, "bike_id": "254876e8fdbfb471777a55d088e1401a", "fusion_lat": 0.0, "name": "254876e8fdbfb471777a55d088e1401a", "is_reserved": 0, "rental_uris": {"android": "https://dc.lft.to/lastmile_qr_scan", "ios": "https://dc.lft.to/lastmile_qr_scan"}, "fusion_lon": 0.0}, {"lat": 38.908949166666666, "is_disabled": 0, "type": "electric_scooter", "lon": -77.002531, "bike_id": "e3d4a968fcdc9774de76bcf682885aeb", "fusion_lat": 0.0, "name": "e3d4a968fcdc9774de76bcf682885aeb", "is_reserved": 0, "rental_uris": {"android": "https://dc.lft.to/lastmile_qr_scan", "ios": "https://dc.lft.to/lastmile_qr_scan"}, "fusion_lon": 0.0}, {"lat": 38.907602833333335, "is_disabled": 0, "type": "electric_scooter", "lon": -77.04352066666667, "bike_id": "ba5688d1f263477cbd532d07b0777a07", "fusion_lat": 0.0, "name": "ba5688d1f263477cbd532d07b0777a07", "is_reserved": 0, "rental_uris": {"android": "https://dc.lft.to/lastmile_qr_scan", "ios": "https://dc.lft.to/lastmile_qr_scan"}, "fusion_lon": 0.0}, {"lat": 38.90618716666667, "is_disabled": 0, "type": "electric_scooter", "lon": -76.98989166666667, "bike_id": "f967a11938f07ec4a7abd9f2370aff68", "fusion_lat": 0.0, "name": "f967a11938f07ec4a7abd9f2370aff68", "is_reserved": 0, "rental_uris": {"android": "https://dc.lft.to/lastmile_qr_scan", "ios": "https://dc.lft.to/lastmile_qr_scan"}, "fusion_lon": 0.0}, {"lat": 38.91908216666667, "is_disabled": 0, "type": "electric_scooter", "lon": -77.04128883333334, "bike_id": "63e947efa372729fbb3dd578e9b06aa8", "fusion_lat": 0.0, "name": "63e947efa372729fbb3dd578e9b06aa8", "is_reserved": 0, "rental_uris": {"android": "https://dc.lft.to/lastmile_qr_scan", "ios": "https://dc.lft.to/lastmile_qr_scan"}, "fusion_lon": 0.0}, {"lat": 38.919651, "is_disabled": 0, "type": "electric_scooter", "lon": -77.02509183333333, "bike_id": "cbe9415eefe5e467285506f8f4caeb5d", "fusion_lat": 0.0, "name": "cbe9415eefe5e467285506f8f4caeb5d", "is_reserved": 0, "rental_uris": {"android": "https://dc.lft.to/lastmile_qr_scan", "ios": "https://dc.lft.to/lastmile_qr_scan"}, "fusion_lon": 0.0}, {"lat": 38.90783483333333, "is_disabled": 0, "type": "electric_scooter", "lon": -77.00024, "bike_id": "3e0fc848ffe07e43c6fa9a33ffa61aa4", "fusion_lat": 0.0, "name": "3e0fc848ffe07e43c6fa9a33ffa61aa4", "is_reserved": 0, "rental_uris": {"android": "https://dc.lft.to/lastmile_qr_scan", "ios": "https://dc.lft.to/lastmile_qr_scan"}, "fusion_lon": 0.0}, {"lat": 38.92273383333333, "is_disabled": 0, "type": "electric_scooter", "lon": -77.04237316666666, "bike_id": "79355a145cba07870200d9b423d3b3ba", "fusion_lat": 0.0, "name": "79355a145cba07870200d9b423d3b3ba", "is_reserved": 0, "rental_uris": {"android": "https://dc.lft.to/lastmile_qr_scan", "ios": "https://dc.lft.to/lastmile_qr_scan"}, "fusion_lon": 0.0}, {"lat": 38.859024166666664, "is_disabled": 0, "type": "electric_scooter", "lon": -76.99150916666666, "bike_id": "29c507653d0b1d0e20e30a0d4421a13d", "fusion_lat": 0.0, "name": "29c507653d0b1d0e20e30a0d4421a13d", "is_reserved": 0, "rental_uris": {"android": "https://dc.lft.to/lastmile_qr_scan", "ios": "https://dc.lft.to/lastmile_qr_scan"}, "fusion_lon": 0.0}, {"lat": 38.915882, "is_disabled": 0, "type": "electric_scooter", "lon": -77.03216766666667, "bike_id": "85addc7b7c546992cc6ec7e225692b31", "fusion_lat": 0.0, "name": "85addc7b7c546992cc6ec7e225692b31", "is_reserved": 0, "rental_uris": {"android": "https://dc.lft.to/lastmile_qr_scan", "ios": "https://dc.lft.to/lastmile_qr_scan"}, "fusion_lon": 0.0}, {"lat": 38.9274985, "is_disabled": 0, "type": "electric_scooter", "lon": -77.02538066666666, "bike_id": "94921d0986b6c1170f090b90610e4700", "fusion_lat": 0.0, "name": "94921d0986b6c1170f090b90610e4700", "is_reserved": 0, "rental_uris": {"android": "https://dc.lft.to/lastmile_qr_scan", "ios": "https://dc.lft.to/lastmile_qr_scan"}, "fusion_lon": 0.0}, {"lat": 38.89909316666667, "is_disabled": 0, "type": "electric_scooter", "lon": -76.93352416666667, "bike_id": "583d2685285c14c61c92bb1de560b942", "fusion_lat": 0.0, "name": "583d2685285c14c61c92bb1de560b942", "is_reserved": 0, "rental_uris": {"android": "https://dc.lft.to/lastmile_qr_scan", "ios": "https://dc.lft.to/lastmile_qr_scan"}, "fusion_lon": 0.0}, {"lat": 38.930584333333336, "is_disabled": 0, "type": "electric_scooter", "lon": -77.041814, "bike_id": "6bd27a537cc122ac9e2c4299d5220f6f", "fusion_lat": 0.0, "name": "6bd27a537cc122ac9e2c4299d5220f6f", "is_reserved": 0, "rental_uris": {"android": "https://dc.lft.to/lastmile_qr_scan", "ios": "https://dc.lft.to/lastmile_qr_scan"}, "fusion_lon": 0.0}, {"lat": 38.892671166666666, "is_disabled": 0, "type": "electric_scooter", "lon": -77.0322445, "bike_id": "5604eeddbcafdce34d9cdd222c7b4190", "fusion_lat": 0.0, "name": "5604eeddbcafdce34d9cdd222c7b4190", "is_reserved": 0, "rental_uris": {"android": "https://dc.lft.to/lastmile_qr_scan", "ios": "https://dc.lft.to/lastmile_qr_scan"}, "fusion_lon": 0.0}, {"lat": 38.905767833333336, "is_disabled": 0, "type": "electric_scooter", "lon": -77.06274483333333, "bike_id": "64eb31ada7297ba7baaa8b007fa22507", "fusion_lat": 0.0, "name": "64eb31ada7297ba7baaa8b007fa22507", "is_reserved": 0, "rental_uris": {"android": "https://dc.lft.to/lastmile_qr_scan", "ios": "https://dc.lft.to/lastmile_qr_scan"}, "fusion_lon": 0.0}, {"lat": 38.891101666666664, "is_disabled": 0, "type": "electric_scooter", "lon": -76.94387316666666, "bike_id": "ef12e8337d4547d2f975d19e81d9d506", "fusion_lat": 0.0, "name": "ef12e8337d4547d2f975d19e81d9d506", "is_reserved": 0, "rental_uris": {"android": "https://dc.lft.to/lastmile_qr_scan", "ios": "https://dc.lft.to/lastmile_qr_scan"}, "fusion_lon": 0.0}, {"lat": 38.911885, "is_disabled": 0, "type": "electric_scooter", "lon": -77.03845166666666, "bike_id": "70456ec1b3bce119d9a1b534f2825950", "fusion_lat": 0.0, "name": "70456ec1b3bce119d9a1b534f2825950", "is_reserved": 0, "rental_uris": {"android": "https://dc.lft.to/lastmile_qr_scan", "ios": "https://dc.lft.to/lastmile_qr_scan"}, "fusion_lon": 0.0}, {"lat": 38.90731516666666, "is_disabled": 0, "type": "electric_scooter", "lon": -77.0482555, "bike_id": "4b9e44cc12e8fe2f57e91a8aba411e7d", "fusion_lat": 0.0, "name": "4b9e44cc12e8fe2f57e91a8aba411e7d", "is_reserved": 0, "rental_uris": {"android": "https://dc.lft.to/lastmile_qr_scan", "ios": "https://dc.lft.to/lastmile_qr_scan"}, "fusion_lon": 0.0}, {"lat": 38.929041833333336, "is_disabled": 0, "type": "electric_scooter", "lon": -77.03258816666667, "bike_id": "15f24c4f531f39af9fd9aa947baa2e98", "fusion_lat": 0.0, "name": "15f24c4f531f39af9fd9aa947baa2e98", "is_reserved": 0, "rental_uris": {"android": "https://dc.lft.to/lastmile_qr_scan", "ios": "https://dc.lft.to/lastmile_qr_scan"}, "fusion_lon": 0.0}, {"lat": 38.90971583333334, "is_disabled": 0, "type": "electric_scooter", "lon": -77.04517883333334, "bike_id": "1186251a8bca8505a52a7ac13255cf8b", "fusion_lat": 0.0, "name": "1186251a8bca8505a52a7ac13255cf8b", "is_reserved": 0, "rental_uris": {"android": "https://dc.lft.to/lastmile_qr_scan", "ios": "https://dc.lft.to/lastmile_qr_scan"}, "fusion_lon": 0.0}, {"lat": 38.9270705, "is_disabled": 0, "type": "electric_scooter", "lon": -77.02329466666667, "bike_id": "3a9a55e5e65a7f303e38e5191301a21d", "fusion_lat": 0.0, "name": "3a9a55e5e65a7f303e38e5191301a21d", "is_reserved": 0, "rental_uris": {"android": "https://dc.lft.to/lastmile_qr_scan", "ios": "https://dc.lft.to/lastmile_qr_scan"}, "fusion_lon": 0.0}, {"lat": 39.03043783333333, "is_disabled": 0, "type": "electric_bike", "lon": -77.09485883333333, "bike_id": "6a9f214b8544b08849bf20e9fd05ea12", "fusion_lat": 0.0, "name": "6a9f214b8544b08849bf20e9fd05ea12", "is_reserved": 0, "rental_uris": {"android": "https://dc.lft.to/lastmile_qr_scan", "ios": "https://dc.lft.to/lastmile_qr_scan"}, "fusion_lon": 0.0}, {"lat": 38.9181295, "is_disabled": 0, "type": "electric_scooter", "lon": -77.02861383333334, "bike_id": "d5946bc05ad57736b23eb0be5d3d9f93", "fusion_lat": 0.0, "name": "d5946bc05ad57736b23eb0be5d3d9f93", "is_reserved": 0, "rental_uris": {"android": "https://dc.lft.to/lastmile_qr_scan", "ios": "https://dc.lft.to/lastmile_qr_scan"}, "fusion_lon": 0.0}, {"lat": 38.89531016666667, "is_disabled": 0, "type": "electric_scooter", "lon": -77.04359933333333, "bike_id": "0bd8fe1193d3b6fc619cd5c5c2b08352", "fusion_lat": 0.0, "name": "0bd8fe1193d3b6fc619cd5c5c2b08352", "is_reserved": 0, "rental_uris": {"android": "https://dc.lft.to/lastmile_qr_scan", "ios": "https://dc.lft.to/lastmile_qr_scan"}, "fusion_lon": 0.0}, {"lat": 38.88511283333333, "is_disabled": 0, "type": "electric_scooter", "lon": -77.00682816666666, "bike_id": "b6a51c3cd6f41465477d9733a1b38bab", "fusion_lat": 0.0, "name": "b6a51c3cd6f41465477d9733a1b38bab", "is_reserved": 0, "rental_uris": {"android": "https://dc.lft.to/lastmile_qr_scan", "ios": "https://dc.lft.to/lastmile_qr_scan"}, "fusion_lon": 0.0}, {"lat": 38.923276, "is_disabled": 0, "type": "electric_scooter", "lon": -77.0390395, "bike_id": "b88d49abf161a6af3dcc573657860819", "fusion_lat": 0.0, "name": "b88d49abf161a6af3dcc573657860819", "is_reserved": 0, "rental_uris": {"android": "https://dc.lft.to/lastmile_qr_scan", "ios": "https://dc.lft.to/lastmile_qr_scan"}, "fusion_lon": 0.0}, {"lat": 38.91950966666667, "is_disabled": 0, "type": "electric_scooter", "lon": -77.02502566666666, "bike_id": "cd29c5d3f277218f1262ac99315e3fa7", "fusion_lat": 0.0, "name": "cd29c5d3f277218f1262ac99315e3fa7", "is_reserved": 0, "rental_uris": {"android": "https://dc.lft.to/lastmile_qr_scan", "ios": "https://dc.lft.to/lastmile_qr_scan"}, "fusion_lon": 0.0}, {"lat": 38.900153, "is_disabled": 0, "type": "electric_scooter", "lon": -76.9987325, "bike_id": "844f93ba3fc4c387a32c0336dcf1acd0", "fusion_lat": 0.0, "name": "844f93ba3fc4c387a32c0336dcf1acd0", "is_reserved": 0, "rental_uris": {"android": "https://dc.lft.to/lastmile_qr_scan", "ios": "https://dc.lft.to/lastmile_qr_scan"}, "fusion_lon": 0.0}, {"lat": 38.901407166666665, "is_disabled": 0, "type": "electric_scooter", "lon": -77.04165, "bike_id": "2ad82edc37c94896217b8539599ec648", "fusion_lat": 0.0, "name": "2ad82edc37c94896217b8539599ec648", "is_reserved": 0, "rental_uris": {"android": "https://dc.lft.to/lastmile_qr_scan", "ios": "https://dc.lft.to/lastmile_qr_scan"}, "fusion_lon": 0.0}, {"lat": 38.9013915, "is_disabled": 0, "type": "electric_scooter", "lon": -77.01607766666666, "bike_id": "f128895c03243e959fe8c895bd0183d3", "fusion_lat": 0.0, "name": "f128895c03243e959fe8c895bd0183d3", "is_reserved": 0, "rental_uris": {"android": "https://dc.lft.to/lastmile_qr_scan", "ios": "https://dc.lft.to/lastmile_qr_scan"}, "fusion_lon": 0.0}, {"lat": 38.896097166666664, "is_disabled": 0, "type": "electric_scooter", "lon": -76.95601883333333, "bike_id": "88cc500387bb2ba16b28c5cc2478b82f", "fusion_lat": 0.0, "name": "88cc500387bb2ba16b28c5cc2478b82f", "is_reserved": 0, "rental_uris": {"android": "https://dc.lft.to/lastmile_qr_scan", "ios": "https://dc.lft.to/lastmile_qr_scan"}, "fusion_lon": 0.0}, {"lat": 38.905817666666664, "is_disabled": 0, "type": "electric_scooter", "lon": -77.00885166666667, "bike_id": "7308d4156f40bd2bc50f64cfe41071fd", "fusion_lat": 0.0, "name": "7308d4156f40bd2bc50f64cfe41071fd", "is_reserved": 0, "rental_uris": {"android": "https://dc.lft.to/lastmile_qr_scan", "ios": "https://dc.lft.to/lastmile_qr_scan"}, "fusion_lon": 0.0}, {"lat": 38.918938, "is_disabled": 0, "type": "electric_scooter", "lon": -77.03920666666667, "bike_id": "bc906e298d7a3f929e25bd4a13ce7af5", "fusion_lat": 0.0, "name": "bc906e298d7a3f929e25bd4a13ce7af5", "is_reserved": 0, "rental_uris": {"android": "https://dc.lft.to/lastmile_qr_scan", "ios": "https://dc.lft.to/lastmile_qr_scan"}, "fusion_lon": 0.0}, {"lat": 38.92151416666667, "is_disabled": 0, "type": "electric_scooter", "lon": -77.0351135, "bike_id": "9f9839504232526b9eefa5563e42d4bf", "fusion_lat": 0.0, "name": "9f9839504232526b9eefa5563e42d4bf", "is_reserved": 0, "rental_uris": {"android": "https://dc.lft.to/lastmile_qr_scan", "ios": "https://dc.lft.to/lastmile_qr_scan"}, "fusion_lon": 0.0}, {"lat": 38.9170535, "is_disabled": 0, "type": "electric_scooter", "lon": -77.03866833333333, "bike_id": "aba4c99eabb80cba16513623713c6777", "fusion_lat": 0.0, "name": "aba4c99eabb80cba16513623713c6777", "is_reserved": 0, "rental_uris": {"android": "https://dc.lft.to/lastmile_qr_scan", "ios": "https://dc.lft.to/lastmile_qr_scan"}, "fusion_lon": 0.0}, {"lat": 38.886591, "is_disabled": 0, "type": "electric_bike", "lon": -77.16235966666666, "bike_id": "a236a5ed40f019be8542f164e21ec46d", "fusion_lat": 0.0, "name": "a236a5ed40f019be8542f164e21ec46d", "is_reserved": 0, "rental_uris": {"android": "https://dc.lft.to/lastmile_qr_scan", "ios": "https://dc.lft.to/lastmile_qr_scan"}, "fusion_lon": 0.0}, {"lat": 38.90506766666667, "is_disabled": 0, "type": "electric_scooter", "lon": -77.06474533333333, "bike_id": "9edabccb704b19049f55bbd1cbf20b5d", "fusion_lat": 0.0, "name": "9edabccb704b19049f55bbd1cbf20b5d", "is_reserved": 0, "rental_uris": {"android": "https://dc.lft.to/lastmile_qr_scan", "ios": "https://dc.lft.to/lastmile_qr_scan"}, "fusion_lon": 0.0}, {"lat": 38.93577416666667, "is_disabled": 0, "type": "electric_scooter", "lon": -77.06092766666667, "bike_id": "43f997a479fbcc9564b7fe9751535111", "fusion_lat": 0.0, "name": "43f997a479fbcc9564b7fe9751535111", "is_reserved": 0, "rental_uris": {"android": "https://dc.lft.to/lastmile_qr_scan", "ios": "https://dc.lft.to/lastmile_qr_scan"}, "fusion_lon": 0.0}, {"lat": 38.9105065, "is_disabled": 0, "type": "electric_scooter", "lon": -77.04576833333333, "bike_id": "156a45e5d45fbd39377f98425f160115", "fusion_lat": 0.0, "name": "156a45e5d45fbd39377f98425f160115", "is_reserved": 0, "rental_uris": {"android": "https://dc.lft.to/lastmile_qr_scan", "ios": "https://dc.lft.to/lastmile_qr_scan"}, "fusion_lon": 0.0}, {"lat": 38.9388385, "is_disabled": 0, "type": "electric_scooter", "lon": -77.032308, "bike_id": "d28ffbe78c29b0052a6fc9632c0bcbfd", "fusion_lat": 0.0, "name": "d28ffbe78c29b0052a6fc9632c0bcbfd", "is_reserved": 0, "rental_uris": {"android": "https://dc.lft.to/lastmile_qr_scan", "ios": "https://dc.lft.to/lastmile_qr_scan"}, "fusion_lon": 0.0}, {"lat": 38.921329, "is_disabled": 0, "type": "electric_scooter", "lon": -77.04128883333334, "bike_id": "1b8d16aa6c81173f1c051bfc3441e12c", "fusion_lat": 0.0, "name": "1b8d16aa6c81173f1c051bfc3441e12c", "is_reserved": 0, "rental_uris": {"android": "https://dc.lft.to/lastmile_qr_scan", "ios": "https://dc.lft.to/lastmile_qr_scan"}, "fusion_lon": 0.0}, {"lat": 38.89231066666667, "is_disabled": 0, "type": "electric_scooter", "lon": -77.05004666666666, "bike_id": "3ca0e49245ec14f9a684fc6d53f3fe7e", "fusion_lat": 0.0, "name": "3ca0e49245ec14f9a684fc6d53f3fe7e", "is_reserved": 0, "rental_uris": {"android": "https://dc.lft.to/lastmile_qr_scan", "ios": "https://dc.lft.to/lastmile_qr_scan"}, "fusion_lon": 0.0}, {"lat": 38.8623025, "is_disabled": 0, "type": "electric_scooter", "lon": -76.99551783333334, "bike_id": "2b463daa083ee9bac1ef8024b8897103", "fusion_lat": 0.0, "name": "2b463daa083ee9bac1ef8024b8897103", "is_reserved": 0, "rental_uris": {"android": "https://dc.lft.to/lastmile_qr_scan", "ios": "https://dc.lft.to/lastmile_qr_scan"}, "fusion_lon": 0.0}, {"lat": 38.89222483333333, "is_disabled": 0, "type": "electric_bike", "lon": -77.03328533333334, "bike_id": "8336dc03baf72dda9a8804278b908da2", "fusion_lat": 0.0, "name": "8336dc03baf72dda9a8804278b908da2", "is_reserved": 0, "rental_uris": {"android": "https://dc.lft.to/lastmile_qr_scan", "ios": "https://dc.lft.to/lastmile_qr_scan"}, "fusion_lon": 0.0}, {"lat": 38.906850666666664, "is_disabled": 0, "type": "electric_scooter", "lon": -77.06355966666666, "bike_id": "794d12367b93a9744d74d62260596130", "fusion_lat": 0.0, "name": "794d12367b93a9744d74d62260596130", "is_reserved": 0, "rental_uris": {"android": "https://dc.lft.to/lastmile_qr_scan", "ios": "https://dc.lft.to/lastmile_qr_scan"}, "fusion_lon": 0.0}, {"lat": 38.905365, "is_disabled": 0, "type": "electric_scooter", "lon": -77.05137183333333, "bike_id": "0626156fbab93bfc71cbb52d8c525613", "fusion_lat": 0.0, "name": "0626156fbab93bfc71cbb52d8c525613", "is_reserved": 0, "rental_uris": {"android": "https://dc.lft.to/lastmile_qr_scan", "ios": "https://dc.lft.to/lastmile_qr_scan"}, "fusion_lon": 0.0}, {"lat": 38.9279555, "is_disabled": 0, "type": "electric_scooter", "lon": -77.05525433333334, "bike_id": "9e1cee78505fe8612b412a0e5cefb1d9", "fusion_lat": 0.0, "name": "9e1cee78505fe8612b412a0e5cefb1d9", "is_reserved": 0, "rental_uris": {"android": "https://dc.lft.to/lastmile_qr_scan", "ios": "https://dc.lft.to/lastmile_qr_scan"}, "fusion_lon": 0.0}, {"lat": 38.93510933333334, "is_disabled": 0, "type": "electric_scooter", "lon": -77.033467, "bike_id": "b44d5e321b8a83f1c2bb473325fbdd4b", "fusion_lat": 0.0, "name": "b44d5e321b8a83f1c2bb473325fbdd4b", "is_reserved": 0, "rental_uris": {"android": "https://dc.lft.to/lastmile_qr_scan", "ios": "https://dc.lft.to/lastmile_qr_scan"}, "fusion_lon": 0.0}, {"lat": 38.85322016666667, "is_disabled": 0, "type": "electric_bike", "lon": -76.98010433333333, "bike_id": "686cb5125d7940b6d8ac7e049466a7b4", "fusion_lat": 0.0, "name": "686cb5125d7940b6d8ac7e049466a7b4", "is_reserved": 0, "rental_uris": {"android": "https://dc.lft.to/lastmile_qr_scan", "ios": "https://dc.lft.to/lastmile_qr_scan"}, "fusion_lon": 0.0}, {"lat": 39.000144166666665, "is_disabled": 0, "type": "electric_bike", "lon": -76.91081733333333, "bike_id": "41349d71e2defbc256c4a6afb3abba8e", "fusion_lat": 0.0, "name": "41349d71e2defbc256c4a6afb3abba8e", "is_reserved": 0, "rental_uris": {"android": "https://dc.lft.to/lastmile_qr_scan", "ios": "https://dc.lft.to/lastmile_qr_scan"}, "fusion_lon": 0.0}, {"lat": 38.922882666666666, "is_disabled": 0, "type": "electric_scooter", "lon": -77.024278, "bike_id": "7c79041e7c5cfeda5e47fb7b939638b1", "fusion_lat": 0.0, "name": "7c79041e7c5cfeda5e47fb7b939638b1", "is_reserved": 0, "rental_uris": {"android": "https://dc.lft.to/lastmile_qr_scan", "ios": "https://dc.lft.to/lastmile_qr_scan"}, "fusion_lon": 0.0}, {"lat": 38.951962333333334, "is_disabled": 0, "type": "electric_bike", "lon": -76.967261, "bike_id": "4da980ef5f90fa58b27a9b3018f7e97c", "fusion_lat": 0.0, "name": "4da980ef5f90fa58b27a9b3018f7e97c", "is_reserved": 0, "rental_uris": {"android": "https://dc.lft.to/lastmile_qr_scan", "ios": "https://dc.lft.to/lastmile_qr_scan"}, "fusion_lon": 0.0}, {"lat": 38.90368616666667, "is_disabled": 0, "type": "electric_scooter", "lon": -77.0109555, "bike_id": "04084736f2807e67d24d60462b33d8d6", "fusion_lat": 0.0, "name": "04084736f2807e67d24d60462b33d8d6", "is_reserved": 0, "rental_uris": {"android": "https://dc.lft.to/lastmile_qr_scan", "ios": "https://dc.lft.to/lastmile_qr_scan"}, "fusion_lon": 0.0}, {"lat": 38.8639, "is_disabled": 0, "type": "electric_bike", "lon": -76.98991133333334, "bike_id": "ca87a600e8f2a329cce9ff21ccf10a3f", "fusion_lat": 0.0, "name": "ca87a600e8f2a329cce9ff21ccf10a3f", "is_reserved": 0, "rental_uris": {"android": "https://dc.lft.to/lastmile_qr_scan", "ios": "https://dc.lft.to/lastmile_qr_scan"}, "fusion_lon": 0.0}, {"lat": 38.888846, "is_disabled": 0, "type": "electric_scooter", "lon": -76.93156566666667, "bike_id": "c79b91722c9155e86867f538d0ab2acb", "fusion_lat": 0.0, "name": "c79b91722c9155e86867f538d0ab2acb", "is_reserved": 0, "rental_uris": {"android": "https://dc.lft.to/lastmile_qr_scan", "ios": "https://dc.lft.to/lastmile_qr_scan"}, "fusion_lon": 0.0}, {"lat": 38.922686166666665, "is_disabled": 0, "type": "electric_scooter", "lon": -77.02696633333333, "bike_id": "c3d511b4ea1691b5153145befb0635af", "fusion_lat": 0.0, "name": "c3d511b4ea1691b5153145befb0635af", "is_reserved": 0, "rental_uris": {"android": "https://dc.lft.to/lastmile_qr_scan", "ios": "https://dc.lft.to/lastmile_qr_scan"}, "fusion_lon": 0.0}, {"lat": 38.94430933333334, "is_disabled": 0, "type": "electric_scooter", "lon": -77.063073, "bike_id": "7a4c80f01e58aa72909e6376d1393329", "fusion_lat": 0.0, "name": "7a4c80f01e58aa72909e6376d1393329", "is_reserved": 0, "rental_uris": {"android": "https://dc.lft.to/lastmile_qr_scan", "ios": "https://dc.lft.to/lastmile_qr_scan"}, "fusion_lon": 0.0}, {"lat": 38.944922, "is_disabled": 0, "type": "electric_bike", "lon": -77.00685066666667, "bike_id": "4cccb80f6c647d17b16246451193f820", "fusion_lat": 0.0, "name": "4cccb80f6c647d17b16246451193f820", "is_reserved": 0, "rental_uris": {"android": "https://dc.lft.to/lastmile_qr_scan", "ios": "https://dc.lft.to/lastmile_qr_scan"}, "fusion_lon": 0.0}, {"lat": 38.92271983333333, "is_disabled": 0, "type": "electric_scooter", "lon": -77.042389, "bike_id": "ac429a81cfb75e3191d663fdd56a1e6d", "fusion_lat": 0.0, "name": "ac429a81cfb75e3191d663fdd56a1e6d", "is_reserved": 0, "rental_uris": {"android": "https://dc.lft.to/lastmile_qr_scan", "ios": "https://dc.lft.to/lastmile_qr_scan"}, "fusion_lon": 0.0}, {"lat": 38.91986683333333, "is_disabled": 0, "type": "electric_scooter", "lon": -77.0416525, "bike_id": "1aa24eadd79824342de9eefb6c63891b", "fusion_lat": 0.0, "name": "1aa24eadd79824342de9eefb6c63891b", "is_reserved": 0, "rental_uris": {"android": "https://dc.lft.to/lastmile_qr_scan", "ios": "https://dc.lft.to/lastmile_qr_scan"}, "fusion_lon": 0.0}, {"lat": 38.966283, "is_disabled": 0, "type": "electric_scooter", "lon": -77.020002, "bike_id": "75ca42ae33d5120b62cc643ccb89a83c", "fusion_lat": 0.0, "name": "75ca42ae33d5120b62cc643ccb89a83c", "is_reserved": 0, "rental_uris": {"android": "https://dc.lft.to/lastmile_qr_scan", "ios": "https://dc.lft.to/lastmile_qr_scan"}, "fusion_lon": 0.0}, {"lat": 38.90947, "is_disabled": 0, "type": "electric_scooter", "lon": -77.0465915, "bike_id": "10a123a6a3e06ac4729048db7622b0b5", "fusion_lat": 0.0, "name": "10a123a6a3e06ac4729048db7622b0b5", "is_reserved": 0, "rental_uris": {"android": "https://dc.lft.to/lastmile_qr_scan", "ios": "https://dc.lft.to/lastmile_qr_scan"}, "fusion_lon": 0.0}, {"lat": 38.94131816666667, "is_disabled": 0, "type": "electric_scooter", "lon": -77.076165, "bike_id": "e5559cbf1889d55ec3ded50f0d7189b6", "fusion_lat": 0.0, "name": "e5559cbf1889d55ec3ded50f0d7189b6", "is_reserved": 0, "rental_uris": {"android": "https://dc.lft.to/lastmile_qr_scan", "ios": "https://dc.lft.to/lastmile_qr_scan"}, "fusion_lon": 0.0}, {"lat": 38.918554666666665, "is_disabled": 0, "type": "electric_scooter", "lon": -77.04179116666667, "bike_id": "a46eaf34347c5d274ed4f65f57e305d3", "fusion_lat": 0.0, "name": "a46eaf34347c5d274ed4f65f57e305d3", "is_reserved": 0, "rental_uris": {"android": "https://dc.lft.to/lastmile_qr_scan", "ios": "https://dc.lft.to/lastmile_qr_scan"}, "fusion_lon": 0.0}, {"lat": 38.96621566666666, "is_disabled": 0, "type": "electric_bike", "lon": -76.97672933333334, "bike_id": "65f30ab7376ff07de53f42fe746053a9", "fusion_lat": 0.0, "name": "65f30ab7376ff07de53f42fe746053a9", "is_reserved": 0, "rental_uris": {"android": "https://dc.lft.to/lastmile_qr_scan", "ios": "https://dc.lft.to/lastmile_qr_scan"}, "fusion_lon": 0.0}, {"lat": 38.934108333333334, "is_disabled": 0, "type": "electric_scooter", "lon": -77.020411, "bike_id": "256d11708cad92fa12fe3f34a70aa15e", "fusion_lat": 0.0, "name": "256d11708cad92fa12fe3f34a70aa15e", "is_reserved": 0, "rental_uris": {"android": "https://dc.lft.to/lastmile_qr_scan", "ios": "https://dc.lft.to/lastmile_qr_scan"}, "fusion_lon": 0.0}, {"lat": 38.886915, "is_disabled": 0, "type": "electric_scooter", "lon": -76.9938435, "bike_id": "a76addc2c91ae23725d38a6809402248", "fusion_lat": 0.0, "name": "a76addc2c91ae23725d38a6809402248", "is_reserved": 0, "rental_uris": {"android": "https://dc.lft.to/lastmile_qr_scan", "ios": "https://dc.lft.to/lastmile_qr_scan"}, "fusion_lon": 0.0}, {"lat": 38.93582033333333, "is_disabled": 0, "type": "electric_bike", "lon": -77.10689766666667, "bike_id": "8ade7ba2b7b81b7315cfcdfe109992d5", "fusion_lat": 0.0, "name": "8ade7ba2b7b81b7315cfcdfe109992d5", "is_reserved": 0, "rental_uris": {"android": "https://dc.lft.to/lastmile_qr_scan", "ios": "https://dc.lft.to/lastmile_qr_scan"}, "fusion_lon": 0.0}, {"lat": 38.89396383333333, "is_disabled": 0, "type": "electric_scooter", "lon": -77.0558795, "bike_id": "255ad0a6098e059c2e8f528fde1b9104", "fusion_lat": 0.0, "name": "255ad0a6098e059c2e8f528fde1b9104", "is_reserved": 0, "rental_uris": {"android": "https://dc.lft.to/lastmile_qr_scan", "ios": "https://dc.lft.to/lastmile_qr_scan"}, "fusion_lon": 0.0}, {"lat": 38.902385, "is_disabled": 0, "type": "electric_scooter", "lon": -77.02076783333334, "bike_id": "d4be378bfc8435c8495d494eaa733fc6", "fusion_lat": 0.0, "name": "d4be378bfc8435c8495d494eaa733fc6", "is_reserved": 0, "rental_uris": {"android": "https://dc.lft.to/lastmile_qr_scan", "ios": "https://dc.lft.to/lastmile_qr_scan"}, "fusion_lon": 0.0}, {"lat": 38.9298935, "is_disabled": 0, "type": "electric_scooter", "lon": -77.03234683333334, "bike_id": "811703759c06c996af865394d8a1c66d", "fusion_lat": 0.0, "name": "811703759c06c996af865394d8a1c66d", "is_reserved": 0, "rental_uris": {"android": "https://dc.lft.to/lastmile_qr_scan", "ios": "https://dc.lft.to/lastmile_qr_scan"}, "fusion_lon": 0.0}, {"lat": 38.87147366666667, "is_disabled": 0, "type": "electric_bike", "lon": -76.936701, "bike_id": "4c7166423156ac4e8ffd63a4cb4b409e", "fusion_lat": 0.0, "name": "4c7166423156ac4e8ffd63a4cb4b409e", "is_reserved": 0, "rental_uris": {"android": "https://dc.lft.to/lastmile_qr_scan", "ios": "https://dc.lft.to/lastmile_qr_scan"}, "fusion_lon": 0.0}, {"lat": 38.93982116666667, "is_disabled": 0, "type": "electric_scooter", "lon": -77.01936583333334, "bike_id": "d5c417bbbc732fdc6f5aa23de7f72a71", "fusion_lat": 0.0, "name": "d5c417bbbc732fdc6f5aa23de7f72a71", "is_reserved": 0, "rental_uris": {"android": "https://dc.lft.to/lastmile_qr_scan", "ios": "https://dc.lft.to/lastmile_qr_scan"}, "fusion_lon": 0.0}, {"lat": 38.924745, "is_disabled": 0, "type": "electric_scooter", "lon": -77.03976616666667, "bike_id": "808e22073674c0aae72b5906e674cb30", "fusion_lat": 0.0, "name": "808e22073674c0aae72b5906e674cb30", "is_reserved": 0, "rental_uris": {"android": "https://dc.lft.to/lastmile_qr_scan", "ios": "https://dc.lft.to/lastmile_qr_scan"}, "fusion_lon": 0.0}, {"lat": 38.94634416666667, "is_disabled": 0, "type": "electric_scooter", "lon": -77.02523966666666, "bike_id": "d6244577b70ead5f31c0e3438bc21129", "fusion_lat": 0.0, "name": "d6244577b70ead5f31c0e3438bc21129", "is_reserved": 0, "rental_uris": {"android": "https://dc.lft.to/lastmile_qr_scan", "ios": "https://dc.lft.to/lastmile_qr_scan"}, "fusion_lon": 0.0}, {"lat": 38.90851416666667, "is_disabled": 0, "type": "electric_scooter", "lon": -77.04472266666667, "bike_id": "1def34b193917b03445ef0b13d8dd2d4", "fusion_lat": 0.0, "name": "1def34b193917b03445ef0b13d8dd2d4", "is_reserved": 0, "rental_uris": {"android": "https://dc.lft.to/lastmile_qr_scan", "ios": "https://dc.lft.to/lastmile_qr_scan"}, "fusion_lon": 0.0}, {"lat": 38.920573833333336, "is_disabled": 0, "type": "electric_scooter", "lon": -77.04265366666667, "bike_id": "c42bba0ff0bd8a6449b88ffb8165bacb", "fusion_lat": 0.0, "name": "c42bba0ff0bd8a6449b88ffb8165bacb", "is_reserved": 0, "rental_uris": {"android": "https://dc.lft.to/lastmile_qr_scan", "ios": "https://dc.lft.to/lastmile_qr_scan"}, "fusion_lon": 0.0}, {"lat": 38.92411666666667, "is_disabled": 0, "type": "electric_scooter", "lon": -77.050479, "bike_id": "2e615b70571c6ea31fd61b974ff5923f", "fusion_lat": 0.0, "name": "2e615b70571c6ea31fd61b974ff5923f", "is_reserved": 0, "rental_uris": {"android": "https://dc.lft.to/lastmile_qr_scan", "ios": "https://dc.lft.to/lastmile_qr_scan"}, "fusion_lon": 0.0}, {"lat": 38.9001615, "is_disabled": 0, "type": "electric_scooter", "lon": -77.00029183333334, "bike_id": "28579e59094a583ce88768a6b3eff567", "fusion_lat": 0.0, "name": "28579e59094a583ce88768a6b3eff567", "is_reserved": 0, "rental_uris": {"android": "https://dc.lft.to/lastmile_qr_scan", "ios": "https://dc.lft.to/lastmile_qr_scan"}, "fusion_lon": 0.0}, {"lat": 38.87092, "is_disabled": 0, "type": "electric_scooter", "lon": -77.0120865, "bike_id": "6be39b4ec7cc6db549005543da2db09b", "fusion_lat": 0.0, "name": "6be39b4ec7cc6db549005543da2db09b", "is_reserved": 0, "rental_uris": {"android": "https://dc.lft.to/lastmile_qr_scan", "ios": "https://dc.lft.to/lastmile_qr_scan"}, "fusion_lon": 0.0}, {"lat": 38.931853833333335, "is_disabled": 0, "type": "electric_scooter", "lon": -77.023754, "bike_id": "984a4aa49ddb22d90dc52e245d7a2558", "fusion_lat": 0.0, "name": "984a4aa49ddb22d90dc52e245d7a2558", "is_reserved": 0, "rental_uris": {"android": "https://dc.lft.to/lastmile_qr_scan", "ios": "https://dc.lft.to/lastmile_qr_scan"}, "fusion_lon": 0.0}, {"lat": 38.922735833333334, "is_disabled": 0, "type": "electric_scooter", "lon": -77.03908683333333, "bike_id": "7ffd96f89513d01d55693ebf1f115d81", "fusion_lat": 0.0, "name": "7ffd96f89513d01d55693ebf1f115d81", "is_reserved": 0, "rental_uris": {"android": "https://dc.lft.to/lastmile_qr_scan", "ios": "https://dc.lft.to/lastmile_qr_scan"}, "fusion_lon": 0.0}, {"lat": 38.9369355, "is_disabled": 0, "type": "electric_scooter", "lon": -77.02400883333334, "bike_id": "13858abcf39f289e6624bf58186d20a2", "fusion_lat": 0.0, "name": "13858abcf39f289e6624bf58186d20a2", "is_reserved": 0, "rental_uris": {"android": "https://dc.lft.to/lastmile_qr_scan", "ios": "https://dc.lft.to/lastmile_qr_scan"}, "fusion_lon": 0.0}, {"lat": 38.9573005, "is_disabled": 0, "type": "electric_scooter", "lon": -77.0240505, "bike_id": "8be67e252613e0102438110575aa3b1f", "fusion_lat": 0.0, "name": "8be67e252613e0102438110575aa3b1f", "is_reserved": 0, "rental_uris": {"android": "https://dc.lft.to/lastmile_qr_scan", "ios": "https://dc.lft.to/lastmile_qr_scan"}, "fusion_lon": 0.0}, {"lat": 38.892555, "is_disabled": 0, "type": "electric_scooter", "lon": -77.03199833333333, "bike_id": "41e95fe28e9bbb07d3b5087498470dd4", "fusion_lat": 0.0, "name": "41e95fe28e9bbb07d3b5087498470dd4", "is_reserved": 0, "rental_uris": {"android": "https://dc.lft.to/lastmile_qr_scan", "ios": "https://dc.lft.to/lastmile_qr_scan"}, "fusion_lon": 0.0}, {"lat": 38.9177375, "is_disabled": 0, "type": "electric_scooter", "lon": -77.04112283333333, "bike_id": "b1c7dee4015ec8832e8fded15613a3a8", "fusion_lat": 0.0, "name": "b1c7dee4015ec8832e8fded15613a3a8", "is_reserved": 0, "rental_uris": {"android": "https://dc.lft.to/lastmile_qr_scan", "ios": "https://dc.lft.to/lastmile_qr_scan"}, "fusion_lon": 0.0}, {"lat": 38.87475883333333, "is_disabled": 0, "type": "electric_scooter", "lon": -77.01069066666666, "bike_id": "0eb6e5f19191ce888df5f35840076d20", "fusion_lat": 0.0, "name": "0eb6e5f19191ce888df5f35840076d20", "is_reserved": 0, "rental_uris": {"android": "https://dc.lft.to/lastmile_qr_scan", "ios": "https://dc.lft.to/lastmile_qr_scan"}, "fusion_lon": 0.0}, {"lat": 38.89955166666667, "is_disabled": 0, "type": "electric_scooter", "lon": -77.05174266666667, "bike_id": "33540d43ff920ced20a197e85a221ceb", "fusion_lat": 0.0, "name": "33540d43ff920ced20a197e85a221ceb", "is_reserved": 0, "rental_uris": {"android": "https://dc.lft.to/lastmile_qr_scan", "ios": "https://dc.lft.to/lastmile_qr_scan"}, "fusion_lon": 0.0}, {"lat": 38.877272, "is_disabled": 0, "type": "electric_bike", "lon": -76.98112766666667, "bike_id": "41834d1855ec8ecf87ae707a78bb2f73", "fusion_lat": 0.0, "name": "41834d1855ec8ecf87ae707a78bb2f73", "is_reserved": 0, "rental_uris": {"android": "https://dc.lft.to/lastmile_qr_scan", "ios": "https://dc.lft.to/lastmile_qr_scan"}, "fusion_lon": 0.0}, {"lat": 38.9223845, "is_disabled": 0, "type": "electric_scooter", "lon": -77.04334616666667, "bike_id": "c206bb1715cf4677a3937502a4c02ee2", "fusion_lat": 0.0, "name": "c206bb1715cf4677a3937502a4c02ee2", "is_reserved": 0, "rental_uris": {"android": "https://dc.lft.to/lastmile_qr_scan", "ios": "https://dc.lft.to/lastmile_qr_scan"}, "fusion_lon": 0.0}, {"lat": 38.915633, "is_disabled": 0, "type": "electric_scooter", "lon": -77.033187, "bike_id": "e4d385fb9f5b12ef116c49a88ab8bf85", "fusion_lat": 0.0, "name": "e4d385fb9f5b12ef116c49a88ab8bf85", "is_reserved": 0, "rental_uris": {"android": "https://dc.lft.to/lastmile_qr_scan", "ios": "https://dc.lft.to/lastmile_qr_scan"}, "fusion_lon": 0.0}, {"lat": 38.902641833333334, "is_disabled": 0, "type": "electric_scooter", "lon": -77.02820833333334, "bike_id": "a376a9e4198282c81b71f800526c2e8c", "fusion_lat": 0.0, "name": "a376a9e4198282c81b71f800526c2e8c", "is_reserved": 0, "rental_uris": {"android": "https://dc.lft.to/lastmile_qr_scan", "ios": "https://dc.lft.to/lastmile_qr_scan"}, "fusion_lon": 0.0}, {"lat": 38.88740416666667, "is_disabled": 0, "type": "electric_scooter", "lon": -77.01535866666667, "bike_id": "698ebc31ae28a1b862821319daa7bc95", "fusion_lat": 0.0, "name": "698ebc31ae28a1b862821319daa7bc95", "is_reserved": 0, "rental_uris": {"android": "https://dc.lft.to/lastmile_qr_scan", "ios": "https://dc.lft.to/lastmile_qr_scan"}, "fusion_lon": 0.0}, {"lat": 38.881636666666665, "is_disabled": 0, "type": "electric_scooter", "lon": -76.99491533333334, "bike_id": "a2478cb120d0eab17e237c2a3449f277", "fusion_lat": 0.0, "name": "a2478cb120d0eab17e237c2a3449f277", "is_reserved": 0, "rental_uris": {"android": "https://dc.lft.to/lastmile_qr_scan", "ios": "https://dc.lft.to/lastmile_qr_scan"}, "fusion_lon": 0.0}, {"lat": 38.910501833333335, "is_disabled": 0, "type": "electric_scooter", "lon": -77.0153345, "bike_id": "16f50efa9d1c093b82d36728d0d3b1b0", "fusion_lat": 0.0, "name": "16f50efa9d1c093b82d36728d0d3b1b0", "is_reserved": 0, "rental_uris": {"android": "https://dc.lft.to/lastmile_qr_scan", "ios": "https://dc.lft.to/lastmile_qr_scan"}, "fusion_lon": 0.0}, {"lat": 38.907802333333336, "is_disabled": 0, "type": "electric_scooter", "lon": -77.00399, "bike_id": "bb28d4b4caf4c80457ca1d20af4c558d", "fusion_lat": 0.0, "name": "bb28d4b4caf4c80457ca1d20af4c558d", "is_reserved": 0, "rental_uris": {"android": "https://dc.lft.to/lastmile_qr_scan", "ios": "https://dc.lft.to/lastmile_qr_scan"}, "fusion_lon": 0.0}, {"lat": 38.926274666666664, "is_disabled": 0, "type": "electric_scooter", "lon": -77.03789566666667, "bike_id": "f4d0fd9d401b7058fb474da7964c1ae5", "fusion_lat": 0.0, "name": "f4d0fd9d401b7058fb474da7964c1ae5", "is_reserved": 0, "rental_uris": {"android": "https://dc.lft.to/lastmile_qr_scan", "ios": "https://dc.lft.to/lastmile_qr_scan"}, "fusion_lon": 0.0}, {"lat": 38.914677833333336, "is_disabled": 0, "type": "electric_scooter", "lon": -77.01787883333333, "bike_id": "0f9c502971dd74bda162da43c82a5ef8", "fusion_lat": 0.0, "name": "0f9c502971dd74bda162da43c82a5ef8", "is_reserved": 0, "rental_uris": {"android": "https://dc.lft.to/lastmile_qr_scan", "ios": "https://dc.lft.to/lastmile_qr_scan"}, "fusion_lon": 0.0}, {"lat": 38.93094216666667, "is_disabled": 0, "type": "electric_scooter", "lon": -77.02510766666667, "bike_id": "7c17757c5bbb917c8ff90fd0a63271ec", "fusion_lat": 0.0, "name": "7c17757c5bbb917c8ff90fd0a63271ec", "is_reserved": 0, "rental_uris": {"android": "https://dc.lft.to/lastmile_qr_scan", "ios": "https://dc.lft.to/lastmile_qr_scan"}, "fusion_lon": 0.0}, {"lat": 38.911739, "is_disabled": 0, "type": "electric_bike", "lon": -77.00271333333333, "bike_id": "f9d283e859e12dc59f18a3dc8e60dc74", "fusion_lat": 0.0, "name": "f9d283e859e12dc59f18a3dc8e60dc74", "is_reserved": 0, "rental_uris": {"android": "https://dc.lft.to/lastmile_qr_scan", "ios": "https://dc.lft.to/lastmile_qr_scan"}, "fusion_lon": 0.0}, {"lat": 38.845619666666664, "is_disabled": 0, "type": "electric_bike", "lon": -77.09627933333333, "bike_id": "8c8c6f1d79943f03ef385b9957fdd0c8", "fusion_lat": 0.0, "name": "8c8c6f1d79943f03ef385b9957fdd0c8", "is_reserved": 0, "rental_uris": {"android": "https://dc.lft.to/lastmile_qr_scan", "ios": "https://dc.lft.to/lastmile_qr_scan"}, "fusion_lon": 0.0}, {"lat": 38.927148, "is_disabled": 0, "type": "electric_scooter", "lon": -77.02096883333333, "bike_id": "5f7c52ef997719243632cad8e8ff970c", "fusion_lat": 0.0, "name": "5f7c52ef997719243632cad8e8ff970c", "is_reserved": 0, "rental_uris": {"android": "https://dc.lft.to/lastmile_qr_scan", "ios": "https://dc.lft.to/lastmile_qr_scan"}, "fusion_lon": 0.0}, {"lat": 38.911125166666665, "is_disabled": 0, "type": "electric_scooter", "lon": -77.0216605, "bike_id": "29728686da3a70ffeb97772f845fe11d", "fusion_lat": 0.0, "name": "29728686da3a70ffeb97772f845fe11d", "is_reserved": 0, "rental_uris": {"android": "https://dc.lft.to/lastmile_qr_scan", "ios": "https://dc.lft.to/lastmile_qr_scan"}, "fusion_lon": 0.0},