{"data": {"bikes": [{"is_reserved": 0, "type": "electric_scooter", "fusion_lat": 0.0, "is_disabled": 0, "rental_uris": {"ios": "https://dc.lft.to/lastmile_qr_scan", "android": "https://dc.lft.to/lastmile_qr_scan"}, "bike_id": "0342fc2a8c53301bd95ed2f6bdf7a688", "lat": 38.92807716666667, "name": "0342fc2a8c53301bd95ed2f6bdf7a688", "lon": -77.0434095, "fusion_lon": 0.0}, {"is_reserved": 0, "type": "electric_scooter", "fusion_lat": 0.0, "is_disabled": 0, "rental_uris": {"ios": "https://dc.lft.to/lastmile_qr_scan", "android": "https://dc.lft.to/lastmile_qr_scan"}, "bike_id": "8d56ababc69587e9da1ce349c5e0b0f3", "lat": 38.914052, "name": "8d56ababc69587e9da1ce349c5e0b0f3", "lon": -77.02056616666667, "fusion_lon": 0.0}, {"is_reserved": 0, "type": "electric_scooter", "fusion_lat": 0.0, "is_disabled": 0, "rental_uris": {"ios": "https://dc.lft.to/lastmile_qr_scan", "android": "https://dc.lft.to/lastmile_qr_scan"}, "bike_id": "526feb338f3fb64750732526ceaa8c5f", "lat": 38.911035166666665, "name": "526feb338f3fb64750732526ceaa8c5f", "lon": -77.01165183333333, "fusion_lon": 0.0}, {"is_reserved": 0, "type": "electric_scooter", "fusion_lat": 0.0, "is_disabled": 0, "rental_uris": {"ios": "https://dc.lft.to/lastmile_qr_scan", "android": "https://dc.lft.to/lastmile_qr_scan"}, "bike_id": "98c20689b70f5cd1ef71c98257a6db6d", "lat": 38.87911783333333, "name": "98c20689b70f5cd1ef71c98257a6db6d", "lon": -77.021567, "fusion_lon": 0.0}, {"is_reserved": 0, "type": "electric_scooter", "fusion_lat": 0.0, "is_disabled": 0, "rental_uris": {"ios": "https://dc.lft.to/lastmile_qr_scan", "android": "https://dc.lft.to/lastmile_qr_scan"}, "bike_id": "29a88ae6adf024186944b17e62aab01e", "lat": 38.955883166666666, "name": "29a88ae6adf024186944b17e62aab01e", "lon": -77.0178855, "fusion_lon": 0.0}, {"is_reserved": 0, "type": "electric_scooter", "fusion_lat": 0.0, "is_disabled": 0, "rental_uris": {"ios": "https://dc.lft.to/lastmile_qr_scan", "android": "https://dc.lft.to/lastmile_qr_scan"}, "bike_id": "e7399b9c5ee7562fc15fe71900f0343a", "lat": 38.873789333333335, "name": "e7399b9c5ee7562fc15fe71900f0343a", "lon": -77.00124783333334, "fusion_lon": 0.0}, {"is_reserved": 0, "type": "electric_scooter", "fusion_lat": 0.0, "is_disabled": 0, "rental_uris": {"ios": "https://dc.lft.to/lastmile_qr_scan", "android": "https://dc.lft.to/lastmile_qr_scan"}, "bike_id": "6f6cc22221fcf692da7eee85a3e07886", "lat": 38.93266583333333, "name": "6f6cc22221fcf692da7eee85a3e07886", "lon": -77.02098916666667, "fusion_lon": 0.0}, {"is_reserved": 0, "type": "electric_bike", "fusion_lat": 0.0, "is_disabled": 0, "rental_uris": {"ios": "https://dc.lft.to/lastmile_qr_scan", "android": "https://dc.lft.to/lastmile_qr_scan"}, "bike_id": "54eb7c1e87c579466231526687b465e3", "lat": 39.02647366666667, "name": "54eb7c1e87c579466231526687b465e3", "lon": -77.03684983333333, "fusion_lon": 0.0}, {"is_reserved": 0, "type": "electric_scooter", "fusion_lat": 0.0, "is_disabled": 0, "rental_uris": {"ios": "https://dc.lft.to/lastmile_qr_scan", "android": "https://dc.lft.to/lastmile_qr_scan"}, "bike_id": "18d3f6872ac28a69ef58ea3c0554e7ec", "lat": 38.908530166666665, "name": "18d3f6872ac28a69ef58ea3c0554e7ec", "lon": -77.023566, "fusion_lon": 0.0}, {"is_reserved": 0, "type": "electric_scooter", "fusion_lat": 0.0, "is_disabled": 0, "rental_uris": {"ios": "https://dc.lft.to/lastmile_qr_scan", "android": "https://dc.lft.to/lastmile_qr_scan"}, "bike_id": "bd89b71ac983e26cd1cf242d40a1bcd2", "lat": 38.880396, "name": "bd89b71ac983e26cd1cf242d40a1bcd2", "lon": -77.01740133333334, "fusion_lon": 0.0}, {"is_reserved": 0, "type": "electric_scooter", "fusion_lat": 0.0, "is_disabled": 0, "rental_uris": {"ios": "https://dc.lft.to/lastmile_qr_scan", "android": "https://dc.lft.to/lastmile_qr_scan"}, "bike_id": "eb76ed5f77b341de206d666b52d5a804", "lat": 38.92203933333333, "name": "eb76ed5f77b341de206d666b52d5a804", "lon": -77.02044316666667, "fusion_lon": 0.0}, {"is_reserved": 0, "type": "electric_scooter", "fusion_lat": 0.0, "is_disabled": 0, "rental_uris": {"ios": "https://dc.lft.to/lastmile_qr_scan", "android": "https://dc.lft.to/lastmile_qr_scan"}, "bike_id": "9563759510c4503d6091fd157059726a", "lat": 38.92381816666666, "name": "9563759510c4503d6091fd157059726a", "lon": -77.02960366666667, "fusion_lon": 0.0}, {"is_reserved": 0, "type": "electric_scooter", "fusion_lat": 0.0, "is_disabled": 0, "rental_uris": {"ios": "https://dc.lft.to/lastmile_qr_scan", "android": "https://dc.lft.to/lastmile_qr_scan"}, "bike_id": "cf270fe53f9bdd8850bebbf9dc049028", "lat": 38.90085116666667, "name": "cf270fe53f9bdd8850bebbf9dc049028", "lon": -76.983296, "fusion_lon": 0.0}, {"is_reserved": 0, "type": "electric_scooter", "fusion_lat": 0.0, "is_disabled": 0, "rental_uris": {"ios": "https://dc.lft.to/lastmile_qr_scan", "android": "https://dc.lft.to/lastmile_qr_scan"}, "bike_id": "3f2959c626d843decdc282c97be0f600", "lat": 38.89746066666667, "name": "3f2959c626d843decdc282c97be0f600", "lon": -76.94698266666667, "fusion_lon": 0.0}, {"is_reserved": 0, "type": "electric_scooter", "fusion_lat": 0.0, "is_disabled": 0, "rental_uris": {"ios": "https://dc.lft.to/lastmile_qr_scan", "android": "https://dc.lft.to/lastmile_qr_scan"}, "bike_id": "455551b0b374efc466fa2bb8327ffd83", "lat": 38.927585, "name": "455551b0b374efc466fa2bb8327ffd83", "lon": -77.05257916666666, "fusion_lon": 0.0}, {"is_reserved": 0, "type": "electric_scooter", "fusion_lat": 0.0, "is_disabled": 0, "rental_uris": {"ios": "https://dc.lft.to/lastmile_qr_scan", "android": "https://dc.lft.to/lastmile_qr_scan"}, "bike_id": "a27bf4aa0d58612d3c0a56752faf05ec", "lat": 38.886244833333336, "name": "a27bf4aa0d58612d3c0a56752faf05ec", "lon": -76.926346, "fusion_lon": 0.0}, {"is_reserved": 0, "type": "electric_scooter", "fusion_lat": 0.0, "is_disabled": 0, "rental_uris": {"ios": "https://dc.lft.to/lastmile_qr_scan", "android": "https://dc.lft.to/lastmile_qr_scan"}, "bike_id": "ab6e086fcec44192b7e4b8c151ea3b0d", "lat": 38.88629433333333, "name": "ab6e086fcec44192b7e4b8c151ea3b0d", "lon": -76.981833, "fusion_lon": 0.0}, {"is_reserved": 0, "type": "electric_scooter", "fusion_lat": 0.0, "is_disabled": 0, "rental_uris": {"ios": "https://dc.lft.to/lastmile_qr_scan", "android": "https://dc.lft.to/lastmile_qr_scan"}, "bike_id": "17a75c16d405474f29a09d826b598300", "lat": 38.920916, "name": "17a75c16d405474f29a09d826b598300", "lon": -77.04110583333333, "fusion_lon": 0.0}, {"is_reserved": 0, "type": "electric_scooter", "fusion_lat": 0.0, "is_disabled": 0, "rental_uris": {"ios": "https://dc.lft.to/lastmile_qr_scan", "android": "https://dc.lft.to/lastmile_qr_scan"}, "bike_id": "a08b6b6b98f98c219a8ed496d3bc574b", "lat": 38.915878666666664, "name": "a08b6b6b98f98c219a8ed496d3bc574b", "lon": -76.98411933333334, "fusion_lon": 0.0}, {"is_reserved": 0, "type": "electric_scooter", "fusion_lat": 0.0, "is_disabled": 0, "rental_uris": {"ios": "https://dc.lft.to/lastmile_qr_scan", "android": "https://dc.lft.to/lastmile_qr_scan"}, "bike_id": "57f9ea49f1536358f71b783a57781d32", "lat": 38.91258583333333, "name": "57f9ea49f1536358f71b783a57781d32", "lon": -76.98360333333333, "fusion_lon": 0.0}, {"is_reserved": 0, "type": "electric_scooter", "fusion_lat": 0.0, "is_disabled": 0, "rental_uris": {"ios": "https://dc.lft.to/lastmile_qr_scan", "android": "https://dc.lft.to/lastmile_qr_scan"}, "bike_id": "529728ac41c51b5a6e0d24207d820151", "lat": 38.915025666666665, "name": "529728ac41c51b5a6e0d24207d820151", "lon": -77.01847383333333, "fusion_lon": 0.0}, {"is_reserved": 0, "type": "electric_bike", "fusion_lat": 0.0, "is_disabled": 0, "rental_uris": {"ios": "https://dc.lft.to/lastmile_qr_scan", "android": "https://dc.lft.to/lastmile_qr_scan"}, "bike_id": "21ea02af38681e697588fabc024b586c", "lat": 38.84677083333333, "name": "21ea02af38681e697588fabc024b586c", "lon": -77.139372, "fusion_lon": 0.0}, {"is_reserved": 0, "type": "electric_scooter", "fusion_lat": 0.0, "is_disabled": 0, "rental_uris": {"ios": "https://dc.lft.to/lastmile_qr_scan", "android": "https://dc.lft.to/lastmile_qr_scan"}, "bike_id": "9a0be4520d4d2b375907ff9871db30f8", "lat": 38.92865316666666, "name": "9a0be4520d4d2b375907ff9871db30f8", "lon": -77.03420883333334, "fusion_lon": 0.0}, {"is_reserved": 0, "type": "electric_scooter", "fusion_lat": 0.0, "is_disabled": 0, "rental_uris": {"ios": "https://dc.lft.to/lastmile_qr_scan", "android": "https://dc.lft.to/lastmile_qr_scan"}, "bike_id": "65a69e70e44114ba0642f39aaa3feceb", "lat": 38.912824666666666, "name": "65a69e70e44114ba0642f39aaa3feceb", "lon": -77.03041333333333, "fusion_lon": 0.0}, {"is_reserved": 0, "type": "electric_scooter", "fusion_lat": 0.0, "is_disabled": 0, "rental_uris": {"ios": "https://dc.lft.to/lastmile_qr_scan", "android": "https://dc.lft.to/lastmile_qr_scan"}, "bike_id": "0d62d70b2d981b8b01750cd86943b531", "lat": 38.924918166666664, "name": "0d62d70b2d981b8b01750cd86943b531", "lon": -77.02141016666667, "fusion_lon": 0.0}, {"is_reserved": 0, "type": "electric_scooter", "fusion_lat": 0.0, "is_disabled": 0, "rental_uris": {"ios": "https://dc.lft.to/lastmile_qr_scan", "android": "https://dc.lft.to/lastmile_qr_scan"}, "bike_id": "771c545e1efa073baa1d2161e041eae0", "lat": 38.909511333333334, "name": "771c545e1efa073baa1d2161e041eae0", "lon": -76.99577233333333, "fusion_lon": 0.0}, {"is_reserved": 0, "type": "electric_bike", "fusion_lat": 0.0, "is_disabled": 0, "rental_uris": {"ios": "https://dc.lft.to/lastmile_qr_scan", "android": "https://dc.lft.to/lastmile_qr_scan"}, "bike_id": "0dc9d0675da8048c18292b23cdebd601", "lat": 38.90895916666667, "name": "0dc9d0675da8048c18292b23cdebd601", "lon": -77.0321305, "fusion_lon": 0.0}, {"is_reserved": 0, "type": "electric_scooter", "fusion_lat": 0.0, "is_disabled": 0, "rental_uris": {"ios": "https://dc.lft.to/lastmile_qr_scan", "android": "https://dc.lft.to/lastmile_qr_scan"}, "bike_id": "d68499ab74267bd8480829467003055d", "lat": 38.90834866666667, "name": "d68499ab74267bd8480829467003055d", "lon": -77.04334583333333, "fusion_lon": 0.0}, {"is_reserved": 0, "type": "electric_bike", "fusion_lat": 0.0, "is_disabled": 0, "rental_uris": {"ios": "https://dc.lft.to/lastmile_qr_scan", "android": "https://dc.lft.to/lastmile_qr_scan"}, "bike_id": "d50b34a93ab8cd4c9f52c9607f69f0a9", "lat": 38.85057166666667, "name": "d50b34a93ab8cd4c9f52c9607f69f0a9", "lon": -76.95828283333333, "fusion_lon": 0.0}, {"is_reserved": 0, "type": "electric_scooter", "fusion_lat": 0.0, "is_disabled": 0, "rental_uris": {"ios": "https://dc.lft.to/lastmile_qr_scan", "android": "https://dc.lft.to/lastmile_qr_scan"}, "bike_id": "eadeb1c78b7c64e20b3441df95dd61ac", "lat": 38.925694, "name": "eadeb1c78b7c64e20b3441df95dd61ac", "lon": -77.02984, "fusion_lon": 0.0}, {"is_reserved": 0, "type": "electric_scooter", "fusion_lat": 0.0, "is_disabled": 0, "rental_uris": {"ios": "https://dc.lft.to/lastmile_qr_scan", "android": "https://dc.lft.to/lastmile_qr_scan"}, "bike_id": "1d53ccf6bec82e61503fdc82880fe03b", "lat": 38.906227, "name": "1d53ccf6bec82e61503fdc82880fe03b", "lon": -77.00902683333334, "fusion_lon": 0.0}, {"is_reserved": 0, "type": "electric_scooter", "fusion_lat": 0.0, "is_disabled": 0, "rental_uris": {"ios": "https://dc.lft.to/lastmile_qr_scan", "android": "https://dc.lft.to/lastmile_qr_scan"}, "bike_id": "3087dd2bccc2fb0f8318febacc4e005c", "lat": 38.9326325, "name": "3087dd2bccc2fb0f8318febacc4e005c", "lon": -77.03267016666666, "fusion_lon": 0.0}, {"is_reserved": 0, "type": "electric_scooter", "fusion_lat": 0.0, "is_disabled": 0, "rental_uris": {"ios": "https://dc.lft.to/lastmile_qr_scan", "android": "https://dc.lft.to/lastmile_qr_scan"}, "bike_id": "a105dc143c26bbb0ded4728d275afb4d", "lat": 38.930971166666666, "name": "a105dc143c26bbb0ded4728d275afb4d", "lon": -77.0247435, "fusion_lon": 0.0}, {"is_reserved": 0, "type": "electric_scooter", "fusion_lat": 0.0, "is_disabled": 0, "rental_uris": {"ios": "https://dc.lft.to/lastmile_qr_scan", "android": "https://dc.lft.to/lastmile_qr_scan"}, "bike_id": "a6c7d02e5cf5b0e05e018d5133bca840", "lat": 38.860810666666666, "name": "a6c7d02e5cf5b0e05e018d5133bca840", "lon": -76.9838025, "fusion_lon": 0.0}, {"is_reserved": 0, "type": "electric_scooter", "fusion_lat": 0.0, "is_disabled": 0, "rental_uris": {"ios": "https://dc.lft.to/lastmile_qr_scan", "android": "https://dc.lft.to/lastmile_qr_scan"}, "bike_id": "ddc87262555613577915d5142b87bfd9", "lat": 38.88575633333333, "name": "ddc87262555613577915d5142b87bfd9", "lon": -77.01212533333333, "fusion_lon": 0.0}, {"is_reserved": 0, "type": "electric_scooter", "fusion_lat": 0.0, "is_disabled": 0, "rental_uris": {"ios": "https://dc.lft.to/lastmile_qr_scan", "android": "https://dc.lft.to/lastmile_qr_scan"}, "bike_id": "643a30d44e63720254b5a59d48da89f7", "lat": 38.896479166666666, "name": "643a30d44e63720254b5a59d48da89f7", "lon": -77.0463975, "fusion_lon": 0.0}, {"is_reserved": 0, "type": "electric_scooter", "fusion_lat": 0.0, "is_disabled": 0, "rental_uris": {"ios": "https://dc.lft.to/lastmile_qr_scan", "android": "https://dc.lft.to/lastmile_qr_scan"}, "bike_id": "2a4e6a1bb0a229577d2c6d1ee7d90f41", "lat": 38.90431316666667, "name": "2a4e6a1bb0a229577d2c6d1ee7d90f41", "lon": -76.99730533333333, "fusion_lon": 0.0}, {"is_reserved": 0, "type": "electric_scooter", "fusion_lat": 0.0, "is_disabled": 0, "rental_uris": {"ios": "https://dc.lft.to/lastmile_qr_scan", "android": "https://dc.lft.to/lastmile_qr_scan"}, "bike_id": "00f9fc12caa126df16f81f366cc02e90", "lat": 38.9238215, "name": "00f9fc12caa126df16f81f366cc02e90", "lon": -77.04112516666666, "fusion_lon": 0.0}, {"is_reserved": 0, "type": "electric_scooter", "fusion_lat": 0.0, "is_disabled": 0, "rental_uris": {"ios": "https://dc.lft.to/lastmile_qr_scan", "android": "https://dc.lft.to/lastmile_qr_scan"}, "bike_id": "db504eb052395dab8f051e21d7a4e327", "lat": 38.930176333333335, "name": "db504eb052395dab8f051e21d7a4e327", "lon": -77.04052033333333, "fusion_lon": 0.0}, {"is_reserved": 0, "type": "electric_scooter", "fusion_lat": 0.0, "is_disabled": 0, "rental_uris": {"ios": "https://dc.lft.to/lastmile_qr_scan", "android": "https://dc.lft.to/lastmile_qr_scan"}, "bike_id": "1d98a5b10c23ee987e28d8dad58b8d03", "lat": 38.937747, "name": "1d98a5b10c23ee987e28d8dad58b8d03", "lon": -77.032662, "fusion_lon": 0.0}, {"is_reserved": 0, "type": "electric_bike", "fusion_lat": 0.0, "is_disabled": 0, "rental_uris": {"ios": "https://dc.lft.to/lastmile_qr_scan", "android": "https://dc.lft.to/lastmile_qr_scan"}, "bike_id": "68e0339c1143d99eb7a8ee753af5d731", "lat": 38.9949815, "name": "68e0339c1143d99eb7a8ee753af5d731", "lon": -77.001358, "fusion_lon": 0.0}, {"is_reserved": 0, "type": "electric_bike", "fusion_lat": 0.0, "is_disabled": 0, "rental_uris": {"ios": "https://dc.lft.to/lastmile_qr_scan", "android": "https://dc.lft.to/lastmile_qr_scan"}, "bike_id": "50929eaee38fe15ecab96b81442d2f48", "lat": 38.947373666666664, "name": "50929eaee38fe15ecab96b81442d2f48", "lon": -76.99582833333334, "fusion_lon": 0.0}, {"is_reserved": 0, "type": "electric_scooter", "fusion_lat": 0.0, "is_disabled": 0, "rental_uris": {"ios": "https://dc.lft.to/lastmile_qr_scan", "android": "https://dc.lft.to/lastmile_qr_scan"}, "bike_id": "da3e1bd01ae30987815fffc67bb0d157", "lat": 38.898353, "name": "da3e1bd01ae30987815fffc67bb0d157", "lon": -77.05018166666666, "fusion_lon": 0.0}, {"is_reserved": 0, "type": "electric_scooter", "fusion_lat": 0.0, "is_disabled": 0, "rental_uris": {"ios": "https://dc.lft.to/lastmile_qr_scan", "android": "https://dc.lft.to/lastmile_qr_scan"}, "bike_id": "9e87223e3687ed2c9907962f2bf669c1", "lat": 38.91915316666667, "name": "9e87223e3687ed2c9907962f2bf669c1", "lon": -77.04809233333333, "fusion_lon": 0.0}, {"is_reserved": 0, "type": "electric_scooter", "fusion_lat": 0.0, "is_disabled": 0, "rental_uris": {"ios": "https://dc.lft.to/lastmile_qr_scan", "android": "https://dc.lft.to/lastmile_qr_scan"}, "bike_id": "64d2e5780aa202a54960135ddec7dac6", "lat": 38.883595, "name": "64d2e5780aa202a54960135ddec7dac6", "lon": -76.92789216666667, "fusion_lon": 0.0}, {"is_reserved": 0, "type": "electric_scooter", "fusion_lat": 0.0, "is_disabled": 0, "rental_uris": {"ios": "https://dc.lft.to/lastmile_qr_scan", "android": "https://dc.lft.to/lastmile_qr_scan"}, "bike_id": "dd2d52fc7e6d531b4f18d79099322303", "lat": 38.91648383333333, "name": "dd2d52fc7e6d531b4f18d79099322303", "lon": -77.0217485, "fusion_lon": 0.0}, {"is_reserved": 0, "type": "electric_scooter", "fusion_lat": 0.0, "is_disabled": 0, "rental_uris": {"ios": "https://dc.lft.to/lastmile_qr_scan", "android": "https://dc.lft.to/lastmile_qr_scan"}, "bike_id": "e5302aa56d607979428b0804e2070020", "lat": 38.90185983333333, "name": "e5302aa56d607979428b0804e2070020", "lon": -76.9346185, "fusion_lon": 0.0}, {"is_reserved": 0, "type": "electric_scooter", "fusion_lat": 0.0, "is_disabled": 0, "rental_uris": {"ios": "https://dc.lft.to/lastmile_qr_scan", "android": "https://dc.lft.to/lastmile_qr_scan"}, "bike_id": "2507d75efea48015f71cfe3c6708b0d8", "lat": 38.931871, "name": "2507d75efea48015f71cfe3c6708b0d8", "lon": -77.0196355, "fusion_lon": 0.0}, {"is_reserved": 0, "type": "electric_scooter", "fusion_lat": 0.0, "is_disabled": 0, "rental_uris": {"ios": "https://dc.lft.to/lastmile_qr_scan", "android": "https://dc.lft.to/lastmile_qr_scan"}, "bike_id": "001b6051d1cbb2ae662a7565c308342c", "lat": 38.9307685, "name": "001b6051d1cbb2ae662a7565c308342c", "lon": -77.07762883333334, "fusion_lon": 0.0}, {"is_reserved": 0, "type": "electric_scooter", "fusion_lat": 0.0, "is_disabled": 0, "rental_uris": {"ios": "https://dc.lft.to/lastmile_qr_scan", "android": "https://dc.lft.to/lastmile_qr_scan"}, "bike_id": "36bb8579bfd3a158b781c63a41b24822", "lat": 38.92475366666667, "name": "36bb8579bfd3a158b781c63a41b24822", "lon": -77.02627683333333, "fusion_lon": 0.0}, {"is_reserved": 0, "type": "electric_scooter", "fusion_lat": 0.0, "is_disabled": 0, "rental_uris": {"ios": "https://dc.lft.to/lastmile_qr_scan", "android": "https://dc.lft.to/lastmile_qr_scan"}, "bike_id": "a493b649bad74e16822336407c039fed", "lat": 38.876633166666664, "name": "a493b649bad74e16822336407c039fed", "lon": -77.01578733333334, "fusion_lon": 0.0}, {"is_reserved": 0, "type": "electric_scooter", "fusion_lat": 0.0, "is_disabled": 0, "rental_uris": {"ios": "https://dc.lft.to/lastmile_qr_scan", "android": "https://dc.lft.to/lastmile_qr_scan"}, "bike_id": "7ffda107d7d9997a075c6dcbb6f355ce", "lat": 38.930144, "name": "7ffda107d7d9997a075c6dcbb6f355ce", "lon": -77.0404905, "fusion_lon": 0.0}, {"is_reserved": 0, "type": "electric_scooter", "fusion_lat": 0.0, "is_disabled": 0, "rental_uris": {"ios": "https://dc.lft.to/lastmile_qr_scan", "android": "https://dc.lft.to/lastmile_qr_scan"}, "bike_id": "9919396f6649dbe583afb1fd64202a73", "lat": 38.898594333333335, "name": "9919396f6649dbe583afb1fd64202a73", "lon": -77.04670066666667, "fusion_lon": 0.0}, {"is_reserved": 0, "type": "electric_scooter", "fusion_lat": 0.0, "is_disabled": 0, "rental_uris": {"ios": "https://dc.lft.to/lastmile_qr_scan", "android": "https://dc.lft.to/lastmile_qr_scan"}, "bike_id": "83e5ffe7923187313e20d9a57298e110", "lat": 38.89433366666667, "name": "83e5ffe7923187313e20d9a57298e110", "lon": -77.04473633333333, "fusion_lon": 0.0}, {"is_reserved": 0, "type": "electric_scooter", "fusion_lat": 0.0, "is_disabled": 0, "rental_uris": {"ios": "https://dc.lft.to/lastmile_qr_scan", "android": "https://dc.lft.to/lastmile_qr_scan"}, "bike_id": "1c29ee021b605b2c29a520df3f7817df", "lat": 38.927856166666665, "name": "1c29ee021b605b2c29a520df3f7817df", "lon": -77.031519, "fusion_lon": 0.0}, {"is_reserved": 0, "type": "electric_scooter", "fusion_lat": 0.0, "is_disabled": 0, "rental_uris": {"ios": "https://dc.lft.to/lastmile_qr_scan", "android": "https://dc.lft.to/lastmile_qr_scan"}, "bike_id": "17d3b0556ae873cc05806e293a0fb8b2", "lat": 38.876591833333336, "name": "17d3b0556ae873cc05806e293a0fb8b2", "lon": -77.00332383333334, "fusion_lon": 0.0}, {"is_reserved": 0, "type": "electric_scooter", "fusion_lat": 0.0, "is_disabled": 0, "rental_uris": {"ios": "https://dc.lft.to/lastmile_qr_scan", "android": "https://dc.lft.to/lastmile_qr_scan"}, "bike_id": "c11e500ab4ee971aca95c8d91de16b5b", "lat": 38.9318805, "name": "c11e500ab4ee971aca95c8d91de16b5b", "lon": -77.01987016666666, "fusion_lon": 0.0}, {"is_reserved": 0, "type": "electric_scooter", "fusion_lat": 0.0, "is_disabled": 0, "rental_uris": {"ios": "https://dc.lft.to/lastmile_qr_scan", "android": "https://dc.lft.to/lastmile_qr_scan"}, "bike_id": "b7b7d36d8fc65ad58d674aa624d3c279", "lat": 38.881796333333334, "name": "b7b7d36d8fc65ad58d674aa624d3c279", "lon": -77.01765316666666, "fusion_lon": 0.0}, {"is_reserved": 0, "type": "electric_scooter", "fusion_lat": 0.0, "is_disabled": 0, "rental_uris": {"ios": "https://dc.lft.to/lastmile_qr_scan", "android": "https://dc.lft.to/lastmile_qr_scan"}, "bike_id": "4dc879585b221aca5d44248733b3cfdb", "lat": 38.88612616666666, "name": "4dc879585b221aca5d44248733b3cfdb", "lon": -77.00337233333333, "fusion_lon": 0.0}, {"is_reserved": 0, "type": "electric_scooter", "fusion_lat": 0.0, "is_disabled": 0, "rental_uris": {"ios": "https://dc.lft.to/lastmile_qr_scan", "android": "https://dc.lft.to/lastmile_qr_scan"}, "bike_id": "feb7fb6b12fb55f2af5d7b8878c63b19", "lat": 38.910528, "name": "feb7fb6b12fb55f2af5d7b8878c63b19", "lon": -77.04361133333333, "fusion_lon": 0.0}, {"is_reserved": 0, "type": "electric_scooter", "fusion_lat": 0.0, "is_disabled": 0, "rental_uris": {"ios": "https://dc.lft.to/lastmile_qr_scan", "android": "https://dc.lft.to/lastmile_qr_scan"}, "bike_id": "1abd55b9527c2a52d69275f0e8f6c51e", "lat": 38.91908033333333, "name": "1abd55b9527c2a52d69275f0e8f6c51e", "lon": -77.01168316666667, "fusion_lon": 0.0}, {"is_reserved": 0, "type": "electric_scooter", "fusion_lat": 0.0, "is_disabled": 0, "rental_uris": {"ios": "https://dc.lft.to/lastmile_qr_scan", "android": "https://dc.lft.to/lastmile_qr_scan"}, "bike_id": "af540e66b0996f995ec12db0fd45f8c7", "lat": 38.919250166666664, "name": "af540e66b0996f995ec12db0fd45f8c7", "lon": -77.00975233333334, "fusion_lon": 0.0}, {"is_reserved": 0, "type": "electric_scooter", "fusion_lat": 0.0, "is_disabled": 0, "rental_uris": {"ios": "https://dc.lft.to/lastmile_qr_scan", "android": "https://dc.lft.to/lastmile_qr_scan"}, "bike_id": "60125886f5c9914c7f7d212dfe65c559", "lat": 38.918033, "name": "60125886f5c9914c7f7d212dfe65c559", "lon": -77.03442566666666, "fusion_lon": 0.0}, {"is_reserved": 0, "type": "electric_scooter", "fusion_lat": 0.0, "is_disabled": 0, "rental_uris": {"ios": "https://dc.lft.to/lastmile_qr_scan", "android": "https://dc.lft.to/lastmile_qr_scan"}, "bike_id": "1068998cdfa5b9c51160dabfa443beb8", "lat": 38.898541333333334, "name": "1068998cdfa5b9c51160dabfa443beb8", "lon": -77.03342766666667, "fusion_lon": 0.0}, {"is_reserved": 0, "type": "electric_scooter", "fusion_lat": 0.0, "is_disabled": 0, "rental_uris": {"ios": "https://dc.lft.to/lastmile_qr_scan", "android": "https://dc.lft.to/lastmile_qr_scan"}, "bike_id": "686a746102cd19cad2e9040e4e38f0d1", "lat": 38.90454016666666, "name": "686a746102cd19cad2e9040e4e38f0d1", "lon": -77.01878616666667, "fusion_lon": 0.0}, {"is_reserved": 0, "type": "electric_scooter", "fusion_lat": 0.0, "is_disabled": 0, "rental_uris": {"ios": "https://dc.lft.to/lastmile_qr_scan", "android": "https://dc.lft.to/lastmile_qr_scan"}, "bike_id": "3cdcbc574230184d8bf7fd3f46101de2", "lat": 38.900679, "name": "3cdcbc574230184d8bf7fd3f46101de2", "lon": -77.01801433333333, "fusion_lon": 0.0}, {"is_reserved": 0, "type": "electric_scooter", "fusion_lat": 0.0, "is_disabled": 0, "rental_uris": {"ios": "https://dc.lft.to/lastmile_qr_scan", "android": "https://dc.lft.to/lastmile_qr_scan"}, "bike_id": "7449f4557cdc6d63d2da4c13e839a9c9", "lat": 38.903238333333334, "name": "7449f4557cdc6d63d2da4c13e839a9c9", "lon": -77.02132766666666, "fusion_lon": 0.0}, {"is_reserved": 0, "type": "electric_scooter", "fusion_lat": 0.0, "is_disabled": 0, "rental_uris": {"ios": "https://dc.lft.to/lastmile_qr_scan", "android": "https://dc.lft.to/lastmile_qr_scan"}, "bike_id": "b5877cfb2fded0e1b77e4b5d8ccfebed", "lat": 38.943147833333335, "name": "b5877cfb2fded0e1b77e4b5d8ccfebed", "lon": -77.0172445, "fusion_lon": 0.0}, {"is_reserved": 0, "type": "electric_scooter", "fusion_lat": 0.0, "is_disabled": 0, "rental_uris": {"ios": "https://dc.lft.to/lastmile_qr_scan", "android": "https://dc.lft.to/lastmile_qr_scan"}, "bike_id": "8cd1ab4b5c96521ee682062a9397eb5c", "lat": 38.897566, "name": "8cd1ab4b5c96521ee682062a9397eb5c", "lon": -77.0095155, "fusion_lon": 0.0}, {"is_reserved": 0, "type": "electric_scooter", "fusion_lat": 0.0, "is_disabled": 0, "rental_uris": {"ios": "https://dc.lft.to/lastmile_qr_scan", "android": "https://dc.lft.to/lastmile_qr_scan"}, "bike_id": "ea16e6bce3e963604cac9959f72b342f", "lat": 38.928254, "name": "ea16e6bce3e963604cac9959f72b342f", "lon": -77.0226265, "fusion_lon": 0.0}, {"is_reserved": 0, "type": "electric_scooter", "fusion_lat": 0.0, "is_disabled": 0, "rental_uris": {"ios": "https://dc.lft.to/lastmile_qr_scan", "android": "https://dc.lft.to/lastmile_qr_scan"}, "bike_id": "3fa929564888ee204bc33821011df642", "lat": 38.936471166666664, "name": "3fa929564888ee204bc33821011df642", "lon": -77.036381, "fusion_lon": 0.0}, {"is_reserved": 0, "type": "electric_scooter", "fusion_lat": 0.0, "is_disabled": 0, "rental_uris": {"ios": "https://dc.lft.to/lastmile_qr_scan", "android": "https://dc.lft.to/lastmile_qr_scan"}, "bike_id": "a9ad4bf7c733bae99244422ff31ca1e7", "lat": 38.91012, "name": "a9ad4bf7c733bae99244422ff31ca1e7", "lon": -76.99390933333333, "fusion_lon": 0.0}, {"is_reserved": 0, "type": "electric_scooter", "fusion_lat": 0.0, "is_disabled": 0, "rental_uris": {"ios": "https://dc.lft.to/lastmile_qr_scan", "android": "https://dc.lft.to/lastmile_qr_scan"}, "bike_id": "b4d191ac3c60107d4ce08ab433b52d7f", "lat": 38.91334666666667, "name": "b4d191ac3c60107d4ce08ab433b52d7f", "lon": -77.030447, "fusion_lon": 0.0}, {"is_reserved": 0, "type": "electric_scooter", "fusion_lat": 0.0, "is_disabled": 0, "rental_uris": {"ios": "https://dc.lft.to/lastmile_qr_scan", "android": "https://dc.lft.to/lastmile_qr_scan"}, "bike_id": "1a263ea52fa9fedf1046525426a38b06", "lat": 38.92072683333333, "name": "1a263ea52fa9fedf1046525426a38b06", "lon": -77.02402866666667, "fusion_lon": 0.0}, {"is_reserved": 0, "type": "electric_scooter", "fusion_lat": 0.0, "is_disabled": 0, "rental_uris": {"ios": "https://dc.lft.to/lastmile_qr_scan", "android": "https://dc.lft.to/lastmile_qr_scan"}, "bike_id": "c12e40f7f0f7d0086b061bceb6797e45", "lat": 38.92071966666666, "name": "c12e40f7f0f7d0086b061bceb6797e45", "lon": -77.024158, "fusion_lon": 0.0}, {"is_reserved": 0, "type": "electric_scooter", "fusion_lat": 0.0, "is_disabled": 0, "rental_uris": {"ios": "https://dc.lft.to/lastmile_qr_scan", "android": "https://dc.lft.to/lastmile_qr_scan"}, "bike_id": "6edba9511fd4c159863de081b37dba81", "lat": 38.92891216666666, "name": "6edba9511fd4c159863de081b37dba81", "lon": -77.0324355, "fusion_lon": 0.0}, {"is_reserved": 0, "type": "electric_scooter", "fusion_lat": 0.0, "is_disabled": 0, "rental_uris": {"ios": "https://dc.lft.to/lastmile_qr_scan", "android": "https://dc.lft.to/lastmile_qr_scan"}, "bike_id": "b97abcd81dea376fb0488b1c940ddff1", "lat": 38.929725833333336, "name": "b97abcd81dea376fb0488b1c940ddff1", "lon": -77.02790366666666, "fusion_lon": 0.0}, {"is_reserved": 0, "type": "electric_scooter", "fusion_lat": 0.0, "is_disabled": 0, "rental_uris": {"ios": "https://dc.lft.to/lastmile_qr_scan", "android": "https://dc.lft.to/lastmile_qr_scan"}, "bike_id": "7579559072d4d73af79f0a0eeca94404", "lat": 38.92058866666667, "name": "7579559072d4d73af79f0a0eeca94404", "lon": -77.0251295, "fusion_lon": 0.0}, {"is_reserved": 0, "type": "electric_scooter", "fusion_lat": 0.0, "is_disabled": 0, "rental_uris": {"ios": "https://dc.lft.to/lastmile_qr_scan", "android": "https://dc.lft.to/lastmile_qr_scan"}, "bike_id": "7f697f0a8022bafbfd395a7d712b6448", "lat": 38.923849833333335, "name": "7f697f0a8022bafbfd395a7d712b6448", "lon": -77.0308495, "fusion_lon": 0.0}, {"is_reserved": 0, "type": "electric_scooter", "fusion_lat": 0.0, "is_disabled": 0, "rental_uris": {"ios": "https://dc.lft.to/lastmile_qr_scan", "android": "https://dc.lft.to/lastmile_qr_scan"}, "bike_id": "48005b3b588b46f2c774d082e2e70479", "lat": 38.899587833333335, "name": "48005b3b588b46f2c774d082e2e70479", "lon": -77.01442083333333, "fusion_lon": 0.0}, {"is_reserved": 0, "type": "electric_scooter", "fusion_lat": 0.0, "is_disabled": 0, "rental_uris": {"ios": "https://dc.lft.to/lastmile_qr_scan", "android": "https://dc.lft.to/lastmile_qr_scan"}, "bike_id": "521a2b880be93d370c9bb97b26c7af0a", "lat": 38.9197785, "name": "521a2b880be93d370c9bb97b26c7af0a", "lon": -77.02373783333333, "fusion_lon": 0.0}, {"is_reserved": 0, "type": "electric_scooter", "fusion_lat": 0.0, "is_disabled": 0, "rental_uris": {"ios": "https://dc.lft.to/lastmile_qr_scan", "android": "https://dc.lft.to/lastmile_qr_scan"}, "bike_id": "074f957c2a75b7c9c7fb63d1e58f0852", "lat": 38.926532, "name": "074f957c2a75b7c9c7fb63d1e58f0852", "lon": -77.0243615, "fusion_lon": 0.0}, {"is_reserved": 0, "type": "electric_scooter", "fusion_lat": 0.0, "is_disabled": 0, "rental_uris": {"ios": "https://dc.lft.to/lastmile_qr_scan", "android": "https://dc.lft.to/lastmile_qr_scan"}, "bike_id": "dbac3604c73fb2786d2827eaf8e4a1ee", "lat": 38.91623516666667, "name": "dbac3604c73fb2786d2827eaf8e4a1ee", "lon": -77.02958966666667, "fusion_lon": 0.0}, {"is_reserved": 0, "type": "electric_scooter", "fusion_lat": 0.0, "is_disabled": 0, "rental_uris": {"ios": "https://dc.lft.to/lastmile_qr_scan", "android": "https://dc.lft.to/lastmile_qr_scan"}, "bike_id": "9c8b89b3021364531bf2d002f019501b", "lat": 38.9205065, "name": "9c8b89b3021364531bf2d002f019501b", "lon": -77.04046316666667, "fusion_lon": 0.0}, {"is_reserved": 0, "type": "electric_scooter", "fusion_lat": 0.0, "is_disabled": 0, "rental_uris": {"ios": "https://dc.lft.to/lastmile_qr_scan", "android": "https://dc.lft.to/lastmile_qr_scan"}, "bike_id": "8a69e0e4340698fb150815efbd9b8ae3", "lat": 38.9365905, "name": "8a69e0e4340698fb150815efbd9b8ae3", "lon": -77.066126, "fusion_lon": 0.0}, {"is_reserved": 0, "type": "electric_scooter", "fusion_lat": 0.0, "is_disabled": 0, "rental_uris": {"ios": "https://dc.lft.to/lastmile_qr_scan", "android": "https://dc.lft.to/lastmile_qr_scan"}, "bike_id": "b9f65013046835add0842ea4a8c0cc6c", "lat": 38.887114333333336, "name": "b9f65013046835add0842ea4a8c0cc6c", "lon": -76.98381966666666, "fusion_lon": 0.0}, {"is_reserved": 0, "type": "electric_scooter", "fusion_lat": 0.0, "is_disabled": 0, "rental_uris": {"ios": "https://dc.lft.to/lastmile_qr_scan", "android": "https://dc.lft.to/lastmile_qr_scan"}, "bike_id": "f4a037172410b6b41db95d4c7f4a1f62", "lat": 38.9068745, "name": "f4a037172410b6b41db95d4c7f4a1f62", "lon": -77.01017, "fusion_lon": 0.0}, {"is_reserved": 0, "type": "electric_scooter", "fusion_lat": 0.0, "is_disabled": 0, "rental_uris": {"ios": "https://dc.lft.to/lastmile_qr_scan", "android": "https://dc.lft.to/lastmile_qr_scan"}, "bike_id": "5ea0632c2ff0de7aa9d7a9c77af27f14", "lat": 38.93006366666667, "name": "5ea0632c2ff0de7aa9d7a9c77af27f14", "lon": -77.03782983333333, "fusion_lon": 0.0}, {"is_reserved": 0, "type": "electric_scooter", "fusion_lat": 0.0, "is_disabled": 0, "rental_uris": {"ios": "https://dc.lft.to/lastmile_qr_scan", "android": "https://dc.lft.to/lastmile_qr_scan"}, "bike_id": "9c25000f393abf6ecf508f87db67d380", "lat": 38.925504, "name": "9c25000f393abf6ecf508f87db67d380", "lon": -77.0032515, "fusion_lon": 0.0}, {"is_reserved": 0, "type": "electric_scooter", "fusion_lat": 0.0, "is_disabled": 0, "rental_uris": {"ios": "https://dc.lft.to/lastmile_qr_scan", "android": "https://dc.lft.to/lastmile_qr_scan"}, "bike_id": "2965637eb26af1cbf888bf0961271b19", "lat": 38.907795166666666, "name": "2965637eb26af1cbf888bf0961271b19", "lon": -77.07251083333334, "fusion_lon": 0.0}, {"is_reserved": 0, "type": "electric_scooter", "fusion_lat": 0.0, "is_disabled": 0, "rental_uris": {"ios": "https://dc.lft.to/lastmile_qr_scan", "android": "https://dc.lft.to/lastmile_qr_scan"}, "bike_id": "4ab787314c348719d26e20c80f582c41", "lat": 38.90271366666666, "name": "4ab787314c348719d26e20c80f582c41", "lon": -77.02013283333334, "fusion_lon": 0.0}, {"is_reserved": 0, "type": "electric_scooter", "fusion_lat": 0.0, "is_disabled": 0, "rental_uris": {"ios": "https://dc.lft.to/lastmile_qr_scan", "android": "https://dc.lft.to/lastmile_qr_scan"}, "bike_id": "09e952b23fe0fd9e0eab05dde7ba7702", "lat": 38.900178833333335, "name": "09e952b23fe0fd9e0eab05dde7ba7702", "lon": -77.03296083333333, "fusion_lon": 0.0}, {"is_reserved": 0, "type": "electric_scooter", "fusion_lat": 0.0, "is_disabled": 0, "rental_uris": {"ios": "https://dc.lft.to/lastmile_qr_scan", "android": "https://dc.lft.to/lastmile_qr_scan"}, "bike_id": "39ec37f68c9838913906dc379b56228b", "lat": 38.9061835, "name": "39ec37f68c9838913906dc379b56228b", "lon": -77.02964883333334, "fusion_lon": 0.0}, {"is_reserved": 0, "type": "electric_scooter", "fusion_lat": 0.0, "is_disabled": 0, "rental_uris": {"ios": "https://dc.lft.to/lastmile_qr_scan", "android": "https://dc.lft.to/lastmile_qr_scan"}, "bike_id": "59ae28a9732641681c540c56420e07bf", "lat": 38.904433166666664, "name": "59ae28a9732641681c540c56420e07bf", "lon": -77.01723616666666, "fusion_lon": 0.0}, {"is_reserved": 0, "type": "electric_scooter", "fusion_lat": 0.0, "is_disabled": 0, "rental_uris": {"ios": "https://dc.lft.to/lastmile_qr_scan", "android": "https://dc.lft.to/lastmile_qr_scan"}, "bike_id": "58ddc9097cad73799ae8a6755af18775", "lat": 38.894154, "name": "58ddc9097cad73799ae8a6755af18775", "lon": -77.01086833333333, "fusion_lon": 0.0}, {"is_reserved": 0, "type": "electric_scooter", "fusion_lat": 0.0, "is_disabled": 0, "rental_uris": {"ios": "https://dc.lft.to/lastmile_qr_scan", "android": "https://dc.lft.to/lastmile_qr_scan"}, "bike_id": "ada7d87506054ae2b78fa0d30ef55a3a", "lat": 38.92368533333333, "name": "ada7d87506054ae2b78fa0d30ef55a3a", "lon": -77.03131816666667, "fusion_lon": 0.0}, {"is_reserved": 0, "type": "electric_scooter", "fusion_lat": 0.0, "is_disabled": 0, "rental_uris": {"ios": "https://dc.lft.to/lastmile_qr_scan", "android": "https://dc.lft.to/lastmile_qr_scan"}, "bike_id": "cf922f02ed89950f99184572fd10e26a", "lat": 38.92232583333333, "name": "cf922f02ed89950f99184572fd10e26a", "lon": -76.98846933333333, "fusion_lon": 0.0}, {"is_reserved": 0, "type": "electric_scooter", "fusion_lat": 0.0, "is_disabled": 0, "rental_uris": {"ios": "https://dc.lft.to/lastmile_qr_scan", "android": "https://dc.lft.to/lastmile_qr_scan"}, "bike_id": "25878997ac1e821ff77e7e26ef5f0923", "lat": 38.905302166666665, "name": "25878997ac1e821ff77e7e26ef5f0923", "lon": -77.00698266666667, "fusion_lon": 0.0}, {"is_reserved": 0, "type": "electric_scooter", "fusion_lat": 0.0, "is_disabled": 0, "rental_uris": {"ios": "https://dc.lft.to/lastmile_qr_scan", "android": "https://dc.lft.to/lastmile_qr_scan"}, "bike_id": "9abd66bbd834bc8cf665ea22ce7abd8f", "lat": 38.91963616666666, "name": "9abd66bbd834bc8cf665ea22ce7abd8f", "lon": -77.03218733333334, "fusion_lon": 0.0}, {"is_reserved": 0, "type": "electric_scooter", "fusion_lat": 0.0, "is_disabled": 0, "rental_uris": {"ios": "https://dc.lft.to/lastmile_qr_scan", "android": "https://dc.lft.to/lastmile_qr_scan"}, "bike_id": "acbed35447a8097710cc59e1b51696e1", "lat": 38.92480466666667, "name": "acbed35447a8097710cc59e1b51696e1", "lon": -77.02630666666667, "fusion_lon": 0.0}, {"is_reserved": 0, "type": "electric_scooter", "fusion_lat": 0.0, "is_disabled": 0, "rental_uris": {"ios": "https://dc.lft.to/lastmile_qr_scan", "android": "https://dc.lft.to/lastmile_qr_scan"}, "bike_id": "dba568f1954f655d552fc26a9a9b9413", "lat": 38.905931, "name": "dba568f1954f655d552fc26a9a9b9413", "lon": -77.07270583333333, "fusion_lon": 0.0}, {"is_reserved": 0, "type": "electric_bike", "fusion_lat": 0.0, "is_disabled": 0, "rental_uris": {"ios": "https://dc.lft.to/lastmile_qr_scan", "android": "https://dc.lft.to/lastmile_qr_scan"}, "bike_id": "ece69e3dcb3960c2904fc5b2212c4efe", "lat": 38.927971, "name": "ece69e3dcb3960c2904fc5b2212c4efe", "lon": -77.22940866666667, "fusion_lon": 0.0}, {"is_reserved": 0, "type": "electric_scooter", "fusion_lat": 0.0, "is_disabled": 0, "rental_uris": {"ios": "https://dc.lft.to/lastmile_qr_scan", "android": "https://dc.lft.to/lastmile_qr_scan"}, "bike_id": "15b745fa785bbb364f81faf5be96a366", "lat": 38.92755016666667, "name": "15b745fa785bbb364f81faf5be96a366", "lon": -77.03271716666667, "fusion_lon": 0.0}, {"is_reserved": 0, "type": "electric_scooter", "fusion_lat": 0.0, "is_disabled": 0, "rental_uris": {"ios": "https://dc.lft.to/lastmile_qr_scan", "android": "https://dc.lft.to/lastmile_qr_scan"}, "bike_id": "3382681c34150d2b50a0c38b1fee7a2b", "lat": 38.8853905, "name": "3382681c34150d2b50a0c38b1fee7a2b", "lon": -76.9854045, "fusion_lon": 0.0}, {"is_reserved": 0, "type": "electric_bike", "fusion_lat": 0.0, "is_disabled": 0, "rental_uris": {"ios": "https://dc.lft.to/lastmile_qr_scan", "android": "https://dc.lft.to/lastmile_qr_scan"}, "bike_id": "c1ac90c9ada95166209d54050f9a41df", "lat": 38.83415433333333, "name": "c1ac90c9ada95166209d54050f9a41df", "lon": -77.05022716666667, "fusion_lon": 0.0}, {"is_reserved": 0, "type": "electric_scooter", "fusion_lat": 0.0, "is_disabled": 0, "rental_uris": {"ios": "https://dc.lft.to/lastmile_qr_scan", "android": "https://dc.lft.to/lastmile_qr_scan"}, "bike_id": "eb6cbbb22012a671b5d83b4611f84d73", "lat": 38.947284833333335, "name": "eb6cbbb22012a671b5d83b4611f84d73", "lon": -77.0266825, "fusion_lon": 0.0}, {"is_reserved": 0, "type": "electric_scooter", "fusion_lat": 0.0, "is_disabled": 0, "rental_uris": {"ios": "https://dc.lft.to/lastmile_qr_scan", "android": "https://dc.lft.to/lastmile_qr_scan"}, "bike_id": "d4d29cc3bbd37a172bddf1b1c707b791", "lat": 38.916979, "name": "d4d29cc3bbd37a172bddf1b1c707b791", "lon": -77.05304883333334, "fusion_lon": 0.0}, {"is_reserved": 0, "type": "electric_scooter", "fusion_lat": 0.0, "is_disabled": 0, "rental_uris": {"ios": "https://dc.lft.to/lastmile_qr_scan", "android": "https://dc.lft.to/lastmile_qr_scan"}, "bike_id": "939629d33007f49ec2c5260cf3bb98ba", "lat": 38.917725, "name": "939629d33007f49ec2c5260cf3bb98ba", "lon": -77.01494933333333, "fusion_lon": 0.0}, {"is_reserved": 0, "type": "electric_scooter", "fusion_lat": 0.0, "is_disabled": 0, "rental_uris": {"ios": "https://dc.lft.to/lastmile_qr_scan", "android": "https://dc.lft.to/lastmile_qr_scan"}, "bike_id": "fccac5646b95f816c6150ccb0043939c", "lat": 38.9001195, "name": "fccac5646b95f816c6150ccb0043939c", "lon": -77.04362233333333, "fusion_lon": 0.0}, {"is_reserved": 0, "type": "electric_scooter", "fusion_lat": 0.0, "is_disabled": 0, "rental_uris": {"ios": "https://dc.lft.to/lastmile_qr_scan", "android": "https://dc.lft.to/lastmile_qr_scan"}, "bike_id": "ae240302c0ba6e9733fbbc20f2bae6da", "lat": 38.89880333333333, "name": "ae240302c0ba6e9733fbbc20f2bae6da", "lon": -76.93177633333333, "fusion_lon": 0.0}, {"is_reserved": 0, "type": "electric_scooter", "fusion_lat": 0.0, "is_disabled": 0, "rental_uris": {"ios": "https://dc.lft.to/lastmile_qr_scan", "android": "https://dc.lft.to/lastmile_qr_scan"}, "bike_id": "f369a05fb4d31f1c6a35a429a85e93d6", "lat": 38.921738500000004, "name": "f369a05fb4d31f1c6a35a429a85e93d6", "lon": -77.0212445, "fusion_lon": 0.0}, {"is_reserved": 0, "type": "electric_scooter", "fusion_lat": 0.0, "is_disabled": 0, "rental_uris": {"ios": "https://dc.lft.to/lastmile_qr_scan", "android": "https://dc.lft.to/lastmile_qr_scan"}, "bike_id": "fd93e5208c40c605ff2d17ce28340d49", "lat": 38.91021966666667, "name": "fd93e5208c40c605ff2d17ce28340d49", "lon": -77.01991316666667, "fusion_lon": 0.0}, {"is_reserved": 0, "type": "electric_scooter", "fusion_lat": 0.0, "is_disabled": 0, "rental_uris": {"ios": "https://dc.lft.to/lastmile_qr_scan", "android": "https://dc.lft.to/lastmile_qr_scan"}, "bike_id": "4f82cb2377df9692f9108841f8d0630a", "lat": 38.90315416666667, "name": "4f82cb2377df9692f9108841f8d0630a", "lon": -76.9912535, "fusion_lon": 0.0}, {"is_reserved": 0, "type": "electric_scooter", "fusion_lat": 0.0, "is_disabled": 0, "rental_uris": {"ios": "https://dc.lft.to/lastmile_qr_scan", "android": "https://dc.lft.to/lastmile_qr_scan"}, "bike_id": "ae4c5287324953859d3b4058d42ea46d", "lat": 38.96427416666667, "name": "ae4c5287324953859d3b4058d42ea46d", "lon": -77.07433016666667, "fusion_lon": 0.0}, {"is_reserved": 0, "type": "electric_scooter", "fusion_lat": 0.0, "is_disabled": 0, "rental_uris": {"ios": "https://dc.lft.to/lastmile_qr_scan", "android": "https://dc.lft.to/lastmile_qr_scan"}, "bike_id": "e95cb06affeb522963d7afa22acf6d58", "lat": 38.902012, "name": "e95cb06affeb522963d7afa22acf6d58", "lon": -77.02203616666667, "fusion_lon": 0.0}, {"is_reserved": 0, "type": "electric_scooter", "fusion_lat": 0.0, "is_disabled": 0, "rental_uris": {"ios": "https://dc.lft.to/lastmile_qr_scan", "android": "https://dc.lft.to/lastmile_qr_scan"}, "bike_id": "0cad0d56b5f1cb4eebd0b522b4dfb48e", "lat": 38.928830833333336, "name": "0cad0d56b5f1cb4eebd0b522b4dfb48e", "lon": -77.03239933333333, "fusion_lon": 0.0}, {"is_reserved": 0, "type": "electric_scooter", "fusion_lat": 0.0, "is_disabled": 0, "rental_uris": {"ios": "https://dc.lft.to/lastmile_qr_scan", "android": "https://dc.lft.to/lastmile_qr_scan"}, "bike_id": "03077d485910ca5a4205524dfe20dc0c", "lat": 38.9356, "name": "03077d485910ca5a4205524dfe20dc0c", "lon": -77.07331566666667, "fusion_lon": 0.0}, {"is_reserved": 0, "type": "electric_scooter", "fusion_lat": 0.0, "is_disabled": 0, "rental_uris": {"ios": "https://dc.lft.to/lastmile_qr_scan", "android": "https://dc.lft.to/lastmile_qr_scan"}, "bike_id": "eb5a5823e3e03ee3b463be65556fe0db", "lat": 38.85718966666666, "name": "eb5a5823e3e03ee3b463be65556fe0db", "lon": -76.980998, "fusion_lon": 0.0}, {"is_reserved": 0, "type": "electric_scooter", "fusion_lat": 0.0, "is_disabled": 0, "rental_uris": {"ios": "https://dc.lft.to/lastmile_qr_scan", "android": "https://dc.lft.to/lastmile_qr_scan"}, "bike_id": "acbe76e5d3c3781664d05c6ddb32db1c", "lat": 38.899455, "name": "acbe76e5d3c3781664d05c6ddb32db1c", "lon": -76.93764966666667, "fusion_lon": 0.0}, {"is_reserved": 0, "type": "electric_scooter", "fusion_lat": 0.0, "is_disabled": 0, "rental_uris": {"ios": "https://dc.lft.to/lastmile_qr_scan", "android": "https://dc.lft.to/lastmile_qr_scan"}, "bike_id": "e4a04e5e7d2d5b4cc0e05114760fa04f", "lat": 38.874007166666665, "name": "e4a04e5e7d2d5b4cc0e05114760fa04f", "lon": -77.000061, "fusion_lon": 0.0}, {"is_reserved": 0, "type": "electric_scooter", "fusion_lat": 0.0, "is_disabled": 0, "rental_uris": {"ios": "https://dc.lft.to/lastmile_qr_scan", "android": "https://dc.lft.to/lastmile_qr_scan"}, "bike_id": "83a01b01cdbd84085b1f39d9c3361a71", "lat": 38.910083, "name": "83a01b01cdbd84085b1f39d9c3361a71", "lon": -77.04425333333333, "fusion_lon": 0.0}, {"is_reserved": 0, "type": "electric_bike", "fusion_lat": 0.0, "is_disabled": 0, "rental_uris": {"ios": "https://dc.lft.to/lastmile_qr_scan", "android": "https://dc.lft.to/lastmile_qr_scan"}, "bike_id": "1f6cca81435819e6790b8b1e0a561745", "lat": 39.034742666666666, "name": "1f6cca81435819e6790b8b1e0a561745", "lon": -77.041016, "fusion_lon": 0.0}, {"is_reserved": 0, "type": "electric_scooter", "fusion_lat": 0.0, "is_disabled": 0, "rental_uris": {"ios": "https://dc.lft.to/lastmile_qr_scan", "android": "https://dc.lft.to/lastmile_qr_scan"}, "bike_id": "63df025167452622c4159475dc935a7e", "lat": 38.90767983333333, "name": "63df025167452622c4159475dc935a7e", "lon": -77.024016, "fusion_lon": 0.0}, {"is_reserved": 0, "type": "electric_scooter", "fusion_lat": 0.0, "is_disabled": 0, "rental_uris": {"ios": "https://dc.lft.to/lastmile_qr_scan", "android": "https://dc.lft.to/lastmile_qr_scan"}, "bike_id": "5ea80f6287fcca302153488df3e616aa", "lat": 38.903011, "name": "5ea80f6287fcca302153488df3e616aa", "lon": -76.99842766666667, "fusion_lon": 0.0}, {"is_reserved": 0, "type": "electric_scooter", "fusion_lat": 0.0, "is_disabled": 0, "rental_uris": {"ios": "https://dc.lft.to/lastmile_qr_scan", "android": "https://dc.lft.to/lastmile_qr_scan"}, "bike_id": "47eb01fbf18e377db08adc2f8204167e", "lat": 38.92070016666667, "name": "47eb01fbf18e377db08adc2f8204167e", "lon": -77.043798, "fusion_lon": 0.0}, {"is_reserved": 0, "type": "electric_scooter", "fusion_lat": 0.0, "is_disabled": 0, "rental_uris": {"ios": "https://dc.lft.to/lastmile_qr_scan", "android": "https://dc.lft.to/lastmile_qr_scan"}, "bike_id": "86bcea14ab3b0411cb5d1276aa6976ee", "lat": 38.92482716666667, "name": "86bcea14ab3b0411cb5d1276aa6976ee", "lon": -77.02548416666667, "fusion_lon": 0.0}, {"is_reserved": 0, "type": "electric_scooter", "fusion_lat": 0.0, "is_disabled": 0, "rental_uris": {"ios": "https://dc.lft.to/lastmile_qr_scan", "android": "https://dc.lft.to/lastmile_qr_scan"}, "bike_id": "df9c12520328004f24566336c2e9c4bb", "lat": 38.89509266666666, "name": "df9c12520328004f24566336c2e9c4bb", "lon": -76.9488325, "fusion_lon": 0.0}, {"is_reserved": 0, "type": "electric_scooter", "fusion_lat": 0.0, "is_disabled": 0, "rental_uris": {"ios": "https://dc.lft.to/lastmile_qr_scan", "android": "https://dc.lft.to/lastmile_qr_scan"}, "bike_id": "48ff0ab46404fde0a51650827fa722ca", "lat": 38.8800795, "name": "48ff0ab46404fde0a51650827fa722ca", "lon": -76.99835866666666, "fusion_lon": 0.0}, {"is_reserved": 0, "type": "electric_scooter", "fusion_lat": 0.0, "is_disabled": 0, "rental_uris": {"ios": "https://dc.lft.to/lastmile_qr_scan", "android": "https://dc.lft.to/lastmile_qr_scan"}, "bike_id": "7b043ededbba76459fc1afb170f09243", "lat": 38.903633, "name": "7b043ededbba76459fc1afb170f09243", "lon": -76.97814716666667, "fusion_lon": 0.0}, {"is_reserved": 0, "type": "electric_scooter", "fusion_lat": 0.0, "is_disabled": 0, "rental_uris": {"ios": "https://dc.lft.to/lastmile_qr_scan", "android": "https://dc.lft.to/lastmile_qr_scan"}, "bike_id": "925d3f3d6e845afe87428d45ece97c1b", "lat": 38.94010883333333, "name": "925d3f3d6e845afe87428d45ece97c1b", "lon": -77.07735533333333, "fusion_lon": 0.0}, {"is_reserved": 0, "type": "electric_scooter", "fusion_lat": 0.0, "is_disabled": 0, "rental_uris": {"ios": "https://dc.lft.to/lastmile_qr_scan", "android": "https://dc.lft.to/lastmile_qr_scan"}, "bike_id": "4e56a9ebbfc04f56eec402fa0917b893", "lat": 38.95224416666667, "name": "4e56a9ebbfc04f56eec402fa0917b893", "lon": -77.06892166666667, "fusion_lon": 0.0}, {"is_reserved": 0, "type": "electric_scooter", "fusion_lat": 0.0, "is_disabled": 0, "rental_uris": {"ios": "https://dc.lft.to/lastmile_qr_scan", "android": "https://dc.lft.to/lastmile_qr_scan"}, "bike_id": "fc86f3d65240157e618cc9e3032b063f", "lat": 38.930047, "name": "fc86f3d65240157e618cc9e3032b063f", "lon": -77.0211715, "fusion_lon": 0.0}, {"is_reserved": 0, "type": "electric_scooter", "fusion_lat": 0.0, "is_disabled": 0, "rental_uris": {"ios": "https://dc.lft.to/lastmile_qr_scan", "android": "https://dc.lft.to/lastmile_qr_scan"}, "bike_id": "54ce9d70369f709d545ce23cfbdc2763", "lat": 38.928390666666665, "name": "54ce9d70369f709d545ce23cfbdc2763", "lon": -77.01390133333334, "fusion_lon": 0.0}, {"is_reserved": 0, "type": "electric_scooter", "fusion_lat": 0.0, "is_disabled": 0, "rental_uris": {"ios": "https://dc.lft.to/lastmile_qr_scan", "android": "https://dc.lft.to/lastmile_qr_scan"}, "bike_id": "04c41947cb91c0a2be1dcc574a8186d0", "lat": 38.87886916666667, "name": "04c41947cb91c0a2be1dcc574a8186d0", "lon": -76.96544416666667, "fusion_lon": 0.0}, {"is_reserved": 0, "type": "electric_scooter", "fusion_lat": 0.0, "is_disabled": 0, "rental_uris": {"ios": "https://dc.lft.to/lastmile_qr_scan", "android": "https://dc.lft.to/lastmile_qr_scan"}, "bike_id": "db745061414a6e30c8a58d0695b9df60", "lat": 38.901850833333334, "name": "db745061414a6e30c8a58d0695b9df60", "lon": -76.97673283333333, "fusion_lon": 0.0}, {"is_reserved": 0, "type": "electric_scooter", "fusion_lat": 0.0, "is_disabled": 0, "rental_uris": {"ios": "https://dc.lft.to/lastmile_qr_scan", "android": "https://dc.lft.to/lastmile_qr_scan"}, "bike_id": "11d3d79b4e1f802cbcb6c95f97533a0f", "lat": 38.931056, "name": "11d3d79b4e1f802cbcb6c95f97533a0f", "lon": -77.02476416666667, "fusion_lon": 0.0}, {"is_reserved": 0, "type": "electric_scooter", "fusion_lat": 0.0, "is_disabled": 0, "rental_uris": {"ios": "https://dc.lft.to/lastmile_qr_scan", "android": "https://dc.lft.to/lastmile_qr_scan"}, "bike_id": "2cfe463ebfe3e373ab3bed850ec242b6", "lat": 38.88175866666667, "name": "2cfe463ebfe3e373ab3bed850ec242b6", "lon": -76.92546566666667, "fusion_lon": 0.0}, {"is_reserved": 0, "type": "electric_bike", "fusion_lat": 0.0, "is_disabled": 0, "rental_uris": {"ios": "https://dc.lft.to/lastmile_qr_scan", "android": "https://dc.lft.to/lastmile_qr_scan"}, "bike_id": "f2ebe97f554966249b01379ae69f6ad8", "lat": 38.844757333333334, "name": "f2ebe97f554966249b01379ae69f6ad8", "lon": -76.995948, "fusion_lon": 0.0}, {"is_reserved": 0, "type": "electric_bike", "fusion_lat": 0.0, "is_disabled": 0, "rental_uris": {"ios": "https://dc.lft.to/lastmile_qr_scan", "android": "https://dc.lft.to/lastmile_qr_scan"}, "bike_id": "68c2c03a7b355b3db104fbeaaf448296", "lat": 38.87165916666667, "name": "68c2c03a7b355b3db104fbeaaf448296", "lon": -77.0881635, "fusion_lon": 0.0}, {"is_reserved": 0, "type": "electric_bike", "fusion_lat": 0.0, "is_disabled": 0, "rental_uris": {"ios": "https://dc.lft.to/lastmile_qr_scan", "android": "https://dc.lft.to/lastmile_qr_scan"}, "bike_id": "aaf983bbcc265b115632a8cd2152b0dd", "lat": 38.9113215, "name": "aaf983bbcc265b115632a8cd2152b0dd", "lon": -77.06572883333334, "fusion_lon": 0.0}, {"is_reserved": 0, "type": "electric_scooter", "fusion_lat": 0.0, "is_disabled": 0, "rental_uris": {"ios": "https://dc.lft.to/lastmile_qr_scan", "android": "https://dc.lft.to/lastmile_qr_scan"}, "bike_id": "51bbec8a263b17fe8d07c834dbec7364", "lat": 38.9211065, "name": "51bbec8a263b17fe8d07c834dbec7364", "lon": -77.0456645, "fusion_lon": 0.0}, {"is_reserved": 0, "type": "electric_scooter", "fusion_lat": 0.0, "is_disabled": 0, "rental_uris": {"ios": "https://dc.lft.to/lastmile_qr_scan", "android": "https://dc.lft.to/lastmile_qr_scan"}, "bike_id": "530a74f31b8495b7613052f7e39cada0", "lat": 38.87696733333333, "name": "530a74f31b8495b7613052f7e39cada0", "lon": -76.996179, "fusion_lon": 0.0}, {"is_reserved": 0, "type": "electric_scooter", "fusion_lat": 0.0, "is_disabled": 0, "rental_uris": {"ios": "https://dc.lft.to/lastmile_qr_scan", "android": "https://dc.lft.to/lastmile_qr_scan"}, "bike_id": "bc5ba977b3a88bee279d5c7e54882a0f", "lat": 38.90539916666667, "name": "bc5ba977b3a88bee279d5c7e54882a0f", "lon": -77.05700666666667, "fusion_lon": 0.0}, {"is_reserved": 0, "type": "electric_scooter", "fusion_lat": 0.0, "is_disabled": 0, "rental_uris": {"ios": "https://dc.lft.to/lastmile_qr_scan", "android": "https://dc.lft.to/lastmile_qr_scan"}, "bike_id": "fa341d569459bd184c4aaeb7a6b92502", "lat": 38.9182465, "name": "fa341d569459bd184c4aaeb7a6b92502", "lon": -77.02324066666667, "fusion_lon": 0.0}, {"is_reserved": 0, "type": "electric_scooter", "fusion_lat": 0.0, "is_disabled": 0, "rental_uris": {"ios": "https://dc.lft.to/lastmile_qr_scan", "android": "https://dc.lft.to/lastmile_qr_scan"}, "bike_id": "8bf5848eb0dadcb9b1d6daf0380d067b", "lat": 38.93872733333333, "name": "8bf5848eb0dadcb9b1d6daf0380d067b", "lon": -77.02959583333333, "fusion_lon": 0.0}, {"is_reserved": 0, "type": "electric_scooter", "fusion_lat": 0.0, "is_disabled": 0, "rental_uris": {"ios": "https://dc.lft.to/lastmile_qr_scan", "android": "https://dc.lft.to/lastmile_qr_scan"}, "bike_id": "566acf17c1088527284001b9078a1e58", "lat": 38.94033183333333, "name": "566acf17c1088527284001b9078a1e58", "lon": -77.0839445, "fusion_lon": 0.0}, {"is_reserved": 0, "type": "electric_scooter", "fusion_lat": 0.0, "is_disabled": 0, "rental_uris": {"ios": "https://dc.lft.to/lastmile_qr_scan", "android": "https://dc.lft.to/lastmile_qr_scan"}, "bike_id": "5cf50feea30fb9baed67017d0bc07cd9", "lat": 38.927906, "name": "5cf50feea30fb9baed67017d0bc07cd9", "lon": -77.03627816666666, "fusion_lon": 0.0}, {"is_reserved": 0, "type": "electric_scooter", "fusion_lat": 0.0, "is_disabled": 0, "rental_uris": {"ios": "https://dc.lft.to/lastmile_qr_scan", "android": "https://dc.lft.to/lastmile_qr_scan"}, "bike_id": "30736b09fd8663b54c58a45cdfaa752c", "lat": 38.904022166666664, "name": "30736b09fd8663b54c58a45cdfaa752c", "lon": -77.0356375, "fusion_lon": 0.0}, {"is_reserved": 0, "type": "electric_scooter", "fusion_lat": 0.0, "is_disabled": 0, "rental_uris": {"ios": "https://dc.lft.to/lastmile_qr_scan", "android": "https://dc.lft.to/lastmile_qr_scan"}, "bike_id": "fa3e86626a9bfc134a5a7c980ec7dc1f", "lat": 38.949194, "name": "fa3e86626a9bfc134a5a7c980ec7dc1f", "lon": -77.01858383333334, "fusion_lon": 0.0}, {"is_reserved": 0, "type": "electric_scooter", "fusion_lat": 0.0, "is_disabled": 0, "rental_uris": {"ios": "https://dc.lft.to/lastmile_qr_scan", "android": "https://dc.lft.to/lastmile_qr_scan"}, "bike_id": "96ccf290e0b535376c0793bdab367865", "lat": 38.88611933333333, "name": "96ccf290e0b535376c0793bdab367865", "lon": -77.02205633333334, "fusion_lon": 0.0}, {"is_reserved": 0, "type": "electric_scooter", "fusion_lat": 0.0, "is_disabled": 0, "rental_uris": {"ios": "https://dc.lft.to/lastmile_qr_scan", "android": "https://dc.lft.to/lastmile_qr_scan"}, "bike_id": "339881430f8e9aa3f36bb6783376263b", "lat": 38.90301633333333, "name": "339881430f8e9aa3f36bb6783376263b", "lon": -76.998416, "fusion_lon": 0.0}, {"is_reserved": 0, "type": "electric_scooter", "fusion_lat": 0.0, "is_disabled": 0, "rental_uris": {"ios": "https://dc.lft.to/lastmile_qr_scan", "android": "https://dc.lft.to/lastmile_qr_scan"}, "bike_id": "c988c100138fbfd04b2a5e38cd3d5808", "lat": 38.872885833333335, "name": "c988c100138fbfd04b2a5e38cd3d5808", "lon": -77.00987733333334, "fusion_lon": 0.0}, {"is_reserved": 0, "type": "electric_scooter", "fusion_lat": 0.0, "is_disabled": 0, "rental_uris": {"ios": "https://dc.lft.to/lastmile_qr_scan", "android": "https://dc.lft.to/lastmile_qr_scan"}, "bike_id": "b40def6bb5730c00e55f6d890af174c7", "lat": 38.92161816666667, "name": "b40def6bb5730c00e55f6d890af174c7", "lon": -77.038438, "fusion_lon": 0.0}, {"is_reserved": 0, "type": "electric_scooter", "fusion_lat": 0.0, "is_disabled": 0, "rental_uris": {"ios": "https://dc.lft.to/lastmile_qr_scan", "android": "https://dc.lft.to/lastmile_qr_scan"}, "bike_id": "dfef27503448171e9a442bbdb474aef3", "lat": 38.898466166666665, "name": "dfef27503448171e9a442bbdb474aef3", "lon": -76.99495316666666, "fusion_lon": 0.0}, {"is_reserved": 0, "type": "electric_scooter", "fusion_lat": 0.0, "is_disabled": 0, "rental_uris": {"ios": "https://dc.lft.to/lastmile_qr_scan", "android": "https://dc.lft.to/lastmile_qr_scan"}, "bike_id": "59b9ba0cfdd27ad488abc7fe038b1b50", "lat": 38.917379833333335, "name": "59b9ba0cfdd27ad488abc7fe038b1b50", "lon": -77.06892316666666, "fusion_lon": 0.0}, {"is_reserved": 0, "type": "electric_scooter", "fusion_lat": 0.0, "is_disabled": 0, "rental_uris": {"ios": "https://dc.lft.to/lastmile_qr_scan", "android": "https://dc.lft.to/lastmile_qr_scan"}, "bike_id": "2075c5642f002617d0f306f4237493bc", "lat": 38.88858916666667, "name": "2075c5642f002617d0f306f4237493bc", "lon": -77.04904666666667, "fusion_lon": 0.0}, {"is_reserved": 0, "type": "electric_scooter", "fusion_lat": 0.0, "is_disabled": 0, "rental_uris": {"ios": "https://dc.lft.to/lastmile_qr_scan", "android": "https://dc.lft.to/lastmile_qr_scan"}, "bike_id": "279d3f60bc0a217ae25fdc8f158af533", "lat": 38.905722, "name": "279d3f60bc0a217ae25fdc8f158af533", "lon": -77.02767033333333, "fusion_lon": 0.0}, {"is_reserved": 0, "type": "electric_scooter", "fusion_lat": 0.0, "is_disabled": 0, "rental_uris": {"ios": "https://dc.lft.to/lastmile_qr_scan", "android": "https://dc.lft.to/lastmile_qr_scan"}, "bike_id": "09fc994784bd162e94291efe5a5c27db", "lat": 38.921439166666666, "name": "09fc994784bd162e94291efe5a5c27db", "lon": -77.04588233333334, "fusion_lon": 0.0}, {"is_reserved": 0, "type": "electric_scooter", "fusion_lat": 0.0, "is_disabled": 0, "rental_uris": {"ios": "https://dc.lft.to/lastmile_qr_scan", "android": "https://dc.lft.to/lastmile_qr_scan"}, "bike_id": "936c207eee693f8a78574c61dd633dc1", "lat": 38.896718, "name": "936c207eee693f8a78574c61dd633dc1", "lon": -76.94912466666666, "fusion_lon": 0.0}, {"is_reserved": 0, "type": "electric_bike", "fusion_lat": 0.0, "is_disabled": 0, "rental_uris": {"ios": "https://dc.lft.to/lastmile_qr_scan", "android": "https://dc.lft.to/lastmile_qr_scan"}, "bike_id": "3926235e60ef41ba6b93e36a4ba9b0cf", "lat": 38.904341, "name": "3926235e60ef41ba6b93e36a4ba9b0cf", "lon": -76.972351, "fusion_lon": 0.0}, {"is_reserved": 0, "type": "electric_scooter", "fusion_lat": 0.0, "is_disabled": 0, "rental_uris": {"ios": "https://dc.lft.to/lastmile_qr_scan", "android": "https://dc.lft.to/lastmile_qr_scan"}, "bike_id": "07b9dc450788db9ac079b4722168fb79", "lat": 38.94228666666667, "name": "07b9dc450788db9ac079b4722168fb79", "lon": -77.01437233333333, "fusion_lon": 0.0}, {"is_reserved": 0, "type": "electric_scooter", "fusion_lat": 0.0, "is_disabled": 0, "rental_uris": {"ios": "https://dc.lft.to/lastmile_qr_scan", "android": "https://dc.lft.to/lastmile_qr_scan"}, "bike_id": "6d54eafad947113018113d2ac9f7ce12", "lat": 38.89848083333333, "name": "6d54eafad947113018113d2ac9f7ce12", "lon": -76.92749916666666, "fusion_lon": 0.0}, {"is_reserved": 0, "type": "electric_bike", "fusion_lat": 0.0, "is_disabled": 0, "rental_uris": {"ios": "https://dc.lft.to/lastmile_qr_scan", "android": "https://dc.lft.to/lastmile_qr_scan"}, "bike_id": "44f9574fdb04b1177267fcfafc69b432", "lat": 38.832975, "name": "44f9574fdb04b1177267fcfafc69b432", "lon": -77.08408016666667, "fusion_lon": 0.0}, {"is_reserved": 0, "type": "electric_scooter", "fusion_lat": 0.0, "is_disabled": 0, "rental_uris": {"ios": "https://dc.lft.to/lastmile_qr_scan", "android": "https://dc.lft.to/lastmile_qr_scan"}, "bike_id": "a05e0109d6f11f976284901214cedebc", "lat": 38.934585166666665, "name": "a05e0109d6f11f976284901214cedebc", "lon": -77.02387333333333, "fusion_lon": 0.0}, {"is_reserved": 0, "type": "electric_scooter", "fusion_lat": 0.0, "is_disabled": 0, "rental_uris": {"ios": "https://dc.lft.to/lastmile_qr_scan", "android": "https://dc.lft.to/lastmile_qr_scan"}, "bike_id": "7aa69b2fddb82c2eef1356b8c547ff55", "lat": 38.909698666666664, "name": "7aa69b2fddb82c2eef1356b8c547ff55", "lon": -77.0649445, "fusion_lon": 0.0}, {"is_reserved": 0, "type": "electric_scooter", "fusion_lat": 0.0, "is_disabled": 0, "rental_uris": {"ios": "https://dc.lft.to/lastmile_qr_scan", "android": "https://dc.lft.to/lastmile_qr_scan"}, "bike_id": "c5eb88bb937a5a90343230eb4865aaf1", "lat": 38.8999985, "name": "c5eb88bb937a5a90343230eb4865aaf1", "lon": -77.0527195, "fusion_lon": 0.0}, {"is_reserved": 0, "type": "electric_scooter", "fusion_lat": 0.0, "is_disabled": 0, "rental_uris": {"ios": "https://dc.lft.to/lastmile_qr_scan", "android": "https://dc.lft.to/lastmile_qr_scan"}, "bike_id": "83a02822f61aa8bb8e578e18bdd7666e", "lat": 38.951840833333335, "name": "83a02822f61aa8bb8e578e18bdd7666e", "lon": -77.026126, "fusion_lon": 0.0}, {"is_reserved": 0, "type": "electric_scooter", "fusion_lat": 0.0, "is_disabled": 0, "rental_uris": {"ios": "https://dc.lft.to/lastmile_qr_scan", "android": "https://dc.lft.to/lastmile_qr_scan"}, "bike_id": "b3ddafa5158ca9b1cd4a4fbdf2ba351f", "lat": 38.911437, "name": "b3ddafa5158ca9b1cd4a4fbdf2ba351f", "lon": -77.015223, "fusion_lon": 0.0}, {"is_reserved": 0, "type": "electric_scooter", "fusion_lat": 0.0, "is_disabled": 0, "rental_uris": {"ios": "https://dc.lft.to/lastmile_qr_scan", "android": "https://dc.lft.to/lastmile_qr_scan"}, "bike_id": "71a8fbb4f88ae5cfa1d597b70628e39b", "lat": 38.914796833333334, "name": "71a8fbb4f88ae5cfa1d597b70628e39b", "lon": -77.03434516666667, "fusion_lon": 0.0}, {"is_reserved": 0, "type": "electric_scooter", "fusion_lat": 0.0, "is_disabled": 0, "rental_uris": {"ios": "https://dc.lft.to/lastmile_qr_scan", "android": "https://dc.lft.to/lastmile_qr_scan"}, "bike_id": "46404382fb9b4e42c216503d9489c685", "lat": 38.89198866666667, "name": "46404382fb9b4e42c216503d9489c685", "lon": -77.01549166666666, "fusion_lon": 0.0}, {"is_reserved": 0, "type": "electric_scooter", "fusion_lat": 0.0, "is_disabled": 0, "rental_uris": {"ios": "https://dc.lft.to/lastmile_qr_scan", "android": "https://dc.lft.to/lastmile_qr_scan"}, "bike_id": "386df9fc519e728769164348ad8f3848", "lat": 38.902064, "name": "386df9fc519e728769164348ad8f3848", "lon": -76.98702666666667, "fusion_lon": 0.0}, {"is_reserved": 0, "type": "electric_scooter", "fusion_lat": 0.0, "is_disabled": 0, "rental_uris": {"ios": "https://dc.lft.to/lastmile_qr_scan", "android": "https://dc.lft.to/lastmile_qr_scan"}, "bike_id": "e9c173970dd2dedfa5ddd455720e7dea", "lat": 38.897719333333335, "name": "e9c173970dd2dedfa5ddd455720e7dea", "lon": -77.05118433333334, "fusion_lon": 0.0}, {"is_reserved": 0, "type": "electric_scooter", "fusion_lat": 0.0, "is_disabled": 0, "rental_uris": {"ios": "https://dc.lft.to/lastmile_qr_scan", "android": "https://dc.lft.to/lastmile_qr_scan"}, "bike_id": "20a13ca46528d33aef0efd4084717402", "lat": 38.912560666666664, "name": "20a13ca46528d33aef0efd4084717402", "lon": -77.04596733333334, "fusion_lon": 0.0}, {"is_reserved": 0, "type": "electric_scooter", "fusion_lat": 0.0, "is_disabled": 0, "rental_uris": {"ios": "https://dc.lft.to/lastmile_qr_scan", "android": "https://dc.lft.to/lastmile_qr_scan"}, "bike_id": "52759f8ca8b569fbb4062c730ebe67a7", "lat": 38.918175166666664, "name": "52759f8ca8b569fbb4062c730ebe67a7", "lon": -77.02476766666666, "fusion_lon": 0.0}, {"is_reserved": 0, "type": "electric_scooter", "fusion_lat": 0.0, "is_disabled": 0, "rental_uris": {"ios": "https://dc.lft.to/lastmile_qr_scan", "android": "https://dc.lft.to/lastmile_qr_scan"}, "bike_id": "302ed79022efef4eff75ff4b7e943a77", "lat": 38.905623166666665, "name": "302ed79022efef4eff75ff4b7e943a77", "lon": -77.01721516666667, "fusion_lon": 0.0}, {"is_reserved": 0, "type": "electric_scooter", "fusion_lat": 0.0, "is_disabled": 0, "rental_uris": {"ios": "https://dc.lft.to/lastmile_qr_scan", "android": "https://dc.lft.to/lastmile_qr_scan"}, "bike_id": "51b8aa5b77cdff374ad3e8d6d09637a5", "lat": 38.919138333333336, "name": "51b8aa5b77cdff374ad3e8d6d09637a5", "lon": -77.0330415, "fusion_lon": 0.0}, {"is_reserved": 0, "type": "electric_scooter", "fusion_lat": 0.0, "is_disabled": 0, "rental_uris": {"ios": "https://dc.lft.to/lastmile_qr_scan", "android": "https://dc.lft.to/lastmile_qr_scan"}, "bike_id": "c9e77b9b24f38fcf681e2e069feecdb6", "lat": 38.912368, "name": "c9e77b9b24f38fcf681e2e069feecdb6", "lon": -77.009176, "fusion_lon": 0.0}, {"is_reserved": 0, "type": "electric_bike", "fusion_lat": 0.0, "is_disabled": 0, "rental_uris": {"ios": "https://dc.lft.to/lastmile_qr_scan", "android": "https://dc.lft.to/lastmile_qr_scan"}, "bike_id": "89578cb7c498fb10d5e3caf6972a10c5", "lat": 38.84303216666667, "name": "89578cb7c498fb10d5e3caf6972a10c5", "lon": -76.98843066666667, "fusion_lon": 0.0}, {"is_reserved": 0, "type": "electric_scooter", "fusion_lat": 0.0, "is_disabled": 0, "rental_uris": {"ios": "https://dc.lft.to/lastmile_qr_scan", "android": "https://dc.lft.to/lastmile_qr_scan"}, "bike_id": "41dc891f05e0d458dfd700ff5cc9215d", "lat": 38.90208666666667, "name": "41dc891f05e0d458dfd700ff5cc9215d", "lon": -77.01573366666666, "fusion_lon": 0.0}, {"is_reserved": 0, "type": "electric_scooter", "fusion_lat": 0.0, "is_disabled": 0, "rental_uris": {"ios": "https://dc.lft.to/lastmile_qr_scan", "android": "https://dc.lft.to/lastmile_qr_scan"}, "bike_id": "cd1b0d579e2116599226d20772f48841", "lat": 38.91984133333333, "name": "cd1b0d579e2116599226d20772f48841", "lon": -76.97305533333333, "fusion_lon": 0.0}, {"is_reserved": 0, "type": "electric_scooter", "fusion_lat": 0.0, "is_disabled": 0, "rental_uris": {"ios": "https://dc.lft.to/lastmile_qr_scan", "android": "https://dc.lft.to/lastmile_qr_scan"}, "bike_id": "b429fd241b22fa83ff700fa288006893", "lat": 38.916352333333336, "name": "b429fd241b22fa83ff700fa288006893", "lon": -77.03178366666667, "fusion_lon": 0.0}, {"is_reserved": 0, "type": "electric_scooter", "fusion_lat": 0.0, "is_disabled": 0, "rental_uris": {"ios": "https://dc.lft.to/lastmile_qr_scan", "android": "https://dc.lft.to/lastmile_qr_scan"}, "bike_id": "a1922caf069ed95636527ce1fda7de8a", "lat": 38.8766275, "name": "a1922caf069ed95636527ce1fda7de8a", "lon": -77.00084016666666, "fusion_lon": 0.0}, {"is_reserved": 0, "type": "electric_scooter", "fusion_lat": 0.0, "is_disabled": 0, "rental_uris": {"ios": "https://dc.lft.to/lastmile_qr_scan", "android": "https://dc.lft.to/lastmile_qr_scan"}, "bike_id": "2ea00e83727cdaa7e03103b194d52edc", "lat": 38.9095135, "name": "2ea00e83727cdaa7e03103b194d52edc", "lon": -76.9853985, "fusion_lon": 0.0}, {"is_reserved": 0, "type": "electric_scooter", "fusion_lat": 0.0, "is_disabled": 0, "rental_uris": {"ios": "https://dc.lft.to/lastmile_qr_scan", "android": "https://dc.lft.to/lastmile_qr_scan"}, "bike_id": "7f2b69f1ae433f24aeec43fe6fdfe466", "lat": 38.945932, "name": "7f2b69f1ae433f24aeec43fe6fdfe466", "lon": -77.0202935, "fusion_lon": 0.0}, {"is_reserved": 0, "type": "electric_bike", "fusion_lat": 0.0, "is_disabled": 0, "rental_uris": {"ios": "https://dc.lft.to/lastmile_qr_scan", "android": "https://dc.lft.to/lastmile_qr_scan"}, "bike_id": "0c04324b8919066879636f6ade5ec976", "lat": 38.9638125, "name": "0c04324b8919066879636f6ade5ec976", "lon": -77.01981633333334, "fusion_lon": 0.0}, {"is_reserved": 0, "type": "electric_scooter", "fusion_lat": 0.0, "is_disabled": 0, "rental_uris": {"ios": "https://dc.lft.to/lastmile_qr_scan", "android": "https://dc.lft.to/lastmile_qr_scan"}, "bike_id": "1235aa90cec10d2e1d69e9e8f9b1245f", "lat": 38.925637, "name": "1235aa90cec10d2e1d69e9e8f9b1245f", "lon": -77.05260933333334, "fusion_lon": 0.0}, {"is_reserved": 0, "type": "electric_scooter", "fusion_lat": 0.0, "is_disabled": 0, "rental_uris": {"ios": "https://dc.lft.to/lastmile_qr_scan", "android": "https://dc.lft.to/lastmile_qr_scan"}, "bike_id": "96fd81191dccfe3ca202b9cad93da22b", "lat": 38.924676833333336, "name": "96fd81191dccfe3ca202b9cad93da22b", "lon": -77.028432, "fusion_lon": 0.0}, {"is_reserved": 0, "type": "electric_scooter", "fusion_lat": 0.0, "is_disabled": 0, "rental_uris": {"ios": "https://dc.lft.to/lastmile_qr_scan", "android": "https://dc.lft.to/lastmile_qr_scan"}, "bike_id": "5099dfa336e017c758e5f79681de22e8", "lat": 38.89544816666667, "name": "5099dfa336e017c758e5f79681de22e8", "lon": -76.9834105, "fusion_lon": 0.0}, {"is_reserved": 0, "type": "electric_scooter", "fusion_lat": 0.0, "is_disabled": 0, "rental_uris": {"ios": "https://dc.lft.to/lastmile_qr_scan", "android": "https://dc.lft.to/lastmile_qr_scan"}, "bike_id": "b01bea2581265dfdf2932ad2f8f60d6c", "lat": 38.88453633333334, "name": "b01bea2581265dfdf2932ad2f8f60d6c", "lon": -77.02473683333334, "fusion_lon": 0.0}, {"is_reserved": 0, "type": "electric_scooter", "fusion_lat": 0.0, "is_disabled": 0, "rental_uris": {"ios": "https://dc.lft.to/lastmile_qr_scan", "android": "https://dc.lft.to/lastmile_qr_scan"}, "bike_id": "2f9b7311e8b429b7ada206c388b004a0", "lat": 38.92882216666667, "name": "2f9b7311e8b429b7ada206c388b004a0", "lon": -77.01413316666667, "fusion_lon": 0.0}, {"is_reserved": 0, "type": "electric_scooter", "fusion_lat": 0.0, "is_disabled": 0, "rental_uris": {"ios": "https://dc.lft.to/lastmile_qr_scan", "android": "https://dc.lft.to/lastmile_qr_scan"}, "bike_id": "6c141464f0a9ee8092d35fdbf873d8af", "lat": 38.920537333333336, "name": "6c141464f0a9ee8092d35fdbf873d8af", "lon": -77.018008, "fusion_lon": 0.0}, {"is_reserved": 0, "type": "electric_scooter", "fusion_lat": 0.0, "is_disabled": 0, "rental_uris": {"ios": "https://dc.lft.to/lastmile_qr_scan", "android": "https://dc.lft.to/lastmile_qr_scan"}, "bike_id": "04c572815f3dd6dd604553de62e2da59", "lat": 38.9333245, "name": "04c572815f3dd6dd604553de62e2da59", "lon": -77.03883566666667, "fusion_lon": 0.0}, {"is_reserved": 0, "type": "electric_scooter", "fusion_lat": 0.0, "is_disabled": 0, "rental_uris": {"ios": "https://dc.lft.to/lastmile_qr_scan", "android": "https://dc.lft.to/lastmile_qr_scan"}, "bike_id": "41d86dccaa408b3de4b082584682cf3b", "lat": 38.923399333333336, "name": "41d86dccaa408b3de4b082584682cf3b", "lon": -77.04021716666666, "fusion_lon": 0.0}, {"is_reserved": 0, "type": "electric_scooter", "fusion_lat": 0.0, "is_disabled": 0, "rental_uris": {"ios": "https://dc.lft.to/lastmile_qr_scan", "android": "https://dc.lft.to/lastmile_qr_scan"}, "bike_id": "d4592220ed943029cdaed426a12e6f7a", "lat": 38.89728266666667, "name": "d4592220ed943029cdaed426a12e6f7a", "lon": -77.04156566666667, "fusion_lon": 0.0}, {"is_reserved": 0, "type": "electric_scooter", "fusion_lat": 0.0, "is_disabled": 0, "rental_uris": {"ios": "https://dc.lft.to/lastmile_qr_scan", "android": "https://dc.lft.to/lastmile_qr_scan"}, "bike_id": "8f32105eb03799bfcc62bb8d6ff058c2", "lat": 38.878430333333334, "name": "8f32105eb03799bfcc62bb8d6ff058c2", "lon": -77.00605133333333, "fusion_lon": 0.0}, {"is_reserved": 0, "type": "electric_scooter", "fusion_lat": 0.0, "is_disabled": 0, "rental_uris": {"ios": "https://dc.lft.to/lastmile_qr_scan", "android": "https://dc.lft.to/lastmile_qr_scan"}, "bike_id": "c2e90b5b4cc73e13d737afc8f9b95b08", "lat": 38.920584166666664, "name": "c2e90b5b4cc73e13d737afc8f9b95b08", "lon": -77.04401516666667, "fusion_lon": 0.0}, {"is_reserved": 0, "type": "electric_scooter", "fusion_lat": 0.0, "is_disabled": 0, "rental_uris": {"ios": "https://dc.lft.to/lastmile_qr_scan", "android": "https://dc.lft.to/lastmile_qr_scan"}, "bike_id": "99e1352940e70db5f63db6d6de116802", "lat": 38.9202105, "name": "99e1352940e70db5f63db6d6de116802", "lon": -77.07135166666667, "fusion_lon": 0.0}, {"is_reserved": 0, "type": "electric_scooter", "fusion_lat": 0.0, "is_disabled": 0, "rental_uris": {"ios": "https://dc.lft.to/lastmile_qr_scan", "android": "https://dc.lft.to/lastmile_qr_scan"}, "bike_id": "7dda30f6d328d0afc0f949a24a24cc76", "lat": 38.9210025, "name": "7dda30f6d328d0afc0f949a24a24cc76", "lon": -77.0456535, "fusion_lon": 0.0}, {"is_reserved": 0, "type": "electric_scooter", "fusion_lat": 0.0, "is_disabled": 0, "rental_uris": {"ios": "https://dc.lft.to/lastmile_qr_scan", "android": "https://dc.lft.to/lastmile_qr_scan"}, "bike_id": "603586913543850ec914bb124dec965a", "lat": 38.897039, "name": "603586913543850ec914bb124dec965a", "lon": -77.02162, "fusion_lon": 0.0}, {"is_reserved": 0, "type": "electric_scooter", "fusion_lat": 0.0, "is_disabled": 0, "rental_uris": {"ios": "https://dc.lft.to/lastmile_qr_scan", "android": "https://dc.lft.to/lastmile_qr_scan"}, "bike_id": "e85db4fab89e7609863fde9bc43568ec", "lat": 38.9182795, "name": "e85db4fab89e7609863fde9bc43568ec", "lon": -77.02712216666667, "fusion_lon": 0.0}, {"is_reserved": 0, "type": "electric_bike", "fusion_lat": 0.0, "is_disabled": 0, "rental_uris": {"ios": "https://dc.lft.to/lastmile_qr_scan", "android": "https://dc.lft.to/lastmile_qr_scan"}, "bike_id": "8933284453850c5a2ef28b3579ef3118", "lat": 38.9227745, "name": "8933284453850c5a2ef28b3579ef3118", "lon": -76.997676, "fusion_lon": 0.0}, {"is_reserved": 0, "type": "electric_scooter", "fusion_lat": 0.0, "is_disabled": 0, "rental_uris": {"ios": "https://dc.lft.to/lastmile_qr_scan", "android": "https://dc.lft.to/lastmile_qr_scan"}, "bike_id": "448e2d99146f6fb1fcef1d203a263682", "lat": 38.895242333333336, "name": "448e2d99146f6fb1fcef1d203a263682", "lon": -76.977278, "fusion_lon": 0.0}, {"is_reserved": 0, "type": "electric_scooter", "fusion_lat": 0.0, "is_disabled": 0, "rental_uris": {"ios": "https://dc.lft.to/lastmile_qr_scan", "android": "https://dc.lft.to/lastmile_qr_scan"}, "bike_id": "73ab4eff859cfd08dccfaebb7ded4400", "lat": 38.923367666666664, "name": "73ab4eff859cfd08dccfaebb7ded4400", "lon": -77.03537416666667, "fusion_lon": 0.0}, {"is_reserved": 0, "type": "electric_scooter", "fusion_lat": 0.0, "is_disabled": 0, "rental_uris": {"ios": "https://dc.lft.to/lastmile_qr_scan", "android": "https://dc.lft.to/lastmile_qr_scan"}, "bike_id": "8dcfb66ff0f7948cbd6eae1d10d7e710", "lat": 38.88102883333333, "name": "8dcfb66ff0f7948cbd6eae1d10d7e710", "lon": -77.02634283333333, "fusion_lon": 0.0}, {"is_reserved": 0, "type": "electric_scooter", "fusion_lat": 0.0, "is_disabled": 0, "rental_uris": {"ios": "https://dc.lft.to/lastmile_qr_scan", "android": "https://dc.lft.to/lastmile_qr_scan"}, "bike_id": "9132a622e2032d1791d27b78e2dac84a", "lat": 38.899769166666665, "name": "9132a622e2032d1791d27b78e2dac84a", "lon": -77.041953, "fusion_lon": 0.0}, {"is_reserved": 0, "type": "electric_scooter", "fusion_lat": 0.0, "is_disabled": 0, "rental_uris": {"ios": "https://dc.lft.to/lastmile_qr_scan", "android": "https://dc.lft.to/lastmile_qr_scan"}, "bike_id": "d85a4635154443a5db74fe5338bbe5ea", "lat": 38.90396883333333, "name": "d85a4635154443a5db74fe5338bbe5ea", "lon": -77.051363, "fusion_lon": 0.0}, {"is_reserved": 0, "type": "electric_scooter", "fusion_lat": 0.0, "is_disabled": 0, "rental_uris": {"ios": "https://dc.lft.to/lastmile_qr_scan", "android": "https://dc.lft.to/lastmile_qr_scan"}, "bike_id": "d6dfd4f6e38d16372d56db094a3adb82", "lat": 38.91049783333333, "name": "d6dfd4f6e38d16372d56db094a3adb82", "lon": -76.99800166666667, "fusion_lon": 0.0}, {"is_reserved": 0, "type": "electric_scooter", "fusion_lat": 0.0, "is_disabled": 0, "rental_uris": {"ios": "https://dc.lft.to/lastmile_qr_scan", "android": "https://dc.lft.to/lastmile_qr_scan"}, "bike_id": "f335e6b100e28c6b58a918584cdf6122", "lat": 38.918357666666665, "name": "f335e6b100e28c6b58a918584cdf6122", "lon": -77.04532666666667, "fusion_lon": 0.0}, {"is_reserved": 0, "type": "electric_scooter", "fusion_lat": 0.0, "is_disabled": 0, "rental_uris": {"ios": "https://dc.lft.to/lastmile_qr_scan", "android": "https://dc.lft.to/lastmile_qr_scan"}, "bike_id": "558455c9db13984fcaeb96822eca7d2d", "lat": 38.91107733333333, "name": "558455c9db13984fcaeb96822eca7d2d", "lon": -77.01103933333333, "fusion_lon": 0.0}, {"is_reserved": 0, "type": "electric_scooter", "fusion_lat": 0.0, "is_disabled": 0, "rental_uris": {"ios": "https://dc.lft.to/lastmile_qr_scan", "android": "https://dc.lft.to/lastmile_qr_scan"}, "bike_id": "5932ccb9ad4b68a7023133ab93def943", "lat": 38.90255966666667, "name": "5932ccb9ad4b68a7023133ab93def943", "lon": -77.02650866666667, "fusion_lon": 0.0}, {"is_reserved": 0, "type": "electric_scooter", "fusion_lat": 0.0, "is_disabled": 0, "rental_uris": {"ios": "https://dc.lft.to/lastmile_qr_scan", "android": "https://dc.lft.to/lastmile_qr_scan"}, "bike_id": "51a6f43b066d73704f0736fe9034ff9e", "lat": 38.92334566666667, "name": "51a6f43b066d73704f0736fe9034ff9e", "lon": -77.0089185, "fusion_lon": 0.0}, {"is_reserved": 0, "type": "electric_scooter", "fusion_lat": 0.0, "is_disabled": 0, "rental_uris": {"ios": "https://dc.lft.to/lastmile_qr_scan", "android": "https://dc.lft.to/lastmile_qr_scan"}, "bike_id": "e7afa22ad784feaa443e8831749f01a2", "lat": 38.90890916666667, "name": "e7afa22ad784feaa443e8831749f01a2", "lon": -77.0027815, "fusion_lon": 0.0}, {"is_reserved": 0, "type": "electric_scooter", "fusion_lat": 0.0, "is_disabled": 0, "rental_uris": {"ios": "https://dc.lft.to/lastmile_qr_scan", "android": "https://dc.lft.to/lastmile_qr_scan"}, "bike_id": "8a5ddb95f876732a9a3bb549c53d135a", "lat": 38.9095025, "name": "8a5ddb95f876732a9a3bb549c53d135a", "lon": -77.0466075, "fusion_lon": 0.0}, {"is_reserved": 0, "type": "electric_scooter", "fusion_lat": 0.0, "is_disabled": 0, "rental_uris": {"ios": "https://dc.lft.to/lastmile_qr_scan", "android": "https://dc.lft.to/lastmile_qr_scan"}, "bike_id": "6e37b9015361b86eacdc297b3629500a", "lat": 38.90232666666667, "name": "6e37b9015361b86eacdc297b3629500a", "lon": -77.0398025, "fusion_lon": 0.0}, {"is_reserved": 0, "type": "electric_scooter", "fusion_lat": 0.0, "is_disabled": 0, "rental_uris": {"ios": "https://dc.lft.to/lastmile_qr_scan", "android": "https://dc.lft.to/lastmile_qr_scan"}, "bike_id": "1421477fa323a75f62681ea9cf91c6c7", "lat": 38.92166, "name": "1421477fa323a75f62681ea9cf91c6c7", "lon": -77.04125, "fusion_lon": 0.0}, {"is_reserved": 0, "type": "electric_scooter", "fusion_lat": 0.0, "is_disabled": 0, "rental_uris": {"ios": "https://dc.lft.to/lastmile_qr_scan", "android": "https://dc.lft.to/lastmile_qr_scan"}, "bike_id": "7b548ae102c8ffd846f31c1fc8eeda0b", "lat": 38.9199125, "name": "7b548ae102c8ffd846f31c1fc8eeda0b", "lon": -77.04154483333333, "fusion_lon": 0.0}, {"is_reserved": 0, "type": "electric_scooter", "fusion_lat": 0.0, "is_disabled": 0, "rental_uris": {"ios": "https://dc.lft.to/lastmile_qr_scan", "android": "https://dc.lft.to/lastmile_qr_scan"}, "bike_id": "69935e5977798c2763fb4c19255c3668", "lat": 38.883682, "name": "69935e5977798c2763fb4c19255c3668", "lon": -76.99520333333334, "fusion_lon": 0.0}, {"is_reserved": 0, "type": "electric_scooter", "fusion_lat": 0.0, "is_disabled": 0, "rental_uris": {"ios": "https://dc.lft.to/lastmile_qr_scan", "android": "https://dc.lft.to/lastmile_qr_scan"}, "bike_id": "55243645ffe8af94638bf82386440992", "lat": 38.93103633333333, "name": "55243645ffe8af94638bf82386440992", "lon": -77.02481733333333, "fusion_lon": 0.0}, {"is_reserved": 0, "type": "electric_scooter", "fusion_lat": 0.0, "is_disabled": 0, "rental_uris": {"ios": "https://dc.lft.to/lastmile_qr_scan", "android": "https://dc.lft.to/lastmile_qr_scan"}, "bike_id": "b5b9b7df6ed2ceaa7a9cfef70e69b911", "lat": 38.89980666666666, "name": "b5b9b7df6ed2ceaa7a9cfef70e69b911", "lon": -77.04193966666666, "fusion_lon": 0.0}, {"is_reserved": 0, "type": "electric_scooter", "fusion_lat": 0.0, "is_disabled": 0, "rental_uris": {"ios": "https://dc.lft.to/lastmile_qr_scan", "android": "https://dc.lft.to/lastmile_qr_scan"}, "bike_id": "db64062f60d067da5e0f6451c6ad011d", "lat": 38.92007366666667, "name": "db64062f60d067da5e0f6451c6ad011d", "lon": -77.04178416666667, "fusion_lon": 0.0}, {"is_reserved": 0, "type": "electric_scooter", "fusion_lat": 0.0, "is_disabled": 0, "rental_uris": {"ios": "https://dc.lft.to/lastmile_qr_scan", "android": "https://dc.lft.to/lastmile_qr_scan"}, "bike_id": "ba06aaec82a4782e89950a49db2516b6", "lat": 38.8855375, "name": "ba06aaec82a4782e89950a49db2516b6", "lon": -76.95457716666667, "fusion_lon": 0.0}, {"is_reserved": 0, "type": "electric_scooter", "fusion_lat": 0.0, "is_disabled": 0, "rental_uris": {"ios": "https://dc.lft.to/lastmile_qr_scan", "android": "https://dc.lft.to/lastmile_qr_scan"}, "bike_id": "437897923037acacff6585f7e2194c65", "lat": 38.892343333333336, "name": "437897923037acacff6585f7e2194c65", "lon": -77.023843, "fusion_lon": 0.0}, {"is_reserved": 0, "type": "electric_scooter", "fusion_lat": 0.0, "is_disabled": 0, "rental_uris": {"ios": "https://dc.lft.to/lastmile_qr_scan", "android": "https://dc.lft.to/lastmile_qr_scan"}, "bike_id": "bc20a558a2c413ae76a45c68af74d73c", "lat": 38.943087166666665, "name": "bc20a558a2c413ae76a45c68af74d73c", "lon": -77.076438, "fusion_lon": 0.0}, {"is_reserved": 0, "type": "electric_scooter", "fusion_lat": 0.0, "is_disabled": 0, "rental_uris": {"ios": "https://dc.lft.to/lastmile_qr_scan", "android": "https://dc.lft.to/lastmile_qr_scan"}, "bike_id": "ab15c4ec7384e9323d0ab97eea7ee457", "lat": 38.91968166666667, "name": "ab15c4ec7384e9323d0ab97eea7ee457", "lon": -77.039617, "fusion_lon": 0.0}, {"is_reserved": 0, "type": "electric_scooter", "fusion_lat": 0.0, "is_disabled": 0, "rental_uris": {"ios": "https://dc.lft.to/lastmile_qr_scan", "android": "https://dc.lft.to/lastmile_qr_scan"}, "bike_id": "fdf664ee1df8a73fccf4fbcd652c0cc1", "lat": 38.915321, "name": "fdf664ee1df8a73fccf4fbcd652c0cc1", "lon": -77.04434383333333, "fusion_lon": 0.0}, {"is_reserved": 0, "type": "electric_scooter", "fusion_lat": 0.0, "is_disabled": 0, "rental_uris": {"ios": "https://dc.lft.to/lastmile_qr_scan", "android": "https://dc.lft.to/lastmile_qr_scan"}, "bike_id": "ecbce06448a50c004ef33581881d686d", "lat": 38.90728466666667, "name": "ecbce06448a50c004ef33581881d686d", "lon": -77.03461583333333, "fusion_lon": 0.0}, {"is_reserved": 0, "type": "electric_scooter", "fusion_lat": 0.0, "is_disabled": 0, "rental_uris": {"ios": "https://dc.lft.to/lastmile_qr_scan", "android": "https://dc.lft.to/lastmile_qr_scan"}, "bike_id": "2b6da6709b4d206fe6f69c6605a50557", "lat": 38.9555365, "name": "2b6da6709b4d206fe6f69c6605a50557", "lon": -77.033257, "fusion_lon": 0.0}, {"is_reserved": 0, "type": "electric_scooter", "fusion_lat": 0.0, "is_disabled": 0, "rental_uris": {"ios": "https://dc.lft.to/lastmile_qr_scan", "android": "https://dc.lft.to/lastmile_qr_scan"}, "bike_id": "62c7426c9caaabb6e2cdcb0b4fa93c10", "lat": 38.92070366666667, "name": "62c7426c9caaabb6e2cdcb0b4fa93c10", "lon": -77.03196533333333, "fusion_lon": 0.0}, {"is_reserved": 0, "type": "electric_scooter", "fusion_lat": 0.0, "is_disabled": 0, "rental_uris": {"ios": "https://dc.lft.to/lastmile_qr_scan", "android": "https://dc.lft.to/lastmile_qr_scan"}, "bike_id": "13640095c705260651da180c132d78eb", "lat": 38.92364166666667, "name": "13640095c705260651da180c132d78eb", "lon": -77.05133866666667, "fusion_lon": 0.0}, {"is_reserved": 0, "type": "electric_scooter", "fusion_lat": 0.0, "is_disabled": 0, "rental_uris": {"ios": "https://dc.lft.to/lastmile_qr_scan", "android": "https://dc.lft.to/lastmile_qr_scan"}, "bike_id": "1e053b495e6ffc6b638ce3c33db6ce61", "lat": 38.91016533333333, "name": "1e053b495e6ffc6b638ce3c33db6ce61", "lon": -77.01996783333334, "fusion_lon": 0.0}, {"is_reserved": 0, "type": "electric_scooter", "fusion_lat": 0.0, "is_disabled": 0, "rental_uris": {"ios": "https://dc.lft.to/lastmile_qr_scan", "android": "https://dc.lft.to/lastmile_qr_scan"}, "bike_id": "12b44950d8ff9c93940cb7eafa05d8f2", "lat": 38.89732983333333, "name": "12b44950d8ff9c93940cb7eafa05d8f2", "lon": -77.04608983333334, "fusion_lon": 0.0}, {"is_reserved": 0, "type": "electric_scooter", "fusion_lat": 0.0, "is_disabled": 0, "rental_uris": {"ios": "https://dc.lft.to/lastmile_qr_scan", "android": "https://dc.lft.to/lastmile_qr_scan"}, "bike_id": "25a1ab4089cb2771d396e2cde0812b30", "lat": 38.85552116666667, "name": "25a1ab4089cb2771d396e2cde0812b30", "lon": -76.98657733333333, "fusion_lon": 0.0}, {"is_reserved": 0, "type": "electric_bike", "fusion_lat": 0.0, "is_disabled": 0, "rental_uris": {"ios": "https://dc.lft.to/lastmile_qr_scan", "android": "https://dc.lft.to/lastmile_qr_scan"}, "bike_id": "f35655ac99f17c4d47dae735a03c518f", "lat": 38.974418666666665, "name": "f35655ac99f17c4d47dae735a03c518f", "lon": -77.09614783333333, "fusion_lon": 0.0}, {"is_reserved": 0, "type": "electric_scooter", "fusion_lat": 0.0, "is_disabled": 0, "rental_uris": {"ios": "https://dc.lft.to/lastmile_qr_scan", "android": "https://dc.lft.to/lastmile_qr_scan"}, "bike_id": "0f74a62702beef0e25f461e42e69d0cd", "lat": 38.91850816666667, "name": "0f74a62702beef0e25f461e42e69d0cd", "lon": -77.035112, "fusion_lon": 0.0}, {"is_reserved": 0, "type": "electric_scooter", "fusion_lat": 0.0, "is_disabled": 0, "rental_uris": {"ios": "https://dc.lft.to/lastmile_qr_scan", "android": "https://dc.lft.to/lastmile_qr_scan"}, "bike_id": "86afedc05b3f22d18c9b6b9984a6e913", "lat": 38.93581733333333, "name": "86afedc05b3f22d18c9b6b9984a6e913", "lon": -77.074393, "fusion_lon": 0.0}, {"is_reserved": 0, "type": "electric_scooter", "fusion_lat": 0.0, "is_disabled": 0, "rental_uris": {"ios": "https://dc.lft.to/lastmile_qr_scan", "android": "https://dc.lft.to/lastmile_qr_scan"}, "bike_id": "a9d30c381069b23a0047a59ceadf0060", "lat": 38.893379333333336, "name": "a9d30c381069b23a0047a59ceadf0060", "lon": -76.98559033333333, "fusion_lon": 0.0}, {"is_reserved": 0, "type": "electric_scooter", "fusion_lat": 0.0, "is_disabled": 0, "rental_uris": {"ios": "https://dc.lft.to/lastmile_qr_scan", "android": "https://dc.lft.to/lastmile_qr_scan"}, "bike_id": "b2105a3676734ee100e0f7a94ae20614", "lat": 38.877163, "name": "b2105a3676734ee100e0f7a94ae20614", "lon": -77.00598916666667, "fusion_lon": 0.0}, {"is_reserved": 0, "type": "electric_scooter", "fusion_lat": 0.0, "is_disabled": 0, "rental_uris": {"ios": "https://dc.lft.to/lastmile_qr_scan", "android": "https://dc.lft.to/lastmile_qr_scan"}, "bike_id": "a9a5353a6ca78ce64e417f2212a242d2", "lat": 38.927982166666666, "name": "a9a5353a6ca78ce64e417f2212a242d2", "lon": -77.0370225, "fusion_lon": 0.0}, {"is_reserved": 0, "type": "electric_scooter", "fusion_lat": 0.0, "is_disabled": 0, "rental_uris": {"ios": "https://dc.lft.to/lastmile_qr_scan", "android": "https://dc.lft.to/lastmile_qr_scan"}, "bike_id": "637a939c11536297ab543a8df9df0dfc", "lat": 38.9170855, "name": "637a939c11536297ab543a8df9df0dfc", "lon": -77.040519, "fusion_lon": 0.0}, {"is_reserved": 0, "type": "electric_scooter", "fusion_lat": 0.0, "is_disabled": 0, "rental_uris": {"ios": "https://dc.lft.to/lastmile_qr_scan", "android": "https://dc.lft.to/lastmile_qr_scan"}, "bike_id": "566b67d5b07a37d277733d0405f8f133", "lat": 38.88005166666667, "name": "566b67d5b07a37d277733d0405f8f133", "lon": -76.99837416666666, "fusion_lon": 0.0}, {"is_reserved": 0, "type": "electric_scooter", "fusion_lat": 0.0, "is_disabled": 0, "rental_uris": {"ios": "https://dc.lft.to/lastmile_qr_scan", "android": "https://dc.lft.to/lastmile_qr_scan"}, "bike_id": "cdf08a57f75cca0c86bfe3c89320fbb5", "lat": 38.921473666666664, "name": "cdf08a57f75cca0c86bfe3c89320fbb5", "lon": -77.035226, "fusion_lon": 0.0}, {"is_reserved": 0, "type": "electric_scooter", "fusion_lat": 0.0, "is_disabled": 0, "rental_uris": {"ios": "https://dc.lft.to/lastmile_qr_scan", "android": "https://dc.lft.to/lastmile_qr_scan"}, "bike_id": "aa58f1442c8beccedb9aee43319d27c5", "lat": 38.842737166666666, "name": "aa58f1442c8beccedb9aee43319d27c5", "lon": -76.98848116666667, "fusion_lon": 0.0}, {"is_reserved": 0, "type": "electric_scooter", "fusion_lat": 0.0, "is_disabled": 0, "rental_uris": {"ios": "https://dc.lft.to/lastmile_qr_scan", "android": "https://dc.lft.to/lastmile_qr_scan"}, "bike_id": "279caa6bbc9aa5899547b6de10918ac2", "lat": 38.923149333333335, "name": "279caa6bbc9aa5899547b6de10918ac2", "lon": -77.0290715, "fusion_lon": 0.0}, {"is_reserved": 0, "type": "electric_scooter", "fusion_lat": 0.0, "is_disabled": 0, "rental_uris": {"ios": "https://dc.lft.to/lastmile_qr_scan", "android": "https://dc.lft.to/lastmile_qr_scan"}, "bike_id": "e03dc6971fb987a79b8f43821062859e", "lat": 38.92421433333333, "name": "e03dc6971fb987a79b8f43821062859e", "lon": -77.04482, "fusion_lon": 0.0}, {"is_reserved": 0, "type": "electric_scooter", "fusion_lat": 0.0, "is_disabled": 0, "rental_uris": {"ios": "https://dc.lft.to/lastmile_qr_scan", "android": "https://dc.lft.to/lastmile_qr_scan"}, "bike_id": "35076a3ec217edc3632fbf71808f165d", "lat": 38.91694616666667, "name": "35076a3ec217edc3632fbf71808f165d", "lon": -77.02594133333334, "fusion_lon": 0.0}, {"is_reserved": 0, "type": "electric_scooter", "fusion_lat": 0.0, "is_disabled": 0, "rental_uris": {"ios": "https://dc.lft.to/lastmile_qr_scan", "android": "https://dc.lft.to/lastmile_qr_scan"}, "bike_id": "efb34fc3d7adca0f75a681f57daeb3ae", "lat": 38.883087, "name": "efb34fc3d7adca0f75a681f57daeb3ae", "lon": -76.934872, "fusion_lon": 0.0}, {"is_reserved": 0, "type": "electric_scooter", "fusion_lat": 0.0, "is_disabled": 0, "rental_uris": {"ios": "https://dc.lft.to/lastmile_qr_scan", "android": "https://dc.lft.to/lastmile_qr_scan"}, "bike_id": "97ce035ec01b68a58c164edebdd71bcc", "lat": 38.95218, "name": "97ce035ec01b68a58c164edebdd71bcc", "lon": -77.08870633333333, "fusion_lon": 0.0}, {"is_reserved": 0, "type": "electric_scooter", "fusion_lat": 0.0, "is_disabled": 0, "rental_uris": {"ios": "https://dc.lft.to/lastmile_qr_scan", "android": "https://dc.lft.to/lastmile_qr_scan"}, "bike_id": "0c4012ba47c8592f1de813ae7fbf8557", "lat": 38.910439, "name": "0c4012ba47c8592f1de813ae7fbf8557", "lon": -76.99806133333334, "fusion_lon": 0.0}, {"is_reserved": 0, "type": "electric_bike", "fusion_lat": 0.0, "is_disabled": 0, "rental_uris": {"ios": "https://dc.lft.to/lastmile_qr_scan", "android": "https://dc.lft.to/lastmile_qr_scan"}, "bike_id": "62593254f4166cc35c288f52baa6d878", "lat": 38.85245116666667, "name": "62593254f4166cc35c288f52baa6d878", "lon": -77.11410383333333, "fusion_lon": 0.0}, {"is_reserved": 0, "type": "electric_scooter", "fusion_lat": 0.0, "is_disabled": 0, "rental_uris": {"ios": "https://dc.lft.to/lastmile_qr_scan", "android": "https://dc.lft.to/lastmile_qr_scan"}, "bike_id": "a1cfec0ade1e1d03d6b58d8ee440480b", "lat": 38.92419966666667, "name": "a1cfec0ade1e1d03d6b58d8ee440480b", "lon": -77.02013783333334, "fusion_lon": 0.0}, {"is_reserved": 0, "type": "electric_scooter", "fusion_lat": 0.0, "is_disabled": 0, "rental_uris": {"ios": "https://dc.lft.to/lastmile_qr_scan", "android": "https://dc.lft.to/lastmile_qr_scan"}, "bike_id": "b9f42b63d82fa1f7b22353941381f700", "lat": 38.9113855, "name": "b9f42b63d82fa1f7b22353941381f700", "lon": -77.02801983333333, "fusion_lon": 0.0}, {"is_reserved": 0, "type": "electric_scooter", "fusion_lat": 0.0, "is_disabled": 0, "rental_uris": {"ios": "https://dc.lft.to/lastmile_qr_scan", "android": "https://dc.lft.to/lastmile_qr_scan"}, "bike_id": "2ed3acd944ff41652bc3f6061ae7ae4b", "lat": 38.90524516666667, "name": "2ed3acd944ff41652bc3f6061ae7ae4b", "lon": -77.017278, "fusion_lon": 0.0}, {"is_reserved": 0, "type": "electric_bike", "fusion_lat": 0.0, "is_disabled": 0, "rental_uris": {"ios": "https://dc.lft.to/lastmile_qr_scan", "android": "https://dc.lft.to/lastmile_qr_scan"}, "bike_id": "c7c8e04eff1e95d62b269caa63b057bd", "lat": 39.00648266666666, "name": "c7c8e04eff1e95d62b269caa63b057bd", "lon": -76.90022333333333, "fusion_lon": 0.0}, {"is_reserved": 0, "type": "electric_scooter", "fusion_lat": 0.0, "is_disabled": 0, "rental_uris": {"ios": "https://dc.lft.to/lastmile_qr_scan", "android": "https://dc.lft.to/lastmile_qr_scan"}, "bike_id": "5214d7dbfcef0a90b5ba30418e2eba2c", "lat": 38.897235333333334, "name": "5214d7dbfcef0a90b5ba30418e2eba2c", "lon": -77.05130816666667, "fusion_lon": 0.0}, {"is_reserved": 0, "type": "electric_scooter", "fusion_lat": 0.0, "is_disabled": 0, "rental_uris": {"ios": "https://dc.lft.to/lastmile_qr_scan", "android": "https://dc.lft.to/lastmile_qr_scan"}, "bike_id": "eb309ab47da8a56a52bf00c68147cef5", "lat": 38.90145916666667, "name": "eb309ab47da8a56a52bf00c68147cef5", "lon": -76.92985066666667, "fusion_lon": 0.0}, {"is_reserved": 0, "type": "electric_scooter", "fusion_lat": 0.0, "is_disabled": 0, "rental_uris": {"ios": "https://dc.lft.to/lastmile_qr_scan", "android": "https://dc.lft.to/lastmile_qr_scan"}, "bike_id": "3d1cf620f2f21a8edaab7673f1aa8d9b", "lat": 38.89956983333333, "name": "3d1cf620f2f21a8edaab7673f1aa8d9b", "lon": -77.015063, "fusion_lon": 0.0}, {"is_reserved": 0, "type": "electric_scooter", "fusion_lat": 0.0, "is_disabled": 0, "rental_uris": {"ios": "https://dc.lft.to/lastmile_qr_scan", "android": "https://dc.lft.to/lastmile_qr_scan"}, "bike_id": "0abe5ab2e18c777226facea6b4b66608", "lat": 38.91719916666667, "name": "0abe5ab2e18c777226facea6b4b66608", "lon": -77.03464783333334, "fusion_lon": 0.0}, {"is_reserved": 0, "type": "electric_scooter", "fusion_lat": 0.0, "is_disabled": 0, "rental_uris": {"ios": "https://dc.lft.to/lastmile_qr_scan", "android": "https://dc.lft.to/lastmile_qr_scan"}, "bike_id": "c3b76339ca71c779d980eac5f5770145", "lat": 38.92990433333333, "name": "c3b76339ca71c779d980eac5f5770145", "lon": -77.03794033333334, "fusion_lon": 0.0}, {"is_reserved": 0, "type": "electric_scooter", "fusion_lat": 0.0, "is_disabled": 0, "rental_uris": {"ios": "https://dc.lft.to/lastmile_qr_scan", "android": "https://dc.lft.to/lastmile_qr_scan"}, "bike_id": "e10558f821881b96bed4a377cc154510", "lat": 38.937637, "name": "e10558f821881b96bed4a377cc154510", "lon": -77.02668416666667, "fusion_lon": 0.0}, {"is_reserved": 0, "type": "electric_scooter", "fusion_lat": 0.0, "is_disabled": 0, "rental_uris": {"ios": "https://dc.lft.to/lastmile_qr_scan", "android": "https://dc.lft.to/lastmile_qr_scan"}, "bike_id": "27c5d88c44107d76ba1e7264d6ef772e", "lat": 38.912596, "name": "27c5d88c44107d76ba1e7264d6ef772e", "lon": -77.00994816666666, "fusion_lon": 0.0}, {"is_reserved": 0, "type": "electric_scooter", "fusion_lat": 0.0, "is_disabled": 0, "rental_uris": {"ios": "https://dc.lft.to/lastmile_qr_scan", "android": "https://dc.lft.to/lastmile_qr_scan"}, "bike_id": "e915a76198cacd561690b13ccab509c9", "lat": 38.9427835, "name": "e915a76198cacd561690b13ccab509c9", "lon": -77.08197233333334, "fusion_lon": 0.0}, {"is_reserved": 0, "type": "electric_scooter", "fusion_lat": 0.0, "is_disabled": 0, "rental_uris": {"ios": "https://dc.lft.to/lastmile_qr_scan", "android": "https://dc.lft.to/lastmile_qr_scan"}, "bike_id": "4d84cbfcd621102fb9f02c6c73914bc5", "lat": 38.95635883333333, "name": "4d84cbfcd621102fb9f02c6c73914bc5", "lon": -77.03626416666667, "fusion_lon": 0.0}, {"is_reserved": 0, "type": "electric_scooter", "fusion_lat": 0.0, "is_disabled": 0, "rental_uris": {"ios": "https://dc.lft.to/lastmile_qr_scan", "android": "https://dc.lft.to/lastmile_qr_scan"}, "bike_id": "e8865d9b0410a6d5f54123980bcbd53b", "lat": 38.89335066666666, "name": "e8865d9b0410a6d5f54123980bcbd53b", "lon": -76.92887333333333, "fusion_lon": 0.0}, {"is_reserved": 0, "type": "electric_scooter", "fusion_lat": 0.0, "is_disabled": 0, "rental_uris": {"ios": "https://dc.lft.to/lastmile_qr_scan", "android": "https://dc.lft.to/lastmile_qr_scan"}, "bike_id": "216a1af36e53f72eceb3758c45c93245", "lat": 38.900294333333335, "name": "216a1af36e53f72eceb3758c45c93245", "lon": -77.02003466666666, "fusion_lon": 0.0}, {"is_reserved": 0, "type": "electric_scooter", "fusion_lat": 0.0, "is_disabled": 0, "rental_uris": {"ios": "https://dc.lft.to/lastmile_qr_scan", "android": "https://dc.lft.to/lastmile_qr_scan"}, "bike_id": "e5821cc55691fcb776d449dcaf333da0", "lat": 38.932685166666666, "name": "e5821cc55691fcb776d449dcaf333da0", "lon": -77.03086333333333, "fusion_lon": 0.0}, {"is_reserved": 0, "type": "electric_scooter", "fusion_lat": 0.0, "is_disabled": 0, "rental_uris": {"ios": "https://dc.lft.to/lastmile_qr_scan", "android": "https://dc.lft.to/lastmile_qr_scan"}, "bike_id": "150632851493d7c86901441348a225e3", "lat": 38.925489166666665, "name": "150632851493d7c86901441348a225e3", "lon": -77.00065783333334, "fusion_lon": 0.0}, {"is_reserved": 0, "type": "electric_scooter", "fusion_lat": 0.0, "is_disabled": 0, "rental_uris": {"ios": "https://dc.lft.to/lastmile_qr_scan", "android": "https://dc.lft.to/lastmile_qr_scan"}, "bike_id": "a9a7b225e09ad81ee5f8259703eacb00", "lat": 38.90320466666667, "name": "a9a7b225e09ad81ee5f8259703eacb00", "lon": -77.010995, "fusion_lon": 0.0}, {"is_reserved": 0, "type": "electric_scooter", "fusion_lat": 0.0, "is_disabled": 0, "rental_uris": {"ios": "https://dc.lft.to/lastmile_qr_scan", "android": "https://dc.lft.to/lastmile_qr_scan"}, "bike_id": "c9ebe2e5c9f3b2bdab2251ce10bf8faf", "lat": 38.93533766666667, "name": "c9ebe2e5c9f3b2bdab2251ce10bf8faf", "lon": -77.02354416666667, "fusion_lon": 0.0}, {"is_reserved": 0, "type": "electric_scooter", "fusion_lat": 0.0, "is_disabled": 0, "rental_uris": {"ios": "https://dc.lft.to/lastmile_qr_scan", "android": "https://dc.lft.to/lastmile_qr_scan"}, "bike_id": "ea2d983234c4ad4c877aecb8bfee0b92", "lat": 38.89193916666667, "name": "ea2d983234c4ad4c877aecb8bfee0b92", "lon": -77.02221933333334, "fusion_lon": 0.0}, {"is_reserved": 0, "type": "electric_scooter", "fusion_lat": 0.0, "is_disabled": 0, "rental_uris": {"ios": "https://dc.lft.to/lastmile_qr_scan", "android": "https://dc.lft.to/lastmile_qr_scan"}, "bike_id": "94dab38a9fff353f940551d616db94d2", "lat": 38.89969, "name": "94dab38a9fff353f940551d616db94d2", "lon": -76.93765933333333, "fusion_lon": 0.0}, {"is_reserved": 0, "type": "electric_scooter", "fusion_lat": 0.0, "is_disabled": 0, "rental_uris": {"ios": "https://dc.lft.to/lastmile_qr_scan", "android": "https://dc.lft.to/lastmile_qr_scan"}, "bike_id": "16183bacbe7469e3979598d2b4b8c308", "lat": 38.905217666666665, "name": "16183bacbe7469e3979598d2b4b8c308", "lon": -77.0678405, "fusion_lon": 0.0}, {"is_reserved": 0, "type": "electric_scooter", "fusion_lat": 0.0, "is_disabled": 0, "rental_uris": {"ios": "https://dc.lft.to/lastmile_qr_scan", "android": "https://dc.lft.to/lastmile_qr_scan"}, "bike_id": "070e1c62f42dc240b533866834d88f0b", "lat": 38.915972, "name": "070e1c62f42dc240b533866834d88f0b", "lon": -77.032, "fusion_lon": 0.0}, {"is_reserved": 0, "type": "electric_scooter", "fusion_lat": 0.0, "is_disabled": 0, "rental_uris": {"ios": "https://dc.lft.to/lastmile_qr_scan", "android": "https://dc.lft.to/lastmile_qr_scan"}, "bike_id": "bc33f7cdc4c98dccdbee205cddb8d2cf", "lat": 38.91710033333333, "name": "bc33f7cdc4c98dccdbee205cddb8d2cf", "lon": -77.0385365, "fusion_lon": 0.0}, {"is_reserved": 0, "type": "electric_scooter", "fusion_lat": 0.0, "is_disabled": 0, "rental_uris": {"ios": "https://dc.lft.to/lastmile_qr_scan", "android": "https://dc.lft.to/lastmile_qr_scan"}, "bike_id": "1c7c3958974c41af2b9da943cc86fecd", "lat": 38.886407166666665, "name": "1c7c3958974c41af2b9da943cc86fecd", "lon": -77.0122445, "fusion_lon": 0.0}, {"is_reserved": 0, "type": "electric_scooter", "fusion_lat": 0.0, "is_disabled": 0, "rental_uris": {"ios": "https://dc.lft.to/lastmile_qr_scan", "android": "https://dc.lft.to/lastmile_qr_scan"}, "bike_id": "e0a509d9374e1cc4a99a8600492c6364", "lat": 38.89843833333333, "name": "e0a509d9374e1cc4a99a8600492c6364", "lon": -77.02857433333334, "fusion_lon": 0.0}, {"is_reserved": 0, "type": "electric_bike", "fusion_lat": 0.0, "is_disabled": 0, "rental_uris": {"ios": "https://dc.lft.to/lastmile_qr_scan", "android": "https://dc.lft.to/lastmile_qr_scan"}, "bike_id": "93ce49ded4c9f363d37f18523f3d2a5d", "lat": 38.83017516666666, "name": "93ce49ded4c9f363d37f18523f3d2a5d", "lon": -77.008403, "fusion_lon": 0.0}, {"is_reserved": 0, "type": "electric_scooter", "fusion_lat": 0.0, "is_disabled": 0, "rental_uris": {"ios": "https://dc.lft.to/lastmile_qr_scan", "android": "https://dc.lft.to/lastmile_qr_scan"}, "bike_id": "aade1cb9e164ebbd7a2048d943d541c9", "lat": 38.89963183333333, "name": "aade1cb9e164ebbd7a2048d943d541c9", "lon": -77.04733966666667, "fusion_lon": 0.0}, {"is_reserved": 0, "type": "electric_bike", "fusion_lat": 0.0, "is_disabled": 0, "rental_uris": {"ios": "https://dc.lft.to/lastmile_qr_scan", "android": "https://dc.lft.to/lastmile_qr_scan"}, "bike_id": "c30f02034ead27766970df65216bdbc9", "lat": 38.846335833333335, "name": "c30f02034ead27766970df65216bdbc9", "lon": -77.06936166666667, "fusion_lon": 0.0}, {"is_reserved": 0, "type": "electric_scooter", "fusion_lat": 0.0, "is_disabled": 0, "rental_uris": {"ios": "https://dc.lft.to/lastmile_qr_scan", "android": "https://dc.lft.to/lastmile_qr_scan"}, "bike_id": "d29d174c793bd299a2244129fd4994a1", "lat": 38.899707166666666, "name": "d29d174c793bd299a2244129fd4994a1", "lon": -76.98317816666666, "fusion_lon": 0.0}, {"is_reserved": 0, "type": "electric_scooter", "fusion_lat": 0.0, "is_disabled": 0, "rental_uris": {"ios": "https://dc.lft.to/lastmile_qr_scan", "android": "https://dc.lft.to/lastmile_qr_scan"}, "bike_id": "7e6e4ffb5658e3d1f9606933dcf5bfda", "lat": 38.9034335, "name": "7e6e4ffb5658e3d1f9606933dcf5bfda", "lon": -77.01106466666667, "fusion_lon": 0.0}, {"is_reserved": 0, "type": "electric_scooter", "fusion_lat": 0.0, "is_disabled": 0, "rental_uris": {"ios": "https://dc.lft.to/lastmile_qr_scan", "android": "https://dc.lft.to/lastmile_qr_scan"}, "bike_id": "b3bc30e5381c6e5c4f580d890f4fc501", "lat": 38.93116283333333, "name": "b3bc30e5381c6e5c4f580d890f4fc501", "lon": -77.03803933333333, "fusion_lon": 0.0}, {"is_reserved": 0, "type": "electric_scooter", "fusion_lat": 0.0, "is_disabled": 0, "rental_uris": {"ios": "https://dc.lft.to/lastmile_qr_scan", "android": "https://dc.lft.to/lastmile_qr_scan"}, "bike_id": "d1ac23bf9aae316d6faa04fd8150d8a6", "lat": 38.90555716666667, "name": "d1ac23bf9aae316d6faa04fd8150d8a6", "lon": -77.00468716666667, "fusion_lon": 0.0},