{"data": {"bikes": [{"name": "62c0385774b8005241883a26225a33c7", "fusion_lat": 0.0, "type": "electric_scooter", "lat": 38.935325666666664, "is_reserved": 0, "is_disabled": 0, "fusion_lon": 0.0, "bike_id": "62c0385774b8005241883a26225a33c7", "lon": -77.03406216666667, "rental_uris": {"ios": "https://dc.lft.to/lastmile_qr_scan", "android": "https://dc.lft.to/lastmile_qr_scan"}}, {"name": "ba7eb91706184587b991b15de63b5a70", "fusion_lat": 0.0, "type": "electric_scooter", "lat": 38.87655066666667, "is_reserved": 0, "is_disabled": 0, "fusion_lon": 0.0, "bike_id": "ba7eb91706184587b991b15de63b5a70", "lon": -77.0006295, "rental_uris": {"ios": "https://dc.lft.to/lastmile_qr_scan", "android": "https://dc.lft.to/lastmile_qr_scan"}}, {"name": "1e270b12add45a7e4816b04f8d21ab36", "fusion_lat": 0.0, "type": "electric_bike", "lat": 38.810464, "is_reserved": 0, "is_disabled": 0, "fusion_lon": 0.0, "bike_id": "1e270b12add45a7e4816b04f8d21ab36", "lon": -77.08510933333334, "rental_uris": {"ios": "https://dc.lft.to/lastmile_qr_scan", "android": "https://dc.lft.to/lastmile_qr_scan"}}, {"name": "bb852bf5971dd7d05debe8d64f233097", "fusion_lat": 0.0, "type": "electric_scooter", "lat": 38.907504333333335, "is_reserved": 0, "is_disabled": 0, "fusion_lon": 0.0, "bike_id": "bb852bf5971dd7d05debe8d64f233097", "lon": -77.03468916666667, "rental_uris": {"ios": "https://dc.lft.to/lastmile_qr_scan", "android": "https://dc.lft.to/lastmile_qr_scan"}}, {"name": "71e6e92058cdcf7b8f52dd04e094bc06", "fusion_lat": 0.0, "type": "electric_bike", "lat": 38.85433483333333, "is_reserved": 0, "is_disabled": 0, "fusion_lon": 0.0, "bike_id": "71e6e92058cdcf7b8f52dd04e094bc06", "lon": -76.90968883333333, "rental_uris": {"ios": "https://dc.lft.to/lastmile_qr_scan", "android": "https://dc.lft.to/lastmile_qr_scan"}}, {"name": "6cb7f3d58066764204cceea654ccb4a0", "fusion_lat": 0.0, "type": "electric_scooter", "lat": 38.93016433333333, "is_reserved": 0, "is_disabled": 0, "fusion_lon": 0.0, "bike_id": "6cb7f3d58066764204cceea654ccb4a0", "lon": -77.01257016666666, "rental_uris": {"ios": "https://dc.lft.to/lastmile_qr_scan", "android": "https://dc.lft.to/lastmile_qr_scan"}}, {"name": "a6955ebf7e3f68c75eb334d3b20abfee", "fusion_lat": 0.0, "type": "electric_scooter", "lat": 38.917686, "is_reserved": 0, "is_disabled": 0, "fusion_lon": 0.0, "bike_id": "a6955ebf7e3f68c75eb334d3b20abfee", "lon": -77.031857, "rental_uris": {"ios": "https://dc.lft.to/lastmile_qr_scan", "android": "https://dc.lft.to/lastmile_qr_scan"}}, {"name": "6812f5c0f7294e4925ac22143c50412c", "fusion_lat": 0.0, "type": "electric_scooter", "lat": 38.89526266666667, "is_reserved": 0, "is_disabled": 0, "fusion_lon": 0.0, "bike_id": "6812f5c0f7294e4925ac22143c50412c", "lon": -76.94893833333333, "rental_uris": {"ios": "https://dc.lft.to/lastmile_qr_scan", "android": "https://dc.lft.to/lastmile_qr_scan"}}, {"name": "b834f0e3e049359f04d8ba989fa56e7f", "fusion_lat": 0.0, "type": "electric_scooter", "lat": 38.8985615, "is_reserved": 0, "is_disabled": 0, "fusion_lon": 0.0, "bike_id": "b834f0e3e049359f04d8ba989fa56e7f", "lon": -77.03963, "rental_uris": {"ios": "https://dc.lft.to/lastmile_qr_scan", "android": "https://dc.lft.to/lastmile_qr_scan"}}, {"name": "1a90f9653d923ce809153bec028b2cfb", "fusion_lat": 0.0, "type": "electric_scooter", "lat": 38.8968485, "is_reserved": 0, "is_disabled": 0, "fusion_lon": 0.0, "bike_id": "1a90f9653d923ce809153bec028b2cfb", "lon": -77.0049725, "rental_uris": {"ios": "https://dc.lft.to/lastmile_qr_scan", "android": "https://dc.lft.to/lastmile_qr_scan"}}, {"name": "b62691a1e7f76a50a74d478e5f038849", "fusion_lat": 0.0, "type": "electric_scooter", "lat": 38.93930533333333, "is_reserved": 0, "is_disabled": 0, "fusion_lon": 0.0, "bike_id": "b62691a1e7f76a50a74d478e5f038849", "lon": -77.036823, "rental_uris": {"ios": "https://dc.lft.to/lastmile_qr_scan", "android": "https://dc.lft.to/lastmile_qr_scan"}}, {"name": "95fe5a3fea4a6650c96209e29afbfd41", "fusion_lat": 0.0, "type": "electric_scooter", "lat": 38.926059, "is_reserved": 0, "is_disabled": 0, "fusion_lon": 0.0, "bike_id": "95fe5a3fea4a6650c96209e29afbfd41", "lon": -77.02157716666666, "rental_uris": {"ios": "https://dc.lft.to/lastmile_qr_scan", "android": "https://dc.lft.to/lastmile_qr_scan"}}, {"name": "a31451e2461866eb4d88ac784056cdb3", "fusion_lat": 0.0, "type": "electric_scooter", "lat": 38.906665333333336, "is_reserved": 0, "is_disabled": 0, "fusion_lon": 0.0, "bike_id": "a31451e2461866eb4d88ac784056cdb3", "lon": -77.0270445, "rental_uris": {"ios": "https://dc.lft.to/lastmile_qr_scan", "android": "https://dc.lft.to/lastmile_qr_scan"}}, {"name": "ee7bde6b3d985c19ff6416e96111dddc", "fusion_lat": 0.0, "type": "electric_scooter", "lat": 38.892330666666666, "is_reserved": 0, "is_disabled": 0, "fusion_lon": 0.0, "bike_id": "ee7bde6b3d985c19ff6416e96111dddc", "lon": -77.05004383333333, "rental_uris": {"ios": "https://dc.lft.to/lastmile_qr_scan", "android": "https://dc.lft.to/lastmile_qr_scan"}}, {"name": "b627cd3d7face1ac548646787060912a", "fusion_lat": 0.0, "type": "electric_scooter", "lat": 38.90254933333333, "is_reserved": 0, "is_disabled": 0, "fusion_lon": 0.0, "bike_id": "b627cd3d7face1ac548646787060912a", "lon": -77.03933433333333, "rental_uris": {"ios": "https://dc.lft.to/lastmile_qr_scan", "android": "https://dc.lft.to/lastmile_qr_scan"}}, {"name": "6201a884954f38836006966bd18279df", "fusion_lat": 0.0, "type": "electric_scooter", "lat": 38.90539183333333, "is_reserved": 0, "is_disabled": 0, "fusion_lon": 0.0, "bike_id": "6201a884954f38836006966bd18279df", "lon": -77.06259616666667, "rental_uris": {"ios": "https://dc.lft.to/lastmile_qr_scan", "android": "https://dc.lft.to/lastmile_qr_scan"}}, {"name": "39286bedca73e2fd1cd4c3de6ad5e82e", "fusion_lat": 0.0, "type": "electric_scooter", "lat": 38.912560166666665, "is_reserved": 0, "is_disabled": 0, "fusion_lon": 0.0, "bike_id": "39286bedca73e2fd1cd4c3de6ad5e82e", "lon": -77.03870583333334, "rental_uris": {"ios": "https://dc.lft.to/lastmile_qr_scan", "android": "https://dc.lft.to/lastmile_qr_scan"}}, {"name": "3766cdbb05637914a56653609e6d29d3", "fusion_lat": 0.0, "type": "electric_scooter", "lat": 38.90723366666667, "is_reserved": 0, "is_disabled": 0, "fusion_lon": 0.0, "bike_id": "3766cdbb05637914a56653609e6d29d3", "lon": -77.00801233333334, "rental_uris": {"ios": "https://dc.lft.to/lastmile_qr_scan", "android": "https://dc.lft.to/lastmile_qr_scan"}}, {"name": "0de00d9474f685257baa97e6c9f8cb20", "fusion_lat": 0.0, "type": "electric_scooter", "lat": 38.930796666666666, "is_reserved": 0, "is_disabled": 0, "fusion_lon": 0.0, "bike_id": "0de00d9474f685257baa97e6c9f8cb20", "lon": -77.02795566666667, "rental_uris": {"ios": "https://dc.lft.to/lastmile_qr_scan", "android": "https://dc.lft.to/lastmile_qr_scan"}}, {"name": "3ce6e55517e051e3e3f8b5cdfa178c47", "fusion_lat": 0.0, "type": "electric_bike", "lat": 38.8562055, "is_reserved": 0, "is_disabled": 0, "fusion_lon": 0.0, "bike_id": "3ce6e55517e051e3e3f8b5cdfa178c47", "lon": -77.08540466666666, "rental_uris": {"ios": "https://dc.lft.to/lastmile_qr_scan", "android": "https://dc.lft.to/lastmile_qr_scan"}}, {"name": "912c0215f2008d7d4fbc1558d6891034", "fusion_lat": 0.0, "type": "electric_scooter", "lat": 38.903322333333335, "is_reserved": 0, "is_disabled": 0, "fusion_lon": 0.0, "bike_id": "912c0215f2008d7d4fbc1558d6891034", "lon": -77.03646233333333, "rental_uris": {"ios": "https://dc.lft.to/lastmile_qr_scan", "android": "https://dc.lft.to/lastmile_qr_scan"}}, {"name": "13089407888b37db162a7223708f8f7e", "fusion_lat": 0.0, "type": "electric_scooter", "lat": 38.9023955, "is_reserved": 0, "is_disabled": 0, "fusion_lon": 0.0, "bike_id": "13089407888b37db162a7223708f8f7e", "lon": -77.01510933333333, "rental_uris": {"ios": "https://dc.lft.to/lastmile_qr_scan", "android": "https://dc.lft.to/lastmile_qr_scan"}}, {"name": "5a1b657f9c848176eb9eaaf6b1333180", "fusion_lat": 0.0, "type": "electric_scooter", "lat": 38.893664, "is_reserved": 0, "is_disabled": 0, "fusion_lon": 0.0, "bike_id": "5a1b657f9c848176eb9eaaf6b1333180", "lon": -77.01183583333334, "rental_uris": {"ios": "https://dc.lft.to/lastmile_qr_scan", "android": "https://dc.lft.to/lastmile_qr_scan"}}, {"name": "e39472904fe4c6819f2fb21a50f210e7", "fusion_lat": 0.0, "type": "electric_scooter", "lat": 38.90922166666667, "is_reserved": 0, "is_disabled": 0, "fusion_lon": 0.0, "bike_id": "e39472904fe4c6819f2fb21a50f210e7", "lon": -77.04208716666666, "rental_uris": {"ios": "https://dc.lft.to/lastmile_qr_scan", "android": "https://dc.lft.to/lastmile_qr_scan"}}, {"name": "a535f4f06dccb6305818d4c97fb8430d", "fusion_lat": 0.0, "type": "electric_bike", "lat": 38.89815933333333, "is_reserved": 0, "is_disabled": 0, "fusion_lon": 0.0, "bike_id": "a535f4f06dccb6305818d4c97fb8430d", "lon": -77.03027616666667, "rental_uris": {"ios": "https://dc.lft.to/lastmile_qr_scan", "android": "https://dc.lft.to/lastmile_qr_scan"}}, {"name": "5f6066db40d849b122516b6a7275334d", "fusion_lat": 0.0, "type": "electric_scooter", "lat": 38.914264833333334, "is_reserved": 0, "is_disabled": 0, "fusion_lon": 0.0, "bike_id": "5f6066db40d849b122516b6a7275334d", "lon": -77.04496066666667, "rental_uris": {"ios": "https://dc.lft.to/lastmile_qr_scan", "android": "https://dc.lft.to/lastmile_qr_scan"}}, {"name": "659ebdd8bade59fb6f9b206339fbb9d9", "fusion_lat": 0.0, "type": "electric_scooter", "lat": 38.866567833333335, "is_reserved": 0, "is_disabled": 0, "fusion_lon": 0.0, "bike_id": "659ebdd8bade59fb6f9b206339fbb9d9", "lon": -76.98886416666667, "rental_uris": {"ios": "https://dc.lft.to/lastmile_qr_scan", "android": "https://dc.lft.to/lastmile_qr_scan"}}, {"name": "f9f9ab3afdf4f69e19110f4c56f864d7", "fusion_lat": 0.0, "type": "electric_scooter", "lat": 38.8812015, "is_reserved": 0, "is_disabled": 0, "fusion_lon": 0.0, "bike_id": "f9f9ab3afdf4f69e19110f4c56f864d7", "lon": -77.01648, "rental_uris": {"ios": "https://dc.lft.to/lastmile_qr_scan", "android": "https://dc.lft.to/lastmile_qr_scan"}}, {"name": "034997dd98d3eaecd68488680ed36a85", "fusion_lat": 0.0, "type": "electric_bike", "lat": 39.024199833333334, "is_reserved": 0, "is_disabled": 0, "fusion_lon": 0.0, "bike_id": "034997dd98d3eaecd68488680ed36a85", "lon": -77.12503916666667, "rental_uris": {"ios": "https://dc.lft.to/lastmile_qr_scan", "android": "https://dc.lft.to/lastmile_qr_scan"}}, {"name": "168d088021b3f67472ac9e9d8a99c0b2", "fusion_lat": 0.0, "type": "electric_scooter", "lat": 38.89221366666666, "is_reserved": 0, "is_disabled": 0, "fusion_lon": 0.0, "bike_id": "168d088021b3f67472ac9e9d8a99c0b2", "lon": -77.03978916666667, "rental_uris": {"ios": "https://dc.lft.to/lastmile_qr_scan", "android": "https://dc.lft.to/lastmile_qr_scan"}}, {"name": "2c1d3521deea5d787dc11ff3c932c19e", "fusion_lat": 0.0, "type": "electric_scooter", "lat": 38.89598216666667, "is_reserved": 0, "is_disabled": 0, "fusion_lon": 0.0, "bike_id": "2c1d3521deea5d787dc11ff3c932c19e", "lon": -77.041377, "rental_uris": {"ios": "https://dc.lft.to/lastmile_qr_scan", "android": "https://dc.lft.to/lastmile_qr_scan"}}, {"name": "654ef93d09688cc1b71d38a3bc721562", "fusion_lat": 0.0, "type": "electric_bike", "lat": 38.88115116666667, "is_reserved": 0, "is_disabled": 0, "fusion_lon": 0.0, "bike_id": "654ef93d09688cc1b71d38a3bc721562", "lon": -77.1118, "rental_uris": {"ios": "https://dc.lft.to/lastmile_qr_scan", "android": "https://dc.lft.to/lastmile_qr_scan"}}, {"name": "5ab98b5137a8998006f61111d172e35a", "fusion_lat": 0.0, "type": "electric_scooter", "lat": 38.9027015, "is_reserved": 0, "is_disabled": 0, "fusion_lon": 0.0, "bike_id": "5ab98b5137a8998006f61111d172e35a", "lon": -77.0176155, "rental_uris": {"ios": "https://dc.lft.to/lastmile_qr_scan", "android": "https://dc.lft.to/lastmile_qr_scan"}}, {"name": "4396508f653e0cd2ec2e4c11b992026e", "fusion_lat": 0.0, "type": "electric_scooter", "lat": 38.9180615, "is_reserved": 0, "is_disabled": 0, "fusion_lon": 0.0, "bike_id": "4396508f653e0cd2ec2e4c11b992026e", "lon": -77.02498466666667, "rental_uris": {"ios": "https://dc.lft.to/lastmile_qr_scan", "android": "https://dc.lft.to/lastmile_qr_scan"}}, {"name": "e8d61e289b666a10c66cf89ac15dbf2c", "fusion_lat": 0.0, "type": "electric_scooter", "lat": 38.915613, "is_reserved": 0, "is_disabled": 0, "fusion_lon": 0.0, "bike_id": "e8d61e289b666a10c66cf89ac15dbf2c", "lon": -77.03895983333334, "rental_uris": {"ios": "https://dc.lft.to/lastmile_qr_scan", "android": "https://dc.lft.to/lastmile_qr_scan"}}, {"name": "7406c58d004c758ed2e9a2fee1feda2f", "fusion_lat": 0.0, "type": "electric_scooter", "lat": 38.896056, "is_reserved": 0, "is_disabled": 0, "fusion_lon": 0.0, "bike_id": "7406c58d004c758ed2e9a2fee1feda2f", "lon": -77.02167333333334, "rental_uris": {"ios": "https://dc.lft.to/lastmile_qr_scan", "android": "https://dc.lft.to/lastmile_qr_scan"}}, {"name": "6078ee2c0da916d93abce4e1f1a81201", "fusion_lat": 0.0, "type": "electric_scooter", "lat": 38.89567133333333, "is_reserved": 0, "is_disabled": 0, "fusion_lon": 0.0, "bike_id": "6078ee2c0da916d93abce4e1f1a81201", "lon": -77.01348916666667, "rental_uris": {"ios": "https://dc.lft.to/lastmile_qr_scan", "android": "https://dc.lft.to/lastmile_qr_scan"}}, {"name": "d794e63e981ed3dfdfcec250031d7eb2", "fusion_lat": 0.0, "type": "electric_scooter", "lat": 38.924664666666665, "is_reserved": 0, "is_disabled": 0, "fusion_lon": 0.0, "bike_id": "d794e63e981ed3dfdfcec250031d7eb2", "lon": -77.02716033333333, "rental_uris": {"ios": "https://dc.lft.to/lastmile_qr_scan", "android": "https://dc.lft.to/lastmile_qr_scan"}}, {"name": "f4bcbfee118baf3975958a90065f2eec", "fusion_lat": 0.0, "type": "electric_scooter", "lat": 38.865011833333334, "is_reserved": 0, "is_disabled": 0, "fusion_lon": 0.0, "bike_id": "f4bcbfee118baf3975958a90065f2eec", "lon": -76.99001416666667, "rental_uris": {"ios": "https://dc.lft.to/lastmile_qr_scan", "android": "https://dc.lft.to/lastmile_qr_scan"}}, {"name": "358beadbc829f4af41715679425e1292", "fusion_lat": 0.0, "type": "electric_scooter", "lat": 38.912916, "is_reserved": 0, "is_disabled": 0, "fusion_lon": 0.0, "bike_id": "358beadbc829f4af41715679425e1292", "lon": -77.0611665, "rental_uris": {"ios": "https://dc.lft.to/lastmile_qr_scan", "android": "https://dc.lft.to/lastmile_qr_scan"}}, {"name": "ef3b7a055e0e00795dd03c0c00b8c947", "fusion_lat": 0.0, "type": "electric_scooter", "lat": 38.942570333333336, "is_reserved": 0, "is_disabled": 0, "fusion_lon": 0.0, "bike_id": "ef3b7a055e0e00795dd03c0c00b8c947", "lon": -77.0413505, "rental_uris": {"ios": "https://dc.lft.to/lastmile_qr_scan", "android": "https://dc.lft.to/lastmile_qr_scan"}}, {"name": "06571356bf823279d252e6915f422ce0", "fusion_lat": 0.0, "type": "electric_scooter", "lat": 38.907299, "is_reserved": 0, "is_disabled": 0, "fusion_lon": 0.0, "bike_id": "06571356bf823279d252e6915f422ce0", "lon": -77.01069516666666, "rental_uris": {"ios": "https://dc.lft.to/lastmile_qr_scan", "android": "https://dc.lft.to/lastmile_qr_scan"}}, {"name": "8471a2ee070af328435081ebc5019347", "fusion_lat": 0.0, "type": "electric_scooter", "lat": 38.918243, "is_reserved": 0, "is_disabled": 0, "fusion_lon": 0.0, "bike_id": "8471a2ee070af328435081ebc5019347", "lon": -77.02420516666666, "rental_uris": {"ios": "https://dc.lft.to/lastmile_qr_scan", "android": "https://dc.lft.to/lastmile_qr_scan"}}, {"name": "5a71f8eb4b03f2bdf85da5e600528c55", "fusion_lat": 0.0, "type": "electric_scooter", "lat": 38.8853125, "is_reserved": 0, "is_disabled": 0, "fusion_lon": 0.0, "bike_id": "5a71f8eb4b03f2bdf85da5e600528c55", "lon": -76.98053433333334, "rental_uris": {"ios": "https://dc.lft.to/lastmile_qr_scan", "android": "https://dc.lft.to/lastmile_qr_scan"}}, {"name": "272f12f34c4eda83b174c084f973637b", "fusion_lat": 0.0, "type": "electric_scooter", "lat": 38.86250666666667, "is_reserved": 0, "is_disabled": 0, "fusion_lon": 0.0, "bike_id": "272f12f34c4eda83b174c084f973637b", "lon": -76.99530116666666, "rental_uris": {"ios": "https://dc.lft.to/lastmile_qr_scan", "android": "https://dc.lft.to/lastmile_qr_scan"}}, {"name": "9c66d39b76d4dc1aaa914264c303b8e4", "fusion_lat": 0.0, "type": "electric_scooter", "lat": 38.901470333333336, "is_reserved": 0, "is_disabled": 0, "fusion_lon": 0.0, "bike_id": "9c66d39b76d4dc1aaa914264c303b8e4", "lon": -76.97424633333333, "rental_uris": {"ios": "https://dc.lft.to/lastmile_qr_scan", "android": "https://dc.lft.to/lastmile_qr_scan"}}, {"name": "6ab23b199aea9539c08852134efd0c0d", "fusion_lat": 0.0, "type": "electric_scooter", "lat": 38.93735566666667, "is_reserved": 0, "is_disabled": 0, "fusion_lon": 0.0, "bike_id": "6ab23b199aea9539c08852134efd0c0d", "lon": -77.032463, "rental_uris": {"ios": "https://dc.lft.to/lastmile_qr_scan", "android": "https://dc.lft.to/lastmile_qr_scan"}}, {"name": "45901e8c1bf58751da64a850282b1ec0", "fusion_lat": 0.0, "type": "electric_scooter", "lat": 38.93870833333333, "is_reserved": 0, "is_disabled": 0, "fusion_lon": 0.0, "bike_id": "45901e8c1bf58751da64a850282b1ec0", "lon": -77.03261883333333, "rental_uris": {"ios": "https://dc.lft.to/lastmile_qr_scan", "android": "https://dc.lft.to/lastmile_qr_scan"}}, {"name": "3110d18ea8d79c909dc31733597f7d35", "fusion_lat": 0.0, "type": "electric_scooter", "lat": 38.91913016666667, "is_reserved": 0, "is_disabled": 0, "fusion_lon": 0.0, "bike_id": "3110d18ea8d79c909dc31733597f7d35", "lon": -77.03627866666666, "rental_uris": {"ios": "https://dc.lft.to/lastmile_qr_scan", "android": "https://dc.lft.to/lastmile_qr_scan"}}, {"name": "1cb44695dfa973e2d51bddf59adbc913", "fusion_lat": 0.0, "type": "electric_bike", "lat": 38.921485833333335, "is_reserved": 0, "is_disabled": 0, "fusion_lon": 0.0, "bike_id": "1cb44695dfa973e2d51bddf59adbc913", "lon": -77.03871083333334, "rental_uris": {"ios": "https://dc.lft.to/lastmile_qr_scan", "android": "https://dc.lft.to/lastmile_qr_scan"}}, {"name": "8f7cca5ec560da44f5f324c3cba97654", "fusion_lat": 0.0, "type": "electric_scooter", "lat": 38.8802865, "is_reserved": 0, "is_disabled": 0, "fusion_lon": 0.0, "bike_id": "8f7cca5ec560da44f5f324c3cba97654", "lon": -77.02501916666667, "rental_uris": {"ios": "https://dc.lft.to/lastmile_qr_scan", "android": "https://dc.lft.to/lastmile_qr_scan"}}, {"name": "2a74841faa7b4876734b1cf63e8491d8", "fusion_lat": 0.0, "type": "electric_scooter", "lat": 38.93467116666667, "is_reserved": 0, "is_disabled": 0, "fusion_lon": 0.0, "bike_id": "2a74841faa7b4876734b1cf63e8491d8", "lon": -77.03524133333333, "rental_uris": {"ios": "https://dc.lft.to/lastmile_qr_scan", "android": "https://dc.lft.to/lastmile_qr_scan"}}, {"name": "e656200c16c34e8e5ecb1ca86c45581b", "fusion_lat": 0.0, "type": "electric_scooter", "lat": 38.89729166666667, "is_reserved": 0, "is_disabled": 0, "fusion_lon": 0.0, "bike_id": "e656200c16c34e8e5ecb1ca86c45581b", "lon": -77.02164433333333, "rental_uris": {"ios": "https://dc.lft.to/lastmile_qr_scan", "android": "https://dc.lft.to/lastmile_qr_scan"}}, {"name": "583ee09a67c66a13645b3e3bc932350d", "fusion_lat": 0.0, "type": "electric_scooter", "lat": 38.962285, "is_reserved": 0, "is_disabled": 0, "fusion_lon": 0.0, "bike_id": "583ee09a67c66a13645b3e3bc932350d", "lon": -77.02981783333334, "rental_uris": {"ios": "https://dc.lft.to/lastmile_qr_scan", "android": "https://dc.lft.to/lastmile_qr_scan"}}, {"name": "dc628dd825ed0558e5ca27a1c5b162b9", "fusion_lat": 0.0, "type": "electric_scooter", "lat": 38.92824816666667, "is_reserved": 0, "is_disabled": 0, "fusion_lon": 0.0, "bike_id": "dc628dd825ed0558e5ca27a1c5b162b9", "lon": -77.0225705, "rental_uris": {"ios": "https://dc.lft.to/lastmile_qr_scan", "android": "https://dc.lft.to/lastmile_qr_scan"}}, {"name": "e303568e5a7fe16f8041af8b5a8d3e9b", "fusion_lat": 0.0, "type": "electric_scooter", "lat": 38.9257515, "is_reserved": 0, "is_disabled": 0, "fusion_lon": 0.0, "bike_id": "e303568e5a7fe16f8041af8b5a8d3e9b", "lon": -76.994993, "rental_uris": {"ios": "https://dc.lft.to/lastmile_qr_scan", "android": "https://dc.lft.to/lastmile_qr_scan"}}, {"name": "15f8a0f0a93a8740b33bda86d4f2ef03", "fusion_lat": 0.0, "type": "electric_scooter", "lat": 38.90583616666667, "is_reserved": 0, "is_disabled": 0, "fusion_lon": 0.0, "bike_id": "15f8a0f0a93a8740b33bda86d4f2ef03", "lon": -77.04875633333333, "rental_uris": {"ios": "https://dc.lft.to/lastmile_qr_scan", "android": "https://dc.lft.to/lastmile_qr_scan"}}, {"name": "20092c8ea4872932975835c8a32f1a47", "fusion_lat": 0.0, "type": "electric_scooter", "lat": 38.8823125, "is_reserved": 0, "is_disabled": 0, "fusion_lon": 0.0, "bike_id": "20092c8ea4872932975835c8a32f1a47", "lon": -77.025829, "rental_uris": {"ios": "https://dc.lft.to/lastmile_qr_scan", "android": "https://dc.lft.to/lastmile_qr_scan"}}, {"name": "1ac33a59c9e80ba1d3c1c24d0700eda4", "fusion_lat": 0.0, "type": "electric_scooter", "lat": 38.922346, "is_reserved": 0, "is_disabled": 0, "fusion_lon": 0.0, "bike_id": "1ac33a59c9e80ba1d3c1c24d0700eda4", "lon": -77.04718016666666, "rental_uris": {"ios": "https://dc.lft.to/lastmile_qr_scan", "android": "https://dc.lft.to/lastmile_qr_scan"}}, {"name": "2f565d25fb64182c84b43d3e8caa501b", "fusion_lat": 0.0, "type": "electric_scooter", "lat": 38.90905866666667, "is_reserved": 0, "is_disabled": 0, "fusion_lon": 0.0, "bike_id": "2f565d25fb64182c84b43d3e8caa501b", "lon": -77.0487725, "rental_uris": {"ios": "https://dc.lft.to/lastmile_qr_scan", "android": "https://dc.lft.to/lastmile_qr_scan"}}, {"name": "7722d81022f91af46ba308577abb98f6", "fusion_lat": 0.0, "type": "electric_scooter", "lat": 38.861555333333335, "is_reserved": 0, "is_disabled": 0, "fusion_lon": 0.0, "bike_id": "7722d81022f91af46ba308577abb98f6", "lon": -76.9890075, "rental_uris": {"ios": "https://dc.lft.to/lastmile_qr_scan", "android": "https://dc.lft.to/lastmile_qr_scan"}}, {"name": "6d7395be5f7ef4c05a212885fcb49764", "fusion_lat": 0.0, "type": "electric_scooter", "lat": 38.9255045, "is_reserved": 0, "is_disabled": 0, "fusion_lon": 0.0, "bike_id": "6d7395be5f7ef4c05a212885fcb49764", "lon": -77.03226866666667, "rental_uris": {"ios": "https://dc.lft.to/lastmile_qr_scan", "android": "https://dc.lft.to/lastmile_qr_scan"}}, {"name": "1ac655fe4b7dbea8c4be4e0172ea5888", "fusion_lat": 0.0, "type": "electric_bike", "lat": 38.96009216666667, "is_reserved": 0, "is_disabled": 0, "fusion_lon": 0.0, "bike_id": "1ac655fe4b7dbea8c4be4e0172ea5888", "lon": -76.99878083333333, "rental_uris": {"ios": "https://dc.lft.to/lastmile_qr_scan", "android": "https://dc.lft.to/lastmile_qr_scan"}}, {"name": "5662636e4a4a0110485f34dc387945d7", "fusion_lat": 0.0, "type": "electric_scooter", "lat": 38.90535216666667, "is_reserved": 0, "is_disabled": 0, "fusion_lon": 0.0, "bike_id": "5662636e4a4a0110485f34dc387945d7", "lon": -77.04774516666667, "rental_uris": {"ios": "https://dc.lft.to/lastmile_qr_scan", "android": "https://dc.lft.to/lastmile_qr_scan"}}, {"name": "14174bcb16ce3440cecdc583f606f337", "fusion_lat": 0.0, "type": "electric_scooter", "lat": 38.912846, "is_reserved": 0, "is_disabled": 0, "fusion_lon": 0.0, "bike_id": "14174bcb16ce3440cecdc583f606f337", "lon": -76.93796216666667, "rental_uris": {"ios": "https://dc.lft.to/lastmile_qr_scan", "android": "https://dc.lft.to/lastmile_qr_scan"}}, {"name": "92a2af10b19d81616b6df380354d1c99", "fusion_lat": 0.0, "type": "electric_scooter", "lat": 38.92666766666667, "is_reserved": 0, "is_disabled": 0, "fusion_lon": 0.0, "bike_id": "92a2af10b19d81616b6df380354d1c99", "lon": -76.99544383333334, "rental_uris": {"ios": "https://dc.lft.to/lastmile_qr_scan", "android": "https://dc.lft.to/lastmile_qr_scan"}}, {"name": "634b141ecabc66bf9c2a6fff4d6ad9af", "fusion_lat": 0.0, "type": "electric_scooter", "lat": 38.89977916666667, "is_reserved": 0, "is_disabled": 0, "fusion_lon": 0.0, "bike_id": "634b141ecabc66bf9c2a6fff4d6ad9af", "lon": -77.039308, "rental_uris": {"ios": "https://dc.lft.to/lastmile_qr_scan", "android": "https://dc.lft.to/lastmile_qr_scan"}}, {"name": "7a84b8bbdad27cc96b433ca813c67b46", "fusion_lat": 0.0, "type": "electric_scooter", "lat": 38.905616, "is_reserved": 0, "is_disabled": 0, "fusion_lon": 0.0, "bike_id": "7a84b8bbdad27cc96b433ca813c67b46", "lon": -77.02218083333334, "rental_uris": {"ios": "https://dc.lft.to/lastmile_qr_scan", "android": "https://dc.lft.to/lastmile_qr_scan"}}, {"name": "192869d42e9307846bd3458e8eb7080f", "fusion_lat": 0.0, "type": "electric_scooter", "lat": 38.90248716666667, "is_reserved": 0, "is_disabled": 0, "fusion_lon": 0.0, "bike_id": "192869d42e9307846bd3458e8eb7080f", "lon": -77.05143416666667, "rental_uris": {"ios": "https://dc.lft.to/lastmile_qr_scan", "android": "https://dc.lft.to/lastmile_qr_scan"}}, {"name": "489f1c628c7e21d8362a2e2332ffbd51", "fusion_lat": 0.0, "type": "electric_scooter", "lat": 38.925906833333336, "is_reserved": 0, "is_disabled": 0, "fusion_lon": 0.0, "bike_id": "489f1c628c7e21d8362a2e2332ffbd51", "lon": -77.00853966666666, "rental_uris": {"ios": "https://dc.lft.to/lastmile_qr_scan", "android": "https://dc.lft.to/lastmile_qr_scan"}}, {"name": "0174426d93744a9d1e2b5b60a34c64ec", "fusion_lat": 0.0, "type": "electric_scooter", "lat": 38.92480783333333, "is_reserved": 0, "is_disabled": 0, "fusion_lon": 0.0, "bike_id": "0174426d93744a9d1e2b5b60a34c64ec", "lon": -77.02995633333333, "rental_uris": {"ios": "https://dc.lft.to/lastmile_qr_scan", "android": "https://dc.lft.to/lastmile_qr_scan"}}, {"name": "2e9f7d8f763ac13642ccdb96c7567b54", "fusion_lat": 0.0, "type": "electric_scooter", "lat": 38.91812933333333, "is_reserved": 0, "is_disabled": 0, "fusion_lon": 0.0, "bike_id": "2e9f7d8f763ac13642ccdb96c7567b54", "lon": -77.03215416666667, "rental_uris": {"ios": "https://dc.lft.to/lastmile_qr_scan", "android": "https://dc.lft.to/lastmile_qr_scan"}}, {"name": "0846778718ca363c5068aff57320ae5a", "fusion_lat": 0.0, "type": "electric_scooter", "lat": 38.903520666666665, "is_reserved": 0, "is_disabled": 0, "fusion_lon": 0.0, "bike_id": "0846778718ca363c5068aff57320ae5a", "lon": -77.04509216666666, "rental_uris": {"ios": "https://dc.lft.to/lastmile_qr_scan", "android": "https://dc.lft.to/lastmile_qr_scan"}}, {"name": "6d7338b27dde92586c66a901bae9f01e", "fusion_lat": 0.0, "type": "electric_scooter", "lat": 38.938957333333335, "is_reserved": 0, "is_disabled": 0, "fusion_lon": 0.0, "bike_id": "6d7338b27dde92586c66a901bae9f01e", "lon": -77.01758416666667, "rental_uris": {"ios": "https://dc.lft.to/lastmile_qr_scan", "android": "https://dc.lft.to/lastmile_qr_scan"}}, {"name": "3124b2b0918642ef2347d35c34facb45", "fusion_lat": 0.0, "type": "electric_bike", "lat": 38.88819983333333, "is_reserved": 0, "is_disabled": 0, "fusion_lon": 0.0, "bike_id": "3124b2b0918642ef2347d35c34facb45", "lon": -77.12745733333334, "rental_uris": {"ios": "https://dc.lft.to/lastmile_qr_scan", "android": "https://dc.lft.to/lastmile_qr_scan"}}, {"name": "6f8cbc034fcbfc76195e8358389d54e1", "fusion_lat": 0.0, "type": "electric_scooter", "lat": 38.930342833333334, "is_reserved": 0, "is_disabled": 0, "fusion_lon": 0.0, "bike_id": "6f8cbc034fcbfc76195e8358389d54e1", "lon": -77.0836535, "rental_uris": {"ios": "https://dc.lft.to/lastmile_qr_scan", "android": "https://dc.lft.to/lastmile_qr_scan"}}, {"name": "e2bca7ae477a9188f616e6539b2b7ad9", "fusion_lat": 0.0, "type": "electric_scooter", "lat": 38.8922095, "is_reserved": 0, "is_disabled": 0, "fusion_lon": 0.0, "bike_id": "e2bca7ae477a9188f616e6539b2b7ad9", "lon": -77.0223185, "rental_uris": {"ios": "https://dc.lft.to/lastmile_qr_scan", "android": "https://dc.lft.to/lastmile_qr_scan"}}, {"name": "3521b429b68ae6e60b752f9f9b513d4d", "fusion_lat": 0.0, "type": "electric_scooter", "lat": 38.8983295, "is_reserved": 0, "is_disabled": 0, "fusion_lon": 0.0, "bike_id": "3521b429b68ae6e60b752f9f9b513d4d", "lon": -76.946435, "rental_uris": {"ios": "https://dc.lft.to/lastmile_qr_scan", "android": "https://dc.lft.to/lastmile_qr_scan"}}, {"name": "8530afde29b359c168c131e024102b54", "fusion_lat": 0.0, "type": "electric_scooter", "lat": 38.91553583333334, "is_reserved": 0, "is_disabled": 0, "fusion_lon": 0.0, "bike_id": "8530afde29b359c168c131e024102b54", "lon": -77.0323925, "rental_uris": {"ios": "https://dc.lft.to/lastmile_qr_scan", "android": "https://dc.lft.to/lastmile_qr_scan"}}, {"name": "b55ac7f381274c14b8ff945beedfb2f1", "fusion_lat": 0.0, "type": "electric_scooter", "lat": 38.897635333333334, "is_reserved": 0, "is_disabled": 0, "fusion_lon": 0.0, "bike_id": "b55ac7f381274c14b8ff945beedfb2f1", "lon": -77.05156666666667, "rental_uris": {"ios": "https://dc.lft.to/lastmile_qr_scan", "android": "https://dc.lft.to/lastmile_qr_scan"}}, {"name": "70a776df7afcb53128165f9d1c90d83f", "fusion_lat": 0.0, "type": "electric_scooter", "lat": 38.918022666666666, "is_reserved": 0, "is_disabled": 0, "fusion_lon": 0.0, "bike_id": "70a776df7afcb53128165f9d1c90d83f", "lon": -77.04025216666666, "rental_uris": {"ios": "https://dc.lft.to/lastmile_qr_scan", "android": "https://dc.lft.to/lastmile_qr_scan"}}, {"name": "624a2a9f1bfe9b8eea9ac330f606f12d", "fusion_lat": 0.0, "type": "electric_bike", "lat": 38.8524565, "is_reserved": 0, "is_disabled": 0, "fusion_lon": 0.0, "bike_id": "624a2a9f1bfe9b8eea9ac330f606f12d", "lon": -77.114305, "rental_uris": {"ios": "https://dc.lft.to/lastmile_qr_scan", "android": "https://dc.lft.to/lastmile_qr_scan"}}, {"name": "bcf12684817e3a125c5617bc63a4d055", "fusion_lat": 0.0, "type": "electric_scooter", "lat": 38.90569433333334, "is_reserved": 0, "is_disabled": 0, "fusion_lon": 0.0, "bike_id": "bcf12684817e3a125c5617bc63a4d055", "lon": -77.00615016666667, "rental_uris": {"ios": "https://dc.lft.to/lastmile_qr_scan", "android": "https://dc.lft.to/lastmile_qr_scan"}}, {"name": "0acc1df7265aec6de5dd2381a24f11fd", "fusion_lat": 0.0, "type": "electric_scooter", "lat": 38.8922125, "is_reserved": 0, "is_disabled": 0, "fusion_lon": 0.0, "bike_id": "0acc1df7265aec6de5dd2381a24f11fd", "lon": -77.02230983333334, "rental_uris": {"ios": "https://dc.lft.to/lastmile_qr_scan", "android": "https://dc.lft.to/lastmile_qr_scan"}}, {"name": "e39ccd72d3a4548651a6b21a45a4d3e6", "fusion_lat": 0.0, "type": "electric_scooter", "lat": 38.918129666666665, "is_reserved": 0, "is_disabled": 0, "fusion_lon": 0.0, "bike_id": "e39ccd72d3a4548651a6b21a45a4d3e6", "lon": -77.032121, "rental_uris": {"ios": "https://dc.lft.to/lastmile_qr_scan", "android": "https://dc.lft.to/lastmile_qr_scan"}}, {"name": "1f12ea9aa07b7dc0ad1878e58c54bc45", "fusion_lat": 0.0, "type": "electric_scooter", "lat": 38.90513133333333, "is_reserved": 0, "is_disabled": 0, "fusion_lon": 0.0, "bike_id": "1f12ea9aa07b7dc0ad1878e58c54bc45", "lon": -77.02952516666667, "rental_uris": {"ios": "https://dc.lft.to/lastmile_qr_scan", "android": "https://dc.lft.to/lastmile_qr_scan"}}, {"name": "40f24af3f121e7a8e617c20e9b7233f1", "fusion_lat": 0.0, "type": "electric_scooter", "lat": 38.91700433333333, "is_reserved": 0, "is_disabled": 0, "fusion_lon": 0.0, "bike_id": "40f24af3f121e7a8e617c20e9b7233f1", "lon": -77.03143983333334, "rental_uris": {"ios": "https://dc.lft.to/lastmile_qr_scan", "android": "https://dc.lft.to/lastmile_qr_scan"}}, {"name": "65ad89b3cf001d55aca37cce9b92cc64", "fusion_lat": 0.0, "type": "electric_scooter", "lat": 38.88486916666667, "is_reserved": 0, "is_disabled": 0, "fusion_lon": 0.0, "bike_id": "65ad89b3cf001d55aca37cce9b92cc64", "lon": -77.00716533333333, "rental_uris": {"ios": "https://dc.lft.to/lastmile_qr_scan", "android": "https://dc.lft.to/lastmile_qr_scan"}}, {"name": "3b6e28017b569a5d7e07bf7a11ded6e5", "fusion_lat": 0.0, "type": "electric_scooter", "lat": 38.912698666666664, "is_reserved": 0, "is_disabled": 0, "fusion_lon": 0.0, "bike_id": "3b6e28017b569a5d7e07bf7a11ded6e5", "lon": -77.03874033333334, "rental_uris": {"ios": "https://dc.lft.to/lastmile_qr_scan", "android": "https://dc.lft.to/lastmile_qr_scan"}}, {"name": "4efe532d77760c7824ce96cec5b2c25c", "fusion_lat": 0.0, "type": "electric_scooter", "lat": 38.8979895, "is_reserved": 0, "is_disabled": 0, "fusion_lon": 0.0, "bike_id": "4efe532d77760c7824ce96cec5b2c25c", "lon": -77.04618966666666, "rental_uris": {"ios": "https://dc.lft.to/lastmile_qr_scan", "android": "https://dc.lft.to/lastmile_qr_scan"}}, {"name": "fa2f69f2fb963f8aec5c08dd5a43f70d", "fusion_lat": 0.0, "type": "electric_scooter", "lat": 38.922248333333336, "is_reserved": 0, "is_disabled": 0, "fusion_lon": 0.0, "bike_id": "fa2f69f2fb963f8aec5c08dd5a43f70d", "lon": -77.021145, "rental_uris": {"ios": "https://dc.lft.to/lastmile_qr_scan", "android": "https://dc.lft.to/lastmile_qr_scan"}}, {"name": "239273e1053304a3b032f1e958a94fc4", "fusion_lat": 0.0, "type": "electric_scooter", "lat": 38.91923966666667, "is_reserved": 0, "is_disabled": 0, "fusion_lon": 0.0, "bike_id": "239273e1053304a3b032f1e958a94fc4", "lon": -77.0325085, "rental_uris": {"ios": "https://dc.lft.to/lastmile_qr_scan", "android": "https://dc.lft.to/lastmile_qr_scan"}}, {"name": "1199489d75cf0ad39b562585b6f4f506", "fusion_lat": 0.0, "type": "electric_scooter", "lat": 38.88504016666667, "is_reserved": 0, "is_disabled": 0, "fusion_lon": 0.0, "bike_id": "1199489d75cf0ad39b562585b6f4f506", "lon": -77.02195766666667, "rental_uris": {"ios": "https://dc.lft.to/lastmile_qr_scan", "android": "https://dc.lft.to/lastmile_qr_scan"}}, {"name": "b0f3a3274f1d961288ebbc40046364a9", "fusion_lat": 0.0, "type": "electric_scooter", "lat": 38.9121445, "is_reserved": 0, "is_disabled": 0, "fusion_lon": 0.0, "bike_id": "b0f3a3274f1d961288ebbc40046364a9", "lon": -77.07594883333333, "rental_uris": {"ios": "https://dc.lft.to/lastmile_qr_scan", "android": "https://dc.lft.to/lastmile_qr_scan"}}, {"name": "1475abb5d08854ff2676feec1e82bcae", "fusion_lat": 0.0, "type": "electric_scooter", "lat": 38.914035166666665, "is_reserved": 0, "is_disabled": 0, "fusion_lon": 0.0, "bike_id": "1475abb5d08854ff2676feec1e82bcae", "lon": -77.03218433333333, "rental_uris": {"ios": "https://dc.lft.to/lastmile_qr_scan", "android": "https://dc.lft.to/lastmile_qr_scan"}}, {"name": "10a0dc36bfed235c551510c4ab888b62", "fusion_lat": 0.0, "type": "electric_scooter", "lat": 38.895875, "is_reserved": 0, "is_disabled": 0, "fusion_lon": 0.0, "bike_id": "10a0dc36bfed235c551510c4ab888b62", "lon": -76.93721883333333, "rental_uris": {"ios": "https://dc.lft.to/lastmile_qr_scan", "android": "https://dc.lft.to/lastmile_qr_scan"}}, {"name": "ce12caa3f30e59dfd413c6ac32e22e96", "fusion_lat": 0.0, "type": "electric_scooter", "lat": 38.896487666666665, "is_reserved": 0, "is_disabled": 0, "fusion_lon": 0.0, "bike_id": "ce12caa3f30e59dfd413c6ac32e22e96", "lon": -77.00936083333333, "rental_uris": {"ios": "https://dc.lft.to/lastmile_qr_scan", "android": "https://dc.lft.to/lastmile_qr_scan"}}, {"name": "317ccc9d6219f7519a87c6ea1a127ac7", "fusion_lat": 0.0, "type": "electric_scooter", "lat": 38.9090445, "is_reserved": 0, "is_disabled": 0, "fusion_lon": 0.0, "bike_id": "317ccc9d6219f7519a87c6ea1a127ac7", "lon": -77.02715366666666, "rental_uris": {"ios": "https://dc.lft.to/lastmile_qr_scan", "android": "https://dc.lft.to/lastmile_qr_scan"}}, {"name": "4e4284295135e9dcf726794b8746865c", "fusion_lat": 0.0, "type": "electric_scooter", "lat": 38.900251833333336, "is_reserved": 0, "is_disabled": 0, "fusion_lon": 0.0, "bike_id": "4e4284295135e9dcf726794b8746865c", "lon": -77.00197416666667, "rental_uris": {"ios": "https://dc.lft.to/lastmile_qr_scan", "android": "https://dc.lft.to/lastmile_qr_scan"}}, {"name": "0a7bc76a5d8ba196ffde9cd2166860df", "fusion_lat": 0.0, "type": "electric_bike", "lat": 38.92728266666667, "is_reserved": 0, "is_disabled": 0, "fusion_lon": 0.0, "bike_id": "0a7bc76a5d8ba196ffde9cd2166860df", "lon": -77.0134965, "rental_uris": {"ios": "https://dc.lft.to/lastmile_qr_scan", "android": "https://dc.lft.to/lastmile_qr_scan"}}, {"name": "08d3973f36b78ad7915374e2d91574e9", "fusion_lat": 0.0, "type": "electric_scooter", "lat": 38.928716333333334, "is_reserved": 0, "is_disabled": 0, "fusion_lon": 0.0, "bike_id": "08d3973f36b78ad7915374e2d91574e9", "lon": -77.0337165, "rental_uris": {"ios": "https://dc.lft.to/lastmile_qr_scan", "android": "https://dc.lft.to/lastmile_qr_scan"}}, {"name": "eb73929ace1ff89dddc9ff01116f3ed6", "fusion_lat": 0.0, "type": "electric_scooter", "lat": 38.903865, "is_reserved": 0, "is_disabled": 0, "fusion_lon": 0.0, "bike_id": "eb73929ace1ff89dddc9ff01116f3ed6", "lon": -77.03864416666667, "rental_uris": {"ios": "https://dc.lft.to/lastmile_qr_scan", "android": "https://dc.lft.to/lastmile_qr_scan"}}, {"name": "4424a12fe8fc8417d3b97e1732e57b80", "fusion_lat": 0.0, "type": "electric_scooter", "lat": 38.91421966666667, "is_reserved": 0, "is_disabled": 0, "fusion_lon": 0.0, "bike_id": "4424a12fe8fc8417d3b97e1732e57b80", "lon": -77.008814, "rental_uris": {"ios": "https://dc.lft.to/lastmile_qr_scan", "android": "https://dc.lft.to/lastmile_qr_scan"}}, {"name": "b665b3b6f116e531ae5b1051e587a465", "fusion_lat": 0.0, "type": "electric_scooter", "lat": 38.87700266666667, "is_reserved": 0, "is_disabled": 0, "fusion_lon": 0.0, "bike_id": "b665b3b6f116e531ae5b1051e587a465", "lon": -77.01766316666667, "rental_uris": {"ios": "https://dc.lft.to/lastmile_qr_scan", "android": "https://dc.lft.to/lastmile_qr_scan"}}, {"name": "c4195dc0d8158cadd5f00cdd4de830d5", "fusion_lat": 0.0, "type": "electric_scooter", "lat": 38.916977333333335, "is_reserved": 0, "is_disabled": 0, "fusion_lon": 0.0, "bike_id": "c4195dc0d8158cadd5f00cdd4de830d5", "lon": -77.0427405, "rental_uris": {"ios": "https://dc.lft.to/lastmile_qr_scan", "android": "https://dc.lft.to/lastmile_qr_scan"}}, {"name": "e2f1fb8b4699cf9aca57470a4f09b8b5", "fusion_lat": 0.0, "type": "electric_scooter", "lat": 38.912714333333334, "is_reserved": 0, "is_disabled": 0, "fusion_lon": 0.0, "bike_id": "e2f1fb8b4699cf9aca57470a4f09b8b5", "lon": -77.06089, "rental_uris": {"ios": "https://dc.lft.to/lastmile_qr_scan", "android": "https://dc.lft.to/lastmile_qr_scan"}}, {"name": "e2cddbca25f0b86ceed2d2cc7ad3e2ba", "fusion_lat": 0.0, "type": "electric_bike", "lat": 38.920061833333335, "is_reserved": 0, "is_disabled": 0, "fusion_lon": 0.0, "bike_id": "e2cddbca25f0b86ceed2d2cc7ad3e2ba", "lon": -76.97492616666666, "rental_uris": {"ios": "https://dc.lft.to/lastmile_qr_scan", "android": "https://dc.lft.to/lastmile_qr_scan"}}, {"name": "89ba865855c84d57e9a5864e2a8703c9", "fusion_lat": 0.0, "type": "electric_scooter", "lat": 38.89789283333333, "is_reserved": 0, "is_disabled": 0, "fusion_lon": 0.0, "bike_id": "89ba865855c84d57e9a5864e2a8703c9", "lon": -77.02819816666667, "rental_uris": {"ios": "https://dc.lft.to/lastmile_qr_scan", "android": "https://dc.lft.to/lastmile_qr_scan"}}, {"name": "0f363175104b95b45bc155a63e951bee", "fusion_lat": 0.0, "type": "electric_scooter", "lat": 38.88066666666667, "is_reserved": 0, "is_disabled": 0, "fusion_lon": 0.0, "bike_id": "0f363175104b95b45bc155a63e951bee", "lon": -76.93533883333333, "rental_uris": {"ios": "https://dc.lft.to/lastmile_qr_scan", "android": "https://dc.lft.to/lastmile_qr_scan"}}, {"name": "875dadc02f5f20605f5377cb8d720f90", "fusion_lat": 0.0, "type": "electric_scooter", "lat": 38.906725333333334, "is_reserved": 0, "is_disabled": 0, "fusion_lon": 0.0, "bike_id": "875dadc02f5f20605f5377cb8d720f90", "lon": -77.02075233333333, "rental_uris": {"ios": "https://dc.lft.to/lastmile_qr_scan", "android": "https://dc.lft.to/lastmile_qr_scan"}}, {"name": "dc0345fc13131f78186ad5f62a1a6827", "fusion_lat": 0.0, "type": "electric_scooter", "lat": 38.885012833333334, "is_reserved": 0, "is_disabled": 0, "fusion_lon": 0.0, "bike_id": "dc0345fc13131f78186ad5f62a1a6827", "lon": -77.0056585, "rental_uris": {"ios": "https://dc.lft.to/lastmile_qr_scan", "android": "https://dc.lft.to/lastmile_qr_scan"}}, {"name": "f8740941803c95e36300ed04068e3f47", "fusion_lat": 0.0, "type": "electric_scooter", "lat": 38.910459333333336, "is_reserved": 0, "is_disabled": 0, "fusion_lon": 0.0, "bike_id": "f8740941803c95e36300ed04068e3f47", "lon": -77.04371816666666, "rental_uris": {"ios": "https://dc.lft.to/lastmile_qr_scan", "android": "https://dc.lft.to/lastmile_qr_scan"}}, {"name": "14774b1370d83a6118ae6b4d3b9922c1", "fusion_lat": 0.0, "type": "electric_scooter", "lat": 38.92722883333333, "is_reserved": 0, "is_disabled": 0, "fusion_lon": 0.0, "bike_id": "14774b1370d83a6118ae6b4d3b9922c1", "lon": -77.07145516666667, "rental_uris": {"ios": "https://dc.lft.to/lastmile_qr_scan", "android": "https://dc.lft.to/lastmile_qr_scan"}}, {"name": "7393939cb56f25f36d4b19099d8e86b2", "fusion_lat": 0.0, "type": "electric_scooter", "lat": 38.93410933333333, "is_reserved": 0, "is_disabled": 0, "fusion_lon": 0.0, "bike_id": "7393939cb56f25f36d4b19099d8e86b2", "lon": -77.04185233333334, "rental_uris": {"ios": "https://dc.lft.to/lastmile_qr_scan", "android": "https://dc.lft.to/lastmile_qr_scan"}}, {"name": "0ab401dd7b7241e22898f252d076b436", "fusion_lat": 0.0, "type": "electric_bike", "lat": 38.89727583333333, "is_reserved": 0, "is_disabled": 0, "fusion_lon": 0.0, "bike_id": "0ab401dd7b7241e22898f252d076b436", "lon": -77.019116, "rental_uris": {"ios": "https://dc.lft.to/lastmile_qr_scan", "android": "https://dc.lft.to/lastmile_qr_scan"}}, {"name": "2fb86956cccb15ce18e4ff33b1ee9f7c", "fusion_lat": 0.0, "type": "electric_scooter", "lat": 38.920054666666665, "is_reserved": 0, "is_disabled": 0, "fusion_lon": 0.0, "bike_id": "2fb86956cccb15ce18e4ff33b1ee9f7c", "lon": -77.08196533333333, "rental_uris": {"ios": "https://dc.lft.to/lastmile_qr_scan", "android": "https://dc.lft.to/lastmile_qr_scan"}}, {"name": "5a3694da8a9906b7c60d1e2a113e8703", "fusion_lat": 0.0, "type": "electric_scooter", "lat": 38.893734, "is_reserved": 0, "is_disabled": 0, "fusion_lon": 0.0, "bike_id": "5a3694da8a9906b7c60d1e2a113e8703", "lon": -76.950055, "rental_uris": {"ios": "https://dc.lft.to/lastmile_qr_scan", "android": "https://dc.lft.to/lastmile_qr_scan"}}, {"name": "be6de8eaa1ba389ba3ad45f4a3644977", "fusion_lat": 0.0, "type": "electric_scooter", "lat": 38.885944333333335, "is_reserved": 0, "is_disabled": 0, "fusion_lon": 0.0, "bike_id": "be6de8eaa1ba389ba3ad45f4a3644977", "lon": -77.02202066666666, "rental_uris": {"ios": "https://dc.lft.to/lastmile_qr_scan", "android": "https://dc.lft.to/lastmile_qr_scan"}}, {"name": "d135b460027b029d0f29423ec62d40e3", "fusion_lat": 0.0, "type": "electric_scooter", "lat": 38.928879333333335, "is_reserved": 0, "is_disabled": 0, "fusion_lon": 0.0, "bike_id": "d135b460027b029d0f29423ec62d40e3", "lon": -77.05451233333334, "rental_uris": {"ios": "https://dc.lft.to/lastmile_qr_scan", "android": "https://dc.lft.to/lastmile_qr_scan"}}, {"name": "0ea9a9095ece9b811ff6d530d8621828", "fusion_lat": 0.0, "type": "electric_bike", "lat": 39.00016316666667, "is_reserved": 0, "is_disabled": 0, "fusion_lon": 0.0, "bike_id": "0ea9a9095ece9b811ff6d530d8621828", "lon": -77.0174605, "rental_uris": {"ios": "https://dc.lft.to/lastmile_qr_scan", "android": "https://dc.lft.to/lastmile_qr_scan"}}, {"name": "b3ad5bfe0ec4d7f504370abe1edd2cd2", "fusion_lat": 0.0, "type": "electric_scooter", "lat": 38.917784833333336, "is_reserved": 0, "is_disabled": 0, "fusion_lon": 0.0, "bike_id": "b3ad5bfe0ec4d7f504370abe1edd2cd2", "lon": -77.02337583333333, "rental_uris": {"ios": "https://dc.lft.to/lastmile_qr_scan", "android": "https://dc.lft.to/lastmile_qr_scan"}}, {"name": "d5382c3a8618d4d7fab2b4d270a16320", "fusion_lat": 0.0, "type": "electric_scooter", "lat": 38.93063866666667, "is_reserved": 0, "is_disabled": 0, "fusion_lon": 0.0, "bike_id": "d5382c3a8618d4d7fab2b4d270a16320", "lon": -77.029819, "rental_uris": {"ios": "https://dc.lft.to/lastmile_qr_scan", "android": "https://dc.lft.to/lastmile_qr_scan"}}, {"name": "00ac85f1ee72cfa7ca4356735c099a2b", "fusion_lat": 0.0, "type": "electric_scooter", "lat": 38.93962033333333, "is_reserved": 0, "is_disabled": 0, "fusion_lon": 0.0, "bike_id": "00ac85f1ee72cfa7ca4356735c099a2b", "lon": -77.02752716666667, "rental_uris": {"ios": "https://dc.lft.to/lastmile_qr_scan", "android": "https://dc.lft.to/lastmile_qr_scan"}}, {"name": "315f56cbbe1a45504362ecfe024f3bc7", "fusion_lat": 0.0, "type": "electric_bike", "lat": 38.94920966666667, "is_reserved": 0, "is_disabled": 0, "fusion_lon": 0.0, "bike_id": "315f56cbbe1a45504362ecfe024f3bc7", "lon": -77.00796333333334, "rental_uris": {"ios": "https://dc.lft.to/lastmile_qr_scan", "android": "https://dc.lft.to/lastmile_qr_scan"}}, {"name": "3a1808a74eec037d802d3ed6b7fdf321", "fusion_lat": 0.0, "type": "electric_scooter", "lat": 38.9274945, "is_reserved": 0, "is_disabled": 0, "fusion_lon": 0.0, "bike_id": "3a1808a74eec037d802d3ed6b7fdf321", "lon": -77.02302, "rental_uris": {"ios": "https://dc.lft.to/lastmile_qr_scan", "android": "https://dc.lft.to/lastmile_qr_scan"}}, {"name": "c9f721310586d9a090eea19b00977a93", "fusion_lat": 0.0, "type": "electric_scooter", "lat": 38.9163475, "is_reserved": 0, "is_disabled": 0, "fusion_lon": 0.0, "bike_id": "c9f721310586d9a090eea19b00977a93", "lon": -77.00101466666666, "rental_uris": {"ios": "https://dc.lft.to/lastmile_qr_scan", "android": "https://dc.lft.to/lastmile_qr_scan"}}, {"name": "2924b469d1a5610c95fb43be8590a9d4", "fusion_lat": 0.0, "type": "electric_scooter", "lat": 38.885075, "is_reserved": 0, "is_disabled": 0, "fusion_lon": 0.0, "bike_id": "2924b469d1a5610c95fb43be8590a9d4", "lon": -77.0218845, "rental_uris": {"ios": "https://dc.lft.to/lastmile_qr_scan", "android": "https://dc.lft.to/lastmile_qr_scan"}}, {"name": "dbecd8000383f99dbf359149d21e8ca3", "fusion_lat": 0.0, "type": "electric_scooter", "lat": 38.89235816666667, "is_reserved": 0, "is_disabled": 0, "fusion_lon": 0.0, "bike_id": "dbecd8000383f99dbf359149d21e8ca3", "lon": -77.01510883333333, "rental_uris": {"ios": "https://dc.lft.to/lastmile_qr_scan", "android": "https://dc.lft.to/lastmile_qr_scan"}}, {"name": "a9d07fe41653788a84ad6cfea9cafab2", "fusion_lat": 0.0, "type": "electric_scooter", "lat": 38.924305, "is_reserved": 0, "is_disabled": 0, "fusion_lon": 0.0, "bike_id": "a9d07fe41653788a84ad6cfea9cafab2", "lon": -77.04484383333333, "rental_uris": {"ios": "https://dc.lft.to/lastmile_qr_scan", "android": "https://dc.lft.to/lastmile_qr_scan"}}, {"name": "9e9e46d61a91ea6c4706666565cf7e7d", "fusion_lat": 0.0, "type": "electric_bike", "lat": 38.8568845, "is_reserved": 0, "is_disabled": 0, "fusion_lon": 0.0, "bike_id": "9e9e46d61a91ea6c4706666565cf7e7d", "lon": -77.08541566666666, "rental_uris": {"ios": "https://dc.lft.to/lastmile_qr_scan", "android": "https://dc.lft.to/lastmile_qr_scan"}}, {"name": "d41bb2e2b922d0ffcc535c2d1017806a", "fusion_lat": 0.0, "type": "electric_scooter", "lat": 38.904837666666666, "is_reserved": 0, "is_disabled": 0, "fusion_lon": 0.0, "bike_id": "d41bb2e2b922d0ffcc535c2d1017806a", "lon": -77.035586, "rental_uris": {"ios": "https://dc.lft.to/lastmile_qr_scan", "android": "https://dc.lft.to/lastmile_qr_scan"}}, {"name": "42f90ac2969eb0c65c79c6f7a240ed0e", "fusion_lat": 0.0, "type": "electric_scooter", "lat": 38.88412566666667, "is_reserved": 0, "is_disabled": 0, "fusion_lon": 0.0, "bike_id": "42f90ac2969eb0c65c79c6f7a240ed0e", "lon": -77.01726683333334, "rental_uris": {"ios": "https://dc.lft.to/lastmile_qr_scan", "android": "https://dc.lft.to/lastmile_qr_scan"}}, {"name": "893d02ec665aabf7c262c8592e6096e7", "fusion_lat": 0.0, "type": "electric_scooter", "lat": 38.91730333333334, "is_reserved": 0, "is_disabled": 0, "fusion_lon": 0.0, "bike_id": "893d02ec665aabf7c262c8592e6096e7", "lon": -77.04098266666666, "rental_uris": {"ios": "https://dc.lft.to/lastmile_qr_scan", "android": "https://dc.lft.to/lastmile_qr_scan"}}, {"name": "4d6400b403e99c7d7148b3e881d23cf3", "fusion_lat": 0.0, "type": "electric_scooter", "lat": 38.9293125, "is_reserved": 0, "is_disabled": 0, "fusion_lon": 0.0, "bike_id": "4d6400b403e99c7d7148b3e881d23cf3", "lon": -77.03647683333334, "rental_uris": {"ios": "https://dc.lft.to/lastmile_qr_scan", "android": "https://dc.lft.to/lastmile_qr_scan"}}, {"name": "f0f65963b48a4dbf1b5d1fd7231f2cb5", "fusion_lat": 0.0, "type": "electric_scooter", "lat": 38.911172666666666, "is_reserved": 0, "is_disabled": 0, "fusion_lon": 0.0, "bike_id": "f0f65963b48a4dbf1b5d1fd7231f2cb5", "lon": -77.04359433333333, "rental_uris": {"ios": "https://dc.lft.to/lastmile_qr_scan", "android": "https://dc.lft.to/lastmile_qr_scan"}}, {"name": "5d04c49745d2fc92f3db1ef4ad0e054c", "fusion_lat": 0.0, "type": "electric_scooter", "lat": 38.89216866666666, "is_reserved": 0, "is_disabled": 0, "fusion_lon": 0.0, "bike_id": "5d04c49745d2fc92f3db1ef4ad0e054c", "lon": -77.00330833333334, "rental_uris": {"ios": "https://dc.lft.to/lastmile_qr_scan", "android": "https://dc.lft.to/lastmile_qr_scan"}}, {"name": "2155cb2d0ed41c795f3c363ad775d2cf", "fusion_lat": 0.0, "type": "electric_scooter", "lat": 38.897682, "is_reserved": 0, "is_disabled": 0, "fusion_lon": 0.0, "bike_id": "2155cb2d0ed41c795f3c363ad775d2cf", "lon": -77.05169483333333, "rental_uris": {"ios": "https://dc.lft.to/lastmile_qr_scan", "android": "https://dc.lft.to/lastmile_qr_scan"}}, {"name": "ee0821353580e2f96d87a9b6143d738e", "fusion_lat": 0.0, "type": "electric_scooter", "lat": 38.884890666666664, "is_reserved": 0, "is_disabled": 0, "fusion_lon": 0.0, "bike_id": "ee0821353580e2f96d87a9b6143d738e", "lon": -77.00713, "rental_uris": {"ios": "https://dc.lft.to/lastmile_qr_scan", "android": "https://dc.lft.to/lastmile_qr_scan"}}, {"name": "65e1a51d3eb6e3f7518406020a2035f8", "fusion_lat": 0.0, "type": "electric_scooter", "lat": 38.882267666666664, "is_reserved": 0, "is_disabled": 0, "fusion_lon": 0.0, "bike_id": "65e1a51d3eb6e3f7518406020a2035f8", "lon": -76.996108, "rental_uris": {"ios": "https://dc.lft.to/lastmile_qr_scan", "android": "https://dc.lft.to/lastmile_qr_scan"}}, {"name": "70d3d0711f4d912267e2c4687cf894b2", "fusion_lat": 0.0, "type": "electric_scooter", "lat": 38.90520716666666, "is_reserved": 0, "is_disabled": 0, "fusion_lon": 0.0, "bike_id": "70d3d0711f4d912267e2c4687cf894b2", "lon": -77.05295766666667, "rental_uris": {"ios": "https://dc.lft.to/lastmile_qr_scan", "android": "https://dc.lft.to/lastmile_qr_scan"}}, {"name": "2d2b745cace008aa31825990ebe81e5f", "fusion_lat": 0.0, "type": "electric_scooter", "lat": 38.92170016666667, "is_reserved": 0, "is_disabled": 0, "fusion_lon": 0.0, "bike_id": "2d2b745cace008aa31825990ebe81e5f", "lon": -76.99399416666667, "rental_uris": {"ios": "https://dc.lft.to/lastmile_qr_scan", "android": "https://dc.lft.to/lastmile_qr_scan"}}, {"name": "f4575c945ed21a0a9c30630d703ba731", "fusion_lat": 0.0, "type": "electric_scooter", "lat": 38.901459, "is_reserved": 0, "is_disabled": 0, "fusion_lon": 0.0, "bike_id": "f4575c945ed21a0a9c30630d703ba731", "lon": -77.03191933333333, "rental_uris": {"ios": "https://dc.lft.to/lastmile_qr_scan", "android": "https://dc.lft.to/lastmile_qr_scan"}}, {"name": "6d85be076556ebfb7944567b824c6333", "fusion_lat": 0.0, "type": "electric_scooter", "lat": 38.916906, "is_reserved": 0, "is_disabled": 0, "fusion_lon": 0.0, "bike_id": "6d85be076556ebfb7944567b824c6333", "lon": -77.02895016666666, "rental_uris": {"ios": "https://dc.lft.to/lastmile_qr_scan", "android": "https://dc.lft.to/lastmile_qr_scan"}}, {"name": "85d45820391e756f72f8709bc3aba6b3", "fusion_lat": 0.0, "type": "electric_scooter", "lat": 38.905155, "is_reserved": 0, "is_disabled": 0, "fusion_lon": 0.0, "bike_id": "85d45820391e756f72f8709bc3aba6b3", "lon": -77.06450916666667, "rental_uris": {"ios": "https://dc.lft.to/lastmile_qr_scan", "android": "https://dc.lft.to/lastmile_qr_scan"}}, {"name": "b2adfbc63310f8f5ebe1eac3122debcd", "fusion_lat": 0.0, "type": "electric_scooter", "lat": 38.922382166666665, "is_reserved": 0, "is_disabled": 0, "fusion_lon": 0.0, "bike_id": "b2adfbc63310f8f5ebe1eac3122debcd", "lon": -77.07313316666666, "rental_uris": {"ios": "https://dc.lft.to/lastmile_qr_scan", "android": "https://dc.lft.to/lastmile_qr_scan"}}, {"name": "0d6498e8754d506fb178efb0bd8684c6", "fusion_lat": 0.0, "type": "electric_bike", "lat": 38.856290666666666, "is_reserved": 0, "is_disabled": 0, "fusion_lon": 0.0, "bike_id": "0d6498e8754d506fb178efb0bd8684c6", "lon": -77.11267, "rental_uris": {"ios": "https://dc.lft.to/lastmile_qr_scan", "android": "https://dc.lft.to/lastmile_qr_scan"}}, {"name": "bb92fa65a1e71993278bebe8319445eb", "fusion_lat": 0.0, "type": "electric_scooter", "lat": 38.91547033333333, "is_reserved": 0, "is_disabled": 0, "fusion_lon": 0.0, "bike_id": "bb92fa65a1e71993278bebe8319445eb", "lon": -77.03185383333333, "rental_uris": {"ios": "https://dc.lft.to/lastmile_qr_scan", "android": "https://dc.lft.to/lastmile_qr_scan"}}, {"name": "3c78f9baa546eac34c2d38e8acd41d73", "fusion_lat": 0.0, "type": "electric_scooter", "lat": 38.8794375, "is_reserved": 0, "is_disabled": 0, "fusion_lon": 0.0, "bike_id": "3c78f9baa546eac34c2d38e8acd41d73", "lon": -77.00828733333333, "rental_uris": {"ios": "https://dc.lft.to/lastmile_qr_scan", "android": "https://dc.lft.to/lastmile_qr_scan"}}, {"name": "6e7328e4b7088e3631887828ec131e38", "fusion_lat": 0.0, "type": "electric_scooter", "lat": 38.85809966666667, "is_reserved": 0, "is_disabled": 0, "fusion_lon": 0.0, "bike_id": "6e7328e4b7088e3631887828ec131e38", "lon": -76.9865725, "rental_uris": {"ios": "https://dc.lft.to/lastmile_qr_scan", "android": "https://dc.lft.to/lastmile_qr_scan"}}, {"name": "c704ea18ccdd12bf2b268ff2e5718927", "fusion_lat": 0.0, "type": "electric_scooter", "lat": 38.901362666666664, "is_reserved": 0, "is_disabled": 0, "fusion_lon": 0.0, "bike_id": "c704ea18ccdd12bf2b268ff2e5718927", "lon": -76.99121333333333, "rental_uris": {"ios": "https://dc.lft.to/lastmile_qr_scan", "android": "https://dc.lft.to/lastmile_qr_scan"}}, {"name": "73bffc7d949770db3c71cda36ccebc38", "fusion_lat": 0.0, "type": "electric_bike", "lat": 38.9617475, "is_reserved": 0, "is_disabled": 0, "fusion_lon": 0.0, "bike_id": "73bffc7d949770db3c71cda36ccebc38", "lon": -77.07378466666667, "rental_uris": {"ios": "https://dc.lft.to/lastmile_qr_scan", "android": "https://dc.lft.to/lastmile_qr_scan"}}, {"name": "bd3f27e68a0ae7472c72fafa3b8cf484", "fusion_lat": 0.0, "type": "electric_scooter", "lat": 38.899427, "is_reserved": 0, "is_disabled": 0, "fusion_lon": 0.0, "bike_id": "bd3f27e68a0ae7472c72fafa3b8cf484", "lon": -77.02830483333334, "rental_uris": {"ios": "https://dc.lft.to/lastmile_qr_scan", "android": "https://dc.lft.to/lastmile_qr_scan"}}, {"name": "eaa9bc85624a9bc8dbd2c3f13e00f87a", "fusion_lat": 0.0, "type": "electric_scooter", "lat": 38.90355183333333, "is_reserved": 0, "is_disabled": 0, "fusion_lon": 0.0, "bike_id": "eaa9bc85624a9bc8dbd2c3f13e00f87a", "lon": -77.04508083333333, "rental_uris": {"ios": "https://dc.lft.to/lastmile_qr_scan", "android": "https://dc.lft.to/lastmile_qr_scan"}}, {"name": "1f78ff0ef2a3a03699d6f4c70c94f1d0", "fusion_lat": 0.0, "type": "electric_scooter", "lat": 38.903966833333335, "is_reserved": 0, "is_disabled": 0, "fusion_lon": 0.0, "bike_id": "1f78ff0ef2a3a03699d6f4c70c94f1d0", "lon": -77.03486433333333, "rental_uris": {"ios": "https://dc.lft.to/lastmile_qr_scan", "android": "https://dc.lft.to/lastmile_qr_scan"}}, {"name": "b6623db2128d33b390d3f25205f65dd8", "fusion_lat": 0.0, "type": "electric_scooter", "lat": 38.926027, "is_reserved": 0, "is_disabled": 0, "fusion_lon": 0.0, "bike_id": "b6623db2128d33b390d3f25205f65dd8", "lon": -77.021599, "rental_uris": {"ios": "https://dc.lft.to/lastmile_qr_scan", "android": "https://dc.lft.to/lastmile_qr_scan"}}, {"name": "7b581ad26d3cea05ffbbb098724f3ace", "fusion_lat": 0.0, "type": "electric_scooter", "lat": 38.897245, "is_reserved": 0, "is_disabled": 0, "fusion_lon": 0.0, "bike_id": "7b581ad26d3cea05ffbbb098724f3ace", "lon": -77.0205585, "rental_uris": {"ios": "https://dc.lft.to/lastmile_qr_scan", "android": "https://dc.lft.to/lastmile_qr_scan"}}, {"name": "d6996de0beb9739bde9e7605ae432af5", "fusion_lat": 0.0, "type": "electric_scooter", "lat": 38.9125395, "is_reserved": 0, "is_disabled": 0, "fusion_lon": 0.0, "bike_id": "d6996de0beb9739bde9e7605ae432af5", "lon": -77.0093345, "rental_uris": {"ios": "https://dc.lft.to/lastmile_qr_scan", "android": "https://dc.lft.to/lastmile_qr_scan"}}, {"name": "6bf908d059e8ea5756b8a97e0c197e94", "fusion_lat": 0.0, "type": "electric_scooter", "lat": 38.89591866666667, "is_reserved": 0, "is_disabled": 0, "fusion_lon": 0.0, "bike_id": "6bf908d059e8ea5756b8a97e0c197e94", "lon": -76.94863883333333, "rental_uris": {"ios": "https://dc.lft.to/lastmile_qr_scan", "android": "https://dc.lft.to/lastmile_qr_scan"}}, {"name": "5ab490d53f2be9a71ebb2a0c989e515b", "fusion_lat": 0.0, "type": "electric_scooter", "lat": 38.923557, "is_reserved": 0, "is_disabled": 0, "fusion_lon": 0.0, "bike_id": "5ab490d53f2be9a71ebb2a0c989e515b", "lon": -77.0505675, "rental_uris": {"ios": "https://dc.lft.to/lastmile_qr_scan", "android": "https://dc.lft.to/lastmile_qr_scan"}}, {"name": "121755801affd489696c3b453a1fcf71", "fusion_lat": 0.0, "type": "electric_scooter", "lat": 38.918779, "is_reserved": 0, "is_disabled": 0, "fusion_lon": 0.0, "bike_id": "121755801affd489696c3b453a1fcf71", "lon": -77.03505466666667, "rental_uris": {"ios": "https://dc.lft.to/lastmile_qr_scan", "android": "https://dc.lft.to/lastmile_qr_scan"}}, {"name": "44d54f6ef160a15d0160e22eb3a567a4", "fusion_lat": 0.0, "type": "electric_scooter", "lat": 38.92092533333334, "is_reserved": 0, "is_disabled": 0, "fusion_lon": 0.0, "bike_id": "44d54f6ef160a15d0160e22eb3a567a4", "lon": -77.02697483333333, "rental_uris": {"ios": "https://dc.lft.to/lastmile_qr_scan", "android": "https://dc.lft.to/lastmile_qr_scan"}}, {"name": "1e1eeb70c663e98a86f08bc01f124a01", "fusion_lat": 0.0, "type": "electric_scooter", "lat": 38.92179016666667, "is_reserved": 0, "is_disabled": 0, "fusion_lon": 0.0, "bike_id": "1e1eeb70c663e98a86f08bc01f124a01", "lon": -77.02413533333333, "rental_uris": {"ios": "https://dc.lft.to/lastmile_qr_scan", "android": "https://dc.lft.to/lastmile_qr_scan"}}, {"name": "ac3c28e9fc3c944adc7b8aabf7a39053", "fusion_lat": 0.0, "type": "electric_scooter", "lat": 38.90797033333333, "is_reserved": 0, "is_disabled": 0, "fusion_lon": 0.0, "bike_id": "ac3c28e9fc3c944adc7b8aabf7a39053", "lon": -77.03828466666667, "rental_uris": {"ios": "https://dc.lft.to/lastmile_qr_scan", "android": "https://dc.lft.to/lastmile_qr_scan"}}, {"name": "0e519321edaba77a9a0a09ea50791836", "fusion_lat": 0.0, "type": "electric_bike", "lat": 38.89647716666666, "is_reserved": 0, "is_disabled": 0, "fusion_lon": 0.0, "bike_id": "0e519321edaba77a9a0a09ea50791836", "lon": -77.10453733333334, "rental_uris": {"ios": "https://dc.lft.to/lastmile_qr_scan", "android": "https://dc.lft.to/lastmile_qr_scan"}}, {"name": "ae3dd00df9c8cad667fac1cd5e1bbb37", "fusion_lat": 0.0, "type": "electric_scooter", "lat": 38.874778666666664, "is_reserved": 0, "is_disabled": 0, "fusion_lon": 0.0, "bike_id": "ae3dd00df9c8cad667fac1cd5e1bbb37", "lon": -77.010681, "rental_uris": {"ios": "https://dc.lft.to/lastmile_qr_scan", "android": "https://dc.lft.to/lastmile_qr_scan"}}, {"name": "25896e1cc02b51cc59c88a0c2b8cc557", "fusion_lat": 0.0, "type": "electric_bike", "lat": 38.86868, "is_reserved": 0, "is_disabled": 0, "fusion_lon": 0.0, "bike_id": "25896e1cc02b51cc59c88a0c2b8cc557", "lon": -76.91663316666667, "rental_uris": {"ios": "https://dc.lft.to/lastmile_qr_scan", "android": "https://dc.lft.to/lastmile_qr_scan"}}, {"name": "a39a4254c582019964297287dcb72f7b", "fusion_lat": 0.0, "type": "electric_scooter", "lat": 38.91111, "is_reserved": 0, "is_disabled": 0, "fusion_lon": 0.0, "bike_id": "a39a4254c582019964297287dcb72f7b", "lon": -77.0450655, "rental_uris": {"ios": "https://dc.lft.to/lastmile_qr_scan", "android": "https://dc.lft.to/lastmile_qr_scan"}}, {"name": "71e560bb01e3dcced35ed167b43866b8", "fusion_lat": 0.0, "type": "electric_scooter", "lat": 38.91414433333333, "is_reserved": 0, "is_disabled": 0, "fusion_lon": 0.0, "bike_id": "71e560bb01e3dcced35ed167b43866b8", "lon": -77.0097555, "rental_uris": {"ios": "https://dc.lft.to/lastmile_qr_scan", "android": "https://dc.lft.to/lastmile_qr_scan"}}, {"name": "92e12919b97b48ceef2ac3a439c55cc0", "fusion_lat": 0.0, "type": "electric_scooter", "lat": 38.905710166666665, "is_reserved": 0, "is_disabled": 0, "fusion_lon": 0.0, "bike_id": "92e12919b97b48ceef2ac3a439c55cc0", "lon": -77.00269333333334, "rental_uris": {"ios": "https://dc.lft.to/lastmile_qr_scan", "android": "https://dc.lft.to/lastmile_qr_scan"}}, {"name": "8725d47ee0aa6df3ded9fdc56822255b", "fusion_lat": 0.0, "type": "electric_scooter", "lat": 38.91120983333333, "is_reserved": 0, "is_disabled": 0, "fusion_lon": 0.0, "bike_id": "8725d47ee0aa6df3ded9fdc56822255b", "lon": -77.0220165, "rental_uris": {"ios": "https://dc.lft.to/lastmile_qr_scan", "android": "https://dc.lft.to/lastmile_qr_scan"}}, {"name": "04468e00bdc335a1f68a5f67257e3d6b", "fusion_lat": 0.0, "type": "electric_scooter", "lat": 38.869588, "is_reserved": 0, "is_disabled": 0, "fusion_lon": 0.0, "bike_id": "04468e00bdc335a1f68a5f67257e3d6b", "lon": -77.01377033333333, "rental_uris": {"ios": "https://dc.lft.to/lastmile_qr_scan", "android": "https://dc.lft.to/lastmile_qr_scan"}}, {"name": "c5f6668717f594ccbc115c5072e832c3", "fusion_lat": 0.0, "type": "electric_scooter", "lat": 38.91796733333334, "is_reserved": 0, "is_disabled": 0, "fusion_lon": 0.0, "bike_id": "c5f6668717f594ccbc115c5072e832c3", "lon": -77.02710966666666, "rental_uris": {"ios": "https://dc.lft.to/lastmile_qr_scan", "android": "https://dc.lft.to/lastmile_qr_scan"}}, {"name": "f9215bac3a88cf0eb721e0ccf641580b", "fusion_lat": 0.0, "type": "electric_scooter", "lat": 38.8650325, "is_reserved": 0, "is_disabled": 0, "fusion_lon": 0.0, "bike_id": "f9215bac3a88cf0eb721e0ccf641580b", "lon": -76.99001966666667, "rental_uris": {"ios": "https://dc.lft.to/lastmile_qr_scan", "android": "https://dc.lft.to/lastmile_qr_scan"}}, {"name": "7d8b3f6ffb903b0953866601cc47d6b4", "fusion_lat": 0.0, "type": "electric_scooter", "lat": 38.894888, "is_reserved": 0, "is_disabled": 0, "fusion_lon": 0.0, "bike_id": "7d8b3f6ffb903b0953866601cc47d6b4", "lon": -77.030598, "rental_uris": {"ios": "https://dc.lft.to/lastmile_qr_scan", "android": "https://dc.lft.to/lastmile_qr_scan"}}, {"name": "25ca296df80c0d81683e0083e8fc0341", "fusion_lat": 0.0, "type": "electric_scooter", "lat": 38.89747033333333, "is_reserved": 0, "is_disabled": 0, "fusion_lon": 0.0, "bike_id": "25ca296df80c0d81683e0083e8fc0341", "lon": -77.019914, "rental_uris": {"ios": "https://dc.lft.to/lastmile_qr_scan", "android": "https://dc.lft.to/lastmile_qr_scan"}}, {"name": "20075372719de860b939805d36544af8", "fusion_lat": 0.0, "type": "electric_scooter", "lat": 38.876423, "is_reserved": 0, "is_disabled": 0, "fusion_lon": 0.0, "bike_id": "20075372719de860b939805d36544af8", "lon": -77.01573616666667, "rental_uris": {"ios": "https://dc.lft.to/lastmile_qr_scan", "android": "https://dc.lft.to/lastmile_qr_scan"}}, {"name": "179d4f891d97a6bf703cfd6332818e41", "fusion_lat": 0.0, "type": "electric_scooter", "lat": 38.90568966666667, "is_reserved": 0, "is_disabled": 0, "fusion_lon": 0.0, "bike_id": "179d4f891d97a6bf703cfd6332818e41", "lon": -77.02220483333333, "rental_uris": {"ios": "https://dc.lft.to/lastmile_qr_scan", "android": "https://dc.lft.to/lastmile_qr_scan"}}, {"name": "028029515ff03f69925e10fa2f97cfde", "fusion_lat": 0.0, "type": "electric_scooter", "lat": 38.91985666666667, "is_reserved": 0, "is_disabled": 0, "fusion_lon": 0.0, "bike_id": "028029515ff03f69925e10fa2f97cfde", "lon": -77.0238555, "rental_uris": {"ios": "https://dc.lft.to/lastmile_qr_scan", "android": "https://dc.lft.to/lastmile_qr_scan"}}, {"name": "6d1bfe5d0d439301808fe426af36884c", "fusion_lat": 0.0, "type": "electric_scooter", "lat": 38.8951835, "is_reserved": 0, "is_disabled": 0, "fusion_lon": 0.0, "bike_id": "6d1bfe5d0d439301808fe426af36884c", "lon": -76.99154066666667, "rental_uris": {"ios": "https://dc.lft.to/lastmile_qr_scan", "android": "https://dc.lft.to/lastmile_qr_scan"}}, {"name": "f4cef2694ca241406472e731e907ffaa", "fusion_lat": 0.0, "type": "electric_scooter", "lat": 38.924651, "is_reserved": 0, "is_disabled": 0, "fusion_lon": 0.0, "bike_id": "f4cef2694ca241406472e731e907ffaa", "lon": -77.02716416666667, "rental_uris": {"ios": "https://dc.lft.to/lastmile_qr_scan", "android": "https://dc.lft.to/lastmile_qr_scan"}}, {"name": "d6cc4fab03d53cf56bfa61da098756ee", "fusion_lat": 0.0, "type": "electric_scooter", "lat": 38.89223716666667, "is_reserved": 0, "is_disabled": 0, "fusion_lon": 0.0, "bike_id": "d6cc4fab03d53cf56bfa61da098756ee", "lon": -77.03986916666666, "rental_uris": {"ios": "https://dc.lft.to/lastmile_qr_scan", "android": "https://dc.lft.to/lastmile_qr_scan"}}, {"name": "6da68e0e6675b09d5c0cea031267b36d", "fusion_lat": 0.0, "type": "electric_scooter", "lat": 38.8922485, "is_reserved": 0, "is_disabled": 0, "fusion_lon": 0.0, "bike_id": "6da68e0e6675b09d5c0cea031267b36d", "lon": -77.03185733333333, "rental_uris": {"ios": "https://dc.lft.to/lastmile_qr_scan", "android": "https://dc.lft.to/lastmile_qr_scan"}}, {"name": "a781531255c7933fbcf0ca82c1373962", "fusion_lat": 0.0, "type": "electric_scooter", "lat": 38.9155275, "is_reserved": 0, "is_disabled": 0, "fusion_lon": 0.0, "bike_id": "a781531255c7933fbcf0ca82c1373962", "lon": -77.038378, "rental_uris": {"ios": "https://dc.lft.to/lastmile_qr_scan", "android": "https://dc.lft.to/lastmile_qr_scan"}}, {"name": "e431e6facff551ec09a8d269e63fa1ef", "fusion_lat": 0.0, "type": "electric_scooter", "lat": 38.88969316666667, "is_reserved": 0, "is_disabled": 0, "fusion_lon": 0.0, "bike_id": "e431e6facff551ec09a8d269e63fa1ef", "lon": -76.9918675, "rental_uris": {"ios": "https://dc.lft.to/lastmile_qr_scan", "android": "https://dc.lft.to/lastmile_qr_scan"}}, {"name": "4f57d477b5c74a09191b95a81edc8e33", "fusion_lat": 0.0, "type": "electric_scooter", "lat": 38.931293, "is_reserved": 0, "is_disabled": 0, "fusion_lon": 0.0, "bike_id": "4f57d477b5c74a09191b95a81edc8e33", "lon": -77.02200716666667, "rental_uris": {"ios": "https://dc.lft.to/lastmile_qr_scan", "android": "https://dc.lft.to/lastmile_qr_scan"}}, {"name": "2314e60fc61f96e271b1ca96c81e841b", "fusion_lat": 0.0, "type": "electric_bike", "lat": 38.898976833333336, "is_reserved": 0, "is_disabled": 0, "fusion_lon": 0.0, "bike_id": "2314e60fc61f96e271b1ca96c81e841b", "lon": -76.98963116666667, "rental_uris": {"ios": "https://dc.lft.to/lastmile_qr_scan", "android": "https://dc.lft.to/lastmile_qr_scan"}}, {"name": "1bbeecf56d9ad472d762d2178be00e54", "fusion_lat": 0.0, "type": "electric_bike", "lat": 38.882769333333336, "is_reserved": 0, "is_disabled": 0, "fusion_lon": 0.0, "bike_id": "1bbeecf56d9ad472d762d2178be00e54", "lon": -76.932412, "rental_uris": {"ios": "https://dc.lft.to/lastmile_qr_scan", "android": "https://dc.lft.to/lastmile_qr_scan"}}, {"name": "0f78b2763d2046b05cdd93f482722c85", "fusion_lat": 0.0, "type": "electric_scooter", "lat": 38.9100695, "is_reserved": 0, "is_disabled": 0, "fusion_lon": 0.0, "bike_id": "0f78b2763d2046b05cdd93f482722c85", "lon": -77.04423783333333, "rental_uris": {"ios": "https://dc.lft.to/lastmile_qr_scan", "android": "https://dc.lft.to/lastmile_qr_scan"}}, {"name": "4c1b33fc56bd6458c805447df8f4c80d", "fusion_lat": 0.0, "type": "electric_scooter", "lat": 38.912632, "is_reserved": 0, "is_disabled": 0, "fusion_lon": 0.0, "bike_id": "4c1b33fc56bd6458c805447df8f4c80d", "lon": -77.0363835, "rental_uris": {"ios": "https://dc.lft.to/lastmile_qr_scan", "android": "https://dc.lft.to/lastmile_qr_scan"}}, {"name": "2d80cec7b7d7494adcbbd2c9c3a417c1", "fusion_lat": 0.0, "type": "electric_scooter", "lat": 38.876612, "is_reserved": 0, "is_disabled": 0, "fusion_lon": 0.0, "bike_id": "2d80cec7b7d7494adcbbd2c9c3a417c1", "lon": -77.00407216666666, "rental_uris": {"ios": "https://dc.lft.to/lastmile_qr_scan", "android": "https://dc.lft.to/lastmile_qr_scan"}}, {"name": "db66b56eedbe1af6dd7746be602a7b3b", "fusion_lat": 0.0, "type": "electric_scooter", "lat": 38.920704, "is_reserved": 0, "is_disabled": 0, "fusion_lon": 0.0, "bike_id": "db66b56eedbe1af6dd7746be602a7b3b", "lon": -77.03221933333333, "rental_uris": {"ios": "https://dc.lft.to/lastmile_qr_scan", "android": "https://dc.lft.to/lastmile_qr_scan"}}, {"name": "c1fc5947f7627c7774f6fc99add68efe", "fusion_lat": 0.0, "type": "electric_scooter", "lat": 38.90072083333333, "is_reserved": 0, "is_disabled": 0, "fusion_lon": 0.0, "bike_id": "c1fc5947f7627c7774f6fc99add68efe", "lon": -77.050123, "rental_uris": {"ios": "https://dc.lft.to/lastmile_qr_scan", "android": "https://dc.lft.to/lastmile_qr_scan"}}, {"name": "100f4ff537c84ed242a8b89df0ac99f0", "fusion_lat": 0.0, "type": "electric_scooter", "lat": 38.93523416666667, "is_reserved": 0, "is_disabled": 0, "fusion_lon": 0.0, "bike_id": "100f4ff537c84ed242a8b89df0ac99f0", "lon": -77.02844616666667, "rental_uris": {"ios": "https://dc.lft.to/lastmile_qr_scan", "android": "https://dc.lft.to/lastmile_qr_scan"}}, {"name": "668b7d2c9e52fb778208e1cc1ff39805", "fusion_lat": 0.0, "type": "electric_scooter", "lat": 38.91739233333333, "is_reserved": 0, "is_disabled": 0, "fusion_lon": 0.0, "bike_id": "668b7d2c9e52fb778208e1cc1ff39805", "lon": -77.021197, "rental_uris": {"ios": "https://dc.lft.to/lastmile_qr_scan", "android": "https://dc.lft.to/lastmile_qr_scan"}}, {"name": "49772979edff3c6a0ee8303f1cc533a4", "fusion_lat": 0.0, "type": "electric_scooter", "lat": 38.8984055, "is_reserved": 0, "is_disabled": 0, "fusion_lon": 0.0, "bike_id": "49772979edff3c6a0ee8303f1cc533a4", "lon": -77.00729983333333, "rental_uris": {"ios": "https://dc.lft.to/lastmile_qr_scan", "android": "https://dc.lft.to/lastmile_qr_scan"}}, {"name": "4305598e2b277bcc02f17e10f96655bc", "fusion_lat": 0.0, "type": "electric_scooter", "lat": 38.918637, "is_reserved": 0, "is_disabled": 0, "fusion_lon": 0.0, "bike_id": "4305598e2b277bcc02f17e10f96655bc", "lon": -77.01510383333333, "rental_uris": {"ios": "https://dc.lft.to/lastmile_qr_scan", "android": "https://dc.lft.to/lastmile_qr_scan"}}, {"name": "80983352d9aaf6c0de08727343c4d551", "fusion_lat": 0.0, "type": "electric_bike", "lat": 38.89774116666667, "is_reserved": 0, "is_disabled": 0, "fusion_lon": 0.0, "bike_id": "80983352d9aaf6c0de08727343c4d551", "lon": -76.904326, "rental_uris": {"ios": "https://dc.lft.to/lastmile_qr_scan", "android": "https://dc.lft.to/lastmile_qr_scan"}}, {"name": "eb15eeb513641541e4a446c8e04eeba7", "fusion_lat": 0.0, "type": "electric_scooter", "lat": 38.895442, "is_reserved": 0, "is_disabled": 0, "fusion_lon": 0.0, "bike_id": "eb15eeb513641541e4a446c8e04eeba7", "lon": -77.02385016666666, "rental_uris": {"ios": "https://dc.lft.to/lastmile_qr_scan", "android": "https://dc.lft.to/lastmile_qr_scan"}}, {"name": "64d7b28c4314b3eb52ab311abbbb51ab", "fusion_lat": 0.0, "type": "electric_scooter", "lat": 38.907309833333336, "is_reserved": 0, "is_disabled": 0, "fusion_lon": 0.0, "bike_id": "64d7b28c4314b3eb52ab311abbbb51ab", "lon": -77.04325966666667, "rental_uris": {"ios": "https://dc.lft.to/lastmile_qr_scan", "android": "https://dc.lft.to/lastmile_qr_scan"}}, {"name": "733b85d3a128b46e3e408058d7159dbb", "fusion_lat": 0.0, "type": "electric_scooter", "lat": 38.926843166666664, "is_reserved": 0, "is_disabled": 0, "fusion_lon": 0.0, "bike_id": "733b85d3a128b46e3e408058d7159dbb", "lon": -77.01520566666666, "rental_uris": {"ios": "https://dc.lft.to/lastmile_qr_scan", "android": "https://dc.lft.to/lastmile_qr_scan"}}, {"name": "000808cec8384f693f7197c3b5fc180b", "fusion_lat": 0.0, "type": "electric_scooter", "lat": 38.938979333333336, "is_reserved": 0, "is_disabled": 0, "fusion_lon": 0.0, "bike_id": "000808cec8384f693f7197c3b5fc180b", "lon": -77.0328285, "rental_uris": {"ios": "https://dc.lft.to/lastmile_qr_scan", "android": "https://dc.lft.to/lastmile_qr_scan"}}, {"name": "86f2d2b4bbbb9f3d571519faefc17b97", "fusion_lat": 0.0, "type": "electric_scooter", "lat": 38.907697166666665, "is_reserved": 0, "is_disabled": 0, "fusion_lon": 0.0, "bike_id": "86f2d2b4bbbb9f3d571519faefc17b97", "lon": -77.03862133333334, "rental_uris": {"ios": "https://dc.lft.to/lastmile_qr_scan", "android": "https://dc.lft.to/lastmile_qr_scan"}}, {"name": "e3acaed216334ddc85dabd51336350b7", "fusion_lat": 0.0, "type": "electric_scooter", "lat": 38.888655666666665, "is_reserved": 0, "is_disabled": 0, "fusion_lon": 0.0, "bike_id": "e3acaed216334ddc85dabd51336350b7", "lon": -77.04009633333334, "rental_uris": {"ios": "https://dc.lft.to/lastmile_qr_scan", "android": "https://dc.lft.to/lastmile_qr_scan"}}, {"name": "bdcaf27937a1e2ceffb7e742de526f8a", "fusion_lat": 0.0, "type": "electric_scooter", "lat": 38.89833616666667, "is_reserved": 0, "is_disabled": 0, "fusion_lon": 0.0, "bike_id": "bdcaf27937a1e2ceffb7e742de526f8a", "lon": -77.007426, "rental_uris": {"ios": "https://dc.lft.to/lastmile_qr_scan", "android": "https://dc.lft.to/lastmile_qr_scan"}}, {"name": "a8670a89037d2e27f33b73b1e70b0006", "fusion_lat": 0.0, "type": "electric_scooter", "lat": 38.86377266666667, "is_reserved": 0, "is_disabled": 0, "fusion_lon": 0.0, "bike_id": "a8670a89037d2e27f33b73b1e70b0006", "lon": -77.01358983333333, "rental_uris": {"ios": "https://dc.lft.to/lastmile_qr_scan", "android": "https://dc.lft.to/lastmile_qr_scan"}}, {"name": "cc1a187c21f5d19975da33c2837abccc", "fusion_lat": 0.0, "type": "electric_scooter", "lat": 38.9034975, "is_reserved": 0, "is_disabled": 0, "fusion_lon": 0.0, "bike_id": "cc1a187c21f5d19975da33c2837abccc", "lon": -77.02595883333333, "rental_uris": {"ios": "https://dc.lft.to/lastmile_qr_scan", "android": "https://dc.lft.to/lastmile_qr_scan"}}, {"name": "5021fa54b93d799f989a28c48230f011", "fusion_lat": 0.0, "type": "electric_bike", "lat": 38.93060083333334, "is_reserved": 0, "is_disabled": 0, "fusion_lon": 0.0, "bike_id": "5021fa54b93d799f989a28c48230f011", "lon": -76.97329683333334, "rental_uris": {"ios": "https://dc.lft.to/lastmile_qr_scan", "android": "https://dc.lft.to/lastmile_qr_scan"}}, {"name": "9a6ac0cb9461a647e896e3c9d826908f", "fusion_lat": 0.0, "type": "electric_scooter", "lat": 38.885382166666666, "is_reserved": 0, "is_disabled": 0, "fusion_lon": 0.0, "bike_id": "9a6ac0cb9461a647e896e3c9d826908f", "lon": -77.033447, "rental_uris": {"ios": "https://dc.lft.to/lastmile_qr_scan", "android": "https://dc.lft.to/lastmile_qr_scan"}}, {"name": "bbce9ad923d1f7e031392aaf130b4966", "fusion_lat": 0.0, "type": "electric_scooter", "lat": 38.93129316666667, "is_reserved": 0, "is_disabled": 0, "fusion_lon": 0.0, "bike_id": "bbce9ad923d1f7e031392aaf130b4966", "lon": -77.02822683333333, "rental_uris": {"ios": "https://dc.lft.to/lastmile_qr_scan", "android": "https://dc.lft.to/lastmile_qr_scan"}}, {"name": "bf15500ec2a13dcdec1c81954858279e", "fusion_lat": 0.0, "type": "electric_scooter", "lat": 38.89199333333333, "is_reserved": 0, "is_disabled": 0, "fusion_lon": 0.0, "bike_id": "bf15500ec2a13dcdec1c81954858279e", "lon": -77.0029235, "rental_uris": {"ios": "https://dc.lft.to/lastmile_qr_scan", "android": "https://dc.lft.to/lastmile_qr_scan"}}, {"name": "e5f4f5b0e4681accf91962ccf640c62d", "fusion_lat": 0.0, "type": "electric_scooter", "lat": 38.90136233333333, "is_reserved": 0, "is_disabled": 0, "fusion_lon": 0.0, "bike_id": "e5f4f5b0e4681accf91962ccf640c62d", "lon": -76.99750083333333, "rental_uris": {"ios": "https://dc.lft.to/lastmile_qr_scan", "android": "https://dc.lft.to/lastmile_qr_scan"}}, {"name": "1e043047d3d0512adb3c0beeaf480cb2", "fusion_lat": 0.0, "type": "electric_scooter", "lat": 38.9142585, "is_reserved": 0, "is_disabled": 0, "fusion_lon": 0.0, "bike_id": "1e043047d3d0512adb3c0beeaf480cb2", "lon": -77.03184383333334, "rental_uris": {"ios": "https://dc.lft.to/lastmile_qr_scan", "android": "https://dc.lft.to/lastmile_qr_scan"}}, {"name": "fdda83152e01e4636da2edf331a45565", "fusion_lat": 0.0, "type": "electric_scooter", "lat": 38.89568466666667, "is_reserved": 0, "is_disabled": 0, "fusion_lon": 0.0, "bike_id": "fdda83152e01e4636da2edf331a45565", "lon": -76.9487395, "rental_uris": {"ios": "https://dc.lft.to/lastmile_qr_scan", "android": "https://dc.lft.to/lastmile_qr_scan"}}, {"name": "50cdd7a6f8bdf0788a01660b2e89f7fe", "fusion_lat": 0.0, "type": "electric_scooter", "lat": 38.896306833333334, "is_reserved": 0, "is_disabled": 0, "fusion_lon": 0.0, "bike_id": "50cdd7a6f8bdf0788a01660b2e89f7fe", "lon": -77.02840883333333, "rental_uris": {"ios": "https://dc.lft.to/lastmile_qr_scan", "android": "https://dc.lft.to/lastmile_qr_scan"}}, {"name": "46e8ed8b2abad6a878df2b77555c095a", "fusion_lat": 0.0, "type": "electric_scooter", "lat": 38.87426966666666, "is_reserved": 0, "is_disabled": 0, "fusion_lon": 0.0, "bike_id": "46e8ed8b2abad6a878df2b77555c095a", "lon": -77.020654, "rental_uris": {"ios": "https://dc.lft.to/lastmile_qr_scan", "android": "https://dc.lft.to/lastmile_qr_scan"}}, {"name": "746b84212142c427fae784af67d9bb8e", "fusion_lat": 0.0, "type": "electric_scooter", "lat": 38.918605166666666, "is_reserved": 0, "is_disabled": 0, "fusion_lon": 0.0, "bike_id": "746b84212142c427fae784af67d9bb8e", "lon": -77.04592483333333, "rental_uris": {"ios": "https://dc.lft.to/lastmile_qr_scan", "android": "https://dc.lft.to/lastmile_qr_scan"}}, {"name": "e8f347938ab5ddc837946673f46a2a84", "fusion_lat": 0.0, "type": "electric_scooter", "lat": 38.89329733333334, "is_reserved": 0, "is_disabled": 0, "fusion_lon": 0.0, "bike_id": "e8f347938ab5ddc837946673f46a2a84", "lon": -76.9289355, "rental_uris": {"ios": "https://dc.lft.to/lastmile_qr_scan", "android": "https://dc.lft.to/lastmile_qr_scan"}}, {"name": "d7f9791ac6b2cc5ba8499f2d3d027839", "fusion_lat": 0.0, "type": "electric_scooter", "lat": 38.927945333333334, "is_reserved": 0, "is_disabled": 0, "fusion_lon": 0.0, "bike_id": "d7f9791ac6b2cc5ba8499f2d3d027839", "lon": -77.03250333333334, "rental_uris": {"ios": "https://dc.lft.to/lastmile_qr_scan", "android": "https://dc.lft.to/lastmile_qr_scan"}}, {"name": "2c1285eb9d77212a1fef41c7c993306a", "fusion_lat": 0.0, "type": "electric_scooter", "lat": 38.918585666666665, "is_reserved": 0, "is_disabled": 0, "fusion_lon": 0.0, "bike_id": "2c1285eb9d77212a1fef41c7c993306a", "lon": -76.9655365, "rental_uris": {"ios": "https://dc.lft.to/lastmile_qr_scan", "android": "https://dc.lft.to/lastmile_qr_scan"}}, {"name": "0f7d8caa993f47eb8b8f548e9393298a", "fusion_lat": 0.0, "type": "electric_scooter", "lat": 38.9396865, "is_reserved": 0, "is_disabled": 0, "fusion_lon": 0.0, "bike_id": "0f7d8caa993f47eb8b8f548e9393298a", "lon": -77.03562366666667, "rental_uris": {"ios": "https://dc.lft.to/lastmile_qr_scan", "android": "https://dc.lft.to/lastmile_qr_scan"}}, {"name": "56579d8f4d87107c1e8a1bcb91821d1c", "fusion_lat": 0.0, "type": "electric_scooter", "lat": 38.905230833333334, "is_reserved": 0, "is_disabled": 0, "fusion_lon": 0.0, "bike_id": "56579d8f4d87107c1e8a1bcb91821d1c", "lon": -77.03420283333334, "rental_uris": {"ios": "https://dc.lft.to/lastmile_qr_scan", "android": "https://dc.lft.to/lastmile_qr_scan"}}, {"name": "eac37c6ec99aaff0f1dc70a6cca7d32a", "fusion_lat": 0.0, "type": "electric_scooter", "lat": 38.890446, "is_reserved": 0, "is_disabled": 0, "fusion_lon": 0.0, "bike_id": "eac37c6ec99aaff0f1dc70a6cca7d32a", "lon": -76.937482, "rental_uris": {"ios": "https://dc.lft.to/lastmile_qr_scan", "android": "https://dc.lft.to/lastmile_qr_scan"}}, {"name": "d33ad4f056d1493354cd5a6d53371e5a", "fusion_lat": 0.0, "type": "electric_bike", "lat": 38.848410333333334, "is_reserved": 0, "is_disabled": 0, "fusion_lon": 0.0, "bike_id": "d33ad4f056d1493354cd5a6d53371e5a", "lon": -77.08052666666667, "rental_uris": {"ios": "https://dc.lft.to/lastmile_qr_scan", "android": "https://dc.lft.to/lastmile_qr_scan"}}, {"name": "d2f20fad42aebe82393449e6122d7e7f", "fusion_lat": 0.0, "type": "electric_scooter", "lat": 38.90237316666666, "is_reserved": 0, "is_disabled": 0, "fusion_lon": 0.0, "bike_id": "d2f20fad42aebe82393449e6122d7e7f", "lon": -77.03335666666666, "rental_uris": {"ios": "https://dc.lft.to/lastmile_qr_scan", "android": "https://dc.lft.to/lastmile_qr_scan"}}, {"name": "7c6c8fd61325e0d2b5de5764448d4875", "fusion_lat": 0.0, "type": "electric_scooter", "lat": 38.92524266666667, "is_reserved": 0, "is_disabled": 0, "fusion_lon": 0.0, "bike_id": "7c6c8fd61325e0d2b5de5764448d4875", "lon": -77.05547983333334, "rental_uris": {"ios": "https://dc.lft.to/lastmile_qr_scan", "android": "https://dc.lft.to/lastmile_qr_scan"}}, {"name": "1d3e34c8bac7734e2061f8f4809498c2", "fusion_lat": 0.0, "type": "electric_scooter", "lat": 38.905258, "is_reserved": 0, "is_disabled": 0, "fusion_lon": 0.0, "bike_id": "1d3e34c8bac7734e2061f8f4809498c2", "lon": -77.04182933333334, "rental_uris": {"ios": "https://dc.lft.to/lastmile_qr_scan", "android": "https://dc.lft.to/lastmile_qr_scan"}}, {"name": "a1de606a183e3f5eed72f0347a7168dd", "fusion_lat": 0.0, "type": "electric_scooter", "lat": 38.88744633333334, "is_reserved": 0, "is_disabled": 0, "fusion_lon": 0.0, "bike_id": "a1de606a183e3f5eed72f0347a7168dd", "lon": -77.02137683333333, "rental_uris": {"ios": "https://dc.lft.to/lastmile_qr_scan", "android": "https://dc.lft.to/lastmile_qr_scan"}}, {"name": "a9aaa5b735166dcd42f74538340f91e8", "fusion_lat": 0.0, "type": "electric_scooter", "lat": 38.898756166666665, "is_reserved": 0, "is_disabled": 0, "fusion_lon": 0.0, "bike_id": "a9aaa5b735166dcd42f74538340f91e8", "lon": -76.93160266666666, "rental_uris": {"ios": "https://dc.lft.to/lastmile_qr_scan", "android": "https://dc.lft.to/lastmile_qr_scan"}}, {"name": "d7d0c644bf7d899d66ead021cb556329", "fusion_lat": 0.0, "type": "electric_scooter", "lat": 38.884306333333335, "is_reserved": 0, "is_disabled": 0, "fusion_lon": 0.0, "bike_id": "d7d0c644bf7d899d66ead021cb556329", "lon": -76.95759716666667, "rental_uris": {"ios": "https://dc.lft.to/lastmile_qr_scan", "android": "https://dc.lft.to/lastmile_qr_scan"}}, {"name": "7032f77ee2aa2b88dc433449750eb7f5", "fusion_lat": 0.0, "type": "electric_scooter", "lat": 38.85708866666667, "is_reserved": 0, "is_disabled": 0, "fusion_lon": 0.0, "bike_id": "7032f77ee2aa2b88dc433449750eb7f5", "lon": -76.98129466666667, "rental_uris": {"ios": "https://dc.lft.to/lastmile_qr_scan", "android": "https://dc.lft.to/lastmile_qr_scan"}}, {"name": "553cd7cf712ab8c8dfdadc1ea676e0bd", "fusion_lat": 0.0, "type": "electric_scooter", "lat": 38.931907, "is_reserved": 0, "is_disabled": 0, "fusion_lon": 0.0, "bike_id": "553cd7cf712ab8c8dfdadc1ea676e0bd", "lon": -77.02839983333334, "rental_uris": {"ios": "https://dc.lft.to/lastmile_qr_scan", "android": "https://dc.lft.to/lastmile_qr_scan"}}, {"name": "9cd660513d207a1d9814a0a3cddc7559", "fusion_lat": 0.0, "type": "electric_bike", "lat": 38.878514833333334, "is_reserved": 0, "is_disabled": 0, "fusion_lon": 0.0, "bike_id": "9cd660513d207a1d9814a0a3cddc7559", "lon": -77.0078925, "rental_uris": {"ios": "https://dc.lft.to/lastmile_qr_scan", "android": "https://dc.lft.to/lastmile_qr_scan"}}, {"name": "af28bbad484fcde77d9c67f57097bcab", "fusion_lat": 0.0, "type": "electric_scooter", "lat": 38.9027805, "is_reserved": 0, "is_disabled": 0, "fusion_lon": 0.0, "bike_id": "af28bbad484fcde77d9c67f57097bcab", "lon": -77.03839433333333, "rental_uris": {"ios": "https://dc.lft.to/lastmile_qr_scan", "android": "https://dc.lft.to/lastmile_qr_scan"}}, {"name": "b2b910756c90bf6e63bec61e23d9b824", "fusion_lat": 0.0, "type": "electric_scooter", "lat": 38.915628, "is_reserved": 0, "is_disabled": 0, "fusion_lon": 0.0, "bike_id": "b2b910756c90bf6e63bec61e23d9b824", "lon": -77.03237016666667, "rental_uris": {"ios": "https://dc.lft.to/lastmile_qr_scan", "android": "https://dc.lft.to/lastmile_qr_scan"}}, {"name": "9469e2276127201cf225719ff975bbac", "fusion_lat": 0.0, "type": "electric_scooter", "lat": 38.900266, "is_reserved": 0, "is_disabled": 0, "fusion_lon": 0.0, "bike_id": "9469e2276127201cf225719ff975bbac", "lon": -77.01180116666667, "rental_uris": {"ios": "https://dc.lft.to/lastmile_qr_scan", "android": "https://dc.lft.to/lastmile_qr_scan"}}, {"name": "19f3185fbd2eae414ae9275fd3301c2c", "fusion_lat": 0.0, "type": "electric_scooter", "lat": 38.887454166666664, "is_reserved": 0, "is_disabled": 0, "fusion_lon": 0.0, "bike_id": "19f3185fbd2eae414ae9275fd3301c2c", "lon": -76.97300833333334, "rental_uris": {"ios": "https://dc.lft.to/lastmile_qr_scan", "android": "https://dc.lft.to/lastmile_qr_scan"}}, {"name": "ac7f5ce00dc2d0696c7378593495cec4", "fusion_lat": 0.0, "type": "electric_scooter", "lat": 38.87697816666667, "is_reserved": 0, "is_disabled": 0, "fusion_lon": 0.0, "bike_id": "ac7f5ce00dc2d0696c7378593495cec4", "lon": -77.01770816666667, "rental_uris": {"ios": "https://dc.lft.to/lastmile_qr_scan", "android": "https://dc.lft.to/lastmile_qr_scan"}}, {"name": "297ef95af8ccff3ed2570bae3dac67e8", "fusion_lat": 0.0, "type": "electric_scooter", "lat": 38.91761833333333, "is_reserved": 0, "is_disabled": 0, "fusion_lon": 0.0, "bike_id": "297ef95af8ccff3ed2570bae3dac67e8", "lon": -77.0175975, "rental_uris": {"ios": "https://dc.lft.to/lastmile_qr_scan", "android": "https://dc.lft.to/lastmile_qr_scan"}}, {"name": "b612a8bce1c7ea801ffb0d18bcca62c8", "fusion_lat": 0.0, "type": "electric_bike", "lat": 38.87075216666667, "is_reserved": 0, "is_disabled": 0, "fusion_lon": 0.0, "bike_id": "b612a8bce1c7ea801ffb0d18bcca62c8", "lon": -77.11056616666667, "rental_uris": {"ios": "https://dc.lft.to/lastmile_qr_scan", "android": "https://dc.lft.to/lastmile_qr_scan"}}, {"name": "ce9964d3ca6eb519f9abe870fd5bc930", "fusion_lat": 0.0, "type": "electric_scooter", "lat": 38.901135833333335, "is_reserved": 0, "is_disabled": 0, "fusion_lon": 0.0, "bike_id": "ce9964d3ca6eb519f9abe870fd5bc930", "lon": -77.03994233333333, "rental_uris": {"ios": "https://dc.lft.to/lastmile_qr_scan", "android": "https://dc.lft.to/lastmile_qr_scan"}}, {"name": "a09c8c89156b337bf030622f74b77db0", "fusion_lat": 0.0, "type": "electric_scooter", "lat": 38.87750066666667, "is_reserved": 0, "is_disabled": 0, "fusion_lon": 0.0, "bike_id": "a09c8c89156b337bf030622f74b77db0", "lon": -76.9724235, "rental_uris": {"ios": "https://dc.lft.to/lastmile_qr_scan", "android": "https://dc.lft.to/lastmile_qr_scan"}}, {"name": "df9ab909088a9be02cf424516004426e", "fusion_lat": 0.0, "type": "electric_scooter", "lat": 38.94832816666667, "is_reserved": 0, "is_disabled": 0, "fusion_lon": 0.0, "bike_id": "df9ab909088a9be02cf424516004426e", "lon": -77.02551566666666, "rental_uris": {"ios": "https://dc.lft.to/lastmile_qr_scan", "android": "https://dc.lft.to/lastmile_qr_scan"}}, {"name": "ed7b704a1d1da54a02343f44df4c25a5", "fusion_lat": 0.0, "type": "electric_scooter", "lat": 38.889866166666664, "is_reserved": 0, "is_disabled": 0, "fusion_lon": 0.0, "bike_id": "ed7b704a1d1da54a02343f44df4c25a5", "lon": -77.00119116666667, "rental_uris": {"ios": "https://dc.lft.to/lastmile_qr_scan", "android": "https://dc.lft.to/lastmile_qr_scan"}}, {"name": "10ddda48c668aa489d28ae10e17d8452", "fusion_lat": 0.0, "type": "electric_scooter", "lat": 38.9186845, "is_reserved": 0, "is_disabled": 0, "fusion_lon": 0.0, "bike_id": "10ddda48c668aa489d28ae10e17d8452", "lon": -77.0734995, "rental_uris": {"ios": "https://dc.lft.to/lastmile_qr_scan", "android": "https://dc.lft.to/lastmile_qr_scan"}}, {"name": "2445cff2b4540179a12f3421c61c9688", "fusion_lat": 0.0, "type": "electric_scooter", "lat": 38.9077595, "is_reserved": 0, "is_disabled": 0, "fusion_lon": 0.0, "bike_id": "2445cff2b4540179a12f3421c61c9688", "lon": -77.07169033333334, "rental_uris": {"ios": "https://dc.lft.to/lastmile_qr_scan", "android": "https://dc.lft.to/lastmile_qr_scan"}}, {"name": "055d09b240bf7cf476e3f81801c24891", "fusion_lat": 0.0, "type": "electric_scooter", "lat": 38.91156683333333, "is_reserved": 0, "is_disabled": 0, "fusion_lon": 0.0, "bike_id": "055d09b240bf7cf476e3f81801c24891", "lon": -77.044306, "rental_uris": {"ios": "https://dc.lft.to/lastmile_qr_scan", "android": "https://dc.lft.to/lastmile_qr_scan"}}, {"name": "c364fa4ddb8702baefd290e02d38c549", "fusion_lat": 0.0, "type": "electric_bike", "lat": 38.83828316666666, "is_reserved": 0, "is_disabled": 0, "fusion_lon": 0.0, "bike_id": "c364fa4ddb8702baefd290e02d38c549", "lon": -76.99685916666667, "rental_uris": {"ios": "https://dc.lft.to/lastmile_qr_scan", "android": "https://dc.lft.to/lastmile_qr_scan"}}, {"name": "cda58be216b7a18ff022680c17a36870", "fusion_lat": 0.0, "type": "electric_scooter", "lat": 38.890132333333334, "is_reserved": 0, "is_disabled": 0, "fusion_lon": 0.0, "bike_id": "cda58be216b7a18ff022680c17a36870", "lon": -76.93747066666667, "rental_uris": {"ios": "https://dc.lft.to/lastmile_qr_scan", "android": "https://dc.lft.to/lastmile_qr_scan"}}, {"name": "abf630b0571cf837f4a3004e9ed4a96e", "fusion_lat": 0.0, "type": "electric_scooter", "lat": 38.88681116666667, "is_reserved": 0, "is_disabled": 0, "fusion_lon": 0.0, "bike_id": "abf630b0571cf837f4a3004e9ed4a96e", "lon": -76.95765366666667, "rental_uris": {"ios": "https://dc.lft.to/lastmile_qr_scan", "android": "https://dc.lft.to/lastmile_qr_scan"}}, {"name": "5e37c81fbb70b6f9b2a5daafb9c6a3b7", "fusion_lat": 0.0, "type": "electric_scooter", "lat": 38.868899, "is_reserved": 0, "is_disabled": 0, "fusion_lon": 0.0, "bike_id": "5e37c81fbb70b6f9b2a5daafb9c6a3b7", "lon": -76.98307733333333, "rental_uris": {"ios": "https://dc.lft.to/lastmile_qr_scan", "android": "https://dc.lft.to/lastmile_qr_scan"}}, {"name": "a3fd3adf79e82d331ff0eacfc16a85cd", "fusion_lat": 0.0, "type": "electric_scooter", "lat": 38.904827833333336, "is_reserved": 0, "is_disabled": 0, "fusion_lon": 0.0, "bike_id": "a3fd3adf79e82d331ff0eacfc16a85cd", "lon": -77.065392, "rental_uris": {"ios": "https://dc.lft.to/lastmile_qr_scan", "android": "https://dc.lft.to/lastmile_qr_scan"}}, {"name": "ceba9eb7bf56f195b0185511ad1a34b8", "fusion_lat": 0.0, "type": "electric_scooter", "lat": 38.900220166666664, "is_reserved": 0, "is_disabled": 0, "fusion_lon": 0.0, "bike_id": "ceba9eb7bf56f195b0185511ad1a34b8", "lon": -77.04337566666666, "rental_uris": {"ios": "https://dc.lft.to/lastmile_qr_scan", "android": "https://dc.lft.to/lastmile_qr_scan"}}, {"name": "888574be93089a228755e275f19b705f", "fusion_lat": 0.0, "type": "electric_bike", "lat": 38.79983933333333, "is_reserved": 0, "is_disabled": 0, "fusion_lon": 0.0, "bike_id": "888574be93089a228755e275f19b705f", "lon": -77.12978966666667, "rental_uris": {"ios": "https://dc.lft.to/lastmile_qr_scan", "android": "https://dc.lft.to/lastmile_qr_scan"}}, {"name": "671643d8afffdc0eccad0b3be664eb43", "fusion_lat": 0.0, "type": "electric_scooter", "lat": 38.89481466666667, "is_reserved": 0, "is_disabled": 0, "fusion_lon": 0.0, "bike_id": "671643d8afffdc0eccad0b3be664eb43", "lon": -77.019965, "rental_uris": {"ios": "https://dc.lft.to/lastmile_qr_scan", "android": "https://dc.lft.to/lastmile_qr_scan"}}, {"name": "1a51404971782a842c0b750e6a0da69d", "fusion_lat": 0.0, "type": "electric_scooter", "lat": 38.85846216666667, "is_reserved": 0, "is_disabled": 0, "fusion_lon": 0.0, "bike_id": "1a51404971782a842c0b750e6a0da69d", "lon": -76.95888433333333, "rental_uris": {"ios": "https://dc.lft.to/lastmile_qr_scan", "android": "https://dc.lft.to/lastmile_qr_scan"}}, {"name": "3d5be83cde54765f4e2042564bb9135b", "fusion_lat": 0.0, "type": "electric_scooter", "lat": 38.917089, "is_reserved": 0, "is_disabled": 0, "fusion_lon": 0.0, "bike_id": "3d5be83cde54765f4e2042564bb9135b", "lon": -77.02787916666666, "rental_uris": {"ios": "https://dc.lft.to/lastmile_qr_scan", "android": "https://dc.lft.to/lastmile_qr_scan"}}, {"name": "d753132a9fd7b3726e5430101c676153", "fusion_lat": 0.0, "type": "electric_scooter", "lat": 38.94175116666667, "is_reserved": 0, "is_disabled": 0, "fusion_lon": 0.0, "bike_id": "d753132a9fd7b3726e5430101c676153", "lon": -77.0250955, "rental_uris": {"ios": "https://dc.lft.to/lastmile_qr_scan", "android": "https://dc.lft.to/lastmile_qr_scan"}}, {"name": "988a3e0e862e4da27e9f26a2b0a29b1b", "fusion_lat": 0.0, "type": "electric_scooter", "lat": 38.907049, "is_reserved": 0, "is_disabled": 0, "fusion_lon": 0.0, "bike_id": "988a3e0e862e4da27e9f26a2b0a29b1b", "lon": -77.02388966666666, "rental_uris": {"ios": "https://dc.lft.to/lastmile_qr_scan", "android": "https://dc.lft.to/lastmile_qr_scan"}}, {"name": "09596f54f9053654baa076e6622e88f3", "fusion_lat": 0.0, "type": "electric_scooter", "lat": 38.909616666666665, "is_reserved": 0, "is_disabled": 0, "fusion_lon": 0.0, "bike_id": "09596f54f9053654baa076e6622e88f3", "lon": -77.04597433333333, "rental_uris": {"ios": "https://dc.lft.to/lastmile_qr_scan", "android": "https://dc.lft.to/lastmile_qr_scan"}}, {"name": "bde6f9ebe015a98bd74769dd72383dbc", "fusion_lat": 0.0, "type": "electric_scooter", "lat": 38.927560666666665, "is_reserved": 0, "is_disabled": 0, "fusion_lon": 0.0, "bike_id": "bde6f9ebe015a98bd74769dd72383dbc", "lon": -77.03275116666667, "rental_uris": {"ios": "https://dc.lft.to/lastmile_qr_scan", "android": "https://dc.lft.to/lastmile_qr_scan"}}, {"name": "7669570697f2db3b18756f8e5d1b5e42", "fusion_lat": 0.0, "type": "electric_scooter", "lat": 38.90141166666667, "is_reserved": 0, "is_disabled": 0, "fusion_lon": 0.0, "bike_id": "7669570697f2db3b18756f8e5d1b5e42", "lon": -77.04996183333333, "rental_uris": {"ios": "https://dc.lft.to/lastmile_qr_scan", "android": "https://dc.lft.to/lastmile_qr_scan"}}, {"name": "b7743edbb3e670bafa731301da2699b7", "fusion_lat": 0.0, "type": "electric_scooter", "lat": 38.91108833333333, "is_reserved": 0, "is_disabled": 0, "fusion_lon": 0.0, "bike_id": "b7743edbb3e670bafa731301da2699b7", "lon": -77.0314975, "rental_uris": {"ios": "https://dc.lft.to/lastmile_qr_scan", "android": "https://dc.lft.to/lastmile_qr_scan"}}, {"name": "c895a0b0ee670e1b763e54bf4ded099e", "fusion_lat": 0.0, "type": "electric_scooter", "lat": 38.903837833333334, "is_reserved": 0, "is_disabled": 0, "fusion_lon": 0.0, "bike_id": "c895a0b0ee670e1b763e54bf4ded099e", "lon": -77.04837666666667, "rental_uris": {"ios": "https://dc.lft.to/lastmile_qr_scan", "android": "https://dc.lft.to/lastmile_qr_scan"}}, {"name": "cdade17807d947ebdb3416e552f3739f", "fusion_lat": 0.0, "type": "electric_scooter", "lat": 38.90171566666667, "is_reserved": 0, "is_disabled": 0, "fusion_lon": 0.0, "bike_id": "cdade17807d947ebdb3416e552f3739f", "lon": -77.01891233333333, "rental_uris": {"ios": "https://dc.lft.to/lastmile_qr_scan", "android": "https://dc.lft.to/lastmile_qr_scan"}}, {"name": "78cbeeb4660fb2594ed96170ec863d69", "fusion_lat": 0.0, "type": "electric_bike", "lat": 38.946257, "is_reserved": 0, "is_disabled": 0, "fusion_lon": 0.0, "bike_id": "78cbeeb4660fb2594ed96170ec863d69", "lon": -77.08052933333333, "rental_uris": {"ios": "https://dc.lft.to/lastmile_qr_scan", "android": "https://dc.lft.to/lastmile_qr_scan"}}, {"name": "d68c81ca80aba890b8333079fa444c87", "fusion_lat": 0.0, "type": "electric_bike", "lat": 38.9233275, "is_reserved": 0, "is_disabled": 0, "fusion_lon": 0.0, "bike_id": "d68c81ca80aba890b8333079fa444c87", "lon": -77.0229065, "rental_uris": {"ios": "https://dc.lft.to/lastmile_qr_scan", "android": "https://dc.lft.to/lastmile_qr_scan"}}, {"name": "653e2f8426d13b898d31fa480342e081", "fusion_lat": 0.0, "type": "electric_scooter", "lat": 38.917606, "is_reserved": 0, "is_disabled": 0, "fusion_lon": 0.0, "bike_id": "653e2f8426d13b898d31fa480342e081", "lon": -77.02512466666667, "rental_uris": {"ios": "https://dc.lft.to/lastmile_qr_scan", "android": "https://dc.lft.to/lastmile_qr_scan"}}, {"name": "ad0cfe30a2265825bfa125d4fbe9129d", "fusion_lat": 0.0, "type": "electric_scooter", "lat": 38.90544416666667, "is_reserved": 0, "is_disabled": 0, "fusion_lon": 0.0, "bike_id": "ad0cfe30a2265825bfa125d4fbe9129d", "lon": -77.0447745, "rental_uris": {"ios": "https://dc.lft.to/lastmile_qr_scan", "android": "https://dc.lft.to/lastmile_qr_scan"}}, {"name": "8c4812c551e6056ad99a1908fe29c5de", "fusion_lat": 0.0, "type": "electric_scooter", "lat": 38.91248516666667, "is_reserved": 0, "is_disabled": 0, "fusion_lon": 0.0, "bike_id": "8c4812c551e6056ad99a1908fe29c5de", "lon": -77.038422, "rental_uris": {"ios": "https://dc.lft.to/lastmile_qr_scan", "android": "https://dc.lft.to/lastmile_qr_scan"}}, {"name": "2e8f30f8b31be1c2fa0cecfb1c94428e", "fusion_lat": 0.0, "type": "electric_scooter", "lat": 38.937225, "is_reserved": 0, "is_disabled": 0, "fusion_lon": 0.0, "bike_id": "2e8f30f8b31be1c2fa0cecfb1c94428e", "lon": -77.036392, "rental_uris": {"ios": "https://dc.lft.to/lastmile_qr_scan", "android": "https://dc.lft.to/lastmile_qr_scan"}}, {"name": "8d12a317eeaa883269eee9c7280f7f92", "fusion_lat": 0.0, "type": "electric_bike", "lat": 38.84475166666667, "is_reserved": 0, "is_disabled": 0, "fusion_lon": 0.0, "bike_id": "8d12a317eeaa883269eee9c7280f7f92", "lon": -76.97217066666667, "rental_uris": {"ios": "https://dc.lft.to/lastmile_qr_scan", "android": "https://dc.lft.to/lastmile_qr_scan"}}, {"name": "813565ec4628e2394687f5d8d24e5e64", "fusion_lat": 0.0, "type": "electric_scooter", "lat": 38.917260666666664, "is_reserved": 0, "is_disabled": 0, "fusion_lon": 0.0, "bike_id": "813565ec4628e2394687f5d8d24e5e64", "lon": -77.01869233333333, "rental_uris": {"ios": "https://dc.lft.to/lastmile_qr_scan", "android": "https://dc.lft.to/lastmile_qr_scan"}}, {"name": "6253dbef91aa6b97a573c0e995148b13", "fusion_lat": 0.0, "type": "electric_scooter", "lat": 38.901983, "is_reserved": 0, "is_disabled": 0, "fusion_lon": 0.0, "bike_id": "6253dbef91aa6b97a573c0e995148b13", "lon": -77.0505535, "rental_uris": {"ios": "https://dc.lft.to/lastmile_qr_scan", "android": "https://dc.lft.to/lastmile_qr_scan"}}, {"name": "99c682aa28bd0e7e866582bd350bcf55", "fusion_lat": 0.0, "type": "electric_scooter", "lat": 38.9183255, "is_reserved": 0, "is_disabled": 0, "fusion_lon": 0.0, "bike_id": "99c682aa28bd0e7e866582bd350bcf55", "lon": -77.04560616666667, "rental_uris": {"ios": "https://dc.lft.to/lastmile_qr_scan", "android": "https://dc.lft.to/lastmile_qr_scan"}}, {"name": "791104e41cc28d681b99a4db35330069", "fusion_lat": 0.0, "type": "electric_scooter", "lat": 38.95643, "is_reserved": 0, "is_disabled": 0, "fusion_lon": 0.0, "bike_id": "791104e41cc28d681b99a4db35330069", "lon": -77.02274983333334, "rental_uris": {"ios": "https://dc.lft.to/lastmile_qr_scan", "android": "https://dc.lft.to/lastmile_qr_scan"}}, {"name": "afed64acfc93e85c8fa49885e99e4343", "fusion_lat": 0.0, "type": "electric_scooter", "lat": 38.8983475, "is_reserved": 0, "is_disabled": 0, "fusion_lon": 0.0, "bike_id": "afed64acfc93e85c8fa49885e99e4343", "lon": -76.945704, "rental_uris": {"ios": "https://dc.lft.to/lastmile_qr_scan", "android": "https://dc.lft.to/lastmile_qr_scan"}}, {"name": "8f5cad7407d1a112d65365261f05152a", "fusion_lat": 0.0, "type": "electric_scooter", "lat": 38.916976, "is_reserved": 0, "is_disabled": 0, "fusion_lon": 0.0, "bike_id": "8f5cad7407d1a112d65365261f05152a", "lon": -77.0314605, "rental_uris": {"ios": "https://dc.lft.to/lastmile_qr_scan", "android": "https://dc.lft.to/lastmile_qr_scan"}}, {"name": "e771b80be6d8bb9e5843898c54144976", "fusion_lat": 0.0, "type": "electric_scooter", "lat": 38.920341, "is_reserved": 0, "is_disabled": 0, "fusion_lon": 0.0, "bike_id": "e771b80be6d8bb9e5843898c54144976", "lon": -76.97803616666667, "rental_uris": {"ios": "https://dc.lft.to/lastmile_qr_scan", "android": "https://dc.lft.to/lastmile_qr_scan"}}, {"name": "2c05cea62f8035287091d6ee73923bea", "fusion_lat": 0.0, "type": "electric_scooter", "lat": 38.906087, "is_reserved": 0, "is_disabled": 0, "fusion_lon": 0.0, "bike_id": "2c05cea62f8035287091d6ee73923bea", "lon": -77.02414116666667, "rental_uris": {"ios": "https://dc.lft.to/lastmile_qr_scan", "android": "https://dc.lft.to/lastmile_qr_scan"}}, {"name": "beca7834b5f3963226878161ef3889ae", "fusion_lat": 0.0, "type": "electric_scooter", "lat": 38.9527065, "is_reserved": 0, "is_disabled": 0, "fusion_lon": 0.0, "bike_id": "beca7834b5f3963226878161ef3889ae", "lon": -77.071485, "rental_uris": {"ios": "https://dc.lft.to/lastmile_qr_scan", "android": "https://dc.lft.to/lastmile_qr_scan"}}, {"name": "20323c52f4db8c62e477d21b01f04f50", "fusion_lat": 0.0, "type": "electric_scooter", "lat": 38.9035345, "is_reserved": 0, "is_disabled": 0, "fusion_lon": 0.0, "bike_id": "20323c52f4db8c62e477d21b01f04f50", "lon": -77.01110966666667, "rental_uris": {"ios": "https://dc.lft.to/lastmile_qr_scan", "android": "https://dc.lft.to/lastmile_qr_scan"}}, {"name": "2e7035658335a5a3eda364ed1313ed90", "fusion_lat": 0.0, "type": "electric_scooter", "lat": 38.877155, "is_reserved": 0, "is_disabled": 0, "fusion_lon": 0.0, "bike_id": "2e7035658335a5a3eda364ed1313ed90", "lon": -77.01763133333333, "rental_uris": {"ios": "https://dc.lft.to/lastmile_qr_scan", "android": "https://dc.lft.to/lastmile_qr_scan"}},