{"data": {"bikes": [{"is_reserved": 0, "fusion_lon": 0.0, "fusion_lat": 0.0, "name": "150f8044b827b092c37fdbc6f788a60d", "type": "electric_scooter", "is_disabled": 0, "lat": 38.88051266666667, "rental_uris": {"android": "https://dc.lft.to/lastmile_qr_scan", "ios": "https://dc.lft.to/lastmile_qr_scan"}, "bike_id": "150f8044b827b092c37fdbc6f788a60d", "lon": -77.01993483333334}, {"is_reserved": 0, "fusion_lon": 0.0, "fusion_lat": 0.0, "name": "4be653090e45015a6c3d13099be718b8", "type": "electric_scooter", "is_disabled": 0, "lat": 38.9386855, "rental_uris": {"android": "https://dc.lft.to/lastmile_qr_scan", "ios": "https://dc.lft.to/lastmile_qr_scan"}, "bike_id": "4be653090e45015a6c3d13099be718b8", "lon": -77.02649566666666}, {"is_reserved": 0, "fusion_lon": 0.0, "fusion_lat": 0.0, "name": "fde179cec7b36017a37bbc8ebe3a8df8", "type": "electric_scooter", "is_disabled": 0, "lat": 38.899012, "rental_uris": {"android": "https://dc.lft.to/lastmile_qr_scan", "ios": "https://dc.lft.to/lastmile_qr_scan"}, "bike_id": "fde179cec7b36017a37bbc8ebe3a8df8", "lon": -76.93397133333333}, {"is_reserved": 0, "fusion_lon": 0.0, "fusion_lat": 0.0, "name": "0668a69792f6e6bfb361e154794890aa", "type": "electric_scooter", "is_disabled": 0, "lat": 38.92061283333334, "rental_uris": {"android": "https://dc.lft.to/lastmile_qr_scan", "ios": "https://dc.lft.to/lastmile_qr_scan"}, "bike_id": "0668a69792f6e6bfb361e154794890aa", "lon": -77.025622}, {"is_reserved": 0, "fusion_lon": 0.0, "fusion_lat": 0.0, "name": "1abfa397b85b27390ce7baaa8fd7aba5", "type": "electric_scooter", "is_disabled": 0, "lat": 38.90278283333333, "rental_uris": {"android": "https://dc.lft.to/lastmile_qr_scan", "ios": "https://dc.lft.to/lastmile_qr_scan"}, "bike_id": "1abfa397b85b27390ce7baaa8fd7aba5", "lon": -77.04581983333334}, {"is_reserved": 0, "fusion_lon": 0.0, "fusion_lat": 0.0, "name": "a18e8f763b7bd9fecbd1cd411667dc7a", "type": "electric_scooter", "is_disabled": 0, "lat": 38.923328, "rental_uris": {"android": "https://dc.lft.to/lastmile_qr_scan", "ios": "https://dc.lft.to/lastmile_qr_scan"}, "bike_id": "a18e8f763b7bd9fecbd1cd411667dc7a", "lon": -77.043231}, {"is_reserved": 0, "fusion_lon": 0.0, "fusion_lat": 0.0, "name": "3d89f408d75d48e1aad810cebfec6011", "type": "electric_scooter", "is_disabled": 0, "lat": 38.9290275, "rental_uris": {"android": "https://dc.lft.to/lastmile_qr_scan", "ios": "https://dc.lft.to/lastmile_qr_scan"}, "bike_id": "3d89f408d75d48e1aad810cebfec6011", "lon": -77.03276833333334}, {"is_reserved": 0, "fusion_lon": 0.0, "fusion_lat": 0.0, "name": "6022dde45f6bcf92bd1046ea80d8e164", "type": "electric_scooter", "is_disabled": 0, "lat": 38.934862, "rental_uris": {"android": "https://dc.lft.to/lastmile_qr_scan", "ios": "https://dc.lft.to/lastmile_qr_scan"}, "bike_id": "6022dde45f6bcf92bd1046ea80d8e164", "lon": -77.05791566666667}, {"is_reserved": 0, "fusion_lon": 0.0, "fusion_lat": 0.0, "name": "24e09c9eab70c6b14b90e891ff543d80", "type": "electric_scooter", "is_disabled": 0, "lat": 38.89371166666667, "rental_uris": {"android": "https://dc.lft.to/lastmile_qr_scan", "ios": "https://dc.lft.to/lastmile_qr_scan"}, "bike_id": "24e09c9eab70c6b14b90e891ff543d80", "lon": -77.00333883333333}, {"is_reserved": 0, "fusion_lon": 0.0, "fusion_lat": 0.0, "name": "0588039ffab9ac9b9f0f86d1926fb3c4", "type": "electric_scooter", "is_disabled": 0, "lat": 38.903198, "rental_uris": {"android": "https://dc.lft.to/lastmile_qr_scan", "ios": "https://dc.lft.to/lastmile_qr_scan"}, "bike_id": "0588039ffab9ac9b9f0f86d1926fb3c4", "lon": -77.04360683333333}, {"is_reserved": 0, "fusion_lon": 0.0, "fusion_lat": 0.0, "name": "36cb084a20629d218493d3930fdeb8cf", "type": "electric_scooter", "is_disabled": 0, "lat": 38.9209145, "rental_uris": {"android": "https://dc.lft.to/lastmile_qr_scan", "ios": "https://dc.lft.to/lastmile_qr_scan"}, "bike_id": "36cb084a20629d218493d3930fdeb8cf", "lon": -77.022243}, {"is_reserved": 0, "fusion_lon": 0.0, "fusion_lat": 0.0, "name": "cd5f33c700e8e410f19749419c2603ad", "type": "electric_bike", "is_disabled": 0, "lat": 38.87733516666667, "rental_uris": {"android": "https://dc.lft.to/lastmile_qr_scan", "ios": "https://dc.lft.to/lastmile_qr_scan"}, "bike_id": "cd5f33c700e8e410f19749419c2603ad", "lon": -76.98106183333333}, {"is_reserved": 0, "fusion_lon": 0.0, "fusion_lat": 0.0, "name": "caa218935a5b2bccb20d0d2e43739c0a", "type": "electric_scooter", "is_disabled": 0, "lat": 38.8606395, "rental_uris": {"android": "https://dc.lft.to/lastmile_qr_scan", "ios": "https://dc.lft.to/lastmile_qr_scan"}, "bike_id": "caa218935a5b2bccb20d0d2e43739c0a", "lon": -76.98421433333333}, {"is_reserved": 0, "fusion_lon": 0.0, "fusion_lat": 0.0, "name": "2e50fb93a21289fe4d357e3c271bd208", "type": "electric_scooter", "is_disabled": 0, "lat": 38.90569633333333, "rental_uris": {"android": "https://dc.lft.to/lastmile_qr_scan", "ios": "https://dc.lft.to/lastmile_qr_scan"}, "bike_id": "2e50fb93a21289fe4d357e3c271bd208", "lon": -77.005841}, {"is_reserved": 0, "fusion_lon": 0.0, "fusion_lat": 0.0, "name": "2338833d4d65b4825c4466a964c667f7", "type": "electric_scooter", "is_disabled": 0, "lat": 38.892270333333336, "rental_uris": {"android": "https://dc.lft.to/lastmile_qr_scan", "ios": "https://dc.lft.to/lastmile_qr_scan"}, "bike_id": "2338833d4d65b4825c4466a964c667f7", "lon": -77.0263115}, {"is_reserved": 0, "fusion_lon": 0.0, "fusion_lat": 0.0, "name": "20815c391bf3e28a4fffa7700fd0eaef", "type": "electric_scooter", "is_disabled": 0, "lat": 38.90279366666667, "rental_uris": {"android": "https://dc.lft.to/lastmile_qr_scan", "ios": "https://dc.lft.to/lastmile_qr_scan"}, "bike_id": "20815c391bf3e28a4fffa7700fd0eaef", "lon": -77.0345475}, {"is_reserved": 0, "fusion_lon": 0.0, "fusion_lat": 0.0, "name": "ab7f04a19c3ab35085fb461f69e60f63", "type": "electric_scooter", "is_disabled": 0, "lat": 38.934480666666666, "rental_uris": {"android": "https://dc.lft.to/lastmile_qr_scan", "ios": "https://dc.lft.to/lastmile_qr_scan"}, "bike_id": "ab7f04a19c3ab35085fb461f69e60f63", "lon": -76.99884466666667}, {"is_reserved": 0, "fusion_lon": 0.0, "fusion_lat": 0.0, "name": "705d081f2bbaf3a40a11672497108fc4", "type": "electric_bike", "is_disabled": 0, "lat": 38.96278183333333, "rental_uris": {"android": "https://dc.lft.to/lastmile_qr_scan", "ios": "https://dc.lft.to/lastmile_qr_scan"}, "bike_id": "705d081f2bbaf3a40a11672497108fc4", "lon": -77.01457233333333}, {"is_reserved": 0, "fusion_lon": 0.0, "fusion_lat": 0.0, "name": "3ca01fe222473ee5f803b77f152cb2b7", "type": "electric_scooter", "is_disabled": 0, "lat": 38.92272966666667, "rental_uris": {"android": "https://dc.lft.to/lastmile_qr_scan", "ios": "https://dc.lft.to/lastmile_qr_scan"}, "bike_id": "3ca01fe222473ee5f803b77f152cb2b7", "lon": -77.042518}, {"is_reserved": 0, "fusion_lon": 0.0, "fusion_lat": 0.0, "name": "6b394a1002c36993dc98c4a59b78ea0a", "type": "electric_scooter", "is_disabled": 0, "lat": 38.900671, "rental_uris": {"android": "https://dc.lft.to/lastmile_qr_scan", "ios": "https://dc.lft.to/lastmile_qr_scan"}, "bike_id": "6b394a1002c36993dc98c4a59b78ea0a", "lon": -76.94690083333333}, {"is_reserved": 0, "fusion_lon": 0.0, "fusion_lat": 0.0, "name": "1e8d70ac58f3aae4af142102baf3639e", "type": "electric_bike", "is_disabled": 0, "lat": 38.9518095, "rental_uris": {"android": "https://dc.lft.to/lastmile_qr_scan", "ios": "https://dc.lft.to/lastmile_qr_scan"}, "bike_id": "1e8d70ac58f3aae4af142102baf3639e", "lon": -76.97731183333333}, {"is_reserved": 0, "fusion_lon": 0.0, "fusion_lat": 0.0, "name": "f00a516af437cbada9fac476b37dd41e", "type": "electric_bike", "is_disabled": 0, "lat": 38.85570083333333, "rental_uris": {"android": "https://dc.lft.to/lastmile_qr_scan", "ios": "https://dc.lft.to/lastmile_qr_scan"}, "bike_id": "f00a516af437cbada9fac476b37dd41e", "lon": -77.0818815}, {"is_reserved": 0, "fusion_lon": 0.0, "fusion_lat": 0.0, "name": "d1732dc952f83243a8be42f84639e323", "type": "electric_scooter", "is_disabled": 0, "lat": 38.93048183333333, "rental_uris": {"android": "https://dc.lft.to/lastmile_qr_scan", "ios": "https://dc.lft.to/lastmile_qr_scan"}, "bike_id": "d1732dc952f83243a8be42f84639e323", "lon": -77.0379445}, {"is_reserved": 0, "fusion_lon": 0.0, "fusion_lat": 0.0, "name": "db06174f8727964c8dac9603bce83b29", "type": "electric_scooter", "is_disabled": 0, "lat": 38.9028915, "rental_uris": {"android": "https://dc.lft.to/lastmile_qr_scan", "ios": "https://dc.lft.to/lastmile_qr_scan"}, "bike_id": "db06174f8727964c8dac9603bce83b29", "lon": -77.05806683333333}, {"is_reserved": 0, "fusion_lon": 0.0, "fusion_lat": 0.0, "name": "0549c09011159880be09ae3dece837fc", "type": "electric_scooter", "is_disabled": 0, "lat": 38.95330166666667, "rental_uris": {"android": "https://dc.lft.to/lastmile_qr_scan", "ios": "https://dc.lft.to/lastmile_qr_scan"}, "bike_id": "0549c09011159880be09ae3dece837fc", "lon": -77.0706805}, {"is_reserved": 0, "fusion_lon": 0.0, "fusion_lat": 0.0, "name": "b429e86e9a55b0d001fdae492ac13d47", "type": "electric_scooter", "is_disabled": 0, "lat": 38.910689166666664, "rental_uris": {"android": "https://dc.lft.to/lastmile_qr_scan", "ios": "https://dc.lft.to/lastmile_qr_scan"}, "bike_id": "b429e86e9a55b0d001fdae492ac13d47", "lon": -77.04094666666667}, {"is_reserved": 0, "fusion_lon": 0.0, "fusion_lat": 0.0, "name": "e16b97e2c722cf315ef5ad5e1d9c9bc0", "type": "electric_scooter", "is_disabled": 0, "lat": 38.92172083333333, "rental_uris": {"android": "https://dc.lft.to/lastmile_qr_scan", "ios": "https://dc.lft.to/lastmile_qr_scan"}, "bike_id": "e16b97e2c722cf315ef5ad5e1d9c9bc0", "lon": -77.0330835}, {"is_reserved": 0, "fusion_lon": 0.0, "fusion_lat": 0.0, "name": "388760519b2e5874cf9ee09f4e7a5c1c", "type": "electric_scooter", "is_disabled": 0, "lat": 38.89522483333333, "rental_uris": {"android": "https://dc.lft.to/lastmile_qr_scan", "ios": "https://dc.lft.to/lastmile_qr_scan"}, "bike_id": "388760519b2e5874cf9ee09f4e7a5c1c", "lon": -77.03957466666667}, {"is_reserved": 0, "fusion_lon": 0.0, "fusion_lat": 0.0, "name": "0e33bd2dd0d124f6dc4e81321c2be50f", "type": "electric_scooter", "is_disabled": 0, "lat": 38.9034185, "rental_uris": {"android": "https://dc.lft.to/lastmile_qr_scan", "ios": "https://dc.lft.to/lastmile_qr_scan"}, "bike_id": "0e33bd2dd0d124f6dc4e81321c2be50f", "lon": -77.046486}, {"is_reserved": 0, "fusion_lon": 0.0, "fusion_lat": 0.0, "name": "ee77fbf4e6a05e1c8988fdded4b1e7aa", "type": "electric_scooter", "is_disabled": 0, "lat": 38.922130833333334, "rental_uris": {"android": "https://dc.lft.to/lastmile_qr_scan", "ios": "https://dc.lft.to/lastmile_qr_scan"}, "bike_id": "ee77fbf4e6a05e1c8988fdded4b1e7aa", "lon": -77.0425305}, {"is_reserved": 0, "fusion_lon": 0.0, "fusion_lat": 0.0, "name": "b20e6de6b025f1feae6a803dfdd25a7d", "type": "electric_scooter", "is_disabled": 0, "lat": 38.90272083333333, "rental_uris": {"android": "https://dc.lft.to/lastmile_qr_scan", "ios": "https://dc.lft.to/lastmile_qr_scan"}, "bike_id": "b20e6de6b025f1feae6a803dfdd25a7d", "lon": -77.0393215}, {"is_reserved": 0, "fusion_lon": 0.0, "fusion_lat": 0.0, "name": "45e5ab33dbcde379970ff3e6d2166aa1", "type": "electric_scooter", "is_disabled": 0, "lat": 38.90381633333333, "rental_uris": {"android": "https://dc.lft.to/lastmile_qr_scan", "ios": "https://dc.lft.to/lastmile_qr_scan"}, "bike_id": "45e5ab33dbcde379970ff3e6d2166aa1", "lon": -77.03414933333333}, {"is_reserved": 0, "fusion_lon": 0.0, "fusion_lat": 0.0, "name": "19a4fb8518b145b8da39c130a598879d", "type": "electric_scooter", "is_disabled": 0, "lat": 38.9024525, "rental_uris": {"android": "https://dc.lft.to/lastmile_qr_scan", "ios": "https://dc.lft.to/lastmile_qr_scan"}, "bike_id": "19a4fb8518b145b8da39c130a598879d", "lon": -77.04346883333334}, {"is_reserved": 0, "fusion_lon": 0.0, "fusion_lat": 0.0, "name": "656843fd60ae6395ac48c0567fb67132", "type": "electric_scooter", "is_disabled": 0, "lat": 38.907910666666666, "rental_uris": {"android": "https://dc.lft.to/lastmile_qr_scan", "ios": "https://dc.lft.to/lastmile_qr_scan"}, "bike_id": "656843fd60ae6395ac48c0567fb67132", "lon": -77.072583}, {"is_reserved": 0, "fusion_lon": 0.0, "fusion_lat": 0.0, "name": "967e47d81593882a4bb7629baf983070", "type": "electric_bike", "is_disabled": 0, "lat": 39.057976833333335, "rental_uris": {"android": "https://dc.lft.to/lastmile_qr_scan", "ios": "https://dc.lft.to/lastmile_qr_scan"}, "bike_id": "967e47d81593882a4bb7629baf983070", "lon": -77.1501995}, {"is_reserved": 0, "fusion_lon": 0.0, "fusion_lat": 0.0, "name": "0ecfa94df6fc73978543e9e9db6053b1", "type": "electric_scooter", "is_disabled": 0, "lat": 38.917105666666664, "rental_uris": {"android": "https://dc.lft.to/lastmile_qr_scan", "ios": "https://dc.lft.to/lastmile_qr_scan"}, "bike_id": "0ecfa94df6fc73978543e9e9db6053b1", "lon": -77.03862216666667}, {"is_reserved": 0, "fusion_lon": 0.0, "fusion_lat": 0.0, "name": "d76444f5277f788e00df147577d38e3e", "type": "electric_scooter", "is_disabled": 0, "lat": 38.91685916666667, "rental_uris": {"android": "https://dc.lft.to/lastmile_qr_scan", "ios": "https://dc.lft.to/lastmile_qr_scan"}, "bike_id": "d76444f5277f788e00df147577d38e3e", "lon": -77.02969733333333}, {"is_reserved": 0, "fusion_lon": 0.0, "fusion_lat": 0.0, "name": "99ef42178084632b1e9682463606823a", "type": "electric_scooter", "is_disabled": 0, "lat": 38.8975215, "rental_uris": {"android": "https://dc.lft.to/lastmile_qr_scan", "ios": "https://dc.lft.to/lastmile_qr_scan"}, "bike_id": "99ef42178084632b1e9682463606823a", "lon": -77.02019683333333}, {"is_reserved": 0, "fusion_lon": 0.0, "fusion_lat": 0.0, "name": "65b9f6e78fa52ced6b416facf3b2d8a8", "type": "electric_scooter", "is_disabled": 0, "lat": 38.904664333333336, "rental_uris": {"android": "https://dc.lft.to/lastmile_qr_scan", "ios": "https://dc.lft.to/lastmile_qr_scan"}, "bike_id": "65b9f6e78fa52ced6b416facf3b2d8a8", "lon": -77.00682283333333}, {"is_reserved": 0, "fusion_lon": 0.0, "fusion_lat": 0.0, "name": "8bfd548857c64ddc1238d78320f4d692", "type": "electric_scooter", "is_disabled": 0, "lat": 38.8922335, "rental_uris": {"android": "https://dc.lft.to/lastmile_qr_scan", "ios": "https://dc.lft.to/lastmile_qr_scan"}, "bike_id": "8bfd548857c64ddc1238d78320f4d692", "lon": -77.02226983333334}, {"is_reserved": 0, "fusion_lon": 0.0, "fusion_lat": 0.0, "name": "b622bcc3126ac9db42c6e0c733a76cf6", "type": "electric_scooter", "is_disabled": 0, "lat": 38.8985645, "rental_uris": {"android": "https://dc.lft.to/lastmile_qr_scan", "ios": "https://dc.lft.to/lastmile_qr_scan"}, "bike_id": "b622bcc3126ac9db42c6e0c733a76cf6", "lon": -77.02368833333334}, {"is_reserved": 0, "fusion_lon": 0.0, "fusion_lat": 0.0, "name": "828aa731e653c4c54a0d2699a7b93f61", "type": "electric_scooter", "is_disabled": 0, "lat": 38.905376, "rental_uris": {"android": "https://dc.lft.to/lastmile_qr_scan", "ios": "https://dc.lft.to/lastmile_qr_scan"}, "bike_id": "828aa731e653c4c54a0d2699a7b93f61", "lon": -77.0297095}, {"is_reserved": 0, "fusion_lon": 0.0, "fusion_lat": 0.0, "name": "6104f0cd526460904a8ed3a7a7bd4ff7", "type": "electric_scooter", "is_disabled": 0, "lat": 38.908102666666665, "rental_uris": {"android": "https://dc.lft.to/lastmile_qr_scan", "ios": "https://dc.lft.to/lastmile_qr_scan"}, "bike_id": "6104f0cd526460904a8ed3a7a7bd4ff7", "lon": -76.98738349999999}, {"is_reserved": 0, "fusion_lon": 0.0, "fusion_lat": 0.0, "name": "bb4278b7b4bc54be5807008f52647520", "type": "electric_scooter", "is_disabled": 0, "lat": 38.914199333333336, "rental_uris": {"android": "https://dc.lft.to/lastmile_qr_scan", "ios": "https://dc.lft.to/lastmile_qr_scan"}, "bike_id": "bb4278b7b4bc54be5807008f52647520", "lon": -77.044629}, {"is_reserved": 0, "fusion_lon": 0.0, "fusion_lat": 0.0, "name": "184ec6cd573b529edacf2cf0a8d0ba92", "type": "electric_scooter", "is_disabled": 0, "lat": 38.9155095, "rental_uris": {"android": "https://dc.lft.to/lastmile_qr_scan", "ios": "https://dc.lft.to/lastmile_qr_scan"}, "bike_id": "184ec6cd573b529edacf2cf0a8d0ba92", "lon": -77.05311716666667}, {"is_reserved": 0, "fusion_lon": 0.0, "fusion_lat": 0.0, "name": "97cb8fa339f62fc853e786a50511cd64", "type": "electric_scooter", "is_disabled": 0, "lat": 38.9234475, "rental_uris": {"android": "https://dc.lft.to/lastmile_qr_scan", "ios": "https://dc.lft.to/lastmile_qr_scan"}, "bike_id": "97cb8fa339f62fc853e786a50511cd64", "lon": -77.05085766666667}, {"is_reserved": 0, "fusion_lon": 0.0, "fusion_lat": 0.0, "name": "77d3f7fe690a6b68c3d627072b051287", "type": "electric_scooter", "is_disabled": 0, "lat": 38.89553466666667, "rental_uris": {"android": "https://dc.lft.to/lastmile_qr_scan", "ios": "https://dc.lft.to/lastmile_qr_scan"}, "bike_id": "77d3f7fe690a6b68c3d627072b051287", "lon": -76.94876183333334}, {"is_reserved": 0, "fusion_lon": 0.0, "fusion_lat": 0.0, "name": "9803180f79bca1f122f4ba896c22e308", "type": "electric_scooter", "is_disabled": 0, "lat": 38.8923065, "rental_uris": {"android": "https://dc.lft.to/lastmile_qr_scan", "ios": "https://dc.lft.to/lastmile_qr_scan"}, "bike_id": "9803180f79bca1f122f4ba896c22e308", "lon": -77.04336216666667}, {"is_reserved": 0, "fusion_lon": 0.0, "fusion_lat": 0.0, "name": "ec78fa767a902eb3b5367de940f26810", "type": "electric_bike", "is_disabled": 0, "lat": 38.973990666666666, "rental_uris": {"android": "https://dc.lft.to/lastmile_qr_scan", "ios": "https://dc.lft.to/lastmile_qr_scan"}, "bike_id": "ec78fa767a902eb3b5367de940f26810", "lon": -77.06453066666667}, {"is_reserved": 0, "fusion_lon": 0.0, "fusion_lat": 0.0, "name": "48c5573d602fa91cc66748e713a7bc95", "type": "electric_scooter", "is_disabled": 0, "lat": 38.903743, "rental_uris": {"android": "https://dc.lft.to/lastmile_qr_scan", "ios": "https://dc.lft.to/lastmile_qr_scan"}, "bike_id": "48c5573d602fa91cc66748e713a7bc95", "lon": -77.04481666666666}, {"is_reserved": 0, "fusion_lon": 0.0, "fusion_lat": 0.0, "name": "cf79d7f17c732743e3e86ddc1b76fcf3", "type": "electric_scooter", "is_disabled": 0, "lat": 38.90026316666667, "rental_uris": {"android": "https://dc.lft.to/lastmile_qr_scan", "ios": "https://dc.lft.to/lastmile_qr_scan"}, "bike_id": "cf79d7f17c732743e3e86ddc1b76fcf3", "lon": -77.03044216666666}, {"is_reserved": 0, "fusion_lon": 0.0, "fusion_lat": 0.0, "name": "2c0900db6c166bf00ddefe6edc733fab", "type": "electric_scooter", "is_disabled": 0, "lat": 38.886045, "rental_uris": {"android": "https://dc.lft.to/lastmile_qr_scan", "ios": "https://dc.lft.to/lastmile_qr_scan"}, "bike_id": "2c0900db6c166bf00ddefe6edc733fab", "lon": -77.045137}, {"is_reserved": 0, "fusion_lon": 0.0, "fusion_lat": 0.0, "name": "05a63c59ffdefb546933285859a69dbe", "type": "electric_scooter", "is_disabled": 0, "lat": 38.901534166666664, "rental_uris": {"android": "https://dc.lft.to/lastmile_qr_scan", "ios": "https://dc.lft.to/lastmile_qr_scan"}, "bike_id": "05a63c59ffdefb546933285859a69dbe", "lon": -76.92983483333333}, {"is_reserved": 0, "fusion_lon": 0.0, "fusion_lat": 0.0, "name": "7adbae2ab20999d129fee999f009e402", "type": "electric_scooter", "is_disabled": 0, "lat": 38.903955, "rental_uris": {"android": "https://dc.lft.to/lastmile_qr_scan", "ios": "https://dc.lft.to/lastmile_qr_scan"}, "bike_id": "7adbae2ab20999d129fee999f009e402", "lon": -77.0382765}, {"is_reserved": 0, "fusion_lon": 0.0, "fusion_lat": 0.0, "name": "f921ad3c8458107b5cd07c2da70651e3", "type": "electric_scooter", "is_disabled": 0, "lat": 38.90045216666667, "rental_uris": {"android": "https://dc.lft.to/lastmile_qr_scan", "ios": "https://dc.lft.to/lastmile_qr_scan"}, "bike_id": "f921ad3c8458107b5cd07c2da70651e3", "lon": -77.00309083333333}, {"is_reserved": 0, "fusion_lon": 0.0, "fusion_lat": 0.0, "name": "787e0e660b10e665f06152cff70b8459", "type": "electric_scooter", "is_disabled": 0, "lat": 38.902781833333336, "rental_uris": {"android": "https://dc.lft.to/lastmile_qr_scan", "ios": "https://dc.lft.to/lastmile_qr_scan"}, "bike_id": "787e0e660b10e665f06152cff70b8459", "lon": -77.038833}, {"is_reserved": 0, "fusion_lon": 0.0, "fusion_lat": 0.0, "name": "999e8762000fb7185e6f706c569e27fb", "type": "electric_scooter", "is_disabled": 0, "lat": 38.915387, "rental_uris": {"android": "https://dc.lft.to/lastmile_qr_scan", "ios": "https://dc.lft.to/lastmile_qr_scan"}, "bike_id": "999e8762000fb7185e6f706c569e27fb", "lon": -77.03641066666667}, {"is_reserved": 0, "fusion_lon": 0.0, "fusion_lat": 0.0, "name": "fcd335ba55ee4eed18849393ccb09a24", "type": "electric_scooter", "is_disabled": 0, "lat": 38.904048, "rental_uris": {"android": "https://dc.lft.to/lastmile_qr_scan", "ios": "https://dc.lft.to/lastmile_qr_scan"}, "bike_id": "fcd335ba55ee4eed18849393ccb09a24", "lon": -77.03425933333334}, {"is_reserved": 0, "fusion_lon": 0.0, "fusion_lat": 0.0, "name": "4dd7da92ff065e48314df8e0a6ecf33e", "type": "electric_scooter", "is_disabled": 0, "lat": 38.91448283333333, "rental_uris": {"android": "https://dc.lft.to/lastmile_qr_scan", "ios": "https://dc.lft.to/lastmile_qr_scan"}, "bike_id": "4dd7da92ff065e48314df8e0a6ecf33e", "lon": -77.0218725}, {"is_reserved": 0, "fusion_lon": 0.0, "fusion_lat": 0.0, "name": "daab94817cba311105c139826babf799", "type": "electric_scooter", "is_disabled": 0, "lat": 38.95531866666666, "rental_uris": {"android": "https://dc.lft.to/lastmile_qr_scan", "ios": "https://dc.lft.to/lastmile_qr_scan"}, "bike_id": "daab94817cba311105c139826babf799", "lon": -77.02212383333334}, {"is_reserved": 0, "fusion_lon": 0.0, "fusion_lat": 0.0, "name": "e7847b4a9f346abf3cd34b8e1517f3b0", "type": "electric_scooter", "is_disabled": 0, "lat": 38.93435233333334, "rental_uris": {"android": "https://dc.lft.to/lastmile_qr_scan", "ios": "https://dc.lft.to/lastmile_qr_scan"}, "bike_id": "e7847b4a9f346abf3cd34b8e1517f3b0", "lon": -77.04003583333333}, {"is_reserved": 0, "fusion_lon": 0.0, "fusion_lat": 0.0, "name": "c1419ec6d72ada0147728fe6df28bc5c", "type": "electric_scooter", "is_disabled": 0, "lat": 38.892260666666665, "rental_uris": {"android": "https://dc.lft.to/lastmile_qr_scan", "ios": "https://dc.lft.to/lastmile_qr_scan"}, "bike_id": "c1419ec6d72ada0147728fe6df28bc5c", "lon": -77.04507966666667}, {"is_reserved": 0, "fusion_lon": 0.0, "fusion_lat": 0.0, "name": "047eb0f6f1094bd74321458652207d90", "type": "electric_scooter", "is_disabled": 0, "lat": 38.89865316666667, "rental_uris": {"android": "https://dc.lft.to/lastmile_qr_scan", "ios": "https://dc.lft.to/lastmile_qr_scan"}, "bike_id": "047eb0f6f1094bd74321458652207d90", "lon": -76.99017}, {"is_reserved": 0, "fusion_lon": 0.0, "fusion_lat": 0.0, "name": "fb15e539725d5f570b41896a8ce84641", "type": "electric_scooter", "is_disabled": 0, "lat": 38.8922605, "rental_uris": {"android": "https://dc.lft.to/lastmile_qr_scan", "ios": "https://dc.lft.to/lastmile_qr_scan"}, "bike_id": "fb15e539725d5f570b41896a8ce84641", "lon": -77.043092}, {"is_reserved": 0, "fusion_lon": 0.0, "fusion_lat": 0.0, "name": "87820a2ebb6bedd04fb76679ebfb1b04", "type": "electric_scooter", "is_disabled": 0, "lat": 38.88491616666667, "rental_uris": {"android": "https://dc.lft.to/lastmile_qr_scan", "ios": "https://dc.lft.to/lastmile_qr_scan"}, "bike_id": "87820a2ebb6bedd04fb76679ebfb1b04", "lon": -77.00712516666667}, {"is_reserved": 0, "fusion_lon": 0.0, "fusion_lat": 0.0, "name": "3c9aa465ebeab1fe88b0472fd6d53cb9", "type": "electric_scooter", "is_disabled": 0, "lat": 38.907543833333335, "rental_uris": {"android": "https://dc.lft.to/lastmile_qr_scan", "ios": "https://dc.lft.to/lastmile_qr_scan"}, "bike_id": "3c9aa465ebeab1fe88b0472fd6d53cb9", "lon": -77.04553633333333}, {"is_reserved": 0, "fusion_lon": 0.0, "fusion_lat": 0.0, "name": "3d56b729e4d8cb66f6fe11e9ac9b618a", "type": "electric_scooter", "is_disabled": 0, "lat": 38.90229133333333, "rental_uris": {"android": "https://dc.lft.to/lastmile_qr_scan", "ios": "https://dc.lft.to/lastmile_qr_scan"}, "bike_id": "3d56b729e4d8cb66f6fe11e9ac9b618a", "lon": -76.98930166666666}, {"is_reserved": 0, "fusion_lon": 0.0, "fusion_lat": 0.0, "name": "182e6f8bd8c41df75ecddae4074d6ed6", "type": "electric_scooter", "is_disabled": 0, "lat": 38.90477766666667, "rental_uris": {"android": "https://dc.lft.to/lastmile_qr_scan", "ios": "https://dc.lft.to/lastmile_qr_scan"}, "bike_id": "182e6f8bd8c41df75ecddae4074d6ed6", "lon": -77.03564483333334}, {"is_reserved": 0, "fusion_lon": 0.0, "fusion_lat": 0.0, "name": "89c0220ca83390353a0816f5b082fa86", "type": "electric_scooter", "is_disabled": 0, "lat": 38.902836666666666, "rental_uris": {"android": "https://dc.lft.to/lastmile_qr_scan", "ios": "https://dc.lft.to/lastmile_qr_scan"}, "bike_id": "89c0220ca83390353a0816f5b082fa86", "lon": -77.033454}, {"is_reserved": 0, "fusion_lon": 0.0, "fusion_lat": 0.0, "name": "afb6b0e9e15696b7b03b484cb22bec4b", "type": "electric_scooter", "is_disabled": 0, "lat": 38.904670833333334, "rental_uris": {"android": "https://dc.lft.to/lastmile_qr_scan", "ios": "https://dc.lft.to/lastmile_qr_scan"}, "bike_id": "afb6b0e9e15696b7b03b484cb22bec4b", "lon": -77.04825083333333}, {"is_reserved": 0, "fusion_lon": 0.0, "fusion_lat": 0.0, "name": "ad599fce94bffb756bf85d32a6c9fb12", "type": "electric_bike", "is_disabled": 0, "lat": 38.99350166666667, "rental_uris": {"android": "https://dc.lft.to/lastmile_qr_scan", "ios": "https://dc.lft.to/lastmile_qr_scan"}, "bike_id": "ad599fce94bffb756bf85d32a6c9fb12", "lon": -77.11570066666667}, {"is_reserved": 0, "fusion_lon": 0.0, "fusion_lat": 0.0, "name": "376fd76e9412ad71803547be267b8e88", "type": "electric_scooter", "is_disabled": 0, "lat": 38.94185816666667, "rental_uris": {"android": "https://dc.lft.to/lastmile_qr_scan", "ios": "https://dc.lft.to/lastmile_qr_scan"}, "bike_id": "376fd76e9412ad71803547be267b8e88", "lon": -77.02486516666667}, {"is_reserved": 0, "fusion_lon": 0.0, "fusion_lat": 0.0, "name": "3f50306e431a45fb00d70759ef9cf7d2", "type": "electric_scooter", "is_disabled": 0, "lat": 38.930322833333335, "rental_uris": {"android": "https://dc.lft.to/lastmile_qr_scan", "ios": "https://dc.lft.to/lastmile_qr_scan"}, "bike_id": "3f50306e431a45fb00d70759ef9cf7d2", "lon": -77.05531783333333}, {"is_reserved": 0, "fusion_lon": 0.0, "fusion_lat": 0.0, "name": "64141f23c0365c02b4267b6d24ccd7fd", "type": "electric_scooter", "is_disabled": 0, "lat": 38.9246395, "rental_uris": {"android": "https://dc.lft.to/lastmile_qr_scan", "ios": "https://dc.lft.to/lastmile_qr_scan"}, "bike_id": "64141f23c0365c02b4267b6d24ccd7fd", "lon": -77.0215795}, {"is_reserved": 0, "fusion_lon": 0.0, "fusion_lat": 0.0, "name": "feb1d39d3f06cfaf1d216af4c22ab2bf", "type": "electric_scooter", "is_disabled": 0, "lat": 38.866602666666665, "rental_uris": {"android": "https://dc.lft.to/lastmile_qr_scan", "ios": "https://dc.lft.to/lastmile_qr_scan"}, "bike_id": "feb1d39d3f06cfaf1d216af4c22ab2bf", "lon": -76.98881733333333}, {"is_reserved": 0, "fusion_lon": 0.0, "fusion_lat": 0.0, "name": "3a80cadcd63c5bcd103b93e9d69827c6", "type": "electric_scooter", "is_disabled": 0, "lat": 38.93868066666667, "rental_uris": {"android": "https://dc.lft.to/lastmile_qr_scan", "ios": "https://dc.lft.to/lastmile_qr_scan"}, "bike_id": "3a80cadcd63c5bcd103b93e9d69827c6", "lon": -77.025167}, {"is_reserved": 0, "fusion_lon": 0.0, "fusion_lat": 0.0, "name": "51a60f058788bd56f4ba950f86b935fa", "type": "electric_bike", "is_disabled": 0, "lat": 38.84563466666667, "rental_uris": {"android": "https://dc.lft.to/lastmile_qr_scan", "ios": "https://dc.lft.to/lastmile_qr_scan"}, "bike_id": "51a60f058788bd56f4ba950f86b935fa", "lon": -77.0669455}, {"is_reserved": 0, "fusion_lon": 0.0, "fusion_lat": 0.0, "name": "1a3b0beb782a5bcab3c6d5436b316e49", "type": "electric_scooter", "is_disabled": 0, "lat": 38.90498383333333, "rental_uris": {"android": "https://dc.lft.to/lastmile_qr_scan", "ios": "https://dc.lft.to/lastmile_qr_scan"}, "bike_id": "1a3b0beb782a5bcab3c6d5436b316e49", "lon": -77.03485083333334}, {"is_reserved": 0, "fusion_lon": 0.0, "fusion_lat": 0.0, "name": "fd995228683950b78ad9e5f6100331b7", "type": "electric_scooter", "is_disabled": 0, "lat": 38.9072055, "rental_uris": {"android": "https://dc.lft.to/lastmile_qr_scan", "ios": "https://dc.lft.to/lastmile_qr_scan"}, "bike_id": "fd995228683950b78ad9e5f6100331b7", "lon": -77.00208983333333}, {"is_reserved": 0, "fusion_lon": 0.0, "fusion_lat": 0.0, "name": "2b0003550fd6b38c677841409f256dc4", "type": "electric_scooter", "is_disabled": 0, "lat": 38.91804066666667, "rental_uris": {"android": "https://dc.lft.to/lastmile_qr_scan", "ios": "https://dc.lft.to/lastmile_qr_scan"}, "bike_id": "2b0003550fd6b38c677841409f256dc4", "lon": -77.0402185}, {"is_reserved": 0, "fusion_lon": 0.0, "fusion_lat": 0.0, "name": "bf27ad7d07030d29e4b62855e3f9e1ea", "type": "electric_scooter", "is_disabled": 0, "lat": 38.876826666666666, "rental_uris": {"android": "https://dc.lft.to/lastmile_qr_scan", "ios": "https://dc.lft.to/lastmile_qr_scan"}, "bike_id": "bf27ad7d07030d29e4b62855e3f9e1ea", "lon": -76.99827433333333}, {"is_reserved": 0, "fusion_lon": 0.0, "fusion_lat": 0.0, "name": "a8b537c97ed84182aad19268f247c83d", "type": "electric_scooter", "is_disabled": 0, "lat": 38.923589, "rental_uris": {"android": "https://dc.lft.to/lastmile_qr_scan", "ios": "https://dc.lft.to/lastmile_qr_scan"}, "bike_id": "a8b537c97ed84182aad19268f247c83d", "lon": -77.04153483333333}, {"is_reserved": 0, "fusion_lon": 0.0, "fusion_lat": 0.0, "name": "199163e1667d9ec4f5548660bcf2293d", "type": "electric_bike", "is_disabled": 0, "lat": 38.90275116666667, "rental_uris": {"android": "https://dc.lft.to/lastmile_qr_scan", "ios": "https://dc.lft.to/lastmile_qr_scan"}, "bike_id": "199163e1667d9ec4f5548660bcf2293d", "lon": -76.929273}, {"is_reserved": 0, "fusion_lon": 0.0, "fusion_lat": 0.0, "name": "ab1d4b40b72507db83b1026972524195", "type": "electric_scooter", "is_disabled": 0, "lat": 38.89225183333333, "rental_uris": {"android": "https://dc.lft.to/lastmile_qr_scan", "ios": "https://dc.lft.to/lastmile_qr_scan"}, "bike_id": "ab1d4b40b72507db83b1026972524195", "lon": -77.04374033333333}, {"is_reserved": 0, "fusion_lon": 0.0, "fusion_lat": 0.0, "name": "15928c4831c0e1b302b69b21c3ab4f21", "type": "electric_scooter", "is_disabled": 0, "lat": 38.89915166666667, "rental_uris": {"android": "https://dc.lft.to/lastmile_qr_scan", "ios": "https://dc.lft.to/lastmile_qr_scan"}, "bike_id": "15928c4831c0e1b302b69b21c3ab4f21", "lon": -77.03296333333333}, {"is_reserved": 0, "fusion_lon": 0.0, "fusion_lat": 0.0, "name": "5d90b331f696f56a63bd31f326bd9ef4", "type": "electric_scooter", "is_disabled": 0, "lat": 38.89676166666667, "rental_uris": {"android": "https://dc.lft.to/lastmile_qr_scan", "ios": "https://dc.lft.to/lastmile_qr_scan"}, "bike_id": "5d90b331f696f56a63bd31f326bd9ef4", "lon": -77.05030466666666}, {"is_reserved": 0, "fusion_lon": 0.0, "fusion_lat": 0.0, "name": "0fc567030e4d2bc3f329123d981a9045", "type": "electric_scooter", "is_disabled": 0, "lat": 38.90519283333333, "rental_uris": {"android": "https://dc.lft.to/lastmile_qr_scan", "ios": "https://dc.lft.to/lastmile_qr_scan"}, "bike_id": "0fc567030e4d2bc3f329123d981a9045", "lon": -77.0013255}, {"is_reserved": 0, "fusion_lon": 0.0, "fusion_lat": 0.0, "name": "8441f98df09000f661be9e637117de89", "type": "electric_scooter", "is_disabled": 0, "lat": 38.905506, "rental_uris": {"android": "https://dc.lft.to/lastmile_qr_scan", "ios": "https://dc.lft.to/lastmile_qr_scan"}, "bike_id": "8441f98df09000f661be9e637117de89", "lon": -77.04107316666666}, {"is_reserved": 0, "fusion_lon": 0.0, "fusion_lat": 0.0, "name": "f7d73a93d393ad85cb9e2c0575a20c97", "type": "electric_scooter", "is_disabled": 0, "lat": 38.896046, "rental_uris": {"android": "https://dc.lft.to/lastmile_qr_scan", "ios": "https://dc.lft.to/lastmile_qr_scan"}, "bike_id": "f7d73a93d393ad85cb9e2c0575a20c97", "lon": -77.00764816666667}, {"is_reserved": 0, "fusion_lon": 0.0, "fusion_lat": 0.0, "name": "fbb17cf179f491ffd0107410f65abb11", "type": "electric_bike", "is_disabled": 0, "lat": 39.039782833333334, "rental_uris": {"android": "https://dc.lft.to/lastmile_qr_scan", "ios": "https://dc.lft.to/lastmile_qr_scan"}, "bike_id": "fbb17cf179f491ffd0107410f65abb11", "lon": -76.99883}, {"is_reserved": 0, "fusion_lon": 0.0, "fusion_lat": 0.0, "name": "fcb08b1c9e3b2aa1b7515a9c63ea668f", "type": "electric_scooter", "is_disabled": 0, "lat": 38.951850666666665, "rental_uris": {"android": "https://dc.lft.to/lastmile_qr_scan", "ios": "https://dc.lft.to/lastmile_qr_scan"}, "bike_id": "fcb08b1c9e3b2aa1b7515a9c63ea668f", "lon": -77.0272495}, {"is_reserved": 0, "fusion_lon": 0.0, "fusion_lat": 0.0, "name": "4bd13830056a329740d899fb8acadc6e", "type": "electric_scooter", "is_disabled": 0, "lat": 38.91179133333333, "rental_uris": {"android": "https://dc.lft.to/lastmile_qr_scan", "ios": "https://dc.lft.to/lastmile_qr_scan"}, "bike_id": "4bd13830056a329740d899fb8acadc6e", "lon": -77.044376}, {"is_reserved": 0, "fusion_lon": 0.0, "fusion_lat": 0.0, "name": "e8116119c29031cfd909c348dc736c00", "type": "electric_scooter", "is_disabled": 0, "lat": 38.905864666666666, "rental_uris": {"android": "https://dc.lft.to/lastmile_qr_scan", "ios": "https://dc.lft.to/lastmile_qr_scan"}, "bike_id": "e8116119c29031cfd909c348dc736c00", "lon": -77.00879016666667}, {"is_reserved": 0, "fusion_lon": 0.0, "fusion_lat": 0.0, "name": "c35504d4245501b20fc5581d6d1075df", "type": "electric_scooter", "is_disabled": 0, "lat": 38.88075383333333, "rental_uris": {"android": "https://dc.lft.to/lastmile_qr_scan", "ios": "https://dc.lft.to/lastmile_qr_scan"}, "bike_id": "c35504d4245501b20fc5581d6d1075df", "lon": -77.00585333333333}, {"is_reserved": 0, "fusion_lon": 0.0, "fusion_lat": 0.0, "name": "8b93999d1af3cf5ff9446aff31361007", "type": "electric_scooter", "is_disabled": 0, "lat": 38.919253499999996, "rental_uris": {"android": "https://dc.lft.to/lastmile_qr_scan", "ios": "https://dc.lft.to/lastmile_qr_scan"}, "bike_id": "8b93999d1af3cf5ff9446aff31361007", "lon": -77.0239235}, {"is_reserved": 0, "fusion_lon": 0.0, "fusion_lat": 0.0, "name": "ec29eaa0153c2f6692a2aebdc8c7cc0b", "type": "electric_scooter", "is_disabled": 0, "lat": 38.908627833333334, "rental_uris": {"android": "https://dc.lft.to/lastmile_qr_scan", "ios": "https://dc.lft.to/lastmile_qr_scan"}, "bike_id": "ec29eaa0153c2f6692a2aebdc8c7cc0b", "lon": -77.040427}, {"is_reserved": 0, "fusion_lon": 0.0, "fusion_lat": 0.0, "name": "0e87efb49e1c80c7ae9418719ed7e0cf", "type": "electric_scooter", "is_disabled": 0, "lat": 38.900678166666665, "rental_uris": {"android": "https://dc.lft.to/lastmile_qr_scan", "ios": "https://dc.lft.to/lastmile_qr_scan"}, "bike_id": "0e87efb49e1c80c7ae9418719ed7e0cf", "lon": -77.04832133333333}, {"is_reserved": 0, "fusion_lon": 0.0, "fusion_lat": 0.0, "name": "0854a47b2a08dac5ccfc292639ac6b7f", "type": "electric_bike", "is_disabled": 0, "lat": 38.882537166666665, "rental_uris": {"android": "https://dc.lft.to/lastmile_qr_scan", "ios": "https://dc.lft.to/lastmile_qr_scan"}, "bike_id": "0854a47b2a08dac5ccfc292639ac6b7f", "lon": -76.96254216666667}, {"is_reserved": 0, "fusion_lon": 0.0, "fusion_lat": 0.0, "name": "82aaf66d598df214082a1d0e036ea00e", "type": "electric_scooter", "is_disabled": 0, "lat": 38.96112566666667, "rental_uris": {"android": "https://dc.lft.to/lastmile_qr_scan", "ios": "https://dc.lft.to/lastmile_qr_scan"}, "bike_id": "82aaf66d598df214082a1d0e036ea00e", "lon": -77.00950016666667}, {"is_reserved": 0, "fusion_lon": 0.0, "fusion_lat": 0.0, "name": "30baef41fcfd000441f61bc0d74def96", "type": "electric_scooter", "is_disabled": 0, "lat": 38.904521, "rental_uris": {"android": "https://dc.lft.to/lastmile_qr_scan", "ios": "https://dc.lft.to/lastmile_qr_scan"}, "bike_id": "30baef41fcfd000441f61bc0d74def96", "lon": -77.03246983333334}, {"is_reserved": 0, "fusion_lon": 0.0, "fusion_lat": 0.0, "name": "b447158a2079b284f5c26127d1df44d0", "type": "electric_scooter", "is_disabled": 0, "lat": 38.903754166666666, "rental_uris": {"android": "https://dc.lft.to/lastmile_qr_scan", "ios": "https://dc.lft.to/lastmile_qr_scan"}, "bike_id": "b447158a2079b284f5c26127d1df44d0", "lon": -77.04160483333334}, {"is_reserved": 0, "fusion_lon": 0.0, "fusion_lat": 0.0, "name": "64020427d592409a82c3fb4e782c6237", "type": "electric_scooter", "is_disabled": 0, "lat": 38.90527816666667, "rental_uris": {"android": "https://dc.lft.to/lastmile_qr_scan", "ios": "https://dc.lft.to/lastmile_qr_scan"}, "bike_id": "64020427d592409a82c3fb4e782c6237", "lon": -77.06380416666667}, {"is_reserved": 0, "fusion_lon": 0.0, "fusion_lat": 0.0, "name": "7084c4d6bba7678ffb8ce7e819d504de", "type": "electric_scooter", "is_disabled": 0, "lat": 38.91066716666667, "rental_uris": {"android": "https://dc.lft.to/lastmile_qr_scan", "ios": "https://dc.lft.to/lastmile_qr_scan"}, "bike_id": "7084c4d6bba7678ffb8ce7e819d504de", "lon": -77.02186566666667}, {"is_reserved": 0, "fusion_lon": 0.0, "fusion_lat": 0.0, "name": "8f586faedceacf35723d161b08fc91cb", "type": "electric_scooter", "is_disabled": 0, "lat": 38.90091116666667, "rental_uris": {"android": "https://dc.lft.to/lastmile_qr_scan", "ios": "https://dc.lft.to/lastmile_qr_scan"}, "bike_id": "8f586faedceacf35723d161b08fc91cb", "lon": -77.050603}, {"is_reserved": 0, "fusion_lon": 0.0, "fusion_lat": 0.0, "name": "dc7ce83ac65707b0f0633ae381a3bcb5", "type": "electric_scooter", "is_disabled": 0, "lat": 38.916941666666666, "rental_uris": {"android": "https://dc.lft.to/lastmile_qr_scan", "ios": "https://dc.lft.to/lastmile_qr_scan"}, "bike_id": "dc7ce83ac65707b0f0633ae381a3bcb5", "lon": -77.02597766666666}, {"is_reserved": 0, "fusion_lon": 0.0, "fusion_lat": 0.0, "name": "baff37b1dc1133a86c8a7a1dc8a054e1", "type": "electric_scooter", "is_disabled": 0, "lat": 38.906886166666666, "rental_uris": {"android": "https://dc.lft.to/lastmile_qr_scan", "ios": "https://dc.lft.to/lastmile_qr_scan"}, "bike_id": "baff37b1dc1133a86c8a7a1dc8a054e1", "lon": -77.04331333333333}, {"is_reserved": 0, "fusion_lon": 0.0, "fusion_lat": 0.0, "name": "699a6ed7a84bb4bcd6191392cfbd8b99", "type": "electric_scooter", "is_disabled": 0, "lat": 38.923368333333336, "rental_uris": {"android": "https://dc.lft.to/lastmile_qr_scan", "ios": "https://dc.lft.to/lastmile_qr_scan"}, "bike_id": "699a6ed7a84bb4bcd6191392cfbd8b99", "lon": -76.999165}, {"is_reserved": 0, "fusion_lon": 0.0, "fusion_lat": 0.0, "name": "6e4ead217ee2cd654a7fc4d8073a14d8", "type": "electric_scooter", "is_disabled": 0, "lat": 38.880288666666665, "rental_uris": {"android": "https://dc.lft.to/lastmile_qr_scan", "ios": "https://dc.lft.to/lastmile_qr_scan"}, "bike_id": "6e4ead217ee2cd654a7fc4d8073a14d8", "lon": -76.98483616666667}, {"is_reserved": 0, "fusion_lon": 0.0, "fusion_lat": 0.0, "name": "b254512fea3d449aa66185d29d6622b9", "type": "electric_scooter", "is_disabled": 0, "lat": 38.93099866666667, "rental_uris": {"android": "https://dc.lft.to/lastmile_qr_scan", "ios": "https://dc.lft.to/lastmile_qr_scan"}, "bike_id": "b254512fea3d449aa66185d29d6622b9", "lon": -77.03813633333333}, {"is_reserved": 0, "fusion_lon": 0.0, "fusion_lat": 0.0, "name": "8fa3baeb9468aacb8219074d29049558", "type": "electric_scooter", "is_disabled": 0, "lat": 38.898531, "rental_uris": {"android": "https://dc.lft.to/lastmile_qr_scan", "ios": "https://dc.lft.to/lastmile_qr_scan"}, "bike_id": "8fa3baeb9468aacb8219074d29049558", "lon": -77.04169483333334}, {"is_reserved": 0, "fusion_lon": 0.0, "fusion_lat": 0.0, "name": "e4e5b24f0ab2e0742efd5b1be01ce4de", "type": "electric_bike", "is_disabled": 0, "lat": 38.80115816666667, "rental_uris": {"android": "https://dc.lft.to/lastmile_qr_scan", "ios": "https://dc.lft.to/lastmile_qr_scan"}, "bike_id": "e4e5b24f0ab2e0742efd5b1be01ce4de", "lon": -77.07041083333333}, {"is_reserved": 0, "fusion_lon": 0.0, "fusion_lat": 0.0, "name": "44bdb30b69480d32b6188433f04e9b3d", "type": "electric_scooter", "is_disabled": 0, "lat": 38.90684866666667, "rental_uris": {"android": "https://dc.lft.to/lastmile_qr_scan", "ios": "https://dc.lft.to/lastmile_qr_scan"}, "bike_id": "44bdb30b69480d32b6188433f04e9b3d", "lon": -77.0269155}, {"is_reserved": 0, "fusion_lon": 0.0, "fusion_lat": 0.0, "name": "4a73b1b4a9eeaefc5ef6de329af93578", "type": "electric_bike", "is_disabled": 0, "lat": 38.93621133333333, "rental_uris": {"android": "https://dc.lft.to/lastmile_qr_scan", "ios": "https://dc.lft.to/lastmile_qr_scan"}, "bike_id": "4a73b1b4a9eeaefc5ef6de329af93578", "lon": -77.0902565}, {"is_reserved": 0, "fusion_lon": 0.0, "fusion_lat": 0.0, "name": "b0ae9dd7d9477df11fb41624d7415381", "type": "electric_scooter", "is_disabled": 0, "lat": 38.900306, "rental_uris": {"android": "https://dc.lft.to/lastmile_qr_scan", "ios": "https://dc.lft.to/lastmile_qr_scan"}, "bike_id": "b0ae9dd7d9477df11fb41624d7415381", "lon": -77.00201333333334}, {"is_reserved": 0, "fusion_lon": 0.0, "fusion_lat": 0.0, "name": "967c40a62fd56827cc8d4e1dca1ee366", "type": "electric_scooter", "is_disabled": 0, "lat": 38.890236333333334, "rental_uris": {"android": "https://dc.lft.to/lastmile_qr_scan", "ios": "https://dc.lft.to/lastmile_qr_scan"}, "bike_id": "967c40a62fd56827cc8d4e1dca1ee366", "lon": -76.937339}, {"is_reserved": 0, "fusion_lon": 0.0, "fusion_lat": 0.0, "name": "ef4ff1c94bd529fc254e67662590b6e2", "type": "electric_bike", "is_disabled": 0, "lat": 38.8996285, "rental_uris": {"android": "https://dc.lft.to/lastmile_qr_scan", "ios": "https://dc.lft.to/lastmile_qr_scan"}, "bike_id": "ef4ff1c94bd529fc254e67662590b6e2", "lon": -76.98687683333333}, {"is_reserved": 0, "fusion_lon": 0.0, "fusion_lat": 0.0, "name": "7a2642f1a4973d1db1f3de04264c79fb", "type": "electric_scooter", "is_disabled": 0, "lat": 38.9108375, "rental_uris": {"android": "https://dc.lft.to/lastmile_qr_scan", "ios": "https://dc.lft.to/lastmile_qr_scan"}, "bike_id": "7a2642f1a4973d1db1f3de04264c79fb", "lon": -76.992702}, {"is_reserved": 0, "fusion_lon": 0.0, "fusion_lat": 0.0, "name": "3ac6bf1e6579add9b9d6b060dff3bf27", "type": "electric_scooter", "is_disabled": 0, "lat": 38.91845433333334, "rental_uris": {"android": "https://dc.lft.to/lastmile_qr_scan", "ios": "https://dc.lft.to/lastmile_qr_scan"}, "bike_id": "3ac6bf1e6579add9b9d6b060dff3bf27", "lon": -77.023116}, {"is_reserved": 0, "fusion_lon": 0.0, "fusion_lat": 0.0, "name": "b719c9dff1948aeae8e371413daeb195", "type": "electric_scooter", "is_disabled": 0, "lat": 38.915866333333334, "rental_uris": {"android": "https://dc.lft.to/lastmile_qr_scan", "ios": "https://dc.lft.to/lastmile_qr_scan"}, "bike_id": "b719c9dff1948aeae8e371413daeb195", "lon": -77.03204216666667}, {"is_reserved": 0, "fusion_lon": 0.0, "fusion_lat": 0.0, "name": "287108d605d542a71192be2c2b47f4ec", "type": "electric_bike", "is_disabled": 0, "lat": 38.9139155, "rental_uris": {"android": "https://dc.lft.to/lastmile_qr_scan", "ios": "https://dc.lft.to/lastmile_qr_scan"}, "bike_id": "287108d605d542a71192be2c2b47f4ec", "lon": -77.0892235}, {"is_reserved": 0, "fusion_lon": 0.0, "fusion_lat": 0.0, "name": "301c56cb7334d55cd840e1eafe56d2d7", "type": "electric_scooter", "is_disabled": 0, "lat": 38.91364516666667, "rental_uris": {"android": "https://dc.lft.to/lastmile_qr_scan", "ios": "https://dc.lft.to/lastmile_qr_scan"}, "bike_id": "301c56cb7334d55cd840e1eafe56d2d7", "lon": -77.02951583333333}, {"is_reserved": 0, "fusion_lon": 0.0, "fusion_lat": 0.0, "name": "342ebae64e168de5609e6d557f6a15bb", "type": "electric_scooter", "is_disabled": 0, "lat": 38.94843616666667, "rental_uris": {"android": "https://dc.lft.to/lastmile_qr_scan", "ios": "https://dc.lft.to/lastmile_qr_scan"}, "bike_id": "342ebae64e168de5609e6d557f6a15bb", "lon": -77.02541416666666}, {"is_reserved": 0, "fusion_lon": 0.0, "fusion_lat": 0.0, "name": "a48e47bd41ff1988c119a234e1784363", "type": "electric_scooter", "is_disabled": 0, "lat": 38.9496105, "rental_uris": {"android": "https://dc.lft.to/lastmile_qr_scan", "ios": "https://dc.lft.to/lastmile_qr_scan"}, "bike_id": "a48e47bd41ff1988c119a234e1784363", "lon": -77.0272215}, {"is_reserved": 0, "fusion_lon": 0.0, "fusion_lat": 0.0, "name": "6d0e71f4549b3caf58b8fff0ffbf78fa", "type": "electric_scooter", "is_disabled": 0, "lat": 38.8443635, "rental_uris": {"android": "https://dc.lft.to/lastmile_qr_scan", "ios": "https://dc.lft.to/lastmile_qr_scan"}, "bike_id": "6d0e71f4549b3caf58b8fff0ffbf78fa", "lon": -76.99814933333333}, {"is_reserved": 0, "fusion_lon": 0.0, "fusion_lat": 0.0, "name": "bdf9b23dc7f65b4765ac5856ec9b4979", "type": "electric_scooter", "is_disabled": 0, "lat": 38.90805833333334, "rental_uris": {"android": "https://dc.lft.to/lastmile_qr_scan", "ios": "https://dc.lft.to/lastmile_qr_scan"}, "bike_id": "bdf9b23dc7f65b4765ac5856ec9b4979", "lon": -77.0433285}, {"is_reserved": 0, "fusion_lon": 0.0, "fusion_lat": 0.0, "name": "f9a237e158d73a7bfbb6dfaf503c046c", "type": "electric_scooter", "is_disabled": 0, "lat": 38.900744, "rental_uris": {"android": "https://dc.lft.to/lastmile_qr_scan", "ios": "https://dc.lft.to/lastmile_qr_scan"}, "bike_id": "f9a237e158d73a7bfbb6dfaf503c046c", "lon": -77.04755183333333}, {"is_reserved": 0, "fusion_lon": 0.0, "fusion_lat": 0.0, "name": "61380c4544f31f0a7006bae2a362735c", "type": "electric_scooter", "is_disabled": 0, "lat": 38.92832466666667, "rental_uris": {"android": "https://dc.lft.to/lastmile_qr_scan", "ios": "https://dc.lft.to/lastmile_qr_scan"}, "bike_id": "61380c4544f31f0a7006bae2a362735c", "lon": -77.0142435}, {"is_reserved": 0, "fusion_lon": 0.0, "fusion_lat": 0.0, "name": "746e428e491508604ed176e121460daa", "type": "electric_bike", "is_disabled": 0, "lat": 38.8343265, "rental_uris": {"android": "https://dc.lft.to/lastmile_qr_scan", "ios": "https://dc.lft.to/lastmile_qr_scan"}, "bike_id": "746e428e491508604ed176e121460daa", "lon": -77.1035185}, {"is_reserved": 0, "fusion_lon": 0.0, "fusion_lat": 0.0, "name": "a41def2b6879dee20387ffc7229e09d1", "type": "electric_scooter", "is_disabled": 0, "lat": 38.908832, "rental_uris": {"android": "https://dc.lft.to/lastmile_qr_scan", "ios": "https://dc.lft.to/lastmile_qr_scan"}, "bike_id": "a41def2b6879dee20387ffc7229e09d1", "lon": -77.07170266666667}, {"is_reserved": 0, "fusion_lon": 0.0, "fusion_lat": 0.0, "name": "08a79bcbfa214d4903e7f5b9a5d5a93a", "type": "electric_scooter", "is_disabled": 0, "lat": 38.92973633333333, "rental_uris": {"android": "https://dc.lft.to/lastmile_qr_scan", "ios": "https://dc.lft.to/lastmile_qr_scan"}, "bike_id": "08a79bcbfa214d4903e7f5b9a5d5a93a", "lon": -77.02341033333333}, {"is_reserved": 0, "fusion_lon": 0.0, "fusion_lat": 0.0, "name": "c23d43cd5cab255a9763ab7f6509eefa", "type": "electric_scooter", "is_disabled": 0, "lat": 38.9567195, "rental_uris": {"android": "https://dc.lft.to/lastmile_qr_scan", "ios": "https://dc.lft.to/lastmile_qr_scan"}, "bike_id": "c23d43cd5cab255a9763ab7f6509eefa", "lon": -77.01028283333333}, {"is_reserved": 0, "fusion_lon": 0.0, "fusion_lat": 0.0, "name": "33509d7fb954bce586691194d9ce8a7f", "type": "electric_scooter", "is_disabled": 0, "lat": 38.923824, "rental_uris": {"android": "https://dc.lft.to/lastmile_qr_scan", "ios": "https://dc.lft.to/lastmile_qr_scan"}, "bike_id": "33509d7fb954bce586691194d9ce8a7f", "lon": -77.03123866666667}, {"is_reserved": 0, "fusion_lon": 0.0, "fusion_lat": 0.0, "name": "b88aa2b10596d4dce502c1464e6ee458", "type": "electric_scooter", "is_disabled": 0, "lat": 38.901254, "rental_uris": {"android": "https://dc.lft.to/lastmile_qr_scan", "ios": "https://dc.lft.to/lastmile_qr_scan"}, "bike_id": "b88aa2b10596d4dce502c1464e6ee458", "lon": -77.033259}, {"is_reserved": 0, "fusion_lon": 0.0, "fusion_lat": 0.0, "name": "9a688b248d5c2ad2bffdb29e41575488", "type": "electric_scooter", "is_disabled": 0, "lat": 38.919865, "rental_uris": {"android": "https://dc.lft.to/lastmile_qr_scan", "ios": "https://dc.lft.to/lastmile_qr_scan"}, "bike_id": "9a688b248d5c2ad2bffdb29e41575488", "lon": -77.024871}, {"is_reserved": 0, "fusion_lon": 0.0, "fusion_lat": 0.0, "name": "9993e295159d82c37405455e301ac91c", "type": "electric_scooter", "is_disabled": 0, "lat": 38.90663, "rental_uris": {"android": "https://dc.lft.to/lastmile_qr_scan", "ios": "https://dc.lft.to/lastmile_qr_scan"}, "bike_id": "9993e295159d82c37405455e301ac91c", "lon": -77.0019825}, {"is_reserved": 0, "fusion_lon": 0.0, "fusion_lat": 0.0, "name": "d917ad9880747f0705950fda64ca70b9", "type": "electric_scooter", "is_disabled": 0, "lat": 38.938691166666665, "rental_uris": {"android": "https://dc.lft.to/lastmile_qr_scan", "ios": "https://dc.lft.to/lastmile_qr_scan"}, "bike_id": "d917ad9880747f0705950fda64ca70b9", "lon": -77.030809}, {"is_reserved": 0, "fusion_lon": 0.0, "fusion_lat": 0.0, "name": "8887c3fd58bd9b0d6c411376f876944c", "type": "electric_scooter", "is_disabled": 0, "lat": 38.925375833333334, "rental_uris": {"android": "https://dc.lft.to/lastmile_qr_scan", "ios": "https://dc.lft.to/lastmile_qr_scan"}, "bike_id": "8887c3fd58bd9b0d6c411376f876944c", "lon": -76.99601533333333}, {"is_reserved": 0, "fusion_lon": 0.0, "fusion_lat": 0.0, "name": "df1c3253edb511b70d177ad53d79b3a6", "type": "electric_scooter", "is_disabled": 0, "lat": 38.91670383333334, "rental_uris": {"android": "https://dc.lft.to/lastmile_qr_scan", "ios": "https://dc.lft.to/lastmile_qr_scan"}, "bike_id": "df1c3253edb511b70d177ad53d79b3a6", "lon": -77.03196766666667}, {"is_reserved": 0, "fusion_lon": 0.0, "fusion_lat": 0.0, "name": "b650bede4bb3e1cced61d480d99d642a", "type": "electric_scooter", "is_disabled": 0, "lat": 38.90404866666667, "rental_uris": {"android": "https://dc.lft.to/lastmile_qr_scan", "ios": "https://dc.lft.to/lastmile_qr_scan"}, "bike_id": "b650bede4bb3e1cced61d480d99d642a", "lon": -77.06777966666667}, {"is_reserved": 0, "fusion_lon": 0.0, "fusion_lat": 0.0, "name": "30d40c6722b37a06f556d8aa4eb5d970", "type": "electric_scooter", "is_disabled": 0, "lat": 38.912794833333336, "rental_uris": {"android": "https://dc.lft.to/lastmile_qr_scan", "ios": "https://dc.lft.to/lastmile_qr_scan"}, "bike_id": "30d40c6722b37a06f556d8aa4eb5d970", "lon": -77.0224655}, {"is_reserved": 0, "fusion_lon": 0.0, "fusion_lat": 0.0, "name": "36b1721ea87fd546efc4599704584540", "type": "electric_bike", "is_disabled": 0, "lat": 38.8291765, "rental_uris": {"android": "https://dc.lft.to/lastmile_qr_scan", "ios": "https://dc.lft.to/lastmile_qr_scan"}, "bike_id": "36b1721ea87fd546efc4599704584540", "lon": -76.99782}, {"is_reserved": 0, "fusion_lon": 0.0, "fusion_lat": 0.0, "name": "8e56a7fb23237c6860a9e31faa8f4c33", "type": "electric_scooter", "is_disabled": 0, "lat": 38.90155166666667, "rental_uris": {"android": "https://dc.lft.to/lastmile_qr_scan", "ios": "https://dc.lft.to/lastmile_qr_scan"}, "bike_id": "8e56a7fb23237c6860a9e31faa8f4c33", "lon": -77.03205466666667}, {"is_reserved": 0, "fusion_lon": 0.0, "fusion_lat": 0.0, "name": "813d1d339ab05fcde51ba6e9ae4a8f50", "type": "electric_scooter", "is_disabled": 0, "lat": 38.89844316666667, "rental_uris": {"android": "https://dc.lft.to/lastmile_qr_scan", "ios": "https://dc.lft.to/lastmile_qr_scan"}, "bike_id": "813d1d339ab05fcde51ba6e9ae4a8f50", "lon": -77.00745466666666}, {"is_reserved": 0, "fusion_lon": 0.0, "fusion_lat": 0.0, "name": "74582cd91e027288b0e21aea2d6f1c09", "type": "electric_scooter", "is_disabled": 0, "lat": 38.93382033333334, "rental_uris": {"android": "https://dc.lft.to/lastmile_qr_scan", "ios": "https://dc.lft.to/lastmile_qr_scan"}, "bike_id": "74582cd91e027288b0e21aea2d6f1c09", "lon": -76.98112449999999}, {"is_reserved": 0, "fusion_lon": 0.0, "fusion_lat": 0.0, "name": "a9f53ac108b5afc9ecf370bcb78678a6", "type": "electric_scooter", "is_disabled": 0, "lat": 38.886299, "rental_uris": {"android": "https://dc.lft.to/lastmile_qr_scan", "ios": "https://dc.lft.to/lastmile_qr_scan"}, "bike_id": "a9f53ac108b5afc9ecf370bcb78678a6", "lon": -77.022177}, {"is_reserved": 0, "fusion_lon": 0.0, "fusion_lat": 0.0, "name": "ff77799201d28e4fbfedd6b314230fd0", "type": "electric_scooter", "is_disabled": 0, "lat": 38.899209666666664, "rental_uris": {"android": "https://dc.lft.to/lastmile_qr_scan", "ios": "https://dc.lft.to/lastmile_qr_scan"}, "bike_id": "ff77799201d28e4fbfedd6b314230fd0", "lon": -77.03272016666666}, {"is_reserved": 0, "fusion_lon": 0.0, "fusion_lat": 0.0, "name": "99f96e99da174c6046429cd1967cb796", "type": "electric_scooter", "is_disabled": 0, "lat": 38.906055333333335, "rental_uris": {"android": "https://dc.lft.to/lastmile_qr_scan", "ios": "https://dc.lft.to/lastmile_qr_scan"}, "bike_id": "99f96e99da174c6046429cd1967cb796", "lon": -77.04047116666666}, {"is_reserved": 0, "fusion_lon": 0.0, "fusion_lat": 0.0, "name": "1aca46352760814bbca6b9d1c72654a4", "type": "electric_scooter", "is_disabled": 0, "lat": 38.906332666666664, "rental_uris": {"android": "https://dc.lft.to/lastmile_qr_scan", "ios": "https://dc.lft.to/lastmile_qr_scan"}, "bike_id": "1aca46352760814bbca6b9d1c72654a4", "lon": -77.04764966666667}, {"is_reserved": 0, "fusion_lon": 0.0, "fusion_lat": 0.0, "name": "0fc1f57d35a3b868276296b6f03c8a67", "type": "electric_scooter", "is_disabled": 0, "lat": 38.86433016666667, "rental_uris": {"android": "https://dc.lft.to/lastmile_qr_scan", "ios": "https://dc.lft.to/lastmile_qr_scan"}, "bike_id": "0fc1f57d35a3b868276296b6f03c8a67", "lon": -76.97445616666667}, {"is_reserved": 0, "fusion_lon": 0.0, "fusion_lat": 0.0, "name": "89a7fda575bbfd61c1f53dce89f4cadc", "type": "electric_scooter", "is_disabled": 0, "lat": 38.90797216666667, "rental_uris": {"android": "https://dc.lft.to/lastmile_qr_scan", "ios": "https://dc.lft.to/lastmile_qr_scan"}, "bike_id": "89a7fda575bbfd61c1f53dce89f4cadc", "lon": -77.02390216666667}, {"is_reserved": 0, "fusion_lon": 0.0, "fusion_lat": 0.0, "name": "bb4489456c3dff19bf02b3e482deb790", "type": "electric_scooter", "is_disabled": 0, "lat": 38.887523, "rental_uris": {"android": "https://dc.lft.to/lastmile_qr_scan", "ios": "https://dc.lft.to/lastmile_qr_scan"}, "bike_id": "bb4489456c3dff19bf02b3e482deb790", "lon": -77.01542533333334}, {"is_reserved": 0, "fusion_lon": 0.0, "fusion_lat": 0.0, "name": "11152d27ce809e5c87ab7331713808da", "type": "electric_scooter", "is_disabled": 0, "lat": 38.908007833333336, "rental_uris": {"android": "https://dc.lft.to/lastmile_qr_scan", "ios": "https://dc.lft.to/lastmile_qr_scan"}, "bike_id": "11152d27ce809e5c87ab7331713808da", "lon": -77.04005083333334}, {"is_reserved": 0, "fusion_lon": 0.0, "fusion_lat": 0.0, "name": "861c661df474f493ab04731b4190ef17", "type": "electric_scooter", "is_disabled": 0, "lat": 38.90589583333333, "rental_uris": {"android": "https://dc.lft.to/lastmile_qr_scan", "ios": "https://dc.lft.to/lastmile_qr_scan"}, "bike_id": "861c661df474f493ab04731b4190ef17", "lon": -77.0447685}, {"is_reserved": 0, "fusion_lon": 0.0, "fusion_lat": 0.0, "name": "51bceac5ee79c5e014fe1f2f8bfa754f", "type": "electric_scooter", "is_disabled": 0, "lat": 38.926593, "rental_uris": {"android": "https://dc.lft.to/lastmile_qr_scan", "ios": "https://dc.lft.to/lastmile_qr_scan"}, "bike_id": "51bceac5ee79c5e014fe1f2f8bfa754f", "lon": -77.03733066666666}, {"is_reserved": 0, "fusion_lon": 0.0, "fusion_lat": 0.0, "name": "167aa67c65cb17dcd58455016caaa986", "type": "electric_scooter", "is_disabled": 0, "lat": 38.90555066666667, "rental_uris": {"android": "https://dc.lft.to/lastmile_qr_scan", "ios": "https://dc.lft.to/lastmile_qr_scan"}, "bike_id": "167aa67c65cb17dcd58455016caaa986", "lon": -77.04655266666667}, {"is_reserved": 0, "fusion_lon": 0.0, "fusion_lat": 0.0, "name": "3780ca2003d555d2094fdda7ccf328b7", "type": "electric_scooter", "is_disabled": 0, "lat": 38.8606805, "rental_uris": {"android": "https://dc.lft.to/lastmile_qr_scan", "ios": "https://dc.lft.to/lastmile_qr_scan"}, "bike_id": "3780ca2003d555d2094fdda7ccf328b7", "lon": -76.968898}, {"is_reserved": 0, "fusion_lon": 0.0, "fusion_lat": 0.0, "name": "be74c4e32cad67979637f39047cb9d4a", "type": "electric_scooter", "is_disabled": 0, "lat": 38.887838, "rental_uris": {"android": "https://dc.lft.to/lastmile_qr_scan", "ios": "https://dc.lft.to/lastmile_qr_scan"}, "bike_id": "be74c4e32cad67979637f39047cb9d4a", "lon": -76.9553775}, {"is_reserved": 0, "fusion_lon": 0.0, "fusion_lat": 0.0, "name": "3ff6749253166f66cff0109bcbe40457", "type": "electric_scooter", "is_disabled": 0, "lat": 38.89227416666667, "rental_uris": {"android": "https://dc.lft.to/lastmile_qr_scan", "ios": "https://dc.lft.to/lastmile_qr_scan"}, "bike_id": "3ff6749253166f66cff0109bcbe40457", "lon": -77.0450405}, {"is_reserved": 0, "fusion_lon": 0.0, "fusion_lat": 0.0, "name": "02241ebb4dea1ec1bd9d99732e5bd9fd", "type": "electric_bike", "is_disabled": 0, "lat": 38.947871166666665, "rental_uris": {"android": "https://dc.lft.to/lastmile_qr_scan", "ios": "https://dc.lft.to/lastmile_qr_scan"}, "bike_id": "02241ebb4dea1ec1bd9d99732e5bd9fd", "lon": -76.97207433333334}, {"is_reserved": 0, "fusion_lon": 0.0, "fusion_lat": 0.0, "name": "efa6bd3fc5625ef7bc088cbf76d0fe3e", "type": "electric_scooter", "is_disabled": 0, "lat": 38.92372133333333, "rental_uris": {"android": "https://dc.lft.to/lastmile_qr_scan", "ios": "https://dc.lft.to/lastmile_qr_scan"}, "bike_id": "efa6bd3fc5625ef7bc088cbf76d0fe3e", "lon": -77.02803766666666}, {"is_reserved": 0, "fusion_lon": 0.0, "fusion_lat": 0.0, "name": "592643e79cbc9008babc2055ac18c8d9", "type": "electric_scooter", "is_disabled": 0, "lat": 38.90664266666667, "rental_uris": {"android": "https://dc.lft.to/lastmile_qr_scan", "ios": "https://dc.lft.to/lastmile_qr_scan"}, "bike_id": "592643e79cbc9008babc2055ac18c8d9", "lon": -77.03899933333334}, {"is_reserved": 0, "fusion_lon": 0.0, "fusion_lat": 0.0, "name": "4b0508561069822af17dcaeea9a5e9fd", "type": "electric_scooter", "is_disabled": 0, "lat": 38.906763166666664, "rental_uris": {"android": "https://dc.lft.to/lastmile_qr_scan", "ios": "https://dc.lft.to/lastmile_qr_scan"}, "bike_id": "4b0508561069822af17dcaeea9a5e9fd", "lon": -77.03835866666667}, {"is_reserved": 0, "fusion_lon": 0.0, "fusion_lat": 0.0, "name": "fccfe98dbe66d1ee420df7667335866d", "type": "electric_bike", "is_disabled": 0, "lat": 39.02438133333333, "rental_uris": {"android": "https://dc.lft.to/lastmile_qr_scan", "ios": "https://dc.lft.to/lastmile_qr_scan"}, "bike_id": "fccfe98dbe66d1ee420df7667335866d", "lon": -77.13101783333333}, {"is_reserved": 0, "fusion_lon": 0.0, "fusion_lat": 0.0, "name": "12062da7ef9c1d9aea68ccbee22c7783", "type": "electric_scooter", "is_disabled": 0, "lat": 38.897642166666664, "rental_uris": {"android": "https://dc.lft.to/lastmile_qr_scan", "ios": "https://dc.lft.to/lastmile_qr_scan"}, "bike_id": "12062da7ef9c1d9aea68ccbee22c7783", "lon": -77.02921333333333}, {"is_reserved": 0, "fusion_lon": 0.0, "fusion_lat": 0.0, "name": "acd41ce56f9617796a41c83bf8cbf055", "type": "electric_scooter", "is_disabled": 0, "lat": 38.922345, "rental_uris": {"android": "https://dc.lft.to/lastmile_qr_scan", "ios": "https://dc.lft.to/lastmile_qr_scan"}, "bike_id": "acd41ce56f9617796a41c83bf8cbf055", "lon": -77.0233025}, {"is_reserved": 0, "fusion_lon": 0.0, "fusion_lat": 0.0, "name": "160aaf11d5ab25391c3de843cf4e3f37", "type": "electric_bike", "is_disabled": 0, "lat": 38.807127, "rental_uris": {"android": "https://dc.lft.to/lastmile_qr_scan", "ios": "https://dc.lft.to/lastmile_qr_scan"}, "bike_id": "160aaf11d5ab25391c3de843cf4e3f37", "lon": -77.06168966666667}, {"is_reserved": 0, "fusion_lon": 0.0, "fusion_lat": 0.0, "name": "92dbd854ff512688d660a117f35be839", "type": "electric_scooter", "is_disabled": 0, "lat": 38.882327, "rental_uris": {"android": "https://dc.lft.to/lastmile_qr_scan", "ios": "https://dc.lft.to/lastmile_qr_scan"}, "bike_id": "92dbd854ff512688d660a117f35be839", "lon": -76.98976966666666}, {"is_reserved": 0, "fusion_lon": 0.0, "fusion_lat": 0.0, "name": "61f3b1eeb77fe8fb15a897616c81c481", "type": "electric_bike", "is_disabled": 0, "lat": 38.8076475, "rental_uris": {"android": "https://dc.lft.to/lastmile_qr_scan", "ios": "https://dc.lft.to/lastmile_qr_scan"}, "bike_id": "61f3b1eeb77fe8fb15a897616c81c481", "lon": -77.09466983333333}, {"is_reserved": 0, "fusion_lon": 0.0, "fusion_lat": 0.0, "name": "e5ad43bbeea7d0cac51ab9bef0fd2be9", "type": "electric_scooter", "is_disabled": 0, "lat": 38.92848083333333, "rental_uris": {"android": "https://dc.lft.to/lastmile_qr_scan", "ios": "https://dc.lft.to/lastmile_qr_scan"}, "bike_id": "e5ad43bbeea7d0cac51ab9bef0fd2be9", "lon": -77.01422733333334}, {"is_reserved": 0, "fusion_lon": 0.0, "fusion_lat": 0.0, "name": "355365c3d1c4382bec50cd223f2805a2", "type": "electric_scooter", "is_disabled": 0, "lat": 38.900236666666665, "rental_uris": {"android": "https://dc.lft.to/lastmile_qr_scan", "ios": "https://dc.lft.to/lastmile_qr_scan"}, "bike_id": "355365c3d1c4382bec50cd223f2805a2", "lon": -77.03342683333334}, {"is_reserved": 0, "fusion_lon": 0.0, "fusion_lat": 0.0, "name": "084a8c43b2be8e9812cf55006345c539", "type": "electric_scooter", "is_disabled": 0, "lat": 38.8985105, "rental_uris": {"android": "https://dc.lft.to/lastmile_qr_scan", "ios": "https://dc.lft.to/lastmile_qr_scan"}, "bike_id": "084a8c43b2be8e9812cf55006345c539", "lon": -76.98171966666666}, {"is_reserved": 0, "fusion_lon": 0.0, "fusion_lat": 0.0, "name": "717f02c3ba94f678449baf2ff3d2705c", "type": "electric_scooter", "is_disabled": 0, "lat": 38.91085666666667, "rental_uris": {"android": "https://dc.lft.to/lastmile_qr_scan", "ios": "https://dc.lft.to/lastmile_qr_scan"}, "bike_id": "717f02c3ba94f678449baf2ff3d2705c", "lon": -77.065433}, {"is_reserved": 0, "fusion_lon": 0.0, "fusion_lat": 0.0, "name": "ccbdb69266d924a4e13db78626923ff1", "type": "electric_bike", "is_disabled": 0, "lat": 38.89881316666666, "rental_uris": {"android": "https://dc.lft.to/lastmile_qr_scan", "ios": "https://dc.lft.to/lastmile_qr_scan"}, "bike_id": "ccbdb69266d924a4e13db78626923ff1", "lon": -77.040192}, {"is_reserved": 0, "fusion_lon": 0.0, "fusion_lat": 0.0, "name": "9ca0fb5158df7cdacdf64d0a1eccfb1a", "type": "electric_scooter", "is_disabled": 0, "lat": 38.911034666666666, "rental_uris": {"android": "https://dc.lft.to/lastmile_qr_scan", "ios": "https://dc.lft.to/lastmile_qr_scan"}, "bike_id": "9ca0fb5158df7cdacdf64d0a1eccfb1a", "lon": -77.02201116666667}, {"is_reserved": 0, "fusion_lon": 0.0, "fusion_lat": 0.0, "name": "bb4f75811e9004d62fb40ac0999b0782", "type": "electric_scooter", "is_disabled": 0, "lat": 38.9098255, "rental_uris": {"android": "https://dc.lft.to/lastmile_qr_scan", "ios": "https://dc.lft.to/lastmile_qr_scan"}, "bike_id": "bb4f75811e9004d62fb40ac0999b0782", "lon": -77.04870483333333}, {"is_reserved": 0, "fusion_lon": 0.0, "fusion_lat": 0.0, "name": "a915b7c88e687650d7766aa09ea0d1cf", "type": "electric_scooter", "is_disabled": 0, "lat": 38.901416166666664, "rental_uris": {"android": "https://dc.lft.to/lastmile_qr_scan", "ios": "https://dc.lft.to/lastmile_qr_scan"}, "bike_id": "a915b7c88e687650d7766aa09ea0d1cf", "lon": -77.029915}, {"is_reserved": 0, "fusion_lon": 0.0, "fusion_lat": 0.0, "name": "1a455be31637e69f94939c68a903bcb1", "type": "electric_scooter", "is_disabled": 0, "lat": 38.90210666666667, "rental_uris": {"android": "https://dc.lft.to/lastmile_qr_scan", "ios": "https://dc.lft.to/lastmile_qr_scan"}, "bike_id": "1a455be31637e69f94939c68a903bcb1", "lon": -76.97600933333334}, {"is_reserved": 0, "fusion_lon": 0.0, "fusion_lat": 0.0, "name": "e594741dab6bba566bf3bba53f9b313e", "type": "electric_scooter", "is_disabled": 0, "lat": 38.8976355, "rental_uris": {"android": "https://dc.lft.to/lastmile_qr_scan", "ios": "https://dc.lft.to/lastmile_qr_scan"}, "bike_id": "e594741dab6bba566bf3bba53f9b313e", "lon": -77.046619}, {"is_reserved": 0, "fusion_lon": 0.0, "fusion_lat": 0.0, "name": "2572f4d7f916f68b9ddf27486717b7a2", "type": "electric_scooter", "is_disabled": 0, "lat": 38.89548416666667, "rental_uris": {"android": "https://dc.lft.to/lastmile_qr_scan", "ios": "https://dc.lft.to/lastmile_qr_scan"}, "bike_id": "2572f4d7f916f68b9ddf27486717b7a2", "lon": -77.03262966666667}, {"is_reserved": 0, "fusion_lon": 0.0, "fusion_lat": 0.0, "name": "be260dd7b1a2343e84dfed04c107a396", "type": "electric_scooter", "is_disabled": 0, "lat": 38.88618783333333, "rental_uris": {"android": "https://dc.lft.to/lastmile_qr_scan", "ios": "https://dc.lft.to/lastmile_qr_scan"}, "bike_id": "be260dd7b1a2343e84dfed04c107a396", "lon": -76.95580483333333}, {"is_reserved": 0, "fusion_lon": 0.0, "fusion_lat": 0.0, "name": "bf7d086a9723e3ee51680d7eb81eff4d", "type": "electric_scooter", "is_disabled": 0, "lat": 38.900735833333336, "rental_uris": {"android": "https://dc.lft.to/lastmile_qr_scan", "ios": "https://dc.lft.to/lastmile_qr_scan"}, "bike_id": "bf7d086a9723e3ee51680d7eb81eff4d", "lon": -77.0132785}, {"is_reserved": 0, "fusion_lon": 0.0, "fusion_lat": 0.0, "name": "becfc94bf886e110b3e1b086012964b1", "type": "electric_scooter", "is_disabled": 0, "lat": 38.887345, "rental_uris": {"android": "https://dc.lft.to/lastmile_qr_scan", "ios": "https://dc.lft.to/lastmile_qr_scan"}, "bike_id": "becfc94bf886e110b3e1b086012964b1", "lon": -77.02834433333334}, {"is_reserved": 0, "fusion_lon": 0.0, "fusion_lat": 0.0, "name": "f6b3c2e133354493cb413919b26e4784", "type": "electric_scooter", "is_disabled": 0, "lat": 38.867025166666664, "rental_uris": {"android": "https://dc.lft.to/lastmile_qr_scan", "ios": "https://dc.lft.to/lastmile_qr_scan"}, "bike_id": "f6b3c2e133354493cb413919b26e4784", "lon": -76.98592516666666}, {"is_reserved": 0, "fusion_lon": 0.0, "fusion_lat": 0.0, "name": "8acc44a52b8878dbaafd74439fbf2062", "type": "electric_scooter", "is_disabled": 0, "lat": 38.884521, "rental_uris": {"android": "https://dc.lft.to/lastmile_qr_scan", "ios": "https://dc.lft.to/lastmile_qr_scan"}, "bike_id": "8acc44a52b8878dbaafd74439fbf2062", "lon": -77.02887266666667}, {"is_reserved": 0, "fusion_lon": 0.0, "fusion_lat": 0.0, "name": "68d578e6518e76d6ac4d800bc697a25b", "type": "electric_scooter", "is_disabled": 0, "lat": 38.89231233333334, "rental_uris": {"android": "https://dc.lft.to/lastmile_qr_scan", "ios": "https://dc.lft.to/lastmile_qr_scan"}, "bike_id": "68d578e6518e76d6ac4d800bc697a25b", "lon": -77.00298566666666}, {"is_reserved": 0, "fusion_lon": 0.0, "fusion_lat": 0.0, "name": "810949f892b67c505476db6eb22ee938", "type": "electric_scooter", "is_disabled": 0, "lat": 38.91561266666667, "rental_uris": {"android": "https://dc.lft.to/lastmile_qr_scan", "ios": "https://dc.lft.to/lastmile_qr_scan"}, "bike_id": "810949f892b67c505476db6eb22ee938", "lon": -77.0236945}, {"is_reserved": 0, "fusion_lon": 0.0, "fusion_lat": 0.0, "name": "fbb75602c00fe0288660588918ea6d8e", "type": "electric_scooter", "is_disabled": 0, "lat": 38.900094833333334, "rental_uris": {"android": "https://dc.lft.to/lastmile_qr_scan", "ios": "https://dc.lft.to/lastmile_qr_scan"}, "bike_id": "fbb75602c00fe0288660588918ea6d8e", "lon": -76.9984195}, {"is_reserved": 0, "fusion_lon": 0.0, "fusion_lat": 0.0, "name": "2bd4d2d44452a08501f433ea4d88ddc6", "type": "electric_scooter", "is_disabled": 0, "lat": 38.879494666666666, "rental_uris": {"android": "https://dc.lft.to/lastmile_qr_scan", "ios": "https://dc.lft.to/lastmile_qr_scan"}, "bike_id": "2bd4d2d44452a08501f433ea4d88ddc6", "lon": -77.00683766666667}, {"is_reserved": 0, "fusion_lon": 0.0, "fusion_lat": 0.0, "name": "ded07bdf14499f3c50218229f84da0b2", "type": "electric_scooter", "is_disabled": 0, "lat": 38.905612, "rental_uris": {"android": "https://dc.lft.to/lastmile_qr_scan", "ios": "https://dc.lft.to/lastmile_qr_scan"}, "bike_id": "ded07bdf14499f3c50218229f84da0b2", "lon": -77.04153066666667}, {"is_reserved": 0, "fusion_lon": 0.0, "fusion_lat": 0.0, "name": "02f3ba0a5e5c01a8752faa4af37faf45", "type": "electric_scooter", "is_disabled": 0, "lat": 38.902413, "rental_uris": {"android": "https://dc.lft.to/lastmile_qr_scan", "ios": "https://dc.lft.to/lastmile_qr_scan"}, "bike_id": "02f3ba0a5e5c01a8752faa4af37faf45", "lon": -77.0269395}, {"is_reserved": 0, "fusion_lon": 0.0, "fusion_lat": 0.0, "name": "936dffec21f185f89dcfab79d5033a78", "type": "electric_scooter", "is_disabled": 0, "lat": 38.9063855, "rental_uris": {"android": "https://dc.lft.to/lastmile_qr_scan", "ios": "https://dc.lft.to/lastmile_qr_scan"}, "bike_id": "936dffec21f185f89dcfab79d5033a78", "lon": -77.00594816666667}, {"is_reserved": 0, "fusion_lon": 0.0, "fusion_lat": 0.0, "name": "87df95ce286ddeda4a8c68569635fd15", "type": "electric_scooter", "is_disabled": 0, "lat": 38.9103665, "rental_uris": {"android": "https://dc.lft.to/lastmile_qr_scan", "ios": "https://dc.lft.to/lastmile_qr_scan"}, "bike_id": "87df95ce286ddeda4a8c68569635fd15", "lon": -76.99341033333333}, {"is_reserved": 0, "fusion_lon": 0.0, "fusion_lat": 0.0, "name": "12a4851cb17a3788d81b35a4a763633d", "type": "electric_scooter", "is_disabled": 0, "lat": 38.9013755, "rental_uris": {"android": "https://dc.lft.to/lastmile_qr_scan", "ios": "https://dc.lft.to/lastmile_qr_scan"}, "bike_id": "12a4851cb17a3788d81b35a4a763633d", "lon": -77.03994533333334}, {"is_reserved": 0, "fusion_lon": 0.0, "fusion_lat": 0.0, "name": "ea94e3685e8a0938a5932322363afb3e", "type": "electric_scooter", "is_disabled": 0, "lat": 38.8947945, "rental_uris": {"android": "https://dc.lft.to/lastmile_qr_scan", "ios": "https://dc.lft.to/lastmile_qr_scan"}, "bike_id": "ea94e3685e8a0938a5932322363afb3e", "lon": -77.0228535}, {"is_reserved": 0, "fusion_lon": 0.0, "fusion_lat": 0.0, "name": "7ca473242f83969f6f27ef4f0faa817c", "type": "electric_bike", "is_disabled": 0, "lat": 38.83792616666667, "rental_uris": {"android": "https://dc.lft.to/lastmile_qr_scan", "ios": "https://dc.lft.to/lastmile_qr_scan"}, "bike_id": "7ca473242f83969f6f27ef4f0faa817c", "lon": -76.99754066666667}, {"is_reserved": 0, "fusion_lon": 0.0, "fusion_lat": 0.0, "name": "0b2940421b18f7e75cd27f2d07500035", "type": "electric_scooter", "is_disabled": 0, "lat": 38.8669505, "rental_uris": {"android": "https://dc.lft.to/lastmile_qr_scan", "ios": "https://dc.lft.to/lastmile_qr_scan"}, "bike_id": "0b2940421b18f7e75cd27f2d07500035", "lon": -76.98606333333333}, {"is_reserved": 0, "fusion_lon": 0.0, "fusion_lat": 0.0, "name": "d0f0c42ea21ea45475861b3b32e8b163", "type": "electric_scooter", "is_disabled": 0, "lat": 38.90378233333333, "rental_uris": {"android": "https://dc.lft.to/lastmile_qr_scan", "ios": "https://dc.lft.to/lastmile_qr_scan"}, "bike_id": "d0f0c42ea21ea45475861b3b32e8b163", "lon": -76.99706983333333}, {"is_reserved": 0, "fusion_lon": 0.0, "fusion_lat": 0.0, "name": "55749329568cb4a4741728e079654c9a", "type": "electric_scooter", "is_disabled": 0, "lat": 38.91547766666667, "rental_uris": {"android": "https://dc.lft.to/lastmile_qr_scan", "ios": "https://dc.lft.to/lastmile_qr_scan"}, "bike_id": "55749329568cb4a4741728e079654c9a", "lon": -76.9701125}, {"is_reserved": 0, "fusion_lon": 0.0, "fusion_lat": 0.0, "name": "992951491e8355bd0a7574b6f01702a4", "type": "electric_scooter", "is_disabled": 0, "lat": 38.93713183333333, "rental_uris": {"android": "https://dc.lft.to/lastmile_qr_scan", "ios": "https://dc.lft.to/lastmile_qr_scan"}, "bike_id": "992951491e8355bd0a7574b6f01702a4", "lon": -77.02938266666666}, {"is_reserved": 0, "fusion_lon": 0.0, "fusion_lat": 0.0, "name": "e3090d91724584fde4d1eba3708751ee", "type": "electric_scooter", "is_disabled": 0, "lat": 38.925939666666665, "rental_uris": {"android": "https://dc.lft.to/lastmile_qr_scan", "ios": "https://dc.lft.to/lastmile_qr_scan"}, "bike_id": "e3090d91724584fde4d1eba3708751ee", "lon": -77.03991083333334}, {"is_reserved": 0, "fusion_lon": 0.0, "fusion_lat": 0.0, "name": "e4bc07c31412ad2ab3ceed20984f8365", "type": "electric_scooter", "is_disabled": 0, "lat": 38.916999833333335, "rental_uris": {"android": "https://dc.lft.to/lastmile_qr_scan", "ios": "https://dc.lft.to/lastmile_qr_scan"}, "bike_id": "e4bc07c31412ad2ab3ceed20984f8365", "lon": -77.02892233333333}, {"is_reserved": 0, "fusion_lon": 0.0, "fusion_lat": 0.0, "name": "f36336638583f8f9ea67001f2d2d147c", "type": "electric_scooter", "is_disabled": 0, "lat": 38.9234725, "rental_uris": {"android": "https://dc.lft.to/lastmile_qr_scan", "ios": "https://dc.lft.to/lastmile_qr_scan"}, "bike_id": "f36336638583f8f9ea67001f2d2d147c", "lon": -77.05123066666667}, {"is_reserved": 0, "fusion_lon": 0.0, "fusion_lat": 0.0, "name": "08a2dd1c0d3e83d8e1b6f0796cf4293b", "type": "electric_scooter", "is_disabled": 0, "lat": 38.92120116666667, "rental_uris": {"android": "https://dc.lft.to/lastmile_qr_scan", "ios": "https://dc.lft.to/lastmile_qr_scan"}, "bike_id": "08a2dd1c0d3e83d8e1b6f0796cf4293b", "lon": -77.03926433333334}, {"is_reserved": 0, "fusion_lon": 0.0, "fusion_lat": 0.0, "name": "be8613108b0dcab51bee15f040f93fae", "type": "electric_scooter", "is_disabled": 0, "lat": 38.900120333333334, "rental_uris": {"android": "https://dc.lft.to/lastmile_qr_scan", "ios": "https://dc.lft.to/lastmile_qr_scan"}, "bike_id": "be8613108b0dcab51bee15f040f93fae", "lon": -76.99626633333334}, {"is_reserved": 0, "fusion_lon": 0.0, "fusion_lat": 0.0, "name": "803e03fbb283fc2e980a6caf54e21345", "type": "electric_scooter", "is_disabled": 0, "lat": 38.887251666666664, "rental_uris": {"android": "https://dc.lft.to/lastmile_qr_scan", "ios": "https://dc.lft.to/lastmile_qr_scan"}, "bike_id": "803e03fbb283fc2e980a6caf54e21345", "lon": -77.03220916666666}, {"is_reserved": 0, "fusion_lon": 0.0, "fusion_lat": 0.0, "name": "aa67eaa81aa0cb3c4b22700f12cbe6d9", "type": "electric_scooter", "is_disabled": 0, "lat": 38.892272166666665, "rental_uris": {"android": "https://dc.lft.to/lastmile_qr_scan", "ios": "https://dc.lft.to/lastmile_qr_scan"}, "bike_id": "aa67eaa81aa0cb3c4b22700f12cbe6d9", "lon": -77.04688533333334}, {"is_reserved": 0, "fusion_lon": 0.0, "fusion_lat": 0.0, "name": "dd93ed38a97ad4dbab1b72ab42c25c44", "type": "electric_scooter", "is_disabled": 0, "lat": 38.906, "rental_uris": {"android": "https://dc.lft.to/lastmile_qr_scan", "ios": "https://dc.lft.to/lastmile_qr_scan"}, "bike_id": "dd93ed38a97ad4dbab1b72ab42c25c44", "lon": -77.06418083333334}, {"is_reserved": 0, "fusion_lon": 0.0, "fusion_lat": 0.0, "name": "8bf9c0a7367fb917f43da89dced98c25", "type": "electric_bike", "is_disabled": 0, "lat": 39.04322416666667, "rental_uris": {"android": "https://dc.lft.to/lastmile_qr_scan", "ios": "https://dc.lft.to/lastmile_qr_scan"}, "bike_id": "8bf9c0a7367fb917f43da89dced98c25", "lon": -77.05155533333334}, {"is_reserved": 0, "fusion_lon": 0.0, "fusion_lat": 0.0, "name": "dce0e4d7972656095a03edeef8c0f25f", "type": "electric_scooter", "is_disabled": 0, "lat": 38.92042516666667, "rental_uris": {"android": "https://dc.lft.to/lastmile_qr_scan", "ios": "https://dc.lft.to/lastmile_qr_scan"}, "bike_id": "dce0e4d7972656095a03edeef8c0f25f", "lon": -76.997388}, {"is_reserved": 0, "fusion_lon": 0.0, "fusion_lat": 0.0, "name": "703d6f41c105f14cc841ac2ed9806350", "type": "electric_scooter", "is_disabled": 0, "lat": 38.92129033333333, "rental_uris": {"android": "https://dc.lft.to/lastmile_qr_scan", "ios": "https://dc.lft.to/lastmile_qr_scan"}, "bike_id": "703d6f41c105f14cc841ac2ed9806350", "lon": -77.03669533333333}, {"is_reserved": 0, "fusion_lon": 0.0, "fusion_lat": 0.0, "name": "7e990611f340eba74bdabcbf87e98625", "type": "electric_scooter", "is_disabled": 0, "lat": 38.89606333333333, "rental_uris": {"android": "https://dc.lft.to/lastmile_qr_scan", "ios": "https://dc.lft.to/lastmile_qr_scan"}, "bike_id": "7e990611f340eba74bdabcbf87e98625", "lon": -77.0114405}, {"is_reserved": 0, "fusion_lon": 0.0, "fusion_lat": 0.0, "name": "4744092d23e6388f2539d0945f2a43e6", "type": "electric_scooter", "is_disabled": 0, "lat": 38.8961005, "rental_uris": {"android": "https://dc.lft.to/lastmile_qr_scan", "ios": "https://dc.lft.to/lastmile_qr_scan"}, "bike_id": "4744092d23e6388f2539d0945f2a43e6", "lon": -76.99970633333334}, {"is_reserved": 0, "fusion_lon": 0.0, "fusion_lat": 0.0, "name": "268ea2bc59e4a191ad1a0012b01c0dfc", "type": "electric_scooter", "is_disabled": 0, "lat": 38.9028505, "rental_uris": {"android": "https://dc.lft.to/lastmile_qr_scan", "ios": "https://dc.lft.to/lastmile_qr_scan"}, "bike_id": "268ea2bc59e4a191ad1a0012b01c0dfc", "lon": -77.022699}, {"is_reserved": 0, "fusion_lon": 0.0, "fusion_lat": 0.0, "name": "2d572b35631699ba44658a282171e945", "type": "electric_scooter", "is_disabled": 0, "lat": 38.86061483333334, "rental_uris": {"android": "https://dc.lft.to/lastmile_qr_scan", "ios": "https://dc.lft.to/lastmile_qr_scan"}, "bike_id": "2d572b35631699ba44658a282171e945", "lon": -76.98503033333333}, {"is_reserved": 0, "fusion_lon": 0.0, "fusion_lat": 0.0, "name": "9509fe307e7a489bc2df18a2ca0a3efa", "type": "electric_bike", "is_disabled": 0, "lat": 38.911918666666665, "rental_uris": {"android": "https://dc.lft.to/lastmile_qr_scan", "ios": "https://dc.lft.to/lastmile_qr_scan"}, "bike_id": "9509fe307e7a489bc2df18a2ca0a3efa", "lon": -77.00270033333334}, {"is_reserved": 0, "fusion_lon": 0.0, "fusion_lat": 0.0, "name": "dbd31e03357d741b878ee633852fc4f2", "type": "electric_scooter", "is_disabled": 0, "lat": 38.907336666666666, "rental_uris": {"android": "https://dc.lft.to/lastmile_qr_scan", "ios": "https://dc.lft.to/lastmile_qr_scan"}, "bike_id": "dbd31e03357d741b878ee633852fc4f2", "lon": -76.9869535}, {"is_reserved": 0, "fusion_lon": 0.0, "fusion_lat": 0.0, "name": "31e9aa0645a4c328456d7e6a21335aee", "type": "electric_scooter", "is_disabled": 0, "lat": 38.924352666666664, "rental_uris": {"android": "https://dc.lft.to/lastmile_qr_scan", "ios": "https://dc.lft.to/lastmile_qr_scan"}, "bike_id": "31e9aa0645a4c328456d7e6a21335aee", "lon": -77.05211183333333}, {"is_reserved": 0, "fusion_lon": 0.0, "fusion_lat": 0.0, "name": "46955d572526386999876db1a2a7fd8d", "type": "electric_scooter", "is_disabled": 0, "lat": 38.899012166666665, "rental_uris": {"android": "https://dc.lft.to/lastmile_qr_scan", "ios": "https://dc.lft.to/lastmile_qr_scan"}, "bike_id": "46955d572526386999876db1a2a7fd8d", "lon": -77.03295733333333}, {"is_reserved": 0, "fusion_lon": 0.0, "fusion_lat": 0.0, "name": "3936b1020a4dcc74e9567a744be33f97", "type": "electric_scooter", "is_disabled": 0, "lat": 38.90731733333333, "rental_uris": {"android": "https://dc.lft.to/lastmile_qr_scan", "ios": "https://dc.lft.to/lastmile_qr_scan"}, "bike_id": "3936b1020a4dcc74e9567a744be33f97", "lon": -77.04340816666667}, {"is_reserved": 0, "fusion_lon": 0.0, "fusion_lat": 0.0, "name": "2b6c41e902bf00fc637794f9a246355b", "type": "electric_scooter", "is_disabled": 0, "lat": 38.855418666666665, "rental_uris": {"android": "https://dc.lft.to/lastmile_qr_scan", "ios": "https://dc.lft.to/lastmile_qr_scan"}, "bike_id": "2b6c41e902bf00fc637794f9a246355b", "lon": -76.9841695}, {"is_reserved": 0, "fusion_lon": 0.0, "fusion_lat": 0.0, "name": "5bbbb2f9a8868e202ceacde037bbaa25", "type": "electric_scooter", "is_disabled": 0, "lat": 38.9298115, "rental_uris": {"android": "https://dc.lft.to/lastmile_qr_scan", "ios": "https://dc.lft.to/lastmile_qr_scan"}, "bike_id": "5bbbb2f9a8868e202ceacde037bbaa25", "lon": -77.01328266666667}, {"is_reserved": 0, "fusion_lon": 0.0, "fusion_lat": 0.0, "name": "4a93ff6bca4169dccff60c582d76ad10", "type": "electric_scooter", "is_disabled": 0, "lat": 38.884012, "rental_uris": {"android": "https://dc.lft.to/lastmile_qr_scan", "ios": "https://dc.lft.to/lastmile_qr_scan"}, "bike_id": "4a93ff6bca4169dccff60c582d76ad10", "lon": -77.01779016666667}, {"is_reserved": 0, "fusion_lon": 0.0, "fusion_lat": 0.0, "name": "1dbe960be8e4469876eb73554e7f2d26", "type": "electric_scooter", "is_disabled": 0, "lat": 38.9009145, "rental_uris": {"android": "https://dc.lft.to/lastmile_qr_scan", "ios": "https://dc.lft.to/lastmile_qr_scan"}, "bike_id": "1dbe960be8e4469876eb73554e7f2d26", "lon": -76.9301885}, {"is_reserved": 0, "fusion_lon": 0.0, "fusion_lat": 0.0, "name": "0368703e2071a71108e3b5c537046eec", "type": "electric_scooter", "is_disabled": 0, "lat": 38.91769016666667, "rental_uris": {"android": "https://dc.lft.to/lastmile_qr_scan", "ios": "https://dc.lft.to/lastmile_qr_scan"}, "bike_id": "0368703e2071a71108e3b5c537046eec", "lon": -77.04062466666667}, {"is_reserved": 0, "fusion_lon": 0.0, "fusion_lat": 0.0, "name": "1d3fff84c371e5a6ab9a089d229c8738", "type": "electric_scooter", "is_disabled": 0, "lat": 38.89862816666667, "rental_uris": {"android": "https://dc.lft.to/lastmile_qr_scan", "ios": "https://dc.lft.to/lastmile_qr_scan"}, "bike_id": "1d3fff84c371e5a6ab9a089d229c8738", "lon": -76.92751283333334}, {"is_reserved": 0, "fusion_lon": 0.0, "fusion_lat": 0.0, "name": "d8e3f7623ef60a63f1f880f183d2d869", "type": "electric_scooter", "is_disabled": 0, "lat": 38.89809283333334, "rental_uris": {"android": "https://dc.lft.to/lastmile_qr_scan", "ios": "https://dc.lft.to/lastmile_qr_scan"}, "bike_id": "d8e3f7623ef60a63f1f880f183d2d869", "lon": -77.02926533333333}, {"is_reserved": 0, "fusion_lon": 0.0, "fusion_lat": 0.0, "name": "9e4dc5795ab42d297866a1c3c58d7680", "type": "electric_scooter", "is_disabled": 0, "lat": 38.88486483333333, "rental_uris": {"android": "https://dc.lft.to/lastmile_qr_scan", "ios": "https://dc.lft.to/lastmile_qr_scan"}, "bike_id": "9e4dc5795ab42d297866a1c3c58d7680", "lon": -76.92617616666666}, {"is_reserved": 0, "fusion_lon": 0.0, "fusion_lat": 0.0, "name": "957096babdd36d372185ff525c77de4d", "type": "electric_bike", "is_disabled": 0, "lat": 38.956582833333336, "rental_uris": {"android": "https://dc.lft.to/lastmile_qr_scan", "ios": "https://dc.lft.to/lastmile_qr_scan"}, "bike_id": "957096babdd36d372185ff525c77de4d", "lon": -77.01275}, {"is_reserved": 0, "fusion_lon": 0.0, "fusion_lat": 0.0, "name": "3a9cba5f1ded96099a019092bd66486e", "type": "electric_scooter", "is_disabled": 0, "lat": 38.90246883333333, "rental_uris": {"android": "https://dc.lft.to/lastmile_qr_scan", "ios": "https://dc.lft.to/lastmile_qr_scan"}, "bike_id": "3a9cba5f1ded96099a019092bd66486e", "lon": -77.002027}, {"is_reserved": 0, "fusion_lon": 0.0, "fusion_lat": 0.0, "name": "4d478fb585d7621861637346ea9a0076", "type": "electric_scooter", "is_disabled": 0, "lat": 38.90647466666667, "rental_uris": {"android": "https://dc.lft.to/lastmile_qr_scan", "ios": "https://dc.lft.to/lastmile_qr_scan"}, "bike_id": "4d478fb585d7621861637346ea9a0076", "lon": -77.06904466666667}, {"is_reserved": 0, "fusion_lon": 0.0, "fusion_lat": 0.0, "name": "fe7317bac486441fc94ca6052e26341a", "type": "electric_bike", "is_disabled": 0, "lat": 38.89204016666667, "rental_uris": {"android": "https://dc.lft.to/lastmile_qr_scan", "ios": "https://dc.lft.to/lastmile_qr_scan"}, "bike_id": "fe7317bac486441fc94ca6052e26341a", "lon": -77.00294016666666}, {"is_reserved": 0, "fusion_lon": 0.0, "fusion_lat": 0.0, "name": "c434b3b07670d486f70e4dedd4f427c8", "type": "electric_bike", "is_disabled": 0, "lat": 38.935112833333335, "rental_uris": {"android": "https://dc.lft.to/lastmile_qr_scan", "ios": "https://dc.lft.to/lastmile_qr_scan"}, "bike_id": "c434b3b07670d486f70e4dedd4f427c8", "lon": -76.9980205}, {"is_reserved": 0, "fusion_lon": 0.0, "fusion_lat": 0.0, "name": "ffc7f28363e634772d4864d63bc388be", "type": "electric_scooter", "is_disabled": 0, "lat": 38.90068933333333, "rental_uris": {"android": "https://dc.lft.to/lastmile_qr_scan", "ios": "https://dc.lft.to/lastmile_qr_scan"}, "bike_id": "ffc7f28363e634772d4864d63bc388be", "lon": -77.0453555}, {"is_reserved": 0, "fusion_lon": 0.0, "fusion_lat": 0.0, "name": "6a7382059a2df96475a30ceb80d343e7", "type": "electric_scooter", "is_disabled": 0, "lat": 38.90446716666667, "rental_uris": {"android": "https://dc.lft.to/lastmile_qr_scan", "ios": "https://dc.lft.to/lastmile_qr_scan"}, "bike_id": "6a7382059a2df96475a30ceb80d343e7", "lon": -77.0432605}, {"is_reserved": 0, "fusion_lon": 0.0, "fusion_lat": 0.0, "name": "125e1b208fe82802528d1a1f400dba3a", "type": "electric_scooter", "is_disabled": 0, "lat": 38.92977116666667, "rental_uris": {"android": "https://dc.lft.to/lastmile_qr_scan", "ios": "https://dc.lft.to/lastmile_qr_scan"}, "bike_id": "125e1b208fe82802528d1a1f400dba3a", "lon": -77.032815}, {"is_reserved": 0, "fusion_lon": 0.0, "fusion_lat": 0.0, "name": "4c38b4b539f95398b726546ce82b098f", "type": "electric_scooter", "is_disabled": 0, "lat": 38.91724266666667, "rental_uris": {"android": "https://dc.lft.to/lastmile_qr_scan", "ios": "https://dc.lft.to/lastmile_qr_scan"}, "bike_id": "4c38b4b539f95398b726546ce82b098f", "lon": -77.03662866666667}, {"is_reserved": 0, "fusion_lon": 0.0, "fusion_lat": 0.0, "name": "4ad01aa3d2256a47e5c0bfb432546e31", "type": "electric_scooter", "is_disabled": 0, "lat": 38.90858016666667, "rental_uris": {"android": "https://dc.lft.to/lastmile_qr_scan", "ios": "https://dc.lft.to/lastmile_qr_scan"}, "bike_id": "4ad01aa3d2256a47e5c0bfb432546e31", "lon": -77.03449016666667}, {"is_reserved": 0, "fusion_lon": 0.0, "fusion_lat": 0.0, "name": "c76a8136acf9ba3734d6a7992a199404", "type": "electric_scooter", "is_disabled": 0, "lat": 38.955006, "rental_uris": {"android": "https://dc.lft.to/lastmile_qr_scan", "ios": "https://dc.lft.to/lastmile_qr_scan"}, "bike_id": "c76a8136acf9ba3734d6a7992a199404", "lon": -77.02961166666667}, {"is_reserved": 0, "fusion_lon": 0.0, "fusion_lat": 0.0, "name": "4acee5d5d753248b9ea9ab0763b14704", "type": "electric_bike", "is_disabled": 0, "lat": 38.956903, "rental_uris": {"android": "https://dc.lft.to/lastmile_qr_scan", "ios": "https://dc.lft.to/lastmile_qr_scan"}, "bike_id": "4acee5d5d753248b9ea9ab0763b14704", "lon": -77.02222633333334}, {"is_reserved": 0, "fusion_lon": 0.0, "fusion_lat": 0.0, "name": "05351b83b41738ef00396ba2c252a320", "type": "electric_scooter", "is_disabled": 0, "lat": 38.90567133333333, "rental_uris": {"android": "https://dc.lft.to/lastmile_qr_scan", "ios": "https://dc.lft.to/lastmile_qr_scan"}, "bike_id": "05351b83b41738ef00396ba2c252a320", "lon": -77.0416305}, {"is_reserved": 0, "fusion_lon": 0.0, "fusion_lat": 0.0, "name": "30ae6338d9e9af0a0ba0f25dbfdfe91e", "type": "electric_bike", "is_disabled": 0, "lat": 38.929747166666665, "rental_uris": {"android": "https://dc.lft.to/lastmile_qr_scan", "ios": "https://dc.lft.to/lastmile_qr_scan"}, "bike_id": "30ae6338d9e9af0a0ba0f25dbfdfe91e", "lon": -77.22572066666666}, {"is_reserved": 0, "fusion_lon": 0.0, "fusion_lat": 0.0, "name": "da2cfea52f6fc305152a704200667bfc", "type": "electric_scooter", "is_disabled": 0, "lat": 38.908389666666665, "rental_uris": {"android": "https://dc.lft.to/lastmile_qr_scan", "ios": "https://dc.lft.to/lastmile_qr_scan"}, "bike_id": "da2cfea52f6fc305152a704200667bfc", "lon": -77.07412766666667}, {"is_reserved": 0, "fusion_lon": 0.0, "fusion_lat": 0.0, "name": "77859e9ce7295b13bb9421af56052772", "type": "electric_scooter", "is_disabled": 0, "lat": 38.95077766666667, "rental_uris": {"android": "https://dc.lft.to/lastmile_qr_scan", "ios": "https://dc.lft.to/lastmile_qr_scan"}, "bike_id": "77859e9ce7295b13bb9421af56052772", "lon": -76.9956215}, {"is_reserved": 0, "fusion_lon": 0.0, "fusion_lat": 0.0, "name": "166c7022d428c30776ea62f5a1dff25d", "type": "electric_scooter", "is_disabled": 0, "lat": 38.90238083333333, "rental_uris": {"android": "https://dc.lft.to/lastmile_qr_scan", "ios": "https://dc.lft.to/lastmile_qr_scan"}, "bike_id": "166c7022d428c30776ea62f5a1dff25d", "lon": -77.02683283333333}, {"is_reserved": 0, "fusion_lon": 0.0, "fusion_lat": 0.0, "name": "7fad1e85a98d178cd62de99ad75ef65c", "type": "electric_scooter", "is_disabled": 0, "lat": 38.90389316666667, "rental_uris": {"android": "https://dc.lft.to/lastmile_qr_scan", "ios": "https://dc.lft.to/lastmile_qr_scan"}, "bike_id": "7fad1e85a98d178cd62de99ad75ef65c", "lon": -77.043308}, {"is_reserved": 0, "fusion_lon": 0.0, "fusion_lat": 0.0, "name": "173e22c3d751ec68de0a1e49f72f8ae6", "type": "electric_scooter", "is_disabled": 0, "lat": 38.895487833333334, "rental_uris": {"android": "https://dc.lft.to/lastmile_qr_scan", "ios": "https://dc.lft.to/lastmile_qr_scan"}, "bike_id": "173e22c3d751ec68de0a1e49f72f8ae6", "lon": -77.056614}, {"is_reserved": 0, "fusion_lon": 0.0, "fusion_lat": 0.0, "name": "464a2a0c8132290294b6474b6cc8174b", "type": "electric_scooter", "is_disabled": 0, "lat": 38.90362233333333, "rental_uris": {"android": "https://dc.lft.to/lastmile_qr_scan", "ios": "https://dc.lft.to/lastmile_qr_scan"}, "bike_id": "464a2a0c8132290294b6474b6cc8174b", "lon": -77.03915083333334}, {"is_reserved": 0, "fusion_lon": 0.0, "fusion_lat": 0.0, "name": "1e9b48df7993032ec64fea7268656e52", "type": "electric_scooter", "is_disabled": 0, "lat": 38.908435, "rental_uris": {"android": "https://dc.lft.to/lastmile_qr_scan", "ios": "https://dc.lft.to/lastmile_qr_scan"}, "bike_id": "1e9b48df7993032ec64fea7268656e52", "lon": -77.03314366666666}, {"is_reserved": 0, "fusion_lon": 0.0, "fusion_lat": 0.0, "name": "7d92c5c6852ec3aecffc01bc0d253df6", "type": "electric_scooter", "is_disabled": 0, "lat": 38.929846166666664, "rental_uris": {"android": "https://dc.lft.to/lastmile_qr_scan", "ios": "https://dc.lft.to/lastmile_qr_scan"}, "bike_id": "7d92c5c6852ec3aecffc01bc0d253df6", "lon": -77.01450833333334}, {"is_reserved": 0, "fusion_lon": 0.0, "fusion_lat": 0.0, "name": "04c0c6cdd5d2c88f9bb54718f87173c0", "type": "electric_bike", "is_disabled": 0, "lat": 38.96742166666667, "rental_uris": {"android": "https://dc.lft.to/lastmile_qr_scan", "ios": "https://dc.lft.to/lastmile_qr_scan"}, "bike_id": "04c0c6cdd5d2c88f9bb54718f87173c0", "lon": -76.96046283333334}, {"is_reserved": 0, "fusion_lon": 0.0, "fusion_lat": 0.0, "name": "8c176b4b2b8c7eefeebcef95238e0e47", "type": "electric_scooter", "is_disabled": 0, "lat": 38.90975016666667, "rental_uris": {"android": "https://dc.lft.to/lastmile_qr_scan", "ios": "https://dc.lft.to/lastmile_qr_scan"}, "bike_id": "8c176b4b2b8c7eefeebcef95238e0e47", "lon": -77.046061}, {"is_reserved": 0, "fusion_lon": 0.0, "fusion_lat": 0.0, "name": "1fd3f633ae271c4485c5283eefc03aba", "type": "electric_scooter", "is_disabled": 0, "lat": 38.92675033333333, "rental_uris": {"android": "https://dc.lft.to/lastmile_qr_scan", "ios": "https://dc.lft.to/lastmile_qr_scan"}, "bike_id": "1fd3f633ae271c4485c5283eefc03aba", "lon": -77.04348}, {"is_reserved": 0, "fusion_lon": 0.0, "fusion_lat": 0.0, "name": "7e0bb689b1a360cd0a2556a36497764c", "type": "electric_bike", "is_disabled": 0, "lat": 38.8965585, "rental_uris": {"android": "https://dc.lft.to/lastmile_qr_scan", "ios": "https://dc.lft.to/lastmile_qr_scan"}, "bike_id": "7e0bb689b1a360cd0a2556a36497764c", "lon": -76.930025}, {"is_reserved": 0, "fusion_lon": 0.0, "fusion_lat": 0.0, "name": "aed645cbb29d369676354ca0c5154241", "type": "electric_scooter", "is_disabled": 0, "lat": 38.8861485, "rental_uris": {"android": "https://dc.lft.to/lastmile_qr_scan", "ios": "https://dc.lft.to/lastmile_qr_scan"}, "bike_id": "aed645cbb29d369676354ca0c5154241", "lon": -76.99510816666667}, {"is_reserved": 0, "fusion_lon": 0.0, "fusion_lat": 0.0, "name": "d74d312c6362b7edcee5cc74e5f91f49", "type": "electric_scooter", "is_disabled": 0, "lat": 38.91824183333333, "rental_uris": {"android": "https://dc.lft.to/lastmile_qr_scan", "ios": "https://dc.lft.to/lastmile_qr_scan"}, "bike_id": "d74d312c6362b7edcee5cc74e5f91f49", "lon": -77.0369145}, {"is_reserved": 0, "fusion_lon": 0.0, "fusion_lat": 0.0, "name": "bb645cbfd04e12fd1316915e270f4da0", "type": "electric_scooter", "is_disabled": 0, "lat": 38.903877, "rental_uris": {"android": "https://dc.lft.to/lastmile_qr_scan", "ios": "https://dc.lft.to/lastmile_qr_scan"}, "bike_id": "bb645cbfd04e12fd1316915e270f4da0", "lon": -77.04494666666666}, {"is_reserved": 0, "fusion_lon": 0.0, "fusion_lat": 0.0, "name": "595a1025813e46efd082372be8e577fa", "type": "electric_scooter", "is_disabled": 0, "lat": 38.9226755, "rental_uris": {"android": "https://dc.lft.to/lastmile_qr_scan", "ios": "https://dc.lft.to/lastmile_qr_scan"}, "bike_id": "595a1025813e46efd082372be8e577fa", "lon": -77.01824433333333}, {"is_reserved": 0, "fusion_lon": 0.0, "fusion_lat": 0.0, "name": "270b6e367aac6872e30bb90b417fe557", "type": "electric_scooter", "is_disabled": 0, "lat": 38.920079333333334, "rental_uris": {"android": "https://dc.lft.to/lastmile_qr_scan", "ios": "https://dc.lft.to/lastmile_qr_scan"}, "bike_id": "270b6e367aac6872e30bb90b417fe557", "lon": -77.04170483333333}, {"is_reserved": 0, "fusion_lon": 0.0, "fusion_lat": 0.0, "name": "82df7bb81357b291308d4f55d485d8d9", "type": "electric_scooter", "is_disabled": 0, "lat": 38.894772333333336, "rental_uris": {"android": "https://dc.lft.to/lastmile_qr_scan", "ios": "https://dc.lft.to/lastmile_qr_scan"}, "bike_id": "82df7bb81357b291308d4f55d485d8d9", "lon": -77.02236933333333}, {"is_reserved": 0, "fusion_lon": 0.0, "fusion_lat": 0.0, "name": "217bf9c2d04bd05a63a9e8dec638a1c9", "type": "electric_bike", "is_disabled": 0, "lat": 38.96962833333333, "rental_uris": {"android": "https://dc.lft.to/lastmile_qr_scan", "ios": "https://dc.lft.to/lastmile_qr_scan"}, "bike_id": "217bf9c2d04bd05a63a9e8dec638a1c9", "lon": -76.957515}, {"is_reserved": 0, "fusion_lon": 0.0, "fusion_lat": 0.0, "name": "ed76c0144be556e2b9b9c874e8f227e1", "type": "electric_scooter", "is_disabled": 0, "lat": 38.917368333333336, "rental_uris": {"android": "https://dc.lft.to/lastmile_qr_scan", "ios": "https://dc.lft.to/lastmile_qr_scan"}, "bike_id": "ed76c0144be556e2b9b9c874e8f227e1", "lon": -77.03639483333333}, {"is_reserved": 0, "fusion_lon": 0.0, "fusion_lat": 0.0, "name": "329d8a8f432740611c58f75f5825f57b", "type": "electric_scooter", "is_disabled": 0, "lat": 38.9049865, "rental_uris": {"android": "https://dc.lft.to/lastmile_qr_scan", "ios": "https://dc.lft.to/lastmile_qr_scan"}, "bike_id": "329d8a8f432740611c58f75f5825f57b", "lon": -77.0466075}, {"is_reserved": 0, "fusion_lon": 0.0, "fusion_lat": 0.0, "name": "d736d95bd9a1497d332a752fc16a666a", "type": "electric_scooter", "is_disabled": 0, "lat": 38.92185833333333, "rental_uris": {"android": "https://dc.lft.to/lastmile_qr_scan", "ios": "https://dc.lft.to/lastmile_qr_scan"}, "bike_id": "d736d95bd9a1497d332a752fc16a666a", "lon": -77.026589}, {"is_reserved": 0, "fusion_lon": 0.0, "fusion_lat": 0.0, "name": "6e54e49ef1ba955f21a541c152ba4622", "type": "electric_scooter", "is_disabled": 0, "lat": 38.91698, "rental_uris": {"android": "https://dc.lft.to/lastmile_qr_scan", "ios": "https://dc.lft.to/lastmile_qr_scan"}, "bike_id": "6e54e49ef1ba955f21a541c152ba4622", "lon": -77.03762266666666}, {"is_reserved": 0, "fusion_lon": 0.0, "fusion_lat": 0.0, "name": "0337e6875f7914b5ebee62ea33d350ae", "type": "electric_scooter", "is_disabled": 0, "lat": 38.92513616666667, "rental_uris": {"android": "https://dc.lft.to/lastmile_qr_scan", "ios": "https://dc.lft.to/lastmile_qr_scan"}, "bike_id": "0337e6875f7914b5ebee62ea33d350ae", "lon": -77.0386735}, {"is_reserved": 0, "fusion_lon": 0.0, "fusion_lat": 0.0, "name": "5756dece75e349a63a09bd1e73c12400", "type": "electric_bike", "is_disabled": 0, "lat": 38.93815566666667, "rental_uris": {"android": "https://dc.lft.to/lastmile_qr_scan", "ios": "https://dc.lft.to/lastmile_qr_scan"}, "bike_id": "5756dece75e349a63a09bd1e73c12400", "lon": -77.06858683333333}, {"is_reserved": 0, "fusion_lon": 0.0, "fusion_lat": 0.0, "name": "a6db91c5670365aaecb76b039b6ffdfd", "type": "electric_scooter", "is_disabled": 0, "lat": 38.9309215, "rental_uris": {"android": "https://dc.lft.to/lastmile_qr_scan", "ios": "https://dc.lft.to/lastmile_qr_scan"}, "bike_id": "a6db91c5670365aaecb76b039b6ffdfd", "lon": -76.99609616666666}, {"is_reserved": 0, "fusion_lon": 0.0, "fusion_lat": 0.0, "name": "7bd58589fc26b5a21c308ffe068e6754", "type": "electric_scooter", "is_disabled": 0, "lat": 38.876559666666665, "rental_uris": {"android": "https://dc.lft.to/lastmile_qr_scan", "ios": "https://dc.lft.to/lastmile_qr_scan"}, "bike_id": "7bd58589fc26b5a21c308ffe068e6754", "lon": -77.0194}, {"is_reserved": 0, "fusion_lon": 0.0, "fusion_lat": 0.0, "name": "e3ec4b579425f492a151fbd271489389", "type": "electric_scooter", "is_disabled": 0, "lat": 38.9247765, "rental_uris": {"android": "https://dc.lft.to/lastmile_qr_scan", "ios": "https://dc.lft.to/lastmile_qr_scan"}, "bike_id": "e3ec4b579425f492a151fbd271489389", "lon": -77.03911833333333}, {"is_reserved": 0, "fusion_lon": 0.0, "fusion_lat": 0.0, "name": "4964cfa58149719d3c126d7d48cd04e0", "type": "electric_scooter", "is_disabled": 0, "lat": 38.906682333333336, "rental_uris": {"android": "https://dc.lft.to/lastmile_qr_scan", "ios": "https://dc.lft.to/lastmile_qr_scan"}, "bike_id": "4964cfa58149719d3c126d7d48cd04e0", "lon": -77.00613383333334}, {"is_reserved": 0, "fusion_lon": 0.0, "fusion_lat": 0.0, "name": "c90f75c7acc119d2ebaf76373cd9c96c", "type": "electric_bike", "is_disabled": 0, "lat": 38.92896016666667, "rental_uris": {"android": "https://dc.lft.to/lastmile_qr_scan", "ios": "https://dc.lft.to/lastmile_qr_scan"}, "bike_id": "c90f75c7acc119d2ebaf76373cd9c96c", "lon": -77.08400416666667}, {"is_reserved": 0, "fusion_lon": 0.0, "fusion_lat": 0.0, "name": "3513f2d4f89379b07215ecceab6d1159", "type": "electric_scooter", "is_disabled": 0, "lat": 38.920483, "rental_uris": {"android": "https://dc.lft.to/lastmile_qr_scan", "ios": "https://dc.lft.to/lastmile_qr_scan"}, "bike_id": "3513f2d4f89379b07215ecceab6d1159", "lon": -77.02198116666666}, {"is_reserved": 0, "fusion_lon": 0.0, "fusion_lat": 0.0, "name": "3578d40e2a0b65d41123600765a94404", "type": "electric_scooter", "is_disabled": 0, "lat": 38.967849666666666, "rental_uris": {"android": "https://dc.lft.to/lastmile_qr_scan", "ios": "https://dc.lft.to/lastmile_qr_scan"}, "bike_id": "3578d40e2a0b65d41123600765a94404", "lon": -77.01511733333334}, {"is_reserved": 0, "fusion_lon": 0.0, "fusion_lat": 0.0, "name": "a0ecf49eef01e0fe4cca67b92cde0ff3", "type": "electric_scooter", "is_disabled": 0, "lat": 38.8950655, "rental_uris": {"android": "https://dc.lft.to/lastmile_qr_scan", "ios": "https://dc.lft.to/lastmile_qr_scan"}, "bike_id": "a0ecf49eef01e0fe4cca67b92cde0ff3", "lon": -77.027423}, {"is_reserved": 0, "fusion_lon": 0.0, "fusion_lat": 0.0, "name": "25dcffa4d51c080f7091f4196ba317e7", "type": "electric_scooter", "is_disabled": 0, "lat": 38.892417333333334, "rental_uris": {"android": "https://dc.lft.to/lastmile_qr_scan", "ios": "https://dc.lft.to/lastmile_qr_scan"}, "bike_id": "25dcffa4d51c080f7091f4196ba317e7", "lon": -77.03210666666666}, {"is_reserved": 0, "fusion_lon": 0.0, "fusion_lat": 0.0, "name": "a00049ed0b6ce6544087af6d20ad1bb5", "type": "electric_scooter", "is_disabled": 0, "lat": 38.9188985, "rental_uris": {"android": "https://dc.lft.to/lastmile_qr_scan", "ios": "https://dc.lft.to/lastmile_qr_scan"}, "bike_id": "a00049ed0b6ce6544087af6d20ad1bb5", "lon": -77.0482475}, {"is_reserved": 0, "fusion_lon": 0.0, "fusion_lat": 0.0, "name": "e54993f495862092a21a4ebb3a1ed22e", "type": "electric_scooter", "is_disabled": 0, "lat": 38.90574616666667, "rental_uris": {"android": "https://dc.lft.to/lastmile_qr_scan", "ios": "https://dc.lft.to/lastmile_qr_scan"}, "bike_id": "e54993f495862092a21a4ebb3a1ed22e", "lon": -77.02510333333333}, {"is_reserved": 0, "fusion_lon": 0.0, "fusion_lat": 0.0, "name": "55f27f0854d9dcfb39a3c69e92ea06fc", "type": "electric_scooter", "is_disabled": 0, "lat": 38.893524166666666, "rental_uris": {"android": "https://dc.lft.to/lastmile_qr_scan", "ios": "https://dc.lft.to/lastmile_qr_scan"}, "bike_id": "55f27f0854d9dcfb39a3c69e92ea06fc", "lon": -77.01725616666667}, {"is_reserved": 0, "fusion_lon": 0.0, "fusion_lat": 0.0, "name": "ef8e769d8fec17103736da4b2ff7e995", "type": "electric_scooter", "is_disabled": 0, "lat": 38.90043583333333, "rental_uris": {"android": "https://dc.lft.to/lastmile_qr_scan", "ios": "https://dc.lft.to/lastmile_qr_scan"}, "bike_id": "ef8e769d8fec17103736da4b2ff7e995", "lon": -76.99628283333334}, {"is_reserved": 0, "fusion_lon": 0.0, "fusion_lat": 0.0, "name": "63c0ce753a2e628e7512d9db690eae92", "type": "electric_scooter", "is_disabled": 0, "lat": 38.906519333333335, "rental_uris": {"android": "https://dc.lft.to/lastmile_qr_scan", "ios": "https://dc.lft.to/lastmile_qr_scan"}, "bike_id": "63c0ce753a2e628e7512d9db690eae92", "lon": -77.04672066666667}, {"is_reserved": 0, "fusion_lon": 0.0, "fusion_lat": 0.0, "name": "4e17a601debb27049bbf472ea5e2867c", "type": "electric_scooter", "is_disabled": 0, "lat": 38.911238833333336, "rental_uris": {"android": "https://dc.lft.to/lastmile_qr_scan", "ios": "https://dc.lft.to/lastmile_qr_scan"}, "bike_id": "4e17a601debb27049bbf472ea5e2867c", "lon": -77.031487}, {"is_reserved": 0, "fusion_lon": 0.0, "fusion_lat": 0.0, "name": "ff0e026c903e1886336d2967e95ddb70", "type": "electric_scooter", "is_disabled": 0, "lat": 38.900842833333336, "rental_uris": {"android": "https://dc.lft.to/lastmile_qr_scan", "ios": "https://dc.lft.to/lastmile_qr_scan"}, "bike_id": "ff0e026c903e1886336d2967e95ddb70", "lon": -77.04876083333333},