{"data": {"bikes": [{"fusion_lat": 0.0, "lon": -77.0232855, "is_reserved": 0, "bike_id": "50909aa309864fca645cc63aaeddc987", "fusion_lon": 0.0, "rental_uris": {"android": "https://dc.lft.to/lastmile_qr_scan", "ios": "https://dc.lft.to/lastmile_qr_scan"}, "name": "50909aa309864fca645cc63aaeddc987", "type": "electric_scooter", "lat": 38.92473583333334, "is_disabled": 0}, {"fusion_lat": 0.0, "lon": -77.04040033333334, "is_reserved": 0, "bike_id": "af82551175a6e942804bb994c57e47cc", "fusion_lon": 0.0, "rental_uris": {"android": "https://dc.lft.to/lastmile_qr_scan", "ios": "https://dc.lft.to/lastmile_qr_scan"}, "name": "af82551175a6e942804bb994c57e47cc", "type": "electric_scooter", "lat": 38.9186265, "is_disabled": 0}, {"fusion_lat": 0.0, "lon": -77.048674, "is_reserved": 0, "bike_id": "f92bfe4242e5894cd6d785889e2f13eb", "fusion_lon": 0.0, "rental_uris": {"android": "https://dc.lft.to/lastmile_qr_scan", "ios": "https://dc.lft.to/lastmile_qr_scan"}, "name": "f92bfe4242e5894cd6d785889e2f13eb", "type": "electric_scooter", "lat": 38.90973816666666, "is_disabled": 0}, {"fusion_lat": 0.0, "lon": -76.98755116666666, "is_reserved": 0, "bike_id": "d1edc0cf1f34acd95ca30da1fcf617fd", "fusion_lon": 0.0, "rental_uris": {"android": "https://dc.lft.to/lastmile_qr_scan", "ios": "https://dc.lft.to/lastmile_qr_scan"}, "name": "d1edc0cf1f34acd95ca30da1fcf617fd", "type": "electric_bike", "lat": 38.8576595, "is_disabled": 0}, {"fusion_lat": 0.0, "lon": -77.0343015, "is_reserved": 0, "bike_id": "5f7424118d87621258a2999bebe255f0", "fusion_lon": 0.0, "rental_uris": {"android": "https://dc.lft.to/lastmile_qr_scan", "ios": "https://dc.lft.to/lastmile_qr_scan"}, "name": "5f7424118d87621258a2999bebe255f0", "type": "electric_bike", "lat": 38.96624666666666, "is_disabled": 0}, {"fusion_lat": 0.0, "lon": -77.04189233333334, "is_reserved": 0, "bike_id": "ee747d09b5f76ee401ac4fb0531c9f81", "fusion_lon": 0.0, "rental_uris": {"android": "https://dc.lft.to/lastmile_qr_scan", "ios": "https://dc.lft.to/lastmile_qr_scan"}, "name": "ee747d09b5f76ee401ac4fb0531c9f81", "type": "electric_scooter", "lat": 38.906645166666664, "is_disabled": 0}, {"fusion_lat": 0.0, "lon": -77.04864116666667, "is_reserved": 0, "bike_id": "3408104393f6f8e2e1369ea281629998", "fusion_lon": 0.0, "rental_uris": {"android": "https://dc.lft.to/lastmile_qr_scan", "ios": "https://dc.lft.to/lastmile_qr_scan"}, "name": "3408104393f6f8e2e1369ea281629998", "type": "electric_scooter", "lat": 38.9156425, "is_disabled": 0}, {"fusion_lat": 0.0, "lon": -77.07352066666667, "is_reserved": 0, "bike_id": "6f7d8721bc228b20664bca71aaf195c3", "fusion_lon": 0.0, "rental_uris": {"android": "https://dc.lft.to/lastmile_qr_scan", "ios": "https://dc.lft.to/lastmile_qr_scan"}, "name": "6f7d8721bc228b20664bca71aaf195c3", "type": "electric_scooter", "lat": 38.933544166666664, "is_disabled": 0}, {"fusion_lat": 0.0, "lon": -77.02901683333333, "is_reserved": 0, "bike_id": "4e628b09f2fb5266c87b69b87df19e78", "fusion_lon": 0.0, "rental_uris": {"android": "https://dc.lft.to/lastmile_qr_scan", "ios": "https://dc.lft.to/lastmile_qr_scan"}, "name": "4e628b09f2fb5266c87b69b87df19e78", "type": "electric_scooter", "lat": 39.0375255, "is_disabled": 0}, {"fusion_lat": 0.0, "lon": -77.00680266666667, "is_reserved": 0, "bike_id": "ef1128a85d81bd11f25f2c6064dc80eb", "fusion_lon": 0.0, "rental_uris": {"android": "https://dc.lft.to/lastmile_qr_scan", "ios": "https://dc.lft.to/lastmile_qr_scan"}, "name": "ef1128a85d81bd11f25f2c6064dc80eb", "type": "electric_scooter", "lat": 38.90012316666667, "is_disabled": 0}, {"fusion_lat": 0.0, "lon": -76.97419016666667, "is_reserved": 0, "bike_id": "0f48d1f6ac425c373e142d5b22e9d664", "fusion_lon": 0.0, "rental_uris": {"android": "https://dc.lft.to/lastmile_qr_scan", "ios": "https://dc.lft.to/lastmile_qr_scan"}, "name": "0f48d1f6ac425c373e142d5b22e9d664", "type": "electric_scooter", "lat": 38.904442, "is_disabled": 0}, {"fusion_lat": 0.0, "lon": -77.02811083333333, "is_reserved": 0, "bike_id": "6421ceb88b3fe430ca0e6ddea35a7405", "fusion_lon": 0.0, "rental_uris": {"android": "https://dc.lft.to/lastmile_qr_scan", "ios": "https://dc.lft.to/lastmile_qr_scan"}, "name": "6421ceb88b3fe430ca0e6ddea35a7405", "type": "electric_scooter", "lat": 38.895106166666665, "is_disabled": 0}, {"fusion_lat": 0.0, "lon": -76.97474116666666, "is_reserved": 0, "bike_id": "22fea879eebeb664158a94f829fd0a6e", "fusion_lon": 0.0, "rental_uris": {"android": "https://dc.lft.to/lastmile_qr_scan", "ios": "https://dc.lft.to/lastmile_qr_scan"}, "name": "22fea879eebeb664158a94f829fd0a6e", "type": "electric_scooter", "lat": 38.90350466666666, "is_disabled": 0}, {"fusion_lat": 0.0, "lon": -77.08068916666667, "is_reserved": 0, "bike_id": "32619c86b583f6f43d5e350e1e68b0cb", "fusion_lon": 0.0, "rental_uris": {"android": "https://dc.lft.to/lastmile_qr_scan", "ios": "https://dc.lft.to/lastmile_qr_scan"}, "name": "32619c86b583f6f43d5e350e1e68b0cb", "type": "electric_bike", "lat": 39.052795333333336, "is_disabled": 0}, {"fusion_lat": 0.0, "lon": -76.94874816666666, "is_reserved": 0, "bike_id": "7c3848fa1a66d5f0c35638d5963cbb92", "fusion_lon": 0.0, "rental_uris": {"android": "https://dc.lft.to/lastmile_qr_scan", "ios": "https://dc.lft.to/lastmile_qr_scan"}, "name": "7c3848fa1a66d5f0c35638d5963cbb92", "type": "electric_scooter", "lat": 38.89554583333334, "is_disabled": 0}, {"fusion_lat": 0.0, "lon": -77.002118, "is_reserved": 0, "bike_id": "b462debfa6d0427255c69e363b721ecf", "fusion_lon": 0.0, "rental_uris": {"android": "https://dc.lft.to/lastmile_qr_scan", "ios": "https://dc.lft.to/lastmile_qr_scan"}, "name": "b462debfa6d0427255c69e363b721ecf", "type": "electric_scooter", "lat": 38.90026616666667, "is_disabled": 0}, {"fusion_lat": 0.0, "lon": -76.99067733333334, "is_reserved": 0, "bike_id": "fb21c3bc2f47aefd5a448ee55c468ae5", "fusion_lon": 0.0, "rental_uris": {"android": "https://dc.lft.to/lastmile_qr_scan", "ios": "https://dc.lft.to/lastmile_qr_scan"}, "name": "fb21c3bc2f47aefd5a448ee55c468ae5", "type": "electric_scooter", "lat": 38.8636665, "is_disabled": 0}, {"fusion_lat": 0.0, "lon": -76.98727933333333, "is_reserved": 0, "bike_id": "5286101e6372e0041ca01a9e3c127eb5", "fusion_lon": 0.0, "rental_uris": {"android": "https://dc.lft.to/lastmile_qr_scan", "ios": "https://dc.lft.to/lastmile_qr_scan"}, "name": "5286101e6372e0041ca01a9e3c127eb5", "type": "electric_scooter", "lat": 38.866856, "is_disabled": 0}, {"fusion_lat": 0.0, "lon": -77.03860166666666, "is_reserved": 0, "bike_id": "f3c4f7ccaa6add0e16b7a7025e69089d", "fusion_lon": 0.0, "rental_uris": {"android": "https://dc.lft.to/lastmile_qr_scan", "ios": "https://dc.lft.to/lastmile_qr_scan"}, "name": "f3c4f7ccaa6add0e16b7a7025e69089d", "type": "electric_scooter", "lat": 38.944965333333336, "is_disabled": 0}, {"fusion_lat": 0.0, "lon": -77.00738466666667, "is_reserved": 0, "bike_id": "e36e67bc45ce4bcda7e31d9a01564e27", "fusion_lon": 0.0, "rental_uris": {"android": "https://dc.lft.to/lastmile_qr_scan", "ios": "https://dc.lft.to/lastmile_qr_scan"}, "name": "e36e67bc45ce4bcda7e31d9a01564e27", "type": "electric_scooter", "lat": 38.876493333333336, "is_disabled": 0}, {"fusion_lat": 0.0, "lon": -77.07004733333333, "is_reserved": 0, "bike_id": "c676c8e3f706844bdade0ec8e387a20b", "fusion_lon": 0.0, "rental_uris": {"android": "https://dc.lft.to/lastmile_qr_scan", "ios": "https://dc.lft.to/lastmile_qr_scan"}, "name": "c676c8e3f706844bdade0ec8e387a20b", "type": "electric_scooter", "lat": 38.9584775, "is_disabled": 0}, {"fusion_lat": 0.0, "lon": -77.04665016666667, "is_reserved": 0, "bike_id": "227cf2825ed5175b3801ea6ca7674555", "fusion_lon": 0.0, "rental_uris": {"android": "https://dc.lft.to/lastmile_qr_scan", "ios": "https://dc.lft.to/lastmile_qr_scan"}, "name": "227cf2825ed5175b3801ea6ca7674555", "type": "electric_scooter", "lat": 38.896649333333336, "is_disabled": 0}, {"fusion_lat": 0.0, "lon": -76.99707483333333, "is_reserved": 0, "bike_id": "824e02330c5a16865668ba287ac3805a", "fusion_lon": 0.0, "rental_uris": {"android": "https://dc.lft.to/lastmile_qr_scan", "ios": "https://dc.lft.to/lastmile_qr_scan"}, "name": "824e02330c5a16865668ba287ac3805a", "type": "electric_scooter", "lat": 38.90776783333333, "is_disabled": 0}, {"fusion_lat": 0.0, "lon": -76.9501965, "is_reserved": 0, "bike_id": "2a8f54e8eba79ea16512d41813c20018", "fusion_lon": 0.0, "rental_uris": {"android": "https://dc.lft.to/lastmile_qr_scan", "ios": "https://dc.lft.to/lastmile_qr_scan"}, "name": "2a8f54e8eba79ea16512d41813c20018", "type": "electric_scooter", "lat": 38.8938705, "is_disabled": 0}, {"fusion_lat": 0.0, "lon": -77.0328455, "is_reserved": 0, "bike_id": "bc01ae7db96adc15400255ac3b8b3633", "fusion_lon": 0.0, "rental_uris": {"android": "https://dc.lft.to/lastmile_qr_scan", "ios": "https://dc.lft.to/lastmile_qr_scan"}, "name": "bc01ae7db96adc15400255ac3b8b3633", "type": "electric_scooter", "lat": 38.91039266666667, "is_disabled": 0}, {"fusion_lat": 0.0, "lon": -77.04308866666666, "is_reserved": 0, "bike_id": "a450bdfdeb8f7437ed90332d3b162630", "fusion_lon": 0.0, "rental_uris": {"android": "https://dc.lft.to/lastmile_qr_scan", "ios": "https://dc.lft.to/lastmile_qr_scan"}, "name": "a450bdfdeb8f7437ed90332d3b162630", "type": "electric_scooter", "lat": 38.918833166666666, "is_disabled": 0}, {"fusion_lat": 0.0, "lon": -76.98527316666667, "is_reserved": 0, "bike_id": "786e9aecde12872b3186d47bc2fcd77f", "fusion_lon": 0.0, "rental_uris": {"android": "https://dc.lft.to/lastmile_qr_scan", "ios": "https://dc.lft.to/lastmile_qr_scan"}, "name": "786e9aecde12872b3186d47bc2fcd77f", "type": "electric_scooter", "lat": 38.85360766666667, "is_disabled": 0}, {"fusion_lat": 0.0, "lon": -77.04328466666666, "is_reserved": 0, "bike_id": "89e5a2787e77389de5e636d606063847", "fusion_lon": 0.0, "rental_uris": {"android": "https://dc.lft.to/lastmile_qr_scan", "ios": "https://dc.lft.to/lastmile_qr_scan"}, "name": "89e5a2787e77389de5e636d606063847", "type": "electric_scooter", "lat": 38.89221633333333, "is_disabled": 0}, {"fusion_lat": 0.0, "lon": -76.97300333333334, "is_reserved": 0, "bike_id": "dd84485f2cf9b742bf84bf6ed3bef2d3", "fusion_lon": 0.0, "rental_uris": {"android": "https://dc.lft.to/lastmile_qr_scan", "ios": "https://dc.lft.to/lastmile_qr_scan"}, "name": "dd84485f2cf9b742bf84bf6ed3bef2d3", "type": "electric_bike", "lat": 38.91644933333333, "is_disabled": 0}, {"fusion_lat": 0.0, "lon": -77.04618416666666, "is_reserved": 0, "bike_id": "dd4f8bf49a2635ad48a3e0a9fc289f0f", "fusion_lon": 0.0, "rental_uris": {"android": "https://dc.lft.to/lastmile_qr_scan", "ios": "https://dc.lft.to/lastmile_qr_scan"}, "name": "dd4f8bf49a2635ad48a3e0a9fc289f0f", "type": "electric_scooter", "lat": 38.923165, "is_disabled": 0}, {"fusion_lat": 0.0, "lon": -77.00890333333334, "is_reserved": 0, "bike_id": "94a26bf000884418874bc2bd8ed2c817", "fusion_lon": 0.0, "rental_uris": {"android": "https://dc.lft.to/lastmile_qr_scan", "ios": "https://dc.lft.to/lastmile_qr_scan"}, "name": "94a26bf000884418874bc2bd8ed2c817", "type": "electric_scooter", "lat": 38.922746333333336, "is_disabled": 0}, {"fusion_lat": 0.0, "lon": -77.0335355, "is_reserved": 0, "bike_id": "55c4d42c4269bce21b3c21089a410a95", "fusion_lon": 0.0, "rental_uris": {"android": "https://dc.lft.to/lastmile_qr_scan", "ios": "https://dc.lft.to/lastmile_qr_scan"}, "name": "55c4d42c4269bce21b3c21089a410a95", "type": "electric_scooter", "lat": 38.916872166666664, "is_disabled": 0}, {"fusion_lat": 0.0, "lon": -77.23318883333333, "is_reserved": 0, "bike_id": "6963b8e3a58e1f05853e3388cec99521", "fusion_lon": 0.0, "rental_uris": {"android": "https://dc.lft.to/lastmile_qr_scan", "ios": "https://dc.lft.to/lastmile_qr_scan"}, "name": "6963b8e3a58e1f05853e3388cec99521", "type": "electric_bike", "lat": 38.87286116666667, "is_disabled": 0}, {"fusion_lat": 0.0, "lon": -76.93748383333333, "is_reserved": 0, "bike_id": "eff6f7d3ecbe71ee6f648794c55cbb1c", "fusion_lon": 0.0, "rental_uris": {"android": "https://dc.lft.to/lastmile_qr_scan", "ios": "https://dc.lft.to/lastmile_qr_scan"}, "name": "eff6f7d3ecbe71ee6f648794c55cbb1c", "type": "electric_scooter", "lat": 38.8904305, "is_disabled": 0}, {"fusion_lat": 0.0, "lon": -77.02127233333333, "is_reserved": 0, "bike_id": "05ff04f04aa884581c964d0b168caec0", "fusion_lon": 0.0, "rental_uris": {"android": "https://dc.lft.to/lastmile_qr_scan", "ios": "https://dc.lft.to/lastmile_qr_scan"}, "name": "05ff04f04aa884581c964d0b168caec0", "type": "electric_scooter", "lat": 38.92413666666667, "is_disabled": 0}, {"fusion_lat": 0.0, "lon": -77.02887616666666, "is_reserved": 0, "bike_id": "4abc759398fcc909e51a4fd03aa273ad", "fusion_lon": 0.0, "rental_uris": {"android": "https://dc.lft.to/lastmile_qr_scan", "ios": "https://dc.lft.to/lastmile_qr_scan"}, "name": "4abc759398fcc909e51a4fd03aa273ad", "type": "electric_scooter", "lat": 38.90423666666667, "is_disabled": 0}, {"fusion_lat": 0.0, "lon": -77.04481216666667, "is_reserved": 0, "bike_id": "861bd6014f4fdc52356461247994b4e4", "fusion_lon": 0.0, "rental_uris": {"android": "https://dc.lft.to/lastmile_qr_scan", "ios": "https://dc.lft.to/lastmile_qr_scan"}, "name": "861bd6014f4fdc52356461247994b4e4", "type": "electric_scooter", "lat": 38.92422116666667, "is_disabled": 0}, {"fusion_lat": 0.0, "lon": -77.02198883333334, "is_reserved": 0, "bike_id": "71804dbcf5f40fa1f988839f72250b1e", "fusion_lon": 0.0, "rental_uris": {"android": "https://dc.lft.to/lastmile_qr_scan", "ios": "https://dc.lft.to/lastmile_qr_scan"}, "name": "71804dbcf5f40fa1f988839f72250b1e", "type": "electric_scooter", "lat": 38.9096355, "is_disabled": 0}, {"fusion_lat": 0.0, "lon": -77.03049083333333, "is_reserved": 0, "bike_id": "1f4315f3e2836a6768d88d323ed9a77d", "fusion_lon": 0.0, "rental_uris": {"android": "https://dc.lft.to/lastmile_qr_scan", "ios": "https://dc.lft.to/lastmile_qr_scan"}, "name": "1f4315f3e2836a6768d88d323ed9a77d", "type": "electric_scooter", "lat": 38.90512416666667, "is_disabled": 0}, {"fusion_lat": 0.0, "lon": -77.02949133333334, "is_reserved": 0, "bike_id": "aac84933aca1db0e6423424cf0c9fa4f", "fusion_lon": 0.0, "rental_uris": {"android": "https://dc.lft.to/lastmile_qr_scan", "ios": "https://dc.lft.to/lastmile_qr_scan"}, "name": "aac84933aca1db0e6423424cf0c9fa4f", "type": "electric_scooter", "lat": 38.916846166666666, "is_disabled": 0}, {"fusion_lat": 0.0, "lon": -77.044955, "is_reserved": 0, "bike_id": "8e31a77040a56978023da5005354a68f", "fusion_lon": 0.0, "rental_uris": {"android": "https://dc.lft.to/lastmile_qr_scan", "ios": "https://dc.lft.to/lastmile_qr_scan"}, "name": "8e31a77040a56978023da5005354a68f", "type": "electric_scooter", "lat": 38.90496516666666, "is_disabled": 0}, {"fusion_lat": 0.0, "lon": -77.0803625, "is_reserved": 0, "bike_id": "d579ffb8c50fb31c19764b13de4feefd", "fusion_lon": 0.0, "rental_uris": {"android": "https://dc.lft.to/lastmile_qr_scan", "ios": "https://dc.lft.to/lastmile_qr_scan"}, "name": "d579ffb8c50fb31c19764b13de4feefd", "type": "electric_scooter", "lat": 38.923812166666664, "is_disabled": 0}, {"fusion_lat": 0.0, "lon": -77.04225333333333, "is_reserved": 0, "bike_id": "348b5802f1fca0fb431e904892771ccc", "fusion_lon": 0.0, "rental_uris": {"android": "https://dc.lft.to/lastmile_qr_scan", "ios": "https://dc.lft.to/lastmile_qr_scan"}, "name": "348b5802f1fca0fb431e904892771ccc", "type": "electric_scooter", "lat": 38.92154566666667, "is_disabled": 0}, {"fusion_lat": 0.0, "lon": -76.98011833333334, "is_reserved": 0, "bike_id": "ed2953abd5cf9c93cceb1ad70a47d29e", "fusion_lon": 0.0, "rental_uris": {"android": "https://dc.lft.to/lastmile_qr_scan", "ios": "https://dc.lft.to/lastmile_qr_scan"}, "name": "ed2953abd5cf9c93cceb1ad70a47d29e", "type": "electric_scooter", "lat": 38.9028915, "is_disabled": 0}, {"fusion_lat": 0.0, "lon": -77.038801, "is_reserved": 0, "bike_id": "96117f09acc579361c2365929fe19a43", "fusion_lon": 0.0, "rental_uris": {"android": "https://dc.lft.to/lastmile_qr_scan", "ios": "https://dc.lft.to/lastmile_qr_scan"}, "name": "96117f09acc579361c2365929fe19a43", "type": "electric_scooter", "lat": 38.9146595, "is_disabled": 0}, {"fusion_lat": 0.0, "lon": -76.99880466666667, "is_reserved": 0, "bike_id": "3df1c7e73af2fcea3921fef9f3c4c939", "fusion_lon": 0.0, "rental_uris": {"android": "https://dc.lft.to/lastmile_qr_scan", "ios": "https://dc.lft.to/lastmile_qr_scan"}, "name": "3df1c7e73af2fcea3921fef9f3c4c939", "type": "electric_scooter", "lat": 38.90127733333333, "is_disabled": 0}, {"fusion_lat": 0.0, "lon": -77.02404983333334, "is_reserved": 0, "bike_id": "9078ad14a9ec0037242f3d49eb09f973", "fusion_lon": 0.0, "rental_uris": {"android": "https://dc.lft.to/lastmile_qr_scan", "ios": "https://dc.lft.to/lastmile_qr_scan"}, "name": "9078ad14a9ec0037242f3d49eb09f973", "type": "electric_bike", "lat": 38.89671466666667, "is_disabled": 0}, {"fusion_lat": 0.0, "lon": -77.03256183333333, "is_reserved": 0, "bike_id": "b292c7fed822665c0453a4ec911ff61e", "fusion_lon": 0.0, "rental_uris": {"android": "https://dc.lft.to/lastmile_qr_scan", "ios": "https://dc.lft.to/lastmile_qr_scan"}, "name": "b292c7fed822665c0453a4ec911ff61e", "type": "electric_scooter", "lat": 38.9325295, "is_disabled": 0}, {"fusion_lat": 0.0, "lon": -77.02899983333333, "is_reserved": 0, "bike_id": "dfa09f66ba901fc42e73f2d5266f09ee", "fusion_lon": 0.0, "rental_uris": {"android": "https://dc.lft.to/lastmile_qr_scan", "ios": "https://dc.lft.to/lastmile_qr_scan"}, "name": "dfa09f66ba901fc42e73f2d5266f09ee", "type": "electric_scooter", "lat": 38.92813866666667, "is_disabled": 0}, {"fusion_lat": 0.0, "lon": -77.0297455, "is_reserved": 0, "bike_id": "f106fc061705be893a2c0d5dade74f88", "fusion_lon": 0.0, "rental_uris": {"android": "https://dc.lft.to/lastmile_qr_scan", "ios": "https://dc.lft.to/lastmile_qr_scan"}, "name": "f106fc061705be893a2c0d5dade74f88", "type": "electric_scooter", "lat": 38.92954983333333, "is_disabled": 0}, {"fusion_lat": 0.0, "lon": -76.98547033333334, "is_reserved": 0, "bike_id": "69f6f318a08e5c02ac3c9e2253ac3027", "fusion_lon": 0.0, "rental_uris": {"android": "https://dc.lft.to/lastmile_qr_scan", "ios": "https://dc.lft.to/lastmile_qr_scan"}, "name": "69f6f318a08e5c02ac3c9e2253ac3027", "type": "electric_bike", "lat": 38.88190066666667, "is_disabled": 0}, {"fusion_lat": 0.0, "lon": -77.035113, "is_reserved": 0, "bike_id": "b45256caf6f42659991578014a986576", "fusion_lon": 0.0, "rental_uris": {"android": "https://dc.lft.to/lastmile_qr_scan", "ios": "https://dc.lft.to/lastmile_qr_scan"}, "name": "b45256caf6f42659991578014a986576", "type": "electric_scooter", "lat": 38.92200583333333, "is_disabled": 0}, {"fusion_lat": 0.0, "lon": -77.006, "is_reserved": 0, "bike_id": "80b230fef70c659d0b857e6be60e882f", "fusion_lon": 0.0, "rental_uris": {"android": "https://dc.lft.to/lastmile_qr_scan", "ios": "https://dc.lft.to/lastmile_qr_scan"}, "name": "80b230fef70c659d0b857e6be60e882f", "type": "electric_scooter", "lat": 38.905702833333336, "is_disabled": 0}, {"fusion_lat": 0.0, "lon": -77.02983933333333, "is_reserved": 0, "bike_id": "0eefaa62fdd2f90cd00b4010a22452bf", "fusion_lon": 0.0, "rental_uris": {"android": "https://dc.lft.to/lastmile_qr_scan", "ios": "https://dc.lft.to/lastmile_qr_scan"}, "name": "0eefaa62fdd2f90cd00b4010a22452bf", "type": "electric_bike", "lat": 38.924444666666666, "is_disabled": 0}, {"fusion_lat": 0.0, "lon": -77.11590283333334, "is_reserved": 0, "bike_id": "07018d273e5b803f508c10e359f01f86", "fusion_lon": 0.0, "rental_uris": {"android": "https://dc.lft.to/lastmile_qr_scan", "ios": "https://dc.lft.to/lastmile_qr_scan"}, "name": "07018d273e5b803f508c10e359f01f86", "type": "electric_bike", "lat": 39.0749515, "is_disabled": 0}, {"fusion_lat": 0.0, "lon": -77.01140683333334, "is_reserved": 0, "bike_id": "9fe9429da2c5b9063d04c6819f98a5b6", "fusion_lon": 0.0, "rental_uris": {"android": "https://dc.lft.to/lastmile_qr_scan", "ios": "https://dc.lft.to/lastmile_qr_scan"}, "name": "9fe9429da2c5b9063d04c6819f98a5b6", "type": "electric_scooter", "lat": 38.906519, "is_disabled": 0}, {"fusion_lat": 0.0, "lon": -77.02393366666666, "is_reserved": 0, "bike_id": "6b5f5e8dbe64085e2a871a225451303c", "fusion_lon": 0.0, "rental_uris": {"android": "https://dc.lft.to/lastmile_qr_scan", "ios": "https://dc.lft.to/lastmile_qr_scan"}, "name": "6b5f5e8dbe64085e2a871a225451303c", "type": "electric_scooter", "lat": 38.919932, "is_disabled": 0}, {"fusion_lat": 0.0, "lon": -77.04575066666666, "is_reserved": 0, "bike_id": "5c949f6e082ae8ed123e09656b0d87eb", "fusion_lon": 0.0, "rental_uris": {"android": "https://dc.lft.to/lastmile_qr_scan", "ios": "https://dc.lft.to/lastmile_qr_scan"}, "name": "5c949f6e082ae8ed123e09656b0d87eb", "type": "electric_scooter", "lat": 38.897357166666666, "is_disabled": 0}, {"fusion_lat": 0.0, "lon": -77.035524, "is_reserved": 0, "bike_id": "04c943c22b6098a043c93cb84c69edf9", "fusion_lon": 0.0, "rental_uris": {"android": "https://dc.lft.to/lastmile_qr_scan", "ios": "https://dc.lft.to/lastmile_qr_scan"}, "name": "04c943c22b6098a043c93cb84c69edf9", "type": "electric_scooter", "lat": 38.92857383333333, "is_disabled": 0}, {"fusion_lat": 0.0, "lon": -77.03955466666666, "is_reserved": 0, "bike_id": "089543abb1fc941fc47f940db93786b5", "fusion_lon": 0.0, "rental_uris": {"android": "https://dc.lft.to/lastmile_qr_scan", "ios": "https://dc.lft.to/lastmile_qr_scan"}, "name": "089543abb1fc941fc47f940db93786b5", "type": "electric_scooter", "lat": 38.911845, "is_disabled": 0}, {"fusion_lat": 0.0, "lon": -77.0115805, "is_reserved": 0, "bike_id": "307a23ea1f462dd15ce783088d9bb8c8", "fusion_lon": 0.0, "rental_uris": {"android": "https://dc.lft.to/lastmile_qr_scan", "ios": "https://dc.lft.to/lastmile_qr_scan"}, "name": "307a23ea1f462dd15ce783088d9bb8c8", "type": "electric_bike", "lat": 38.911492833333334, "is_disabled": 0}, {"fusion_lat": 0.0, "lon": -77.033336, "is_reserved": 0, "bike_id": "1395f12259f1aa7cde00cb6abfb46af7", "fusion_lon": 0.0, "rental_uris": {"android": "https://dc.lft.to/lastmile_qr_scan", "ios": "https://dc.lft.to/lastmile_qr_scan"}, "name": "1395f12259f1aa7cde00cb6abfb46af7", "type": "electric_scooter", "lat": 38.897207, "is_disabled": 0}, {"fusion_lat": 0.0, "lon": -77.11846583333333, "is_reserved": 0, "bike_id": "caf9f35d938588b9ac6dad3b8f5cd735", "fusion_lon": 0.0, "rental_uris": {"android": "https://dc.lft.to/lastmile_qr_scan", "ios": "https://dc.lft.to/lastmile_qr_scan"}, "name": "caf9f35d938588b9ac6dad3b8f5cd735", "type": "electric_bike", "lat": 38.877326833333335, "is_disabled": 0}, {"fusion_lat": 0.0, "lon": -77.00759866666667, "is_reserved": 0, "bike_id": "f0fff0e365fb1dd57b35d33abeb5c39c", "fusion_lon": 0.0, "rental_uris": {"android": "https://dc.lft.to/lastmile_qr_scan", "ios": "https://dc.lft.to/lastmile_qr_scan"}, "name": "f0fff0e365fb1dd57b35d33abeb5c39c", "type": "electric_scooter", "lat": 38.926746333333334, "is_disabled": 0}, {"fusion_lat": 0.0, "lon": -77.01310916666667, "is_reserved": 0, "bike_id": "31604b971eaa15a0541b8a1130762595", "fusion_lon": 0.0, "rental_uris": {"android": "https://dc.lft.to/lastmile_qr_scan", "ios": "https://dc.lft.to/lastmile_qr_scan"}, "name": "31604b971eaa15a0541b8a1130762595", "type": "electric_scooter", "lat": 38.870626666666666, "is_disabled": 0}, {"fusion_lat": 0.0, "lon": -77.04249616666667, "is_reserved": 0, "bike_id": "56bcebcd4e436d0ce6dbe941c53f1c1b", "fusion_lon": 0.0, "rental_uris": {"android": "https://dc.lft.to/lastmile_qr_scan", "ios": "https://dc.lft.to/lastmile_qr_scan"}, "name": "56bcebcd4e436d0ce6dbe941c53f1c1b", "type": "electric_scooter", "lat": 38.922432, "is_disabled": 0}, {"fusion_lat": 0.0, "lon": -77.0316385, "is_reserved": 0, "bike_id": "4987d9f3cacc7fea12b3bfb123d0c99d", "fusion_lon": 0.0, "rental_uris": {"android": "https://dc.lft.to/lastmile_qr_scan", "ios": "https://dc.lft.to/lastmile_qr_scan"}, "name": "4987d9f3cacc7fea12b3bfb123d0c99d", "type": "electric_scooter", "lat": 38.88772016666667, "is_disabled": 0}, {"fusion_lat": 0.0, "lon": -77.00198633333333, "is_reserved": 0, "bike_id": "02eecfa156dd86a37c07c232cb854c71", "fusion_lon": 0.0, "rental_uris": {"android": "https://dc.lft.to/lastmile_qr_scan", "ios": "https://dc.lft.to/lastmile_qr_scan"}, "name": "02eecfa156dd86a37c07c232cb854c71", "type": "electric_scooter", "lat": 38.902946666666665, "is_disabled": 0}, {"fusion_lat": 0.0, "lon": -77.03441233333334, "is_reserved": 0, "bike_id": "1854e0da0d45e1af69b8422ec14ac16b", "fusion_lon": 0.0, "rental_uris": {"android": "https://dc.lft.to/lastmile_qr_scan", "ios": "https://dc.lft.to/lastmile_qr_scan"}, "name": "1854e0da0d45e1af69b8422ec14ac16b", "type": "electric_scooter", "lat": 38.91006016666667, "is_disabled": 0}, {"fusion_lat": 0.0, "lon": -76.99784616666666, "is_reserved": 0, "bike_id": "03c992274381480adefd6978d324aaa8", "fusion_lon": 0.0, "rental_uris": {"android": "https://dc.lft.to/lastmile_qr_scan", "ios": "https://dc.lft.to/lastmile_qr_scan"}, "name": "03c992274381480adefd6978d324aaa8", "type": "electric_scooter", "lat": 38.890896833333336, "is_disabled": 0}, {"fusion_lat": 0.0, "lon": -76.99465616666667, "is_reserved": 0, "bike_id": "ea64b19857da7b77dcc15c0b57869499", "fusion_lon": 0.0, "rental_uris": {"android": "https://dc.lft.to/lastmile_qr_scan", "ios": "https://dc.lft.to/lastmile_qr_scan"}, "name": "ea64b19857da7b77dcc15c0b57869499", "type": "electric_scooter", "lat": 38.86225316666667, "is_disabled": 0}, {"fusion_lat": 0.0, "lon": -76.99644483333333, "is_reserved": 0, "bike_id": "1add9e61b1aa1327a8eca1dec962117a", "fusion_lon": 0.0, "rental_uris": {"android": "https://dc.lft.to/lastmile_qr_scan", "ios": "https://dc.lft.to/lastmile_qr_scan"}, "name": "1add9e61b1aa1327a8eca1dec962117a", "type": "electric_scooter", "lat": 38.88721966666667, "is_disabled": 0}, {"fusion_lat": 0.0, "lon": -76.98104483333333, "is_reserved": 0, "bike_id": "ad5566ac7fcff22cb8660e0152ab3ce4", "fusion_lon": 0.0, "rental_uris": {"android": "https://dc.lft.to/lastmile_qr_scan", "ios": "https://dc.lft.to/lastmile_qr_scan"}, "name": "ad5566ac7fcff22cb8660e0152ab3ce4", "type": "electric_bike", "lat": 38.87728516666667, "is_disabled": 0}, {"fusion_lat": 0.0, "lon": -77.00049733333333, "is_reserved": 0, "bike_id": "3eee68963c12d73afe25ec97bcae374a", "fusion_lon": 0.0, "rental_uris": {"android": "https://dc.lft.to/lastmile_qr_scan", "ios": "https://dc.lft.to/lastmile_qr_scan"}, "name": "3eee68963c12d73afe25ec97bcae374a", "type": "electric_scooter", "lat": 38.8916245, "is_disabled": 0}, {"fusion_lat": 0.0, "lon": -76.99351716666666, "is_reserved": 0, "bike_id": "5e35d0595ba2ee2759cbbc40ea5483aa", "fusion_lon": 0.0, "rental_uris": {"android": "https://dc.lft.to/lastmile_qr_scan", "ios": "https://dc.lft.to/lastmile_qr_scan"}, "name": "5e35d0595ba2ee2759cbbc40ea5483aa", "type": "electric_scooter", "lat": 38.914841, "is_disabled": 0}, {"fusion_lat": 0.0, "lon": -77.0432715, "is_reserved": 0, "bike_id": "dd320b984537147cd9085e4a78b0fcb8", "fusion_lon": 0.0, "rental_uris": {"android": "https://dc.lft.to/lastmile_qr_scan", "ios": "https://dc.lft.to/lastmile_qr_scan"}, "name": "dd320b984537147cd9085e4a78b0fcb8", "type": "electric_scooter", "lat": 38.90587583333333, "is_disabled": 0}, {"fusion_lat": 0.0, "lon": -77.05166583333333, "is_reserved": 0, "bike_id": "be20630d0c1d13ee8e9c8e908d70a8c8", "fusion_lon": 0.0, "rental_uris": {"android": "https://dc.lft.to/lastmile_qr_scan", "ios": "https://dc.lft.to/lastmile_qr_scan"}, "name": "be20630d0c1d13ee8e9c8e908d70a8c8", "type": "electric_scooter", "lat": 38.92407716666666, "is_disabled": 0}, {"fusion_lat": 0.0, "lon": -77.03553783333334, "is_reserved": 0, "bike_id": "26a101203abaa71dcdad9df1919ccf26", "fusion_lon": 0.0, "rental_uris": {"android": "https://dc.lft.to/lastmile_qr_scan", "ios": "https://dc.lft.to/lastmile_qr_scan"}, "name": "26a101203abaa71dcdad9df1919ccf26", "type": "electric_scooter", "lat": 38.918745, "is_disabled": 0}, {"fusion_lat": 0.0, "lon": -77.0264685, "is_reserved": 0, "bike_id": "a49fbc9c7d67803ef48397ff84b0b834", "fusion_lon": 0.0, "rental_uris": {"android": "https://dc.lft.to/lastmile_qr_scan", "ios": "https://dc.lft.to/lastmile_qr_scan"}, "name": "a49fbc9c7d67803ef48397ff84b0b834", "type": "electric_scooter", "lat": 38.93863966666667, "is_disabled": 0}, {"fusion_lat": 0.0, "lon": -77.005705, "is_reserved": 0, "bike_id": "a5f655dd9a0c2bec861056752a24168d", "fusion_lon": 0.0, "rental_uris": {"android": "https://dc.lft.to/lastmile_qr_scan", "ios": "https://dc.lft.to/lastmile_qr_scan"}, "name": "a5f655dd9a0c2bec861056752a24168d", "type": "electric_scooter", "lat": 38.9002155, "is_disabled": 0}, {"fusion_lat": 0.0, "lon": -77.01960416666667, "is_reserved": 0, "bike_id": "0b934e9bc6c3c00ca0ef77cbcfc610d6", "fusion_lon": 0.0, "rental_uris": {"android": "https://dc.lft.to/lastmile_qr_scan", "ios": "https://dc.lft.to/lastmile_qr_scan"}, "name": "0b934e9bc6c3c00ca0ef77cbcfc610d6", "type": "electric_scooter", "lat": 38.919866666666664, "is_disabled": 0}, {"fusion_lat": 0.0, "lon": -77.04031716666667, "is_reserved": 0, "bike_id": "1fd95cc9187ca9608b253ab2fd544e27", "fusion_lon": 0.0, "rental_uris": {"android": "https://dc.lft.to/lastmile_qr_scan", "ios": "https://dc.lft.to/lastmile_qr_scan"}, "name": "1fd95cc9187ca9608b253ab2fd544e27", "type": "electric_scooter", "lat": 38.917115, "is_disabled": 0}, {"fusion_lat": 0.0, "lon": -76.98550483333334, "is_reserved": 0, "bike_id": "cebbe82c6173bbf5cd74494fe3975cfc", "fusion_lon": 0.0, "rental_uris": {"android": "https://dc.lft.to/lastmile_qr_scan", "ios": "https://dc.lft.to/lastmile_qr_scan"}, "name": "cebbe82c6173bbf5cd74494fe3975cfc", "type": "electric_scooter", "lat": 38.91030466666667, "is_disabled": 0}, {"fusion_lat": 0.0, "lon": -77.03439783333333, "is_reserved": 0, "bike_id": "429c8e618368d4c0900fa74cd0f6d5c5", "fusion_lon": 0.0, "rental_uris": {"android": "https://dc.lft.to/lastmile_qr_scan", "ios": "https://dc.lft.to/lastmile_qr_scan"}, "name": "429c8e618368d4c0900fa74cd0f6d5c5", "type": "electric_scooter", "lat": 38.91009666666667, "is_disabled": 0}, {"fusion_lat": 0.0, "lon": -77.01595116666667, "is_reserved": 0, "bike_id": "4840b2ee16b1638a895eb4817c2556cf", "fusion_lon": 0.0, "rental_uris": {"android": "https://dc.lft.to/lastmile_qr_scan", "ios": "https://dc.lft.to/lastmile_qr_scan"}, "name": "4840b2ee16b1638a895eb4817c2556cf", "type": "electric_scooter", "lat": 38.94938533333333, "is_disabled": 0}, {"fusion_lat": 0.0, "lon": -77.03601983333333, "is_reserved": 0, "bike_id": "23db0d54b4e21955bdf9d071bc3c3f15", "fusion_lon": 0.0, "rental_uris": {"android": "https://dc.lft.to/lastmile_qr_scan", "ios": "https://dc.lft.to/lastmile_qr_scan"}, "name": "23db0d54b4e21955bdf9d071bc3c3f15", "type": "electric_scooter", "lat": 38.9232225, "is_disabled": 0}, {"fusion_lat": 0.0, "lon": -77.05246133333333, "is_reserved": 0, "bike_id": "ef303f0dea0bb420aec0d815c472ff09", "fusion_lon": 0.0, "rental_uris": {"android": "https://dc.lft.to/lastmile_qr_scan", "ios": "https://dc.lft.to/lastmile_qr_scan"}, "name": "ef303f0dea0bb420aec0d815c472ff09", "type": "electric_scooter", "lat": 38.923798, "is_disabled": 0}, {"fusion_lat": 0.0, "lon": -76.9877885, "is_reserved": 0, "bike_id": "e4e7fbc97eec036035b18ac13ef34095", "fusion_lon": 0.0, "rental_uris": {"android": "https://dc.lft.to/lastmile_qr_scan", "ios": "https://dc.lft.to/lastmile_qr_scan"}, "name": "e4e7fbc97eec036035b18ac13ef34095", "type": "electric_scooter", "lat": 38.902997166666665, "is_disabled": 0}, {"fusion_lat": 0.0, "lon": -77.07579016666666, "is_reserved": 0, "bike_id": "d6a353776109ad840a98730182f750fc", "fusion_lon": 0.0, "rental_uris": {"android": "https://dc.lft.to/lastmile_qr_scan", "ios": "https://dc.lft.to/lastmile_qr_scan"}, "name": "d6a353776109ad840a98730182f750fc", "type": "electric_scooter", "lat": 38.938632, "is_disabled": 0}, {"fusion_lat": 0.0, "lon": -76.99501683333334, "is_reserved": 0, "bike_id": "a5b016387d097b37ffdd078cc285a114", "fusion_lon": 0.0, "rental_uris": {"android": "https://dc.lft.to/lastmile_qr_scan", "ios": "https://dc.lft.to/lastmile_qr_scan"}, "name": "a5b016387d097b37ffdd078cc285a114", "type": "electric_scooter", "lat": 38.9097785, "is_disabled": 0}, {"fusion_lat": 0.0, "lon": -77.025322, "is_reserved": 0, "bike_id": "62e0e8f2245a2aa8e52a64cc8f2509c1", "fusion_lon": 0.0, "rental_uris": {"android": "https://dc.lft.to/lastmile_qr_scan", "ios": "https://dc.lft.to/lastmile_qr_scan"}, "name": "62e0e8f2245a2aa8e52a64cc8f2509c1", "type": "electric_scooter", "lat": 38.927469333333335, "is_disabled": 0}, {"fusion_lat": 0.0, "lon": -77.01211166666667, "is_reserved": 0, "bike_id": "d8a37de98cc50c5ecd45a3ad98f37564", "fusion_lon": 0.0, "rental_uris": {"android": "https://dc.lft.to/lastmile_qr_scan", "ios": "https://dc.lft.to/lastmile_qr_scan"}, "name": "d8a37de98cc50c5ecd45a3ad98f37564", "type": "electric_scooter", "lat": 38.921191, "is_disabled": 0}, {"fusion_lat": 0.0, "lon": -77.0364005, "is_reserved": 0, "bike_id": "dafb7bc479828f739e5bb65eebc0b880", "fusion_lon": 0.0, "rental_uris": {"android": "https://dc.lft.to/lastmile_qr_scan", "ios": "https://dc.lft.to/lastmile_qr_scan"}, "name": "dafb7bc479828f739e5bb65eebc0b880", "type": "electric_scooter", "lat": 38.9226625, "is_disabled": 0}, {"fusion_lat": 0.0, "lon": -77.03486083333334, "is_reserved": 0, "bike_id": "5569cb6cf70d1fac653c589fcabaaf62", "fusion_lon": 0.0, "rental_uris": {"android": "https://dc.lft.to/lastmile_qr_scan", "ios": "https://dc.lft.to/lastmile_qr_scan"}, "name": "5569cb6cf70d1fac653c589fcabaaf62", "type": "electric_scooter", "lat": 38.921565666666666, "is_disabled": 0}, {"fusion_lat": 0.0, "lon": -77.02562266666666, "is_reserved": 0, "bike_id": "078c8b398b281faef3320458c0fccc72", "fusion_lon": 0.0, "rental_uris": {"android": "https://dc.lft.to/lastmile_qr_scan", "ios": "https://dc.lft.to/lastmile_qr_scan"}, "name": "078c8b398b281faef3320458c0fccc72", "type": "electric_scooter", "lat": 38.91414416666667, "is_disabled": 0}, {"fusion_lat": 0.0, "lon": -76.99231, "is_reserved": 0, "bike_id": "76ed083091e93287ecfab7fdd24ccfe4", "fusion_lon": 0.0, "rental_uris": {"android": "https://dc.lft.to/lastmile_qr_scan", "ios": "https://dc.lft.to/lastmile_qr_scan"}, "name": "76ed083091e93287ecfab7fdd24ccfe4", "type": "electric_bike", "lat": 38.938643166666665, "is_disabled": 0}, {"fusion_lat": 0.0, "lon": -77.00671416666667, "is_reserved": 0, "bike_id": "299b0267bad3af9130d14b4c941e26e5", "fusion_lon": 0.0, "rental_uris": {"android": "https://dc.lft.to/lastmile_qr_scan", "ios": "https://dc.lft.to/lastmile_qr_scan"}, "name": "299b0267bad3af9130d14b4c941e26e5", "type": "electric_scooter", "lat": 38.90013033333334, "is_disabled": 0}, {"fusion_lat": 0.0, "lon": -77.08586616666666, "is_reserved": 0, "bike_id": "5c54451af639a49572f78488939bc1d5", "fusion_lon": 0.0, "rental_uris": {"android": "https://dc.lft.to/lastmile_qr_scan", "ios": "https://dc.lft.to/lastmile_qr_scan"}, "name": "5c54451af639a49572f78488939bc1d5", "type": "electric_bike", "lat": 38.84437416666667, "is_disabled": 0}, {"fusion_lat": 0.0, "lon": -77.014464, "is_reserved": 0, "bike_id": "cbd4fcf310a7cead017d95ef0f6f2311", "fusion_lon": 0.0, "rental_uris": {"android": "https://dc.lft.to/lastmile_qr_scan", "ios": "https://dc.lft.to/lastmile_qr_scan"}, "name": "cbd4fcf310a7cead017d95ef0f6f2311", "type": "electric_bike", "lat": 38.8767455, "is_disabled": 0}, {"fusion_lat": 0.0, "lon": -76.97235683333334, "is_reserved": 0, "bike_id": "b18a56bd5b8f011c0ee53c9bb315db35", "fusion_lon": 0.0, "rental_uris": {"android": "https://dc.lft.to/lastmile_qr_scan", "ios": "https://dc.lft.to/lastmile_qr_scan"}, "name": "b18a56bd5b8f011c0ee53c9bb315db35", "type": "electric_bike", "lat": 38.94901683333333, "is_disabled": 0}, {"fusion_lat": 0.0, "lon": -77.02288516666667, "is_reserved": 0, "bike_id": "6bb1dbef18349c6605a10a372d8eac94", "fusion_lon": 0.0, "rental_uris": {"android": "https://dc.lft.to/lastmile_qr_scan", "ios": "https://dc.lft.to/lastmile_qr_scan"}, "name": "6bb1dbef18349c6605a10a372d8eac94", "type": "electric_scooter", "lat": 38.886371, "is_disabled": 0}, {"fusion_lat": 0.0, "lon": -77.05741183333333, "is_reserved": 0, "bike_id": "054de1f00a530a9ff03f945caacd662a", "fusion_lon": 0.0, "rental_uris": {"android": "https://dc.lft.to/lastmile_qr_scan", "ios": "https://dc.lft.to/lastmile_qr_scan"}, "name": "054de1f00a530a9ff03f945caacd662a", "type": "electric_scooter", "lat": 38.933902833333335, "is_disabled": 0}, {"fusion_lat": 0.0, "lon": -77.03439866666666, "is_reserved": 0, "bike_id": "228218202843a008f750edf8fa88174b", "fusion_lon": 0.0, "rental_uris": {"android": "https://dc.lft.to/lastmile_qr_scan", "ios": "https://dc.lft.to/lastmile_qr_scan"}, "name": "228218202843a008f750edf8fa88174b", "type": "electric_scooter", "lat": 38.9194355, "is_disabled": 0}, {"fusion_lat": 0.0, "lon": -76.9732125, "is_reserved": 0, "bike_id": "183cf98b45aeb7fd83f7f69844b7de54", "fusion_lon": 0.0, "rental_uris": {"android": "https://dc.lft.to/lastmile_qr_scan", "ios": "https://dc.lft.to/lastmile_qr_scan"}, "name": "183cf98b45aeb7fd83f7f69844b7de54", "type": "electric_scooter", "lat": 38.91770116666667, "is_disabled": 0}, {"fusion_lat": 0.0, "lon": -77.04303166666666, "is_reserved": 0, "bike_id": "13d5de9fe31f009a14b486157eb09b13", "fusion_lon": 0.0, "rental_uris": {"android": "https://dc.lft.to/lastmile_qr_scan", "ios": "https://dc.lft.to/lastmile_qr_scan"}, "name": "13d5de9fe31f009a14b486157eb09b13", "type": "electric_scooter", "lat": 38.92332233333333, "is_disabled": 0}, {"fusion_lat": 0.0, "lon": -77.02083316666666, "is_reserved": 0, "bike_id": "dca7832f10009a5bbbbb4e2464b769d7", "fusion_lon": 0.0, "rental_uris": {"android": "https://dc.lft.to/lastmile_qr_scan", "ios": "https://dc.lft.to/lastmile_qr_scan"}, "name": "dca7832f10009a5bbbbb4e2464b769d7", "type": "electric_scooter", "lat": 38.88188616666667, "is_disabled": 0}, {"fusion_lat": 0.0, "lon": -77.0144905, "is_reserved": 0, "bike_id": "0d450e2977c5bab089b0060ef38e5b9d", "fusion_lon": 0.0, "rental_uris": {"android": "https://dc.lft.to/lastmile_qr_scan", "ios": "https://dc.lft.to/lastmile_qr_scan"}, "name": "0d450e2977c5bab089b0060ef38e5b9d", "type": "electric_bike", "lat": 38.87675766666667, "is_disabled": 0}, {"fusion_lat": 0.0, "lon": -77.17844633333333, "is_reserved": 0, "bike_id": "ece81a42d86e049287625bd4a189f03d", "fusion_lon": 0.0, "rental_uris": {"android": "https://dc.lft.to/lastmile_qr_scan", "ios": "https://dc.lft.to/lastmile_qr_scan"}, "name": "ece81a42d86e049287625bd4a189f03d", "type": "electric_bike", "lat": 39.088541666666664, "is_disabled": 0}, {"fusion_lat": 0.0, "lon": -77.027226, "is_reserved": 0, "bike_id": "3e91b2cae20505be002dc0a0c1359acd", "fusion_lon": 0.0, "rental_uris": {"android": "https://dc.lft.to/lastmile_qr_scan", "ios": "https://dc.lft.to/lastmile_qr_scan"}, "name": "3e91b2cae20505be002dc0a0c1359acd", "type": "electric_scooter", "lat": 38.93543, "is_disabled": 0}, {"fusion_lat": 0.0, "lon": -77.03177416666666, "is_reserved": 0, "bike_id": "c214a256a0275ad68c4aca862ed0f202", "fusion_lon": 0.0, "rental_uris": {"android": "https://dc.lft.to/lastmile_qr_scan", "ios": "https://dc.lft.to/lastmile_qr_scan"}, "name": "c214a256a0275ad68c4aca862ed0f202", "type": "electric_scooter", "lat": 38.917866333333336, "is_disabled": 0}, {"fusion_lat": 0.0, "lon": -77.030741, "is_reserved": 0, "bike_id": "fa83251c4413e7bf4ade22ba5fdcf3cc", "fusion_lon": 0.0, "rental_uris": {"android": "https://dc.lft.to/lastmile_qr_scan", "ios": "https://dc.lft.to/lastmile_qr_scan"}, "name": "fa83251c4413e7bf4ade22ba5fdcf3cc", "type": "electric_scooter", "lat": 38.90561016666667, "is_disabled": 0}, {"fusion_lat": 0.0, "lon": -77.02657266666667, "is_reserved": 0, "bike_id": "d8de017024612db001af5cf43d23341d", "fusion_lon": 0.0, "rental_uris": {"android": "https://dc.lft.to/lastmile_qr_scan", "ios": "https://dc.lft.to/lastmile_qr_scan"}, "name": "d8de017024612db001af5cf43d23341d", "type": "electric_scooter", "lat": 38.892182166666665, "is_disabled": 0}, {"fusion_lat": 0.0, "lon": -76.95651866666667, "is_reserved": 0, "bike_id": "cb8e1577a1df2f6b321b5fbefdf53872", "fusion_lon": 0.0, "rental_uris": {"android": "https://dc.lft.to/lastmile_qr_scan", "ios": "https://dc.lft.to/lastmile_qr_scan"}, "name": "cb8e1577a1df2f6b321b5fbefdf53872", "type": "electric_scooter", "lat": 38.89554533333333, "is_disabled": 0}, {"fusion_lat": 0.0, "lon": -76.99159416666667, "is_reserved": 0, "bike_id": "bcf14668338140306acd9f5462b2f214", "fusion_lon": 0.0, "rental_uris": {"android": "https://dc.lft.to/lastmile_qr_scan", "ios": "https://dc.lft.to/lastmile_qr_scan"}, "name": "bcf14668338140306acd9f5462b2f214", "type": "electric_scooter", "lat": 38.89798416666667, "is_disabled": 0}, {"fusion_lat": 0.0, "lon": -76.99002933333334, "is_reserved": 0, "bike_id": "9faa64cc5bb8a7875d5229a11e5ecf20", "fusion_lon": 0.0, "rental_uris": {"android": "https://dc.lft.to/lastmile_qr_scan", "ios": "https://dc.lft.to/lastmile_qr_scan"}, "name": "9faa64cc5bb8a7875d5229a11e5ecf20", "type": "electric_scooter", "lat": 38.903902, "is_disabled": 0}, {"fusion_lat": 0.0, "lon": -77.01401566666667, "is_reserved": 0, "bike_id": "362481fb729f924507295ceeccdb91a5", "fusion_lon": 0.0, "rental_uris": {"android": "https://dc.lft.to/lastmile_qr_scan", "ios": "https://dc.lft.to/lastmile_qr_scan"}, "name": "362481fb729f924507295ceeccdb91a5", "type": "electric_scooter", "lat": 38.88741016666667, "is_disabled": 0}, {"fusion_lat": 0.0, "lon": -76.984695, "is_reserved": 0, "bike_id": "75ac10d8a94dd405846b60cd4a19a80b", "fusion_lon": 0.0, "rental_uris": {"android": "https://dc.lft.to/lastmile_qr_scan", "ios": "https://dc.lft.to/lastmile_qr_scan"}, "name": "75ac10d8a94dd405846b60cd4a19a80b", "type": "electric_bike", "lat": 38.92897716666667, "is_disabled": 0}, {"fusion_lat": 0.0, "lon": -77.04292766666667, "is_reserved": 0, "bike_id": "a1bc6ff37951cb8e45ffbc205b96ba39", "fusion_lon": 0.0, "rental_uris": {"android": "https://dc.lft.to/lastmile_qr_scan", "ios": "https://dc.lft.to/lastmile_qr_scan"}, "name": "a1bc6ff37951cb8e45ffbc205b96ba39", "type": "electric_scooter", "lat": 38.917018666666664, "is_disabled": 0}, {"fusion_lat": 0.0, "lon": -77.019416, "is_reserved": 0, "bike_id": "c9cf1f5d9e7126c12664ab02858a07e6", "fusion_lon": 0.0, "rental_uris": {"android": "https://dc.lft.to/lastmile_qr_scan", "ios": "https://dc.lft.to/lastmile_qr_scan"}, "name": "c9cf1f5d9e7126c12664ab02858a07e6", "type": "electric_bike", "lat": 38.924156833333335, "is_disabled": 0}, {"fusion_lat": 0.0, "lon": -77.02082033333333, "is_reserved": 0, "bike_id": "e127116e4bf2e019f3dd73be2f6fd0d4", "fusion_lon": 0.0, "rental_uris": {"android": "https://dc.lft.to/lastmile_qr_scan", "ios": "https://dc.lft.to/lastmile_qr_scan"}, "name": "e127116e4bf2e019f3dd73be2f6fd0d4", "type": "electric_scooter", "lat": 38.911278833333334, "is_disabled": 0}, {"fusion_lat": 0.0, "lon": -77.05153033333333, "is_reserved": 0, "bike_id": "470b641157d9381fa48c0c4f71d57ed1", "fusion_lon": 0.0, "rental_uris": {"android": "https://dc.lft.to/lastmile_qr_scan", "ios": "https://dc.lft.to/lastmile_qr_scan"}, "name": "470b641157d9381fa48c0c4f71d57ed1", "type": "electric_scooter", "lat": 38.89944883333333, "is_disabled": 0}, {"fusion_lat": 0.0, "lon": -77.01935466666667, "is_reserved": 0, "bike_id": "ee1f0899b8cf723e7a59d362909d3968", "fusion_lon": 0.0, "rental_uris": {"android": "https://dc.lft.to/lastmile_qr_scan", "ios": "https://dc.lft.to/lastmile_qr_scan"}, "name": "ee1f0899b8cf723e7a59d362909d3968", "type": "electric_scooter", "lat": 38.94700183333333, "is_disabled": 0}, {"fusion_lat": 0.0, "lon": -77.04251383333333, "is_reserved": 0, "bike_id": "74aab9f07cdafee1d705b650db1f783d", "fusion_lon": 0.0, "rental_uris": {"android": "https://dc.lft.to/lastmile_qr_scan", "ios": "https://dc.lft.to/lastmile_qr_scan"}, "name": "74aab9f07cdafee1d705b650db1f783d", "type": "electric_scooter", "lat": 38.92542483333333, "is_disabled": 0}, {"fusion_lat": 0.0, "lon": -76.99508666666667, "is_reserved": 0, "bike_id": "48f09fcb6af97ae80f33e664968673d2", "fusion_lon": 0.0, "rental_uris": {"android": "https://dc.lft.to/lastmile_qr_scan", "ios": "https://dc.lft.to/lastmile_qr_scan"}, "name": "48f09fcb6af97ae80f33e664968673d2", "type": "electric_scooter", "lat": 38.882886166666665, "is_disabled": 0}, {"fusion_lat": 0.0, "lon": -76.927351, "is_reserved": 0, "bike_id": "faefc226596787ed8ccd4fb841fd5dc6", "fusion_lon": 0.0, "rental_uris": {"android": "https://dc.lft.to/lastmile_qr_scan", "ios": "https://dc.lft.to/lastmile_qr_scan"}, "name": "faefc226596787ed8ccd4fb841fd5dc6", "type": "electric_scooter", "lat": 38.88964566666667, "is_disabled": 0}, {"fusion_lat": 0.0, "lon": -76.98286683333333, "is_reserved": 0, "bike_id": "6a2fcc7b046881fee810d4e5c246c668", "fusion_lon": 0.0, "rental_uris": {"android": "https://dc.lft.to/lastmile_qr_scan", "ios": "https://dc.lft.to/lastmile_qr_scan"}, "name": "6a2fcc7b046881fee810d4e5c246c668", "type": "electric_scooter", "lat": 38.900451, "is_disabled": 0}, {"fusion_lat": 0.0, "lon": -77.03865266666666, "is_reserved": 0, "bike_id": "de07487dc828156b94c061605f7f7c4f", "fusion_lon": 0.0, "rental_uris": {"android": "https://dc.lft.to/lastmile_qr_scan", "ios": "https://dc.lft.to/lastmile_qr_scan"}, "name": "de07487dc828156b94c061605f7f7c4f", "type": "electric_scooter", "lat": 38.90787683333333, "is_disabled": 0}, {"fusion_lat": 0.0, "lon": -77.05721533333333, "is_reserved": 0, "bike_id": "2680e1f72c6c265c7fd99fbfb4a443cd", "fusion_lon": 0.0, "rental_uris": {"android": "https://dc.lft.to/lastmile_qr_scan", "ios": "https://dc.lft.to/lastmile_qr_scan"}, "name": "2680e1f72c6c265c7fd99fbfb4a443cd", "type": "electric_scooter", "lat": 38.933637166666664, "is_disabled": 0}, {"fusion_lat": 0.0, "lon": -76.93152366666666, "is_reserved": 0, "bike_id": "3e1ae6fe979de091fbc009c8d22766ec", "fusion_lon": 0.0, "rental_uris": {"android": "https://dc.lft.to/lastmile_qr_scan", "ios": "https://dc.lft.to/lastmile_qr_scan"}, "name": "3e1ae6fe979de091fbc009c8d22766ec", "type": "electric_scooter", "lat": 38.898746, "is_disabled": 0}, {"fusion_lat": 0.0, "lon": -77.01756533333334, "is_reserved": 0, "bike_id": "c7ba92a16c71d9f74e015ef0e78ca2c4", "fusion_lon": 0.0, "rental_uris": {"android": "https://dc.lft.to/lastmile_qr_scan", "ios": "https://dc.lft.to/lastmile_qr_scan"}, "name": "c7ba92a16c71d9f74e015ef0e78ca2c4", "type": "electric_scooter", "lat": 38.9026185, "is_disabled": 0}, {"fusion_lat": 0.0, "lon": -77.0209825, "is_reserved": 0, "bike_id": "0dca04e7eeb855bb09fb08ed6856f35c", "fusion_lon": 0.0, "rental_uris": {"android": "https://dc.lft.to/lastmile_qr_scan", "ios": "https://dc.lft.to/lastmile_qr_scan"}, "name": "0dca04e7eeb855bb09fb08ed6856f35c", "type": "electric_scooter", "lat": 38.88517316666667, "is_disabled": 0}, {"fusion_lat": 0.0, "lon": -77.036702, "is_reserved": 0, "bike_id": "77fb92dfc0084c56e313265e8e09adad", "fusion_lon": 0.0, "rental_uris": {"android": "https://dc.lft.to/lastmile_qr_scan", "ios": "https://dc.lft.to/lastmile_qr_scan"}, "name": "77fb92dfc0084c56e313265e8e09adad", "type": "electric_scooter", "lat": 38.906892, "is_disabled": 0}, {"fusion_lat": 0.0, "lon": -77.03955233333333, "is_reserved": 0, "bike_id": "5baedbd8214714608019ea43072cc162", "fusion_lon": 0.0, "rental_uris": {"android": "https://dc.lft.to/lastmile_qr_scan", "ios": "https://dc.lft.to/lastmile_qr_scan"}, "name": "5baedbd8214714608019ea43072cc162", "type": "electric_scooter", "lat": 38.892440666666666, "is_disabled": 0}, {"fusion_lat": 0.0, "lon": -77.0797, "is_reserved": 0, "bike_id": "b5f0e6d2358fa071d6a1f90c2ea0ac52", "fusion_lon": 0.0, "rental_uris": {"android": "https://dc.lft.to/lastmile_qr_scan", "ios": "https://dc.lft.to/lastmile_qr_scan"}, "name": "b5f0e6d2358fa071d6a1f90c2ea0ac52", "type": "electric_scooter", "lat": 38.925811, "is_disabled": 0}, {"fusion_lat": 0.0, "lon": -77.0364575, "is_reserved": 0, "bike_id": "a73da3bc1a91532a89dd01b9b2b504d7", "fusion_lon": 0.0, "rental_uris": {"android": "https://dc.lft.to/lastmile_qr_scan", "ios": "https://dc.lft.to/lastmile_qr_scan"}, "name": "a73da3bc1a91532a89dd01b9b2b504d7", "type": "electric_scooter", "lat": 38.92264383333333, "is_disabled": 0}, {"fusion_lat": 0.0, "lon": -77.06396983333333, "is_reserved": 0, "bike_id": "21cca0f8221ea1b2347d3cc25c22ba4a", "fusion_lon": 0.0, "rental_uris": {"android": "https://dc.lft.to/lastmile_qr_scan", "ios": "https://dc.lft.to/lastmile_qr_scan"}, "name": "21cca0f8221ea1b2347d3cc25c22ba4a", "type": "electric_scooter", "lat": 38.943250166666665, "is_disabled": 0}, {"fusion_lat": 0.0, "lon": -77.02592566666667, "is_reserved": 0, "bike_id": "a9d9c3375352e151b3f058bcca2dd7d8", "fusion_lon": 0.0, "rental_uris": {"android": "https://dc.lft.to/lastmile_qr_scan", "ios": "https://dc.lft.to/lastmile_qr_scan"}, "name": "a9d9c3375352e151b3f058bcca2dd7d8", "type": "electric_scooter", "lat": 38.9050655, "is_disabled": 0}, {"fusion_lat": 0.0, "lon": -77.03831833333334, "is_reserved": 0, "bike_id": "363b236110cb5a2c53cb8045bfd29502", "fusion_lon": 0.0, "rental_uris": {"android": "https://dc.lft.to/lastmile_qr_scan", "ios": "https://dc.lft.to/lastmile_qr_scan"}, "name": "363b236110cb5a2c53cb8045bfd29502", "type": "electric_scooter", "lat": 38.911895666666666, "is_disabled": 0}, {"fusion_lat": 0.0, "lon": -76.92191666666666, "is_reserved": 0, "bike_id": "0c7c47df5aa4e1f0f61b1228d9783f72", "fusion_lon": 0.0, "rental_uris": {"android": "https://dc.lft.to/lastmile_qr_scan", "ios": "https://dc.lft.to/lastmile_qr_scan"}, "name": "0c7c47df5aa4e1f0f61b1228d9783f72", "type": "electric_bike", "lat": 38.894918, "is_disabled": 0}, {"fusion_lat": 0.0, "lon": -76.99031133333334, "is_reserved": 0, "bike_id": "086d55d1b2b7c3c898ffdee56a42e4aa", "fusion_lon": 0.0, "rental_uris": {"android": "https://dc.lft.to/lastmile_qr_scan", "ios": "https://dc.lft.to/lastmile_qr_scan"}, "name": "086d55d1b2b7c3c898ffdee56a42e4aa", "type": "electric_scooter", "lat": 38.902885833333336, "is_disabled": 0}, {"fusion_lat": 0.0, "lon": -77.03634916666667, "is_reserved": 0, "bike_id": "6dac501d98dcc417a0b8522c7ddaac21", "fusion_lon": 0.0, "rental_uris": {"android": "https://dc.lft.to/lastmile_qr_scan", "ios": "https://dc.lft.to/lastmile_qr_scan"}, "name": "6dac501d98dcc417a0b8522c7ddaac21", "type": "electric_scooter", "lat": 38.9183065, "is_disabled": 0}, {"fusion_lat": 0.0, "lon": -77.04100616666666, "is_reserved": 0, "bike_id": "d631eea194daf39ded3f98e16c6dfc67", "fusion_lon": 0.0, "rental_uris": {"android": "https://dc.lft.to/lastmile_qr_scan", "ios": "https://dc.lft.to/lastmile_qr_scan"}, "name": "d631eea194daf39ded3f98e16c6dfc67", "type": "electric_scooter", "lat": 38.917765, "is_disabled": 0}, {"fusion_lat": 0.0, "lon": -77.08577116666666, "is_reserved": 0, "bike_id": "a2d8ec3518cf73cd21960ba61803857f", "fusion_lon": 0.0, "rental_uris": {"android": "https://dc.lft.to/lastmile_qr_scan", "ios": "https://dc.lft.to/lastmile_qr_scan"}, "name": "a2d8ec3518cf73cd21960ba61803857f", "type": "electric_bike", "lat": 38.84428233333333, "is_disabled": 0}, {"fusion_lat": 0.0, "lon": -77.07392016666667, "is_reserved": 0, "bike_id": "167b638a3c98337b324dd491bf873ca3", "fusion_lon": 0.0, "rental_uris": {"android": "https://dc.lft.to/lastmile_qr_scan", "ios": "https://dc.lft.to/lastmile_qr_scan"}, "name": "167b638a3c98337b324dd491bf873ca3", "type": "electric_bike", "lat": 38.96185283333333, "is_disabled": 0}, {"fusion_lat": 0.0, "lon": -76.99056733333333, "is_reserved": 0, "bike_id": "aac096423b4834b3ff77440a8f22cf7e", "fusion_lon": 0.0, "rental_uris": {"android": "https://dc.lft.to/lastmile_qr_scan", "ios": "https://dc.lft.to/lastmile_qr_scan"}, "name": "aac096423b4834b3ff77440a8f22cf7e", "type": "electric_scooter", "lat": 38.8636655, "is_disabled": 0}, {"fusion_lat": 0.0, "lon": -77.02963133333333, "is_reserved": 0, "bike_id": "3146c6c644d609c37f87c36d2cc6b923", "fusion_lon": 0.0, "rental_uris": {"android": "https://dc.lft.to/lastmile_qr_scan", "ios": "https://dc.lft.to/lastmile_qr_scan"}, "name": "3146c6c644d609c37f87c36d2cc6b923", "type": "electric_scooter", "lat": 38.925683166666666, "is_disabled": 0}, {"fusion_lat": 0.0, "lon": -77.04371716666667, "is_reserved": 0, "bike_id": "13345100e9e9d3feab1cb623f4010a2e", "fusion_lon": 0.0, "rental_uris": {"android": "https://dc.lft.to/lastmile_qr_scan", "ios": "https://dc.lft.to/lastmile_qr_scan"}, "name": "13345100e9e9d3feab1cb623f4010a2e", "type": "electric_scooter", "lat": 38.89219333333333, "is_disabled": 0}, {"fusion_lat": 0.0, "lon": -77.023254, "is_reserved": 0, "bike_id": "df8d3dd24db4fefcfec568612367bb04", "fusion_lon": 0.0, "rental_uris": {"android": "https://dc.lft.to/lastmile_qr_scan", "ios": "https://dc.lft.to/lastmile_qr_scan"}, "name": "df8d3dd24db4fefcfec568612367bb04", "type": "electric_bike", "lat": 38.91820716666667, "is_disabled": 0}, {"fusion_lat": 0.0, "lon": -77.02995166666666, "is_reserved": 0, "bike_id": "d6fd3333fe20215f90f28dd5a1200226", "fusion_lon": 0.0, "rental_uris": {"android": "https://dc.lft.to/lastmile_qr_scan", "ios": "https://dc.lft.to/lastmile_qr_scan"}, "name": "d6fd3333fe20215f90f28dd5a1200226", "type": "electric_scooter", "lat": 38.907207666666665, "is_disabled": 0}, {"fusion_lat": 0.0, "lon": -77.042264, "is_reserved": 0, "bike_id": "5315719a4742ccbc36442aa7566dd1d5", "fusion_lon": 0.0, "rental_uris": {"android": "https://dc.lft.to/lastmile_qr_scan", "ios": "https://dc.lft.to/lastmile_qr_scan"}, "name": "5315719a4742ccbc36442aa7566dd1d5", "type": "electric_scooter", "lat": 38.91411466666667, "is_disabled": 0}, {"fusion_lat": 0.0, "lon": -77.03405866666667, "is_reserved": 0, "bike_id": "8659bc612394bf1e639563c9eef5f2e1", "fusion_lon": 0.0, "rental_uris": {"android": "https://dc.lft.to/lastmile_qr_scan", "ios": "https://dc.lft.to/lastmile_qr_scan"}, "name": "8659bc612394bf1e639563c9eef5f2e1", "type": "electric_scooter", "lat": 38.922517, "is_disabled": 0}, {"fusion_lat": 0.0, "lon": -77.1071955, "is_reserved": 0, "bike_id": "149f3ef9146e3f6559acb3b89a3e0eef", "fusion_lon": 0.0, "rental_uris": {"android": "https://dc.lft.to/lastmile_qr_scan", "ios": "https://dc.lft.to/lastmile_qr_scan"}, "name": "149f3ef9146e3f6559acb3b89a3e0eef", "type": "electric_bike", "lat": 38.85543533333333, "is_disabled": 0}, {"fusion_lat": 0.0, "lon": -77.02964183333333, "is_reserved": 0, "bike_id": "1f39c97ab8db5cbf2d9fa0a7643da935", "fusion_lon": 0.0, "rental_uris": {"android": "https://dc.lft.to/lastmile_qr_scan", "ios": "https://dc.lft.to/lastmile_qr_scan"}, "name": "1f39c97ab8db5cbf2d9fa0a7643da935", "type": "electric_scooter", "lat": 38.90727316666667, "is_disabled": 0}, {"fusion_lat": 0.0, "lon": -77.02263416666666, "is_reserved": 0, "bike_id": "1e7af78ec014f750c468f54770a2a77a", "fusion_lon": 0.0, "rental_uris": {"android": "https://dc.lft.to/lastmile_qr_scan", "ios": "https://dc.lft.to/lastmile_qr_scan"}, "name": "1e7af78ec014f750c468f54770a2a77a", "type": "electric_scooter", "lat": 38.916196, "is_disabled": 0}, {"fusion_lat": 0.0, "lon": -77.029699, "is_reserved": 0, "bike_id": "c0e4f201fcd046b0eb1ebbcf8b332bb0", "fusion_lon": 0.0, "rental_uris": {"android": "https://dc.lft.to/lastmile_qr_scan", "ios": "https://dc.lft.to/lastmile_qr_scan"}, "name": "c0e4f201fcd046b0eb1ebbcf8b332bb0", "type": "electric_scooter", "lat": 38.907323166666664, "is_disabled": 0}, {"fusion_lat": 0.0, "lon": -77.0374665, "is_reserved": 0, "bike_id": "42d8aeda3f365f396878c66341bfa83b", "fusion_lon": 0.0, "rental_uris": {"android": "https://dc.lft.to/lastmile_qr_scan", "ios": "https://dc.lft.to/lastmile_qr_scan"}, "name": "42d8aeda3f365f396878c66341bfa83b", "type": "electric_scooter", "lat": 38.916818166666665, "is_disabled": 0}, {"fusion_lat": 0.0, "lon": -77.03693266666667, "is_reserved": 0, "bike_id": "76df285ffa2388e920a1237cc3779de3", "fusion_lon": 0.0, "rental_uris": {"android": "https://dc.lft.to/lastmile_qr_scan", "ios": "https://dc.lft.to/lastmile_qr_scan"}, "name": "76df285ffa2388e920a1237cc3779de3", "type": "electric_scooter", "lat": 38.926164166666666, "is_disabled": 0}, {"fusion_lat": 0.0, "lon": -77.08456066666666, "is_reserved": 0, "bike_id": "cf961d2813978f0ef38c404633734716", "fusion_lon": 0.0, "rental_uris": {"android": "https://dc.lft.to/lastmile_qr_scan", "ios": "https://dc.lft.to/lastmile_qr_scan"}, "name": "cf961d2813978f0ef38c404633734716", "type": "electric_bike", "lat": 38.84819316666667, "is_disabled": 0}, {"fusion_lat": 0.0, "lon": -76.9905915, "is_reserved": 0, "bike_id": "ebc92e71571439e86c870597341f4df4", "fusion_lon": 0.0, "rental_uris": {"android": "https://dc.lft.to/lastmile_qr_scan", "ios": "https://dc.lft.to/lastmile_qr_scan"}, "name": "ebc92e71571439e86c870597341f4df4", "type": "electric_bike", "lat": 38.898019, "is_disabled": 0}, {"fusion_lat": 0.0, "lon": -77.00768483333333, "is_reserved": 0, "bike_id": "16d43df37797089b8a2974ff6a53ed7f", "fusion_lon": 0.0, "rental_uris": {"android": "https://dc.lft.to/lastmile_qr_scan", "ios": "https://dc.lft.to/lastmile_qr_scan"}, "name": "16d43df37797089b8a2974ff6a53ed7f", "type": "electric_scooter", "lat": 38.92672816666666, "is_disabled": 0}, {"fusion_lat": 0.0, "lon": -77.027974, "is_reserved": 0, "bike_id": "f9c9389c2c580fc92edae97d847b43d6", "fusion_lon": 0.0, "rental_uris": {"android": "https://dc.lft.to/lastmile_qr_scan", "ios": "https://dc.lft.to/lastmile_qr_scan"}, "name": "f9c9389c2c580fc92edae97d847b43d6", "type": "electric_scooter", "lat": 38.933041, "is_disabled": 0}, {"fusion_lat": 0.0, "lon": -77.00714666666667, "is_reserved": 0, "bike_id": "ae33c6e4540a677aeb4002357cccb27c", "fusion_lon": 0.0, "rental_uris": {"android": "https://dc.lft.to/lastmile_qr_scan", "ios": "https://dc.lft.to/lastmile_qr_scan"}, "name": "ae33c6e4540a677aeb4002357cccb27c", "type": "electric_scooter", "lat": 38.91702216666667, "is_disabled": 0}, {"fusion_lat": 0.0, "lon": -77.023144, "is_reserved": 0, "bike_id": "4edba9ce6fcedbbdb64f953d42ecdbbe", "fusion_lon": 0.0, "rental_uris": {"android": "https://dc.lft.to/lastmile_qr_scan", "ios": "https://dc.lft.to/lastmile_qr_scan"}, "name": "4edba9ce6fcedbbdb64f953d42ecdbbe", "type": "electric_scooter", "lat": 38.94090166666667, "is_disabled": 0}, {"fusion_lat": 0.0, "lon": -77.02713683333333, "is_reserved": 0, "bike_id": "e96d22e6b62f9c11af2cefe2dbab3119", "fusion_lon": 0.0, "rental_uris": {"android": "https://dc.lft.to/lastmile_qr_scan", "ios": "https://dc.lft.to/lastmile_qr_scan"}, "name": "e96d22e6b62f9c11af2cefe2dbab3119", "type": "electric_scooter", "lat": 38.9369535, "is_disabled": 0}, {"fusion_lat": 0.0, "lon": -77.01333716666667, "is_reserved": 0, "bike_id": "9bac2725baa2afd56558bf5b114af705", "fusion_lon": 0.0, "rental_uris": {"android": "https://dc.lft.to/lastmile_qr_scan", "ios": "https://dc.lft.to/lastmile_qr_scan"}, "name": "9bac2725baa2afd56558bf5b114af705", "type": "electric_scooter", "lat": 38.8794355, "is_disabled": 0}, {"fusion_lat": 0.0, "lon": -77.02951633333333, "is_reserved": 0, "bike_id": "658d24bf6efc68545aa635a8fe63d9a1", "fusion_lon": 0.0, "rental_uris": {"android": "https://dc.lft.to/lastmile_qr_scan", "ios": "https://dc.lft.to/lastmile_qr_scan"}, "name": "658d24bf6efc68545aa635a8fe63d9a1", "type": "electric_scooter", "lat": 38.9399255, "is_disabled": 0}, {"fusion_lat": 0.0, "lon": -77.06975, "is_reserved": 0, "bike_id": "57c9e923385543ce98842ed743a2fc70", "fusion_lon": 0.0, "rental_uris": {"android": "https://dc.lft.to/lastmile_qr_scan", "ios": "https://dc.lft.to/lastmile_qr_scan"}, "name": "57c9e923385543ce98842ed743a2fc70", "type": "electric_scooter", "lat": 38.952532166666664, "is_disabled": 0}, {"fusion_lat": 0.0, "lon": -76.98922066666667, "is_reserved": 0, "bike_id": "83bffc1ddb6436e0044b8e3fa0863442", "fusion_lon": 0.0, "rental_uris": {"android": "https://dc.lft.to/lastmile_qr_scan", "ios": "https://dc.lft.to/lastmile_qr_scan"}, "name": "83bffc1ddb6436e0044b8e3fa0863442", "type": "electric_scooter", "lat": 38.85810466666667, "is_disabled": 0}, {"fusion_lat": 0.0, "lon": -76.907052, "is_reserved": 0, "bike_id": "d5f859dfa55713bfa7f0838d67fe9f6a", "fusion_lon": 0.0, "rental_uris": {"android": "https://dc.lft.to/lastmile_qr_scan", "ios": "https://dc.lft.to/lastmile_qr_scan"}, "name": "d5f859dfa55713bfa7f0838d67fe9f6a", "type": "electric_bike", "lat": 38.895991333333335, "is_disabled": 0}, {"fusion_lat": 0.0, "lon": -76.98093083333333, "is_reserved": 0, "bike_id": "9ab5e6199b32ea8f5faa421f7d80df58", "fusion_lon": 0.0, "rental_uris": {"android": "https://dc.lft.to/lastmile_qr_scan", "ios": "https://dc.lft.to/lastmile_qr_scan"}, "name": "9ab5e6199b32ea8f5faa421f7d80df58", "type": "electric_bike", "lat": 38.953593, "is_disabled": 0}, {"fusion_lat": 0.0, "lon": -77.0220995, "is_reserved": 0, "bike_id": "ed22ee82ecc14fb703527714c39a31a6", "fusion_lon": 0.0, "rental_uris": {"android": "https://dc.lft.to/lastmile_qr_scan", "ios": "https://dc.lft.to/lastmile_qr_scan"}, "name": "ed22ee82ecc14fb703527714c39a31a6", "type": "electric_scooter", "lat": 38.92043866666667, "is_disabled": 0}, {"fusion_lat": 0.0, "lon": -77.01340466666667, "is_reserved": 0, "bike_id": "fb25a769282eedff842f6ad7e83e6f89", "fusion_lon": 0.0, "rental_uris": {"android": "https://dc.lft.to/lastmile_qr_scan", "ios": "https://dc.lft.to/lastmile_qr_scan"}, "name": "fb25a769282eedff842f6ad7e83e6f89", "type": "electric_scooter", "lat": 38.8760465, "is_disabled": 0}, {"fusion_lat": 0.0, "lon": -77.00340983333334, "is_reserved": 0, "bike_id": "d4eaf3c11831971ed51151fcb7bdede5", "fusion_lon": 0.0, "rental_uris": {"android": "https://dc.lft.to/lastmile_qr_scan", "ios": "https://dc.lft.to/lastmile_qr_scan"}, "name": "d4eaf3c11831971ed51151fcb7bdede5", "type": "electric_scooter", "lat": 38.916099, "is_disabled": 0}, {"fusion_lat": 0.0, "lon": -77.00217183333334, "is_reserved": 0, "bike_id": "92c5af30daf26c724dc2b091a40a0274", "fusion_lon": 0.0, "rental_uris": {"android": "https://dc.lft.to/lastmile_qr_scan", "ios": "https://dc.lft.to/lastmile_qr_scan"}, "name": "92c5af30daf26c724dc2b091a40a0274", "type": "electric_scooter", "lat": 38.900465833333335, "is_disabled": 0}, {"fusion_lat": 0.0, "lon": -77.01983383333334, "is_reserved": 0, "bike_id": "7a915a460fd0cdb5280eef471010f118", "fusion_lon": 0.0, "rental_uris": {"android": "https://dc.lft.to/lastmile_qr_scan", "ios": "https://dc.lft.to/lastmile_qr_scan"}, "name": "7a915a460fd0cdb5280eef471010f118", "type": "electric_bike", "lat": 38.922722666666665, "is_disabled": 0}, {"fusion_lat": 0.0, "lon": -77.02175116666666, "is_reserved": 0, "bike_id": "98bf02a1938b60f0573c5f118f43fa89", "fusion_lon": 0.0, "rental_uris": {"android": "https://dc.lft.to/lastmile_qr_scan", "ios": "https://dc.lft.to/lastmile_qr_scan"}, "name": "98bf02a1938b60f0573c5f118f43fa89", "type": "electric_scooter", "lat": 38.9094965, "is_disabled": 0}, {"fusion_lat": 0.0, "lon": -77.036577, "is_reserved": 0, "bike_id": "4c8d9241d9bd35cd6339d91d84967678", "fusion_lon": 0.0, "rental_uris": {"android": "https://dc.lft.to/lastmile_qr_scan", "ios": "https://dc.lft.to/lastmile_qr_scan"}, "name": "4c8d9241d9bd35cd6339d91d84967678", "type": "electric_scooter", "lat": 38.931540166666665, "is_disabled": 0}, {"fusion_lat": 0.0, "lon": -77.02221383333334, "is_reserved": 0, "bike_id": "19acab876eea79bc485b4ce045104c7e", "fusion_lon": 0.0, "rental_uris": {"android": "https://dc.lft.to/lastmile_qr_scan", "ios": "https://dc.lft.to/lastmile_qr_scan"}, "name": "19acab876eea79bc485b4ce045104c7e", "type": "electric_scooter", "lat": 38.9261, "is_disabled": 0}, {"fusion_lat": 0.0, "lon": -77.038602, "is_reserved": 0, "bike_id": "a53155a7bd201f050b77b4eae3871a2e", "fusion_lon": 0.0, "rental_uris": {"android": "https://dc.lft.to/lastmile_qr_scan", "ios": "https://dc.lft.to/lastmile_qr_scan"}, "name": "a53155a7bd201f050b77b4eae3871a2e", "type": "electric_scooter", "lat": 38.903544833333335, "is_disabled": 0}, {"fusion_lat": 0.0, "lon": -77.04403916666666, "is_reserved": 0, "bike_id": "2a9fed77a582666fb1b81c9e3c42456c", "fusion_lon": 0.0, "rental_uris": {"android": "https://dc.lft.to/lastmile_qr_scan", "ios": "https://dc.lft.to/lastmile_qr_scan"}, "name": "2a9fed77a582666fb1b81c9e3c42456c", "type": "electric_scooter", "lat": 38.92448016666667, "is_disabled": 0}, {"fusion_lat": 0.0, "lon": -76.99033383333334, "is_reserved": 0, "bike_id": "23416400bdb5955e5c9dfdd4f8cdc2b3", "fusion_lon": 0.0, "rental_uris": {"android": "https://dc.lft.to/lastmile_qr_scan", "ios": "https://dc.lft.to/lastmile_qr_scan"}, "name": "23416400bdb5955e5c9dfdd4f8cdc2b3", "type": "electric_scooter", "lat": 38.898529, "is_disabled": 0}, {"fusion_lat": 0.0, "lon": -77.04476766666667, "is_reserved": 0, "bike_id": "7560f18de3fe52b81bb5d45037541ebe", "fusion_lon": 0.0, "rental_uris": {"android": "https://dc.lft.to/lastmile_qr_scan", "ios": "https://dc.lft.to/lastmile_qr_scan"}, "name": "7560f18de3fe52b81bb5d45037541ebe", "type": "electric_scooter", "lat": 38.92143166666666, "is_disabled": 0}, {"fusion_lat": 0.0, "lon": -77.02682833333333, "is_reserved": 0, "bike_id": "38b83a0b704d3530e9d28c54e41387eb", "fusion_lon": 0.0, "rental_uris": {"android": "https://dc.lft.to/lastmile_qr_scan", "ios": "https://dc.lft.to/lastmile_qr_scan"}, "name": "38b83a0b704d3530e9d28c54e41387eb", "type": "electric_scooter", "lat": 38.90237366666667, "is_disabled": 0}, {"fusion_lat": 0.0, "lon": -77.03955216666667, "is_reserved": 0, "bike_id": "2bf0e7138b18842b0ff57891b9c59e49", "fusion_lon": 0.0, "rental_uris": {"android": "https://dc.lft.to/lastmile_qr_scan", "ios": "https://dc.lft.to/lastmile_qr_scan"}, "name": "2bf0e7138b18842b0ff57891b9c59e49", "type": "electric_scooter", "lat": 38.93148566666667, "is_disabled": 0}, {"fusion_lat": 0.0, "lon": -77.035303, "is_reserved": 0, "bike_id": "75e9bdc2aeeef18458721560a99390ea", "fusion_lon": 0.0, "rental_uris": {"android": "https://dc.lft.to/lastmile_qr_scan", "ios": "https://dc.lft.to/lastmile_qr_scan"}, "name": "75e9bdc2aeeef18458721560a99390ea", "type": "electric_scooter", "lat": 38.93481666666667, "is_disabled": 0}, {"fusion_lat": 0.0, "lon": -77.0044535, "is_reserved": 0, "bike_id": "c47aa91a788efdccbf74a3a7911754ae", "fusion_lon": 0.0, "rental_uris": {"android": "https://dc.lft.to/lastmile_qr_scan", "ios": "https://dc.lft.to/lastmile_qr_scan"}, "name": "c47aa91a788efdccbf74a3a7911754ae", "type": "electric_scooter", "lat": 38.920803, "is_disabled": 0}, {"fusion_lat": 0.0, "lon": -76.99269283333334, "is_reserved": 0, "bike_id": "089d3758f4707a5c7caea8e351d80b7d", "fusion_lon": 0.0, "rental_uris": {"android": "https://dc.lft.to/lastmile_qr_scan", "ios": "https://dc.lft.to/lastmile_qr_scan"}, "name": "089d3758f4707a5c7caea8e351d80b7d", "type": "electric_scooter", "lat": 38.8976175, "is_disabled": 0}, {"fusion_lat": 0.0, "lon": -77.04701683333333, "is_reserved": 0, "bike_id": "445a10bb4e475d9e1bb0a366cf12f291", "fusion_lon": 0.0, "rental_uris": {"android": "https://dc.lft.to/lastmile_qr_scan", "ios": "https://dc.lft.to/lastmile_qr_scan"}, "name": "445a10bb4e475d9e1bb0a366cf12f291", "type": "electric_scooter", "lat": 38.902376333333336, "is_disabled": 0}, {"fusion_lat": 0.0, "lon": -76.977018, "is_reserved": 0, "bike_id": "e7c55784e93abfe64bfae2498efeca25", "fusion_lon": 0.0, "rental_uris": {"android": "https://dc.lft.to/lastmile_qr_scan", "ios": "https://dc.lft.to/lastmile_qr_scan"}, "name": "e7c55784e93abfe64bfae2498efeca25", "type": "electric_scooter", "lat": 38.898668, "is_disabled": 0}, {"fusion_lat": 0.0, "lon": -76.93721666666667, "is_reserved": 0, "bike_id": "0d3013085c60f3488f5e943b50316330", "fusion_lon": 0.0, "rental_uris": {"android": "https://dc.lft.to/lastmile_qr_scan", "ios": "https://dc.lft.to/lastmile_qr_scan"}, "name": "0d3013085c60f3488f5e943b50316330", "type": "electric_scooter", "lat": 38.88960816666667, "is_disabled": 0}, {"fusion_lat": 0.0, "lon": -77.03482116666666, "is_reserved": 0, "bike_id": "97f88386b000b40bdfc6d6966af704f8", "fusion_lon": 0.0, "rental_uris": {"android": "https://dc.lft.to/lastmile_qr_scan", "ios": "https://dc.lft.to/lastmile_qr_scan"}, "name": "97f88386b000b40bdfc6d6966af704f8", "type": "electric_scooter", "lat": 38.929237666666666, "is_disabled": 0}, {"fusion_lat": 0.0, "lon": -77.026592, "is_reserved": 0, "bike_id": "63d1933a320a411a01636d71ad1dbb59", "fusion_lon": 0.0, "rental_uris": {"android": "https://dc.lft.to/lastmile_qr_scan", "ios": "https://dc.lft.to/lastmile_qr_scan"}, "name": "63d1933a320a411a01636d71ad1dbb59", "type": "electric_bike", "lat": 38.988145833333334, "is_disabled": 0}, {"fusion_lat": 0.0, "lon": -77.02692833333333, "is_reserved": 0, "bike_id": "aed322d5d11693737e576f796516c84c", "fusion_lon": 0.0, "rental_uris": {"android": "https://dc.lft.to/lastmile_qr_scan", "ios": "https://dc.lft.to/lastmile_qr_scan"}, "name": "aed322d5d11693737e576f796516c84c", "type": "electric_scooter", "lat": 38.91133583333333, "is_disabled": 0}, {"fusion_lat": 0.0, "lon": -76.99049, "is_reserved": 0, "bike_id": "a712c09bdbb1d2b2650af748c804364b", "fusion_lon": 0.0, "rental_uris": {"android": "https://dc.lft.to/lastmile_qr_scan", "ios": "https://dc.lft.to/lastmile_qr_scan"}, "name": "a712c09bdbb1d2b2650af748c804364b", "type": "electric_bike", "lat": 38.865634, "is_disabled": 0}, {"fusion_lat": 0.0, "lon": -77.00441516666666, "is_reserved": 0, "bike_id": "98d312c995becf2471792ad6e678aa7f", "fusion_lon": 0.0, "rental_uris": {"android": "https://dc.lft.to/lastmile_qr_scan", "ios": "https://dc.lft.to/lastmile_qr_scan"}, "name": "98d312c995becf2471792ad6e678aa7f", "type": "electric_scooter", "lat": 38.876548, "is_disabled": 0}, {"fusion_lat": 0.0, "lon": -77.03641166666667, "is_reserved": 0, "bike_id": "7cabff1a4402d9ce14f8c20881682710", "fusion_lon": 0.0, "rental_uris": {"android": "https://dc.lft.to/lastmile_qr_scan", "ios": "https://dc.lft.to/lastmile_qr_scan"}, "name": "7cabff1a4402d9ce14f8c20881682710", "type": "electric_scooter", "lat": 38.922652666666664, "is_disabled": 0}, {"fusion_lat": 0.0, "lon": -77.02165866666667, "is_reserved": 0, "bike_id": "aa569e7b409601b2e066b47258f912ac", "fusion_lon": 0.0, "rental_uris": {"android": "https://dc.lft.to/lastmile_qr_scan", "ios": "https://dc.lft.to/lastmile_qr_scan"}, "name": "aa569e7b409601b2e066b47258f912ac", "type": "electric_scooter", "lat": 38.91608866666667, "is_disabled": 0}, {"fusion_lat": 0.0, "lon": -76.94959216666666, "is_reserved": 0, "bike_id": "32027e368a97e533399fb711dc39c0ab", "fusion_lon": 0.0, "rental_uris": {"android": "https://dc.lft.to/lastmile_qr_scan", "ios": "https://dc.lft.to/lastmile_qr_scan"}, "name": "32027e368a97e533399fb711dc39c0ab", "type": "electric_scooter", "lat": 38.904912333333336, "is_disabled": 0}, {"fusion_lat": 0.0, "lon": -77.04698333333333, "is_reserved": 0, "bike_id": "880e1ffa33adf947366151bb557879d0", "fusion_lon": 0.0, "rental_uris": {"android": "https://dc.lft.to/lastmile_qr_scan", "ios": "https://dc.lft.to/lastmile_qr_scan"}, "name": "880e1ffa33adf947366151bb557879d0", "type": "electric_scooter", "lat": 38.92228166666666, "is_disabled": 0}, {"fusion_lat": 0.0, "lon": -77.03122683333333, "is_reserved": 0, "bike_id": "bcb0b4c45179cf1864430da08153b147", "fusion_lon": 0.0, "rental_uris": {"android": "https://dc.lft.to/lastmile_qr_scan", "ios": "https://dc.lft.to/lastmile_qr_scan"}, "name": "bcb0b4c45179cf1864430da08153b147", "type": "electric_scooter", "lat": 38.91490133333333, "is_disabled": 0}, {"fusion_lat": 0.0, "lon": -77.0018465, "is_reserved": 0, "bike_id": "d6f3755dc9c41ad42cd2b2b20a713eb5", "fusion_lon": 0.0, "rental_uris": {"android": "https://dc.lft.to/lastmile_qr_scan", "ios": "https://dc.lft.to/lastmile_qr_scan"}, "name": "d6f3755dc9c41ad42cd2b2b20a713eb5", "type": "electric_scooter", "lat": 38.903799666666664, "is_disabled": 0}, {"fusion_lat": 0.0, "lon": -76.95129083333333, "is_reserved": 0, "bike_id": "2f4f1ba1efec91cf93bcbd59119eae6f", "fusion_lon": 0.0, "rental_uris": {"android": "https://dc.lft.to/lastmile_qr_scan", "ios": "https://dc.lft.to/lastmile_qr_scan"}, "name": "2f4f1ba1efec91cf93bcbd59119eae6f", "type": "electric_scooter", "lat": 38.890275333333335, "is_disabled": 0}, {"fusion_lat": 0.0, "lon": -77.04994766666667, "is_reserved": 0, "bike_id": "f15aaf7d260ef21ac601a9bcb24a0663", "fusion_lon": 0.0, "rental_uris": {"android": "https://dc.lft.to/lastmile_qr_scan", "ios": "https://dc.lft.to/lastmile_qr_scan"}, "name": "f15aaf7d260ef21ac601a9bcb24a0663", "type": "electric_scooter", "lat": 38.89229233333333, "is_disabled": 0}, {"fusion_lat": 0.0, "lon": -77.05014216666666, "is_reserved": 0, "bike_id": "9066f8f9a4b1f9ff9ec7a66a49944572", "fusion_lon": 0.0, "rental_uris": {"android": "https://dc.lft.to/lastmile_qr_scan", "ios": "https://dc.lft.to/lastmile_qr_scan"}, "name": "9066f8f9a4b1f9ff9ec7a66a49944572", "type": "electric_scooter", "lat": 38.9029115, "is_disabled": 0}, {"fusion_lat": 0.0, "lon": -76.98789716666667, "is_reserved": 0, "bike_id": "14525d69f5dbb8c9d88f0bd3fb7048ec", "fusion_lon": 0.0, "rental_uris": {"android": "https://dc.lft.to/lastmile_qr_scan", "ios": "https://dc.lft.to/lastmile_qr_scan"}, "name": "14525d69f5dbb8c9d88f0bd3fb7048ec", "type": "electric_bike", "lat": 38.906049333333335, "is_disabled": 0}, {"fusion_lat": 0.0, "lon": -77.0074005, "is_reserved": 0, "bike_id": "89200e9cc270df86bb543cbba7cb8177", "fusion_lon": 0.0, "rental_uris": {"android": "https://dc.lft.to/lastmile_qr_scan", "ios": "https://dc.lft.to/lastmile_qr_scan"}, "name": "89200e9cc270df86bb543cbba7cb8177", "type": "electric_scooter", "lat": 38.92542383333333, "is_disabled": 0}, {"fusion_lat": 0.0, "lon": -76.97623716666666, "is_reserved": 0, "bike_id": "cd9eb8f1be77eb36ef42643613e28a22", "fusion_lon": 0.0, "rental_uris": {"android": "https://dc.lft.to/lastmile_qr_scan", "ios": "https://dc.lft.to/lastmile_qr_scan"}, "name": "cd9eb8f1be77eb36ef42643613e28a22", "type": "electric_scooter", "lat": 38.90570133333333, "is_disabled": 0}, {"fusion_lat": 0.0, "lon": -77.032385, "is_reserved": 0, "bike_id": "080f8d074aeb7cb625870407eab1af6e", "fusion_lon": 0.0, "rental_uris": {"android": "https://dc.lft.to/lastmile_qr_scan", "ios": "https://dc.lft.to/lastmile_qr_scan"}, "name": "080f8d074aeb7cb625870407eab1af6e", "type": "electric_scooter", "lat": 38.902899, "is_disabled": 0}, {"fusion_lat": 0.0, "lon": -77.02279966666667, "is_reserved": 0, "bike_id": "874a3a9f8b002cd6009978244c7f8183", "fusion_lon": 0.0, "rental_uris": {"android": "https://dc.lft.to/lastmile_qr_scan", "ios": "https://dc.lft.to/lastmile_qr_scan"}, "name": "874a3a9f8b002cd6009978244c7f8183", "type": "electric_scooter", "lat": 38.8948555, "is_disabled": 0}, {"fusion_lat": 0.0, "lon": -76.9463695, "is_reserved": 0, "bike_id": "172e572430bea36f499089c1f9595682", "fusion_lon": 0.0, "rental_uris": {"android": "https://dc.lft.to/lastmile_qr_scan", "ios": "https://dc.lft.to/lastmile_qr_scan"}, "name": "172e572430bea36f499089c1f9595682", "type": "electric_scooter", "lat": 38.8984495, "is_disabled": 0}, {"fusion_lat": 0.0, "lon": -76.98638383333333, "is_reserved": 0, "bike_id": "ccf1a6bcafee9bc9acb82d9613bfb36a", "fusion_lon": 0.0, "rental_uris": {"android": "https://dc.lft.to/lastmile_qr_scan", "ios": "https://dc.lft.to/lastmile_qr_scan"}, "name": "ccf1a6bcafee9bc9acb82d9613bfb36a", "type": "electric_scooter", "lat": 38.8652145, "is_disabled": 0}, {"fusion_lat": 0.0, "lon": -77.1252885, "is_reserved": 0, "bike_id": "f785be1648edf1a0203316cc931a0f57", "fusion_lon": 0.0, "rental_uris": {"android": "https://dc.lft.to/lastmile_qr_scan", "ios": "https://dc.lft.to/lastmile_qr_scan"}, "name": "f785be1648edf1a0203316cc931a0f57", "type": "electric_bike", "lat": 39.056358, "is_disabled": 0}, {"fusion_lat": 0.0, "lon": -77.04992033333333, "is_reserved": 0, "bike_id": "b637a243e1c5c9261ee87bf053c07490", "fusion_lon": 0.0, "rental_uris": {"android": "https://dc.lft.to/lastmile_qr_scan", "ios": "https://dc.lft.to/lastmile_qr_scan"}, "name": "b637a243e1c5c9261ee87bf053c07490", "type": "electric_scooter", "lat": 38.89734033333333, "is_disabled": 0}, {"fusion_lat": 0.0, "lon": -77.03310233333333, "is_reserved": 0, "bike_id": "57c15e9a38839d23da8b72a1685a129f", "fusion_lon": 0.0, "rental_uris": {"android": "https://dc.lft.to/lastmile_qr_scan", "ios": "https://dc.lft.to/lastmile_qr_scan"}, "name": "57c15e9a38839d23da8b72a1685a129f", "type": "electric_scooter", "lat": 38.95614533333333, "is_disabled": 0}, {"fusion_lat": 0.0, "lon": -76.98547283333333, "is_reserved": 0, "bike_id": "55f05cbb4b7357862cb302c82331b7b1", "fusion_lon": 0.0, "rental_uris": {"android": "https://dc.lft.to/lastmile_qr_scan", "ios": "https://dc.lft.to/lastmile_qr_scan"}, "name": "55f05cbb4b7357862cb302c82331b7b1", "type": "electric_scooter", "lat": 38.9102915, "is_disabled": 0}, {"fusion_lat": 0.0, "lon": -77.02397566666667, "is_reserved": 0, "bike_id": "8e156a934ddc3febe65a7e0b9b9fa3f4", "fusion_lon": 0.0, "rental_uris": {"android": "https://dc.lft.to/lastmile_qr_scan", "ios": "https://dc.lft.to/lastmile_qr_scan"}, "name": "8e156a934ddc3febe65a7e0b9b9fa3f4", "type": "electric_scooter", "lat": 38.91520283333333, "is_disabled": 0}, {"fusion_lat": 0.0, "lon": -77.05117333333334, "is_reserved": 0, "bike_id": "1cef0e9fd663688a4b82fd671ce8c4a1", "fusion_lon": 0.0, "rental_uris": {"android": "https://dc.lft.to/lastmile_qr_scan", "ios": "https://dc.lft.to/lastmile_qr_scan"}, "name": "1cef0e9fd663688a4b82fd671ce8c4a1", "type": "electric_scooter", "lat": 38.92344683333334, "is_disabled": 0}, {"fusion_lat": 0.0, "lon": -76.991417, "is_reserved": 0, "bike_id": "c72241b2243683da9ada169ebc2386d5", "fusion_lon": 0.0, "rental_uris": {"android": "https://dc.lft.to/lastmile_qr_scan", "ios": "https://dc.lft.to/lastmile_qr_scan"}, "name": "c72241b2243683da9ada169ebc2386d5", "type": "electric_scooter", "lat": 38.9011735, "is_disabled": 0}, {"fusion_lat": 0.0, "lon": -77.07501016666667, "is_reserved": 0, "bike_id": "1a65cfc362d7c03815f64a3b9567dafe", "fusion_lon": 0.0, "rental_uris": {"android": "https://dc.lft.to/lastmile_qr_scan", "ios": "https://dc.lft.to/lastmile_qr_scan"}, "name": "1a65cfc362d7c03815f64a3b9567dafe", "type": "electric_scooter", "lat": 38.894578833333334, "is_disabled": 0}, {"fusion_lat": 0.0, "lon": -76.9861355, "is_reserved": 0, "bike_id": "871342dd47269a6b8e7926b2c2703ef2", "fusion_lon": 0.0, "rental_uris": {"android": "https://dc.lft.to/lastmile_qr_scan", "ios": "https://dc.lft.to/lastmile_qr_scan"}, "name": "871342dd47269a6b8e7926b2c2703ef2", "type": "electric_scooter", "lat": 38.938295, "is_disabled": 0}, {"fusion_lat": 0.0, "lon": -77.04873633333334, "is_reserved": 0, "bike_id": "6db6398f9ee3445684251b1b840c5124", "fusion_lon": 0.0, "rental_uris": {"android": "https://dc.lft.to/lastmile_qr_scan", "ios": "https://dc.lft.to/lastmile_qr_scan"}, "name": "6db6398f9ee3445684251b1b840c5124", "type": "electric_scooter", "lat": 38.9097825, "is_disabled": 0}, {"fusion_lat": 0.0, "lon": -77.02679016666667, "is_reserved": 0, "bike_id": "90bc5c591e8c671ce3159994514c84a8", "fusion_lon": 0.0, "rental_uris": {"android": "https://dc.lft.to/lastmile_qr_scan", "ios": "https://dc.lft.to/lastmile_qr_scan"}, "name": "90bc5c591e8c671ce3159994514c84a8", "type": "electric_scooter", "lat": 38.9012365, "is_disabled": 0}, {"fusion_lat": 0.0, "lon": -77.02937816666666, "is_reserved": 0, "bike_id": "00314922b07c8b63604f3361908783d6", "fusion_lon": 0.0, "rental_uris": {"android": "https://dc.lft.to/lastmile_qr_scan", "ios": "https://dc.lft.to/lastmile_qr_scan"}, "name": "00314922b07c8b63604f3361908783d6", "type": "electric_scooter", "lat": 38.9398205, "is_disabled": 0}, {"fusion_lat": 0.0, "lon": -77.02678983333334, "is_reserved": 0, "bike_id": "088495cda476d3fb0d5d57d56b76d32a", "fusion_lon": 0.0, "rental_uris": {"android": "https://dc.lft.to/lastmile_qr_scan", "ios": "https://dc.lft.to/lastmile_qr_scan"}, "name": "088495cda476d3fb0d5d57d56b76d32a", "type": "electric_scooter", "lat": 38.90233683333334, "is_disabled": 0}, {"fusion_lat": 0.0, "lon": -77.017661, "is_reserved": 0, "bike_id": "62432bf4e9fd8ea62b6547076f134e51", "fusion_lon": 0.0, "rental_uris": {"android": "https://dc.lft.to/lastmile_qr_scan", "ios": "https://dc.lft.to/lastmile_qr_scan"}, "name": "62432bf4e9fd8ea62b6547076f134e51", "type": "electric_scooter", "lat": 38.88318483333333, "is_disabled": 0}, {"fusion_lat": 0.0, "lon": -77.02362766666667, "is_reserved": 0, "bike_id": "fa058ac2256eb2a6358f7804c0299006", "fusion_lon": 0.0, "rental_uris": {"android": "https://dc.lft.to/lastmile_qr_scan", "ios": "https://dc.lft.to/lastmile_qr_scan"}, "name": "fa058ac2256eb2a6358f7804c0299006", "type": "electric_scooter", "lat": 38.892186, "is_disabled": 0}, {"fusion_lat": 0.0, "lon": -77.0262625, "is_reserved": 0, "bike_id": "95e36ad62387816a314782352482b125", "fusion_lon": 0.0, "rental_uris": {"android": "https://dc.lft.to/lastmile_qr_scan", "ios": "https://dc.lft.to/lastmile_qr_scan"}, "name": "95e36ad62387816a314782352482b125", "type": "electric_bike", "lat": 38.9622945, "is_disabled": 0}, {"fusion_lat": 0.0, "lon": -77.02507116666666, "is_reserved": 0, "bike_id": "bd2ece953d9e07449dacbffbf1ad6004", "fusion_lon": 0.0, "rental_uris": {"android": "https://dc.lft.to/lastmile_qr_scan", "ios": "https://dc.lft.to/lastmile_qr_scan"}, "name": "bd2ece953d9e07449dacbffbf1ad6004", "type": "electric_scooter", "lat": 38.931024666666666, "is_disabled": 0}, {"fusion_lat": 0.0, "lon": -77.360954, "is_reserved": 0, "bike_id": "c00d8c990236360e3e41059e5cca0644", "fusion_lon": 0.0, "rental_uris": {"android": "https://dc.lft.to/lastmile_qr_scan", "ios": "https://dc.lft.to/lastmile_qr_scan"}, "name": "c00d8c990236360e3e41059e5cca0644", "type": "electric_bike", "lat": 38.93957783333333, "is_disabled": 0}, {"fusion_lat": 0.0, "lon": -76.88367433333333, "is_reserved": 0, "bike_id": "1747fa8e5749cdd30413d6911953ab24", "fusion_lon": 0.0, "rental_uris": {"android": "https://dc.lft.to/lastmile_qr_scan", "ios": "https://dc.lft.to/lastmile_qr_scan"}, "name": "1747fa8e5749cdd30413d6911953ab24", "type": "electric_bike", "lat": 38.998360166666664, "is_disabled": 0}, {"fusion_lat": 0.0, "lon": -76.95145266666667, "is_reserved": 0, "bike_id": "d44af94bb6bb54b6e34b8e8231431d4c", "fusion_lon": 0.0, "rental_uris": {"android": "https://dc.lft.to/lastmile_qr_scan", "ios": "https://dc.lft.to/lastmile_qr_scan"}, "name": "d44af94bb6bb54b6e34b8e8231431d4c", "type": "electric_scooter", "lat": 38.890415833333336, "is_disabled": 0}, {"fusion_lat": 0.0, "lon": -77.03802066666667, "is_reserved": 0, "bike_id": "88f4ac05f39b77f857dbead90460969e", "fusion_lon": 0.0, "rental_uris": {"android": "https://dc.lft.to/lastmile_qr_scan", "ios": "https://dc.lft.to/lastmile_qr_scan"}, "name": "88f4ac05f39b77f857dbead90460969e", "type": "electric_scooter", "lat": 38.914081833333334, "is_disabled": 0}, {"fusion_lat": 0.0, "lon": -76.9769675, "is_reserved": 0, "bike_id": "7ed5a0db19a8e93ab0871370e35f41e8", "fusion_lon": 0.0, "rental_uris": {"android": "https://dc.lft.to/lastmile_qr_scan", "ios": "https://dc.lft.to/lastmile_qr_scan"}, "name": "7ed5a0db19a8e93ab0871370e35f41e8", "type": "electric_bike", "lat": 38.94912566666667, "is_disabled": 0}, {"fusion_lat": 0.0, "lon": -77.03257566666667, "is_reserved": 0, "bike_id": "be5494676d9e730451a0c327c87bc26c", "fusion_lon": 0.0, "rental_uris": {"android": "https://dc.lft.to/lastmile_qr_scan", "ios": "https://dc.lft.to/lastmile_qr_scan"}, "name": "be5494676d9e730451a0c327c87bc26c", "type": "electric_scooter", "lat": 38.9236265, "is_disabled": 0}, {"fusion_lat": 0.0, "lon": -77.004002, "is_reserved": 0, "bike_id": "738695df68a4587e4289707727d97e67", "fusion_lon": 0.0, "rental_uris": {"android": "https://dc.lft.to/lastmile_qr_scan", "ios": "https://dc.lft.to/lastmile_qr_scan"}, "name": "738695df68a4587e4289707727d97e67", "type": "electric_scooter", "lat": 38.9213525, "is_disabled": 0}, {"fusion_lat": 0.0, "lon": -77.0418705, "is_reserved": 0, "bike_id": "54bf77c6be42771780af7997662542ca", "fusion_lon": 0.0, "rental_uris": {"android": "https://dc.lft.to/lastmile_qr_scan", "ios": "https://dc.lft.to/lastmile_qr_scan"}, "name": "54bf77c6be42771780af7997662542ca", "type": "electric_scooter", "lat": 38.917067, "is_disabled": 0}, {"fusion_lat": 0.0, "lon": -77.039722, "is_reserved": 0, "bike_id": "7c7852b95667a114e46e97b0219b7b04", "fusion_lon": 0.0, "rental_uris": {"android": "https://dc.lft.to/lastmile_qr_scan", "ios": "https://dc.lft.to/lastmile_qr_scan"}, "name": "7c7852b95667a114e46e97b0219b7b04", "type": "electric_scooter", "lat": 38.92025066666667, "is_disabled": 0}, {"fusion_lat": 0.0, "lon": -77.0534435, "is_reserved": 0, "bike_id": "bd36b032353e76d80baa34164fbc2e79", "fusion_lon": 0.0, "rental_uris": {"android": "https://dc.lft.to/lastmile_qr_scan", "ios": "https://dc.lft.to/lastmile_qr_scan"}, "name": "bd36b032353e76d80baa34164fbc2e79", "type": "electric_scooter", "lat": 38.927176833333334, "is_disabled": 0}, {"fusion_lat": 0.0, "lon": -77.03779066666667, "is_reserved": 0, "bike_id": "26d96d447c24f24468944967afea8509", "fusion_lon": 0.0, "rental_uris": {"android": "https://dc.lft.to/lastmile_qr_scan", "ios": "https://dc.lft.to/lastmile_qr_scan"}, "name": "26d96d447c24f24468944967afea8509", "type": "electric_scooter", "lat": 38.922127333333336, "is_disabled": 0}, {"fusion_lat": 0.0, "lon": -77.00345166666666, "is_reserved": 0, "bike_id": "a4413c897c0f9b4f490c41fe3b87f561", "fusion_lon": 0.0, "rental_uris": {"android": "https://dc.lft.to/lastmile_qr_scan", "ios": "https://dc.lft.to/lastmile_qr_scan"}, "name": "a4413c897c0f9b4f490c41fe3b87f561", "type": "electric_scooter", "lat": 38.886111, "is_disabled": 0}, {"fusion_lat": 0.0, "lon": -77.0162825, "is_reserved": 0, "bike_id": "4ac54623de87ece79e7d06122cf239bb", "fusion_lon": 0.0, "rental_uris": {"android": "https://dc.lft.to/lastmile_qr_scan", "ios": "https://dc.lft.to/lastmile_qr_scan"}, "name": "4ac54623de87ece79e7d06122cf239bb", "type": "electric_scooter", "lat": 38.965544333333334, "is_disabled": 0}, {"fusion_lat": 0.0, "lon": -77.03257616666667, "is_reserved": 0, "bike_id": "71328cc851b50abf9240fa9172964519", "fusion_lon": 0.0, "rental_uris": {"android": "https://dc.lft.to/lastmile_qr_scan", "ios": "https://dc.lft.to/lastmile_qr_scan"}, "name": "71328cc851b50abf9240fa9172964519", "type": "electric_scooter", "lat": 38.946236, "is_disabled": 0}, {"fusion_lat": 0.0, "lon": -77.04325866666667, "is_reserved": 0, "bike_id": "034edeec10fe1cd5850575a72cf0e382", "fusion_lon": 0.0, "rental_uris": {"android": "https://dc.lft.to/lastmile_qr_scan", "ios": "https://dc.lft.to/lastmile_qr_scan"}, "name": "034edeec10fe1cd5850575a72cf0e382", "type": "electric_scooter", "lat": 38.8922135, "is_disabled": 0}, {"fusion_lat": 0.0, "lon": -77.04929633333333, "is_reserved": 0, "bike_id": "748839c8512abea3c4a8eff605646b7b", "fusion_lon": 0.0, "rental_uris": {"android": "https://dc.lft.to/lastmile_qr_scan", "ios": "https://dc.lft.to/lastmile_qr_scan"}, "name": "748839c8512abea3c4a8eff605646b7b", "type": "electric_scooter", "lat": 38.895332833333335, "is_disabled": 0}, {"fusion_lat": 0.0, "lon": -76.98094683333333, "is_reserved": 0, "bike_id": "fccc43ef3b32afa111f1ef3fd63ea6b4", "fusion_lon": 0.0, "rental_uris": {"android": "https://dc.lft.to/lastmile_qr_scan", "ios": "https://dc.lft.to/lastmile_qr_scan"}, "name": "fccc43ef3b32afa111f1ef3fd63ea6b4", "type": "electric_bike", "lat": 38.921089333333335, "is_disabled": 0}, {"fusion_lat": 0.0, "lon": -76.99793116666666, "is_reserved": 0, "bike_id": "ffb4890aade346d7a6f4efedff887c7b", "fusion_lon": 0.0, "rental_uris": {"android": "https://dc.lft.to/lastmile_qr_scan", "ios": "https://dc.lft.to/lastmile_qr_scan"}, "name": "ffb4890aade346d7a6f4efedff887c7b", "type": "electric_bike", "lat": 38.956416833333336, "is_disabled": 0}, {"fusion_lat": 0.0, "lon": -77.004815, "is_reserved": 0, "bike_id": "7df859800c6a07248cff1561338a57d8", "fusion_lon": 0.0, "rental_uris": {"android": "https://dc.lft.to/lastmile_qr_scan", "ios": "https://dc.lft.to/lastmile_qr_scan"}, "name": "7df859800c6a07248cff1561338a57d8", "type": "electric_scooter", "lat": 38.87471766666667, "is_disabled": 0}, {"fusion_lat": 0.0, "lon": -77.03292266666666, "is_reserved": 0, "bike_id": "9f6595204751f0b13356be67b0d351f8", "fusion_lon": 0.0, "rental_uris": {"android": "https://dc.lft.to/lastmile_qr_scan", "ios": "https://dc.lft.to/lastmile_qr_scan"}, "name": "9f6595204751f0b13356be67b0d351f8", "type": "electric_scooter", "lat": 38.8922925, "is_disabled": 0}, {"fusion_lat": 0.0, "lon": -77.04728816666666, "is_reserved": 0, "bike_id": "245bc9f8570b3d1f3a073ad6529f58d8", "fusion_lon": 0.0, "rental_uris": {"android": "https://dc.lft.to/lastmile_qr_scan", "ios": "https://dc.lft.to/lastmile_qr_scan"}, "name": "245bc9f8570b3d1f3a073ad6529f58d8", "type": "electric_scooter", "lat": 38.90981383333333, "is_disabled": 0}, {"fusion_lat": 0.0, "lon": -76.93360483333333, "is_reserved": 0, "bike_id": "381414e0e3b2b3761a8e6e981be2a8ca", "fusion_lon": 0.0, "rental_uris": {"android": "https://dc.lft.to/lastmile_qr_scan", "ios": "https://dc.lft.to/lastmile_qr_scan"}, "name": "381414e0e3b2b3761a8e6e981be2a8ca", "type": "electric_scooter", "lat": 38.899172166666666, "is_disabled": 0}, {"fusion_lat": 0.0, "lon": -77.03178083333333, "is_reserved": 0, "bike_id": "6e72db8aa2b8f031c9d067952baa5692", "fusion_lon": 0.0, "rental_uris": {"android": "https://dc.lft.to/lastmile_qr_scan", "ios": "https://dc.lft.to/lastmile_qr_scan"}, "name": "6e72db8aa2b8f031c9d067952baa5692", "type": "electric_scooter", "lat": 38.917918, "is_disabled": 0}, {"fusion_lat": 0.0, "lon": -77.04762233333334, "is_reserved": 0, "bike_id": "02ddd5606b180931ce47151e93fad6b5", "fusion_lon": 0.0, "rental_uris": {"android": "https://dc.lft.to/lastmile_qr_scan", "ios": "https://dc.lft.to/lastmile_qr_scan"}, "name": "02ddd5606b180931ce47151e93fad6b5", "type": "electric_scooter", "lat": 38.9175225, "is_disabled": 0}, {"fusion_lat": 0.0, "lon": -77.01111333333333, "is_reserved": 0, "bike_id": "1b1602fe2166ea4599fa9b7cc65108c3", "fusion_lon": 0.0, "rental_uris": {"android": "https://dc.lft.to/lastmile_qr_scan", "ios": "https://dc.lft.to/lastmile_qr_scan"}, "name": "1b1602fe2166ea4599fa9b7cc65108c3", "type": "electric_scooter", "lat": 38.89483033333333, "is_disabled": 0}, {"fusion_lat": 0.0, "lon": -77.01785516666666, "is_reserved": 0, "bike_id": "ac4bb666f84ff80038496ade73797440", "fusion_lon": 0.0, "rental_uris": {"android": "https://dc.lft.to/lastmile_qr_scan", "ios": "https://dc.lft.to/lastmile_qr_scan"}, "name": "ac4bb666f84ff80038496ade73797440", "type": "electric_scooter", "lat": 38.90443883333333, "is_disabled": 0}, {"fusion_lat": 0.0, "lon": -77.03207716666667, "is_reserved": 0, "bike_id": "400dfccce27ac88a47d262c48076e45e", "fusion_lon": 0.0, "rental_uris": {"android": "https://dc.lft.to/lastmile_qr_scan", "ios": "https://dc.lft.to/lastmile_qr_scan"}, "name": "400dfccce27ac88a47d262c48076e45e", "type": "electric_scooter", "lat": 38.91424933333333, "is_disabled": 0}, {"fusion_lat": 0.0, "lon": -77.0327395, "is_reserved": 0, "bike_id": "c360e3ce4dad1e6fffc76bb323e3b90c", "fusion_lon": 0.0, "rental_uris": {"android": "https://dc.lft.to/lastmile_qr_scan", "ios": "https://dc.lft.to/lastmile_qr_scan"}, "name": "c360e3ce4dad1e6fffc76bb323e3b90c", "type": "electric_scooter", "lat": 38.92060016666667, "is_disabled": 0}, {"fusion_lat": 0.0, "lon": -76.99545733333333, "is_reserved": 0, "bike_id": "37a575b4d2c460f2b806fade1adaa258", "fusion_lon": 0.0, "rental_uris": {"android": "https://dc.lft.to/lastmile_qr_scan", "ios": "https://dc.lft.to/lastmile_qr_scan"}, "name": "37a575b4d2c460f2b806fade1adaa258", "type": "electric_scooter", "lat": 38.862595, "is_disabled": 0}, {"fusion_lat": 0.0, "lon": -77.04095683333334, "is_reserved": 0, "bike_id": "f32222cf4893eee4e0d812ef80d63576", "fusion_lon": 0.0, "rental_uris": {"android": "https://dc.lft.to/lastmile_qr_scan", "ios": "https://dc.lft.to/lastmile_qr_scan"}, "name": "f32222cf4893eee4e0d812ef80d63576", "type": "electric_scooter", "lat": 38.910454, "is_disabled": 0}, {"fusion_lat": 0.0, "lon": -77.045602, "is_reserved": 0, "bike_id": "7cfa62169c1c17e1b50b2640a4a831dd", "fusion_lon": 0.0, "rental_uris": {"android": "https://dc.lft.to/lastmile_qr_scan", "ios": "https://dc.lft.to/lastmile_qr_scan"}, "name": "7cfa62169c1c17e1b50b2640a4a831dd", "type": "electric_scooter", "lat": 38.9241615, "is_disabled": 0}, {"fusion_lat": 0.0, "lon": -76.9903075, "is_reserved": 0, "bike_id": "fcc21b026ff2f773cb9a1c8364b737af", "fusion_lon": 0.0, "rental_uris": {"android": "https://dc.lft.to/lastmile_qr_scan", "ios": "https://dc.lft.to/lastmile_qr_scan"}, "name": "fcc21b026ff2f773cb9a1c8364b737af", "type": "electric_scooter", "lat": 38.898536, "is_disabled": 0}, {"fusion_lat": 0.0, "lon": -77.03333583333334, "is_reserved": 0, "bike_id": "c19efec6c15a974e5fc493784b5869f6", "fusion_lon": 0.0, "rental_uris": {"android": "https://dc.lft.to/lastmile_qr_scan", "ios": "https://dc.lft.to/lastmile_qr_scan"}, "name": "c19efec6c15a974e5fc493784b5869f6", "type": "electric_scooter", "lat": 38.921550833333335, "is_disabled": 0}, {"fusion_lat": 0.0, "lon": -77.02392116666667, "is_reserved": 0, "bike_id": "7a5a75c9292ef35f5e980ac4dd73b0d0", "fusion_lon": 0.0, "rental_uris": {"android": "https://dc.lft.to/lastmile_qr_scan", "ios": "https://dc.lft.to/lastmile_qr_scan"}, "name": "7a5a75c9292ef35f5e980ac4dd73b0d0", "type": "electric_scooter", "lat": 38.925974, "is_disabled": 0}, {"fusion_lat": 0.0, "lon": -76.969281, "is_reserved": 0, "bike_id": "8f2ed35c66d84655b63d371cb0d7e993", "fusion_lon": 0.0, "rental_uris": {"android": "https://dc.lft.to/lastmile_qr_scan", "ios": "https://dc.lft.to/lastmile_qr_scan"}, "name": "8f2ed35c66d84655b63d371cb0d7e993", "type": "electric_bike", "lat": 38.95114366666667, "is_disabled": 0}, {"fusion_lat": 0.0, "lon": -77.0023535, "is_reserved": 0, "bike_id": "64df9d8f8a1cda007d357123afe34d07", "fusion_lon": 0.0, "rental_uris": {"android": "https://dc.lft.to/lastmile_qr_scan", "ios": "https://dc.lft.to/lastmile_qr_scan"}, "name": "64df9d8f8a1cda007d357123afe34d07", "type": "electric_scooter", "lat": 38.957183666666666, "is_disabled": 0}, {"fusion_lat": 0.0, "lon": -77.0169095, "is_reserved": 0, "bike_id": "998ef505f806b37816bf6102f4168843", "fusion_lon": 0.0, "rental_uris": {"android": "https://dc.lft.to/lastmile_qr_scan", "ios": "https://dc.lft.to/lastmile_qr_scan"}, "name": "998ef505f806b37816bf6102f4168843", "type": "electric_scooter", "lat": 38.974993166666664, "is_disabled": 0}, {"fusion_lat": 0.0, "lon": -77.0297675, "is_reserved": 0, "bike_id": "7c61669351f3474c011087a311c34f1b", "fusion_lon": 0.0, "rental_uris": {"android": "https://dc.lft.to/lastmile_qr_scan", "ios": "https://dc.lft.to/lastmile_qr_scan"}, "name": "7c61669351f3474c011087a311c34f1b", "type": "electric_scooter", "lat": 38.921918, "is_disabled": 0}, {"fusion_lat": 0.0, "lon": -76.98821333333333, "is_reserved": 0, "bike_id": "e2636cb016ffa52accd89e2dab9a4c25", "fusion_lon": 0.0, "rental_uris": {"android": "https://dc.lft.to/lastmile_qr_scan", "ios": "https://dc.lft.to/lastmile_qr_scan"}, "name": "e2636cb016ffa52accd89e2dab9a4c25", "type": "electric_scooter", "lat": 38.8907445, "is_disabled": 0}, {"fusion_lat": 0.0, "lon": -77.22798, "is_reserved": 0, "bike_id": "536a121eecaa577234423dd3a8724c63", "fusion_lon": 0.0, "rental_uris": {"android": "https://dc.lft.to/lastmile_qr_scan", "ios": "https://dc.lft.to/lastmile_qr_scan"}, "name": "536a121eecaa577234423dd3a8724c63", "type": "electric_bike", "lat": 38.910143833333336, "is_disabled": 0}, {"fusion_lat": 0.0, "lon": -77.0092715, "is_reserved": 0, "bike_id": "bc491875b428e89dc4ecc4223bcfb465", "fusion_lon": 0.0, "rental_uris": {"android": "https://dc.lft.to/lastmile_qr_scan", "ios": "https://dc.lft.to/lastmile_qr_scan"}, "name": "bc491875b428e89dc4ecc4223bcfb465", "type": "electric_scooter", "lat": 38.91804966666667, "is_disabled": 0}, {"fusion_lat": 0.0, "lon": -77.03859883333334, "is_reserved": 0, "bike_id": "5df2f94f171c8bb35bb43efcbe3612d8", "fusion_lon": 0.0, "rental_uris": {"android": "https://dc.lft.to/lastmile_qr_scan", "ios": "https://dc.lft.to/lastmile_qr_scan"}, "name": "5df2f94f171c8bb35bb43efcbe3612d8", "type": "electric_scooter", "lat": 38.915554166666666, "is_disabled": 0}, {"fusion_lat": 0.0, "lon": -77.025079, "is_reserved": 0, "bike_id": "e7fe73fa1bd62d5761728a34ad2bd663", "fusion_lon": 0.0, "rental_uris": {"android": "https://dc.lft.to/lastmile_qr_scan", "ios": "https://dc.lft.to/lastmile_qr_scan"}, "name": "e7fe73fa1bd62d5761728a34ad2bd663", "type": "electric_scooter", "lat": 38.920922166666664, "is_disabled": 0}, {"fusion_lat": 0.0, "lon": -76.9907875, "is_reserved": 0, "bike_id": "2b0e2c0ae13e6a393a44a6bcffc46479", "fusion_lon": 0.0, "rental_uris": {"android": "https://dc.lft.to/lastmile_qr_scan", "ios": "https://dc.lft.to/lastmile_qr_scan"}, "name": "2b0e2c0ae13e6a393a44a6bcffc46479", "type": "electric_bike", "lat": 38.86233683333333, "is_disabled": 0}, {"fusion_lat": 0.0, "lon": -77.00435983333334, "is_reserved": 0, "bike_id": "c47415732e8732650515c53b9caa4e4b", "fusion_lon": 0.0, "rental_uris": {"android": "https://dc.lft.to/lastmile_qr_scan", "ios": "https://dc.lft.to/lastmile_qr_scan"}, "name": "c47415732e8732650515c53b9caa4e4b", "type": "electric_scooter", "lat": 38.90555416666667, "is_disabled": 0}, {"fusion_lat": 0.0, "lon": -77.0330155, "is_reserved": 0, "bike_id": "8a75aabdaec1168433ed03aabbd795e4", "fusion_lon": 0.0, "rental_uris": {"android": "https://dc.lft.to/lastmile_qr_scan", "ios": "https://dc.lft.to/lastmile_qr_scan"}, "name": "8a75aabdaec1168433ed03aabbd795e4", "type": "electric_scooter", "lat": 38.956349, "is_disabled": 0}, {"fusion_lat": 0.0, "lon": -77.04358366666666, "is_reserved": 0, "bike_id": "2c3b36bb6adebe0b07a0efa81efa1c4e", "fusion_lon": 0.0, "rental_uris": {"android": "https://dc.lft.to/lastmile_qr_scan", "ios": "https://dc.lft.to/lastmile_qr_scan"}, "name": "2c3b36bb6adebe0b07a0efa81efa1c4e", "type": "electric_scooter", "lat": 38.89231066666667, "is_disabled": 0}, {"fusion_lat": 0.0, "lon": -77.0588205, "is_reserved": 0, "bike_id": "eefd301d265622c3a80865b4b5f552e9", "fusion_lon": 0.0, "rental_uris": {"android": "https://dc.lft.to/lastmile_qr_scan", "ios": "https://dc.lft.to/lastmile_qr_scan"}, "name": "eefd301d265622c3a80865b4b5f552e9", "type": "electric_scooter", "lat": 38.9430255, "is_disabled": 0}, {"fusion_lat": 0.0, "lon": -77.02760766666667, "is_reserved": 0, "bike_id": "7b08b28496e26c22a475a71bccb298f0", "fusion_lon": 0.0, "rental_uris": {"android": "https://dc.lft.to/lastmile_qr_scan", "ios": "https://dc.lft.to/lastmile_qr_scan"}, "name": "7b08b28496e26c22a475a71bccb298f0", "type": "electric_scooter", "lat": 38.954245, "is_disabled": 0}, {"fusion_lat": 0.0, "lon": -76.99380383333333, "is_reserved": 0, "bike_id": "386ffe88e6b10757863faa323d8224ec", "fusion_lon": 0.0, "rental_uris": {"android": "https://dc.lft.to/lastmile_qr_scan", "ios": "https://dc.lft.to/lastmile_qr_scan"}, "name": "386ffe88e6b10757863faa323d8224ec", "type": "electric_bike", "lat": 38.92293683333333, "is_disabled": 0}, {"fusion_lat": 0.0, "lon": -77.03219216666666, "is_reserved": 0, "bike_id": "5e3743bcfa0335991f26dc768383859b", "fusion_lon": 0.0, "rental_uris": {"android": "https://dc.lft.to/lastmile_qr_scan", "ios": "https://dc.lft.to/lastmile_qr_scan"}, "name": "5e3743bcfa0335991f26dc768383859b", "type": "electric_scooter", "lat": 38.892171, "is_disabled": 0}, {"fusion_lat": 0.0, "lon": -77.02653183333334, "is_reserved": 0, "bike_id": "38a03c2f9422ef0f3b3b15d9993a7940", "fusion_lon": 0.0, "rental_uris": {"android": "https://dc.lft.to/lastmile_qr_scan", "ios": "https://dc.lft.to/lastmile_qr_scan"}, "name": "38a03c2f9422ef0f3b3b15d9993a7940", "type": "electric_scooter", "lat": 38.892168, "is_disabled": 0}, {"fusion_lat": 0.0, "lon": -77.03474216666666, "is_reserved": 0, "bike_id": "6d2918ee07911a0d1336e12a9886a3fa", "fusion_lon": 0.0, "rental_uris": {"android": "https://dc.lft.to/lastmile_qr_scan", "ios": "https://dc.lft.to/lastmile_qr_scan"}, "name": "6d2918ee07911a0d1336e12a9886a3fa", "type": "electric_scooter", "lat": 38.9254035, "is_disabled": 0}, {"fusion_lat": 0.0, "lon": -76.97804916666666, "is_reserved": 0, "bike_id": "873bd6ee902152aa58194da9a4e537e4", "fusion_lon": 0.0, "rental_uris": {"android": "https://dc.lft.to/lastmile_qr_scan", "ios": "https://dc.lft.to/lastmile_qr_scan"}, "name": "873bd6ee902152aa58194da9a4e537e4", "type": "electric_scooter", "lat": 38.903109, "is_disabled": 0},