{"data": {"bikes": [{"is_disabled": 0, "rental_uris": {"android": "https://dc.lft.to/lastmile_qr_scan", "ios": "https://dc.lft.to/lastmile_qr_scan"}, "is_reserved": 0, "name": "7a653b4f998ce6ace203fe9ec81c11ba", "lon": -77.02727, "type": "electric_scooter", "bike_id": "7a653b4f998ce6ace203fe9ec81c11ba", "fusion_lon": 0.0, "lat": 38.90960966666667, "fusion_lat": 0.0}, {"is_disabled": 0, "rental_uris": {"android": "https://dc.lft.to/lastmile_qr_scan", "ios": "https://dc.lft.to/lastmile_qr_scan"}, "is_reserved": 0, "name": "d80d3ac8ae07b68405f51ddfdc53b562", "lon": -77.0466985, "type": "electric_scooter", "bike_id": "d80d3ac8ae07b68405f51ddfdc53b562", "fusion_lon": 0.0, "lat": 38.911776333333336, "fusion_lat": 0.0}, {"is_disabled": 0, "rental_uris": {"android": "https://dc.lft.to/lastmile_qr_scan", "ios": "https://dc.lft.to/lastmile_qr_scan"}, "is_reserved": 0, "name": "5091c2d43f8c77a952d68293bd93a2c9", "lon": -77.04220566666666, "type": "electric_scooter", "bike_id": "5091c2d43f8c77a952d68293bd93a2c9", "fusion_lon": 0.0, "lat": 38.9211035, "fusion_lat": 0.0}, {"is_disabled": 0, "rental_uris": {"android": "https://dc.lft.to/lastmile_qr_scan", "ios": "https://dc.lft.to/lastmile_qr_scan"}, "is_reserved": 0, "name": "dbd781237445ec6abcc0d6401d9024ae", "lon": -76.99164916666666, "type": "electric_scooter", "bike_id": "dbd781237445ec6abcc0d6401d9024ae", "fusion_lon": 0.0, "lat": 38.881451, "fusion_lat": 0.0}, {"is_disabled": 0, "rental_uris": {"android": "https://dc.lft.to/lastmile_qr_scan", "ios": "https://dc.lft.to/lastmile_qr_scan"}, "is_reserved": 0, "name": "d2735ef9a2bb1979701ac3da2299db15", "lon": -77.01549133333333, "type": "electric_scooter", "bike_id": "d2735ef9a2bb1979701ac3da2299db15", "fusion_lon": 0.0, "lat": 38.88770316666667, "fusion_lat": 0.0}, {"is_disabled": 0, "rental_uris": {"android": "https://dc.lft.to/lastmile_qr_scan", "ios": "https://dc.lft.to/lastmile_qr_scan"}, "is_reserved": 0, "name": "007ad830072172c94215e3cde5a700cf", "lon": -77.0464105, "type": "electric_scooter", "bike_id": "007ad830072172c94215e3cde5a700cf", "fusion_lon": 0.0, "lat": 38.90569833333333, "fusion_lat": 0.0}, {"is_disabled": 0, "rental_uris": {"android": "https://dc.lft.to/lastmile_qr_scan", "ios": "https://dc.lft.to/lastmile_qr_scan"}, "is_reserved": 0, "name": "5a7c20f71a50300a68ce6eb61e7050bf", "lon": -76.98745683333334, "type": "electric_scooter", "bike_id": "5a7c20f71a50300a68ce6eb61e7050bf", "fusion_lon": 0.0, "lat": 38.87965833333333, "fusion_lat": 0.0}, {"is_disabled": 0, "rental_uris": {"android": "https://dc.lft.to/lastmile_qr_scan", "ios": "https://dc.lft.to/lastmile_qr_scan"}, "is_reserved": 0, "name": "3ae1b68f96def30237e76967ae470f71", "lon": -77.02950133333333, "type": "electric_scooter", "bike_id": "3ae1b68f96def30237e76967ae470f71", "fusion_lon": 0.0, "lat": 38.90446216666667, "fusion_lat": 0.0}, {"is_disabled": 0, "rental_uris": {"android": "https://dc.lft.to/lastmile_qr_scan", "ios": "https://dc.lft.to/lastmile_qr_scan"}, "is_reserved": 0, "name": "d323e7159b7d01304e89d7dd70295d24", "lon": -77.0293195, "type": "electric_scooter", "bike_id": "d323e7159b7d01304e89d7dd70295d24", "fusion_lon": 0.0, "lat": 38.93752716666667, "fusion_lat": 0.0}, {"is_disabled": 0, "rental_uris": {"android": "https://dc.lft.to/lastmile_qr_scan", "ios": "https://dc.lft.to/lastmile_qr_scan"}, "is_reserved": 0, "name": "671c3d4a2e452457baad803ffff1c2d3", "lon": -76.97171466666667, "type": "electric_bike", "bike_id": "671c3d4a2e452457baad803ffff1c2d3", "fusion_lon": 0.0, "lat": 38.976770333333334, "fusion_lat": 0.0}, {"is_disabled": 0, "rental_uris": {"android": "https://dc.lft.to/lastmile_qr_scan", "ios": "https://dc.lft.to/lastmile_qr_scan"}, "is_reserved": 0, "name": "91531d66263db534eef034df28672dac", "lon": -77.01426216666667, "type": "electric_scooter", "bike_id": "91531d66263db534eef034df28672dac", "fusion_lon": 0.0, "lat": 38.928725, "fusion_lat": 0.0}, {"is_disabled": 0, "rental_uris": {"android": "https://dc.lft.to/lastmile_qr_scan", "ios": "https://dc.lft.to/lastmile_qr_scan"}, "is_reserved": 0, "name": "67d399f7a8720264e233265d3ac77d7f", "lon": -77.02087683333333, "type": "electric_scooter", "bike_id": "67d399f7a8720264e233265d3ac77d7f", "fusion_lon": 0.0, "lat": 38.93017366666667, "fusion_lat": 0.0}, {"is_disabled": 0, "rental_uris": {"android": "https://dc.lft.to/lastmile_qr_scan", "ios": "https://dc.lft.to/lastmile_qr_scan"}, "is_reserved": 0, "name": "652192546fb89956f87fefcee00ca03a", "lon": -77.00926633333333, "type": "electric_scooter", "bike_id": "652192546fb89956f87fefcee00ca03a", "fusion_lon": 0.0, "lat": 38.8960605, "fusion_lat": 0.0}, {"is_disabled": 0, "rental_uris": {"android": "https://dc.lft.to/lastmile_qr_scan", "ios": "https://dc.lft.to/lastmile_qr_scan"}, "is_reserved": 0, "name": "edf4963e6b820bee9c437220f673c985", "lon": -77.00193216666666, "type": "electric_scooter", "bike_id": "edf4963e6b820bee9c437220f673c985", "fusion_lon": 0.0, "lat": 38.9005, "fusion_lat": 0.0}, {"is_disabled": 0, "rental_uris": {"android": "https://dc.lft.to/lastmile_qr_scan", "ios": "https://dc.lft.to/lastmile_qr_scan"}, "is_reserved": 0, "name": "682e206feaa32ff6cb7c651977c05452", "lon": -77.0073975, "type": "electric_bike", "bike_id": "682e206feaa32ff6cb7c651977c05452", "fusion_lon": 0.0, "lat": 38.90462133333333, "fusion_lat": 0.0}, {"is_disabled": 0, "rental_uris": {"android": "https://dc.lft.to/lastmile_qr_scan", "ios": "https://dc.lft.to/lastmile_qr_scan"}, "is_reserved": 0, "name": "2264fd435ff3e78343deaa3c49b59157", "lon": -77.05426666666666, "type": "electric_scooter", "bike_id": "2264fd435ff3e78343deaa3c49b59157", "fusion_lon": 0.0, "lat": 38.8991605, "fusion_lat": 0.0}, {"is_disabled": 0, "rental_uris": {"android": "https://dc.lft.to/lastmile_qr_scan", "ios": "https://dc.lft.to/lastmile_qr_scan"}, "is_reserved": 0, "name": "7cd722a0180d5528c8b4a654b12e3996", "lon": -77.05165633333333, "type": "electric_scooter", "bike_id": "7cd722a0180d5528c8b4a654b12e3996", "fusion_lon": 0.0, "lat": 38.905868166666664, "fusion_lat": 0.0}, {"is_disabled": 0, "rental_uris": {"android": "https://dc.lft.to/lastmile_qr_scan", "ios": "https://dc.lft.to/lastmile_qr_scan"}, "is_reserved": 0, "name": "4fa92f7715bb1bd4e58ecad2559f3390", "lon": -76.952258, "type": "electric_bike", "bike_id": "4fa92f7715bb1bd4e58ecad2559f3390", "fusion_lon": 0.0, "lat": 38.892392666666666, "fusion_lat": 0.0}, {"is_disabled": 0, "rental_uris": {"android": "https://dc.lft.to/lastmile_qr_scan", "ios": "https://dc.lft.to/lastmile_qr_scan"}, "is_reserved": 0, "name": "cf1512c975cd6d5a7b10e7f642e83e82", "lon": -77.01087883333334, "type": "electric_scooter", "bike_id": "cf1512c975cd6d5a7b10e7f642e83e82", "fusion_lon": 0.0, "lat": 38.91817616666667, "fusion_lat": 0.0}, {"is_disabled": 0, "rental_uris": {"android": "https://dc.lft.to/lastmile_qr_scan", "ios": "https://dc.lft.to/lastmile_qr_scan"}, "is_reserved": 0, "name": "bf305daffa008b5a498dfb5f3bfe6694", "lon": -77.00833716666666, "type": "electric_scooter", "bike_id": "bf305daffa008b5a498dfb5f3bfe6694", "fusion_lon": 0.0, "lat": 38.91259733333333, "fusion_lat": 0.0}, {"is_disabled": 0, "rental_uris": {"android": "https://dc.lft.to/lastmile_qr_scan", "ios": "https://dc.lft.to/lastmile_qr_scan"}, "is_reserved": 0, "name": "39c1d663b8d9c1209ba9fcdea4ab61f1", "lon": -76.889057, "type": "electric_bike", "bike_id": "39c1d663b8d9c1209ba9fcdea4ab61f1", "fusion_lon": 0.0, "lat": 38.92592766666667, "fusion_lat": 0.0}, {"is_disabled": 0, "rental_uris": {"android": "https://dc.lft.to/lastmile_qr_scan", "ios": "https://dc.lft.to/lastmile_qr_scan"}, "is_reserved": 0, "name": "e02e1bfe5ca9a240de76e7b59602314e", "lon": -77.03662383333334, "type": "electric_scooter", "bike_id": "e02e1bfe5ca9a240de76e7b59602314e", "fusion_lon": 0.0, "lat": 38.91713883333333, "fusion_lat": 0.0}, {"is_disabled": 0, "rental_uris": {"android": "https://dc.lft.to/lastmile_qr_scan", "ios": "https://dc.lft.to/lastmile_qr_scan"}, "is_reserved": 0, "name": "aaec7c9adc93f9524ff85fa4e108d11e", "lon": -77.027808, "type": "electric_scooter", "bike_id": "aaec7c9adc93f9524ff85fa4e108d11e", "fusion_lon": 0.0, "lat": 38.910231333333336, "fusion_lat": 0.0}, {"is_disabled": 0, "rental_uris": {"android": "https://dc.lft.to/lastmile_qr_scan", "ios": "https://dc.lft.to/lastmile_qr_scan"}, "is_reserved": 0, "name": "041f134e7402e6bde17fae6db6bf897e", "lon": -77.031729, "type": "electric_scooter", "bike_id": "041f134e7402e6bde17fae6db6bf897e", "fusion_lon": 0.0, "lat": 38.89184566666667, "fusion_lat": 0.0}, {"is_disabled": 0, "rental_uris": {"android": "https://dc.lft.to/lastmile_qr_scan", "ios": "https://dc.lft.to/lastmile_qr_scan"}, "is_reserved": 0, "name": "214ad2b36a175fa4fa52d7cf14434aac", "lon": -77.04348483333334, "type": "electric_scooter", "bike_id": "214ad2b36a175fa4fa52d7cf14434aac", "fusion_lon": 0.0, "lat": 38.921702, "fusion_lat": 0.0}, {"is_disabled": 0, "rental_uris": {"android": "https://dc.lft.to/lastmile_qr_scan", "ios": "https://dc.lft.to/lastmile_qr_scan"}, "is_reserved": 0, "name": "72098c16958cbf00a72bf67f1bcbe770", "lon": -76.98610366666666, "type": "electric_scooter", "bike_id": "72098c16958cbf00a72bf67f1bcbe770", "fusion_lon": 0.0, "lat": 38.88290033333333, "fusion_lat": 0.0}, {"is_disabled": 0, "rental_uris": {"android": "https://dc.lft.to/lastmile_qr_scan", "ios": "https://dc.lft.to/lastmile_qr_scan"}, "is_reserved": 0, "name": "a18c6ae6ff4ac6b044f35617ca0a9fb6", "lon": -77.034685, "type": "electric_scooter", "bike_id": "a18c6ae6ff4ac6b044f35617ca0a9fb6", "fusion_lon": 0.0, "lat": 38.92153366666667, "fusion_lat": 0.0}, {"is_disabled": 0, "rental_uris": {"android": "https://dc.lft.to/lastmile_qr_scan", "ios": "https://dc.lft.to/lastmile_qr_scan"}, "is_reserved": 0, "name": "7244c1453448fb7a9b144878d2bd9911", "lon": -77.03251333333333, "type": "electric_scooter", "bike_id": "7244c1453448fb7a9b144878d2bd9911", "fusion_lon": 0.0, "lat": 38.90713316666667, "fusion_lat": 0.0}, {"is_disabled": 0, "rental_uris": {"android": "https://dc.lft.to/lastmile_qr_scan", "ios": "https://dc.lft.to/lastmile_qr_scan"}, "is_reserved": 0, "name": "2c05f5333cdf91f5c5194bbf1c0b0a02", "lon": -77.12747633333333, "type": "electric_bike", "bike_id": "2c05f5333cdf91f5c5194bbf1c0b0a02", "fusion_lon": 0.0, "lat": 38.8882545, "fusion_lat": 0.0}, {"is_disabled": 0, "rental_uris": {"android": "https://dc.lft.to/lastmile_qr_scan", "ios": "https://dc.lft.to/lastmile_qr_scan"}, "is_reserved": 0, "name": "bf9df25147714740c974a82faf3437b2", "lon": -76.9656045, "type": "electric_scooter", "bike_id": "bf9df25147714740c974a82faf3437b2", "fusion_lon": 0.0, "lat": 38.9182955, "fusion_lat": 0.0}, {"is_disabled": 0, "rental_uris": {"android": "https://dc.lft.to/lastmile_qr_scan", "ios": "https://dc.lft.to/lastmile_qr_scan"}, "is_reserved": 0, "name": "fa85a7ee90793777153e4fed3544597a", "lon": -77.02164466666666, "type": "electric_scooter", "bike_id": "fa85a7ee90793777153e4fed3544597a", "fusion_lon": 0.0, "lat": 38.92614533333333, "fusion_lat": 0.0}, {"is_disabled": 0, "rental_uris": {"android": "https://dc.lft.to/lastmile_qr_scan", "ios": "https://dc.lft.to/lastmile_qr_scan"}, "is_reserved": 0, "name": "4115acbf338615c80f079d00c95ac6bd", "lon": -77.06906483333333, "type": "electric_scooter", "bike_id": "4115acbf338615c80f079d00c95ac6bd", "fusion_lon": 0.0, "lat": 38.907862333333334, "fusion_lat": 0.0}, {"is_disabled": 0, "rental_uris": {"android": "https://dc.lft.to/lastmile_qr_scan", "ios": "https://dc.lft.to/lastmile_qr_scan"}, "is_reserved": 0, "name": "59e2504c58aa29404c4606b23416d5aa", "lon": -76.986274, "type": "electric_scooter", "bike_id": "59e2504c58aa29404c4606b23416d5aa", "fusion_lon": 0.0, "lat": 38.903459833333336, "fusion_lat": 0.0}, {"is_disabled": 0, "rental_uris": {"android": "https://dc.lft.to/lastmile_qr_scan", "ios": "https://dc.lft.to/lastmile_qr_scan"}, "is_reserved": 0, "name": "69e88e96d8a0652bdb239c580dc5d95b", "lon": -77.05001366666667, "type": "electric_scooter", "bike_id": "69e88e96d8a0652bdb239c580dc5d95b", "fusion_lon": 0.0, "lat": 38.892323, "fusion_lat": 0.0}, {"is_disabled": 0, "rental_uris": {"android": "https://dc.lft.to/lastmile_qr_scan", "ios": "https://dc.lft.to/lastmile_qr_scan"}, "is_reserved": 0, "name": "33b1ca3f38b40a4025682d5070d80dc8", "lon": -77.03724983333333, "type": "electric_scooter", "bike_id": "33b1ca3f38b40a4025682d5070d80dc8", "fusion_lon": 0.0, "lat": 38.911157333333335, "fusion_lat": 0.0}, {"is_disabled": 0, "rental_uris": {"android": "https://dc.lft.to/lastmile_qr_scan", "ios": "https://dc.lft.to/lastmile_qr_scan"}, "is_reserved": 0, "name": "38f658ab2e13bc73f1ac7a92637932ee", "lon": -76.99486233333333, "type": "electric_scooter", "bike_id": "38f658ab2e13bc73f1ac7a92637932ee", "fusion_lon": 0.0, "lat": 38.862374833333334, "fusion_lat": 0.0}, {"is_disabled": 0, "rental_uris": {"android": "https://dc.lft.to/lastmile_qr_scan", "ios": "https://dc.lft.to/lastmile_qr_scan"}, "is_reserved": 0, "name": "b75212b346daa735cf73209e82e08bb4", "lon": -77.02188033333333, "type": "electric_scooter", "bike_id": "b75212b346daa735cf73209e82e08bb4", "fusion_lon": 0.0, "lat": 38.89509983333333, "fusion_lat": 0.0}, {"is_disabled": 0, "rental_uris": {"android": "https://dc.lft.to/lastmile_qr_scan", "ios": "https://dc.lft.to/lastmile_qr_scan"}, "is_reserved": 0, "name": "b404277d93e98fd3cfde5f0856b7ea21", "lon": -77.00090166666666, "type": "electric_scooter", "bike_id": "b404277d93e98fd3cfde5f0856b7ea21", "fusion_lon": 0.0, "lat": 38.925509, "fusion_lat": 0.0}, {"is_disabled": 0, "rental_uris": {"android": "https://dc.lft.to/lastmile_qr_scan", "ios": "https://dc.lft.to/lastmile_qr_scan"}, "is_reserved": 0, "name": "9216dd1297d9028f54611b11c8f1d0ac", "lon": -76.973317, "type": "electric_bike", "bike_id": "9216dd1297d9028f54611b11c8f1d0ac", "fusion_lon": 0.0, "lat": 38.850661, "fusion_lat": 0.0}, {"is_disabled": 0, "rental_uris": {"android": "https://dc.lft.to/lastmile_qr_scan", "ios": "https://dc.lft.to/lastmile_qr_scan"}, "is_reserved": 0, "name": "4e9e8e7b154edd8994e58a3aa2a85f80", "lon": -77.023928, "type": "electric_scooter", "bike_id": "4e9e8e7b154edd8994e58a3aa2a85f80", "fusion_lon": 0.0, "lat": 38.90708133333333, "fusion_lat": 0.0}, {"is_disabled": 0, "rental_uris": {"android": "https://dc.lft.to/lastmile_qr_scan", "ios": "https://dc.lft.to/lastmile_qr_scan"}, "is_reserved": 0, "name": "02e35b9df273faa94f4723feb8eeff67", "lon": -77.03844216666667, "type": "electric_scooter", "bike_id": "02e35b9df273faa94f4723feb8eeff67", "fusion_lon": 0.0, "lat": 38.90930733333333, "fusion_lat": 0.0}, {"is_disabled": 0, "rental_uris": {"android": "https://dc.lft.to/lastmile_qr_scan", "ios": "https://dc.lft.to/lastmile_qr_scan"}, "is_reserved": 0, "name": "67c75ae216f12f1068e052d0406325c4", "lon": -77.02917016666666, "type": "electric_scooter", "bike_id": "67c75ae216f12f1068e052d0406325c4", "fusion_lon": 0.0, "lat": 38.91029266666666, "fusion_lat": 0.0}, {"is_disabled": 0, "rental_uris": {"android": "https://dc.lft.to/lastmile_qr_scan", "ios": "https://dc.lft.to/lastmile_qr_scan"}, "is_reserved": 0, "name": "c11e3a2a80600ab22584b290f30de672", "lon": -77.01292166666667, "type": "electric_scooter", "bike_id": "c11e3a2a80600ab22584b290f30de672", "fusion_lon": 0.0, "lat": 38.920185333333336, "fusion_lat": 0.0}, {"is_disabled": 0, "rental_uris": {"android": "https://dc.lft.to/lastmile_qr_scan", "ios": "https://dc.lft.to/lastmile_qr_scan"}, "is_reserved": 0, "name": "0472f527f96fbc3b8ec7e7e6a077041d", "lon": -77.02489633333333, "type": "electric_scooter", "bike_id": "0472f527f96fbc3b8ec7e7e6a077041d", "fusion_lon": 0.0, "lat": 38.91606816666667, "fusion_lat": 0.0}, {"is_disabled": 0, "rental_uris": {"android": "https://dc.lft.to/lastmile_qr_scan", "ios": "https://dc.lft.to/lastmile_qr_scan"}, "is_reserved": 0, "name": "aa5725cf00804bcdc3fe89e4b7eca60c", "lon": -77.023598, "type": "electric_scooter", "bike_id": "aa5725cf00804bcdc3fe89e4b7eca60c", "fusion_lon": 0.0, "lat": 38.93147, "fusion_lat": 0.0}, {"is_disabled": 0, "rental_uris": {"android": "https://dc.lft.to/lastmile_qr_scan", "ios": "https://dc.lft.to/lastmile_qr_scan"}, "is_reserved": 0, "name": "1b1c7ec7e2547da57ba1625585f6cd04", "lon": -77.03615, "type": "electric_scooter", "bike_id": "1b1c7ec7e2547da57ba1625585f6cd04", "fusion_lon": 0.0, "lat": 38.93147833333333, "fusion_lat": 0.0}, {"is_disabled": 0, "rental_uris": {"android": "https://dc.lft.to/lastmile_qr_scan", "ios": "https://dc.lft.to/lastmile_qr_scan"}, "is_reserved": 0, "name": "06698a74f8199319a9105069ad6618b9", "lon": -77.05099666666666, "type": "electric_scooter", "bike_id": "06698a74f8199319a9105069ad6618b9", "fusion_lon": 0.0, "lat": 38.923424833333335, "fusion_lat": 0.0}, {"is_disabled": 0, "rental_uris": {"android": "https://dc.lft.to/lastmile_qr_scan", "ios": "https://dc.lft.to/lastmile_qr_scan"}, "is_reserved": 0, "name": "0a02d6a083d70bac92d74f033240206f", "lon": -77.035209, "type": "electric_scooter", "bike_id": "0a02d6a083d70bac92d74f033240206f", "fusion_lon": 0.0, "lat": 38.92259, "fusion_lat": 0.0}, {"is_disabled": 0, "rental_uris": {"android": "https://dc.lft.to/lastmile_qr_scan", "ios": "https://dc.lft.to/lastmile_qr_scan"}, "is_reserved": 0, "name": "3807e9d3f43909b97b12ddb1f1b5839c", "lon": -77.04348416666667, "type": "electric_scooter", "bike_id": "3807e9d3f43909b97b12ddb1f1b5839c", "fusion_lon": 0.0, "lat": 38.90512616666667, "fusion_lat": 0.0}, {"is_disabled": 0, "rental_uris": {"android": "https://dc.lft.to/lastmile_qr_scan", "ios": "https://dc.lft.to/lastmile_qr_scan"}, "is_reserved": 0, "name": "ad492fb14b2a364e8484a1b710833f11", "lon": -77.04030716666666, "type": "electric_scooter", "bike_id": "ad492fb14b2a364e8484a1b710833f11", "fusion_lon": 0.0, "lat": 38.921978833333334, "fusion_lat": 0.0}, {"is_disabled": 0, "rental_uris": {"android": "https://dc.lft.to/lastmile_qr_scan", "ios": "https://dc.lft.to/lastmile_qr_scan"}, "is_reserved": 0, "name": "7918fca65d6fa0f69229c23fc719d2cb", "lon": -77.03896016666667, "type": "electric_scooter", "bike_id": "7918fca65d6fa0f69229c23fc719d2cb", "fusion_lon": 0.0, "lat": 38.899642166666666, "fusion_lat": 0.0}, {"is_disabled": 0, "rental_uris": {"android": "https://dc.lft.to/lastmile_qr_scan", "ios": "https://dc.lft.to/lastmile_qr_scan"}, "is_reserved": 0, "name": "4550bc5656b3884a8dbaa8c8110212e5", "lon": -77.04454, "type": "electric_scooter", "bike_id": "4550bc5656b3884a8dbaa8c8110212e5", "fusion_lon": 0.0, "lat": 38.91868133333333, "fusion_lat": 0.0}, {"is_disabled": 0, "rental_uris": {"android": "https://dc.lft.to/lastmile_qr_scan", "ios": "https://dc.lft.to/lastmile_qr_scan"}, "is_reserved": 0, "name": "644d0a09943eefd401f2b16a85f755bc", "lon": -77.03873033333333, "type": "electric_scooter", "bike_id": "644d0a09943eefd401f2b16a85f755bc", "fusion_lon": 0.0, "lat": 38.92149966666667, "fusion_lat": 0.0}, {"is_disabled": 0, "rental_uris": {"android": "https://dc.lft.to/lastmile_qr_scan", "ios": "https://dc.lft.to/lastmile_qr_scan"}, "is_reserved": 0, "name": "174c4cc737e5d0d9f96463507cbbdb4d", "lon": -77.0513805, "type": "electric_scooter", "bike_id": "174c4cc737e5d0d9f96463507cbbdb4d", "fusion_lon": 0.0, "lat": 38.8977055, "fusion_lat": 0.0}, {"is_disabled": 0, "rental_uris": {"android": "https://dc.lft.to/lastmile_qr_scan", "ios": "https://dc.lft.to/lastmile_qr_scan"}, "is_reserved": 0, "name": "574df511cf47b57486597b6efe1db5ba", "lon": -77.031813, "type": "electric_scooter", "bike_id": "574df511cf47b57486597b6efe1db5ba", "fusion_lon": 0.0, "lat": 38.8936105, "fusion_lat": 0.0}, {"is_disabled": 0, "rental_uris": {"android": "https://dc.lft.to/lastmile_qr_scan", "ios": "https://dc.lft.to/lastmile_qr_scan"}, "is_reserved": 0, "name": "5caead28a5addf606138f760e3ef56a9", "lon": -77.05753633333333, "type": "electric_bike", "bike_id": "5caead28a5addf606138f760e3ef56a9", "fusion_lon": 0.0, "lat": 38.924402, "fusion_lat": 0.0}, {"is_disabled": 0, "rental_uris": {"android": "https://dc.lft.to/lastmile_qr_scan", "ios": "https://dc.lft.to/lastmile_qr_scan"}, "is_reserved": 0, "name": "080a3a58426ee241669e564abf2bda46", "lon": -77.0384835, "type": "electric_scooter", "bike_id": "080a3a58426ee241669e564abf2bda46", "fusion_lon": 0.0, "lat": 38.921655666666666, "fusion_lat": 0.0}, {"is_disabled": 0, "rental_uris": {"android": "https://dc.lft.to/lastmile_qr_scan", "ios": "https://dc.lft.to/lastmile_qr_scan"}, "is_reserved": 0, "name": "65782c85f77772b590e5437dc971abf6", "lon": -77.0431585, "type": "electric_scooter", "bike_id": "65782c85f77772b590e5437dc971abf6", "fusion_lon": 0.0, "lat": 38.9187765, "fusion_lat": 0.0}, {"is_disabled": 0, "rental_uris": {"android": "https://dc.lft.to/lastmile_qr_scan", "ios": "https://dc.lft.to/lastmile_qr_scan"}, "is_reserved": 0, "name": "41504cc175e19b0cdd46097531bb5ffc", "lon": -77.04197983333333, "type": "electric_scooter", "bike_id": "41504cc175e19b0cdd46097531bb5ffc", "fusion_lon": 0.0, "lat": 38.926251, "fusion_lat": 0.0}, {"is_disabled": 0, "rental_uris": {"android": "https://dc.lft.to/lastmile_qr_scan", "ios": "https://dc.lft.to/lastmile_qr_scan"}, "is_reserved": 0, "name": "5d66e4303783bcdac2bfb05e0b8bca92", "lon": -77.03122533333334, "type": "electric_scooter", "bike_id": "5d66e4303783bcdac2bfb05e0b8bca92", "fusion_lon": 0.0, "lat": 38.923849, "fusion_lat": 0.0}, {"is_disabled": 0, "rental_uris": {"android": "https://dc.lft.to/lastmile_qr_scan", "ios": "https://dc.lft.to/lastmile_qr_scan"}, "is_reserved": 0, "name": "84fb79fe91466b9984e4cacb5a7ad93b", "lon": -77.00920266666667, "type": "electric_bike", "bike_id": "84fb79fe91466b9984e4cacb5a7ad93b", "fusion_lon": 0.0, "lat": 38.978489833333335, "fusion_lat": 0.0}, {"is_disabled": 0, "rental_uris": {"android": "https://dc.lft.to/lastmile_qr_scan", "ios": "https://dc.lft.to/lastmile_qr_scan"}, "is_reserved": 0, "name": "e0f4c026c531fb2923d3518c9e4c593c", "lon": -77.05000283333334, "type": "electric_scooter", "bike_id": "e0f4c026c531fb2923d3518c9e4c593c", "fusion_lon": 0.0, "lat": 38.89726433333333, "fusion_lat": 0.0}, {"is_disabled": 0, "rental_uris": {"android": "https://dc.lft.to/lastmile_qr_scan", "ios": "https://dc.lft.to/lastmile_qr_scan"}, "is_reserved": 0, "name": "24a2792ca9730e2894feb9132d32d147", "lon": -77.05048766666667, "type": "electric_scooter", "bike_id": "24a2792ca9730e2894feb9132d32d147", "fusion_lon": 0.0, "lat": 38.916697, "fusion_lat": 0.0}, {"is_disabled": 0, "rental_uris": {"android": "https://dc.lft.to/lastmile_qr_scan", "ios": "https://dc.lft.to/lastmile_qr_scan"}, "is_reserved": 0, "name": "7d89bf4d50a6cd263eb074157e91521c", "lon": -76.94637333333333, "type": "electric_scooter", "bike_id": "7d89bf4d50a6cd263eb074157e91521c", "fusion_lon": 0.0, "lat": 38.898399833333336, "fusion_lat": 0.0}, {"is_disabled": 0, "rental_uris": {"android": "https://dc.lft.to/lastmile_qr_scan", "ios": "https://dc.lft.to/lastmile_qr_scan"}, "is_reserved": 0, "name": "1f8e4f748587fc41f6eaca93d4043ebb", "lon": -77.02409833333333, "type": "electric_scooter", "bike_id": "1f8e4f748587fc41f6eaca93d4043ebb", "fusion_lon": 0.0, "lat": 38.912547333333336, "fusion_lat": 0.0}, {"is_disabled": 0, "rental_uris": {"android": "https://dc.lft.to/lastmile_qr_scan", "ios": "https://dc.lft.to/lastmile_qr_scan"}, "is_reserved": 0, "name": "793fea6c7bde9a4f80149563369a366f", "lon": -77.033189, "type": "electric_scooter", "bike_id": "793fea6c7bde9a4f80149563369a366f", "fusion_lon": 0.0, "lat": 38.91813033333333, "fusion_lat": 0.0}, {"is_disabled": 0, "rental_uris": {"android": "https://dc.lft.to/lastmile_qr_scan", "ios": "https://dc.lft.to/lastmile_qr_scan"}, "is_reserved": 0, "name": "77292883490d130ead7aa45c012b7d71", "lon": -77.02697166666667, "type": "electric_scooter", "bike_id": "77292883490d130ead7aa45c012b7d71", "fusion_lon": 0.0, "lat": 38.93636033333333, "fusion_lat": 0.0}, {"is_disabled": 0, "rental_uris": {"android": "https://dc.lft.to/lastmile_qr_scan", "ios": "https://dc.lft.to/lastmile_qr_scan"}, "is_reserved": 0, "name": "6b566b1aacfcd62285a88907737deb45", "lon": -77.03518116666666, "type": "electric_bike", "bike_id": "6b566b1aacfcd62285a88907737deb45", "fusion_lon": 0.0, "lat": 38.93596433333333, "fusion_lat": 0.0}, {"is_disabled": 0, "rental_uris": {"android": "https://dc.lft.to/lastmile_qr_scan", "ios": "https://dc.lft.to/lastmile_qr_scan"}, "is_reserved": 0, "name": "98d10e824aa3fb4a29909a0e0b3bf747", "lon": -76.99634533333334, "type": "electric_scooter", "bike_id": "98d10e824aa3fb4a29909a0e0b3bf747", "fusion_lon": 0.0, "lat": 38.90036383333333, "fusion_lat": 0.0}, {"is_disabled": 0, "rental_uris": {"android": "https://dc.lft.to/lastmile_qr_scan", "ios": "https://dc.lft.to/lastmile_qr_scan"}, "is_reserved": 0, "name": "7e93ff44fefd5f530c9ae01bfaca6127", "lon": -77.04509133333333, "type": "electric_scooter", "bike_id": "7e93ff44fefd5f530c9ae01bfaca6127", "fusion_lon": 0.0, "lat": 38.92137, "fusion_lat": 0.0}, {"is_disabled": 0, "rental_uris": {"android": "https://dc.lft.to/lastmile_qr_scan", "ios": "https://dc.lft.to/lastmile_qr_scan"}, "is_reserved": 0, "name": "b4004ba8f932aa1cf93195da4faf3cb2", "lon": -76.98992816666667, "type": "electric_scooter", "bike_id": "b4004ba8f932aa1cf93195da4faf3cb2", "fusion_lon": 0.0, "lat": 38.86432683333334, "fusion_lat": 0.0}, {"is_disabled": 0, "rental_uris": {"android": "https://dc.lft.to/lastmile_qr_scan", "ios": "https://dc.lft.to/lastmile_qr_scan"}, "is_reserved": 0, "name": "70c98580fd0d3ce9c715b1ab1ccd1a46", "lon": -77.0279, "type": "electric_scooter", "bike_id": "70c98580fd0d3ce9c715b1ab1ccd1a46", "fusion_lon": 0.0, "lat": 38.95124916666666, "fusion_lat": 0.0}, {"is_disabled": 0, "rental_uris": {"android": "https://dc.lft.to/lastmile_qr_scan", "ios": "https://dc.lft.to/lastmile_qr_scan"}, "is_reserved": 0, "name": "09a7b1bc1a35ae96a4e68c97eb95c704", "lon": -77.04124383333334, "type": "electric_scooter", "bike_id": "09a7b1bc1a35ae96a4e68c97eb95c704", "fusion_lon": 0.0, "lat": 38.92139016666667, "fusion_lat": 0.0}, {"is_disabled": 0, "rental_uris": {"android": "https://dc.lft.to/lastmile_qr_scan", "ios": "https://dc.lft.to/lastmile_qr_scan"}, "is_reserved": 0, "name": "264b83302fe3298922eb409502d92a9b", "lon": -77.01242833333333, "type": "electric_scooter", "bike_id": "264b83302fe3298922eb409502d92a9b", "fusion_lon": 0.0, "lat": 38.931132833333336, "fusion_lat": 0.0}, {"is_disabled": 0, "rental_uris": {"android": "https://dc.lft.to/lastmile_qr_scan", "ios": "https://dc.lft.to/lastmile_qr_scan"}, "is_reserved": 0, "name": "a08a6d32279af6b5a547140f4968d69c", "lon": -77.021118, "type": "electric_scooter", "bike_id": "a08a6d32279af6b5a547140f4968d69c", "fusion_lon": 0.0, "lat": 38.940993166666665, "fusion_lat": 0.0}, {"is_disabled": 0, "rental_uris": {"android": "https://dc.lft.to/lastmile_qr_scan", "ios": "https://dc.lft.to/lastmile_qr_scan"}, "is_reserved": 0, "name": "68bd3e8f91a377cfc14ba97693a45698", "lon": -77.03658233333333, "type": "electric_scooter", "bike_id": "68bd3e8f91a377cfc14ba97693a45698", "fusion_lon": 0.0, "lat": 38.93632016666667, "fusion_lat": 0.0}, {"is_disabled": 0, "rental_uris": {"android": "https://dc.lft.to/lastmile_qr_scan", "ios": "https://dc.lft.to/lastmile_qr_scan"}, "is_reserved": 0, "name": "1ca3a802d09bba9d8d4067f822acb098", "lon": -77.11526233333333, "type": "electric_bike", "bike_id": "1ca3a802d09bba9d8d4067f822acb098", "fusion_lon": 0.0, "lat": 38.8549175, "fusion_lat": 0.0}, {"is_disabled": 0, "rental_uris": {"android": "https://dc.lft.to/lastmile_qr_scan", "ios": "https://dc.lft.to/lastmile_qr_scan"}, "is_reserved": 0, "name": "841670c7fd48288e8e263b7b5649c675", "lon": -76.99051, "type": "electric_scooter", "bike_id": "841670c7fd48288e8e263b7b5649c675", "fusion_lon": 0.0, "lat": 38.86355566666667, "fusion_lat": 0.0}, {"is_disabled": 0, "rental_uris": {"android": "https://dc.lft.to/lastmile_qr_scan", "ios": "https://dc.lft.to/lastmile_qr_scan"}, "is_reserved": 0, "name": "0a2ffe88c69453272ae9b38ff3e8127b", "lon": -77.03873133333333, "type": "electric_scooter", "bike_id": "0a2ffe88c69453272ae9b38ff3e8127b", "fusion_lon": 0.0, "lat": 38.92152433333333, "fusion_lat": 0.0}, {"is_disabled": 0, "rental_uris": {"android": "https://dc.lft.to/lastmile_qr_scan", "ios": "https://dc.lft.to/lastmile_qr_scan"}, "is_reserved": 0, "name": "ead1684e56f7d4de2401c6957e85b450", "lon": -77.053868, "type": "electric_scooter", "bike_id": "ead1684e56f7d4de2401c6957e85b450", "fusion_lon": 0.0, "lat": 38.91067066666667, "fusion_lat": 0.0}, {"is_disabled": 0, "rental_uris": {"android": "https://dc.lft.to/lastmile_qr_scan", "ios": "https://dc.lft.to/lastmile_qr_scan"}, "is_reserved": 0, "name": "c148542cef60460e2bd4ddd277bcd90a", "lon": -77.02049283333334, "type": "electric_scooter", "bike_id": "c148542cef60460e2bd4ddd277bcd90a", "fusion_lon": 0.0, "lat": 38.958726, "fusion_lat": 0.0}, {"is_disabled": 0, "rental_uris": {"android": "https://dc.lft.to/lastmile_qr_scan", "ios": "https://dc.lft.to/lastmile_qr_scan"}, "is_reserved": 0, "name": "f603faae28c11a28bb941dc35ce52d20", "lon": -77.029645, "type": "electric_scooter", "bike_id": "f603faae28c11a28bb941dc35ce52d20", "fusion_lon": 0.0, "lat": 38.924611666666664, "fusion_lat": 0.0}, {"is_disabled": 0, "rental_uris": {"android": "https://dc.lft.to/lastmile_qr_scan", "ios": "https://dc.lft.to/lastmile_qr_scan"}, "is_reserved": 0, "name": "a72f38e168e5aa319ad50296d00ddf3d", "lon": -77.0399935, "type": "electric_scooter", "bike_id": "a72f38e168e5aa319ad50296d00ddf3d", "fusion_lon": 0.0, "lat": 38.914151, "fusion_lat": 0.0}, {"is_disabled": 0, "rental_uris": {"android": "https://dc.lft.to/lastmile_qr_scan", "ios": "https://dc.lft.to/lastmile_qr_scan"}, "is_reserved": 0, "name": "e331a78cfb61833355d776aacb0b1092", "lon": -77.00789616666667, "type": "electric_bike", "bike_id": "e331a78cfb61833355d776aacb0b1092", "fusion_lon": 0.0, "lat": 38.98123266666666, "fusion_lat": 0.0}, {"is_disabled": 0, "rental_uris": {"android": "https://dc.lft.to/lastmile_qr_scan", "ios": "https://dc.lft.to/lastmile_qr_scan"}, "is_reserved": 0, "name": "e620f1f4fa29a7778730512d1ab83ffe", "lon": -76.94868583333333, "type": "electric_bike", "bike_id": "e620f1f4fa29a7778730512d1ab83ffe", "fusion_lon": 0.0, "lat": 38.889702166666666, "fusion_lat": 0.0}, {"is_disabled": 0, "rental_uris": {"android": "https://dc.lft.to/lastmile_qr_scan", "ios": "https://dc.lft.to/lastmile_qr_scan"}, "is_reserved": 0, "name": "b1a8c32cdc4dc4c2178c9b65b84cd9cb", "lon": -77.0238625, "type": "electric_scooter", "bike_id": "b1a8c32cdc4dc4c2178c9b65b84cd9cb", "fusion_lon": 0.0, "lat": 38.892474166666666, "fusion_lat": 0.0}, {"is_disabled": 0, "rental_uris": {"android": "https://dc.lft.to/lastmile_qr_scan", "ios": "https://dc.lft.to/lastmile_qr_scan"}, "is_reserved": 0, "name": "04f21ccec342330512947ef79dbca0bd", "lon": -76.87773183333333, "type": "electric_bike", "bike_id": "04f21ccec342330512947ef79dbca0bd", "fusion_lon": 0.0, "lat": 38.99224316666667, "fusion_lat": 0.0}, {"is_disabled": 0, "rental_uris": {"android": "https://dc.lft.to/lastmile_qr_scan", "ios": "https://dc.lft.to/lastmile_qr_scan"}, "is_reserved": 0, "name": "daa0296d86fd17845495803f51bc0297", "lon": -76.98380216666666, "type": "electric_scooter", "bike_id": "daa0296d86fd17845495803f51bc0297", "fusion_lon": 0.0, "lat": 38.84444116666667, "fusion_lat": 0.0}, {"is_disabled": 0, "rental_uris": {"android": "https://dc.lft.to/lastmile_qr_scan", "ios": "https://dc.lft.to/lastmile_qr_scan"}, "is_reserved": 0, "name": "e5d7f48961a75ac69edb2215ae9b274e", "lon": -77.014786, "type": "electric_scooter", "bike_id": "e5d7f48961a75ac69edb2215ae9b274e", "fusion_lon": 0.0, "lat": 38.87653483333333, "fusion_lat": 0.0}, {"is_disabled": 0, "rental_uris": {"android": "https://dc.lft.to/lastmile_qr_scan", "ios": "https://dc.lft.to/lastmile_qr_scan"}, "is_reserved": 0, "name": "5b71f371c65318d2d4765e27670b5737", "lon": -77.01648316666666, "type": "electric_scooter", "bike_id": "5b71f371c65318d2d4765e27670b5737", "fusion_lon": 0.0, "lat": 38.92901083333334, "fusion_lat": 0.0}, {"is_disabled": 0, "rental_uris": {"android": "https://dc.lft.to/lastmile_qr_scan", "ios": "https://dc.lft.to/lastmile_qr_scan"}, "is_reserved": 0, "name": "6af97844cdcc027fb338b22a1a55bd1a", "lon": -76.9638935, "type": "electric_bike", "bike_id": "6af97844cdcc027fb338b22a1a55bd1a", "fusion_lon": 0.0, "lat": 38.97581066666667, "fusion_lat": 0.0}, {"is_disabled": 0, "rental_uris": {"android": "https://dc.lft.to/lastmile_qr_scan", "ios": "https://dc.lft.to/lastmile_qr_scan"}, "is_reserved": 0, "name": "b88c615578b1025b5a09938947871bd2", "lon": -77.01313233333333, "type": "electric_scooter", "bike_id": "b88c615578b1025b5a09938947871bd2", "fusion_lon": 0.0, "lat": 38.9013885, "fusion_lat": 0.0}, {"is_disabled": 0, "rental_uris": {"android": "https://dc.lft.to/lastmile_qr_scan", "ios": "https://dc.lft.to/lastmile_qr_scan"}, "is_reserved": 0, "name": "1d4a24c8815d518c7aca3645fa19b43c", "lon": -77.0407515, "type": "electric_scooter", "bike_id": "1d4a24c8815d518c7aca3645fa19b43c", "fusion_lon": 0.0, "lat": 38.92420333333333, "fusion_lat": 0.0}, {"is_disabled": 0, "rental_uris": {"android": "https://dc.lft.to/lastmile_qr_scan", "ios": "https://dc.lft.to/lastmile_qr_scan"}, "is_reserved": 0, "name": "483b1f921330e7f42a51d906dba720cc", "lon": -77.00213316666667, "type": "electric_scooter", "bike_id": "483b1f921330e7f42a51d906dba720cc", "fusion_lon": 0.0, "lat": 38.91173466666667, "fusion_lat": 0.0}, {"is_disabled": 0, "rental_uris": {"android": "https://dc.lft.to/lastmile_qr_scan", "ios": "https://dc.lft.to/lastmile_qr_scan"}, "is_reserved": 0, "name": "f882fe65adf4e399c0ff182b8d156df0", "lon": -76.93742516666667, "type": "electric_scooter", "bike_id": "f882fe65adf4e399c0ff182b8d156df0", "fusion_lon": 0.0, "lat": 38.89017466666667, "fusion_lat": 0.0}, {"is_disabled": 0, "rental_uris": {"android": "https://dc.lft.to/lastmile_qr_scan", "ios": "https://dc.lft.to/lastmile_qr_scan"}, "is_reserved": 0, "name": "bca594e6bf74fd79a326876a96104d03", "lon": -77.0541835, "type": "electric_scooter", "bike_id": "bca594e6bf74fd79a326876a96104d03", "fusion_lon": 0.0, "lat": 38.928287166666664, "fusion_lat": 0.0}, {"is_disabled": 0, "rental_uris": {"android": "https://dc.lft.to/lastmile_qr_scan", "ios": "https://dc.lft.to/lastmile_qr_scan"}, "is_reserved": 0, "name": "a920d7ea6aea15f59829947be8762072", "lon": -77.0420635, "type": "electric_scooter", "bike_id": "a920d7ea6aea15f59829947be8762072", "fusion_lon": 0.0, "lat": 38.911259333333334, "fusion_lat": 0.0}, {"is_disabled": 0, "rental_uris": {"android": "https://dc.lft.to/lastmile_qr_scan", "ios": "https://dc.lft.to/lastmile_qr_scan"}, "is_reserved": 0, "name": "302274235409df92f1d963919a561d2e", "lon": -76.97344433333333, "type": "electric_bike", "bike_id": "302274235409df92f1d963919a561d2e", "fusion_lon": 0.0, "lat": 38.865585, "fusion_lat": 0.0}, {"is_disabled": 0, "rental_uris": {"android": "https://dc.lft.to/lastmile_qr_scan", "ios": "https://dc.lft.to/lastmile_qr_scan"}, "is_reserved": 0, "name": "be45fd6b6da411ee41b8392b1c65802e", "lon": -77.04201933333333, "type": "electric_scooter", "bike_id": "be45fd6b6da411ee41b8392b1c65802e", "fusion_lon": 0.0, "lat": 38.9039895, "fusion_lat": 0.0}, {"is_disabled": 0, "rental_uris": {"android": "https://dc.lft.to/lastmile_qr_scan", "ios": "https://dc.lft.to/lastmile_qr_scan"}, "is_reserved": 0, "name": "c64be8f3d1f810ad70eefba5d735da32", "lon": -76.99400866666667, "type": "electric_scooter", "bike_id": "c64be8f3d1f810ad70eefba5d735da32", "fusion_lon": 0.0, "lat": 38.92170483333334, "fusion_lat": 0.0}, {"is_disabled": 0, "rental_uris": {"android": "https://dc.lft.to/lastmile_qr_scan", "ios": "https://dc.lft.to/lastmile_qr_scan"}, "is_reserved": 0, "name": "84ab1bb041ace6becf95e8416305759f", "lon": -77.0274925, "type": "electric_scooter", "bike_id": "84ab1bb041ace6becf95e8416305759f", "fusion_lon": 0.0, "lat": 38.935836333333334, "fusion_lat": 0.0}, {"is_disabled": 0, "rental_uris": {"android": "https://dc.lft.to/lastmile_qr_scan", "ios": "https://dc.lft.to/lastmile_qr_scan"}, "is_reserved": 0, "name": "cf55b25572c548c4ba4d91ea1bd65c63", "lon": -77.00198183333333, "type": "electric_scooter", "bike_id": "cf55b25572c548c4ba4d91ea1bd65c63", "fusion_lon": 0.0, "lat": 38.90035966666667, "fusion_lat": 0.0}, {"is_disabled": 0, "rental_uris": {"android": "https://dc.lft.to/lastmile_qr_scan", "ios": "https://dc.lft.to/lastmile_qr_scan"}, "is_reserved": 0, "name": "2b0f0907729b69f84f5362942e45faeb", "lon": -77.03655966666666, "type": "electric_scooter", "bike_id": "2b0f0907729b69f84f5362942e45faeb", "fusion_lon": 0.0, "lat": 38.92281466666667, "fusion_lat": 0.0}, {"is_disabled": 0, "rental_uris": {"android": "https://dc.lft.to/lastmile_qr_scan", "ios": "https://dc.lft.to/lastmile_qr_scan"}, "is_reserved": 0, "name": "6b664cdb084af2e89ce9bb66ee6021d2", "lon": -76.98732016666666, "type": "electric_scooter", "bike_id": "6b664cdb084af2e89ce9bb66ee6021d2", "fusion_lon": 0.0, "lat": 38.867113833333335, "fusion_lat": 0.0}, {"is_disabled": 0, "rental_uris": {"android": "https://dc.lft.to/lastmile_qr_scan", "ios": "https://dc.lft.to/lastmile_qr_scan"}, "is_reserved": 0, "name": "7e67be9f67cdaeadfc4f4db94b6a5914", "lon": -77.03450783333334, "type": "electric_scooter", "bike_id": "7e67be9f67cdaeadfc4f4db94b6a5914", "fusion_lon": 0.0, "lat": 38.93362783333333, "fusion_lat": 0.0}, {"is_disabled": 0, "rental_uris": {"android": "https://dc.lft.to/lastmile_qr_scan", "ios": "https://dc.lft.to/lastmile_qr_scan"}, "is_reserved": 0, "name": "32cc4b38077007f9a3de8ccd6ae27bd5", "lon": -77.04552716666667, "type": "electric_bike", "bike_id": "32cc4b38077007f9a3de8ccd6ae27bd5", "fusion_lon": 0.0, "lat": 38.919416166666664, "fusion_lat": 0.0}, {"is_disabled": 0, "rental_uris": {"android": "https://dc.lft.to/lastmile_qr_scan", "ios": "https://dc.lft.to/lastmile_qr_scan"}, "is_reserved": 0, "name": "4f5832145e1895481e278a9d0c6c1787", "lon": -77.05515583333333, "type": "electric_bike", "bike_id": "4f5832145e1895481e278a9d0c6c1787", "fusion_lon": 0.0, "lat": 38.9106545, "fusion_lat": 0.0}, {"is_disabled": 0, "rental_uris": {"android": "https://dc.lft.to/lastmile_qr_scan", "ios": "https://dc.lft.to/lastmile_qr_scan"}, "is_reserved": 0, "name": "1395f7f1b059f3fedb085e30bb3a9756", "lon": -77.03873666666667, "type": "electric_scooter", "bike_id": "1395f7f1b059f3fedb085e30bb3a9756", "fusion_lon": 0.0, "lat": 38.915666333333334, "fusion_lat": 0.0}, {"is_disabled": 0, "rental_uris": {"android": "https://dc.lft.to/lastmile_qr_scan", "ios": "https://dc.lft.to/lastmile_qr_scan"}, "is_reserved": 0, "name": "630710a4dbbebb7555098a8cd28cd376", "lon": -77.04153683333334, "type": "electric_scooter", "bike_id": "630710a4dbbebb7555098a8cd28cd376", "fusion_lon": 0.0, "lat": 38.89881916666667, "fusion_lat": 0.0}, {"is_disabled": 0, "rental_uris": {"android": "https://dc.lft.to/lastmile_qr_scan", "ios": "https://dc.lft.to/lastmile_qr_scan"}, "is_reserved": 0, "name": "8a604bb9c8ca3e3bbe476c7898775983", "lon": -77.027183, "type": "electric_scooter", "bike_id": "8a604bb9c8ca3e3bbe476c7898775983", "fusion_lon": 0.0, "lat": 38.910744333333334, "fusion_lat": 0.0}, {"is_disabled": 0, "rental_uris": {"android": "https://dc.lft.to/lastmile_qr_scan", "ios": "https://dc.lft.to/lastmile_qr_scan"}, "is_reserved": 0, "name": "1034a156159ed2d69c774ff3b935474a", "lon": -77.0320325, "type": "electric_scooter", "bike_id": "1034a156159ed2d69c774ff3b935474a", "fusion_lon": 0.0, "lat": 38.9160605, "fusion_lat": 0.0}, {"is_disabled": 0, "rental_uris": {"android": "https://dc.lft.to/lastmile_qr_scan", "ios": "https://dc.lft.to/lastmile_qr_scan"}, "is_reserved": 0, "name": "367052f3dd49a30ed3f3e39f6b5593e6", "lon": -76.93840616666667, "type": "electric_scooter", "bike_id": "367052f3dd49a30ed3f3e39f6b5593e6", "fusion_lon": 0.0, "lat": 38.89012816666666, "fusion_lat": 0.0}, {"is_disabled": 0, "rental_uris": {"android": "https://dc.lft.to/lastmile_qr_scan", "ios": "https://dc.lft.to/lastmile_qr_scan"}, "is_reserved": 0, "name": "c6b0859320c616a75779efdd99f643a0", "lon": -77.0513405, "type": "electric_scooter", "bike_id": "c6b0859320c616a75779efdd99f643a0", "fusion_lon": 0.0, "lat": 38.90620366666667, "fusion_lat": 0.0}, {"is_disabled": 0, "rental_uris": {"android": "https://dc.lft.to/lastmile_qr_scan", "ios": "https://dc.lft.to/lastmile_qr_scan"}, "is_reserved": 0, "name": "b8bf8eec3e0c0911d6224171e27b5776", "lon": -77.02318966666667, "type": "electric_scooter", "bike_id": "b8bf8eec3e0c0911d6224171e27b5776", "fusion_lon": 0.0, "lat": 38.9266695, "fusion_lat": 0.0}, {"is_disabled": 0, "rental_uris": {"android": "https://dc.lft.to/lastmile_qr_scan", "ios": "https://dc.lft.to/lastmile_qr_scan"}, "is_reserved": 0, "name": "e7125649c724964f7b0c75321b4248aa", "lon": -77.04641816666667, "type": "electric_scooter", "bike_id": "e7125649c724964f7b0c75321b4248aa", "fusion_lon": 0.0, "lat": 38.89604833333333, "fusion_lat": 0.0}, {"is_disabled": 0, "rental_uris": {"android": "https://dc.lft.to/lastmile_qr_scan", "ios": "https://dc.lft.to/lastmile_qr_scan"}, "is_reserved": 0, "name": "1f8d66b065a4216888c8357145c5a8ac", "lon": -77.0733285, "type": "electric_scooter", "bike_id": "1f8d66b065a4216888c8357145c5a8ac", "fusion_lon": 0.0, "lat": 38.924881666666664, "fusion_lat": 0.0}, {"is_disabled": 0, "rental_uris": {"android": "https://dc.lft.to/lastmile_qr_scan", "ios": "https://dc.lft.to/lastmile_qr_scan"}, "is_reserved": 0, "name": "63042c8d9add75efffd6c83c42d56866", "lon": -77.12569516666667, "type": "electric_bike", "bike_id": "63042c8d9add75efffd6c83c42d56866", "fusion_lon": 0.0, "lat": 39.024961166666664, "fusion_lat": 0.0}, {"is_disabled": 0, "rental_uris": {"android": "https://dc.lft.to/lastmile_qr_scan", "ios": "https://dc.lft.to/lastmile_qr_scan"}, "is_reserved": 0, "name": "817ed5c7cddbe0f12d16e81131622253", "lon": -77.0559875, "type": "electric_scooter", "bike_id": "817ed5c7cddbe0f12d16e81131622253", "fusion_lon": 0.0, "lat": 38.93699516666667, "fusion_lat": 0.0}, {"is_disabled": 0, "rental_uris": {"android": "https://dc.lft.to/lastmile_qr_scan", "ios": "https://dc.lft.to/lastmile_qr_scan"}, "is_reserved": 0, "name": "62cd66c942aec8b3dd6f2cfc48842c37", "lon": -77.0295165, "type": "electric_scooter", "bike_id": "62cd66c942aec8b3dd6f2cfc48842c37", "fusion_lon": 0.0, "lat": 38.91708116666667, "fusion_lat": 0.0}, {"is_disabled": 0, "rental_uris": {"android": "https://dc.lft.to/lastmile_qr_scan", "ios": "https://dc.lft.to/lastmile_qr_scan"}, "is_reserved": 0, "name": "1794db8fb9fac01766cf48c5e7616dc5", "lon": -77.02546166666667, "type": "electric_scooter", "bike_id": "1794db8fb9fac01766cf48c5e7616dc5", "fusion_lon": 0.0, "lat": 38.984160833333334, "fusion_lat": 0.0}, {"is_disabled": 0, "rental_uris": {"android": "https://dc.lft.to/lastmile_qr_scan", "ios": "https://dc.lft.to/lastmile_qr_scan"}, "is_reserved": 0, "name": "f4f1d12939dc0a89bda24f6f2bd9e87f", "lon": -77.00154716666667, "type": "electric_scooter", "bike_id": "f4f1d12939dc0a89bda24f6f2bd9e87f", "fusion_lon": 0.0, "lat": 38.87376666666667, "fusion_lat": 0.0}, {"is_disabled": 0, "rental_uris": {"android": "https://dc.lft.to/lastmile_qr_scan", "ios": "https://dc.lft.to/lastmile_qr_scan"}, "is_reserved": 0, "name": "66ea78455d8ea2560d0ee4c0b8c82529", "lon": -77.04934516666667, "type": "electric_scooter", "bike_id": "66ea78455d8ea2560d0ee4c0b8c82529", "fusion_lon": 0.0, "lat": 38.90720916666667, "fusion_lat": 0.0}, {"is_disabled": 0, "rental_uris": {"android": "https://dc.lft.to/lastmile_qr_scan", "ios": "https://dc.lft.to/lastmile_qr_scan"}, "is_reserved": 0, "name": "1a1bf184cad40079e7086cf74a1d8ea6", "lon": -77.024827, "type": "electric_scooter", "bike_id": "1a1bf184cad40079e7086cf74a1d8ea6", "fusion_lon": 0.0, "lat": 38.9386355, "fusion_lat": 0.0}, {"is_disabled": 0, "rental_uris": {"android": "https://dc.lft.to/lastmile_qr_scan", "ios": "https://dc.lft.to/lastmile_qr_scan"}, "is_reserved": 0, "name": "616746bc299b1ddb68aaf9bca973e75c", "lon": -77.01191816666666, "type": "electric_scooter", "bike_id": "616746bc299b1ddb68aaf9bca973e75c", "fusion_lon": 0.0, "lat": 38.90372883333333, "fusion_lat": 0.0}, {"is_disabled": 0, "rental_uris": {"android": "https://dc.lft.to/lastmile_qr_scan", "ios": "https://dc.lft.to/lastmile_qr_scan"}, "is_reserved": 0, "name": "f2b3db03456836142cbbd8bee6e5964b", "lon": -77.02870683333333, "type": "electric_scooter", "bike_id": "f2b3db03456836142cbbd8bee6e5964b", "fusion_lon": 0.0, "lat": 38.901258, "fusion_lat": 0.0}, {"is_disabled": 0, "rental_uris": {"android": "https://dc.lft.to/lastmile_qr_scan", "ios": "https://dc.lft.to/lastmile_qr_scan"}, "is_reserved": 0, "name": "bb0025b594804e9b45e58333ecc717f0", "lon": -77.02802633333333, "type": "electric_scooter", "bike_id": "bb0025b594804e9b45e58333ecc717f0", "fusion_lon": 0.0, "lat": 38.96217333333333, "fusion_lat": 0.0}, {"is_disabled": 0, "rental_uris": {"android": "https://dc.lft.to/lastmile_qr_scan", "ios": "https://dc.lft.to/lastmile_qr_scan"}, "is_reserved": 0, "name": "d53c3675bb3c7c788b6150fd4f02c186", "lon": -77.03383283333334, "type": "electric_scooter", "bike_id": "d53c3675bb3c7c788b6150fd4f02c186", "fusion_lon": 0.0, "lat": 38.9215995, "fusion_lat": 0.0}, {"is_disabled": 0, "rental_uris": {"android": "https://dc.lft.to/lastmile_qr_scan", "ios": "https://dc.lft.to/lastmile_qr_scan"}, "is_reserved": 0, "name": "cd59737ce6d22a9fc271824b86ef033d", "lon": -77.0363415, "type": "electric_scooter", "bike_id": "cd59737ce6d22a9fc271824b86ef033d", "fusion_lon": 0.0, "lat": 38.94281683333333, "fusion_lat": 0.0}, {"is_disabled": 0, "rental_uris": {"android": "https://dc.lft.to/lastmile_qr_scan", "ios": "https://dc.lft.to/lastmile_qr_scan"}, "is_reserved": 0, "name": "5ac24957c2e856d6e085e815f6f57622", "lon": -77.031758, "type": "electric_scooter", "bike_id": "5ac24957c2e856d6e085e815f6f57622", "fusion_lon": 0.0, "lat": 38.914136, "fusion_lat": 0.0}, {"is_disabled": 0, "rental_uris": {"android": "https://dc.lft.to/lastmile_qr_scan", "ios": "https://dc.lft.to/lastmile_qr_scan"}, "is_reserved": 0, "name": "1a3f0b1dfd3be04bae6ea205d9c6ffda", "lon": -77.02699066666666, "type": "electric_scooter", "bike_id": "1a3f0b1dfd3be04bae6ea205d9c6ffda", "fusion_lon": 0.0, "lat": 38.90631, "fusion_lat": 0.0}, {"is_disabled": 0, "rental_uris": {"android": "https://dc.lft.to/lastmile_qr_scan", "ios": "https://dc.lft.to/lastmile_qr_scan"}, "is_reserved": 0, "name": "9b4a6fe4110dd262844b2dcfe2d34059", "lon": -77.00681733333333, "type": "electric_bike", "bike_id": "9b4a6fe4110dd262844b2dcfe2d34059", "fusion_lon": 0.0, "lat": 38.945155166666666, "fusion_lat": 0.0}, {"is_disabled": 0, "rental_uris": {"android": "https://dc.lft.to/lastmile_qr_scan", "ios": "https://dc.lft.to/lastmile_qr_scan"}, "is_reserved": 0, "name": "fd969c0b184f6250478025a49e7838b0", "lon": -77.02706716666667, "type": "electric_scooter", "bike_id": "fd969c0b184f6250478025a49e7838b0", "fusion_lon": 0.0, "lat": 38.94985783333333, "fusion_lat": 0.0}, {"is_disabled": 0, "rental_uris": {"android": "https://dc.lft.to/lastmile_qr_scan", "ios": "https://dc.lft.to/lastmile_qr_scan"}, "is_reserved": 0, "name": "93eaafcb0a374d2c442c1a70113087f5", "lon": -77.03167266666667, "type": "electric_scooter", "bike_id": "93eaafcb0a374d2c442c1a70113087f5", "fusion_lon": 0.0, "lat": 38.9286155, "fusion_lat": 0.0}, {"is_disabled": 0, "rental_uris": {"android": "https://dc.lft.to/lastmile_qr_scan", "ios": "https://dc.lft.to/lastmile_qr_scan"}, "is_reserved": 0, "name": "b6a01d9681f97438351ada4afff5a115", "lon": -77.04691333333334, "type": "electric_scooter", "bike_id": "b6a01d9681f97438351ada4afff5a115", "fusion_lon": 0.0, "lat": 38.89733233333333, "fusion_lat": 0.0}, {"is_disabled": 0, "rental_uris": {"android": "https://dc.lft.to/lastmile_qr_scan", "ios": "https://dc.lft.to/lastmile_qr_scan"}, "is_reserved": 0, "name": "e65d5965ff32669b4a9bbfb3cdbf2fc7", "lon": -77.03636683333333, "type": "electric_scooter", "bike_id": "e65d5965ff32669b4a9bbfb3cdbf2fc7", "fusion_lon": 0.0, "lat": 38.930462166666665, "fusion_lat": 0.0}, {"is_disabled": 0, "rental_uris": {"android": "https://dc.lft.to/lastmile_qr_scan", "ios": "https://dc.lft.to/lastmile_qr_scan"}, "is_reserved": 0, "name": "b8ad5d3e819093c7b9d51f03f48dd832", "lon": -77.01412566666667, "type": "electric_scooter", "bike_id": "b8ad5d3e819093c7b9d51f03f48dd832", "fusion_lon": 0.0, "lat": 38.914019, "fusion_lat": 0.0}, {"is_disabled": 0, "rental_uris": {"android": "https://dc.lft.to/lastmile_qr_scan", "ios": "https://dc.lft.to/lastmile_qr_scan"}, "is_reserved": 0, "name": "13ad18219bc9a0ea51bd42d7e7799f6e", "lon": -77.04216366666667, "type": "electric_scooter", "bike_id": "13ad18219bc9a0ea51bd42d7e7799f6e", "fusion_lon": 0.0, "lat": 38.91408416666667, "fusion_lat": 0.0}, {"is_disabled": 0, "rental_uris": {"android": "https://dc.lft.to/lastmile_qr_scan", "ios": "https://dc.lft.to/lastmile_qr_scan"}, "is_reserved": 0, "name": "747ca112879b61753f0a37749d69fb46", "lon": -77.03388183333334, "type": "electric_scooter", "bike_id": "747ca112879b61753f0a37749d69fb46", "fusion_lon": 0.0, "lat": 38.9126845, "fusion_lat": 0.0}, {"is_disabled": 0, "rental_uris": {"android": "https://dc.lft.to/lastmile_qr_scan", "ios": "https://dc.lft.to/lastmile_qr_scan"}, "is_reserved": 0, "name": "fc03e6b579fd3126425de8ffaf9879fc", "lon": -77.044135, "type": "electric_bike", "bike_id": "fc03e6b579fd3126425de8ffaf9879fc", "fusion_lon": 0.0, "lat": 39.05206233333333, "fusion_lat": 0.0}, {"is_disabled": 0, "rental_uris": {"android": "https://dc.lft.to/lastmile_qr_scan", "ios": "https://dc.lft.to/lastmile_qr_scan"}, "is_reserved": 0, "name": "162df943e3db8b7993a01f204739fdcb", "lon": -77.00366366666667, "type": "electric_scooter", "bike_id": "162df943e3db8b7993a01f204739fdcb", "fusion_lon": 0.0, "lat": 38.886761166666666, "fusion_lat": 0.0}, {"is_disabled": 0, "rental_uris": {"android": "https://dc.lft.to/lastmile_qr_scan", "ios": "https://dc.lft.to/lastmile_qr_scan"}, "is_reserved": 0, "name": "ecf36b2a4a1a1b836b73bdd3dcf0b76b", "lon": -77.0138955, "type": "electric_scooter", "bike_id": "ecf36b2a4a1a1b836b73bdd3dcf0b76b", "fusion_lon": 0.0, "lat": 38.88641716666667, "fusion_lat": 0.0}, {"is_disabled": 0, "rental_uris": {"android": "https://dc.lft.to/lastmile_qr_scan", "ios": "https://dc.lft.to/lastmile_qr_scan"}, "is_reserved": 0, "name": "740fffce725494e8cf6f74f93609b3e2", "lon": -77.0500525, "type": "electric_scooter", "bike_id": "740fffce725494e8cf6f74f93609b3e2", "fusion_lon": 0.0, "lat": 38.9052305, "fusion_lat": 0.0}, {"is_disabled": 0, "rental_uris": {"android": "https://dc.lft.to/lastmile_qr_scan", "ios": "https://dc.lft.to/lastmile_qr_scan"}, "is_reserved": 0, "name": "81da37fa39b7e8a9b13ec31ec45694f0", "lon": -77.01359666666667, "type": "electric_scooter", "bike_id": "81da37fa39b7e8a9b13ec31ec45694f0", "fusion_lon": 0.0, "lat": 38.9289635, "fusion_lat": 0.0}, {"is_disabled": 0, "rental_uris": {"android": "https://dc.lft.to/lastmile_qr_scan", "ios": "https://dc.lft.to/lastmile_qr_scan"}, "is_reserved": 0, "name": "ceb6256566a60ef89ff9da70e8d7f4bd", "lon": -77.019678, "type": "electric_scooter", "bike_id": "ceb6256566a60ef89ff9da70e8d7f4bd", "fusion_lon": 0.0, "lat": 38.88388783333333, "fusion_lat": 0.0}, {"is_disabled": 0, "rental_uris": {"android": "https://dc.lft.to/lastmile_qr_scan", "ios": "https://dc.lft.to/lastmile_qr_scan"}, "is_reserved": 0, "name": "a873eafe1b6d875393894a3ee7d95ca3", "lon": -77.044336, "type": "electric_scooter", "bike_id": "a873eafe1b6d875393894a3ee7d95ca3", "fusion_lon": 0.0, "lat": 38.912575833333335, "fusion_lat": 0.0}, {"is_disabled": 0, "rental_uris": {"android": "https://dc.lft.to/lastmile_qr_scan", "ios": "https://dc.lft.to/lastmile_qr_scan"}, "is_reserved": 0, "name": "b58647a96e3e141cf0a7d0a374a67de8", "lon": -77.03842166666666, "type": "electric_scooter", "bike_id": "b58647a96e3e141cf0a7d0a374a67de8", "fusion_lon": 0.0, "lat": 38.916538833333334, "fusion_lat": 0.0}, {"is_disabled": 0, "rental_uris": {"android": "https://dc.lft.to/lastmile_qr_scan", "ios": "https://dc.lft.to/lastmile_qr_scan"}, "is_reserved": 0, "name": "2f8e0e46791eb97a594ddd196fef3d75", "lon": -77.03253316666667, "type": "electric_scooter", "bike_id": "2f8e0e46791eb97a594ddd196fef3d75", "fusion_lon": 0.0, "lat": 38.91108066666666, "fusion_lat": 0.0}, {"is_disabled": 0, "rental_uris": {"android": "https://dc.lft.to/lastmile_qr_scan", "ios": "https://dc.lft.to/lastmile_qr_scan"}, "is_reserved": 0, "name": "3c2b31e61d418e7ec9b4d3c11ce347a3", "lon": -76.90546166666667, "type": "electric_bike", "bike_id": "3c2b31e61d418e7ec9b4d3c11ce347a3", "fusion_lon": 0.0, "lat": 38.89735816666666, "fusion_lat": 0.0}, {"is_disabled": 0, "rental_uris": {"android": "https://dc.lft.to/lastmile_qr_scan", "ios": "https://dc.lft.to/lastmile_qr_scan"}, "is_reserved": 0, "name": "f00cd2d05af32f0b29fd032fa1dd690b", "lon": -77.015364, "type": "electric_scooter", "bike_id": "f00cd2d05af32f0b29fd032fa1dd690b", "fusion_lon": 0.0, "lat": 38.887400166666666, "fusion_lat": 0.0}, {"is_disabled": 0, "rental_uris": {"android": "https://dc.lft.to/lastmile_qr_scan", "ios": "https://dc.lft.to/lastmile_qr_scan"}, "is_reserved": 0, "name": "e87de01596639af2c4e6d9f0d9e54bfc", "lon": -77.07274633333333, "type": "electric_scooter", "bike_id": "e87de01596639af2c4e6d9f0d9e54bfc", "fusion_lon": 0.0, "lat": 38.9347065, "fusion_lat": 0.0}, {"is_disabled": 0, "rental_uris": {"android": "https://dc.lft.to/lastmile_qr_scan", "ios": "https://dc.lft.to/lastmile_qr_scan"}, "is_reserved": 0, "name": "8904e8baf7b86d10ac6bf484a475e5ef", "lon": -77.02377516666667, "type": "electric_scooter", "bike_id": "8904e8baf7b86d10ac6bf484a475e5ef", "fusion_lon": 0.0, "lat": 38.914060666666664, "fusion_lat": 0.0}, {"is_disabled": 0, "rental_uris": {"android": "https://dc.lft.to/lastmile_qr_scan", "ios": "https://dc.lft.to/lastmile_qr_scan"}, "is_reserved": 0, "name": "967c96eb5e8e55cf3b5aad9ee2282513", "lon": -76.9683615, "type": "electric_bike", "bike_id": "967c96eb5e8e55cf3b5aad9ee2282513", "fusion_lon": 0.0, "lat": 38.92446183333333, "fusion_lat": 0.0}, {"is_disabled": 0, "rental_uris": {"android": "https://dc.lft.to/lastmile_qr_scan", "ios": "https://dc.lft.to/lastmile_qr_scan"}, "is_reserved": 0, "name": "7f1e3ef800146c8f93ef8c4958d4fefb", "lon": -77.03962133333333, "type": "electric_scooter", "bike_id": "7f1e3ef800146c8f93ef8c4958d4fefb", "fusion_lon": 0.0, "lat": 38.8990355, "fusion_lat": 0.0}, {"is_disabled": 0, "rental_uris": {"android": "https://dc.lft.to/lastmile_qr_scan", "ios": "https://dc.lft.to/lastmile_qr_scan"}, "is_reserved": 0, "name": "437b746ccf469dedf50f61adac25dd77", "lon": -77.03207116666667, "type": "electric_scooter", "bike_id": "437b746ccf469dedf50f61adac25dd77", "fusion_lon": 0.0, "lat": 38.91835733333333, "fusion_lat": 0.0}, {"is_disabled": 0, "rental_uris": {"android": "https://dc.lft.to/lastmile_qr_scan", "ios": "https://dc.lft.to/lastmile_qr_scan"}, "is_reserved": 0, "name": "ef9f28a278453d7ba5653745f0481ae7", "lon": -76.9833195, "type": "electric_scooter", "bike_id": "ef9f28a278453d7ba5653745f0481ae7", "fusion_lon": 0.0, "lat": 38.8617255, "fusion_lat": 0.0}, {"is_disabled": 0, "rental_uris": {"android": "https://dc.lft.to/lastmile_qr_scan", "ios": "https://dc.lft.to/lastmile_qr_scan"}, "is_reserved": 0, "name": "e4afdffef6d764625a253f8f7e4e098c", "lon": -77.048488, "type": "electric_scooter", "bike_id": "e4afdffef6d764625a253f8f7e4e098c", "fusion_lon": 0.0, "lat": 38.888349833333336, "fusion_lat": 0.0}, {"is_disabled": 0, "rental_uris": {"android": "https://dc.lft.to/lastmile_qr_scan", "ios": "https://dc.lft.to/lastmile_qr_scan"}, "is_reserved": 0, "name": "dc0360989b804c8b73b7abb7b9388eef", "lon": -76.91600366666667, "type": "electric_bike", "bike_id": "dc0360989b804c8b73b7abb7b9388eef", "fusion_lon": 0.0, "lat": 38.87983166666667, "fusion_lat": 0.0}, {"is_disabled": 0, "rental_uris": {"android": "https://dc.lft.to/lastmile_qr_scan", "ios": "https://dc.lft.to/lastmile_qr_scan"}, "is_reserved": 0, "name": "286055d5204a517154b1c6697d60e0bc", "lon": -77.01220283333333, "type": "electric_scooter", "bike_id": "286055d5204a517154b1c6697d60e0bc", "fusion_lon": 0.0, "lat": 38.86676, "fusion_lat": 0.0}, {"is_disabled": 0, "rental_uris": {"android": "https://dc.lft.to/lastmile_qr_scan", "ios": "https://dc.lft.to/lastmile_qr_scan"}, "is_reserved": 0, "name": "6de016c0c5cd9dc0d6802602ff3b9c0a", "lon": -77.03455266666667, "type": "electric_scooter", "bike_id": "6de016c0c5cd9dc0d6802602ff3b9c0a", "fusion_lon": 0.0, "lat": 38.964304166666665, "fusion_lat": 0.0}, {"is_disabled": 0, "rental_uris": {"android": "https://dc.lft.to/lastmile_qr_scan", "ios": "https://dc.lft.to/lastmile_qr_scan"}, "is_reserved": 0, "name": "8f82e0f1c7746b99a7e2c72eb0741d52", "lon": -77.15267866666667, "type": "electric_bike", "bike_id": "8f82e0f1c7746b99a7e2c72eb0741d52", "fusion_lon": 0.0, "lat": 39.10566333333333, "fusion_lat": 0.0}, {"is_disabled": 0, "rental_uris": {"android": "https://dc.lft.to/lastmile_qr_scan", "ios": "https://dc.lft.to/lastmile_qr_scan"}, "is_reserved": 0, "name": "83499cc6b822e3307cee306f5f1c9e8d", "lon": -77.01620016666666, "type": "electric_scooter", "bike_id": "83499cc6b822e3307cee306f5f1c9e8d", "fusion_lon": 0.0, "lat": 38.898489166666664, "fusion_lat": 0.0}, {"is_disabled": 0, "rental_uris": {"android": "https://dc.lft.to/lastmile_qr_scan", "ios": "https://dc.lft.to/lastmile_qr_scan"}, "is_reserved": 0, "name": "194831b3649f29a777ffc8f9323d3a6d", "lon": -76.99734316666667, "type": "electric_scooter", "bike_id": "194831b3649f29a777ffc8f9323d3a6d", "fusion_lon": 0.0, "lat": 38.9245895, "fusion_lat": 0.0}, {"is_disabled": 0, "rental_uris": {"android": "https://dc.lft.to/lastmile_qr_scan", "ios": "https://dc.lft.to/lastmile_qr_scan"}, "is_reserved": 0, "name": "46767e7b1060c947285ad2e24fe7bbd2", "lon": -77.03468433333333, "type": "electric_scooter", "bike_id": "46767e7b1060c947285ad2e24fe7bbd2", "fusion_lon": 0.0, "lat": 38.913872166666664, "fusion_lat": 0.0}, {"is_disabled": 0, "rental_uris": {"android": "https://dc.lft.to/lastmile_qr_scan", "ios": "https://dc.lft.to/lastmile_qr_scan"}, "is_reserved": 0, "name": "1eaad35046b0ef3f0e0df24a8e68bd42", "lon": -77.0468375, "type": "electric_scooter", "bike_id": "1eaad35046b0ef3f0e0df24a8e68bd42", "fusion_lon": 0.0, "lat": 38.91576633333333, "fusion_lat": 0.0}, {"is_disabled": 0, "rental_uris": {"android": "https://dc.lft.to/lastmile_qr_scan", "ios": "https://dc.lft.to/lastmile_qr_scan"}, "is_reserved": 0, "name": "1d955c580cca7932b8f3aed1cdb14a11", "lon": -77.35317266666667, "type": "electric_bike", "bike_id": "1d955c580cca7932b8f3aed1cdb14a11", "fusion_lon": 0.0, "lat": 38.950017833333334, "fusion_lat": 0.0}, {"is_disabled": 0, "rental_uris": {"android": "https://dc.lft.to/lastmile_qr_scan", "ios": "https://dc.lft.to/lastmile_qr_scan"}, "is_reserved": 0, "name": "b6b1b9cd87b1fe064fa445e58c65de82", "lon": -77.0248015, "type": "electric_scooter", "bike_id": "b6b1b9cd87b1fe064fa445e58c65de82", "fusion_lon": 0.0, "lat": 38.93906783333333, "fusion_lat": 0.0}, {"is_disabled": 0, "rental_uris": {"android": "https://dc.lft.to/lastmile_qr_scan", "ios": "https://dc.lft.to/lastmile_qr_scan"}, "is_reserved": 0, "name": "554add679f390aa6a501dddcb0fcdea6", "lon": -77.04497416666666, "type": "electric_scooter", "bike_id": "554add679f390aa6a501dddcb0fcdea6", "fusion_lon": 0.0, "lat": 38.906621333333334, "fusion_lat": 0.0}, {"is_disabled": 0, "rental_uris": {"android": "https://dc.lft.to/lastmile_qr_scan", "ios": "https://dc.lft.to/lastmile_qr_scan"}, "is_reserved": 0, "name": "59f3776682415d4b468972c306586678", "lon": -77.03860933333333, "type": "electric_scooter", "bike_id": "59f3776682415d4b468972c306586678", "fusion_lon": 0.0, "lat": 38.912182333333334, "fusion_lat": 0.0}, {"is_disabled": 0, "rental_uris": {"android": "https://dc.lft.to/lastmile_qr_scan", "ios": "https://dc.lft.to/lastmile_qr_scan"}, "is_reserved": 0, "name": "dad90490e39a7213392b09ee26e40be6", "lon": -77.05138883333333, "type": "electric_scooter", "bike_id": "dad90490e39a7213392b09ee26e40be6", "fusion_lon": 0.0, "lat": 38.90026816666666, "fusion_lat": 0.0}, {"is_disabled": 0, "rental_uris": {"android": "https://dc.lft.to/lastmile_qr_scan", "ios": "https://dc.lft.to/lastmile_qr_scan"}, "is_reserved": 0, "name": "ae2f89f76a55cb84c9f9783bc921d208", "lon": -77.02692, "type": "electric_scooter", "bike_id": "ae2f89f76a55cb84c9f9783bc921d208", "fusion_lon": 0.0, "lat": 38.90872233333333, "fusion_lat": 0.0}, {"is_disabled": 0, "rental_uris": {"android": "https://dc.lft.to/lastmile_qr_scan", "ios": "https://dc.lft.to/lastmile_qr_scan"}, "is_reserved": 0, "name": "5605866d9de3499410f33aba1584c5e5", "lon": -77.02864733333334, "type": "electric_bike", "bike_id": "5605866d9de3499410f33aba1584c5e5", "fusion_lon": 0.0, "lat": 38.99878066666667, "fusion_lat": 0.0}, {"is_disabled": 0, "rental_uris": {"android": "https://dc.lft.to/lastmile_qr_scan", "ios": "https://dc.lft.to/lastmile_qr_scan"}, "is_reserved": 0, "name": "c98db0ea2e2338526e9c0363522c5b19", "lon": -77.01771133333334, "type": "electric_scooter", "bike_id": "c98db0ea2e2338526e9c0363522c5b19", "fusion_lon": 0.0, "lat": 38.921019666666666, "fusion_lat": 0.0}, {"is_disabled": 0, "rental_uris": {"android": "https://dc.lft.to/lastmile_qr_scan", "ios": "https://dc.lft.to/lastmile_qr_scan"}, "is_reserved": 0, "name": "ae73fef07c1d54563d6c632ade6decb5", "lon": -77.047223, "type": "electric_scooter", "bike_id": "ae73fef07c1d54563d6c632ade6decb5", "fusion_lon": 0.0, "lat": 38.89825, "fusion_lat": 0.0}, {"is_disabled": 0, "rental_uris": {"android": "https://dc.lft.to/lastmile_qr_scan", "ios": "https://dc.lft.to/lastmile_qr_scan"}, "is_reserved": 0, "name": "07f4c068cd2d051adcb094bfa63ce9ec", "lon": -77.04161433333333, "type": "electric_scooter", "bike_id": "07f4c068cd2d051adcb094bfa63ce9ec", "fusion_lon": 0.0, "lat": 38.913113, "fusion_lat": 0.0}, {"is_disabled": 0, "rental_uris": {"android": "https://dc.lft.to/lastmile_qr_scan", "ios": "https://dc.lft.to/lastmile_qr_scan"}, "is_reserved": 0, "name": "906795f772ab6c97774b8bf725612233", "lon": -76.97425433333333, "type": "electric_scooter", "bike_id": "906795f772ab6c97774b8bf725612233", "fusion_lon": 0.0, "lat": 38.865145, "fusion_lat": 0.0}, {"is_disabled": 0, "rental_uris": {"android": "https://dc.lft.to/lastmile_qr_scan", "ios": "https://dc.lft.to/lastmile_qr_scan"}, "is_reserved": 0, "name": "52c675f7ca8006271291f180011b8ca3", "lon": -76.97221133333333, "type": "electric_bike", "bike_id": "52c675f7ca8006271291f180011b8ca3", "fusion_lon": 0.0, "lat": 38.844794, "fusion_lat": 0.0}, {"is_disabled": 0, "rental_uris": {"android": "https://dc.lft.to/lastmile_qr_scan", "ios": "https://dc.lft.to/lastmile_qr_scan"}, "is_reserved": 0, "name": "b4ac903a2be936a80f44741c79e84707", "lon": -77.04962333333333, "type": "electric_bike", "bike_id": "b4ac903a2be936a80f44741c79e84707", "fusion_lon": 0.0, "lat": 38.911076, "fusion_lat": 0.0}, {"is_disabled": 0, "rental_uris": {"android": "https://dc.lft.to/lastmile_qr_scan", "ios": "https://dc.lft.to/lastmile_qr_scan"}, "is_reserved": 0, "name": "916bf338ccf67907f2daa8898c3d84c0", "lon": -77.08188716666666, "type": "electric_bike", "bike_id": "916bf338ccf67907f2daa8898c3d84c0", "fusion_lon": 0.0, "lat": 38.92210816666667, "fusion_lat": 0.0}, {"is_disabled": 0, "rental_uris": {"android": "https://dc.lft.to/lastmile_qr_scan", "ios": "https://dc.lft.to/lastmile_qr_scan"}, "is_reserved": 0, "name": "fd363cb98511c2a774f3197551565d4f", "lon": -77.06772533333333, "type": "electric_scooter", "bike_id": "fd363cb98511c2a774f3197551565d4f", "fusion_lon": 0.0, "lat": 38.949743833333336, "fusion_lat": 0.0}, {"is_disabled": 0, "rental_uris": {"android": "https://dc.lft.to/lastmile_qr_scan", "ios": "https://dc.lft.to/lastmile_qr_scan"}, "is_reserved": 0, "name": "467aa5b3f104bac440961ccb8800cbbe", "lon": -77.02225533333333, "type": "electric_scooter", "bike_id": "467aa5b3f104bac440961ccb8800cbbe", "fusion_lon": 0.0, "lat": 38.915677333333335, "fusion_lat": 0.0}, {"is_disabled": 0, "rental_uris": {"android": "https://dc.lft.to/lastmile_qr_scan", "ios": "https://dc.lft.to/lastmile_qr_scan"}, "is_reserved": 0, "name": "9023eb3c6568a0ebe74a4dc794c44606", "lon": -77.0434615, "type": "electric_bike", "bike_id": "9023eb3c6568a0ebe74a4dc794c44606", "fusion_lon": 0.0, "lat": 38.90216216666666, "fusion_lat": 0.0}, {"is_disabled": 0, "rental_uris": {"android": "https://dc.lft.to/lastmile_qr_scan", "ios": "https://dc.lft.to/lastmile_qr_scan"}, "is_reserved": 0, "name": "033eae48171a4ef06fa143f7774b3231", "lon": -77.040052, "type": "electric_scooter", "bike_id": "033eae48171a4ef06fa143f7774b3231", "fusion_lon": 0.0, "lat": 38.918083833333334, "fusion_lat": 0.0}, {"is_disabled": 0, "rental_uris": {"android": "https://dc.lft.to/lastmile_qr_scan", "ios": "https://dc.lft.to/lastmile_qr_scan"}, "is_reserved": 0, "name": "5bcef9acae895d2e517fd8d678384caf", "lon": -77.03439816666666, "type": "electric_scooter", "bike_id": "5bcef9acae895d2e517fd8d678384caf", "fusion_lon": 0.0, "lat": 38.909727833333335, "fusion_lat": 0.0}, {"is_disabled": 0, "rental_uris": {"android": "https://dc.lft.to/lastmile_qr_scan", "ios": "https://dc.lft.to/lastmile_qr_scan"}, "is_reserved": 0, "name": "8967c4127981db1e9f9194cbd070c5dd", "lon": -77.03241816666667, "type": "electric_scooter", "bike_id": "8967c4127981db1e9f9194cbd070c5dd", "fusion_lon": 0.0, "lat": 38.91699033333333, "fusion_lat": 0.0}, {"is_disabled": 0, "rental_uris": {"android": "https://dc.lft.to/lastmile_qr_scan", "ios": "https://dc.lft.to/lastmile_qr_scan"}, "is_reserved": 0, "name": "0b5008c997d71e44f77f55f7d12ec91b", "lon": -76.9802755, "type": "electric_bike", "bike_id": "0b5008c997d71e44f77f55f7d12ec91b", "fusion_lon": 0.0, "lat": 38.887534, "fusion_lat": 0.0}, {"is_disabled": 0, "rental_uris": {"android": "https://dc.lft.to/lastmile_qr_scan", "ios": "https://dc.lft.to/lastmile_qr_scan"}, "is_reserved": 0, "name": "69cb7a39bad3799c3f29937ef8fe76e2", "lon": -77.0318495, "type": "electric_scooter", "bike_id": "69cb7a39bad3799c3f29937ef8fe76e2", "fusion_lon": 0.0, "lat": 38.88324883333333, "fusion_lat": 0.0}, {"is_disabled": 0, "rental_uris": {"android": "https://dc.lft.to/lastmile_qr_scan", "ios": "https://dc.lft.to/lastmile_qr_scan"}, "is_reserved": 0, "name": "4cf97db1fe69e426d1717bc1f71fc830", "lon": -77.02797216666667, "type": "electric_scooter", "bike_id": "4cf97db1fe69e426d1717bc1f71fc830", "fusion_lon": 0.0, "lat": 38.93079866666667, "fusion_lat": 0.0}, {"is_disabled": 0, "rental_uris": {"android": "https://dc.lft.to/lastmile_qr_scan", "ios": "https://dc.lft.to/lastmile_qr_scan"}, "is_reserved": 0, "name": "0b29a76fc3efa2bce370db0744d91c51", "lon": -77.02389083333334, "type": "electric_scooter", "bike_id": "0b29a76fc3efa2bce370db0744d91c51", "fusion_lon": 0.0, "lat": 38.905851, "fusion_lat": 0.0}, {"is_disabled": 0, "rental_uris": {"android": "https://dc.lft.to/lastmile_qr_scan", "ios": "https://dc.lft.to/lastmile_qr_scan"}, "is_reserved": 0, "name": "57d320307fae82ed97e7bec5dacc27fd", "lon": -77.02394166666667, "type": "electric_scooter", "bike_id": "57d320307fae82ed97e7bec5dacc27fd", "fusion_lon": 0.0, "lat": 38.90709916666667, "fusion_lat": 0.0}, {"is_disabled": 0, "rental_uris": {"android": "https://dc.lft.to/lastmile_qr_scan", "ios": "https://dc.lft.to/lastmile_qr_scan"}, "is_reserved": 0, "name": "e9d573aa08dadd6aca84485561f74426", "lon": -76.986603, "type": "electric_scooter", "bike_id": "e9d573aa08dadd6aca84485561f74426", "fusion_lon": 0.0, "lat": 38.9131285, "fusion_lat": 0.0}, {"is_disabled": 0, "rental_uris": {"android": "https://dc.lft.to/lastmile_qr_scan", "ios": "https://dc.lft.to/lastmile_qr_scan"}, "is_reserved": 0, "name": "d3157b5f9eed8843fedc9cd111d5054e", "lon": -77.02810566666666, "type": "electric_scooter", "bike_id": "d3157b5f9eed8843fedc9cd111d5054e", "fusion_lon": 0.0, "lat": 38.90461916666667, "fusion_lat": 0.0}, {"is_disabled": 0, "rental_uris": {"android": "https://dc.lft.to/lastmile_qr_scan", "ios": "https://dc.lft.to/lastmile_qr_scan"}, "is_reserved": 0, "name": "840ec06d3cf263f1e32458d1999520e6", "lon": -76.99349816666667, "type": "electric_scooter", "bike_id": "840ec06d3cf263f1e32458d1999520e6", "fusion_lon": 0.0, "lat": 38.89900016666667, "fusion_lat": 0.0}, {"is_disabled": 0, "rental_uris": {"android": "https://dc.lft.to/lastmile_qr_scan", "ios": "https://dc.lft.to/lastmile_qr_scan"}, "is_reserved": 0, "name": "e7b769a847f43820dad7a5304018a4c5", "lon": -77.01564483333334, "type": "electric_bike", "bike_id": "e7b769a847f43820dad7a5304018a4c5", "fusion_lon": 0.0, "lat": 38.9500995, "fusion_lat": 0.0}, {"is_disabled": 0, "rental_uris": {"android": "https://dc.lft.to/lastmile_qr_scan", "ios": "https://dc.lft.to/lastmile_qr_scan"}, "is_reserved": 0, "name": "604009bbd2a4d355af80cfe70d097f9a", "lon": -77.03204766666667, "type": "electric_scooter", "bike_id": "604009bbd2a4d355af80cfe70d097f9a", "fusion_lon": 0.0, "lat": 38.910424166666665, "fusion_lat": 0.0}, {"is_disabled": 0, "rental_uris": {"android": "https://dc.lft.to/lastmile_qr_scan", "ios": "https://dc.lft.to/lastmile_qr_scan"}, "is_reserved": 0, "name": "67741c6b712fdf399c14ea6c0f93fbd4", "lon": -76.98653833333333, "type": "electric_scooter", "bike_id": "67741c6b712fdf399c14ea6c0f93fbd4", "fusion_lon": 0.0, "lat": 38.8580785, "fusion_lat": 0.0}, {"is_disabled": 0, "rental_uris": {"android": "https://dc.lft.to/lastmile_qr_scan", "ios": "https://dc.lft.to/lastmile_qr_scan"}, "is_reserved": 0, "name": "d662df755178a63991c3023c37c61a75", "lon": -77.038527, "type": "electric_scooter", "bike_id": "d662df755178a63991c3023c37c61a75", "fusion_lon": 0.0, "lat": 38.91713716666667, "fusion_lat": 0.0}, {"is_disabled": 0, "rental_uris": {"android": "https://dc.lft.to/lastmile_qr_scan", "ios": "https://dc.lft.to/lastmile_qr_scan"}, "is_reserved": 0, "name": "026aaf5b0815c17fb03ab37347139981", "lon": -77.00288333333333, "type": "electric_scooter", "bike_id": "026aaf5b0815c17fb03ab37347139981", "fusion_lon": 0.0, "lat": 38.90552566666667, "fusion_lat": 0.0}, {"is_disabled": 0, "rental_uris": {"android": "https://dc.lft.to/lastmile_qr_scan", "ios": "https://dc.lft.to/lastmile_qr_scan"}, "is_reserved": 0, "name": "7315725ec3dee6b35957186cf7331fb7", "lon": -76.98418166666667, "type": "electric_bike", "bike_id": "7315725ec3dee6b35957186cf7331fb7", "fusion_lon": 0.0, "lat": 38.910057333333334, "fusion_lat": 0.0}, {"is_disabled": 0, "rental_uris": {"android": "https://dc.lft.to/lastmile_qr_scan", "ios": "https://dc.lft.to/lastmile_qr_scan"}, "is_reserved": 0, "name": "50ba83fbb80b917db61874bbc04db18c", "lon": -77.03089866666667, "type": "electric_scooter", "bike_id": "50ba83fbb80b917db61874bbc04db18c", "fusion_lon": 0.0, "lat": 38.90959133333333, "fusion_lat": 0.0}, {"is_disabled": 0, "rental_uris": {"android": "https://dc.lft.to/lastmile_qr_scan", "ios": "https://dc.lft.to/lastmile_qr_scan"}, "is_reserved": 0, "name": "7c2c3cecb4abd0fab2713d0c242fe433", "lon": -77.025914, "type": "electric_scooter", "bike_id": "7c2c3cecb4abd0fab2713d0c242fe433", "fusion_lon": 0.0, "lat": 38.9420105, "fusion_lat": 0.0}, {"is_disabled": 0, "rental_uris": {"android": "https://dc.lft.to/lastmile_qr_scan", "ios": "https://dc.lft.to/lastmile_qr_scan"}, "is_reserved": 0, "name": "6fc7b2f04d70b6fac7825844d09de4b2", "lon": -77.03437233333334, "type": "electric_scooter", "bike_id": "6fc7b2f04d70b6fac7825844d09de4b2", "fusion_lon": 0.0, "lat": 38.9175655, "fusion_lat": 0.0}, {"is_disabled": 0, "rental_uris": {"android": "https://dc.lft.to/lastmile_qr_scan", "ios": "https://dc.lft.to/lastmile_qr_scan"}, "is_reserved": 0, "name": "67616b82cda08a85f958d4fd71bc250f", "lon": -76.94898116666667, "type": "electric_scooter", "bike_id": "67616b82cda08a85f958d4fd71bc250f", "fusion_lon": 0.0, "lat": 38.89528283333333, "fusion_lat": 0.0}, {"is_disabled": 0, "rental_uris": {"android": "https://dc.lft.to/lastmile_qr_scan", "ios": "https://dc.lft.to/lastmile_qr_scan"}, "is_reserved": 0, "name": "5225f8b8b930aa810eeef793bbb6da54", "lon": -77.0386605, "type": "electric_scooter", "bike_id": "5225f8b8b930aa810eeef793bbb6da54", "fusion_lon": 0.0, "lat": 38.91258083333334, "fusion_lat": 0.0}, {"is_disabled": 0, "rental_uris": {"android": "https://dc.lft.to/lastmile_qr_scan", "ios": "https://dc.lft.to/lastmile_qr_scan"}, "is_reserved": 0, "name": "29775c53f9bbe0e00e2a879dcede8d44", "lon": -77.0431205, "type": "electric_scooter", "bike_id": "29775c53f9bbe0e00e2a879dcede8d44", "fusion_lon": 0.0, "lat": 38.91109333333333, "fusion_lat": 0.0}, {"is_disabled": 0, "rental_uris": {"android": "https://dc.lft.to/lastmile_qr_scan", "ios": "https://dc.lft.to/lastmile_qr_scan"}, "is_reserved": 0, "name": "31b71468ddfbcd8b76db733fbce1275b", "lon": -77.04013166666667, "type": "electric_scooter", "bike_id": "31b71468ddfbcd8b76db733fbce1275b", "fusion_lon": 0.0, "lat": 38.9104205, "fusion_lat": 0.0}, {"is_disabled": 0, "rental_uris": {"android": "https://dc.lft.to/lastmile_qr_scan", "ios": "https://dc.lft.to/lastmile_qr_scan"}, "is_reserved": 0, "name": "71bd85fe0521a8ff49780c520a99bdcc", "lon": -77.12407383333333, "type": "electric_bike", "bike_id": "71bd85fe0521a8ff49780c520a99bdcc", "fusion_lon": 0.0, "lat": 38.89335916666667, "fusion_lat": 0.0}, {"is_disabled": 0, "rental_uris": {"android": "https://dc.lft.to/lastmile_qr_scan", "ios": "https://dc.lft.to/lastmile_qr_scan"}, "is_reserved": 0, "name": "f03a2f8ee873bcd043c4d8f914bfec94", "lon": -77.0487785, "type": "electric_scooter", "bike_id": "f03a2f8ee873bcd043c4d8f914bfec94", "fusion_lon": 0.0, "lat": 38.909528, "fusion_lat": 0.0}, {"is_disabled": 0, "rental_uris": {"android": "https://dc.lft.to/lastmile_qr_scan", "ios": "https://dc.lft.to/lastmile_qr_scan"}, "is_reserved": 0, "name": "c9a02537ea66af1861d8ab357afe8035", "lon": -77.041639, "type": "electric_scooter", "bike_id": "c9a02537ea66af1861d8ab357afe8035", "fusion_lon": 0.0, "lat": 38.90803233333333, "fusion_lat": 0.0}, {"is_disabled": 0, "rental_uris": {"android": "https://dc.lft.to/lastmile_qr_scan", "ios": "https://dc.lft.to/lastmile_qr_scan"}, "is_reserved": 0, "name": "ac4d3fc5be69457e8ef95689757eb07e", "lon": -77.0209525, "type": "electric_scooter", "bike_id": "ac4d3fc5be69457e8ef95689757eb07e", "fusion_lon": 0.0, "lat": 38.9347405, "fusion_lat": 0.0}, {"is_disabled": 0, "rental_uris": {"android": "https://dc.lft.to/lastmile_qr_scan", "ios": "https://dc.lft.to/lastmile_qr_scan"}, "is_reserved": 0, "name": "4d9956e0a479f5be4f3f0aa18e21d5a9", "lon": -77.03184083333333, "type": "electric_scooter", "bike_id": "4d9956e0a479f5be4f3f0aa18e21d5a9", "fusion_lon": 0.0, "lat": 38.914007166666664, "fusion_lat": 0.0}, {"is_disabled": 0, "rental_uris": {"android": "https://dc.lft.to/lastmile_qr_scan", "ios": "https://dc.lft.to/lastmile_qr_scan"}, "is_reserved": 0, "name": "14daf9c09769d8e47d5152320d9924b8", "lon": -77.01378816666667, "type": "electric_scooter", "bike_id": "14daf9c09769d8e47d5152320d9924b8", "fusion_lon": 0.0, "lat": 38.910356666666665, "fusion_lat": 0.0}, {"is_disabled": 0, "rental_uris": {"android": "https://dc.lft.to/lastmile_qr_scan", "ios": "https://dc.lft.to/lastmile_qr_scan"}, "is_reserved": 0, "name": "e81d0a2746f1d2aff3d54353f8e0626d", "lon": -77.026952, "type": "electric_scooter", "bike_id": "e81d0a2746f1d2aff3d54353f8e0626d", "fusion_lon": 0.0, "lat": 38.918346, "fusion_lat": 0.0}, {"is_disabled": 0, "rental_uris": {"android": "https://dc.lft.to/lastmile_qr_scan", "ios": "https://dc.lft.to/lastmile_qr_scan"}, "is_reserved": 0, "name": "476dad33b24f9d719be00e11ff41635d", "lon": -77.01238683333334, "type": "electric_scooter", "bike_id": "476dad33b24f9d719be00e11ff41635d", "fusion_lon": 0.0, "lat": 38.87473716666667, "fusion_lat": 0.0}, {"is_disabled": 0, "rental_uris": {"android": "https://dc.lft.to/lastmile_qr_scan", "ios": "https://dc.lft.to/lastmile_qr_scan"}, "is_reserved": 0, "name": "02baf419fbe8746d14c66db6ba5e3ca4", "lon": -77.02218116666667, "type": "electric_scooter", "bike_id": "02baf419fbe8746d14c66db6ba5e3ca4", "fusion_lon": 0.0, "lat": 38.91550066666667, "fusion_lat": 0.0}, {"is_disabled": 0, "rental_uris": {"android": "https://dc.lft.to/lastmile_qr_scan", "ios": "https://dc.lft.to/lastmile_qr_scan"}, "is_reserved": 0, "name": "2515207496ea2782e6b39f41f3b04871", "lon": -77.02457583333333, "type": "electric_scooter", "bike_id": "2515207496ea2782e6b39f41f3b04871", "fusion_lon": 0.0, "lat": 38.93772233333333, "fusion_lat": 0.0}, {"is_disabled": 0, "rental_uris": {"android": "https://dc.lft.to/lastmile_qr_scan", "ios": "https://dc.lft.to/lastmile_qr_scan"}, "is_reserved": 0, "name": "28ef870f55fbed5219791183dcc61c14", "lon": -77.02804583333334, "type": "electric_scooter", "bike_id": "28ef870f55fbed5219791183dcc61c14", "fusion_lon": 0.0, "lat": 38.903931, "fusion_lat": 0.0}, {"is_disabled": 0, "rental_uris": {"android": "https://dc.lft.to/lastmile_qr_scan", "ios": "https://dc.lft.to/lastmile_qr_scan"}, "is_reserved": 0, "name": "66cddd27d812d11d1480242df6143b7a", "lon": -77.0239495, "type": "electric_scooter", "bike_id": "66cddd27d812d11d1480242df6143b7a", "fusion_lon": 0.0, "lat": 38.920095833333335, "fusion_lat": 0.0}, {"is_disabled": 0, "rental_uris": {"android": "https://dc.lft.to/lastmile_qr_scan", "ios": "https://dc.lft.to/lastmile_qr_scan"}, "is_reserved": 0, "name": "14ac3a72cbf851e1f397c9e484c94440", "lon": -77.027169, "type": "electric_scooter", "bike_id": "14ac3a72cbf851e1f397c9e484c94440", "fusion_lon": 0.0, "lat": 38.919633166666664, "fusion_lat": 0.0}, {"is_disabled": 0, "rental_uris": {"android": "https://dc.lft.to/lastmile_qr_scan", "ios": "https://dc.lft.to/lastmile_qr_scan"}, "is_reserved": 0, "name": "8ea3c6059b25659b0a850bc4a3dba399", "lon": -77.03453216666666, "type": "electric_scooter", "bike_id": "8ea3c6059b25659b0a850bc4a3dba399", "fusion_lon": 0.0, "lat": 38.931521333333336, "fusion_lat": 0.0}, {"is_disabled": 0, "rental_uris": {"android": "https://dc.lft.to/lastmile_qr_scan", "ios": "https://dc.lft.to/lastmile_qr_scan"}, "is_reserved": 0, "name": "125f18beaa678d4d74f548447f71d3a2", "lon": -76.94635283333334, "type": "electric_scooter", "bike_id": "125f18beaa678d4d74f548447f71d3a2", "fusion_lon": 0.0, "lat": 38.89843883333333, "fusion_lat": 0.0}, {"is_disabled": 0, "rental_uris": {"android": "https://dc.lft.to/lastmile_qr_scan", "ios": "https://dc.lft.to/lastmile_qr_scan"}, "is_reserved": 0, "name": "324626606d859ae2113c3e767da09066", "lon": -77.046173, "type": "electric_scooter", "bike_id": "324626606d859ae2113c3e767da09066", "fusion_lon": 0.0, "lat": 38.899585, "fusion_lat": 0.0}, {"is_disabled": 0, "rental_uris": {"android": "https://dc.lft.to/lastmile_qr_scan", "ios": "https://dc.lft.to/lastmile_qr_scan"}, "is_reserved": 0, "name": "720cff048b51c580e043d70824ddae5c", "lon": -76.99540916666666, "type": "electric_scooter", "bike_id": "720cff048b51c580e043d70824ddae5c", "fusion_lon": 0.0, "lat": 38.86255383333334, "fusion_lat": 0.0}, {"is_disabled": 0, "rental_uris": {"android": "https://dc.lft.to/lastmile_qr_scan", "ios": "https://dc.lft.to/lastmile_qr_scan"}, "is_reserved": 0, "name": "f989a8b862a3901a200e50db8d03f778", "lon": -77.04875283333334, "type": "electric_scooter", "bike_id": "f989a8b862a3901a200e50db8d03f778", "fusion_lon": 0.0, "lat": 38.909515166666665, "fusion_lat": 0.0}, {"is_disabled": 0, "rental_uris": {"android": "https://dc.lft.to/lastmile_qr_scan", "ios": "https://dc.lft.to/lastmile_qr_scan"}, "is_reserved": 0, "name": "59e3119af4bf613850044ed91bf50bd0", "lon": -76.91809183333334, "type": "electric_bike", "bike_id": "59e3119af4bf613850044ed91bf50bd0", "fusion_lon": 0.0, "lat": 39.00000983333333, "fusion_lat": 0.0}, {"is_disabled": 0, "rental_uris": {"android": "https://dc.lft.to/lastmile_qr_scan", "ios": "https://dc.lft.to/lastmile_qr_scan"}, "is_reserved": 0, "name": "5ed63d95392e3b24e9f6292687344592", "lon": -77.0060465, "type": "electric_scooter", "bike_id": "5ed63d95392e3b24e9f6292687344592", "fusion_lon": 0.0, "lat": 38.8758895, "fusion_lat": 0.0}, {"is_disabled": 0, "rental_uris": {"android": "https://dc.lft.to/lastmile_qr_scan", "ios": "https://dc.lft.to/lastmile_qr_scan"}, "is_reserved": 0, "name": "14937d13255d0786bfc8f4b586ffafb1", "lon": -77.0398455, "type": "electric_scooter", "bike_id": "14937d13255d0786bfc8f4b586ffafb1", "fusion_lon": 0.0, "lat": 38.91810133333333, "fusion_lat": 0.0}, {"is_disabled": 0, "rental_uris": {"android": "https://dc.lft.to/lastmile_qr_scan", "ios": "https://dc.lft.to/lastmile_qr_scan"}, "is_reserved": 0, "name": "797b6caa48f791bb3dd1a68c7c5d834f", "lon": -77.03677683333333, "type": "electric_scooter", "bike_id": "797b6caa48f791bb3dd1a68c7c5d834f", "fusion_lon": 0.0, "lat": 38.922282833333334, "fusion_lat": 0.0}, {"is_disabled": 0, "rental_uris": {"android": "https://dc.lft.to/lastmile_qr_scan", "ios": "https://dc.lft.to/lastmile_qr_scan"}, "is_reserved": 0, "name": "240caf354c00f5d4e77c494cae5ee80d", "lon": -77.01223616666667, "type": "electric_scooter", "bike_id": "240caf354c00f5d4e77c494cae5ee80d", "fusion_lon": 0.0, "lat": 38.885822833333336, "fusion_lat": 0.0}, {"is_disabled": 0, "rental_uris": {"android": "https://dc.lft.to/lastmile_qr_scan", "ios": "https://dc.lft.to/lastmile_qr_scan"}, "is_reserved": 0, "name": "f35684b00772ecea0b68bedb116fb4a3", "lon": -77.02399233333334, "type": "electric_scooter", "bike_id": "f35684b00772ecea0b68bedb116fb4a3", "fusion_lon": 0.0, "lat": 38.9308535, "fusion_lat": 0.0}, {"is_disabled": 0, "rental_uris": {"android": "https://dc.lft.to/lastmile_qr_scan", "ios": "https://dc.lft.to/lastmile_qr_scan"}, "is_reserved": 0, "name": "c28a0d64aa9fcaf50f3e007a75f98e90", "lon": -77.03023, "type": "electric_scooter", "bike_id": "c28a0d64aa9fcaf50f3e007a75f98e90", "fusion_lon": 0.0, "lat": 38.922403333333335, "fusion_lat": 0.0}, {"is_disabled": 0, "rental_uris": {"android": "https://dc.lft.to/lastmile_qr_scan", "ios": "https://dc.lft.to/lastmile_qr_scan"}, "is_reserved": 0, "name": "7f8ec474d5279c2a1972677d99d12827", "lon": -77.02365583333334, "type": "electric_scooter", "bike_id": "7f8ec474d5279c2a1972677d99d12827", "fusion_lon": 0.0, "lat": 38.931324833333335, "fusion_lat": 0.0}, {"is_disabled": 0, "rental_uris": {"android": "https://dc.lft.to/lastmile_qr_scan", "ios": "https://dc.lft.to/lastmile_qr_scan"}, "is_reserved": 0, "name": "2f1d4f95a4df8136bcedb555121488f0", "lon": -77.002051, "type": "electric_scooter", "bike_id": "2f1d4f95a4df8136bcedb555121488f0", "fusion_lon": 0.0, "lat": 38.91567466666667, "fusion_lat": 0.0}, {"is_disabled": 0, "rental_uris": {"android": "https://dc.lft.to/lastmile_qr_scan", "ios": "https://dc.lft.to/lastmile_qr_scan"}, "is_reserved": 0, "name": "bed5423b67fddf32664c16c71f44a661", "lon": -77.0224085, "type": "electric_scooter", "bike_id": "bed5423b67fddf32664c16c71f44a661", "fusion_lon": 0.0, "lat": 38.91122516666667, "fusion_lat": 0.0}, {"is_disabled": 0, "rental_uris": {"android": "https://dc.lft.to/lastmile_qr_scan", "ios": "https://dc.lft.to/lastmile_qr_scan"}, "is_reserved": 0, "name": "401ebbc8fde0847d70037ad83d15157a", "lon": -76.95195833333334, "type": "electric_bike", "bike_id": "401ebbc8fde0847d70037ad83d15157a", "fusion_lon": 0.0, "lat": 38.90687883333333, "fusion_lat": 0.0}, {"is_disabled": 0, "rental_uris": {"android": "https://dc.lft.to/lastmile_qr_scan", "ios": "https://dc.lft.to/lastmile_qr_scan"}, "is_reserved": 0, "name": "2578b4011250f5846d5f67fa9fb01d88", "lon": -77.05465283333334, "type": "electric_scooter", "bike_id": "2578b4011250f5846d5f67fa9fb01d88", "fusion_lon": 0.0, "lat": 38.929008, "fusion_lat": 0.0}, {"is_disabled": 0, "rental_uris": {"android": "https://dc.lft.to/lastmile_qr_scan", "ios": "https://dc.lft.to/lastmile_qr_scan"}, "is_reserved": 0, "name": "17a91c1b088d1b554911286efdee60c6", "lon": -77.03783566666667, "type": "electric_scooter", "bike_id": "17a91c1b088d1b554911286efdee60c6", "fusion_lon": 0.0, "lat": 38.93020083333333, "fusion_lat": 0.0}, {"is_disabled": 0, "rental_uris": {"android": "https://dc.lft.to/lastmile_qr_scan", "ios": "https://dc.lft.to/lastmile_qr_scan"}, "is_reserved": 0, "name": "a26e82ea2e8a22dd4c9716c3ada34b3a", "lon": -77.03219183333333, "type": "electric_scooter", "bike_id": "a26e82ea2e8a22dd4c9716c3ada34b3a", "fusion_lon": 0.0, "lat": 38.92577883333333, "fusion_lat": 0.0}, {"is_disabled": 0, "rental_uris": {"android": "https://dc.lft.to/lastmile_qr_scan", "ios": "https://dc.lft.to/lastmile_qr_scan"}, "is_reserved": 0, "name": "8b3820b35e2927b1cbbaac73052f11d7", "lon": -77.02209433333333, "type": "electric_scooter", "bike_id": "8b3820b35e2927b1cbbaac73052f11d7", "fusion_lon": 0.0, "lat": 38.90504683333333, "fusion_lat": 0.0}, {"is_disabled": 0, "rental_uris": {"android": "https://dc.lft.to/lastmile_qr_scan", "ios": "https://dc.lft.to/lastmile_qr_scan"}, "is_reserved": 0, "name": "09d1f34060e5c15039a0d4a4b3c969cc", "lon": -76.987742, "type": "electric_scooter", "bike_id": "09d1f34060e5c15039a0d4a4b3c969cc", "fusion_lon": 0.0, "lat": 38.84452866666667, "fusion_lat": 0.0}, {"is_disabled": 0, "rental_uris": {"android": "https://dc.lft.to/lastmile_qr_scan", "ios": "https://dc.lft.to/lastmile_qr_scan"}, "is_reserved": 0, "name": "63bd8abe1e153b288648aad1c7cf62fd", "lon": -77.02915366666667, "type": "electric_scooter", "bike_id": "63bd8abe1e153b288648aad1c7cf62fd", "fusion_lon": 0.0, "lat": 38.924823, "fusion_lat": 0.0}, {"is_disabled": 0, "rental_uris": {"android": "https://dc.lft.to/lastmile_qr_scan", "ios": "https://dc.lft.to/lastmile_qr_scan"}, "is_reserved": 0, "name": "8cc721198f29c4dd5ca73581a173a267", "lon": -77.0294475, "type": "electric_scooter", "bike_id": "8cc721198f29c4dd5ca73581a173a267", "fusion_lon": 0.0, "lat": 38.89975283333333, "fusion_lat": 0.0}, {"is_disabled": 0, "rental_uris": {"android": "https://dc.lft.to/lastmile_qr_scan", "ios": "https://dc.lft.to/lastmile_qr_scan"}, "is_reserved": 0, "name": "76a5342133707531e07ad4124140a393", "lon": -77.04189683333334, "type": "electric_scooter", "bike_id": "76a5342133707531e07ad4124140a393", "fusion_lon": 0.0, "lat": 38.916734, "fusion_lat": 0.0}, {"is_disabled": 0, "rental_uris": {"android": "https://dc.lft.to/lastmile_qr_scan", "ios": "https://dc.lft.to/lastmile_qr_scan"}, "is_reserved": 0, "name": "e9787aba72288966c3862fe40f4b55bb", "lon": -76.98466283333333, "type": "electric_scooter", "bike_id": "e9787aba72288966c3862fe40f4b55bb", "fusion_lon": 0.0, "lat": 38.89365933333333, "fusion_lat": 0.0}, {"is_disabled": 0, "rental_uris": {"android": "https://dc.lft.to/lastmile_qr_scan", "ios": "https://dc.lft.to/lastmile_qr_scan"}, "is_reserved": 0, "name": "7ba9c58ce068d3ccbf7cac135e86be51", "lon": -77.0347435, "type": "electric_scooter", "bike_id": "7ba9c58ce068d3ccbf7cac135e86be51", "fusion_lon": 0.0, "lat": 38.911136666666664, "fusion_lat": 0.0}, {"is_disabled": 0, "rental_uris": {"android": "https://dc.lft.to/lastmile_qr_scan", "ios": "https://dc.lft.to/lastmile_qr_scan"}, "is_reserved": 0, "name": "34ce0f826261bbce13b4cad20a5cbaf3", "lon": -77.0368975, "type": "electric_scooter", "bike_id": "34ce0f826261bbce13b4cad20a5cbaf3", "fusion_lon": 0.0, "lat": 38.93638816666667, "fusion_lat": 0.0}, {"is_disabled": 0, "rental_uris": {"android": "https://dc.lft.to/lastmile_qr_scan", "ios": "https://dc.lft.to/lastmile_qr_scan"}, "is_reserved": 0, "name": "30c65fa0118f2594bd4bda55e861c64a", "lon": -77.01206866666666, "type": "electric_scooter", "bike_id": "30c65fa0118f2594bd4bda55e861c64a", "fusion_lon": 0.0, "lat": 38.927406166666664, "fusion_lat": 0.0}, {"is_disabled": 0, "rental_uris": {"android": "https://dc.lft.to/lastmile_qr_scan", "ios": "https://dc.lft.to/lastmile_qr_scan"}, "is_reserved": 0, "name": "6137f5cbef36f1455603f98a56a2932a", "lon": -77.03247133333333, "type": "electric_scooter", "bike_id": "6137f5cbef36f1455603f98a56a2932a", "fusion_lon": 0.0, "lat": 38.909577166666665, "fusion_lat": 0.0}, {"is_disabled": 0, "rental_uris": {"android": "https://dc.lft.to/lastmile_qr_scan", "ios": "https://dc.lft.to/lastmile_qr_scan"}, "is_reserved": 0, "name": "fa18c04ea118523d1d368bbe1bbfb99f", "lon": -77.02916083333334, "type": "electric_scooter", "bike_id": "fa18c04ea118523d1d368bbe1bbfb99f", "fusion_lon": 0.0, "lat": 38.9397, "fusion_lat": 0.0}, {"is_disabled": 0, "rental_uris": {"android": "https://dc.lft.to/lastmile_qr_scan", "ios": "https://dc.lft.to/lastmile_qr_scan"}, "is_reserved": 0, "name": "df61d337e88b838294f9e75e5ece1e73", "lon": -77.05788816666667, "type": "electric_scooter", "bike_id": "df61d337e88b838294f9e75e5ece1e73", "fusion_lon": 0.0, "lat": 38.905116, "fusion_lat": 0.0}, {"is_disabled": 0, "rental_uris": {"android": "https://dc.lft.to/lastmile_qr_scan", "ios": "https://dc.lft.to/lastmile_qr_scan"}, "is_reserved": 0, "name": "88f08243e5c73ea22ec0cde3e6ebfecb", "lon": -76.93557183333333, "type": "electric_scooter", "bike_id": "88f08243e5c73ea22ec0cde3e6ebfecb", "fusion_lon": 0.0, "lat": 38.90154283333333, "fusion_lat": 0.0}, {"is_disabled": 0, "rental_uris": {"android": "https://dc.lft.to/lastmile_qr_scan", "ios": "https://dc.lft.to/lastmile_qr_scan"}, "is_reserved": 0, "name": "f257e2ccb69d042aba41b4600f05722e", "lon": -76.985537, "type": "electric_scooter", "bike_id": "f257e2ccb69d042aba41b4600f05722e", "fusion_lon": 0.0, "lat": 38.904195333333334, "fusion_lat": 0.0}, {"is_disabled": 0, "rental_uris": {"android": "https://dc.lft.to/lastmile_qr_scan", "ios": "https://dc.lft.to/lastmile_qr_scan"}, "is_reserved": 0, "name": "3ae0fef3b94676e2ee8dbd1511a402fd", "lon": -77.04047366666667, "type": "electric_scooter", "bike_id": "3ae0fef3b94676e2ee8dbd1511a402fd", "fusion_lon": 0.0, "lat": 38.90042966666667, "fusion_lat": 0.0}, {"is_disabled": 0, "rental_uris": {"android": "https://dc.lft.to/lastmile_qr_scan", "ios": "https://dc.lft.to/lastmile_qr_scan"}, "is_reserved": 0, "name": "643ed293c38b621e5c18508a8e6cff26", "lon": -77.03645966666667, "type": "electric_scooter", "bike_id": "643ed293c38b621e5c18508a8e6cff26", "fusion_lon": 0.0, "lat": 38.928006833333335, "fusion_lat": 0.0}, {"is_disabled": 0, "rental_uris": {"android": "https://dc.lft.to/lastmile_qr_scan", "ios": "https://dc.lft.to/lastmile_qr_scan"}, "is_reserved": 0, "name": "c6b367ea8c857c03c965eb9f001c6ca6", "lon": -76.930539, "type": "electric_scooter", "bike_id": "c6b367ea8c857c03c965eb9f001c6ca6", "fusion_lon": 0.0, "lat": 38.8979745, "fusion_lat": 0.0}, {"is_disabled": 0, "rental_uris": {"android": "https://dc.lft.to/lastmile_qr_scan", "ios": "https://dc.lft.to/lastmile_qr_scan"}, "is_reserved": 0, "name": "04096e0199e349820dd6a65fb51e9a4e", "lon": -77.0415875, "type": "electric_scooter", "bike_id": "04096e0199e349820dd6a65fb51e9a4e", "fusion_lon": 0.0, "lat": 38.914209666666665, "fusion_lat": 0.0}, {"is_disabled": 0, "rental_uris": {"android": "https://dc.lft.to/lastmile_qr_scan", "ios": "https://dc.lft.to/lastmile_qr_scan"}, "is_reserved": 0, "name": "6646379ffbc7805dfb709d5768e92f9c", "lon": -77.03344466666667, "type": "electric_scooter", "bike_id": "6646379ffbc7805dfb709d5768e92f9c", "fusion_lon": 0.0, "lat": 38.918105, "fusion_lat": 0.0}, {"is_disabled": 0, "rental_uris": {"android": "https://dc.lft.to/lastmile_qr_scan", "ios": "https://dc.lft.to/lastmile_qr_scan"}, "is_reserved": 0, "name": "8bb2654cc83abbcb50065c3fd6fe711a", "lon": -77.02317483333333, "type": "electric_scooter", "bike_id": "8bb2654cc83abbcb50065c3fd6fe711a", "fusion_lon": 0.0, "lat": 38.92092, "fusion_lat": 0.0}, {"is_disabled": 0, "rental_uris": {"android": "https://dc.lft.to/lastmile_qr_scan", "ios": "https://dc.lft.to/lastmile_qr_scan"}, "is_reserved": 0, "name": "28a90a8d78c0e1b98e974aa43b8152f1", "lon": -77.022244, "type": "electric_scooter", "bike_id": "28a90a8d78c0e1b98e974aa43b8152f1", "fusion_lon": 0.0, "lat": 38.9355365, "fusion_lat": 0.0}, {"is_disabled": 0, "rental_uris": {"android": "https://dc.lft.to/lastmile_qr_scan", "ios": "https://dc.lft.to/lastmile_qr_scan"}, "is_reserved": 0, "name": "975155e51efc694106a1f8fbe03d3b7d", "lon": -77.02175716666666, "type": "electric_scooter", "bike_id": "975155e51efc694106a1f8fbe03d3b7d", "fusion_lon": 0.0, "lat": 38.89477566666667, "fusion_lat": 0.0}, {"is_disabled": 0, "rental_uris": {"android": "https://dc.lft.to/lastmile_qr_scan", "ios": "https://dc.lft.to/lastmile_qr_scan"}, "is_reserved": 0, "name": "69f9c1ac97fd923fca05d6950d51a438", "lon": -77.0321435, "type": "electric_scooter", "bike_id": "69f9c1ac97fd923fca05d6950d51a438", "fusion_lon": 0.0, "lat": 38.91840783333333, "fusion_lat": 0.0}, {"is_disabled": 0, "rental_uris": {"android": "https://dc.lft.to/lastmile_qr_scan", "ios": "https://dc.lft.to/lastmile_qr_scan"}, "is_reserved": 0, "name": "2543907ebcae16a0f3b8b0c5ca902013", "lon": -76.99633216666666, "type": "electric_scooter", "bike_id": "2543907ebcae16a0f3b8b0c5ca902013", "fusion_lon": 0.0, "lat": 38.84622316666667, "fusion_lat": 0.0}, {"is_disabled": 0, "rental_uris": {"android": "https://dc.lft.to/lastmile_qr_scan", "ios": "https://dc.lft.to/lastmile_qr_scan"}, "is_reserved": 0, "name": "0dc3cef00c35d178303b70e74fb466d4", "lon": -77.03922583333333, "type": "electric_scooter", "bike_id": "0dc3cef00c35d178303b70e74fb466d4", "fusion_lon": 0.0, "lat": 38.919128, "fusion_lat": 0.0}, {"is_disabled": 0, "rental_uris": {"android": "https://dc.lft.to/lastmile_qr_scan", "ios": "https://dc.lft.to/lastmile_qr_scan"}, "is_reserved": 0, "name": "333d3899ecb9540136c4c05d10903b60", "lon": -77.12741566666666, "type": "electric_bike", "bike_id": "333d3899ecb9540136c4c05d10903b60", "fusion_lon": 0.0, "lat": 38.895664833333335, "fusion_lat": 0.0}, {"is_disabled": 0, "rental_uris": {"android": "https://dc.lft.to/lastmile_qr_scan", "ios": "https://dc.lft.to/lastmile_qr_scan"}, "is_reserved": 0, "name": "c20edd0d5ca47b3c0c9126f013c4c13a", "lon": -77.03175533333334, "type": "electric_scooter", "bike_id": "c20edd0d5ca47b3c0c9126f013c4c13a", "fusion_lon": 0.0, "lat": 38.91415283333333, "fusion_lat": 0.0}, {"is_disabled": 0, "rental_uris": {"android": "https://dc.lft.to/lastmile_qr_scan", "ios": "https://dc.lft.to/lastmile_qr_scan"}, "is_reserved": 0, "name": "426d62e78617f4f3d8f2e378adba12ee", "lon": -77.03364066666667, "type": "electric_scooter", "bike_id": "426d62e78617f4f3d8f2e378adba12ee", "fusion_lon": 0.0, "lat": 38.921567, "fusion_lat": 0.0}, {"is_disabled": 0, "rental_uris": {"android": "https://dc.lft.to/lastmile_qr_scan", "ios": "https://dc.lft.to/lastmile_qr_scan"}, "is_reserved": 0, "name": "0da735b1b6e7685cd2e39021cb9be09e", "lon": -77.03213683333334, "type": "electric_scooter", "bike_id": "0da735b1b6e7685cd2e39021cb9be09e", "fusion_lon": 0.0, "lat": 38.903595333333335, "fusion_lat": 0.0}, {"is_disabled": 0, "rental_uris": {"android": "https://dc.lft.to/lastmile_qr_scan", "ios": "https://dc.lft.to/lastmile_qr_scan"}, "is_reserved": 0, "name": "a67eb3bb9ca52de16d40adf66170f820", "lon": -77.028411, "type": "electric_scooter", "bike_id": "a67eb3bb9ca52de16d40adf66170f820", "fusion_lon": 0.0, "lat": 38.925685333333334, "fusion_lat": 0.0}, {"is_disabled": 0, "rental_uris": {"android": "https://dc.lft.to/lastmile_qr_scan", "ios": "https://dc.lft.to/lastmile_qr_scan"}, "is_reserved": 0, "name": "e29f048f780c1b22c549c57785e017b9", "lon": -77.02392066666667, "type": "electric_scooter", "bike_id": "e29f048f780c1b22c549c57785e017b9", "fusion_lon": 0.0, "lat": 38.92796883333333, "fusion_lat": 0.0}, {"is_disabled": 0, "rental_uris": {"android": "https://dc.lft.to/lastmile_qr_scan", "ios": "https://dc.lft.to/lastmile_qr_scan"}, "is_reserved": 0, "name": "3e61d1207b0979ebf74e99b543c88cd1", "lon": -77.00888983333333, "type": "electric_scooter", "bike_id": "3e61d1207b0979ebf74e99b543c88cd1", "fusion_lon": 0.0, "lat": 38.9058175, "fusion_lat": 0.0}, {"is_disabled": 0, "rental_uris": {"android": "https://dc.lft.to/lastmile_qr_scan", "ios": "https://dc.lft.to/lastmile_qr_scan"}, "is_reserved": 0, "name": "990aead1a5efbc5f5640832e5dcde104", "lon": -77.03380116666666, "type": "electric_scooter", "bike_id": "990aead1a5efbc5f5640832e5dcde104", "fusion_lon": 0.0, "lat": 38.917178, "fusion_lat": 0.0}, {"is_disabled": 0, "rental_uris": {"android": "https://dc.lft.to/lastmile_qr_scan", "ios": "https://dc.lft.to/lastmile_qr_scan"}, "is_reserved": 0, "name": "c637ea4d50c9113e53a666e68f2ba145", "lon": -77.01511316666667, "type": "electric_scooter", "bike_id": "c637ea4d50c9113e53a666e68f2ba145", "fusion_lon": 0.0, "lat": 38.910058666666664, "fusion_lat": 0.0}, {"is_disabled": 0, "rental_uris": {"android": "https://dc.lft.to/lastmile_qr_scan", "ios": "https://dc.lft.to/lastmile_qr_scan"}, "is_reserved": 0, "name": "3fd2759b2bbf700225f5c8006ad240a4", "lon": -77.04584216666667, "type": "electric_scooter", "bike_id": "3fd2759b2bbf700225f5c8006ad240a4", "fusion_lon": 0.0, "lat": 38.9242645, "fusion_lat": 0.0}, {"is_disabled": 0, "rental_uris": {"android": "https://dc.lft.to/lastmile_qr_scan", "ios": "https://dc.lft.to/lastmile_qr_scan"}, "is_reserved": 0, "name": "4695c3140b1d6f405e896a029abd99b7", "lon": -77.03847666666667, "type": "electric_scooter", "bike_id": "4695c3140b1d6f405e896a029abd99b7", "fusion_lon": 0.0, "lat": 38.9147095, "fusion_lat": 0.0}, {"is_disabled": 0, "rental_uris": {"android": "https://dc.lft.to/lastmile_qr_scan", "ios": "https://dc.lft.to/lastmile_qr_scan"}, "is_reserved": 0, "name": "db31a77cac7e44a62e10d09a3f57cd70", "lon": -77.03447666666666, "type": "electric_scooter", "bike_id": "db31a77cac7e44a62e10d09a3f57cd70", "fusion_lon": 0.0, "lat": 38.9098045, "fusion_lat": 0.0}, {"is_disabled": 0, "rental_uris": {"android": "https://dc.lft.to/lastmile_qr_scan", "ios": "https://dc.lft.to/lastmile_qr_scan"}, "is_reserved": 0, "name": "34c4238e0b81a4ceca16768608580d7c", "lon": -77.04135616666667, "type": "electric_bike", "bike_id": "34c4238e0b81a4ceca16768608580d7c", "fusion_lon": 0.0, "lat": 38.943983833333334, "fusion_lat": 0.0}, {"is_disabled": 0, "rental_uris": {"android": "https://dc.lft.to/lastmile_qr_scan", "ios": "https://dc.lft.to/lastmile_qr_scan"}, "is_reserved": 0, "name": "5df2c3551908dfc6fb73ee0bba4d8e86", "lon": -77.03062783333333, "type": "electric_scooter", "bike_id": "5df2c3551908dfc6fb73ee0bba4d8e86", "fusion_lon": 0.0, "lat": 38.92582066666667, "fusion_lat": 0.0}, {"is_disabled": 0, "rental_uris": {"android": "https://dc.lft.to/lastmile_qr_scan", "ios": "https://dc.lft.to/lastmile_qr_scan"}, "is_reserved": 0, "name": "95a14cd76505fb028177e97467a77a71", "lon": -76.987088, "type": "electric_scooter", "bike_id": "95a14cd76505fb028177e97467a77a71", "fusion_lon": 0.0, "lat": 38.865351, "fusion_lat": 0.0}, {"is_disabled": 0, "rental_uris": {"android": "https://dc.lft.to/lastmile_qr_scan", "ios": "https://dc.lft.to/lastmile_qr_scan"}, "is_reserved": 0, "name": "58d57f78754da8f0bde76c36955a33b9", "lon": -77.12817116666666, "type": "electric_bike", "bike_id": "58d57f78754da8f0bde76c36955a33b9", "fusion_lon": 0.0, "lat": 38.865306, "fusion_lat": 0.0}, {"is_disabled": 0, "rental_uris": {"android": "https://dc.lft.to/lastmile_qr_scan", "ios": "https://dc.lft.to/lastmile_qr_scan"}, "is_reserved": 0, "name": "c4f6a233bab712bd07357242c3c764d5", "lon": -77.02844833333333, "type": "electric_scooter", "bike_id": "c4f6a233bab712bd07357242c3c764d5", "fusion_lon": 0.0, "lat": 38.904366333333336, "fusion_lat": 0.0}, {"is_disabled": 0, "rental_uris": {"android": "https://dc.lft.to/lastmile_qr_scan", "ios": "https://dc.lft.to/lastmile_qr_scan"}, "is_reserved": 0, "name": "1d1721a5a2ebfa9d59615a0938d4df80", "lon": -77.0451495, "type": "electric_scooter", "bike_id": "1d1721a5a2ebfa9d59615a0938d4df80", "fusion_lon": 0.0, "lat": 38.88603766666667, "fusion_lat": 0.0}, {"is_disabled": 0, "rental_uris": {"android": "https://dc.lft.to/lastmile_qr_scan", "ios": "https://dc.lft.to/lastmile_qr_scan"}, "is_reserved": 0, "name": "f775b627ad6447daf179ea059a01acf1", "lon": -77.0255855, "type": "electric_scooter", "bike_id": "f775b627ad6447daf179ea059a01acf1", "fusion_lon": 0.0, "lat": 38.88427933333333, "fusion_lat": 0.0}, {"is_disabled": 0, "rental_uris": {"android": "https://dc.lft.to/lastmile_qr_scan", "ios": "https://dc.lft.to/lastmile_qr_scan"}, "is_reserved": 0, "name": "8cfd51155f2e310e9668c4aa422676db", "lon": -77.0336715, "type": "electric_scooter", "bike_id": "8cfd51155f2e310e9668c4aa422676db", "fusion_lon": 0.0, "lat": 38.898610833333336, "fusion_lat": 0.0}, {"is_disabled": 0, "rental_uris": {"android": "https://dc.lft.to/lastmile_qr_scan", "ios": "https://dc.lft.to/lastmile_qr_scan"},