{"data": {"bikes": [{"is_disabled": 0, "fusion_lon": 0.0, "fusion_lat": 0.0, "lat": 38.988248166666665, "type": "electric_bike", "lon": -76.9874835, "bike_id": "6b9fb4601feca426fca13028bbbe5b2f", "rental_uris": {"android": "https://dc.lft.to/lastmile_qr_scan", "ios": "https://dc.lft.to/lastmile_qr_scan"}, "name": "6b9fb4601feca426fca13028bbbe5b2f", "is_reserved": 0}, {"is_disabled": 0, "fusion_lon": 0.0, "fusion_lat": 0.0, "lat": 38.909593, "type": "electric_scooter", "lon": -77.02282166666667, "bike_id": "bfcc61cb788da244949b982ab54b2f32", "rental_uris": {"android": "https://dc.lft.to/lastmile_qr_scan", "ios": "https://dc.lft.to/lastmile_qr_scan"}, "name": "bfcc61cb788da244949b982ab54b2f32", "is_reserved": 0}, {"is_disabled": 0, "fusion_lon": 0.0, "fusion_lat": 0.0, "lat": 38.89530883333333, "type": "electric_scooter", "lon": -77.02839366666667, "bike_id": "e22bd3e7a9ff7fec9ebf8c7893f188a6", "rental_uris": {"android": "https://dc.lft.to/lastmile_qr_scan", "ios": "https://dc.lft.to/lastmile_qr_scan"}, "name": "e22bd3e7a9ff7fec9ebf8c7893f188a6", "is_reserved": 0}, {"is_disabled": 0, "fusion_lon": 0.0, "fusion_lat": 0.0, "lat": 38.92033216666667, "type": "electric_scooter", "lon": -77.025867, "bike_id": "d281ae13d0a59315810e518ad4986c6a", "rental_uris": {"android": "https://dc.lft.to/lastmile_qr_scan", "ios": "https://dc.lft.to/lastmile_qr_scan"}, "name": "d281ae13d0a59315810e518ad4986c6a", "is_reserved": 0}, {"is_disabled": 0, "fusion_lon": 0.0, "fusion_lat": 0.0, "lat": 38.9070135, "type": "electric_scooter", "lon": -77.0269835, "bike_id": "a55c56622b58c4bb14127d5aed6b513e", "rental_uris": {"android": "https://dc.lft.to/lastmile_qr_scan", "ios": "https://dc.lft.to/lastmile_qr_scan"}, "name": "a55c56622b58c4bb14127d5aed6b513e", "is_reserved": 0}, {"is_disabled": 0, "fusion_lon": 0.0, "fusion_lat": 0.0, "lat": 38.930998, "type": "electric_scooter", "lon": -77.024571, "bike_id": "b2375b457d1f444fcae6a12b386f5b1c", "rental_uris": {"android": "https://dc.lft.to/lastmile_qr_scan", "ios": "https://dc.lft.to/lastmile_qr_scan"}, "name": "b2375b457d1f444fcae6a12b386f5b1c", "is_reserved": 0}, {"is_disabled": 0, "fusion_lon": 0.0, "fusion_lat": 0.0, "lat": 38.885124166666664, "type": "electric_scooter", "lon": -76.99852883333334, "bike_id": "c0214365683e2a6158dbb0013e3d5e60", "rental_uris": {"android": "https://dc.lft.to/lastmile_qr_scan", "ios": "https://dc.lft.to/lastmile_qr_scan"}, "name": "c0214365683e2a6158dbb0013e3d5e60", "is_reserved": 0}, {"is_disabled": 0, "fusion_lon": 0.0, "fusion_lat": 0.0, "lat": 38.875462666666664, "type": "electric_scooter", "lon": -77.00539483333333, "bike_id": "b2e68603c82e53d6a3edbbc5c5bb2e12", "rental_uris": {"android": "https://dc.lft.to/lastmile_qr_scan", "ios": "https://dc.lft.to/lastmile_qr_scan"}, "name": "b2e68603c82e53d6a3edbbc5c5bb2e12", "is_reserved": 0}, {"is_disabled": 0, "fusion_lon": 0.0, "fusion_lat": 0.0, "lat": 38.91252733333334, "type": "electric_scooter", "lon": -77.00934, "bike_id": "f7f1f054f897001200286ca8c72a98aa", "rental_uris": {"android": "https://dc.lft.to/lastmile_qr_scan", "ios": "https://dc.lft.to/lastmile_qr_scan"}, "name": "f7f1f054f897001200286ca8c72a98aa", "is_reserved": 0}, {"is_disabled": 0, "fusion_lon": 0.0, "fusion_lat": 0.0, "lat": 38.950887, "type": "electric_bike", "lon": -76.9656425, "bike_id": "737f1c7dfa38ba9bf2cc32df38746798", "rental_uris": {"android": "https://dc.lft.to/lastmile_qr_scan", "ios": "https://dc.lft.to/lastmile_qr_scan"}, "name": "737f1c7dfa38ba9bf2cc32df38746798", "is_reserved": 0}, {"is_disabled": 0, "fusion_lon": 0.0, "fusion_lat": 0.0, "lat": 38.91123066666667, "type": "electric_scooter", "lon": -77.0420815, "bike_id": "734f4e2221ef2b61000946801e0d9bb5", "rental_uris": {"android": "https://dc.lft.to/lastmile_qr_scan", "ios": "https://dc.lft.to/lastmile_qr_scan"}, "name": "734f4e2221ef2b61000946801e0d9bb5", "is_reserved": 0}, {"is_disabled": 0, "fusion_lon": 0.0, "fusion_lat": 0.0, "lat": 38.903148, "type": "electric_scooter", "lon": -76.98246516666667, "bike_id": "d19b3cce66d5f9dcb8b1f158e02444af", "rental_uris": {"android": "https://dc.lft.to/lastmile_qr_scan", "ios": "https://dc.lft.to/lastmile_qr_scan"}, "name": "d19b3cce66d5f9dcb8b1f158e02444af", "is_reserved": 0}, {"is_disabled": 0, "fusion_lon": 0.0, "fusion_lat": 0.0, "lat": 38.8733825, "type": "electric_bike", "lon": -77.0185985, "bike_id": "fc2ac44c92d593d7985c3c9680949e37", "rental_uris": {"android": "https://dc.lft.to/lastmile_qr_scan", "ios": "https://dc.lft.to/lastmile_qr_scan"}, "name": "fc2ac44c92d593d7985c3c9680949e37", "is_reserved": 0}, {"is_disabled": 0, "fusion_lon": 0.0, "fusion_lat": 0.0, "lat": 38.898437, "type": "electric_scooter", "lon": -76.94635366666667, "bike_id": "d22e96f5eb9484db80eada02b94ec34f", "rental_uris": {"android": "https://dc.lft.to/lastmile_qr_scan", "ios": "https://dc.lft.to/lastmile_qr_scan"}, "name": "d22e96f5eb9484db80eada02b94ec34f", "is_reserved": 0}, {"is_disabled": 0, "fusion_lon": 0.0, "fusion_lat": 0.0, "lat": 38.907896, "type": "electric_scooter", "lon": -77.04102266666666, "bike_id": "c44f32223d0ce09fb3dd9551d6073cc4", "rental_uris": {"android": "https://dc.lft.to/lastmile_qr_scan", "ios": "https://dc.lft.to/lastmile_qr_scan"}, "name": "c44f32223d0ce09fb3dd9551d6073cc4", "is_reserved": 0}, {"is_disabled": 0, "fusion_lon": 0.0, "fusion_lat": 0.0, "lat": 38.8652635, "type": "electric_scooter", "lon": -76.989696, "bike_id": "e37108b0afb0f0ee27cf89884abfa97e", "rental_uris": {"android": "https://dc.lft.to/lastmile_qr_scan", "ios": "https://dc.lft.to/lastmile_qr_scan"}, "name": "e37108b0afb0f0ee27cf89884abfa97e", "is_reserved": 0}, {"is_disabled": 0, "fusion_lon": 0.0, "fusion_lat": 0.0, "lat": 38.8955695, "type": "electric_scooter", "lon": -76.94876866666667, "bike_id": "485541ec56dc01fdee3cab2d1e5dc02f", "rental_uris": {"android": "https://dc.lft.to/lastmile_qr_scan", "ios": "https://dc.lft.to/lastmile_qr_scan"}, "name": "485541ec56dc01fdee3cab2d1e5dc02f", "is_reserved": 0}, {"is_disabled": 0, "fusion_lon": 0.0, "fusion_lat": 0.0, "lat": 38.90199916666667, "type": "electric_scooter", "lon": -77.05014433333334, "bike_id": "f44d74ebfff81b0e32f00aba1cc7e0b2", "rental_uris": {"android": "https://dc.lft.to/lastmile_qr_scan", "ios": "https://dc.lft.to/lastmile_qr_scan"}, "name": "f44d74ebfff81b0e32f00aba1cc7e0b2", "is_reserved": 0}, {"is_disabled": 0, "fusion_lon": 0.0, "fusion_lat": 0.0, "lat": 38.89325066666667, "type": "electric_scooter", "lon": -77.0212825, "bike_id": "a0ad0eddcc391d637894279483d85682", "rental_uris": {"android": "https://dc.lft.to/lastmile_qr_scan", "ios": "https://dc.lft.to/lastmile_qr_scan"}, "name": "a0ad0eddcc391d637894279483d85682", "is_reserved": 0}, {"is_disabled": 0, "fusion_lon": 0.0, "fusion_lat": 0.0, "lat": 38.93155333333333, "type": "electric_scooter", "lon": -77.04144533333333, "bike_id": "e075c74dd4b8c93184d7477ef5ca4a9e", "rental_uris": {"android": "https://dc.lft.to/lastmile_qr_scan", "ios": "https://dc.lft.to/lastmile_qr_scan"}, "name": "e075c74dd4b8c93184d7477ef5ca4a9e", "is_reserved": 0}, {"is_disabled": 0, "fusion_lon": 0.0, "fusion_lat": 0.0, "lat": 39.0229025, "type": "electric_bike", "lon": -77.02109816666666, "bike_id": "7fb178241773526d8c33740e84deb508", "rental_uris": {"android": "https://dc.lft.to/lastmile_qr_scan", "ios": "https://dc.lft.to/lastmile_qr_scan"}, "name": "7fb178241773526d8c33740e84deb508", "is_reserved": 0}, {"is_disabled": 0, "fusion_lon": 0.0, "fusion_lat": 0.0, "lat": 38.90372216666667, "type": "electric_scooter", "lon": -77.03976533333334, "bike_id": "775bfdb8edf1bd46a437b45cbe3c0092", "rental_uris": {"android": "https://dc.lft.to/lastmile_qr_scan", "ios": "https://dc.lft.to/lastmile_qr_scan"}, "name": "775bfdb8edf1bd46a437b45cbe3c0092", "is_reserved": 0}, {"is_disabled": 0, "fusion_lon": 0.0, "fusion_lat": 0.0, "lat": 38.908670666666666, "type": "electric_scooter", "lon": -77.03013166666666, "bike_id": "8a4f2acefaa68f89210ccc1396932a01", "rental_uris": {"android": "https://dc.lft.to/lastmile_qr_scan", "ios": "https://dc.lft.to/lastmile_qr_scan"}, "name": "8a4f2acefaa68f89210ccc1396932a01", "is_reserved": 0}, {"is_disabled": 0, "fusion_lon": 0.0, "fusion_lat": 0.0, "lat": 38.898432, "type": "electric_scooter", "lon": -76.9449675, "bike_id": "7bdc8f979c277d3760362a81aeac2f24", "rental_uris": {"android": "https://dc.lft.to/lastmile_qr_scan", "ios": "https://dc.lft.to/lastmile_qr_scan"}, "name": "7bdc8f979c277d3760362a81aeac2f24", "is_reserved": 0}, {"is_disabled": 0, "fusion_lon": 0.0, "fusion_lat": 0.0, "lat": 38.88875916666667, "type": "electric_bike", "lon": -77.028584, "bike_id": "bdd8741d6ba5725ac6ab51212eba20d3", "rental_uris": {"android": "https://dc.lft.to/lastmile_qr_scan", "ios": "https://dc.lft.to/lastmile_qr_scan"}, "name": "bdd8741d6ba5725ac6ab51212eba20d3", "is_reserved": 0}, {"is_disabled": 0, "fusion_lon": 0.0, "fusion_lat": 0.0, "lat": 38.912548, "type": "electric_scooter", "lon": -77.03682416666666, "bike_id": "fd5621b9623877ae702c6a0d8815ef7d", "rental_uris": {"android": "https://dc.lft.to/lastmile_qr_scan", "ios": "https://dc.lft.to/lastmile_qr_scan"}, "name": "fd5621b9623877ae702c6a0d8815ef7d", "is_reserved": 0}, {"is_disabled": 0, "fusion_lon": 0.0, "fusion_lat": 0.0, "lat": 38.89960166666667, "type": "electric_scooter", "lon": -77.01618516666667, "bike_id": "ce0df8a356f9d7401bde67b8ef359b4d", "rental_uris": {"android": "https://dc.lft.to/lastmile_qr_scan", "ios": "https://dc.lft.to/lastmile_qr_scan"}, "name": "ce0df8a356f9d7401bde67b8ef359b4d", "is_reserved": 0}, {"is_disabled": 0, "fusion_lon": 0.0, "fusion_lat": 0.0, "lat": 38.932951833333334, "type": "electric_scooter", "lon": -77.0239275, "bike_id": "0af024e58a39bbf9d2dfd9b09e1db6e3", "rental_uris": {"android": "https://dc.lft.to/lastmile_qr_scan", "ios": "https://dc.lft.to/lastmile_qr_scan"}, "name": "0af024e58a39bbf9d2dfd9b09e1db6e3", "is_reserved": 0}, {"is_disabled": 0, "fusion_lon": 0.0, "fusion_lat": 0.0, "lat": 38.97572433333333, "type": "electric_bike", "lon": -76.96408066666666, "bike_id": "d6c910dc0583888fdbf2fc3968ce6c50", "rental_uris": {"android": "https://dc.lft.to/lastmile_qr_scan", "ios": "https://dc.lft.to/lastmile_qr_scan"}, "name": "d6c910dc0583888fdbf2fc3968ce6c50", "is_reserved": 0}, {"is_disabled": 0, "fusion_lon": 0.0, "fusion_lat": 0.0, "lat": 38.92999783333333, "type": "electric_scooter", "lon": -77.0380105, "bike_id": "e892638418fc45823699f4beea095bef", "rental_uris": {"android": "https://dc.lft.to/lastmile_qr_scan", "ios": "https://dc.lft.to/lastmile_qr_scan"}, "name": "e892638418fc45823699f4beea095bef", "is_reserved": 0}, {"is_disabled": 0, "fusion_lon": 0.0, "fusion_lat": 0.0, "lat": 38.892201166666666, "type": "electric_scooter", "lon": -77.03220783333333, "bike_id": "849259c3318979e20fa3d7972f079a65", "rental_uris": {"android": "https://dc.lft.to/lastmile_qr_scan", "ios": "https://dc.lft.to/lastmile_qr_scan"}, "name": "849259c3318979e20fa3d7972f079a65", "is_reserved": 0}, {"is_disabled": 0, "fusion_lon": 0.0, "fusion_lat": 0.0, "lat": 38.907772666666666, "type": "electric_scooter", "lon": -77.032685, "bike_id": "000ee831cd469d5bd723435cafeb46ef", "rental_uris": {"android": "https://dc.lft.to/lastmile_qr_scan", "ios": "https://dc.lft.to/lastmile_qr_scan"}, "name": "000ee831cd469d5bd723435cafeb46ef", "is_reserved": 0}, {"is_disabled": 0, "fusion_lon": 0.0, "fusion_lat": 0.0, "lat": 38.888164, "type": "electric_bike", "lon": -77.12743216666667, "bike_id": "099cdc284c3a9475fb113f5279b6d79b", "rental_uris": {"android": "https://dc.lft.to/lastmile_qr_scan", "ios": "https://dc.lft.to/lastmile_qr_scan"}, "name": "099cdc284c3a9475fb113f5279b6d79b", "is_reserved": 0}, {"is_disabled": 0, "fusion_lon": 0.0, "fusion_lat": 0.0, "lat": 38.9083075, "type": "electric_bike", "lon": -76.94160583333333, "bike_id": "14882b7f2ebc6bf3d92cc4a1f51578e8", "rental_uris": {"android": "https://dc.lft.to/lastmile_qr_scan", "ios": "https://dc.lft.to/lastmile_qr_scan"}, "name": "14882b7f2ebc6bf3d92cc4a1f51578e8", "is_reserved": 0}, {"is_disabled": 0, "fusion_lon": 0.0, "fusion_lat": 0.0, "lat": 38.99089816666667, "type": "electric_bike", "lon": -76.87498933333333, "bike_id": "316eff814790865f6a1d5a46aa4659c4", "rental_uris": {"android": "https://dc.lft.to/lastmile_qr_scan", "ios": "https://dc.lft.to/lastmile_qr_scan"}, "name": "316eff814790865f6a1d5a46aa4659c4", "is_reserved": 0}, {"is_disabled": 0, "fusion_lon": 0.0, "fusion_lat": 0.0, "lat": 38.88736433333333, "type": "electric_scooter", "lon": -77.015361, "bike_id": "421fc18970b7cbf75b6a69bf09d53859", "rental_uris": {"android": "https://dc.lft.to/lastmile_qr_scan", "ios": "https://dc.lft.to/lastmile_qr_scan"}, "name": "421fc18970b7cbf75b6a69bf09d53859", "is_reserved": 0}, {"is_disabled": 0, "fusion_lon": 0.0, "fusion_lat": 0.0, "lat": 38.9198855, "type": "electric_scooter", "lon": -77.03297833333333, "bike_id": "4f5885b1f9a7481262671924c6b861cc", "rental_uris": {"android": "https://dc.lft.to/lastmile_qr_scan", "ios": "https://dc.lft.to/lastmile_qr_scan"}, "name": "4f5885b1f9a7481262671924c6b861cc", "is_reserved": 0}, {"is_disabled": 0, "fusion_lon": 0.0, "fusion_lat": 0.0, "lat": 38.88967483333333, "type": "electric_bike", "lon": -76.94865283333333, "bike_id": "a93b4d1f65f9765dffbc50338771285c", "rental_uris": {"android": "https://dc.lft.to/lastmile_qr_scan", "ios": "https://dc.lft.to/lastmile_qr_scan"}, "name": "a93b4d1f65f9765dffbc50338771285c", "is_reserved": 0}, {"is_disabled": 0, "fusion_lon": 0.0, "fusion_lat": 0.0, "lat": 38.91177533333333, "type": "electric_scooter", "lon": -77.0416135, "bike_id": "981bcd70a1aac55b204de8aa341b8721", "rental_uris": {"android": "https://dc.lft.to/lastmile_qr_scan", "ios": "https://dc.lft.to/lastmile_qr_scan"}, "name": "981bcd70a1aac55b204de8aa341b8721", "is_reserved": 0}, {"is_disabled": 0, "fusion_lon": 0.0, "fusion_lat": 0.0, "lat": 38.92048233333333, "type": "electric_scooter", "lon": -77.0261645, "bike_id": "59a3547f6b9828741097bb9ef37010a6", "rental_uris": {"android": "https://dc.lft.to/lastmile_qr_scan", "ios": "https://dc.lft.to/lastmile_qr_scan"}, "name": "59a3547f6b9828741097bb9ef37010a6", "is_reserved": 0}, {"is_disabled": 0, "fusion_lon": 0.0, "fusion_lat": 0.0, "lat": 38.9053035, "type": "electric_scooter", "lon": -77.06525283333333, "bike_id": "af275463456ea21080203e10af40ec2b", "rental_uris": {"android": "https://dc.lft.to/lastmile_qr_scan", "ios": "https://dc.lft.to/lastmile_qr_scan"}, "name": "af275463456ea21080203e10af40ec2b", "is_reserved": 0}, {"is_disabled": 0, "fusion_lon": 0.0, "fusion_lat": 0.0, "lat": 38.9232255, "type": "electric_scooter", "lon": -77.0452385, "bike_id": "d298f11d2ccdf20d4ee386e737147e0b", "rental_uris": {"android": "https://dc.lft.to/lastmile_qr_scan", "ios": "https://dc.lft.to/lastmile_qr_scan"}, "name": "d298f11d2ccdf20d4ee386e737147e0b", "is_reserved": 0}, {"is_disabled": 0, "fusion_lon": 0.0, "fusion_lat": 0.0, "lat": 38.92603416666667, "type": "electric_scooter", "lon": -77.02157833333334, "bike_id": "552c13d6a94d85399c42227df7f97377", "rental_uris": {"android": "https://dc.lft.to/lastmile_qr_scan", "ios": "https://dc.lft.to/lastmile_qr_scan"}, "name": "552c13d6a94d85399c42227df7f97377", "is_reserved": 0}, {"is_disabled": 0, "fusion_lon": 0.0, "fusion_lat": 0.0, "lat": 38.92366216666667, "type": "electric_scooter", "lon": -77.02819516666666, "bike_id": "d66f7e98a636ad0f18494c02a3773a78", "rental_uris": {"android": "https://dc.lft.to/lastmile_qr_scan", "ios": "https://dc.lft.to/lastmile_qr_scan"}, "name": "d66f7e98a636ad0f18494c02a3773a78", "is_reserved": 0}, {"is_disabled": 0, "fusion_lon": 0.0, "fusion_lat": 0.0, "lat": 38.92842433333333, "type": "electric_scooter", "lon": -77.014248, "bike_id": "f8a87796bb1bd71060efcaab754d4d83", "rental_uris": {"android": "https://dc.lft.to/lastmile_qr_scan", "ios": "https://dc.lft.to/lastmile_qr_scan"}, "name": "f8a87796bb1bd71060efcaab754d4d83", "is_reserved": 0}, {"is_disabled": 0, "fusion_lon": 0.0, "fusion_lat": 0.0, "lat": 38.93493866666667, "type": "electric_scooter", "lon": -77.02608283333333, "bike_id": "aac9c537f498053b7730ffcac7496c7c", "rental_uris": {"android": "https://dc.lft.to/lastmile_qr_scan", "ios": "https://dc.lft.to/lastmile_qr_scan"}, "name": "aac9c537f498053b7730ffcac7496c7c", "is_reserved": 0}, {"is_disabled": 0, "fusion_lon": 0.0, "fusion_lat": 0.0, "lat": 38.883922166666665, "type": "electric_scooter", "lon": -77.01746516666667, "bike_id": "dba96be130ec5d1c606bf92e103ea31c", "rental_uris": {"android": "https://dc.lft.to/lastmile_qr_scan", "ios": "https://dc.lft.to/lastmile_qr_scan"}, "name": "dba96be130ec5d1c606bf92e103ea31c", "is_reserved": 0}, {"is_disabled": 0, "fusion_lon": 0.0, "fusion_lat": 0.0, "lat": 38.85915216666667, "type": "electric_scooter", "lon": -76.98787133333333, "bike_id": "764d9432e8c31e6191fcbc4e4278d2a0", "rental_uris": {"android": "https://dc.lft.to/lastmile_qr_scan", "ios": "https://dc.lft.to/lastmile_qr_scan"}, "name": "764d9432e8c31e6191fcbc4e4278d2a0", "is_reserved": 0}, {"is_disabled": 0, "fusion_lon": 0.0, "fusion_lat": 0.0, "lat": 38.90536066666667, "type": "electric_scooter", "lon": -77.04994016666667, "bike_id": "cc22ca7b86568daef991c3e0173086bf", "rental_uris": {"android": "https://dc.lft.to/lastmile_qr_scan", "ios": "https://dc.lft.to/lastmile_qr_scan"}, "name": "cc22ca7b86568daef991c3e0173086bf", "is_reserved": 0}, {"is_disabled": 0, "fusion_lon": 0.0, "fusion_lat": 0.0, "lat": 38.91119883333333, "type": "electric_scooter", "lon": -77.042091, "bike_id": "a5068717ad64ae28a1ae56872807cd80", "rental_uris": {"android": "https://dc.lft.to/lastmile_qr_scan", "ios": "https://dc.lft.to/lastmile_qr_scan"}, "name": "a5068717ad64ae28a1ae56872807cd80", "is_reserved": 0}, {"is_disabled": 0, "fusion_lon": 0.0, "fusion_lat": 0.0, "lat": 38.907894166666665, "type": "electric_scooter", "lon": -77.031888, "bike_id": "b7b54b1b3b32b80b26dd2a1c0ad881d7", "rental_uris": {"android": "https://dc.lft.to/lastmile_qr_scan", "ios": "https://dc.lft.to/lastmile_qr_scan"}, "name": "b7b54b1b3b32b80b26dd2a1c0ad881d7", "is_reserved": 0}, {"is_disabled": 0, "fusion_lon": 0.0, "fusion_lat": 0.0, "lat": 38.90113366666667, "type": "electric_scooter", "lon": -77.048802, "bike_id": "89c747d4677f7cfb23a76924ccf8c760", "rental_uris": {"android": "https://dc.lft.to/lastmile_qr_scan", "ios": "https://dc.lft.to/lastmile_qr_scan"}, "name": "89c747d4677f7cfb23a76924ccf8c760", "is_reserved": 0}, {"is_disabled": 0, "fusion_lon": 0.0, "fusion_lat": 0.0, "lat": 38.990666, "type": "electric_bike", "lon": -77.10032016666666, "bike_id": "3eed8b45bf23417709e59382a7b20f7b", "rental_uris": {"android": "https://dc.lft.to/lastmile_qr_scan", "ios": "https://dc.lft.to/lastmile_qr_scan"}, "name": "3eed8b45bf23417709e59382a7b20f7b", "is_reserved": 0}, {"is_disabled": 0, "fusion_lon": 0.0, "fusion_lat": 0.0, "lat": 38.90576733333333, "type": "electric_scooter", "lon": -77.04180633333333, "bike_id": "0ffedd49136f94698c0e18177334ec57", "rental_uris": {"android": "https://dc.lft.to/lastmile_qr_scan", "ios": "https://dc.lft.to/lastmile_qr_scan"}, "name": "0ffedd49136f94698c0e18177334ec57", "is_reserved": 0}, {"is_disabled": 0, "fusion_lon": 0.0, "fusion_lat": 0.0, "lat": 38.928280666666666, "type": "electric_scooter", "lon": -77.01408316666667, "bike_id": "ad3fa13e3835a9ee73f870bf01df4c92", "rental_uris": {"android": "https://dc.lft.to/lastmile_qr_scan", "ios": "https://dc.lft.to/lastmile_qr_scan"}, "name": "ad3fa13e3835a9ee73f870bf01df4c92", "is_reserved": 0}, {"is_disabled": 0, "fusion_lon": 0.0, "fusion_lat": 0.0, "lat": 38.99089983333333, "type": "electric_bike", "lon": -76.87496, "bike_id": "cf12f4ec00dae7dcc84b59f8fbe4750b", "rental_uris": {"android": "https://dc.lft.to/lastmile_qr_scan", "ios": "https://dc.lft.to/lastmile_qr_scan"}, "name": "cf12f4ec00dae7dcc84b59f8fbe4750b", "is_reserved": 0}, {"is_disabled": 0, "fusion_lon": 0.0, "fusion_lat": 0.0, "lat": 38.93779133333334, "type": "electric_scooter", "lon": -77.02307433333333, "bike_id": "598d28bbe8850dc15bbc167ad28e661a", "rental_uris": {"android": "https://dc.lft.to/lastmile_qr_scan", "ios": "https://dc.lft.to/lastmile_qr_scan"}, "name": "598d28bbe8850dc15bbc167ad28e661a", "is_reserved": 0}, {"is_disabled": 0, "fusion_lon": 0.0, "fusion_lat": 0.0, "lat": 38.86359016666667, "type": "electric_scooter", "lon": -76.99069833333333, "bike_id": "e28b8130d2d6f0e1566f7f7d39cc8369", "rental_uris": {"android": "https://dc.lft.to/lastmile_qr_scan", "ios": "https://dc.lft.to/lastmile_qr_scan"}, "name": "e28b8130d2d6f0e1566f7f7d39cc8369", "is_reserved": 0}, {"is_disabled": 0, "fusion_lon": 0.0, "fusion_lat": 0.0, "lat": 38.887250333333334, "type": "electric_scooter", "lon": -77.01739533333334, "bike_id": "18095a1536a240ad5c9f2bdc47d39de4", "rental_uris": {"android": "https://dc.lft.to/lastmile_qr_scan", "ios": "https://dc.lft.to/lastmile_qr_scan"}, "name": "18095a1536a240ad5c9f2bdc47d39de4", "is_reserved": 0}, {"is_disabled": 0, "fusion_lon": 0.0, "fusion_lat": 0.0, "lat": 38.960196, "type": "electric_scooter", "lon": -77.03314266666666, "bike_id": "df547d72407fd8e34b340bdc9defc85e", "rental_uris": {"android": "https://dc.lft.to/lastmile_qr_scan", "ios": "https://dc.lft.to/lastmile_qr_scan"}, "name": "df547d72407fd8e34b340bdc9defc85e", "is_reserved": 0}, {"is_disabled": 0, "fusion_lon": 0.0, "fusion_lat": 0.0, "lat": 38.918123333333334, "type": "electric_scooter", "lon": -77.03135333333333, "bike_id": "7ce521c3edcc080564af7fad1b3d370b", "rental_uris": {"android": "https://dc.lft.to/lastmile_qr_scan", "ios": "https://dc.lft.to/lastmile_qr_scan"}, "name": "7ce521c3edcc080564af7fad1b3d370b", "is_reserved": 0}, {"is_disabled": 0, "fusion_lon": 0.0, "fusion_lat": 0.0, "lat": 38.9277345, "type": "electric_scooter", "lon": -77.02781233333333, "bike_id": "fa74edf0ab93461a6a3b1d29d31ced88", "rental_uris": {"android": "https://dc.lft.to/lastmile_qr_scan", "ios": "https://dc.lft.to/lastmile_qr_scan"}, "name": "fa74edf0ab93461a6a3b1d29d31ced88", "is_reserved": 0}, {"is_disabled": 0, "fusion_lon": 0.0, "fusion_lat": 0.0, "lat": 38.909515999999996, "type": "electric_scooter", "lon": -77.0218715, "bike_id": "6b822bbba811416aeb580f65be7396e0", "rental_uris": {"android": "https://dc.lft.to/lastmile_qr_scan", "ios": "https://dc.lft.to/lastmile_qr_scan"}, "name": "6b822bbba811416aeb580f65be7396e0", "is_reserved": 0}, {"is_disabled": 0, "fusion_lon": 0.0, "fusion_lat": 0.0, "lat": 38.90977083333333, "type": "electric_scooter", "lon": -77.038414, "bike_id": "e9d7ecc7aabd7b38fa7991649b45e051", "rental_uris": {"android": "https://dc.lft.to/lastmile_qr_scan", "ios": "https://dc.lft.to/lastmile_qr_scan"}, "name": "e9d7ecc7aabd7b38fa7991649b45e051", "is_reserved": 0}, {"is_disabled": 0, "fusion_lon": 0.0, "fusion_lat": 0.0, "lat": 38.865272166666664, "type": "electric_scooter", "lon": -76.98975433333334, "bike_id": "5dc7c820a6cdd89f38d70fceb78fc363", "rental_uris": {"android": "https://dc.lft.to/lastmile_qr_scan", "ios": "https://dc.lft.to/lastmile_qr_scan"}, "name": "5dc7c820a6cdd89f38d70fceb78fc363", "is_reserved": 0}, {"is_disabled": 0, "fusion_lon": 0.0, "fusion_lat": 0.0, "lat": 38.84616666666667, "type": "electric_scooter", "lon": -76.99629883333333, "bike_id": "b6aaa7583d91eadc4549a674106a7a2b", "rental_uris": {"android": "https://dc.lft.to/lastmile_qr_scan", "ios": "https://dc.lft.to/lastmile_qr_scan"}, "name": "b6aaa7583d91eadc4549a674106a7a2b", "is_reserved": 0}, {"is_disabled": 0, "fusion_lon": 0.0, "fusion_lat": 0.0, "lat": 38.924408666666665, "type": "electric_scooter", "lon": -77.02607266666666, "bike_id": "e959320028926216f98773f3339d8745", "rental_uris": {"android": "https://dc.lft.to/lastmile_qr_scan", "ios": "https://dc.lft.to/lastmile_qr_scan"}, "name": "e959320028926216f98773f3339d8745", "is_reserved": 0}, {"is_disabled": 0, "fusion_lon": 0.0, "fusion_lat": 0.0, "lat": 38.898663166666665, "type": "electric_scooter", "lon": -77.0398495, "bike_id": "dfd5da1c839871535ee3795b3736c9d4", "rental_uris": {"android": "https://dc.lft.to/lastmile_qr_scan", "ios": "https://dc.lft.to/lastmile_qr_scan"}, "name": "dfd5da1c839871535ee3795b3736c9d4", "is_reserved": 0}, {"is_disabled": 0, "fusion_lon": 0.0, "fusion_lat": 0.0, "lat": 38.9071975, "type": "electric_scooter", "lon": -77.03438266666667, "bike_id": "934cd9d334771895efa67d468febdd1b", "rental_uris": {"android": "https://dc.lft.to/lastmile_qr_scan", "ios": "https://dc.lft.to/lastmile_qr_scan"}, "name": "934cd9d334771895efa67d468febdd1b", "is_reserved": 0}, {"is_disabled": 0, "fusion_lon": 0.0, "fusion_lat": 0.0, "lat": 38.838124666666666, "type": "electric_scooter", "lon": -77.00436533333334, "bike_id": "cdbff6d33997dc278fcc1bdd6a424feb", "rental_uris": {"android": "https://dc.lft.to/lastmile_qr_scan", "ios": "https://dc.lft.to/lastmile_qr_scan"}, "name": "cdbff6d33997dc278fcc1bdd6a424feb", "is_reserved": 0}, {"is_disabled": 0, "fusion_lon": 0.0, "fusion_lat": 0.0, "lat": 38.93046733333333, "type": "electric_scooter", "lon": -77.00416766666666, "bike_id": "b8cf75cda4bb99cf222ab03c7d809183", "rental_uris": {"android": "https://dc.lft.to/lastmile_qr_scan", "ios": "https://dc.lft.to/lastmile_qr_scan"}, "name": "b8cf75cda4bb99cf222ab03c7d809183", "is_reserved": 0}, {"is_disabled": 0, "fusion_lon": 0.0, "fusion_lat": 0.0, "lat": 38.831191, "type": "electric_bike", "lon": -77.0432855, "bike_id": "83a5fe8c6505adedc5526ca46a45904d", "rental_uris": {"android": "https://dc.lft.to/lastmile_qr_scan", "ios": "https://dc.lft.to/lastmile_qr_scan"}, "name": "83a5fe8c6505adedc5526ca46a45904d", "is_reserved": 0}, {"is_disabled": 0, "fusion_lon": 0.0, "fusion_lat": 0.0, "lat": 38.99254166666667, "type": "electric_bike", "lon": -77.05002566666667, "bike_id": "82c37d4f1c5ccf4290cffc3f6f4e6ec2", "rental_uris": {"android": "https://dc.lft.to/lastmile_qr_scan", "ios": "https://dc.lft.to/lastmile_qr_scan"}, "name": "82c37d4f1c5ccf4290cffc3f6f4e6ec2", "is_reserved": 0}, {"is_disabled": 0, "fusion_lon": 0.0, "fusion_lat": 0.0, "lat": 39.11514016666667, "type": "electric_bike", "lon": -77.1954705, "bike_id": "cc0b57a91d1571f899399b08fa93b2b6", "rental_uris": {"android": "https://dc.lft.to/lastmile_qr_scan", "ios": "https://dc.lft.to/lastmile_qr_scan"}, "name": "cc0b57a91d1571f899399b08fa93b2b6", "is_reserved": 0}, {"is_disabled": 0, "fusion_lon": 0.0, "fusion_lat": 0.0, "lat": 38.94304916666667, "type": "electric_scooter", "lon": -77.0235815, "bike_id": "40a29ab8f5df6d7c6a99314af863f28f", "rental_uris": {"android": "https://dc.lft.to/lastmile_qr_scan", "ios": "https://dc.lft.to/lastmile_qr_scan"}, "name": "40a29ab8f5df6d7c6a99314af863f28f", "is_reserved": 0}, {"is_disabled": 0, "fusion_lon": 0.0, "fusion_lat": 0.0, "lat": 38.938777333333334, "type": "electric_scooter", "lon": -77.033317, "bike_id": "70093c60556ce4208d0aa10e22367f23", "rental_uris": {"android": "https://dc.lft.to/lastmile_qr_scan", "ios": "https://dc.lft.to/lastmile_qr_scan"}, "name": "70093c60556ce4208d0aa10e22367f23", "is_reserved": 0}, {"is_disabled": 0, "fusion_lon": 0.0, "fusion_lat": 0.0, "lat": 38.857152666666664, "type": "electric_bike", "lon": -76.981168, "bike_id": "cf8f357ccacbbe8ba30b2ec8be8df93e", "rental_uris": {"android": "https://dc.lft.to/lastmile_qr_scan", "ios": "https://dc.lft.to/lastmile_qr_scan"}, "name": "cf8f357ccacbbe8ba30b2ec8be8df93e", "is_reserved": 0}, {"is_disabled": 0, "fusion_lon": 0.0, "fusion_lat": 0.0, "lat": 38.920803166666666, "type": "electric_scooter", "lon": -77.02299433333333, "bike_id": "16c7ef805d9aded3fb56b34f74245cb3", "rental_uris": {"android": "https://dc.lft.to/lastmile_qr_scan", "ios": "https://dc.lft.to/lastmile_qr_scan"}, "name": "16c7ef805d9aded3fb56b34f74245cb3", "is_reserved": 0}, {"is_disabled": 0, "fusion_lon": 0.0, "fusion_lat": 0.0, "lat": 38.905698, "type": "electric_scooter", "lon": -77.02179783333334, "bike_id": "46b40dbee27009d9856d225cbdb1d4dc", "rental_uris": {"android": "https://dc.lft.to/lastmile_qr_scan", "ios": "https://dc.lft.to/lastmile_qr_scan"}, "name": "46b40dbee27009d9856d225cbdb1d4dc", "is_reserved": 0}, {"is_disabled": 0, "fusion_lon": 0.0, "fusion_lat": 0.0, "lat": 38.905641833333334, "type": "electric_scooter", "lon": -77.04337583333333, "bike_id": "c39dd4064d10a14e762bb5bc2b66558c", "rental_uris": {"android": "https://dc.lft.to/lastmile_qr_scan", "ios": "https://dc.lft.to/lastmile_qr_scan"}, "name": "c39dd4064d10a14e762bb5bc2b66558c", "is_reserved": 0}, {"is_disabled": 0, "fusion_lon": 0.0, "fusion_lat": 0.0, "lat": 38.89398816666667, "type": "electric_scooter", "lon": -76.94992966666666, "bike_id": "b35ea5840e29e8956f2a2c923fe8dcaa", "rental_uris": {"android": "https://dc.lft.to/lastmile_qr_scan", "ios": "https://dc.lft.to/lastmile_qr_scan"}, "name": "b35ea5840e29e8956f2a2c923fe8dcaa", "is_reserved": 0}, {"is_disabled": 0, "fusion_lon": 0.0, "fusion_lat": 0.0, "lat": 38.9119845, "type": "electric_scooter", "lon": -77.03716483333334, "bike_id": "bcc862cf2c0ef96c2434b8ccc0a06087", "rental_uris": {"android": "https://dc.lft.to/lastmile_qr_scan", "ios": "https://dc.lft.to/lastmile_qr_scan"}, "name": "bcc862cf2c0ef96c2434b8ccc0a06087", "is_reserved": 0}, {"is_disabled": 0, "fusion_lon": 0.0, "fusion_lat": 0.0, "lat": 38.90892233333334, "type": "electric_scooter", "lon": -77.02315433333334, "bike_id": "f44a66b9a019cbfdc919b0cdcb19d58c", "rental_uris": {"android": "https://dc.lft.to/lastmile_qr_scan", "ios": "https://dc.lft.to/lastmile_qr_scan"}, "name": "f44a66b9a019cbfdc919b0cdcb19d58c", "is_reserved": 0}, {"is_disabled": 0, "fusion_lon": 0.0, "fusion_lat": 0.0, "lat": 38.9126495, "type": "electric_scooter", "lon": -77.03676316666666, "bike_id": "855822e6c969c4dadbc57449cbe35b7e", "rental_uris": {"android": "https://dc.lft.to/lastmile_qr_scan", "ios": "https://dc.lft.to/lastmile_qr_scan"}, "name": "855822e6c969c4dadbc57449cbe35b7e", "is_reserved": 0}, {"is_disabled": 0, "fusion_lon": 0.0, "fusion_lat": 0.0, "lat": 38.905341166666666, "type": "electric_scooter", "lon": -77.06785333333333, "bike_id": "cb54fc4ae57439ec93d6db7713f03a5f", "rental_uris": {"android": "https://dc.lft.to/lastmile_qr_scan", "ios": "https://dc.lft.to/lastmile_qr_scan"}, "name": "cb54fc4ae57439ec93d6db7713f03a5f", "is_reserved": 0}, {"is_disabled": 0, "fusion_lon": 0.0, "fusion_lat": 0.0, "lat": 38.95622866666667, "type": "electric_scooter", "lon": -77.035742, "bike_id": "6850693d3bceb59e7103fca93a7d626e", "rental_uris": {"android": "https://dc.lft.to/lastmile_qr_scan", "ios": "https://dc.lft.to/lastmile_qr_scan"}, "name": "6850693d3bceb59e7103fca93a7d626e", "is_reserved": 0}, {"is_disabled": 0, "fusion_lon": 0.0, "fusion_lat": 0.0, "lat": 38.910339666666665, "type": "electric_scooter", "lon": -76.9934045, "bike_id": "fd0a9eabe4255a46d15fd996bcfa5313", "rental_uris": {"android": "https://dc.lft.to/lastmile_qr_scan", "ios": "https://dc.lft.to/lastmile_qr_scan"}, "name": "fd0a9eabe4255a46d15fd996bcfa5313", "is_reserved": 0}, {"is_disabled": 0, "fusion_lon": 0.0, "fusion_lat": 0.0, "lat": 38.9196055, "type": "electric_scooter", "lon": -77.02719666666667, "bike_id": "401ae369adace2c005580b60efc1e691", "rental_uris": {"android": "https://dc.lft.to/lastmile_qr_scan", "ios": "https://dc.lft.to/lastmile_qr_scan"}, "name": "401ae369adace2c005580b60efc1e691", "is_reserved": 0}, {"is_disabled": 0, "fusion_lon": 0.0, "fusion_lat": 0.0, "lat": 38.9239185, "type": "electric_scooter", "lon": -77.02966233333333, "bike_id": "d48a480c4d1cae9b0f62627f5639b5dd", "rental_uris": {"android": "https://dc.lft.to/lastmile_qr_scan", "ios": "https://dc.lft.to/lastmile_qr_scan"}, "name": "d48a480c4d1cae9b0f62627f5639b5dd", "is_reserved": 0}, {"is_disabled": 0, "fusion_lon": 0.0, "fusion_lat": 0.0, "lat": 38.9107715, "type": "electric_scooter", "lon": -77.015117, "bike_id": "6d79ac9176251d9b1369e9da1784a481", "rental_uris": {"android": "https://dc.lft.to/lastmile_qr_scan", "ios": "https://dc.lft.to/lastmile_qr_scan"}, "name": "6d79ac9176251d9b1369e9da1784a481", "is_reserved": 0}, {"is_disabled": 0, "fusion_lon": 0.0, "fusion_lat": 0.0, "lat": 38.90082666666667, "type": "electric_scooter", "lon": -77.0491645, "bike_id": "435504720ad75b3e7f8ffbc42822f0cc", "rental_uris": {"android": "https://dc.lft.to/lastmile_qr_scan", "ios": "https://dc.lft.to/lastmile_qr_scan"}, "name": "435504720ad75b3e7f8ffbc42822f0cc", "is_reserved": 0}, {"is_disabled": 0, "fusion_lon": 0.0, "fusion_lat": 0.0, "lat": 38.922342, "type": "electric_scooter", "lon": -76.97533133333333, "bike_id": "bf64969d459cb1586ce215742e8969d3", "rental_uris": {"android": "https://dc.lft.to/lastmile_qr_scan", "ios": "https://dc.lft.to/lastmile_qr_scan"}, "name": "bf64969d459cb1586ce215742e8969d3", "is_reserved": 0}, {"is_disabled": 0, "fusion_lon": 0.0, "fusion_lat": 0.0, "lat": 38.9051795, "type": "electric_scooter", "lon": -77.0298115, "bike_id": "10fc9cc58b85b2c2e0452be41bdeb2cf", "rental_uris": {"android": "https://dc.lft.to/lastmile_qr_scan", "ios": "https://dc.lft.to/lastmile_qr_scan"}, "name": "10fc9cc58b85b2c2e0452be41bdeb2cf", "is_reserved": 0}, {"is_disabled": 0, "fusion_lon": 0.0, "fusion_lat": 0.0, "lat": 38.88466, "type": "electric_scooter", "lon": -76.95223583333333, "bike_id": "eab9c6dab8cfae0417b074518f848f36", "rental_uris": {"android": "https://dc.lft.to/lastmile_qr_scan", "ios": "https://dc.lft.to/lastmile_qr_scan"}, "name": "eab9c6dab8cfae0417b074518f848f36", "is_reserved": 0}, {"is_disabled": 0, "fusion_lon": 0.0, "fusion_lat": 0.0, "lat": 38.9036445, "type": "electric_scooter", "lon": -77.032156, "bike_id": "a2b2745e9dfa800f47bd08f286589c17", "rental_uris": {"android": "https://dc.lft.to/lastmile_qr_scan", "ios": "https://dc.lft.to/lastmile_qr_scan"}, "name": "a2b2745e9dfa800f47bd08f286589c17", "is_reserved": 0}, {"is_disabled": 0, "fusion_lon": 0.0, "fusion_lat": 0.0, "lat": 38.9267235, "type": "electric_scooter", "lon": -77.10313533333333, "bike_id": "6b9973bcb81b7aeac9e37959ed7180df", "rental_uris": {"android": "https://dc.lft.to/lastmile_qr_scan", "ios": "https://dc.lft.to/lastmile_qr_scan"}, "name": "6b9973bcb81b7aeac9e37959ed7180df", "is_reserved": 0}, {"is_disabled": 0, "fusion_lon": 0.0, "fusion_lat": 0.0, "lat": 38.90722, "type": "electric_scooter", "lon": -77.034373, "bike_id": "6e42a3985403e5ed8e5767ad4874abad", "rental_uris": {"android": "https://dc.lft.to/lastmile_qr_scan", "ios": "https://dc.lft.to/lastmile_qr_scan"}, "name": "6e42a3985403e5ed8e5767ad4874abad", "is_reserved": 0}, {"is_disabled": 0, "fusion_lon": 0.0, "fusion_lat": 0.0, "lat": 38.931323, "type": "electric_scooter", "lon": -77.05733883333333, "bike_id": "4c3322634c60cac8ba4ff029087681f4", "rental_uris": {"android": "https://dc.lft.to/lastmile_qr_scan", "ios": "https://dc.lft.to/lastmile_qr_scan"}, "name": "4c3322634c60cac8ba4ff029087681f4", "is_reserved": 0}, {"is_disabled": 0, "fusion_lon": 0.0, "fusion_lat": 0.0, "lat": 38.87898916666666, "type": "electric_scooter", "lon": -76.93525433333333, "bike_id": "3285369c2e58b5e7ef10f6b226e0958c", "rental_uris": {"android": "https://dc.lft.to/lastmile_qr_scan", "ios": "https://dc.lft.to/lastmile_qr_scan"}, "name": "3285369c2e58b5e7ef10f6b226e0958c", "is_reserved": 0}, {"is_disabled": 0, "fusion_lon": 0.0, "fusion_lat": 0.0, "lat": 38.91301966666666, "type": "electric_scooter", "lon": -77.0384175, "bike_id": "75d9db76ca32b9d2eca63add95fdcc41", "rental_uris": {"android": "https://dc.lft.to/lastmile_qr_scan", "ios": "https://dc.lft.to/lastmile_qr_scan"}, "name": "75d9db76ca32b9d2eca63add95fdcc41", "is_reserved": 0}, {"is_disabled": 0, "fusion_lon": 0.0, "fusion_lat": 0.0, "lat": 38.89974383333333, "type": "electric_scooter", "lon": -77.05153016666667, "bike_id": "d1b678428733becbcddc15508922a780", "rental_uris": {"android": "https://dc.lft.to/lastmile_qr_scan", "ios": "https://dc.lft.to/lastmile_qr_scan"}, "name": "d1b678428733becbcddc15508922a780", "is_reserved": 0}, {"is_disabled": 0, "fusion_lon": 0.0, "fusion_lat": 0.0, "lat": 38.9360295, "type": "electric_scooter", "lon": -77.05868966666667, "bike_id": "e2ef96d6964c776eadb4751c6e81fcb4", "rental_uris": {"android": "https://dc.lft.to/lastmile_qr_scan", "ios": "https://dc.lft.to/lastmile_qr_scan"}, "name": "e2ef96d6964c776eadb4751c6e81fcb4", "is_reserved": 0}, {"is_disabled": 0, "fusion_lon": 0.0, "fusion_lat": 0.0, "lat": 38.892194333333336, "type": "electric_scooter", "lon": -77.04694033333334, "bike_id": "4f387ff8bc18d2d285c961c153b75d51", "rental_uris": {"android": "https://dc.lft.to/lastmile_qr_scan", "ios": "https://dc.lft.to/lastmile_qr_scan"}, "name": "4f387ff8bc18d2d285c961c153b75d51", "is_reserved": 0}, {"is_disabled": 0, "fusion_lon": 0.0, "fusion_lat": 0.0, "lat": 38.87727666666667, "type": "electric_scooter", "lon": -77.0052415, "bike_id": "9705e80f7424dd0254cc3c126d0f02d3", "rental_uris": {"android": "https://dc.lft.to/lastmile_qr_scan", "ios": "https://dc.lft.to/lastmile_qr_scan"}, "name": "9705e80f7424dd0254cc3c126d0f02d3", "is_reserved": 0}, {"is_disabled": 0, "fusion_lon": 0.0, "fusion_lat": 0.0, "lat": 38.923365, "type": "electric_scooter", "lon": -77.041888, "bike_id": "d8c86c991193a46b30f768ab5861f45e", "rental_uris": {"android": "https://dc.lft.to/lastmile_qr_scan", "ios": "https://dc.lft.to/lastmile_qr_scan"}, "name": "d8c86c991193a46b30f768ab5861f45e", "is_reserved": 0}, {"is_disabled": 0, "fusion_lon": 0.0, "fusion_lat": 0.0, "lat": 38.88728166666667, "type": "electric_scooter", "lon": -77.017438, "bike_id": "e65bfc5523cbf815d9aadcda3b5963df", "rental_uris": {"android": "https://dc.lft.to/lastmile_qr_scan", "ios": "https://dc.lft.to/lastmile_qr_scan"}, "name": "e65bfc5523cbf815d9aadcda3b5963df", "is_reserved": 0}, {"is_disabled": 0, "fusion_lon": 0.0, "fusion_lat": 0.0, "lat": 38.90063683333333, "type": "electric_scooter", "lon": -76.933883, "bike_id": "a3e96449fbe68fb4152bebc2d4084748", "rental_uris": {"android": "https://dc.lft.to/lastmile_qr_scan", "ios": "https://dc.lft.to/lastmile_qr_scan"}, "name": "a3e96449fbe68fb4152bebc2d4084748", "is_reserved": 0}, {"is_disabled": 0, "fusion_lon": 0.0, "fusion_lat": 0.0, "lat": 38.892579833333336, "type": "electric_scooter", "lon": -77.03200966666667, "bike_id": "5e2184d9802da642be2838bab0606d3b", "rental_uris": {"android": "https://dc.lft.to/lastmile_qr_scan", "ios": "https://dc.lft.to/lastmile_qr_scan"}, "name": "5e2184d9802da642be2838bab0606d3b", "is_reserved": 0}, {"is_disabled": 0, "fusion_lon": 0.0, "fusion_lat": 0.0, "lat": 38.918167, "type": "electric_scooter", "lon": -77.041856, "bike_id": "f63c88a855c13cce0901e3f10b841e89", "rental_uris": {"android": "https://dc.lft.to/lastmile_qr_scan", "ios": "https://dc.lft.to/lastmile_qr_scan"}, "name": "f63c88a855c13cce0901e3f10b841e89", "is_reserved": 0}, {"is_disabled": 0, "fusion_lon": 0.0, "fusion_lat": 0.0, "lat": 38.8967615, "type": "electric_scooter", "lon": -77.01154616666666, "bike_id": "337cd04cdc98dc70c573dacdd3c07de1", "rental_uris": {"android": "https://dc.lft.to/lastmile_qr_scan", "ios": "https://dc.lft.to/lastmile_qr_scan"}, "name": "337cd04cdc98dc70c573dacdd3c07de1", "is_reserved": 0}, {"is_disabled": 0, "fusion_lon": 0.0, "fusion_lat": 0.0, "lat": 38.884838333333335, "type": "electric_scooter", "lon": -76.92965233333334, "bike_id": "558453908fe4a1da298879e652aefc15", "rental_uris": {"android": "https://dc.lft.to/lastmile_qr_scan", "ios": "https://dc.lft.to/lastmile_qr_scan"}, "name": "558453908fe4a1da298879e652aefc15", "is_reserved": 0}, {"is_disabled": 0, "fusion_lon": 0.0, "fusion_lat": 0.0, "lat": 38.8729095, "type": "electric_scooter", "lon": -77.0099055, "bike_id": "4310b0fbef1599b1603bbce65ebea701", "rental_uris": {"android": "https://dc.lft.to/lastmile_qr_scan", "ios": "https://dc.lft.to/lastmile_qr_scan"}, "name": "4310b0fbef1599b1603bbce65ebea701", "is_reserved": 0}, {"is_disabled": 0, "fusion_lon": 0.0, "fusion_lat": 0.0, "lat": 38.89585233333333, "type": "electric_scooter", "lon": -77.02161616666666, "bike_id": "a1943dfec4771362e7b25f26a621d6e2", "rental_uris": {"android": "https://dc.lft.to/lastmile_qr_scan", "ios": "https://dc.lft.to/lastmile_qr_scan"}, "name": "a1943dfec4771362e7b25f26a621d6e2", "is_reserved": 0}, {"is_disabled": 0, "fusion_lon": 0.0, "fusion_lat": 0.0, "lat": 38.92160916666667, "type": "electric_scooter", "lon": -77.034073, "bike_id": "559a1b78b80640de443018f278240bc8", "rental_uris": {"android": "https://dc.lft.to/lastmile_qr_scan", "ios": "https://dc.lft.to/lastmile_qr_scan"}, "name": "559a1b78b80640de443018f278240bc8", "is_reserved": 0}, {"is_disabled": 0, "fusion_lon": 0.0, "fusion_lat": 0.0, "lat": 38.907669, "type": "electric_scooter", "lon": -77.03207, "bike_id": "f0647f02e6937bd8f836d6539d0c1669", "rental_uris": {"android": "https://dc.lft.to/lastmile_qr_scan", "ios": "https://dc.lft.to/lastmile_qr_scan"}, "name": "f0647f02e6937bd8f836d6539d0c1669", "is_reserved": 0}, {"is_disabled": 0, "fusion_lon": 0.0, "fusion_lat": 0.0, "lat": 38.902781166666664, "type": "electric_scooter", "lon": -77.05316083333334, "bike_id": "21ce3e752a20ce06bc84f77364e807e5", "rental_uris": {"android": "https://dc.lft.to/lastmile_qr_scan", "ios": "https://dc.lft.to/lastmile_qr_scan"}, "name": "21ce3e752a20ce06bc84f77364e807e5", "is_reserved": 0}, {"is_disabled": 0, "fusion_lon": 0.0, "fusion_lat": 0.0, "lat": 38.9517345, "type": "electric_scooter", "lon": -77.033353, "bike_id": "e165949439bc273d06b445c9875cf22c", "rental_uris": {"android": "https://dc.lft.to/lastmile_qr_scan", "ios": "https://dc.lft.to/lastmile_qr_scan"}, "name": "e165949439bc273d06b445c9875cf22c", "is_reserved": 0}, {"is_disabled": 0, "fusion_lon": 0.0, "fusion_lat": 0.0, "lat": 38.913108333333334, "type": "electric_scooter", "lon": -77.00846816666666, "bike_id": "f6471df53f5572d012696b04f51c76d3", "rental_uris": {"android": "https://dc.lft.to/lastmile_qr_scan", "ios": "https://dc.lft.to/lastmile_qr_scan"}, "name": "f6471df53f5572d012696b04f51c76d3", "is_reserved": 0}, {"is_disabled": 0, "fusion_lon": 0.0, "fusion_lat": 0.0, "lat": 38.912645166666664, "type": "electric_scooter", "lon": -77.0336855, "bike_id": "fb5954b5275db98ca9059c7787948845", "rental_uris": {"android": "https://dc.lft.to/lastmile_qr_scan", "ios": "https://dc.lft.to/lastmile_qr_scan"}, "name": "fb5954b5275db98ca9059c7787948845", "is_reserved": 0}, {"is_disabled": 0, "fusion_lon": 0.0, "fusion_lat": 0.0, "lat": 38.96606883333333, "type": "electric_scooter", "lon": -77.035398, "bike_id": "1c9a0e29d3505bdda6d1070c191fae34", "rental_uris": {"android": "https://dc.lft.to/lastmile_qr_scan", "ios": "https://dc.lft.to/lastmile_qr_scan"}, "name": "1c9a0e29d3505bdda6d1070c191fae34", "is_reserved": 0}, {"is_disabled": 0, "fusion_lon": 0.0, "fusion_lat": 0.0, "lat": 38.914683, "type": "electric_scooter", "lon": -77.038448, "bike_id": "3cdf8502b8f4806568fc69729a25ad38", "rental_uris": {"android": "https://dc.lft.to/lastmile_qr_scan", "ios": "https://dc.lft.to/lastmile_qr_scan"}, "name": "3cdf8502b8f4806568fc69729a25ad38", "is_reserved": 0}, {"is_disabled": 0, "fusion_lon": 0.0, "fusion_lat": 0.0, "lat": 38.93430816666667, "type": "electric_scooter", "lon": -77.02592166666666, "bike_id": "5fea2abdd1f566a9fc1ceef5849d3d4d", "rental_uris": {"android": "https://dc.lft.to/lastmile_qr_scan", "ios": "https://dc.lft.to/lastmile_qr_scan"}, "name": "5fea2abdd1f566a9fc1ceef5849d3d4d", "is_reserved": 0}, {"is_disabled": 0, "fusion_lon": 0.0, "fusion_lat": 0.0, "lat": 38.91707066666667, "type": "electric_scooter", "lon": -77.036733, "bike_id": "c4e2517d8d435eb7736f67ee9d6be749", "rental_uris": {"android": "https://dc.lft.to/lastmile_qr_scan", "ios": "https://dc.lft.to/lastmile_qr_scan"}, "name": "c4e2517d8d435eb7736f67ee9d6be749", "is_reserved": 0}, {"is_disabled": 0, "fusion_lon": 0.0, "fusion_lat": 0.0, "lat": 38.92956216666666, "type": "electric_scooter", "lon": -77.04208933333334, "bike_id": "8b4f46b083d0d3ead8c52f78cf0459a3", "rental_uris": {"android": "https://dc.lft.to/lastmile_qr_scan", "ios": "https://dc.lft.to/lastmile_qr_scan"}, "name": "8b4f46b083d0d3ead8c52f78cf0459a3", "is_reserved": 0}, {"is_disabled": 0, "fusion_lon": 0.0, "fusion_lat": 0.0, "lat": 38.94616766666667, "type": "electric_scooter", "lon": -77.03625816666667, "bike_id": "352690d94533ce7ff0f115e2438bb342", "rental_uris": {"android": "https://dc.lft.to/lastmile_qr_scan", "ios": "https://dc.lft.to/lastmile_qr_scan"}, "name": "352690d94533ce7ff0f115e2438bb342", "is_reserved": 0}, {"is_disabled": 0, "fusion_lon": 0.0, "fusion_lat": 0.0, "lat": 38.91414533333333, "type": "electric_scooter", "lon": -77.035813, "bike_id": "32f299a9d6f3d2e7af4c095f1b1e3ff4", "rental_uris": {"android": "https://dc.lft.to/lastmile_qr_scan", "ios": "https://dc.lft.to/lastmile_qr_scan"}, "name": "32f299a9d6f3d2e7af4c095f1b1e3ff4", "is_reserved": 0}, {"is_disabled": 0, "fusion_lon": 0.0, "fusion_lat": 0.0, "lat": 38.905953833333335, "type": "electric_scooter", "lon": -77.05130166666666, "bike_id": "137e13d79172f32d3154f15774ea6385", "rental_uris": {"android": "https://dc.lft.to/lastmile_qr_scan", "ios": "https://dc.lft.to/lastmile_qr_scan"}, "name": "137e13d79172f32d3154f15774ea6385", "is_reserved": 0}, {"is_disabled": 0, "fusion_lon": 0.0, "fusion_lat": 0.0, "lat": 38.863589166666664, "type": "electric_scooter", "lon": -76.99066216666667, "bike_id": "60c16e52783991ef8fe80e1cc1d87f68", "rental_uris": {"android": "https://dc.lft.to/lastmile_qr_scan", "ios": "https://dc.lft.to/lastmile_qr_scan"}, "name": "60c16e52783991ef8fe80e1cc1d87f68", "is_reserved": 0}, {"is_disabled": 0, "fusion_lon": 0.0, "fusion_lat": 0.0, "lat": 38.935476666666666, "type": "electric_scooter", "lon": -77.05809966666666, "bike_id": "80e83bc8c13125720c51b5718303ba59", "rental_uris": {"android": "https://dc.lft.to/lastmile_qr_scan", "ios": "https://dc.lft.to/lastmile_qr_scan"}, "name": "80e83bc8c13125720c51b5718303ba59", "is_reserved": 0}, {"is_disabled": 0, "fusion_lon": 0.0, "fusion_lat": 0.0, "lat": 38.9813505, "type": "electric_bike", "lon": -77.0076785, "bike_id": "004ce23dad14388c0413ba27e73955f8", "rental_uris": {"android": "https://dc.lft.to/lastmile_qr_scan", "ios": "https://dc.lft.to/lastmile_qr_scan"}, "name": "004ce23dad14388c0413ba27e73955f8", "is_reserved": 0}, {"is_disabled": 0, "fusion_lon": 0.0, "fusion_lat": 0.0, "lat": 38.87775716666667, "type": "electric_scooter", "lon": -77.0143425, "bike_id": "86736a73a64c08273b3ca01799c06993", "rental_uris": {"android": "https://dc.lft.to/lastmile_qr_scan", "ios": "https://dc.lft.to/lastmile_qr_scan"}, "name": "86736a73a64c08273b3ca01799c06993", "is_reserved": 0}, {"is_disabled": 0, "fusion_lon": 0.0, "fusion_lat": 0.0, "lat": 38.89934233333334, "type": "electric_scooter", "lon": -77.03917583333333, "bike_id": "4a50c402c5edcf624c91d3bf44d5c4c4", "rental_uris": {"android": "https://dc.lft.to/lastmile_qr_scan", "ios": "https://dc.lft.to/lastmile_qr_scan"}, "name": "4a50c402c5edcf624c91d3bf44d5c4c4", "is_reserved": 0}, {"is_disabled": 0, "fusion_lon": 0.0, "fusion_lat": 0.0, "lat": 38.848919333333335, "type": "electric_scooter", "lon": -77.0052535, "bike_id": "780fa74def222ecea27fb572f22842c1", "rental_uris": {"android": "https://dc.lft.to/lastmile_qr_scan", "ios": "https://dc.lft.to/lastmile_qr_scan"}, "name": "780fa74def222ecea27fb572f22842c1", "is_reserved": 0}, {"is_disabled": 0, "fusion_lon": 0.0, "fusion_lat": 0.0, "lat": 38.913383333333336, "type": "electric_scooter", "lon": -77.041881, "bike_id": "1db2bf72e2415129ac423a557fb70d3d", "rental_uris": {"android": "https://dc.lft.to/lastmile_qr_scan", "ios": "https://dc.lft.to/lastmile_qr_scan"}, "name": "1db2bf72e2415129ac423a557fb70d3d", "is_reserved": 0}, {"is_disabled": 0, "fusion_lon": 0.0, "fusion_lat": 0.0, "lat": 38.898249166666666, "type": "electric_scooter", "lon": -77.00734216666666, "bike_id": "4a1a8da99e6a0c6545ce502417faf670", "rental_uris": {"android": "https://dc.lft.to/lastmile_qr_scan", "ios": "https://dc.lft.to/lastmile_qr_scan"}, "name": "4a1a8da99e6a0c6545ce502417faf670", "is_reserved": 0}, {"is_disabled": 0, "fusion_lon": 0.0, "fusion_lat": 0.0, "lat": 38.83194866666667, "type": "electric_bike", "lon": -77.07686066666666, "bike_id": "e5005ea55e62d79470de5dddb89b4928", "rental_uris": {"android": "https://dc.lft.to/lastmile_qr_scan", "ios": "https://dc.lft.to/lastmile_qr_scan"}, "name": "e5005ea55e62d79470de5dddb89b4928", "is_reserved": 0}, {"is_disabled": 0, "fusion_lon": 0.0, "fusion_lat": 0.0, "lat": 38.9095725, "type": "electric_scooter", "lon": -77.02284783333333, "bike_id": "795a4b62d4c1884c74422e7f1f63ef9b", "rental_uris": {"android": "https://dc.lft.to/lastmile_qr_scan", "ios": "https://dc.lft.to/lastmile_qr_scan"}, "name": "795a4b62d4c1884c74422e7f1f63ef9b", "is_reserved": 0}, {"is_disabled": 0, "fusion_lon": 0.0, "fusion_lat": 0.0, "lat": 38.92585166666667, "type": "electric_scooter", "lon": -77.05533833333334, "bike_id": "2b1af51471bd137b023ac0d1de19c184", "rental_uris": {"android": "https://dc.lft.to/lastmile_qr_scan", "ios": "https://dc.lft.to/lastmile_qr_scan"}, "name": "2b1af51471bd137b023ac0d1de19c184", "is_reserved": 0}, {"is_disabled": 0, "fusion_lon": 0.0, "fusion_lat": 0.0, "lat": 38.915636666666664, "type": "electric_scooter", "lon": -77.0381145, "bike_id": "2f982b7f3376060e18245d5b42cc983d", "rental_uris": {"android": "https://dc.lft.to/lastmile_qr_scan", "ios": "https://dc.lft.to/lastmile_qr_scan"}, "name": "2f982b7f3376060e18245d5b42cc983d", "is_reserved": 0}, {"is_disabled": 0, "fusion_lon": 0.0, "fusion_lat": 0.0, "lat": 38.82864083333333, "type": "electric_bike", "lon": -77.11228333333334, "bike_id": "0194b89b7c11454c1cc67e28a4fbab4e", "rental_uris": {"android": "https://dc.lft.to/lastmile_qr_scan", "ios": "https://dc.lft.to/lastmile_qr_scan"}, "name": "0194b89b7c11454c1cc67e28a4fbab4e", "is_reserved": 0}, {"is_disabled": 0, "fusion_lon": 0.0, "fusion_lat": 0.0, "lat": 38.83318716666667, "type": "electric_scooter", "lon": -77.0000745, "bike_id": "572dda94f0fc6a0baf5d267e942fd373", "rental_uris": {"android": "https://dc.lft.to/lastmile_qr_scan", "ios": "https://dc.lft.to/lastmile_qr_scan"}, "name": "572dda94f0fc6a0baf5d267e942fd373", "is_reserved": 0}, {"is_disabled": 0, "fusion_lon": 0.0, "fusion_lat": 0.0, "lat": 38.87482516666667, "type": "electric_scooter", "lon": -77.01068283333333, "bike_id": "b368e4e6d8221fd291c7539b3c925a6c", "rental_uris": {"android": "https://dc.lft.to/lastmile_qr_scan", "ios": "https://dc.lft.to/lastmile_qr_scan"}, "name": "b368e4e6d8221fd291c7539b3c925a6c", "is_reserved": 0}, {"is_disabled": 0, "fusion_lon": 0.0, "fusion_lat": 0.0, "lat": 38.886773166666664, "type": "electric_scooter", "lon": -77.00200166666667, "bike_id": "7f4db55eb9f1226de298247e1b6f9c68", "rental_uris": {"android": "https://dc.lft.to/lastmile_qr_scan", "ios": "https://dc.lft.to/lastmile_qr_scan"}, "name": "7f4db55eb9f1226de298247e1b6f9c68", "is_reserved": 0}, {"is_disabled": 0, "fusion_lon": 0.0, "fusion_lat": 0.0, "lat": 38.9134125, "type": "electric_scooter", "lon": -77.04868216666667, "bike_id": "325a7357e3a628cd98469bd442cc457a", "rental_uris": {"android": "https://dc.lft.to/lastmile_qr_scan", "ios": "https://dc.lft.to/lastmile_qr_scan"}, "name": "325a7357e3a628cd98469bd442cc457a", "is_reserved": 0}, {"is_disabled": 0, "fusion_lon": 0.0, "fusion_lat": 0.0, "lat": 38.95177416666667, "type": "electric_scooter", "lon": -77.0566035, "bike_id": "295061d04b4a48eeb84485153d4d0350", "rental_uris": {"android": "https://dc.lft.to/lastmile_qr_scan", "ios": "https://dc.lft.to/lastmile_qr_scan"}, "name": "295061d04b4a48eeb84485153d4d0350", "is_reserved": 0}, {"is_disabled": 0, "fusion_lon": 0.0, "fusion_lat": 0.0, "lat": 38.95551, "type": "electric_bike", "lon": -76.93544166666666, "bike_id": "4253e0d2415ae4d0c6dc05e49dd11aa8", "rental_uris": {"android": "https://dc.lft.to/lastmile_qr_scan", "ios": "https://dc.lft.to/lastmile_qr_scan"}, "name": "4253e0d2415ae4d0c6dc05e49dd11aa8", "is_reserved": 0}, {"is_disabled": 0, "fusion_lon": 0.0, "fusion_lat": 0.0, "lat": 38.917046166666665, "type": "electric_scooter", "lon": -77.02620766666666, "bike_id": "cd11b39deb7308b40e50368a2e0f7fa7", "rental_uris": {"android": "https://dc.lft.to/lastmile_qr_scan", "ios": "https://dc.lft.to/lastmile_qr_scan"}, "name": "cd11b39deb7308b40e50368a2e0f7fa7", "is_reserved": 0}, {"is_disabled": 0, "fusion_lon": 0.0, "fusion_lat": 0.0, "lat": 38.96555883333333, "type": "electric_bike", "lon": -77.023037, "bike_id": "d6118ea2386954eb49a989ce3b98cc7d", "rental_uris": {"android": "https://dc.lft.to/lastmile_qr_scan", "ios": "https://dc.lft.to/lastmile_qr_scan"}, "name": "d6118ea2386954eb49a989ce3b98cc7d", "is_reserved": 0}, {"is_disabled": 0, "fusion_lon": 0.0, "fusion_lat": 0.0, "lat": 38.892169, "type": "electric_scooter", "lon": -77.026326, "bike_id": "fd668644d43a84e9961f216874611e3d", "rental_uris": {"android": "https://dc.lft.to/lastmile_qr_scan", "ios": "https://dc.lft.to/lastmile_qr_scan"}, "name": "fd668644d43a84e9961f216874611e3d", "is_reserved": 0}, {"is_disabled": 0, "fusion_lon": 0.0, "fusion_lat": 0.0, "lat": 38.907133, "type": "electric_scooter", "lon": -77.02717166666666, "bike_id": "8db9104cbfdda537d67e76a2e57e95de", "rental_uris": {"android": "https://dc.lft.to/lastmile_qr_scan", "ios": "https://dc.lft.to/lastmile_qr_scan"}, "name": "8db9104cbfdda537d67e76a2e57e95de", "is_reserved": 0}, {"is_disabled": 0, "fusion_lon": 0.0, "fusion_lat": 0.0, "lat": 38.90709016666667, "type": "electric_scooter", "lon": -77.02388666666667, "bike_id": "62a07337c4fe710abf9d50b453dd437e", "rental_uris": {"android": "https://dc.lft.to/lastmile_qr_scan", "ios": "https://dc.lft.to/lastmile_qr_scan"}, "name": "62a07337c4fe710abf9d50b453dd437e", "is_reserved": 0}, {"is_disabled": 0, "fusion_lon": 0.0, "fusion_lat": 0.0, "lat": 38.924268833333336, "type": "electric_scooter", "lon": -77.04248766666667, "bike_id": "c9f14f972a2260ef9045ead1a6180191", "rental_uris": {"android": "https://dc.lft.to/lastmile_qr_scan", "ios": "https://dc.lft.to/lastmile_qr_scan"}, "name": "c9f14f972a2260ef9045ead1a6180191", "is_reserved": 0}, {"is_disabled": 0, "fusion_lon": 0.0, "fusion_lat": 0.0, "lat": 38.91807266666667, "type": "electric_scooter", "lon": -77.02448933333334, "bike_id": "013e6da24787292ca338d017e432286c", "rental_uris": {"android": "https://dc.lft.to/lastmile_qr_scan", "ios": "https://dc.lft.to/lastmile_qr_scan"}, "name": "013e6da24787292ca338d017e432286c", "is_reserved": 0}, {"is_disabled": 0, "fusion_lon": 0.0, "fusion_lat": 0.0, "lat": 39.003831166666664, "type": "electric_bike", "lon": -77.01290866666666, "bike_id": "4cad0b30cb57b170f54207952988e4bf", "rental_uris": {"android": "https://dc.lft.to/lastmile_qr_scan", "ios": "https://dc.lft.to/lastmile_qr_scan"}, "name": "4cad0b30cb57b170f54207952988e4bf", "is_reserved": 0}, {"is_disabled": 0, "fusion_lon": 0.0, "fusion_lat": 0.0, "lat": 38.91806666666667, "type": "electric_scooter", "lon": -77.0318025, "bike_id": "c9f8c68f233186d23dc4b95e6ef1597a", "rental_uris": {"android": "https://dc.lft.to/lastmile_qr_scan", "ios": "https://dc.lft.to/lastmile_qr_scan"}, "name": "c9f8c68f233186d23dc4b95e6ef1597a", "is_reserved": 0}, {"is_disabled": 0, "fusion_lon": 0.0, "fusion_lat": 0.0, "lat": 38.900932166666664, "type": "electric_scooter", "lon": -77.01806016666667, "bike_id": "e791008ad3622383d3379405a493a2b8", "rental_uris": {"android": "https://dc.lft.to/lastmile_qr_scan", "ios": "https://dc.lft.to/lastmile_qr_scan"}, "name": "e791008ad3622383d3379405a493a2b8", "is_reserved": 0}, {"is_disabled": 0, "fusion_lon": 0.0, "fusion_lat": 0.0, "lat": 38.93456166666667, "type": "electric_scooter", "lon": -77.02747083333334, "bike_id": "8ccb2f868c0d234414413f7fd47cab24", "rental_uris": {"android": "https://dc.lft.to/lastmile_qr_scan", "ios": "https://dc.lft.to/lastmile_qr_scan"}, "name": "8ccb2f868c0d234414413f7fd47cab24", "is_reserved": 0}, {"is_disabled": 0, "fusion_lon": 0.0, "fusion_lat": 0.0, "lat": 38.91381166666667, "type": "electric_scooter", "lon": -77.04604983333333, "bike_id": "3aae8a49e9195cba87edd70459a13a17", "rental_uris": {"android": "https://dc.lft.to/lastmile_qr_scan", "ios": "https://dc.lft.to/lastmile_qr_scan"}, "name": "3aae8a49e9195cba87edd70459a13a17", "is_reserved": 0}, {"is_disabled": 0, "fusion_lon": 0.0, "fusion_lat": 0.0, "lat": 38.898477166666666, "type": "electric_scooter", "lon": -77.03349733333333, "bike_id": "3ac988c75fe39128221b5de461cd2d01", "rental_uris": {"android": "https://dc.lft.to/lastmile_qr_scan", "ios": "https://dc.lft.to/lastmile_qr_scan"}, "name": "3ac988c75fe39128221b5de461cd2d01", "is_reserved": 0}, {"is_disabled": 0, "fusion_lon": 0.0, "fusion_lat": 0.0, "lat": 38.9231865, "type": "electric_scooter", "lon": -77.04014033333333, "bike_id": "d26a1f9d07e0da625632e638bcd4af43", "rental_uris": {"android": "https://dc.lft.to/lastmile_qr_scan", "ios": "https://dc.lft.to/lastmile_qr_scan"}, "name": "d26a1f9d07e0da625632e638bcd4af43", "is_reserved": 0}, {"is_disabled": 0, "fusion_lon": 0.0, "fusion_lat": 0.0, "lat": 38.92164133333333, "type": "electric_scooter", "lon": -77.03391166666667, "bike_id": "0a7f3c4b428441da3571a025c2ff16c6", "rental_uris": {"android": "https://dc.lft.to/lastmile_qr_scan", "ios": "https://dc.lft.to/lastmile_qr_scan"}, "name": "0a7f3c4b428441da3571a025c2ff16c6", "is_reserved": 0}, {"is_disabled": 0, "fusion_lon": 0.0, "fusion_lat": 0.0, "lat": 38.900195333333336, "type": "electric_scooter", "lon": -77.05221233333333, "bike_id": "707ee576edfb3e1fc299c786819c472d", "rental_uris": {"android": "https://dc.lft.to/lastmile_qr_scan", "ios": "https://dc.lft.to/lastmile_qr_scan"}, "name": "707ee576edfb3e1fc299c786819c472d", "is_reserved": 0}, {"is_disabled": 0, "fusion_lon": 0.0, "fusion_lat": 0.0, "lat": 38.92051766666667, "type": "electric_scooter", "lon": -77.0419105, "bike_id": "a342892429235df4fc35e5169ba09fe9", "rental_uris": {"android": "https://dc.lft.to/lastmile_qr_scan", "ios": "https://dc.lft.to/lastmile_qr_scan"}, "name": "a342892429235df4fc35e5169ba09fe9", "is_reserved": 0}, {"is_disabled": 0, "fusion_lon": 0.0, "fusion_lat": 0.0, "lat": 38.9062955, "type": "electric_scooter", "lon": -76.98573816666666, "bike_id": "91191f0a1836d4f9efbe8b3d217bb9a7", "rental_uris": {"android": "https://dc.lft.to/lastmile_qr_scan", "ios": "https://dc.lft.to/lastmile_qr_scan"}, "name": "91191f0a1836d4f9efbe8b3d217bb9a7", "is_reserved": 0}, {"is_disabled": 0, "fusion_lon": 0.0, "fusion_lat": 0.0, "lat": 38.904045333333336, "type": "electric_scooter", "lon": -77.04881166666667, "bike_id": "df7c81f4eb4a5153262a14ced6ce9035", "rental_uris": {"android": "https://dc.lft.to/lastmile_qr_scan", "ios": "https://dc.lft.to/lastmile_qr_scan"}, "name": "df7c81f4eb4a5153262a14ced6ce9035", "is_reserved": 0}, {"is_disabled": 0, "fusion_lon": 0.0, "fusion_lat": 0.0, "lat": 39.02685683333333, "type": "electric_bike", "lon": -77.1259945, "bike_id": "934eb1c271b6bbe3990afa7ca3adea14", "rental_uris": {"android": "https://dc.lft.to/lastmile_qr_scan", "ios": "https://dc.lft.to/lastmile_qr_scan"}, "name": "934eb1c271b6bbe3990afa7ca3adea14", "is_reserved": 0}, {"is_disabled": 0, "fusion_lon": 0.0, "fusion_lat": 0.0, "lat": 38.93700833333333, "type": "electric_scooter", "lon": -77.05604333333333, "bike_id": "cb4bbf14af52582c8f45ad19a157f0db", "rental_uris": {"android": "https://dc.lft.to/lastmile_qr_scan", "ios": "https://dc.lft.to/lastmile_qr_scan"}, "name": "cb4bbf14af52582c8f45ad19a157f0db", "is_reserved": 0}, {"is_disabled": 0, "fusion_lon": 0.0, "fusion_lat": 0.0, "lat": 38.905323833333334, "type": "electric_scooter", "lon": -77.04995666666667, "bike_id": "55b202bfb9625a05862a34663565663f", "rental_uris": {"android": "https://dc.lft.to/lastmile_qr_scan", "ios": "https://dc.lft.to/lastmile_qr_scan"}, "name": "55b202bfb9625a05862a34663565663f", "is_reserved": 0}, {"is_disabled": 0, "fusion_lon": 0.0, "fusion_lat": 0.0, "lat": 38.91705116666667, "type": "electric_scooter", "lon": -77.00115766666667, "bike_id": "f6ee3f8b7a7031dda7e84b7f03834d25", "rental_uris": {"android": "https://dc.lft.to/lastmile_qr_scan", "ios": "https://dc.lft.to/lastmile_qr_scan"}, "name": "f6ee3f8b7a7031dda7e84b7f03834d25", "is_reserved": 0}, {"is_disabled": 0, "fusion_lon": 0.0, "fusion_lat": 0.0, "lat": 38.8974345, "type": "electric_scooter", "lon": -77.021846, "bike_id": "dd9fa142cbc6fd6cce6d4ae760786544", "rental_uris": {"android": "https://dc.lft.to/lastmile_qr_scan", "ios": "https://dc.lft.to/lastmile_qr_scan"}, "name": "dd9fa142cbc6fd6cce6d4ae760786544", "is_reserved": 0}, {"is_disabled": 0, "fusion_lon": 0.0, "fusion_lat": 0.0, "lat": 38.88456216666667, "type": "electric_bike", "lon": -76.91639733333334, "bike_id": "a1f5cbcac1f27c58d825c19c9bf74b4c", "rental_uris": {"android": "https://dc.lft.to/lastmile_qr_scan", "ios": "https://dc.lft.to/lastmile_qr_scan"}, "name": "a1f5cbcac1f27c58d825c19c9bf74b4c", "is_reserved": 0}, {"is_disabled": 0, "fusion_lon": 0.0, "fusion_lat": 0.0, "lat": 38.91591583333334, "type": "electric_scooter", "lon": -77.0728015, "bike_id": "0b477a41ddea9ac342aee4e3b95ec82a", "rental_uris": {"android": "https://dc.lft.to/lastmile_qr_scan", "ios": "https://dc.lft.to/lastmile_qr_scan"}, "name": "0b477a41ddea9ac342aee4e3b95ec82a", "is_reserved": 0}, {"is_disabled": 0, "fusion_lon": 0.0, "fusion_lat": 0.0, "lat": 38.91638716666667, "type": "electric_scooter", "lon": -77.02280366666666, "bike_id": "bd216aff8601aebedcb5864b4fb5fd5f", "rental_uris": {"android": "https://dc.lft.to/lastmile_qr_scan", "ios": "https://dc.lft.to/lastmile_qr_scan"}, "name": "bd216aff8601aebedcb5864b4fb5fd5f", "is_reserved": 0}, {"is_disabled": 0, "fusion_lon": 0.0, "fusion_lat": 0.0, "lat": 38.90851816666667, "type": "electric_scooter", "lon": -77.038416, "bike_id": "ff373446856f35ffe134b31b223bdf0f", "rental_uris": {"android": "https://dc.lft.to/lastmile_qr_scan", "ios": "https://dc.lft.to/lastmile_qr_scan"}, "name": "ff373446856f35ffe134b31b223bdf0f", "is_reserved": 0}, {"is_disabled": 0, "fusion_lon": 0.0, "fusion_lat": 0.0, "lat": 39.052731333333334, "type": "electric_bike", "lon": -77.043838, "bike_id": "f8344bd632d947fa4c3dd635f69a3c29", "rental_uris": {"android": "https://dc.lft.to/lastmile_qr_scan", "ios": "https://dc.lft.to/lastmile_qr_scan"}, "name": "f8344bd632d947fa4c3dd635f69a3c29", "is_reserved": 0}, {"is_disabled": 0, "fusion_lon": 0.0, "fusion_lat": 0.0, "lat": 38.948915, "type": "electric_bike", "lon": -76.96373716666666, "bike_id": "8abb5e0a15e69cfac086b3c1efdc9247", "rental_uris": {"android": "https://dc.lft.to/lastmile_qr_scan", "ios": "https://dc.lft.to/lastmile_qr_scan"}, "name": "8abb5e0a15e69cfac086b3c1efdc9247", "is_reserved": 0}, {"is_disabled": 0, "fusion_lon": 0.0, "fusion_lat": 0.0, "lat": 38.90517116666667, "type": "electric_bike", "lon": -77.047423, "bike_id": "e4d72c7cba261d59ec3d6e6fb587d592", "rental_uris": {"android": "https://dc.lft.to/lastmile_qr_scan", "ios": "https://dc.lft.to/lastmile_qr_scan"}, "name": "e4d72c7cba261d59ec3d6e6fb587d592", "is_reserved": 0}, {"is_disabled": 0, "fusion_lon": 0.0, "fusion_lat": 0.0, "lat": 38.93634133333333, "type": "electric_scooter", "lon": -77.026974, "bike_id": "2e9fc319391222bca61119a7de5102dd", "rental_uris": {"android": "https://dc.lft.to/lastmile_qr_scan", "ios": "https://dc.lft.to/lastmile_qr_scan"}, "name": "2e9fc319391222bca61119a7de5102dd", "is_reserved": 0}, {"is_disabled": 0, "fusion_lon": 0.0, "fusion_lat": 0.0, "lat": 38.90920216666667, "type": "electric_scooter", "lon": -77.03451833333334, "bike_id": "36ab4ea66b44c6821c485bb380e298f0", "rental_uris": {"android": "https://dc.lft.to/lastmile_qr_scan", "ios": "https://dc.lft.to/lastmile_qr_scan"}, "name": "36ab4ea66b44c6821c485bb380e298f0", "is_reserved": 0}, {"is_disabled": 0, "fusion_lon": 0.0, "fusion_lat": 0.0, "lat": 38.897508333333334, "type": "electric_scooter", "lon": -77.05148016666666, "bike_id": "c66394fb73390460e81da4e09d180120", "rental_uris": {"android": "https://dc.lft.to/lastmile_qr_scan", "ios": "https://dc.lft.to/lastmile_qr_scan"}, "name": "c66394fb73390460e81da4e09d180120", "is_reserved": 0}, {"is_disabled": 0, "fusion_lon": 0.0, "fusion_lat": 0.0, "lat": 38.91611, "type": "electric_scooter", "lon": -77.0460015, "bike_id": "2d973d91a5e7e86ab79c306fb4fd579f", "rental_uris": {"android": "https://dc.lft.to/lastmile_qr_scan", "ios": "https://dc.lft.to/lastmile_qr_scan"}, "name": "2d973d91a5e7e86ab79c306fb4fd579f", "is_reserved": 0}, {"is_disabled": 0, "fusion_lon": 0.0, "fusion_lat": 0.0, "lat": 38.907251333333335, "type": "electric_scooter", "lon": -77.03202616666667, "bike_id": "2e582006915f0fe57b652af16f336b32", "rental_uris": {"android": "https://dc.lft.to/lastmile_qr_scan", "ios": "https://dc.lft.to/lastmile_qr_scan"}, "name": "2e582006915f0fe57b652af16f336b32", "is_reserved": 0}, {"is_disabled": 0, "fusion_lon": 0.0, "fusion_lat": 0.0, "lat": 38.93525, "type": "electric_scooter", "lon": -77.06637916666666, "bike_id": "3a21efa6327ff252c5f032f5af265d20", "rental_uris": {"android": "https://dc.lft.to/lastmile_qr_scan", "ios": "https://dc.lft.to/lastmile_qr_scan"}, "name": "3a21efa6327ff252c5f032f5af265d20", "is_reserved": 0}, {"is_disabled": 0, "fusion_lon": 0.0, "fusion_lat": 0.0, "lat": 38.9177715, "type": "electric_scooter", "lon": -77.04305616666667, "bike_id": "1a703e13df0f69015a7c391a562fae3e", "rental_uris": {"android": "https://dc.lft.to/lastmile_qr_scan", "ios": "https://dc.lft.to/lastmile_qr_scan"}, "name": "1a703e13df0f69015a7c391a562fae3e", "is_reserved": 0}, {"is_disabled": 0, "fusion_lon": 0.0, "fusion_lat": 0.0, "lat": 38.91903966666667, "type": "electric_scooter", "lon": -77.02756266666667, "bike_id": "808c6fa290ea24fe9ff765cd68df550f", "rental_uris": {"android": "https://dc.lft.to/lastmile_qr_scan", "ios": "https://dc.lft.to/lastmile_qr_scan"}, "name": "808c6fa290ea24fe9ff765cd68df550f", "is_reserved": 0}, {"is_disabled": 0, "fusion_lon": 0.0, "fusion_lat": 0.0, "lat": 38.908555, "type": "electric_scooter", "lon": -77.06078933333333, "bike_id": "617b0e899bbfce893ee136b801aef5bb", "rental_uris": {"android": "https://dc.lft.to/lastmile_qr_scan", "ios": "https://dc.lft.to/lastmile_qr_scan"}, "name": "617b0e899bbfce893ee136b801aef5bb", "is_reserved": 0}, {"is_disabled": 0, "fusion_lon": 0.0, "fusion_lat": 0.0, "lat": 38.8735315, "type": "electric_scooter", "lon": -77.01741383333334, "bike_id": "2333d5897900a5347b60f61843846400", "rental_uris": {"android": "https://dc.lft.to/lastmile_qr_scan", "ios": "https://dc.lft.to/lastmile_qr_scan"}, "name": "2333d5897900a5347b60f61843846400", "is_reserved": 0}, {"is_disabled": 0, "fusion_lon": 0.0, "fusion_lat": 0.0, "lat": 38.89653333333333, "type": "electric_scooter", "lon": -77.02627783333334, "bike_id": "414f3e6defa624f60052610e798a9857", "rental_uris": {"android": "https://dc.lft.to/lastmile_qr_scan", "ios": "https://dc.lft.to/lastmile_qr_scan"}, "name": "414f3e6defa624f60052610e798a9857", "is_reserved": 0}, {"is_disabled": 0, "fusion_lon": 0.0, "fusion_lat": 0.0, "lat": 38.9405055, "type": "electric_scooter", "lon": -77.0250155, "bike_id": "bcc9b592db876da63c4eb952381fe4eb", "rental_uris": {"android": "https://dc.lft.to/lastmile_qr_scan", "ios": "https://dc.lft.to/lastmile_qr_scan"}, "name": "bcc9b592db876da63c4eb952381fe4eb", "is_reserved": 0}, {"is_disabled": 0, "fusion_lon": 0.0, "fusion_lat": 0.0, "lat": 38.89956516666667, "type": "electric_scooter", "lon": -77.05225183333333, "bike_id": "5708dfe9f8eb2d0fc1d0a008431c9888", "rental_uris": {"android": "https://dc.lft.to/lastmile_qr_scan", "ios": "https://dc.lft.to/lastmile_qr_scan"}, "name": "5708dfe9f8eb2d0fc1d0a008431c9888", "is_reserved": 0}, {"is_disabled": 0, "fusion_lon": 0.0, "fusion_lat": 0.0, "lat": 38.94297916666667, "type": "electric_scooter", "lon": -77.03354183333333, "bike_id": "358227f284a7665f2175a037925fc8c6", "rental_uris": {"android": "https://dc.lft.to/lastmile_qr_scan", "ios": "https://dc.lft.to/lastmile_qr_scan"}, "name": "358227f284a7665f2175a037925fc8c6", "is_reserved": 0}, {"is_disabled": 0, "fusion_lon": 0.0, "fusion_lat": 0.0, "lat": 38.964450666666664, "type": "electric_bike", "lon": -76.97727833333333, "bike_id": "abee8248352cc6ab1302628dbccd7280", "rental_uris": {"android": "https://dc.lft.to/lastmile_qr_scan", "ios": "https://dc.lft.to/lastmile_qr_scan"}, "name": "abee8248352cc6ab1302628dbccd7280", "is_reserved": 0}, {"is_disabled": 0, "fusion_lon": 0.0, "fusion_lat": 0.0, "lat": 39.02998566666667, "type": "electric_bike", "lon": -77.10655816666667, "bike_id": "5cbae1c536da7830a2a83aa00efd0d79", "rental_uris": {"android": "https://dc.lft.to/lastmile_qr_scan", "ios": "https://dc.lft.to/lastmile_qr_scan"}, "name": "5cbae1c536da7830a2a83aa00efd0d79", "is_reserved": 0}, {"is_disabled": 0, "fusion_lon": 0.0, "fusion_lat": 0.0, "lat": 38.8585205, "type": "electric_bike", "lon": -77.09752366666666, "bike_id": "ab0389b1a0a0bfe40a91cc8c26af95dc", "rental_uris": {"android": "https://dc.lft.to/lastmile_qr_scan", "ios": "https://dc.lft.to/lastmile_qr_scan"}, "name": "ab0389b1a0a0bfe40a91cc8c26af95dc", "is_reserved": 0}, {"is_disabled": 0, "fusion_lon": 0.0, "fusion_lat": 0.0, "lat": 38.8874705, "type": "electric_scooter", "lon": -77.01608283333333, "bike_id": "a1215fa74b86aff5c7440a1979ab7635", "rental_uris": {"android": "https://dc.lft.to/lastmile_qr_scan", "ios": "https://dc.lft.to/lastmile_qr_scan"}, "name": "a1215fa74b86aff5c7440a1979ab7635", "is_reserved": 0}, {"is_disabled": 0, "fusion_lon": 0.0, "fusion_lat": 0.0, "lat": 38.8429225, "type": "electric_scooter", "lon": -76.99950733333333, "bike_id": "7ad753a11fef9f567a948f2168d112af", "rental_uris": {"android": "https://dc.lft.to/lastmile_qr_scan", "ios": "https://dc.lft.to/lastmile_qr_scan"}, "name": "7ad753a11fef9f567a948f2168d112af", "is_reserved": 0}, {"is_disabled": 0, "fusion_lon": 0.0, "fusion_lat": 0.0, "lat": 38.92890516666667, "type": "electric_scooter", "lon": -77.0230975, "bike_id": "88b9b3b03521d65fd3d8888608031355", "rental_uris": {"android": "https://dc.lft.to/lastmile_qr_scan", "ios": "https://dc.lft.to/lastmile_qr_scan"}, "name": "88b9b3b03521d65fd3d8888608031355", "is_reserved": 0}, {"is_disabled": 0, "fusion_lon": 0.0, "fusion_lat": 0.0, "lat": 38.90854316666667, "type": "electric_scooter", "lon": -77.04301433333333, "bike_id": "389fc9f59861e9e3a0416b69064ee1f9", "rental_uris": {"android": "https://dc.lft.to/lastmile_qr_scan", "ios": "https://dc.lft.to/lastmile_qr_scan"}, "name": "389fc9f59861e9e3a0416b69064ee1f9", "is_reserved": 0}, {"is_disabled": 0, "fusion_lon": 0.0, "fusion_lat": 0.0, "lat": 38.917905833333336, "type": "electric_scooter", "lon": -77.03448916666666, "bike_id": "625769d7379a854f87339aa3b074fb7a", "rental_uris": {"android": "https://dc.lft.to/lastmile_qr_scan", "ios": "https://dc.lft.to/lastmile_qr_scan"}, "name": "625769d7379a854f87339aa3b074fb7a", "is_reserved": 0}, {"is_disabled": 0, "fusion_lon": 0.0, "fusion_lat": 0.0, "lat": 38.929592, "type": "electric_scooter", "lon": -77.0234555, "bike_id": "fd162bfef0e08e52ff3de698920df1ac", "rental_uris": {"android": "https://dc.lft.to/lastmile_qr_scan", "ios": "https://dc.lft.to/lastmile_qr_scan"}, "name": "fd162bfef0e08e52ff3de698920df1ac", "is_reserved": 0}, {"is_disabled": 0, "fusion_lon": 0.0, "fusion_lat": 0.0, "lat": 38.927458666666666, "type": "electric_scooter", "lon": -77.02535483333334, "bike_id": "195476751318531c78958d0c1446a126", "rental_uris": {"android": "https://dc.lft.to/lastmile_qr_scan", "ios": "https://dc.lft.to/lastmile_qr_scan"}, "name": "195476751318531c78958d0c1446a126", "is_reserved": 0}, {"is_disabled": 0, "fusion_lon": 0.0, "fusion_lat": 0.0, "lat": 38.91486233333333, "type": "electric_scooter", "lon": -76.98352366666667, "bike_id": "779d5b8e493793d9c54f2740dc20f3ae", "rental_uris": {"android": "https://dc.lft.to/lastmile_qr_scan", "ios": "https://dc.lft.to/lastmile_qr_scan"}, "name": "779d5b8e493793d9c54f2740dc20f3ae", "is_reserved": 0}, {"is_disabled": 0, "fusion_lon": 0.0, "fusion_lat": 0.0, "lat": 38.87479866666666, "type": "electric_bike", "lon": -77.000862, "bike_id": "ae121d11db68b0dab7c4821b7733f323", "rental_uris": {"android": "https://dc.lft.to/lastmile_qr_scan", "ios": "https://dc.lft.to/lastmile_qr_scan"}, "name": "ae121d11db68b0dab7c4821b7733f323", "is_reserved": 0}, {"is_disabled": 0, "fusion_lon": 0.0, "fusion_lat": 0.0, "lat": 38.917064833333335, "type": "electric_scooter", "lon": -77.04303783333333, "bike_id": "136b7138c41f5730c529242680e5af11", "rental_uris": {"android": "https://dc.lft.to/lastmile_qr_scan", "ios": "https://dc.lft.to/lastmile_qr_scan"}, "name": "136b7138c41f5730c529242680e5af11", "is_reserved": 0}, {"is_disabled": 0, "fusion_lon": 0.0, "fusion_lat": 0.0, "lat": 38.879751666666664, "type": "electric_scooter", "lon": -77.0242525, "bike_id": "3f688b5da498f2e8c90406685f870f78", "rental_uris": {"android": "https://dc.lft.to/lastmile_qr_scan", "ios": "https://dc.lft.to/lastmile_qr_scan"}, "name": "3f688b5da498f2e8c90406685f870f78", "is_reserved": 0}, {"is_disabled": 0, "fusion_lon": 0.0, "fusion_lat": 0.0, "lat": 38.905727166666665, "type": "electric_scooter", "lon": -77.02470383333333, "bike_id": "94dc829faf876cbc21ab4edd8bfc9aed", "rental_uris": {"android": "https://dc.lft.to/lastmile_qr_scan", "ios": "https://dc.lft.to/lastmile_qr_scan"}, "name": "94dc829faf876cbc21ab4edd8bfc9aed", "is_reserved": 0}, {"is_disabled": 0, "fusion_lon": 0.0, "fusion_lat": 0.0, "lat": 38.928417333333336, "type": "electric_scooter", "lon": -77.05626066666666, "bike_id": "19a203bc75a29c7fe513ca0d48bb431f", "rental_uris": {"android": "https://dc.lft.to/lastmile_qr_scan", "ios": "https://dc.lft.to/lastmile_qr_scan"}, "name": "19a203bc75a29c7fe513ca0d48bb431f", "is_reserved": 0}, {"is_disabled": 0, "fusion_lon": 0.0, "fusion_lat": 0.0, "lat": 38.908052166666664, "type": "electric_scooter", "lon": -77.04176983333333, "bike_id": "6c45371f87a3ee476a9bed8494ef044e", "rental_uris": {"android": "https://dc.lft.to/lastmile_qr_scan", "ios": "https://dc.lft.to/lastmile_qr_scan"}, "name": "6c45371f87a3ee476a9bed8494ef044e", "is_reserved": 0}, {"is_disabled": 0, "fusion_lon": 0.0, "fusion_lat": 0.0, "lat": 38.89729633333334, "type": "electric_scooter", "lon": -77.00933783333333, "bike_id": "c3b92399c65140318ab742812e222ebd", "rental_uris": {"android": "https://dc.lft.to/lastmile_qr_scan", "ios": "https://dc.lft.to/lastmile_qr_scan"}, "name": "c3b92399c65140318ab742812e222ebd", "is_reserved": 0}, {"is_disabled": 0, "fusion_lon": 0.0, "fusion_lat": 0.0, "lat": 38.9191765, "type": "electric_scooter", "lon": -77.0342225, "bike_id": "2b55e9d9ebb4107a9c66a9aa9935c0c3", "rental_uris": {"android": "https://dc.lft.to/lastmile_qr_scan", "ios": "https://dc.lft.to/lastmile_qr_scan"}, "name": "2b55e9d9ebb4107a9c66a9aa9935c0c3", "is_reserved": 0}, {"is_disabled": 0, "fusion_lon": 0.0, "fusion_lat": 0.0, "lat": 38.9413105, "type": "electric_scooter", "lon": -77.01826666666666, "bike_id": "af2cfa057977a9fb0d27c6fc058f1430", "rental_uris": {"android": "https://dc.lft.to/lastmile_qr_scan", "ios": "https://dc.lft.to/lastmile_qr_scan"}, "name": "af2cfa057977a9fb0d27c6fc058f1430", "is_reserved": 0}, {"is_disabled": 0, "fusion_lon": 0.0, "fusion_lat": 0.0, "lat": 38.921025, "type": "electric_scooter", "lon": -77.03052883333334, "bike_id": "4e0288587297b8e0b213d5349135eb01", "rental_uris": {"android": "https://dc.lft.to/lastmile_qr_scan", "ios": "https://dc.lft.to/lastmile_qr_scan"}, "name": "4e0288587297b8e0b213d5349135eb01", "is_reserved": 0}, {"is_disabled": 0, "fusion_lon": 0.0, "fusion_lat": 0.0, "lat": 38.92880066666667, "type": "electric_scooter", "lon": -77.0413415, "bike_id": "8a0581304c842649f26bbf5ae05c745d", "rental_uris": {"android": "https://dc.lft.to/lastmile_qr_scan", "ios": "https://dc.lft.to/lastmile_qr_scan"}, "name": "8a0581304c842649f26bbf5ae05c745d", "is_reserved": 0}, {"is_disabled": 0, "fusion_lon": 0.0, "fusion_lat": 0.0, "lat": 38.931251, "type": "electric_scooter", "lon": -77.01992083333333, "bike_id": "674226b0d9e85f32d580923abe02e775", "rental_uris": {"android": "https://dc.lft.to/lastmile_qr_scan", "ios": "https://dc.lft.to/lastmile_qr_scan"}, "name": "674226b0d9e85f32d580923abe02e775", "is_reserved": 0}, {"is_disabled": 0, "fusion_lon": 0.0, "fusion_lat": 0.0, "lat": 38.89002516666667, "type": "electric_scooter", "lon": -77.04900566666667, "bike_id": "044fe825d47e8f14fa1c5c9f89478571", "rental_uris": {"android": "https://dc.lft.to/lastmile_qr_scan", "ios": "https://dc.lft.to/lastmile_qr_scan"}, "name": "044fe825d47e8f14fa1c5c9f89478571", "is_reserved": 0}, {"is_disabled": 0, "fusion_lon": 0.0, "fusion_lat": 0.0, "lat": 38.931384, "type": "electric_scooter", "lon": -77.03457166666666, "bike_id": "f1089a28a9a457c05ec2bb5268fdf957", "rental_uris": {"android": "https://dc.lft.to/lastmile_qr_scan", "ios": "https://dc.lft.to/lastmile_qr_scan"}, "name": "f1089a28a9a457c05ec2bb5268fdf957", "is_reserved": 0}, {"is_disabled": 0, "fusion_lon": 0.0, "fusion_lat": 0.0, "lat": 38.90577283333333, "type": "electric_scooter", "lon": -77.041799, "bike_id": "d26b333e2ee97b998ae0febfa7b8c6e0", "rental_uris": {"android": "https://dc.lft.to/lastmile_qr_scan", "ios": "https://dc.lft.to/lastmile_qr_scan"}, "name": "d26b333e2ee97b998ae0febfa7b8c6e0", "is_reserved": 0}, {"is_disabled": 0, "fusion_lon": 0.0, "fusion_lat": 0.0, "lat": 38.900709666666664, "type": "electric_scooter", "lon": -77.01300816666667, "bike_id": "6de9a95deaf06a9229989a6972ee33a1", "rental_uris": {"android": "https://dc.lft.to/lastmile_qr_scan", "ios": "https://dc.lft.to/lastmile_qr_scan"}, "name": "6de9a95deaf06a9229989a6972ee33a1", "is_reserved": 0}, {"is_disabled": 0, "fusion_lon": 0.0, "fusion_lat": 0.0, "lat": 38.8947465, "type": "electric_scooter", "lon": -76.9330725, "bike_id": "ca4b95e348a1c8a2fe5d66f8f00fc65e", "rental_uris": {"android": "https://dc.lft.to/lastmile_qr_scan", "ios": "https://dc.lft.to/lastmile_qr_scan"}, "name": "ca4b95e348a1c8a2fe5d66f8f00fc65e", "is_reserved": 0}, {"is_disabled": 0, "fusion_lon": 0.0, "fusion_lat": 0.0, "lat": 38.90297866666667, "type": "electric_scooter", "lon": -77.02155416666666, "bike_id": "8839b385a43ffe8f829e3ca395058a93", "rental_uris": {"android": "https://dc.lft.to/lastmile_qr_scan", "ios": "https://dc.lft.to/lastmile_qr_scan"}, "name": "8839b385a43ffe8f829e3ca395058a93", "is_reserved": 0}, {"is_disabled": 0, "fusion_lon": 0.0, "fusion_lat": 0.0, "lat": 38.909674, "type": "electric_scooter", "lon": -77.03254033333333, "bike_id": "c2ba7e778c32cddf205ea2e51cd8c447", "rental_uris": {"android": "https://dc.lft.to/lastmile_qr_scan", "ios": "https://dc.lft.to/lastmile_qr_scan"}, "name": "c2ba7e778c32cddf205ea2e51cd8c447", "is_reserved": 0}, {"is_disabled": 0, "fusion_lon": 0.0, "fusion_lat": 0.0, "lat": 38.89827366666667, "type": "electric_scooter", "lon": -76.94656316666666, "bike_id": "2157bc82af8291ccaf168ee4cddbef46", "rental_uris": {"android": "https://dc.lft.to/lastmile_qr_scan", "ios": "https://dc.lft.to/lastmile_qr_scan"}, "name": "2157bc82af8291ccaf168ee4cddbef46", "is_reserved": 0}, {"is_disabled": 0, "fusion_lon": 0.0, "fusion_lat": 0.0, "lat": 38.9068045, "type": "electric_scooter", "lon": -77.02693233333333, "bike_id": "1980b71eb374fac8b2a0f41a6a28245a", "rental_uris": {"android": "https://dc.lft.to/lastmile_qr_scan", "ios": "https://dc.lft.to/lastmile_qr_scan"}, "name": "1980b71eb374fac8b2a0f41a6a28245a", "is_reserved": 0}, {"is_disabled": 0, "fusion_lon": 0.0, "fusion_lat": 0.0, "lat": 38.90263366666667, "type": "electric_scooter", "lon": -77.03444916666666, "bike_id": "09f31fcee406a9924f1a21fda1a82feb", "rental_uris": {"android": "https://dc.lft.to/lastmile_qr_scan", "ios": "https://dc.lft.to/lastmile_qr_scan"}, "name": "09f31fcee406a9924f1a21fda1a82feb", "is_reserved": 0}, {"is_disabled": 0, "fusion_lon": 0.0, "fusion_lat": 0.0, "lat": 38.9462575, "type": "electric_bike", "lon": -76.93416133333334, "bike_id": "de71acf3050bf455ef8975241ff171b8", "rental_uris": {"android": "https://dc.lft.to/lastmile_qr_scan", "ios": "https://dc.lft.to/lastmile_qr_scan"}, "name": "de71acf3050bf455ef8975241ff171b8", "is_reserved": 0}, {"is_disabled": 0, "fusion_lon": 0.0, "fusion_lat": 0.0, "lat": 38.924581, "type": "electric_scooter", "lon": -77.02969016666667, "bike_id": "a9a528248868b2b06893a97113d09617", "rental_uris": {"android": "https://dc.lft.to/lastmile_qr_scan", "ios": "https://dc.lft.to/lastmile_qr_scan"}, "name": "a9a528248868b2b06893a97113d09617", "is_reserved": 0}, {"is_disabled": 0, "fusion_lon": 0.0, "fusion_lat": 0.0, "lat": 38.91044333333333, "type": "electric_scooter", "lon": -77.02292966666667, "bike_id": "2aaa0ab0802d9fc7d2dd0f626c6f06a7", "rental_uris": {"android": "https://dc.lft.to/lastmile_qr_scan", "ios": "https://dc.lft.to/lastmile_qr_scan"}, "name": "2aaa0ab0802d9fc7d2dd0f626c6f06a7", "is_reserved": 0}, {"is_disabled": 0, "fusion_lon": 0.0, "fusion_lat": 0.0, "lat": 38.917073333333335, "type": "electric_scooter", "lon": -77.03314066666667, "bike_id": "6ce14cce9a92e2bb7fd4d7de69fe88db", "rental_uris": {"android": "https://dc.lft.to/lastmile_qr_scan", "ios": "https://dc.lft.to/lastmile_qr_scan"}, "name": "6ce14cce9a92e2bb7fd4d7de69fe88db", "is_reserved": 0}, {"is_disabled": 0, "fusion_lon": 0.0, "fusion_lat": 0.0, "lat": 38.95179983333333, "type": "electric_scooter", "lon": -77.02615633333333, "bike_id": "06d0b8f8ad0a066c95592a7f5c25acfa", "rental_uris": {"android": "https://dc.lft.to/lastmile_qr_scan", "ios": "https://dc.lft.to/lastmile_qr_scan"}, "name": "06d0b8f8ad0a066c95592a7f5c25acfa", "is_reserved": 0}, {"is_disabled": 0, "fusion_lon": 0.0, "fusion_lat": 0.0, "lat": 38.90385466666667, "type": "electric_scooter", "lon": -76.99003883333333, "bike_id": "e8c33c26a08637a8a5655c8e1238d624", "rental_uris": {"android": "https://dc.lft.to/lastmile_qr_scan", "ios": "https://dc.lft.to/lastmile_qr_scan"}, "name": "e8c33c26a08637a8a5655c8e1238d624", "is_reserved": 0}, {"is_disabled": 0, "fusion_lon": 0.0, "fusion_lat": 0.0, "lat": 38.876689, "type": "electric_scooter", "lon": -76.932001, "bike_id": "dcfd98db2ad2fd9dbadf5ed8b8161e1d", "rental_uris": {"android": "https://dc.lft.to/lastmile_qr_scan", "ios": "https://dc.lft.to/lastmile_qr_scan"}, "name": "dcfd98db2ad2fd9dbadf5ed8b8161e1d", "is_reserved": 0}, {"is_disabled": 0, "fusion_lon": 0.0, "fusion_lat": 0.0, "lat": 38.94975183333333, "type": "electric_scooter", "lon": -77.09444833333333, "bike_id": "f6a8f363456a3f86fed39d99af740e95", "rental_uris": {"android": "https://dc.lft.to/lastmile_qr_scan", "ios": "https://dc.lft.to/lastmile_qr_scan"}, "name": "f6a8f363456a3f86fed39d99af740e95", "is_reserved": 0}, {"is_disabled": 0, "fusion_lon": 0.0, "fusion_lat": 0.0, "lat": 38.91263716666667, "type": "electric_scooter", "lon": -77.03369333333333, "bike_id": "58a37a09fe66dc42b2c286e81fcbf7fe", "rental_uris": {"android": "https://dc.lft.to/lastmile_qr_scan", "ios": "https://dc.lft.to/lastmile_qr_scan"}, "name": "58a37a09fe66dc42b2c286e81fcbf7fe", "is_reserved": 0}, {"is_disabled": 0, "fusion_lon": 0.0, "fusion_lat": 0.0, "lat": 38.9205195, "type": "electric_scooter", "lon": -77.0419535, "bike_id": "430cea735c3ae4066e24c5010cf37cfb", "rental_uris": {"android": "https://dc.lft.to/lastmile_qr_scan", "ios": "https://dc.lft.to/lastmile_qr_scan"}, "name": "430cea735c3ae4066e24c5010cf37cfb", "is_reserved": 0}, {"is_disabled": 0, "fusion_lon": 0.0, "fusion_lat": 0.0, "lat": 38.95001283333333, "type": "electric_bike", "lon": -77.35313233333333, "bike_id": "e35f35eb84947bcf593f3de359d0a0cf", "rental_uris": {"android": "https://dc.lft.to/lastmile_qr_scan", "ios": "https://dc.lft.to/lastmile_qr_scan"}, "name": "e35f35eb84947bcf593f3de359d0a0cf", "is_reserved": 0}, {"is_disabled": 0, "fusion_lon": 0.0, "fusion_lat": 0.0, "lat": 38.918142833333334, "type": "electric_scooter", "lon": -77.0417515, "bike_id": "84f37225923a49d1da24a13ae11560ef", "rental_uris": {"android": "https://dc.lft.to/lastmile_qr_scan", "ios": "https://dc.lft.to/lastmile_qr_scan"}, "name": "84f37225923a49d1da24a13ae11560ef", "is_reserved": 0}, {"is_disabled": 0, "fusion_lon": 0.0, "fusion_lat": 0.0, "lat": 38.8947615, "type": "electric_scooter", "lon": -77.02217633333333, "bike_id": "7bd490f4a5c56829dadcf097facaf71a", "rental_uris": {"android": "https://dc.lft.to/lastmile_qr_scan", "ios": "https://dc.lft.to/lastmile_qr_scan"}, "name": "7bd490f4a5c56829dadcf097facaf71a", "is_reserved": 0}, {"is_disabled": 0, "fusion_lon": 0.0, "fusion_lat": 0.0, "lat": 38.87826, "type": "electric_scooter", "lon": -76.96318049999999, "bike_id": "16c1d09365adaf92cf4436c5e008c510", "rental_uris": {"android": "https://dc.lft.to/lastmile_qr_scan", "ios": "https://dc.lft.to/lastmile_qr_scan"}, "name": "16c1d09365adaf92cf4436c5e008c510", "is_reserved": 0}, {"is_disabled": 0, "fusion_lon": 0.0, "fusion_lat": 0.0, "lat": 38.895030166666665, "type": "electric_scooter", "lon": -77.0228845, "bike_id": "3cf6da098408acdab2d4bba8096eff23", "rental_uris": {"android": "https://dc.lft.to/lastmile_qr_scan", "ios": "https://dc.lft.to/lastmile_qr_scan"}, "name": "3cf6da098408acdab2d4bba8096eff23", "is_reserved": 0}, {"is_disabled": 0, "fusion_lon": 0.0, "fusion_lat": 0.0, "lat": 38.92565483333333, "type": "electric_scooter", "lon": -77.05276133333334, "bike_id": "5a13f2170021d9a1cc958c51158bb230", "rental_uris": {"android": "https://dc.lft.to/lastmile_qr_scan", "ios": "https://dc.lft.to/lastmile_qr_scan"}, "name": "5a13f2170021d9a1cc958c51158bb230", "is_reserved": 0}, {"is_disabled": 0, "fusion_lon": 0.0, "fusion_lat": 0.0, "lat": 38.945207333333336, "type": "electric_scooter", "lon": -77.02983166666667, "bike_id": "94129e08ab772bc26c8c79004613906c", "rental_uris": {"android": "https://dc.lft.to/lastmile_qr_scan", "ios": "https://dc.lft.to/lastmile_qr_scan"}, "name": "94129e08ab772bc26c8c79004613906c", "is_reserved": 0}, {"is_disabled": 0, "fusion_lon": 0.0, "fusion_lat": 0.0, "lat": 38.90684233333333, "type": "electric_scooter", "lon": -77.031172, "bike_id": "178b5b97df9b2f98049d3ee6ca433ff7", "rental_uris": {"android": "https://dc.lft.to/lastmile_qr_scan", "ios": "https://dc.lft.to/lastmile_qr_scan"}, "name": "178b5b97df9b2f98049d3ee6ca433ff7", "is_reserved": 0}, {"is_disabled": 0, "fusion_lon": 0.0, "fusion_lat": 0.0, "lat": 38.9168875, "type": "electric_scooter", "lon": -77.029908, "bike_id": "806077fbda8fcade11c5f3110bfd113a", "rental_uris": {"android": "https://dc.lft.to/lastmile_qr_scan", "ios": "https://dc.lft.to/lastmile_qr_scan"}, "name": "806077fbda8fcade11c5f3110bfd113a", "is_reserved": 0}, {"is_disabled": 0, "fusion_lon": 0.0, "fusion_lat": 0.0, "lat": 38.88374733333333, "type": "electric_scooter", "lon": -76.92377916666666, "bike_id": "7601cfabb0d2c41370274982601b21e1", "rental_uris": {"android": "https://dc.lft.to/lastmile_qr_scan", "ios": "https://dc.lft.to/lastmile_qr_scan"}, "name": "7601cfabb0d2c41370274982601b21e1", "is_reserved": 0}, {"is_disabled": 0, "fusion_lon": 0.0, "fusion_lat": 0.0, "lat": 38.9180845, "type": "electric_scooter", "lon": -77.0343765, "bike_id": "956507a495239a453c02650304e4e81e", "rental_uris": {"android": "https://dc.lft.to/lastmile_qr_scan", "ios": "https://dc.lft.to/lastmile_qr_scan"}, "name": "956507a495239a453c02650304e4e81e", "is_reserved": 0}, {"is_disabled": 0, "fusion_lon": 0.0, "fusion_lat": 0.0, "lat": 38.915455666666666, "type": "electric_scooter", "lon": -77.0417675, "bike_id": "a7f2243983409e000c5d8916fa0f8ee8", "rental_uris": {"android": "https://dc.lft.to/lastmile_qr_scan", "ios": "https://dc.lft.to/lastmile_qr_scan"}, "name": "a7f2243983409e000c5d8916fa0f8ee8", "is_reserved": 0}, {"is_disabled": 0, "fusion_lon": 0.0, "fusion_lat": 0.0, "lat": 38.902463, "type": "electric_scooter", "lon": -77.05405483333334, "bike_id": "abff8a8996e4592be52bc76497c4a67e", "rental_uris": {"android": "https://dc.lft.to/lastmile_qr_scan", "ios": "https://dc.lft.to/lastmile_qr_scan"}, "name": "abff8a8996e4592be52bc76497c4a67e", "is_reserved": 0}, {"is_disabled": 0, "fusion_lon": 0.0, "fusion_lat": 0.0, "lat": 38.916421, "type": "electric_scooter", "lon": -77.04082116666666, "bike_id": "21531d4f43c77129d995bb82e398ede6", "rental_uris": {"android": "https://dc.lft.to/lastmile_qr_scan", "ios": "https://dc.lft.to/lastmile_qr_scan"}, "name": "21531d4f43c77129d995bb82e398ede6", "is_reserved": 0}, {"is_disabled": 0, "fusion_lon": 0.0, "fusion_lat": 0.0, "lat": 38.90701083333333, "type": "electric_scooter", "lon": -77.02890366666666, "bike_id": "e67d96ca24745afe1769914ff73ab36b", "rental_uris": {"android": "https://dc.lft.to/lastmile_qr_scan", "ios": "https://dc.lft.to/lastmile_qr_scan"}, "name": "e67d96ca24745afe1769914ff73ab36b", "is_reserved": 0}, {"is_disabled": 0, "fusion_lon": 0.0, "fusion_lat": 0.0, "lat": 38.992506166666665, "type": "electric_bike", "lon": -77.049957, "bike_id": "175bff50013ff14510f9dde8afeca15b", "rental_uris": {"android": "https://dc.lft.to/lastmile_qr_scan", "ios": "https://dc.lft.to/lastmile_qr_scan"}, "name": "175bff50013ff14510f9dde8afeca15b", "is_reserved": 0}, {"is_disabled": 0, "fusion_lon": 0.0, "fusion_lat": 0.0, "lat": 38.91762933333333, "type": "electric_scooter", "lon": -77.03595983333334, "bike_id": "2dda21901aaf1cf795e532ccbc57015e", "rental_uris": {"android": "https://dc.lft.to/lastmile_qr_scan", "ios": "https://dc.lft.to/lastmile_qr_scan"}, "name": "2dda21901aaf1cf795e532ccbc57015e", "is_reserved": 0}, {"is_disabled": 0, "fusion_lon": 0.0, "fusion_lat": 0.0, "lat": 38.908555666666665, "type": "electric_scooter", "lon": -77.04328566666666, "bike_id": "9ee5e98d4524f5518e12f441f9c7d266", "rental_uris": {"android": "https://dc.lft.to/lastmile_qr_scan", "ios": "https://dc.lft.to/lastmile_qr_scan"}, "name": "9ee5e98d4524f5518e12f441f9c7d266", "is_reserved": 0}, {"is_disabled": 0, "fusion_lon": 0.0, "fusion_lat": 0.0, "lat": 38.950805333333335, "type": "electric_scooter", "lon": -77.028749, "bike_id": "d64d7a9145bc6342bbab598bb627b79b", "rental_uris": {"android": "https://dc.lft.to/lastmile_qr_scan", "ios": "https://dc.lft.to/lastmile_qr_scan"}, "name": "d64d7a9145bc6342bbab598bb627b79b", "is_reserved": 0}, {"is_disabled": 0, "fusion_lon": 0.0, "fusion_lat": 0.0, "lat": 38.920537333333336, "type": "electric_scooter", "lon": -76.99875533333334, "bike_id": "5dc44edd0bfc4f0a0aae7c7a9647ebfd", "rental_uris": {"android": "https://dc.lft.to/lastmile_qr_scan", "ios": "https://dc.lft.to/lastmile_qr_scan"}, "name": "5dc44edd0bfc4f0a0aae7c7a9647ebfd", "is_reserved": 0}, {"is_disabled": 0, "fusion_lon": 0.0, "fusion_lat": 0.0, "lat": 38.90576933333333, "type": "electric_scooter", "lon": -77.04179816666667, "bike_id": "38c284007250903cd9ddbf256a6d0090", "rental_uris": {"android": "https://dc.lft.to/lastmile_qr_scan", "ios": "https://dc.lft.to/lastmile_qr_scan"}, "name": "38c284007250903cd9ddbf256a6d0090", "is_reserved": 0}, {"is_disabled": 0, "fusion_lon": 0.0, "fusion_lat": 0.0, "lat": 38.93188833333333, "type": "electric_bike", "lon": -77.22944866666667, "bike_id": "d3b18dc8083e324d0d87bb95e458b52c", "rental_uris": {"android": "https://dc.lft.to/lastmile_qr_scan", "ios": "https://dc.lft.to/lastmile_qr_scan"}, "name": "d3b18dc8083e324d0d87bb95e458b52c", "is_reserved": 0}, {"is_disabled": 0, "fusion_lon": 0.0, "fusion_lat": 0.0, "lat": 38.92575516666667, "type": "electric_scooter", "lon": -77.0805635, "bike_id": "ff0e0f1dc82b7ab3c6c93ac6eae57d2c", "rental_uris": {"android": "https://dc.lft.to/lastmile_qr_scan", "ios": "https://dc.lft.to/lastmile_qr_scan"}, "name": "ff0e0f1dc82b7ab3c6c93ac6eae57d2c", "is_reserved": 0}, {"is_disabled": 0, "fusion_lon": 0.0, "fusion_lat": 0.0, "lat": 38.93966533333333, "type": "electric_bike", "lon": -77.3609465, "bike_id": "284460e1edc207a1d705e0f53903690f", "rental_uris": {"android": "https://dc.lft.to/lastmile_qr_scan", "ios": "https://dc.lft.to/lastmile_qr_scan"}, "name": "284460e1edc207a1d705e0f53903690f", "is_reserved": 0}, {"is_disabled": 0, "fusion_lon": 0.0, "fusion_lat": 0.0, "lat": 38.924633666666665, "type": "electric_scooter", "lon": -77.07869183333334, "bike_id": "340de689b947eab5028a03355b58c589", "rental_uris": {"android": "https://dc.lft.to/lastmile_qr_scan", "ios": "https://dc.lft.to/lastmile_qr_scan"}, "name": "340de689b947eab5028a03355b58c589", "is_reserved": 0}, {"is_disabled": 0, "fusion_lon": 0.0, "fusion_lat": 0.0, "lat": 38.9057895, "type": "electric_scooter", "lon": -77.05591033333333, "bike_id": "89ea9fdfecc8e50b721177993f9dd90c", "rental_uris": {"android": "https://dc.lft.to/lastmile_qr_scan", "ios": "https://dc.lft.to/lastmile_qr_scan"}, "name": "89ea9fdfecc8e50b721177993f9dd90c", "is_reserved": 0}, {"is_disabled": 0, "fusion_lon": 0.0, "fusion_lat": 0.0, "lat": 38.922911166666665, "type": "electric_scooter", "lon": -77.0446695, "bike_id": "a7dc6bbe37639143fefe49115bb7cff8", "rental_uris": {"android": "https://dc.lft.to/lastmile_qr_scan", "ios": "https://dc.lft.to/lastmile_qr_scan"}, "name": "a7dc6bbe37639143fefe49115bb7cff8", "is_reserved": 0}, {"is_disabled": 0, "fusion_lon": 0.0, "fusion_lat": 0.0, "lat": 38.90293666666667, "type": "electric_scooter", "lon": -77.0489195, "bike_id": "dc6238456e7354ebcb831d69d61cfe40", "rental_uris": {"android": "https://dc.lft.to/lastmile_qr_scan", "ios": "https://dc.lft.to/lastmile_qr_scan"}, "name": "dc6238456e7354ebcb831d69d61cfe40", "is_reserved": 0}, {"is_disabled": 0, "fusion_lon": 0.0, "fusion_lat": 0.0, "lat": 38.914581166666665, "type": "electric_scooter", "lon": -76.9844095, "bike_id": "beaf9d0cc2e3fb8182379c801204f559", "rental_uris": {"android": "https://dc.lft.to/lastmile_qr_scan", "ios": "https://dc.lft.to/lastmile_qr_scan"}, "name": "beaf9d0cc2e3fb8182379c801204f559", "is_reserved": 0}, {"is_disabled": 0, "fusion_lon": 0.0, "fusion_lat": 0.0, "lat": 38.895223, "type": "electric_scooter", "lon": -77.04849533333334, "bike_id": "a6e6f3f936918a4de6cd32b837dc9791", "rental_uris": {"android": "https://dc.lft.to/lastmile_qr_scan", "ios": "https://dc.lft.to/lastmile_qr_scan"}, "name": "a6e6f3f936918a4de6cd32b837dc9791", "is_reserved": 0}, {"is_disabled": 0, "fusion_lon": 0.0, "fusion_lat": 0.0, "lat": 38.94073816666667, "type": "electric_scooter", "lon": -77.02877216666667, "bike_id": "9fcf7eeb3d475cb5f1b444a080573d4e", "rental_uris": {"android": "https://dc.lft.to/lastmile_qr_scan", "ios": "https://dc.lft.to/lastmile_qr_scan"}, "name": "9fcf7eeb3d475cb5f1b444a080573d4e", "is_reserved": 0}, {"is_disabled": 0, "fusion_lon": 0.0, "fusion_lat": 0.0, "lat": 38.9073015, "type": "electric_scooter", "lon": -77.02946733333333, "bike_id": "b5a37b4938e2d6bbfff5b0f91e04eb84", "rental_uris": {"android": "https://dc.lft.to/lastmile_qr_scan", "ios": "https://dc.lft.to/lastmile_qr_scan"}, "name": "b5a37b4938e2d6bbfff5b0f91e04eb84", "is_reserved": 0}, {"is_disabled": 0, "fusion_lon": 0.0, "fusion_lat": 0.0, "lat": 38.9210055, "type": "electric_scooter", "lon": -77.017687, "bike_id": "65acf82a5e0ec3972ce81e7bd12fb1a9", "rental_uris": {"android": "https://dc.lft.to/lastmile_qr_scan", "ios": "https://dc.lft.to/lastmile_qr_scan"}, "name": "65acf82a5e0ec3972ce81e7bd12fb1a9", "is_reserved": 0}, {"is_disabled": 0, "fusion_lon": 0.0, "fusion_lat": 0.0, "lat": 38.8775815, "type": "electric_bike", "lon": -76.979973, "bike_id": "5d6abbb97f5bc175761446366270faf9", "rental_uris": {"android": "https://dc.lft.to/lastmile_qr_scan", "ios": "https://dc.lft.to/lastmile_qr_scan"}, "name": "5d6abbb97f5bc175761446366270faf9", "is_reserved": 0}, {"is_disabled": 0, "fusion_lon": 0.0, "fusion_lat": 0.0, "lat": 38.89371466666667, "type": "electric_scooter", "lon": -76.95003183333333, "bike_id": "25883aaed716b619dd430dc9baf18f44", "rental_uris": {"android": "https://dc.lft.to/lastmile_qr_scan", "ios": "https://dc.lft.to/lastmile_qr_scan"}, "name": "25883aaed716b619dd430dc9baf18f44", "is_reserved": 0}, {"is_disabled": 0, "fusion_lon": 0.0, "fusion_lat": 0.0, "lat": 38.861324333333336, "type": "electric_scooter", "lon": -76.98531916666667, "bike_id": "f11bf6bff2f7d8f74ad26f47e5dca27b", "rental_uris": {"android": "https://dc.lft.to/lastmile_qr_scan", "ios": "https://dc.lft.to/lastmile_qr_scan"}, "name": "f11bf6bff2f7d8f74ad26f47e5dca27b", "is_reserved": 0}, {"is_disabled": 0, "fusion_lon": 0.0, "fusion_lat": 0.0, "lat": 38.9362695, "type": "electric_scooter", "lon": -77.0590535, "bike_id": "cac68972d784dd3465f47c6c01a84030", "rental_uris": {"android": "https://dc.lft.to/lastmile_qr_scan", "ios": "https://dc.lft.to/lastmile_qr_scan"}, "name": "cac68972d784dd3465f47c6c01a84030", "is_reserved": 0}, {"is_disabled": 0, "fusion_lon": 0.0, "fusion_lat": 0.0, "lat": 38.911862, "type": "electric_scooter", "lon": -77.03508516666666, "bike_id": "8764b701838fe1ea7ff27d40c2f32c67", "rental_uris": {"android": "https://dc.lft.to/lastmile_qr_scan", "ios": "https://dc.lft.to/lastmile_qr_scan"}, "name": "8764b701838fe1ea7ff27d40c2f32c67", "is_reserved": 0}, {"is_disabled": 0, "fusion_lon": 0.0, "fusion_lat": 0.0, "lat": 38.89676383333333, "type": "electric_scooter", "lon": -76.997917, "bike_id": "63ed7fe3a4e941fd4dc2fbb8d20267a8", "rental_uris": {"android": "https://dc.lft.to/lastmile_qr_scan", "ios": "https://dc.lft.to/lastmile_qr_scan"}, "name": "63ed7fe3a4e941fd4dc2fbb8d20267a8", "is_reserved": 0}, {"is_disabled": 0, "fusion_lon": 0.0, "fusion_lat": 0.0, "lat": 38.88587616666667, "type": "electric_bike", "lon": -76.9961125, "bike_id": "56d5dd042a901477bfb74661f2e04689", "rental_uris": {"android": "https://dc.lft.to/lastmile_qr_scan", "ios": "https://dc.lft.to/lastmile_qr_scan"}, "name": "56d5dd042a901477bfb74661f2e04689", "is_reserved": 0}, {"is_disabled": 0, "fusion_lon": 0.0, "fusion_lat": 0.0, "lat": 38.928468333333335, "type": "electric_scooter", "lon": -77.014202, "bike_id": "3862e74142be767bdb944ebabaa563e7", "rental_uris": {"android": "https://dc.lft.to/lastmile_qr_scan", "ios": "https://dc.lft.to/lastmile_qr_scan"}, "name": "3862e74142be767bdb944ebabaa563e7", "is_reserved": 0}, {"is_disabled": 0, "fusion_lon": 0.0, "fusion_lat": 0.0, "lat": 38.90159666666667, "type": "electric_scooter", "lon": -77.02929283333333, "bike_id": "a7b3a48c8886f4d2dde1de46275740ef", "rental_uris": {"android": "https://dc.lft.to/lastmile_qr_scan", "ios": "https://dc.lft.to/lastmile_qr_scan"}, "name": "a7b3a48c8886f4d2dde1de46275740ef", "is_reserved": 0}, {"is_disabled": 0, "fusion_lon": 0.0, "fusion_lat": 0.0, "lat": 38.9270905, "type": "electric_scooter", "lon": -77.02328816666666, "bike_id": "e19f71ab06e2b14eb2abc50ef87300b6", "rental_uris": {"android": "https://dc.lft.to/lastmile_qr_scan", "ios": "https://dc.lft.to/lastmile_qr_scan"}, "name": "e19f71ab06e2b14eb2abc50ef87300b6", "is_reserved": 0}, {"is_disabled": 0, "fusion_lon": 0.0, "fusion_lat": 0.0, "lat": 38.934635, "type": "electric_scooter", "lon": -77.07213066666667, "bike_id": "620bdf2f20ef33ad22b2661510c55f61", "rental_uris": {"android": "https://dc.lft.to/lastmile_qr_scan", "ios": "https://dc.lft.to/lastmile_qr_scan"}, "name": "620bdf2f20ef33ad22b2661510c55f61", "is_reserved": 0}, {"is_disabled": 0, "fusion_lon": 0.0, "fusion_lat": 0.0, "lat": 38.90047, "type": "electric_scooter", "lon": -76.92275616666667, "bike_id": "f262a65368bf74960e0660d81f1a1717", "rental_uris": {"android": "https://dc.lft.to/lastmile_qr_scan", "ios": "https://dc.lft.to/lastmile_qr_scan"}, "name": "f262a65368bf74960e0660d81f1a1717", "is_reserved": 0}, {"is_disabled": 0, "fusion_lon": 0.0, "fusion_lat": 0.0, "lat": 38.927345333333335, "type": "electric_scooter", "lon": -77.02246183333334, "bike_id": "92e5f430a3d0439bd25760ed252f1b19", "rental_uris": {"android": "https://dc.lft.to/lastmile_qr_scan", "ios": "https://dc.lft.to/lastmile_qr_scan"}, "name": "92e5f430a3d0439bd25760ed252f1b19", "is_reserved": 0}, {"is_disabled": 0, "fusion_lon": 0.0, "fusion_lat": 0.0, "lat": 38.936752166666665, "type": "electric_scooter", "lon": -77.0248115, "bike_id": "2ef1a3acd37f6cd8bc70723b3216e2ac", "rental_uris": {"android": "https://dc.lft.to/lastmile_qr_scan", "ios": "https://dc.lft.to/lastmile_qr_scan"}, "name": "2ef1a3acd37f6cd8bc70723b3216e2ac", "is_reserved": 0}, {"is_disabled": 0, "fusion_lon": 0.0, "fusion_lat": 0.0, "lat": 38.95326566666667, "type": "electric_scooter", "lon": -77.06855583333333, "bike_id": "9a3b9604e774d276b893c9ca18df6ac9", "rental_uris": {"android": "https://dc.lft.to/lastmile_qr_scan", "ios": "https://dc.lft.to/lastmile_qr_scan"}, "name": "9a3b9604e774d276b893c9ca18df6ac9", "is_reserved": 0},