{"data": {"bikes": [{"fusion_lat": 0.0, "name": "93ec9827b9e954ae4ca011e2167b4030", "is_disabled": 0, "rental_uris": {"android": "https://dc.lft.to/lastmile_qr_scan", "ios": "https://dc.lft.to/lastmile_qr_scan"}, "fusion_lon": 0.0, "lat": 38.904081833333336, "bike_id": "93ec9827b9e954ae4ca011e2167b4030", "type": "electric_scooter", "is_reserved": 0, "lon": -76.97333833333333}, {"fusion_lat": 0.0, "name": "88d64820db90bd0ca399b494cd4d724f", "is_disabled": 0, "rental_uris": {"android": "https://dc.lft.to/lastmile_qr_scan", "ios": "https://dc.lft.to/lastmile_qr_scan"}, "fusion_lon": 0.0, "lat": 38.8442285, "bike_id": "88d64820db90bd0ca399b494cd4d724f", "type": "electric_scooter", "is_reserved": 0, "lon": -76.99786333333333}, {"fusion_lat": 0.0, "name": "7df0e66ca844718e6a66babe30e2a1b6", "is_disabled": 0, "rental_uris": {"android": "https://dc.lft.to/lastmile_qr_scan", "ios": "https://dc.lft.to/lastmile_qr_scan"}, "fusion_lon": 0.0, "lat": 38.90760083333333, "bike_id": "7df0e66ca844718e6a66babe30e2a1b6", "type": "electric_scooter", "is_reserved": 0, "lon": -77.03551283333333}, {"fusion_lat": 0.0, "name": "f5f209dff873858fe356b44164cdb237", "is_disabled": 0, "rental_uris": {"android": "https://dc.lft.to/lastmile_qr_scan", "ios": "https://dc.lft.to/lastmile_qr_scan"}, "fusion_lon": 0.0, "lat": 38.852027, "bike_id": "f5f209dff873858fe356b44164cdb237", "type": "electric_bike", "is_reserved": 0, "lon": -76.96295566666667}, {"fusion_lat": 0.0, "name": "8d74fc67be3c371a86f052cc9c13200c", "is_disabled": 0, "rental_uris": {"android": "https://dc.lft.to/lastmile_qr_scan", "ios": "https://dc.lft.to/lastmile_qr_scan"}, "fusion_lon": 0.0, "lat": 38.91683483333333, "bike_id": "8d74fc67be3c371a86f052cc9c13200c", "type": "electric_scooter", "is_reserved": 0, "lon": -77.02711666666667}, {"fusion_lat": 0.0, "name": "2fc34e1253e491435f1107e303adbbe2", "is_disabled": 0, "rental_uris": {"android": "https://dc.lft.to/lastmile_qr_scan", "ios": "https://dc.lft.to/lastmile_qr_scan"}, "fusion_lon": 0.0, "lat": 38.84762416666667, "bike_id": "2fc34e1253e491435f1107e303adbbe2", "type": "electric_bike", "is_reserved": 0, "lon": -76.966438}, {"fusion_lat": 0.0, "name": "fa5af48661aeda2ee7ebee41f33ccab0", "is_disabled": 0, "rental_uris": {"android": "https://dc.lft.to/lastmile_qr_scan", "ios": "https://dc.lft.to/lastmile_qr_scan"}, "fusion_lon": 0.0, "lat": 38.895884333333335, "bike_id": "fa5af48661aeda2ee7ebee41f33ccab0", "type": "electric_scooter", "is_reserved": 0, "lon": -77.02200083333334}, {"fusion_lat": 0.0, "name": "d1e6ee5b43cb8c2cec02596b26311b02", "is_disabled": 0, "rental_uris": {"android": "https://dc.lft.to/lastmile_qr_scan", "ios": "https://dc.lft.to/lastmile_qr_scan"}, "fusion_lon": 0.0, "lat": 38.924797833333336, "bike_id": "d1e6ee5b43cb8c2cec02596b26311b02", "type": "electric_scooter", "is_reserved": 0, "lon": -77.05220066666666}, {"fusion_lat": 0.0, "name": "e4ddc88e9953947fbf08a6f61f060727", "is_disabled": 0, "rental_uris": {"android": "https://dc.lft.to/lastmile_qr_scan", "ios": "https://dc.lft.to/lastmile_qr_scan"}, "fusion_lon": 0.0, "lat": 38.8867825, "bike_id": "e4ddc88e9953947fbf08a6f61f060727", "type": "electric_scooter", "is_reserved": 0, "lon": -77.00201066666666}, {"fusion_lat": 0.0, "name": "f65ef51d683dbad43db02e883317a579", "is_disabled": 0, "rental_uris": {"android": "https://dc.lft.to/lastmile_qr_scan", "ios": "https://dc.lft.to/lastmile_qr_scan"}, "fusion_lon": 0.0, "lat": 38.92443266666667, "bike_id": "f65ef51d683dbad43db02e883317a579", "type": "electric_scooter", "is_reserved": 0, "lon": -77.0187175}, {"fusion_lat": 0.0, "name": "acb055f8a3f96a40ca93796e3492247a", "is_disabled": 0, "rental_uris": {"android": "https://dc.lft.to/lastmile_qr_scan", "ios": "https://dc.lft.to/lastmile_qr_scan"}, "fusion_lon": 0.0, "lat": 38.917242333333334, "bike_id": "acb055f8a3f96a40ca93796e3492247a", "type": "electric_scooter", "is_reserved": 0, "lon": -77.0290035}, {"fusion_lat": 0.0, "name": "ba104380d55a39ebe41e89e9e09d4546", "is_disabled": 0, "rental_uris": {"android": "https://dc.lft.to/lastmile_qr_scan", "ios": "https://dc.lft.to/lastmile_qr_scan"}, "fusion_lon": 0.0, "lat": 38.900769333333336, "bike_id": "ba104380d55a39ebe41e89e9e09d4546", "type": "electric_scooter", "is_reserved": 0, "lon": -77.04775016666666}, {"fusion_lat": 0.0, "name": "4d8aab2f942db31c4fb22ee281bb8ff2", "is_disabled": 0, "rental_uris": {"android": "https://dc.lft.to/lastmile_qr_scan", "ios": "https://dc.lft.to/lastmile_qr_scan"}, "fusion_lon": 0.0, "lat": 38.883773166666664, "bike_id": "4d8aab2f942db31c4fb22ee281bb8ff2", "type": "electric_scooter", "is_reserved": 0, "lon": -77.005271}, {"fusion_lat": 0.0, "name": "89a157fd5b4f5fb2256edf14be1d42ec", "is_disabled": 0, "rental_uris": {"android": "https://dc.lft.to/lastmile_qr_scan", "ios": "https://dc.lft.to/lastmile_qr_scan"}, "fusion_lon": 0.0, "lat": 38.9348025, "bike_id": "89a157fd5b4f5fb2256edf14be1d42ec", "type": "electric_scooter", "is_reserved": 0, "lon": -77.03413216666667}, {"fusion_lat": 0.0, "name": "be0babd52c775f7bb4e2d66892e04f03", "is_disabled": 0, "rental_uris": {"android": "https://dc.lft.to/lastmile_qr_scan", "ios": "https://dc.lft.to/lastmile_qr_scan"}, "fusion_lon": 0.0, "lat": 38.9059875, "bike_id": "be0babd52c775f7bb4e2d66892e04f03", "type": "electric_scooter", "is_reserved": 0, "lon": -77.06299783333333}, {"fusion_lat": 0.0, "name": "f6d6d23b27e2b0b5a65f91ad31fc12ab", "is_disabled": 0, "rental_uris": {"android": "https://dc.lft.to/lastmile_qr_scan", "ios": "https://dc.lft.to/lastmile_qr_scan"}, "fusion_lon": 0.0, "lat": 38.896052166666664, "bike_id": "f6d6d23b27e2b0b5a65f91ad31fc12ab", "type": "electric_scooter", "is_reserved": 0, "lon": -77.0095905}, {"fusion_lat": 0.0, "name": "c8e24cb6dcffac5205a2a0e58f0d6403", "is_disabled": 0, "rental_uris": {"android": "https://dc.lft.to/lastmile_qr_scan", "ios": "https://dc.lft.to/lastmile_qr_scan"}, "fusion_lon": 0.0, "lat": 38.92111633333333, "bike_id": "c8e24cb6dcffac5205a2a0e58f0d6403", "type": "electric_scooter", "is_reserved": 0, "lon": -77.063332}, {"fusion_lat": 0.0, "name": "de871888212fe7d321a3e7648bf17783", "is_disabled": 0, "rental_uris": {"android": "https://dc.lft.to/lastmile_qr_scan", "ios": "https://dc.lft.to/lastmile_qr_scan"}, "fusion_lon": 0.0, "lat": 38.892199166666664, "bike_id": "de871888212fe7d321a3e7648bf17783", "type": "electric_scooter", "is_reserved": 0, "lon": -77.04869533333333}, {"fusion_lat": 0.0, "name": "4f5acbf1e05a87b51849de10959df180", "is_disabled": 0, "rental_uris": {"android": "https://dc.lft.to/lastmile_qr_scan", "ios": "https://dc.lft.to/lastmile_qr_scan"}, "fusion_lon": 0.0, "lat": 38.91770416666667, "bike_id": "4f5acbf1e05a87b51849de10959df180", "type": "electric_scooter", "is_reserved": 0, "lon": -77.02812933333334}, {"fusion_lat": 0.0, "name": "c6748dbead433b6853449532662151b6", "is_disabled": 0, "rental_uris": {"android": "https://dc.lft.to/lastmile_qr_scan", "ios": "https://dc.lft.to/lastmile_qr_scan"}, "fusion_lon": 0.0, "lat": 38.824598333333334, "bike_id": "c6748dbead433b6853449532662151b6", "type": "electric_bike", "is_reserved": 0, "lon": -77.008082}, {"fusion_lat": 0.0, "name": "2385e2a77edf5b9359ad98ccf9e7d0d0", "is_disabled": 0, "rental_uris": {"android": "https://dc.lft.to/lastmile_qr_scan", "ios": "https://dc.lft.to/lastmile_qr_scan"}, "fusion_lon": 0.0, "lat": 38.90272566666667, "bike_id": "2385e2a77edf5b9359ad98ccf9e7d0d0", "type": "electric_scooter", "is_reserved": 0, "lon": -77.03981683333333}, {"fusion_lat": 0.0, "name": "9378faddbdde7a932dc51b2d8d3afe29", "is_disabled": 0, "rental_uris": {"android": "https://dc.lft.to/lastmile_qr_scan", "ios": "https://dc.lft.to/lastmile_qr_scan"}, "fusion_lon": 0.0, "lat": 38.94405233333333, "bike_id": "9378faddbdde7a932dc51b2d8d3afe29", "type": "electric_scooter", "is_reserved": 0, "lon": -77.03863516666667}, {"fusion_lat": 0.0, "name": "4e2460670aa0dfe80364783813fe1f88", "is_disabled": 0, "rental_uris": {"android": "https://dc.lft.to/lastmile_qr_scan", "ios": "https://dc.lft.to/lastmile_qr_scan"}, "fusion_lon": 0.0, "lat": 38.905496666666664, "bike_id": "4e2460670aa0dfe80364783813fe1f88", "type": "electric_scooter", "is_reserved": 0, "lon": -77.02967883333334}, {"fusion_lat": 0.0, "name": "9e34d53cdfe5ec3806d3c8e5a0348660", "is_disabled": 0, "rental_uris": {"android": "https://dc.lft.to/lastmile_qr_scan", "ios": "https://dc.lft.to/lastmile_qr_scan"}, "fusion_lon": 0.0, "lat": 38.899017, "bike_id": "9e34d53cdfe5ec3806d3c8e5a0348660", "type": "electric_scooter", "is_reserved": 0, "lon": -76.9455405}, {"fusion_lat": 0.0, "name": "75c1a56165ebde21a5c50033d2b2d9ca", "is_disabled": 0, "rental_uris": {"android": "https://dc.lft.to/lastmile_qr_scan", "ios": "https://dc.lft.to/lastmile_qr_scan"}, "fusion_lon": 0.0, "lat": 38.914031333333334, "bike_id": "75c1a56165ebde21a5c50033d2b2d9ca", "type": "electric_scooter", "is_reserved": 0, "lon": -77.00849966666667}, {"fusion_lat": 0.0, "name": "6e19a800309ce58365330478bd5ba3c6", "is_disabled": 0, "rental_uris": {"android": "https://dc.lft.to/lastmile_qr_scan", "ios": "https://dc.lft.to/lastmile_qr_scan"}, "fusion_lon": 0.0, "lat": 38.84294666666667, "bike_id": "6e19a800309ce58365330478bd5ba3c6", "type": "electric_bike", "is_reserved": 0, "lon": -77.10874266666667}, {"fusion_lat": 0.0, "name": "50049d3b5e9d6a706cfe8e40977fbbf0", "is_disabled": 0, "rental_uris": {"android": "https://dc.lft.to/lastmile_qr_scan", "ios": "https://dc.lft.to/lastmile_qr_scan"}, "fusion_lon": 0.0, "lat": 38.94733, "bike_id": "50049d3b5e9d6a706cfe8e40977fbbf0", "type": "electric_scooter", "is_reserved": 0, "lon": -77.01619216666667}, {"fusion_lat": 0.0, "name": "6ffafb49faf56fe7ade56aa318d5cf86", "is_disabled": 0, "rental_uris": {"android": "https://dc.lft.to/lastmile_qr_scan", "ios": "https://dc.lft.to/lastmile_qr_scan"}, "fusion_lon": 0.0, "lat": 38.929665, "bike_id": "6ffafb49faf56fe7ade56aa318d5cf86", "type": "electric_scooter", "is_reserved": 0, "lon": -77.0197475}, {"fusion_lat": 0.0, "name": "85f901126ad62914015e42af59348ff7", "is_disabled": 0, "rental_uris": {"android": "https://dc.lft.to/lastmile_qr_scan", "ios": "https://dc.lft.to/lastmile_qr_scan"}, "fusion_lon": 0.0, "lat": 38.90442433333333, "bike_id": "85f901126ad62914015e42af59348ff7", "type": "electric_scooter", "is_reserved": 0, "lon": -77.0602325}, {"fusion_lat": 0.0, "name": "0d036bb6a18e536b3436b05d72e36607", "is_disabled": 0, "rental_uris": {"android": "https://dc.lft.to/lastmile_qr_scan", "ios": "https://dc.lft.to/lastmile_qr_scan"}, "fusion_lon": 0.0, "lat": 38.90004016666666, "bike_id": "0d036bb6a18e536b3436b05d72e36607", "type": "electric_bike", "is_reserved": 0, "lon": -76.99839383333334}, {"fusion_lat": 0.0, "name": "55fa16afb8aed796e6c76a2818d75288", "is_disabled": 0, "rental_uris": {"android": "https://dc.lft.to/lastmile_qr_scan", "ios": "https://dc.lft.to/lastmile_qr_scan"}, "fusion_lon": 0.0, "lat": 38.916604, "bike_id": "55fa16afb8aed796e6c76a2818d75288", "type": "electric_scooter", "is_reserved": 0, "lon": -77.04390483333333}, {"fusion_lat": 0.0, "name": "325b77ac948136a3ecb82923550571d1", "is_disabled": 0, "rental_uris": {"android": "https://dc.lft.to/lastmile_qr_scan", "ios": "https://dc.lft.to/lastmile_qr_scan"}, "fusion_lon": 0.0, "lat": 38.9340435, "bike_id": "325b77ac948136a3ecb82923550571d1", "type": "electric_bike", "is_reserved": 0, "lon": -77.04309266666667}, {"fusion_lat": 0.0, "name": "a2ea10a3ca21bea64c958862f74acfa6", "is_disabled": 0, "rental_uris": {"android": "https://dc.lft.to/lastmile_qr_scan", "ios": "https://dc.lft.to/lastmile_qr_scan"}, "fusion_lon": 0.0, "lat": 38.915623333333336, "bike_id": "a2ea10a3ca21bea64c958862f74acfa6", "type": "electric_scooter", "is_reserved": 0, "lon": -77.03114766666667}, {"fusion_lat": 0.0, "name": "0b965b6265e030574e8853a5d10e1138", "is_disabled": 0, "rental_uris": {"android": "https://dc.lft.to/lastmile_qr_scan", "ios": "https://dc.lft.to/lastmile_qr_scan"}, "fusion_lon": 0.0, "lat": 38.901022833333336, "bike_id": "0b965b6265e030574e8853a5d10e1138", "type": "electric_scooter", "is_reserved": 0, "lon": -77.025947}, {"fusion_lat": 0.0, "name": "d78f093c09fb48dbd61548d570dd80f5", "is_disabled": 0, "rental_uris": {"android": "https://dc.lft.to/lastmile_qr_scan", "ios": "https://dc.lft.to/lastmile_qr_scan"}, "fusion_lon": 0.0, "lat": 38.9054715, "bike_id": "d78f093c09fb48dbd61548d570dd80f5", "type": "electric_scooter", "is_reserved": 0, "lon": -77.049942}, {"fusion_lat": 0.0, "name": "2ba3dae27ebb1ecee67985eccd4f528f", "is_disabled": 0, "rental_uris": {"android": "https://dc.lft.to/lastmile_qr_scan", "ios": "https://dc.lft.to/lastmile_qr_scan"}, "fusion_lon": 0.0, "lat": 38.966692333333334, "bike_id": "2ba3dae27ebb1ecee67985eccd4f528f", "type": "electric_scooter", "is_reserved": 0, "lon": -77.0255195}, {"fusion_lat": 0.0, "name": "8f0c2c74164771d8828e1fdea407d93e", "is_disabled": 0, "rental_uris": {"android": "https://dc.lft.to/lastmile_qr_scan", "ios": "https://dc.lft.to/lastmile_qr_scan"}, "fusion_lon": 0.0, "lat": 38.901553166666666, "bike_id": "8f0c2c74164771d8828e1fdea407d93e", "type": "electric_scooter", "is_reserved": 0, "lon": -77.04169133333333}, {"fusion_lat": 0.0, "name": "a0395fa1621690ef1758b225e3646ecf", "is_disabled": 0, "rental_uris": {"android": "https://dc.lft.to/lastmile_qr_scan", "ios": "https://dc.lft.to/lastmile_qr_scan"}, "fusion_lon": 0.0, "lat": 38.906803833333335, "bike_id": "a0395fa1621690ef1758b225e3646ecf", "type": "electric_scooter", "is_reserved": 0, "lon": -77.07196316666666}, {"fusion_lat": 0.0, "name": "3740468f2607a380f6a08c339b0c2e4b", "is_disabled": 0, "rental_uris": {"android": "https://dc.lft.to/lastmile_qr_scan", "ios": "https://dc.lft.to/lastmile_qr_scan"}, "fusion_lon": 0.0, "lat": 38.934885, "bike_id": "3740468f2607a380f6a08c339b0c2e4b", "type": "electric_scooter", "is_reserved": 0, "lon": -77.045305}, {"fusion_lat": 0.0, "name": "e7dc025d5d14e0e03b10de58f4eebca4", "is_disabled": 0, "rental_uris": {"android": "https://dc.lft.to/lastmile_qr_scan", "ios": "https://dc.lft.to/lastmile_qr_scan"}, "fusion_lon": 0.0, "lat": 38.92861716666667, "bike_id": "e7dc025d5d14e0e03b10de58f4eebca4", "type": "electric_scooter", "is_reserved": 0, "lon": -77.0327405}, {"fusion_lat": 0.0, "name": "cf0edc3c0f6ed20b95ad58ac2d60210f", "is_disabled": 0, "rental_uris": {"android": "https://dc.lft.to/lastmile_qr_scan", "ios": "https://dc.lft.to/lastmile_qr_scan"}, "fusion_lon": 0.0, "lat": 38.900917666666665, "bike_id": "cf0edc3c0f6ed20b95ad58ac2d60210f", "type": "electric_scooter", "is_reserved": 0, "lon": -77.05692183333333}, {"fusion_lat": 0.0, "name": "cbe701065af4532a13f035b8e0f77fd6", "is_disabled": 0, "rental_uris": {"android": "https://dc.lft.to/lastmile_qr_scan", "ios": "https://dc.lft.to/lastmile_qr_scan"}, "fusion_lon": 0.0, "lat": 38.901144333333335, "bike_id": "cbe701065af4532a13f035b8e0f77fd6", "type": "electric_scooter", "is_reserved": 0, "lon": -77.02831766666667}, {"fusion_lat": 0.0, "name": "8397a01f5384acb038114591f0aee8c9", "is_disabled": 0, "rental_uris": {"android": "https://dc.lft.to/lastmile_qr_scan", "ios": "https://dc.lft.to/lastmile_qr_scan"}, "fusion_lon": 0.0, "lat": 38.8849885, "bike_id": "8397a01f5384acb038114591f0aee8c9", "type": "electric_scooter", "is_reserved": 0, "lon": -77.008927}, {"fusion_lat": 0.0, "name": "04bdd549a45f074f61ed8318017fd9ff", "is_disabled": 0, "rental_uris": {"android": "https://dc.lft.to/lastmile_qr_scan", "ios": "https://dc.lft.to/lastmile_qr_scan"}, "fusion_lon": 0.0, "lat": 38.898285, "bike_id": "04bdd549a45f074f61ed8318017fd9ff", "type": "electric_scooter", "is_reserved": 0, "lon": -77.02828966666667}, {"fusion_lat": 0.0, "name": "19f3a937c60cac233e745b8f5ef78200", "is_disabled": 0, "rental_uris": {"android": "https://dc.lft.to/lastmile_qr_scan", "ios": "https://dc.lft.to/lastmile_qr_scan"}, "fusion_lon": 0.0, "lat": 38.91104083333333, "bike_id": "19f3a937c60cac233e745b8f5ef78200", "type": "electric_scooter", "is_reserved": 0, "lon": -77.042064}, {"fusion_lat": 0.0, "name": "855e406c637463065e99377653d6fc38", "is_disabled": 0, "rental_uris": {"android": "https://dc.lft.to/lastmile_qr_scan", "ios": "https://dc.lft.to/lastmile_qr_scan"}, "fusion_lon": 0.0, "lat": 38.89669516666667, "bike_id": "855e406c637463065e99377653d6fc38", "type": "electric_scooter", "is_reserved": 0, "lon": -76.93209683333333}, {"fusion_lat": 0.0, "name": "c8e27b4a979857febbd1aa5161f12974", "is_disabled": 0, "rental_uris": {"android": "https://dc.lft.to/lastmile_qr_scan", "ios": "https://dc.lft.to/lastmile_qr_scan"}, "fusion_lon": 0.0, "lat": 38.93261566666666, "bike_id": "c8e27b4a979857febbd1aa5161f12974", "type": "electric_scooter", "is_reserved": 0, "lon": -77.0191705}, {"fusion_lat": 0.0, "name": "bb709091c49d99a5566b3bda6d290f93", "is_disabled": 0, "rental_uris": {"android": "https://dc.lft.to/lastmile_qr_scan", "ios": "https://dc.lft.to/lastmile_qr_scan"}, "fusion_lon": 0.0, "lat": 38.93241, "bike_id": "bb709091c49d99a5566b3bda6d290f93", "type": "electric_bike", "is_reserved": 0, "lon": -76.97424283333334}, {"fusion_lat": 0.0, "name": "653e317c8e629022edde791d8a4635a6", "is_disabled": 0, "rental_uris": {"android": "https://dc.lft.to/lastmile_qr_scan", "ios": "https://dc.lft.to/lastmile_qr_scan"}, "fusion_lon": 0.0, "lat": 38.92490466666667, "bike_id": "653e317c8e629022edde791d8a4635a6", "type": "electric_bike", "is_reserved": 0, "lon": -77.23344983333334}, {"fusion_lat": 0.0, "name": "db94e24083cc4586ad29bc6ac38fca79", "is_disabled": 0, "rental_uris": {"android": "https://dc.lft.to/lastmile_qr_scan", "ios": "https://dc.lft.to/lastmile_qr_scan"}, "fusion_lon": 0.0, "lat": 38.912684666666664, "bike_id": "db94e24083cc4586ad29bc6ac38fca79", "type": "electric_scooter", "is_reserved": 0, "lon": -77.03194416666666}, {"fusion_lat": 0.0, "name": "a1eea2551c703f95564f07766479a01c", "is_disabled": 0, "rental_uris": {"android": "https://dc.lft.to/lastmile_qr_scan", "ios": "https://dc.lft.to/lastmile_qr_scan"}, "fusion_lon": 0.0, "lat": 38.9317175, "bike_id": "a1eea2551c703f95564f07766479a01c", "type": "electric_scooter", "is_reserved": 0, "lon": -77.05645383333334}, {"fusion_lat": 0.0, "name": "991f91e6536d25e5a6b7b3421e13e0d2", "is_disabled": 0, "rental_uris": {"android": "https://dc.lft.to/lastmile_qr_scan", "ios": "https://dc.lft.to/lastmile_qr_scan"}, "fusion_lon": 0.0, "lat": 38.9007705, "bike_id": "991f91e6536d25e5a6b7b3421e13e0d2", "type": "electric_scooter", "is_reserved": 0, "lon": -77.01617183333333}, {"fusion_lat": 0.0, "name": "d32d07d517ab1ebefa62b94982cb1a56", "is_disabled": 0, "rental_uris": {"android": "https://dc.lft.to/lastmile_qr_scan", "ios": "https://dc.lft.to/lastmile_qr_scan"}, "fusion_lon": 0.0, "lat": 38.878981833333334, "bike_id": "d32d07d517ab1ebefa62b94982cb1a56", "type": "electric_scooter", "is_reserved": 0, "lon": -77.00568666666666}, {"fusion_lat": 0.0, "name": "8670fdcb3c10a5f8aa00f18a48a87019", "is_disabled": 0, "rental_uris": {"android": "https://dc.lft.to/lastmile_qr_scan", "ios": "https://dc.lft.to/lastmile_qr_scan"}, "fusion_lon": 0.0, "lat": 38.899293666666665, "bike_id": "8670fdcb3c10a5f8aa00f18a48a87019", "type": "electric_scooter", "is_reserved": 0, "lon": -77.0294725}, {"fusion_lat": 0.0, "name": "460c5fe2304fc28a5980bdfb1f16af7b", "is_disabled": 0, "rental_uris": {"android": "https://dc.lft.to/lastmile_qr_scan", "ios": "https://dc.lft.to/lastmile_qr_scan"}, "fusion_lon": 0.0, "lat": 38.900401, "bike_id": "460c5fe2304fc28a5980bdfb1f16af7b", "type": "electric_scooter", "is_reserved": 0, "lon": -77.02611783333333}, {"fusion_lat": 0.0, "name": "6809cc04273cfe18e45c89fefccc4faa", "is_disabled": 0, "rental_uris": {"android": "https://dc.lft.to/lastmile_qr_scan", "ios": "https://dc.lft.to/lastmile_qr_scan"}, "fusion_lon": 0.0, "lat": 38.913625333333336, "bike_id": "6809cc04273cfe18e45c89fefccc4faa", "type": "electric_scooter", "is_reserved": 0, "lon": -77.02050733333333}, {"fusion_lat": 0.0, "name": "1e463939620e756ff9a4e07dc21bd4c0", "is_disabled": 0, "rental_uris": {"android": "https://dc.lft.to/lastmile_qr_scan", "ios": "https://dc.lft.to/lastmile_qr_scan"}, "fusion_lon": 0.0, "lat": 38.9453355, "bike_id": "1e463939620e756ff9a4e07dc21bd4c0", "type": "electric_scooter", "is_reserved": 0, "lon": -77.01695616666667}, {"fusion_lat": 0.0, "name": "71bf89a331fa7d12769ba7a0492cd9b5", "is_disabled": 0, "rental_uris": {"android": "https://dc.lft.to/lastmile_qr_scan", "ios": "https://dc.lft.to/lastmile_qr_scan"}, "fusion_lon": 0.0, "lat": 38.924959, "bike_id": "71bf89a331fa7d12769ba7a0492cd9b5", "type": "electric_scooter", "is_reserved": 0, "lon": -77.03803666666667}, {"fusion_lat": 0.0, "name": "d0a2fbc5bea7ad4d3019e0b4ab4fd7b7", "is_disabled": 0, "rental_uris": {"android": "https://dc.lft.to/lastmile_qr_scan", "ios": "https://dc.lft.to/lastmile_qr_scan"}, "fusion_lon": 0.0, "lat": 38.926518333333334, "bike_id": "d0a2fbc5bea7ad4d3019e0b4ab4fd7b7", "type": "electric_scooter", "is_reserved": 0, "lon": -77.03837366666667}, {"fusion_lat": 0.0, "name": "83e1eeac418e35e726ae070d668987ba", "is_disabled": 0, "rental_uris": {"android": "https://dc.lft.to/lastmile_qr_scan", "ios": "https://dc.lft.to/lastmile_qr_scan"}, "fusion_lon": 0.0, "lat": 38.8330685, "bike_id": "83e1eeac418e35e726ae070d668987ba", "type": "electric_bike", "is_reserved": 0, "lon": -77.04180333333333}, {"fusion_lat": 0.0, "name": "34a41fb6195a97b0581d17a6b8ae51a1", "is_disabled": 0, "rental_uris": {"android": "https://dc.lft.to/lastmile_qr_scan", "ios": "https://dc.lft.to/lastmile_qr_scan"}, "fusion_lon": 0.0, "lat": 38.865502666666664, "bike_id": "34a41fb6195a97b0581d17a6b8ae51a1", "type": "electric_bike", "is_reserved": 0, "lon": -76.97366483333333}, {"fusion_lat": 0.0, "name": "ab745bc70f2af5276f9f1bf606298da5", "is_disabled": 0, "rental_uris": {"android": "https://dc.lft.to/lastmile_qr_scan", "ios": "https://dc.lft.to/lastmile_qr_scan"}, "fusion_lon": 0.0, "lat": 38.919584, "bike_id": "ab745bc70f2af5276f9f1bf606298da5", "type": "electric_scooter", "is_reserved": 0, "lon": -77.02399066666666}, {"fusion_lat": 0.0, "name": "4bf4e08a49de03e3bbcdc69c333c1250", "is_disabled": 0, "rental_uris": {"android": "https://dc.lft.to/lastmile_qr_scan", "ios": "https://dc.lft.to/lastmile_qr_scan"}, "fusion_lon": 0.0, "lat": 38.8744105, "bike_id": "4bf4e08a49de03e3bbcdc69c333c1250", "type": "electric_scooter", "is_reserved": 0, "lon": -77.00041133333333}, {"fusion_lat": 0.0, "name": "1a3baab528e40926db92476a5cd2d4c5", "is_disabled": 0, "rental_uris": {"android": "https://dc.lft.to/lastmile_qr_scan", "ios": "https://dc.lft.to/lastmile_qr_scan"}, "fusion_lon": 0.0, "lat": 38.916932, "bike_id": "1a3baab528e40926db92476a5cd2d4c5", "type": "electric_scooter", "is_reserved": 0, "lon": -77.0243325}, {"fusion_lat": 0.0, "name": "2fbd556de582d801a1a55fb36cf90410", "is_disabled": 0, "rental_uris": {"android": "https://dc.lft.to/lastmile_qr_scan", "ios": "https://dc.lft.to/lastmile_qr_scan"}, "fusion_lon": 0.0, "lat": 38.918934666666665, "bike_id": "2fbd556de582d801a1a55fb36cf90410", "type": "electric_scooter", "is_reserved": 0, "lon": -77.0240005}, {"fusion_lat": 0.0, "name": "bacc1ce6abb65303dbaf4b4b113de25c", "is_disabled": 0, "rental_uris": {"android": "https://dc.lft.to/lastmile_qr_scan", "ios": "https://dc.lft.to/lastmile_qr_scan"}, "fusion_lon": 0.0, "lat": 38.87892733333333, "bike_id": "bacc1ce6abb65303dbaf4b4b113de25c", "type": "electric_scooter", "is_reserved": 0, "lon": -77.00564966666667}, {"fusion_lat": 0.0, "name": "07471e0a0aaa08081eb86bae13177466", "is_disabled": 0, "rental_uris": {"android": "https://dc.lft.to/lastmile_qr_scan", "ios": "https://dc.lft.to/lastmile_qr_scan"}, "fusion_lon": 0.0, "lat": 38.89832833333333, "bike_id": "07471e0a0aaa08081eb86bae13177466", "type": "electric_scooter", "is_reserved": 0, "lon": -77.02824866666667}, {"fusion_lat": 0.0, "name": "60f47dbf87b5b70dbe6fb80e609df9a6", "is_disabled": 0, "rental_uris": {"android": "https://dc.lft.to/lastmile_qr_scan", "ios": "https://dc.lft.to/lastmile_qr_scan"}, "fusion_lon": 0.0, "lat": 39.010789, "bike_id": "60f47dbf87b5b70dbe6fb80e609df9a6", "type": "electric_bike", "is_reserved": 0, "lon": -76.910703}, {"fusion_lat": 0.0, "name": "eaf6512caa290efc03aca281303fbad8", "is_disabled": 0, "rental_uris": {"android": "https://dc.lft.to/lastmile_qr_scan", "ios": "https://dc.lft.to/lastmile_qr_scan"}, "fusion_lon": 0.0, "lat": 38.88766666666667, "bike_id": "eaf6512caa290efc03aca281303fbad8", "type": "electric_scooter", "is_reserved": 0, "lon": -77.029496}, {"fusion_lat": 0.0, "name": "e90dc908e1ba328bb179080f2fe4fca8", "is_disabled": 0, "rental_uris": {"android": "https://dc.lft.to/lastmile_qr_scan", "ios": "https://dc.lft.to/lastmile_qr_scan"}, "fusion_lon": 0.0, "lat": 38.937095166666666, "bike_id": "e90dc908e1ba328bb179080f2fe4fca8", "type": "electric_scooter", "is_reserved": 0, "lon": -77.061003}, {"fusion_lat": 0.0, "name": "c307dc363a6a0a723f1faa68a96c91bc", "is_disabled": 0, "rental_uris": {"android": "https://dc.lft.to/lastmile_qr_scan", "ios": "https://dc.lft.to/lastmile_qr_scan"}, "fusion_lon": 0.0, "lat": 38.900361333333336, "bike_id": "c307dc363a6a0a723f1faa68a96c91bc", "type": "electric_scooter", "is_reserved": 0, "lon": -77.03519633333333}, {"fusion_lat": 0.0, "name": "c0f822783d605bf57bbbfb4ed9e986fb", "is_disabled": 0, "rental_uris": {"android": "https://dc.lft.to/lastmile_qr_scan", "ios": "https://dc.lft.to/lastmile_qr_scan"}, "fusion_lon": 0.0, "lat": 38.945203666666664, "bike_id": "c0f822783d605bf57bbbfb4ed9e986fb", "type": "electric_scooter", "is_reserved": 0, "lon": -77.02097716666667}, {"fusion_lat": 0.0, "name": "7df7ce77b601a86faf7592835732fe48", "is_disabled": 0, "rental_uris": {"android": "https://dc.lft.to/lastmile_qr_scan", "ios": "https://dc.lft.to/lastmile_qr_scan"}, "fusion_lon": 0.0, "lat": 38.92315166666667, "bike_id": "7df7ce77b601a86faf7592835732fe48", "type": "electric_scooter", "is_reserved": 0, "lon": -77.040444}, {"fusion_lat": 0.0, "name": "91d3572790a2f5c2a9371c920d305b75", "is_disabled": 0, "rental_uris": {"android": "https://dc.lft.to/lastmile_qr_scan", "ios": "https://dc.lft.to/lastmile_qr_scan"}, "fusion_lon": 0.0, "lat": 38.90780516666667, "bike_id": "91d3572790a2f5c2a9371c920d305b75", "type": "electric_scooter", "is_reserved": 0, "lon": -76.99394733333334}, {"fusion_lat": 0.0, "name": "0a90ded2d50ae84be99e65377b5748c3", "is_disabled": 0, "rental_uris": {"android": "https://dc.lft.to/lastmile_qr_scan", "ios": "https://dc.lft.to/lastmile_qr_scan"}, "fusion_lon": 0.0, "lat": 38.89470133333333, "bike_id": "0a90ded2d50ae84be99e65377b5748c3", "type": "electric_scooter", "is_reserved": 0, "lon": -77.01766933333333}, {"fusion_lat": 0.0, "name": "74b57c5ccdd8ffe0a387573c4594ecde", "is_disabled": 0, "rental_uris": {"android": "https://dc.lft.to/lastmile_qr_scan", "ios": "https://dc.lft.to/lastmile_qr_scan"}, "fusion_lon": 0.0, "lat": 38.91807633333333, "bike_id": "74b57c5ccdd8ffe0a387573c4594ecde", "type": "electric_scooter", "is_reserved": 0, "lon": -77.02686233333333}, {"fusion_lat": 0.0, "name": "9f58fdf56350d8250a884bd7b0b3ad6b", "is_disabled": 0, "rental_uris": {"android": "https://dc.lft.to/lastmile_qr_scan", "ios": "https://dc.lft.to/lastmile_qr_scan"}, "fusion_lon": 0.0, "lat": 38.921289333333334, "bike_id": "9f58fdf56350d8250a884bd7b0b3ad6b", "type": "electric_scooter", "is_reserved": 0, "lon": -77.02417433333333}, {"fusion_lat": 0.0, "name": "55dfce6814e090ae94fad3d3346c1620", "is_disabled": 0, "rental_uris": {"android": "https://dc.lft.to/lastmile_qr_scan", "ios": "https://dc.lft.to/lastmile_qr_scan"}, "fusion_lon": 0.0, "lat": 38.90147866666667, "bike_id": "55dfce6814e090ae94fad3d3346c1620", "type": "electric_scooter", "is_reserved": 0, "lon": -77.03327333333333}, {"fusion_lat": 0.0, "name": "f5f9d5996ae59bc729c2a23c85d513d4", "is_disabled": 0, "rental_uris": {"android": "https://dc.lft.to/lastmile_qr_scan", "ios": "https://dc.lft.to/lastmile_qr_scan"}, "fusion_lon": 0.0, "lat": 38.92759483333333, "bike_id": "f5f9d5996ae59bc729c2a23c85d513d4", "type": "electric_scooter", "is_reserved": 0, "lon": -77.02961833333333}, {"fusion_lat": 0.0, "name": "5e0b711dd09fcf04660b4ad7f75c0bf8", "is_disabled": 0, "rental_uris": {"android": "https://dc.lft.to/lastmile_qr_scan", "ios": "https://dc.lft.to/lastmile_qr_scan"}, "fusion_lon": 0.0, "lat": 38.9229895, "bike_id": "5e0b711dd09fcf04660b4ad7f75c0bf8", "type": "electric_scooter", "is_reserved": 0, "lon": -77.04207916666667}, {"fusion_lat": 0.0, "name": "4f48614cfee668e5658da9b85e0e39c1", "is_disabled": 0, "rental_uris": {"android": "https://dc.lft.to/lastmile_qr_scan", "ios": "https://dc.lft.to/lastmile_qr_scan"}, "fusion_lon": 0.0, "lat": 38.9024115, "bike_id": "4f48614cfee668e5658da9b85e0e39c1", "type": "electric_scooter", "is_reserved": 0, "lon": -77.001967}, {"fusion_lat": 0.0, "name": "7476b98b9e1faf9e66ad7c5a6bfd77d0", "is_disabled": 0, "rental_uris": {"android": "https://dc.lft.to/lastmile_qr_scan", "ios": "https://dc.lft.to/lastmile_qr_scan"}, "fusion_lon": 0.0, "lat": 38.892705, "bike_id": "7476b98b9e1faf9e66ad7c5a6bfd77d0", "type": "electric_scooter", "is_reserved": 0, "lon": -77.031735}, {"fusion_lat": 0.0, "name": "734266234aa501c9d828e6bfb0d61aff", "is_disabled": 0, "rental_uris": {"android": "https://dc.lft.to/lastmile_qr_scan", "ios": "https://dc.lft.to/lastmile_qr_scan"}, "fusion_lon": 0.0, "lat": 38.906913333333335, "bike_id": "734266234aa501c9d828e6bfb0d61aff", "type": "electric_scooter", "is_reserved": 0, "lon": -77.063342}, {"fusion_lat": 0.0, "name": "4f4b8fed234d1bd5feb2a619d924543e", "is_disabled": 0, "rental_uris": {"android": "https://dc.lft.to/lastmile_qr_scan", "ios": "https://dc.lft.to/lastmile_qr_scan"}, "fusion_lon": 0.0, "lat": 38.87362066666667, "bike_id": "4f4b8fed234d1bd5feb2a619d924543e", "type": "electric_scooter", "is_reserved": 0, "lon": -77.00071083333333}, {"fusion_lat": 0.0, "name": "6c823f65107cbfa82ea92a8c11a614b4", "is_disabled": 0, "rental_uris": {"android": "https://dc.lft.to/lastmile_qr_scan", "ios": "https://dc.lft.to/lastmile_qr_scan"}, "fusion_lon": 0.0, "lat": 38.926465, "bike_id": "6c823f65107cbfa82ea92a8c11a614b4", "type": "electric_scooter", "is_reserved": 0, "lon": -77.04132266666667}, {"fusion_lat": 0.0, "name": "2f9693ba7acac04c671d93a1810a49d0", "is_disabled": 0, "rental_uris": {"android": "https://dc.lft.to/lastmile_qr_scan", "ios": "https://dc.lft.to/lastmile_qr_scan"}, "fusion_lon": 0.0, "lat": 38.874712, "bike_id": "2f9693ba7acac04c671d93a1810a49d0", "type": "electric_scooter", "is_reserved": 0, "lon": -77.0046855}, {"fusion_lat": 0.0, "name": "3cca7365dea401a0ab342b1ce93e1447", "is_disabled": 0, "rental_uris": {"android": "https://dc.lft.to/lastmile_qr_scan", "ios": "https://dc.lft.to/lastmile_qr_scan"}, "fusion_lon": 0.0, "lat": 38.9010705, "bike_id": "3cca7365dea401a0ab342b1ce93e1447", "type": "electric_scooter", "is_reserved": 0, "lon": -77.04205283333333}, {"fusion_lat": 0.0, "name": "ce7a6f90e9115801cdd8eb6a9740e228", "is_disabled": 0, "rental_uris": {"android": "https://dc.lft.to/lastmile_qr_scan", "ios": "https://dc.lft.to/lastmile_qr_scan"}, "fusion_lon": 0.0, "lat": 38.93473633333333, "bike_id": "ce7a6f90e9115801cdd8eb6a9740e228", "type": "electric_scooter", "is_reserved": 0, "lon": -77.07213316666666}, {"fusion_lat": 0.0, "name": "b691afbca3aff7d1d8e4d51e2a9a1b4c", "is_disabled": 0, "rental_uris": {"android": "https://dc.lft.to/lastmile_qr_scan", "ios": "https://dc.lft.to/lastmile_qr_scan"}, "fusion_lon": 0.0, "lat": 38.902283, "bike_id": "b691afbca3aff7d1d8e4d51e2a9a1b4c", "type": "electric_scooter", "is_reserved": 0, "lon": -77.04557866666667}, {"fusion_lat": 0.0, "name": "b3e76f339706019695b5fe87993ee3d4", "is_disabled": 0, "rental_uris": {"android": "https://dc.lft.to/lastmile_qr_scan", "ios": "https://dc.lft.to/lastmile_qr_scan"}, "fusion_lon": 0.0, "lat": 38.8532795, "bike_id": "b3e76f339706019695b5fe87993ee3d4", "type": "electric_scooter", "is_reserved": 0, "lon": -76.98028866666667}, {"fusion_lat": 0.0, "name": "e8e0cf7e123a9e9f5f16132727e9b653", "is_disabled": 0, "rental_uris": {"android": "https://dc.lft.to/lastmile_qr_scan", "ios": "https://dc.lft.to/lastmile_qr_scan"}, "fusion_lon": 0.0, "lat": 38.90087233333333, "bike_id": "e8e0cf7e123a9e9f5f16132727e9b653", "type": "electric_scooter", "is_reserved": 0, "lon": -76.98337033333334}, {"fusion_lat": 0.0, "name": "829383a52ae99f6b3a4a9177e40219eb", "is_disabled": 0, "rental_uris": {"android": "https://dc.lft.to/lastmile_qr_scan", "ios": "https://dc.lft.to/lastmile_qr_scan"}, "fusion_lon": 0.0, "lat": 38.89506183333334, "bike_id": "829383a52ae99f6b3a4a9177e40219eb", "type": "electric_scooter", "is_reserved": 0, "lon": -77.00335233333334}, {"fusion_lat": 0.0, "name": "6b9a6cb40274c5655a4ebe513c6040ae", "is_disabled": 0, "rental_uris": {"android": "https://dc.lft.to/lastmile_qr_scan", "ios": "https://dc.lft.to/lastmile_qr_scan"}, "fusion_lon": 0.0, "lat": 38.920822666666666, "bike_id": "6b9a6cb40274c5655a4ebe513c6040ae", "type": "electric_scooter", "is_reserved": 0, "lon": -77.01395483333333}, {"fusion_lat": 0.0, "name": "698746a2c3c4ac4fd1782883bf3fc94f", "is_disabled": 0, "rental_uris": {"android": "https://dc.lft.to/lastmile_qr_scan", "ios": "https://dc.lft.to/lastmile_qr_scan"}, "fusion_lon": 0.0, "lat": 38.90575483333333, "bike_id": "698746a2c3c4ac4fd1782883bf3fc94f", "type": "electric_scooter", "is_reserved": 0, "lon": -77.04285283333333}, {"fusion_lat": 0.0, "name": "6bc06c532ff91f5678f9bdde6c9c3eb6", "is_disabled": 0, "rental_uris": {"android": "https://dc.lft.to/lastmile_qr_scan", "ios": "https://dc.lft.to/lastmile_qr_scan"}, "fusion_lon": 0.0, "lat": 38.9382815, "bike_id": "6bc06c532ff91f5678f9bdde6c9c3eb6", "type": "electric_scooter", "is_reserved": 0, "lon": -76.99190766666666}, {"fusion_lat": 0.0, "name": "0edd233846a8e3ddc6c7d241da5ece10", "is_disabled": 0, "rental_uris": {"android": "https://dc.lft.to/lastmile_qr_scan", "ios": "https://dc.lft.to/lastmile_qr_scan"}, "fusion_lon": 0.0, "lat": 38.900056666666664, "bike_id": "0edd233846a8e3ddc6c7d241da5ece10", "type": "electric_bike", "is_reserved": 0, "lon": -76.99840966666666}, {"fusion_lat": 0.0, "name": "696615c2d7b18e0908784c8343535f1d", "is_disabled": 0, "rental_uris": {"android": "https://dc.lft.to/lastmile_qr_scan", "ios": "https://dc.lft.to/lastmile_qr_scan"}, "fusion_lon": 0.0, "lat": 38.903885, "bike_id": "696615c2d7b18e0908784c8343535f1d", "type": "electric_scooter", "is_reserved": 0, "lon": -77.03838733333333}, {"fusion_lat": 0.0, "name": "2176c7a4058cb4083e73465c83ea8819", "is_disabled": 0, "rental_uris": {"android": "https://dc.lft.to/lastmile_qr_scan", "ios": "https://dc.lft.to/lastmile_qr_scan"}, "fusion_lon": 0.0, "lat": 38.90789066666667, "bike_id": "2176c7a4058cb4083e73465c83ea8819", "type": "electric_scooter", "is_reserved": 0, "lon": -77.03530083333334}, {"fusion_lat": 0.0, "name": "4bfa69964ca3da4ef51f4f3b82dac1c3", "is_disabled": 0, "rental_uris": {"android": "https://dc.lft.to/lastmile_qr_scan", "ios": "https://dc.lft.to/lastmile_qr_scan"}, "fusion_lon": 0.0, "lat": 38.9172535, "bike_id": "4bfa69964ca3da4ef51f4f3b82dac1c3", "type": "electric_scooter", "is_reserved": 0, "lon": -77.02698966666667}, {"fusion_lat": 0.0, "name": "57874e2da45219b77bb4a192d5142871", "is_disabled": 0, "rental_uris": {"android": "https://dc.lft.to/lastmile_qr_scan", "ios": "https://dc.lft.to/lastmile_qr_scan"}, "fusion_lon": 0.0, "lat": 38.9195135, "bike_id": "57874e2da45219b77bb4a192d5142871", "type": "electric_bike", "is_reserved": 0, "lon": -77.221211}, {"fusion_lat": 0.0, "name": "c7095391a2701493846a157059b04b77", "is_disabled": 0, "rental_uris": {"android": "https://dc.lft.to/lastmile_qr_scan", "ios": "https://dc.lft.to/lastmile_qr_scan"}, "fusion_lon": 0.0, "lat": 38.9047335, "bike_id": "c7095391a2701493846a157059b04b77", "type": "electric_scooter", "is_reserved": 0, "lon": -77.0261875}, {"fusion_lat": 0.0, "name": "b3374c16244dcfc7af5974556ec8b896", "is_disabled": 0, "rental_uris": {"android": "https://dc.lft.to/lastmile_qr_scan", "ios": "https://dc.lft.to/lastmile_qr_scan"}, "fusion_lon": 0.0, "lat": 38.91754866666667, "bike_id": "b3374c16244dcfc7af5974556ec8b896", "type": "electric_scooter", "is_reserved": 0, "lon": -77.069351}, {"fusion_lat": 0.0, "name": "865b5b6b223abc4ee6a96a99b1cb0c5a", "is_disabled": 0, "rental_uris": {"android": "https://dc.lft.to/lastmile_qr_scan", "ios": "https://dc.lft.to/lastmile_qr_scan"}, "fusion_lon": 0.0, "lat": 38.935526833333334, "bike_id": "865b5b6b223abc4ee6a96a99b1cb0c5a", "type": "electric_bike", "is_reserved": 0, "lon": -77.037039}, {"fusion_lat": 0.0, "name": "85cdab82ddacae008e27b8cb09fffa1e", "is_disabled": 0, "rental_uris": {"android": "https://dc.lft.to/lastmile_qr_scan", "ios": "https://dc.lft.to/lastmile_qr_scan"}, "fusion_lon": 0.0, "lat": 38.922139333333334, "bike_id": "85cdab82ddacae008e27b8cb09fffa1e", "type": "electric_scooter", "is_reserved": 0, "lon": -77.0424025}, {"fusion_lat": 0.0, "name": "45737a05d682e89731a7a5c3da4f2b89", "is_disabled": 0, "rental_uris": {"android": "https://dc.lft.to/lastmile_qr_scan", "ios": "https://dc.lft.to/lastmile_qr_scan"}, "fusion_lon": 0.0, "lat": 38.90907166666667, "bike_id": "45737a05d682e89731a7a5c3da4f2b89", "type": "electric_scooter", "is_reserved": 0, "lon": -77.04211683333334}, {"fusion_lat": 0.0, "name": "c7d77f56c52da0ca90388cf8bb62dd97", "is_disabled": 0, "rental_uris": {"android": "https://dc.lft.to/lastmile_qr_scan", "ios": "https://dc.lft.to/lastmile_qr_scan"}, "fusion_lon": 0.0, "lat": 38.87730066666666, "bike_id": "c7d77f56c52da0ca90388cf8bb62dd97", "type": "electric_scooter", "is_reserved": 0, "lon": -77.00569033333333}, {"fusion_lat": 0.0, "name": "25db21f75c7d0fa52eb8eb38ebfbed1e", "is_disabled": 0, "rental_uris": {"android": "https://dc.lft.to/lastmile_qr_scan", "ios": "https://dc.lft.to/lastmile_qr_scan"}, "fusion_lon": 0.0, "lat": 38.91613866666667, "bike_id": "25db21f75c7d0fa52eb8eb38ebfbed1e", "type": "electric_scooter", "is_reserved": 0, "lon": -77.023919}, {"fusion_lat": 0.0, "name": "4b39b57eafd0b60abebd0e23495de71b", "is_disabled": 0, "rental_uris": {"android": "https://dc.lft.to/lastmile_qr_scan", "ios": "https://dc.lft.to/lastmile_qr_scan"}, "fusion_lon": 0.0, "lat": 38.900839, "bike_id": "4b39b57eafd0b60abebd0e23495de71b", "type": "electric_scooter", "is_reserved": 0, "lon": -77.0477005}, {"fusion_lat": 0.0, "name": "a2c705ade2d1116527b15dcb5ca2e0ea", "is_disabled": 0, "rental_uris": {"android": "https://dc.lft.to/lastmile_qr_scan", "ios": "https://dc.lft.to/lastmile_qr_scan"}, "fusion_lon": 0.0, "lat": 38.88421483333333, "bike_id": "a2c705ade2d1116527b15dcb5ca2e0ea", "type": "electric_scooter", "is_reserved": 0, "lon": -77.028993}, {"fusion_lat": 0.0, "name": "7b4c5182063be7675e9e93c3e467f218", "is_disabled": 0, "rental_uris": {"android": "https://dc.lft.to/lastmile_qr_scan", "ios": "https://dc.lft.to/lastmile_qr_scan"}, "fusion_lon": 0.0, "lat": 38.94088833333333, "bike_id": "7b4c5182063be7675e9e93c3e467f218", "type": "electric_scooter", "is_reserved": 0, "lon": -77.02320166666667}, {"fusion_lat": 0.0, "name": "38cf6057fe6f15f9b325608c03efc13e", "is_disabled": 0, "rental_uris": {"android": "https://dc.lft.to/lastmile_qr_scan", "ios": "https://dc.lft.to/lastmile_qr_scan"}, "fusion_lon": 0.0, "lat": 38.91473916666666, "bike_id": "38cf6057fe6f15f9b325608c03efc13e", "type": "electric_scooter", "is_reserved": 0, "lon": -76.98107983333334}, {"fusion_lat": 0.0, "name": "7262095d52fa89c050dfb8d78c4e16de", "is_disabled": 0, "rental_uris": {"android": "https://dc.lft.to/lastmile_qr_scan", "ios": "https://dc.lft.to/lastmile_qr_scan"}, "fusion_lon": 0.0, "lat": 38.92597516666667, "bike_id": "7262095d52fa89c050dfb8d78c4e16de", "type": "electric_scooter", "is_reserved": 0, "lon": -77.03746466666666}, {"fusion_lat": 0.0, "name": "6c02b3182229636abe6757ae87f5f508", "is_disabled": 0, "rental_uris": {"android": "https://dc.lft.to/lastmile_qr_scan", "ios": "https://dc.lft.to/lastmile_qr_scan"}, "fusion_lon": 0.0, "lat": 38.914796833333334, "bike_id": "6c02b3182229636abe6757ae87f5f508", "type": "electric_scooter", "is_reserved": 0, "lon": -77.04610183333334}, {"fusion_lat": 0.0, "name": "cfbc54d72b644bcf98dbde4f60d183ea", "is_disabled": 0, "rental_uris": {"android": "https://dc.lft.to/lastmile_qr_scan", "ios": "https://dc.lft.to/lastmile_qr_scan"}, "fusion_lon": 0.0, "lat": 38.8966705, "bike_id": "cfbc54d72b644bcf98dbde4f60d183ea", "type": "electric_scooter", "is_reserved": 0, "lon": -77.0505635}, {"fusion_lat": 0.0, "name": "f204648df81e1415a36e84a894a38acd", "is_disabled": 0, "rental_uris": {"android": "https://dc.lft.to/lastmile_qr_scan", "ios": "https://dc.lft.to/lastmile_qr_scan"}, "fusion_lon": 0.0, "lat": 38.90099283333333, "bike_id": "f204648df81e1415a36e84a894a38acd", "type": "electric_scooter", "is_reserved": 0, "lon": -77.02532166666667}, {"fusion_lat": 0.0, "name": "0c41c21d8427b0e4d8c86e4a339eb975", "is_disabled": 0, "rental_uris": {"android": "https://dc.lft.to/lastmile_qr_scan", "ios": "https://dc.lft.to/lastmile_qr_scan"}, "fusion_lon": 0.0, "lat": 38.9007395, "bike_id": "0c41c21d8427b0e4d8c86e4a339eb975", "type": "electric_scooter", "is_reserved": 0, "lon": -77.02195466666667}, {"fusion_lat": 0.0, "name": "8950bd322e4395706275bff7382d9bc7", "is_disabled": 0, "rental_uris": {"android": "https://dc.lft.to/lastmile_qr_scan", "ios": "https://dc.lft.to/lastmile_qr_scan"}, "fusion_lon": 0.0, "lat": 38.8872495, "bike_id": "8950bd322e4395706275bff7382d9bc7", "type": "electric_scooter", "is_reserved": 0, "lon": -77.01340966666666}, {"fusion_lat": 0.0, "name": "020400958540bde00c5897bd8d413f6d", "is_disabled": 0, "rental_uris": {"android": "https://dc.lft.to/lastmile_qr_scan", "ios": "https://dc.lft.to/lastmile_qr_scan"}, "fusion_lon": 0.0, "lat": 38.920568, "bike_id": "020400958540bde00c5897bd8d413f6d", "type": "electric_scooter", "is_reserved": 0, "lon": -77.043513}, {"fusion_lat": 0.0, "name": "39c96e53a36faf924235cd907b9b345d", "is_disabled": 0, "rental_uris": {"android": "https://dc.lft.to/lastmile_qr_scan", "ios": "https://dc.lft.to/lastmile_qr_scan"}, "fusion_lon": 0.0, "lat": 38.8959175, "bike_id": "39c96e53a36faf924235cd907b9b345d", "type": "electric_scooter", "is_reserved": 0, "lon": -77.022029}, {"fusion_lat": 0.0, "name": "bd38691d6e5d16b1f772ee60c556cb81", "is_disabled": 0, "rental_uris": {"android": "https://dc.lft.to/lastmile_qr_scan", "ios": "https://dc.lft.to/lastmile_qr_scan"}, "fusion_lon": 0.0, "lat": 38.906217833333336, "bike_id": "bd38691d6e5d16b1f772ee60c556cb81", "type": "electric_scooter", "is_reserved": 0, "lon": -77.05004633333333}, {"fusion_lat": 0.0, "name": "c16066f940687d68f82c91ca0de17df6", "is_disabled": 0, "rental_uris": {"android": "https://dc.lft.to/lastmile_qr_scan", "ios": "https://dc.lft.to/lastmile_qr_scan"}, "fusion_lon": 0.0, "lat": 38.87746716666667, "bike_id": "c16066f940687d68f82c91ca0de17df6", "type": "electric_scooter", "is_reserved": 0, "lon": -77.00268233333334}, {"fusion_lat": 0.0, "name": "692dbbf2ef9ac91be06a5bf238b9fe54", "is_disabled": 0, "rental_uris": {"android": "https://dc.lft.to/lastmile_qr_scan", "ios": "https://dc.lft.to/lastmile_qr_scan"}, "fusion_lon": 0.0, "lat": 38.8973865, "bike_id": "692dbbf2ef9ac91be06a5bf238b9fe54", "type": "electric_scooter", "is_reserved": 0, "lon": -76.94724266666667}, {"fusion_lat": 0.0, "name": "8a48da0042065d612acd9fa400edcd01", "is_disabled": 0, "rental_uris": {"android": "https://dc.lft.to/lastmile_qr_scan", "ios": "https://dc.lft.to/lastmile_qr_scan"}, "fusion_lon": 0.0, "lat": 38.924801, "bike_id": "8a48da0042065d612acd9fa400edcd01", "type": "electric_scooter", "is_reserved": 0, "lon": -77.035583}, {"fusion_lat": 0.0, "name": "2c43241b8d21326ddfcd5677cbba15e1", "is_disabled": 0, "rental_uris": {"android": "https://dc.lft.to/lastmile_qr_scan", "ios": "https://dc.lft.to/lastmile_qr_scan"}, "fusion_lon": 0.0, "lat": 38.93348016666667, "bike_id": "2c43241b8d21326ddfcd5677cbba15e1", "type": "electric_scooter", "is_reserved": 0, "lon": -77.06204}, {"fusion_lat": 0.0, "name": "224113c4f2b8f663f032f659bbccfd1e", "is_disabled": 0, "rental_uris": {"android": "https://dc.lft.to/lastmile_qr_scan", "ios": "https://dc.lft.to/lastmile_qr_scan"}, "fusion_lon": 0.0, "lat": 38.8746945, "bike_id": "224113c4f2b8f663f032f659bbccfd1e", "type": "electric_scooter", "is_reserved": 0, "lon": -77.00471966666667}, {"fusion_lat": 0.0, "name": "4d66614b5c5f99a13840c04adafe759b", "is_disabled": 0, "rental_uris": {"android": "https://dc.lft.to/lastmile_qr_scan", "ios": "https://dc.lft.to/lastmile_qr_scan"}, "fusion_lon": 0.0, "lat": 38.8921485, "bike_id": "4d66614b5c5f99a13840c04adafe759b", "type": "electric_scooter", "is_reserved": 0, "lon": -77.02651583333333}, {"fusion_lat": 0.0, "name": "64ac4fadfde606e3e5e2dd702f380b8c", "is_disabled": 0, "rental_uris": {"android": "https://dc.lft.to/lastmile_qr_scan", "ios": "https://dc.lft.to/lastmile_qr_scan"}, "fusion_lon": 0.0, "lat": 38.96988, "bike_id": "64ac4fadfde606e3e5e2dd702f380b8c", "type": "electric_scooter", "is_reserved": 0, "lon": -77.01160366666667}, {"fusion_lat": 0.0, "name": "d17c4240941b11febc30eb46182ff290", "is_disabled": 0, "rental_uris": {"android": "https://dc.lft.to/lastmile_qr_scan", "ios": "https://dc.lft.to/lastmile_qr_scan"}, "fusion_lon": 0.0, "lat": 38.90719, "bike_id": "d17c4240941b11febc30eb46182ff290", "type": "electric_scooter", "is_reserved": 0, "lon": -77.02506833333334}, {"fusion_lat": 0.0, "name": "c15a54e9c91df46c7f8960e7b5a8cc14", "is_disabled": 0, "rental_uris": {"android": "https://dc.lft.to/lastmile_qr_scan", "ios": "https://dc.lft.to/lastmile_qr_scan"}, "fusion_lon": 0.0, "lat": 38.874699166666666, "bike_id": "c15a54e9c91df46c7f8960e7b5a8cc14", "type": "electric_scooter", "is_reserved": 0, "lon": -77.0189305}, {"fusion_lat": 0.0, "name": "92d693b1f670a11f7c9248acdd36f45f", "is_disabled": 0, "rental_uris": {"android": "https://dc.lft.to/lastmile_qr_scan", "ios": "https://dc.lft.to/lastmile_qr_scan"}, "fusion_lon": 0.0, "lat": 38.917886833333334, "bike_id": "92d693b1f670a11f7c9248acdd36f45f", "type": "electric_scooter", "is_reserved": 0, "lon": -77.01686616666667}, {"fusion_lat": 0.0, "name": "177f8edb884dee4be81d619ce670468a", "is_disabled": 0, "rental_uris": {"android": "https://dc.lft.to/lastmile_qr_scan", "ios": "https://dc.lft.to/lastmile_qr_scan"}, "fusion_lon": 0.0, "lat": 38.93012483333333, "bike_id": "177f8edb884dee4be81d619ce670468a", "type": "electric_scooter", "is_reserved": 0, "lon": -77.0325505}, {"fusion_lat": 0.0, "name": "fbd5f88231dd6d2e52977eadf4e8d9b5", "is_disabled": 0, "rental_uris": {"android": "https://dc.lft.to/lastmile_qr_scan", "ios": "https://dc.lft.to/lastmile_qr_scan"}, "fusion_lon": 0.0, "lat": 38.90017816666666, "bike_id": "fbd5f88231dd6d2e52977eadf4e8d9b5", "type": "electric_scooter", "is_reserved": 0, "lon": -77.006814}, {"fusion_lat": 0.0, "name": "517d12d8b746d50e257f985eb7d78964", "is_disabled": 0, "rental_uris": {"android": "https://dc.lft.to/lastmile_qr_scan", "ios": "https://dc.lft.to/lastmile_qr_scan"}, "fusion_lon": 0.0, "lat": 38.8921485, "bike_id": "517d12d8b746d50e257f985eb7d78964", "type": "electric_scooter", "is_reserved": 0, "lon": -77.023116}, {"fusion_lat": 0.0, "name": "84f401a9764de3a51d16958f54a63005", "is_disabled": 0, "rental_uris": {"android": "https://dc.lft.to/lastmile_qr_scan", "ios": "https://dc.lft.to/lastmile_qr_scan"}, "fusion_lon": 0.0, "lat": 38.9002915, "bike_id": "84f401a9764de3a51d16958f54a63005", "type": "electric_scooter", "is_reserved": 0, "lon": -76.9962945}, {"fusion_lat": 0.0, "name": "2d2f3fd7fd772f5d4342490abb2cc40d", "is_disabled": 0, "rental_uris": {"android": "https://dc.lft.to/lastmile_qr_scan", "ios": "https://dc.lft.to/lastmile_qr_scan"}, "fusion_lon": 0.0, "lat": 38.9017685, "bike_id": "2d2f3fd7fd772f5d4342490abb2cc40d", "type": "electric_scooter", "is_reserved": 0, "lon": -77.02582266666667}, {"fusion_lat": 0.0, "name": "b53d44754bf00bf5883a70129838c554", "is_disabled": 0, "rental_uris": {"android": "https://dc.lft.to/lastmile_qr_scan", "ios": "https://dc.lft.to/lastmile_qr_scan"}, "fusion_lon": 0.0, "lat": 38.90562166666667, "bike_id": "b53d44754bf00bf5883a70129838c554", "type": "electric_scooter", "is_reserved": 0, "lon": -77.04668533333333}, {"fusion_lat": 0.0, "name": "4191533d7a21208e6d24f3c864b1c1f7", "is_disabled": 0, "rental_uris": {"android": "https://dc.lft.to/lastmile_qr_scan", "ios": "https://dc.lft.to/lastmile_qr_scan"}, "fusion_lon": 0.0, "lat": 38.93408183333333, "bike_id": "4191533d7a21208e6d24f3c864b1c1f7", "type": "electric_scooter", "is_reserved": 0, "lon": -77.02204316666666}, {"fusion_lat": 0.0, "name": "ada78a41673611d64825403873d3ec6a", "is_disabled": 0, "rental_uris": {"android": "https://dc.lft.to/lastmile_qr_scan", "ios": "https://dc.lft.to/lastmile_qr_scan"}, "fusion_lon": 0.0, "lat": 38.931875, "bike_id": "ada78a41673611d64825403873d3ec6a", "type": "electric_scooter", "is_reserved": 0, "lon": -77.0329895}, {"fusion_lat": 0.0, "name": "0bb6ead368f807287a5ac47a3f950680", "is_disabled": 0, "rental_uris": {"android": "https://dc.lft.to/lastmile_qr_scan", "ios": "https://dc.lft.to/lastmile_qr_scan"}, "fusion_lon": 0.0, "lat": 38.95419416666667, "bike_id": "0bb6ead368f807287a5ac47a3f950680", "type": "electric_scooter", "is_reserved": 0, "lon": -77.02763733333333}, {"fusion_lat": 0.0, "name": "a0b23a73f26dbd0d3ba01ed2caba77fc", "is_disabled": 0, "rental_uris": {"android": "https://dc.lft.to/lastmile_qr_scan", "ios": "https://dc.lft.to/lastmile_qr_scan"}, "fusion_lon": 0.0, "lat": 38.909028166666666, "bike_id": "a0b23a73f26dbd0d3ba01ed2caba77fc", "type": "electric_scooter", "is_reserved": 0, "lon": -77.04406783333333}, {"fusion_lat": 0.0, "name": "d70a94a07b151985dd461e0e64bf857e", "is_disabled": 0, "rental_uris": {"android": "https://dc.lft.to/lastmile_qr_scan", "ios": "https://dc.lft.to/lastmile_qr_scan"}, "fusion_lon": 0.0, "lat": 38.90487566666667, "bike_id": "d70a94a07b151985dd461e0e64bf857e", "type": "electric_scooter", "is_reserved": 0, "lon": -76.94961483333333}, {"fusion_lat": 0.0, "name": "05fd71732c3c34192462f54382a4cd67", "is_disabled": 0, "rental_uris": {"android": "https://dc.lft.to/lastmile_qr_scan", "ios": "https://dc.lft.to/lastmile_qr_scan"}, "fusion_lon": 0.0, "lat": 38.893534833333334, "bike_id": "05fd71732c3c34192462f54382a4cd67", "type": "electric_scooter", "is_reserved": 0, "lon": -76.98661133333333}, {"fusion_lat": 0.0, "name": "d99151f5d8b8f5242201726fd8060785", "is_disabled": 0, "rental_uris": {"android": "https://dc.lft.to/lastmile_qr_scan", "ios": "https://dc.lft.to/lastmile_qr_scan"}, "fusion_lon": 0.0, "lat": 38.9162935, "bike_id": "d99151f5d8b8f5242201726fd8060785", "type": "electric_scooter", "is_reserved": 0, "lon": -77.050739}, {"fusion_lat": 0.0, "name": "155728855d9481d5eaef2d6471ae6a1a", "is_disabled": 0, "rental_uris": {"android": "https://dc.lft.to/lastmile_qr_scan", "ios": "https://dc.lft.to/lastmile_qr_scan"}, "fusion_lon": 0.0, "lat": 38.903566166666664, "bike_id": "155728855d9481d5eaef2d6471ae6a1a", "type": "electric_scooter", "is_reserved": 0, "lon": -77.04280333333334}, {"fusion_lat": 0.0, "name": "ee0007fa8b6a50b506ef717724393095", "is_disabled": 0, "rental_uris": {"android": "https://dc.lft.to/lastmile_qr_scan", "ios": "https://dc.lft.to/lastmile_qr_scan"}, "fusion_lon": 0.0, "lat": 38.907095, "bike_id": "ee0007fa8b6a50b506ef717724393095", "type": "electric_scooter", "is_reserved": 0, "lon": -77.04171816666667}, {"fusion_lat": 0.0, "name": "0102b8e611cc321a1a11848f39a1da8d", "is_disabled": 0, "rental_uris": {"android": "https://dc.lft.to/lastmile_qr_scan", "ios": "https://dc.lft.to/lastmile_qr_scan"}, "fusion_lon": 0.0, "lat": 38.89230116666667, "bike_id": "0102b8e611cc321a1a11848f39a1da8d", "type": "electric_scooter", "is_reserved": 0, "lon": -77.04873516666666}, {"fusion_lat": 0.0, "name": "81f551c7026542f62a1b61690b513a88", "is_disabled": 0, "rental_uris": {"android": "https://dc.lft.to/lastmile_qr_scan", "ios": "https://dc.lft.to/lastmile_qr_scan"}, "fusion_lon": 0.0, "lat": 38.89598466666666, "bike_id": "81f551c7026542f62a1b61690b513a88", "type": "electric_scooter", "is_reserved": 0, "lon": -77.02198333333334}, {"fusion_lat": 0.0, "name": "28e355b1ec157afd7448bc109b662e9e", "is_disabled": 0, "rental_uris": {"android": "https://dc.lft.to/lastmile_qr_scan", "ios": "https://dc.lft.to/lastmile_qr_scan"}, "fusion_lon": 0.0, "lat": 38.91256333333333, "bike_id": "28e355b1ec157afd7448bc109b662e9e", "type": "electric_scooter", "is_reserved": 0, "lon": -77.01030483333334}, {"fusion_lat": 0.0, "name": "71f614b077df4d4bc28a22947f39d73a", "is_disabled": 0, "rental_uris": {"android": "https://dc.lft.to/lastmile_qr_scan", "ios": "https://dc.lft.to/lastmile_qr_scan"}, "fusion_lon": 0.0, "lat": 38.91777783333333, "bike_id": "71f614b077df4d4bc28a22947f39d73a", "type": "electric_scooter", "is_reserved": 0, "lon": -77.03578216666666}, {"fusion_lat": 0.0, "name": "75c838fe0cced9de3e7e15bc71a2900e", "is_disabled": 0, "rental_uris": {"android": "https://dc.lft.to/lastmile_qr_scan", "ios": "https://dc.lft.to/lastmile_qr_scan"}, "fusion_lon": 0.0, "lat": 38.92047066666667, "bike_id": "75c838fe0cced9de3e7e15bc71a2900e", "type": "electric_scooter", "is_reserved": 0, "lon": -77.03400633333334}, {"fusion_lat": 0.0, "name": "6e58ec3cc13e9588c729f54899b85508", "is_disabled": 0, "rental_uris": {"android": "https://dc.lft.to/lastmile_qr_scan", "ios": "https://dc.lft.to/lastmile_qr_scan"}, "fusion_lon": 0.0, "lat": 38.804919166666664, "bike_id": "6e58ec3cc13e9588c729f54899b85508", "type": "electric_bike", "is_reserved": 0, "lon": -77.10165133333334}, {"fusion_lat": 0.0, "name": "2d68baafd2ac17fabb2afd1e38784a37", "is_disabled": 0, "rental_uris": {"android": "https://dc.lft.to/lastmile_qr_scan", "ios": "https://dc.lft.to/lastmile_qr_scan"}, "fusion_lon": 0.0, "lat": 38.873827, "bike_id": "2d68baafd2ac17fabb2afd1e38784a37", "type": "electric_scooter", "is_reserved": 0, "lon": -77.00047333333333}, {"fusion_lat": 0.0, "name": "128dacab8ca66a6781ca8bc2bdf8fb13", "is_disabled": 0, "rental_uris": {"android": "https://dc.lft.to/lastmile_qr_scan", "ios": "https://dc.lft.to/lastmile_qr_scan"}, "fusion_lon": 0.0, "lat": 38.912574, "bike_id": "128dacab8ca66a6781ca8bc2bdf8fb13", "type": "electric_scooter", "is_reserved": 0, "lon": -77.03636966666667}, {"fusion_lat": 0.0, "name": "edbef3ef692ccb0f73c440bee8a98570", "is_disabled": 0, "rental_uris": {"android": "https://dc.lft.to/lastmile_qr_scan", "ios": "https://dc.lft.to/lastmile_qr_scan"}, "fusion_lon": 0.0, "lat": 38.934760833333335, "bike_id": "edbef3ef692ccb0f73c440bee8a98570", "type": "electric_scooter", "is_reserved": 0, "lon": -77.086664}, {"fusion_lat": 0.0, "name": "46b5d8d08dd3ac196bf4035480a79580", "is_disabled": 0, "rental_uris": {"android": "https://dc.lft.to/lastmile_qr_scan", "ios": "https://dc.lft.to/lastmile_qr_scan"}, "fusion_lon": 0.0, "lat": 38.92495366666667, "bike_id": "46b5d8d08dd3ac196bf4035480a79580", "type": "electric_scooter", "is_reserved": 0, "lon": -76.9854075}, {"fusion_lat": 0.0, "name": "a3eb8f3ae60436a80da5b1f39c73e798", "is_disabled": 0, "rental_uris": {"android": "https://dc.lft.to/lastmile_qr_scan", "ios": "https://dc.lft.to/lastmile_qr_scan"}, "fusion_lon": 0.0, "lat": 38.9008865, "bike_id": "a3eb8f3ae60436a80da5b1f39c73e798", "type": "electric_scooter", "is_reserved": 0, "lon": -77.04993433333334}, {"fusion_lat": 0.0, "name": "fe6e42fa53918fc5c437a1962035837a", "is_disabled": 0, "rental_uris": {"android": "https://dc.lft.to/lastmile_qr_scan", "ios": "https://dc.lft.to/lastmile_qr_scan"}, "fusion_lon": 0.0, "lat": 38.87832516666667, "bike_id": "fe6e42fa53918fc5c437a1962035837a", "type": "electric_scooter", "is_reserved": 0, "lon": -76.96326216666667}, {"fusion_lat": 0.0, "name": "641d10348e50998cde45c58c23b94497", "is_disabled": 0, "rental_uris": {"android": "https://dc.lft.to/lastmile_qr_scan", "ios": "https://dc.lft.to/lastmile_qr_scan"}, "fusion_lon": 0.0, "lat": 38.94078416666667, "bike_id": "641d10348e50998cde45c58c23b94497", "type": "electric_scooter", "is_reserved": 0, "lon": -77.026415}, {"fusion_lat": 0.0, "name": "fad1ec95d9ef644ec720d2fe075e3ac9", "is_disabled": 0, "rental_uris": {"android": "https://dc.lft.to/lastmile_qr_scan", "ios": "https://dc.lft.to/lastmile_qr_scan"}, "fusion_lon": 0.0, "lat": 38.904016, "bike_id": "fad1ec95d9ef644ec720d2fe075e3ac9", "type": "electric_scooter", "is_reserved": 0, "lon": -77.02025483333334}, {"fusion_lat": 0.0, "name": "6b51227abcfd9fb4abc521a12c8e1549", "is_disabled": 0, "rental_uris": {"android": "https://dc.lft.to/lastmile_qr_scan", "ios": "https://dc.lft.to/lastmile_qr_scan"}, "fusion_lon": 0.0, "lat": 38.931358, "bike_id": "6b51227abcfd9fb4abc521a12c8e1549", "type": "electric_scooter", "is_reserved": 0, "lon": -77.02834033333333}, {"fusion_lat": 0.0, "name": "27f19bafc679ed4da5068b24455deb27", "is_disabled": 0, "rental_uris": {"android": "https://dc.lft.to/lastmile_qr_scan", "ios": "https://dc.lft.to/lastmile_qr_scan"}, "fusion_lon": 0.0, "lat": 38.886610166666664, "bike_id": "27f19bafc679ed4da5068b24455deb27", "type": "electric_scooter", "is_reserved": 0, "lon": -76.9856985}, {"fusion_lat": 0.0, "name": "3651c086adbfc497c67c19c81a628071", "is_disabled": 0, "rental_uris": {"android": "https://dc.lft.to/lastmile_qr_scan", "ios": "https://dc.lft.to/lastmile_qr_scan"}, "fusion_lon": 0.0, "lat": 38.89838183333333, "bike_id": "3651c086adbfc497c67c19c81a628071", "type": "electric_scooter", "is_reserved": 0, "lon": -77.00759483333333}, {"fusion_lat": 0.0, "name": "9024ba62a13da8f2793ee6acac146f35", "is_disabled": 0, "rental_uris": {"android": "https://dc.lft.to/lastmile_qr_scan", "ios": "https://dc.lft.to/lastmile_qr_scan"}, "fusion_lon": 0.0, "lat": 38.91375816666667, "bike_id": "9024ba62a13da8f2793ee6acac146f35", "type": "electric_scooter", "is_reserved": 0, "lon": -77.045686}, {"fusion_lat": 0.0, "name": "08ee21bdc9817e62c75657b6fb5eaeef", "is_disabled": 0, "rental_uris": {"android": "https://dc.lft.to/lastmile_qr_scan", "ios": "https://dc.lft.to/lastmile_qr_scan"}, "fusion_lon": 0.0, "lat": 38.914922, "bike_id": "08ee21bdc9817e62c75657b6fb5eaeef", "type": "electric_scooter", "is_reserved": 0, "lon": -77.04245533333334}, {"fusion_lat": 0.0, "name": "e2cf135d59bd43320ff02a4c53994517", "is_disabled": 0, "rental_uris": {"android": "https://dc.lft.to/lastmile_qr_scan", "ios": "https://dc.lft.to/lastmile_qr_scan"}, "fusion_lon": 0.0, "lat": 39.070495333333334, "bike_id": "e2cf135d59bd43320ff02a4c53994517", "type": "electric_bike", "is_reserved": 0, "lon": -77.11489133333333}, {"fusion_lat": 0.0, "name": "99c39eb472253c5573e82acfd71dd549", "is_disabled": 0, "rental_uris": {"android": "https://dc.lft.to/lastmile_qr_scan", "ios": "https://dc.lft.to/lastmile_qr_scan"}, "fusion_lon": 0.0, "lat": 38.898863666666664, "bike_id": "99c39eb472253c5573e82acfd71dd549", "type": "electric_scooter", "is_reserved": 0, "lon": -76.98064133333334}, {"fusion_lat": 0.0, "name": "8518aa2ff224d5cceea91aad95bb7635", "is_disabled": 0, "rental_uris": {"android": "https://dc.lft.to/lastmile_qr_scan", "ios": "https://dc.lft.to/lastmile_qr_scan"}, "fusion_lon": 0.0, "lat": 38.8999525, "bike_id": "8518aa2ff224d5cceea91aad95bb7635", "type": "electric_scooter", "is_reserved": 0, "lon": -77.023036}, {"fusion_lat": 0.0, "name": "fe225972d5024f22d87452c8e406940b", "is_disabled": 0, "rental_uris": {"android": "https://dc.lft.to/lastmile_qr_scan", "ios": "https://dc.lft.to/lastmile_qr_scan"}, "fusion_lon": 0.0, "lat": 38.9233575, "bike_id": "fe225972d5024f22d87452c8e406940b", "type": "electric_scooter", "is_reserved": 0, "lon": -77.053046}, {"fusion_lat": 0.0, "name": "711fd30c74e66da5c577a4c2ff76a5a4", "is_disabled": 0, "rental_uris": {"android": "https://dc.lft.to/lastmile_qr_scan", "ios": "https://dc.lft.to/lastmile_qr_scan"}, "fusion_lon": 0.0, "lat": 38.90194983333333, "bike_id": "711fd30c74e66da5c577a4c2ff76a5a4", "type": "electric_scooter", "is_reserved": 0, "lon": -77.06116033333333}, {"fusion_lat": 0.0, "name": "d1815ffd38cff5d5bd72da64a5a525d5", "is_disabled": 0, "rental_uris": {"android": "https://dc.lft.to/lastmile_qr_scan", "ios": "https://dc.lft.to/lastmile_qr_scan"}, "fusion_lon": 0.0, "lat": 38.9022455, "bike_id": "d1815ffd38cff5d5bd72da64a5a525d5", "type": "electric_scooter", "is_reserved": 0, "lon": -77.02061816666667}, {"fusion_lat": 0.0, "name": "b123ea3a95ac181455ddc144bbea1f13", "is_disabled": 0, "rental_uris": {"android": "https://dc.lft.to/lastmile_qr_scan", "ios": "https://dc.lft.to/lastmile_qr_scan"}, "fusion_lon": 0.0, "lat": 38.907442333333336, "bike_id": "b123ea3a95ac181455ddc144bbea1f13", "type": "electric_scooter", "is_reserved": 0, "lon": -77.0077}, {"fusion_lat": 0.0, "name": "cb2a84149dd284cef1d9fe6789a991a9", "is_disabled": 0, "rental_uris": {"android": "https://dc.lft.to/lastmile_qr_scan", "ios": "https://dc.lft.to/lastmile_qr_scan"}, "fusion_lon": 0.0, "lat": 38.9112805, "bike_id": "cb2a84149dd284cef1d9fe6789a991a9", "type": "electric_scooter", "is_reserved": 0, "lon": -77.00408916666666}, {"fusion_lat": 0.0, "name": "c16f66a40298b16705db5ab1244697ba", "is_disabled": 0, "rental_uris": {"android": "https://dc.lft.to/lastmile_qr_scan", "ios": "https://dc.lft.to/lastmile_qr_scan"}, "fusion_lon": 0.0, "lat": 38.897291833333334, "bike_id": "c16f66a40298b16705db5ab1244697ba", "type": "electric_scooter", "is_reserved": 0, "lon": -76.99136866666667}, {"fusion_lat": 0.0, "name": "42c2771f48ca33073de8d188aab8d4b4", "is_disabled": 0, "rental_uris": {"android": "https://dc.lft.to/lastmile_qr_scan", "ios": "https://dc.lft.to/lastmile_qr_scan"}, "fusion_lon": 0.0, "lat": 38.949620333333336, "bike_id": "42c2771f48ca33073de8d188aab8d4b4", "type": "electric_scooter", "is_reserved": 0, "lon": -77.06630616666666}, {"fusion_lat": 0.0, "name": "b7521a486c2ba6de9358a064978ac60c", "is_disabled": 0, "rental_uris": {"android": "https://dc.lft.to/lastmile_qr_scan", "ios": "https://dc.lft.to/lastmile_qr_scan"}, "fusion_lon": 0.0, "lat": 38.935802333333335, "bike_id": "b7521a486c2ba6de9358a064978ac60c", "type": "electric_scooter", "is_reserved": 0, "lon": -77.02125966666667}, {"fusion_lat": 0.0, "name": "c77c7aaf0de27bc28897fd9ab88fa1ad", "is_disabled": 0, "rental_uris": {"android": "https://dc.lft.to/lastmile_qr_scan", "ios": "https://dc.lft.to/lastmile_qr_scan"}, "fusion_lon": 0.0, "lat": 38.895787, "bike_id": "c77c7aaf0de27bc28897fd9ab88fa1ad", "type": "electric_scooter", "is_reserved": 0, "lon": -76.983311}, {"fusion_lat": 0.0, "name": "9cc3f54aa957bf54cca3a849ff273efd", "is_disabled": 0, "rental_uris": {"android": "https://dc.lft.to/lastmile_qr_scan", "ios": "https://dc.lft.to/lastmile_qr_scan"}, "fusion_lon": 0.0, "lat": 38.92083983333333, "bike_id": "9cc3f54aa957bf54cca3a849ff273efd", "type": "electric_scooter", "is_reserved": 0, "lon": -77.02408766666667}, {"fusion_lat": 0.0, "name": "1e1c8119833910722ad6917ab7b3090b", "is_disabled": 0, "rental_uris": {"android": "https://dc.lft.to/lastmile_qr_scan", "ios": "https://dc.lft.to/lastmile_qr_scan"}, "fusion_lon": 0.0, "lat": 38.90784283333333, "bike_id": "1e1c8119833910722ad6917ab7b3090b", "type": "electric_scooter", "is_reserved": 0, "lon": -77.07259}, {"fusion_lat": 0.0, "name": "f43d000530b85b40df65bde0d71824b2", "is_disabled": 0, "rental_uris": {"android": "https://dc.lft.to/lastmile_qr_scan", "ios": "https://dc.lft.to/lastmile_qr_scan"}, "fusion_lon": 0.0, "lat": 38.874796333333336, "bike_id": "f43d000530b85b40df65bde0d71824b2", "type": "electric_scooter", "is_reserved": 0, "lon": -77.00599566666666}, {"fusion_lat": 0.0, "name": "23667ec5ab0dcdc9c867f597ab1bdbdc", "is_disabled": 0, "rental_uris": {"android": "https://dc.lft.to/lastmile_qr_scan", "ios": "https://dc.lft.to/lastmile_qr_scan"}, "fusion_lon": 0.0, "lat": 38.92459783333334, "bike_id": "23667ec5ab0dcdc9c867f597ab1bdbdc", "type": "electric_scooter", "is_reserved": 0, "lon": -77.03971966666667}, {"fusion_lat": 0.0, "name": "b213900cd5649e33a1d9bcf6cd13bcaf", "is_disabled": 0, "rental_uris": {"android": "https://dc.lft.to/lastmile_qr_scan", "ios": "https://dc.lft.to/lastmile_qr_scan"}, "fusion_lon": 0.0, "lat": 38.9182815, "bike_id": "b213900cd5649e33a1d9bcf6cd13bcaf", "type": "electric_scooter", "is_reserved": 0, "lon": -77.03206883333333}, {"fusion_lat": 0.0, "name": "cea8da1e99f9671c08f0ca47c908640f", "is_disabled": 0, "rental_uris": {"android": "https://dc.lft.to/lastmile_qr_scan", "ios": "https://dc.lft.to/lastmile_qr_scan"}, "fusion_lon": 0.0, "lat": 38.920925, "bike_id": "cea8da1e99f9671c08f0ca47c908640f", "type": "electric_scooter", "is_reserved": 0, "lon": -77.0251155}, {"fusion_lat": 0.0, "name": "0d1233ad481be2ab9f25ab41c3a81340", "is_disabled": 0, "rental_uris": {"android": "https://dc.lft.to/lastmile_qr_scan", "ios": "https://dc.lft.to/lastmile_qr_scan"}, "fusion_lon": 0.0, "lat": 38.886641166666664, "bike_id": "0d1233ad481be2ab9f25ab41c3a81340", "type": "electric_scooter", "is_reserved": 0, "lon": -77.01982016666666}, {"fusion_lat": 0.0, "name": "5467440c5d61a016e7a14af643ee5dd2", "is_disabled": 0, "rental_uris": {"android": "https://dc.lft.to/lastmile_qr_scan", "ios": "https://dc.lft.to/lastmile_qr_scan"}, "fusion_lon": 0.0, "lat": 38.93227483333333, "bike_id": "5467440c5d61a016e7a14af643ee5dd2", "type": "electric_scooter", "is_reserved": 0, "lon": -76.9949505}, {"fusion_lat": 0.0, "name": "0b93b9f317f9f5439401786702fbf416", "is_disabled": 0, "rental_uris": {"android": "https://dc.lft.to/lastmile_qr_scan", "ios": "https://dc.lft.to/lastmile_qr_scan"}, "fusion_lon": 0.0, "lat": 38.926933166666664, "bike_id": "0b93b9f317f9f5439401786702fbf416", "type": "electric_scooter", "is_reserved": 0, "lon": -77.02546683333334}, {"fusion_lat": 0.0, "name": "01071e56e70284738bf29b45dc6b540a", "is_disabled": 0, "rental_uris": {"android": "https://dc.lft.to/lastmile_qr_scan", "ios": "https://dc.lft.to/lastmile_qr_scan"}, "fusion_lon": 0.0, "lat": 38.807557, "bike_id": "01071e56e70284738bf29b45dc6b540a", "type": "electric_bike", "is_reserved": 0, "lon": -77.0945845}, {"fusion_lat": 0.0, "name": "918431ff5b30d860cdf4991bd0c63cec", "is_disabled": 0, "rental_uris": {"android": "https://dc.lft.to/lastmile_qr_scan", "ios": "https://dc.lft.to/lastmile_qr_scan"}, "fusion_lon": 0.0, "lat": 38.8829935, "bike_id": "918431ff5b30d860cdf4991bd0c63cec", "type": "electric_scooter", "is_reserved": 0, "lon": -76.9486215}, {"fusion_lat": 0.0, "name": "7ec3237165efe449807590cf422cdca0", "is_disabled": 0, "rental_uris": {"android": "https://dc.lft.to/lastmile_qr_scan", "ios": "https://dc.lft.to/lastmile_qr_scan"}, "fusion_lon": 0.0, "lat": 38.85415533333333, "bike_id": "7ec3237165efe449807590cf422cdca0", "type": "electric_bike", "is_reserved": 0, "lon": -77.12079033333333}, {"fusion_lat": 0.0, "name": "c2c2be557b0c00fb2f0ad9b576e68e0c", "is_disabled": 0, "rental_uris": {"android": "https://dc.lft.to/lastmile_qr_scan", "ios": "https://dc.lft.to/lastmile_qr_scan"}, "fusion_lon": 0.0, "lat": 38.907572333333334, "bike_id": "c2c2be557b0c00fb2f0ad9b576e68e0c", "type": "electric_scooter", "is_reserved": 0, "lon": -77.03846983333334}, {"fusion_lat": 0.0, "name": "cdd47b8a5624a664ff0202093cf3663c", "is_disabled": 0, "rental_uris": {"android": "https://dc.lft.to/lastmile_qr_scan", "ios": "https://dc.lft.to/lastmile_qr_scan"}, "fusion_lon": 0.0, "lat": 38.909158833333336, "bike_id": "cdd47b8a5624a664ff0202093cf3663c", "type": "electric_scooter", "is_reserved": 0, "lon": -77.06422016666667}, {"fusion_lat": 0.0, "name": "f6fd94973d58d0b2d99057e0d4d16461", "is_disabled": 0, "rental_uris": {"android": "https://dc.lft.to/lastmile_qr_scan", "ios": "https://dc.lft.to/lastmile_qr_scan"}, "fusion_lon": 0.0, "lat": 38.917046, "bike_id": "f6fd94973d58d0b2d99057e0d4d16461", "type": "electric_scooter", "is_reserved": 0, "lon": -77.03881516666667}, {"fusion_lat": 0.0, "name": "fcc9efa513ec30888de0db5083098c3a", "is_disabled": 0, "rental_uris": {"android": "https://dc.lft.to/lastmile_qr_scan", "ios": "https://dc.lft.to/lastmile_qr_scan"}, "fusion_lon": 0.0, "lat": 38.88517, "bike_id": "fcc9efa513ec30888de0db5083098c3a", "type": "electric_bike", "is_reserved": 0, "lon": -77.0159275}, {"fusion_lat": 0.0, "name": "1422d949668a778d079ea094f9e626e6", "is_disabled": 0, "rental_uris": {"android": "https://dc.lft.to/lastmile_qr_scan", "ios": "https://dc.lft.to/lastmile_qr_scan"}, "fusion_lon": 0.0, "lat": 38.912041333333335, "bike_id": "1422d949668a778d079ea094f9e626e6", "type": "electric_scooter", "is_reserved": 0, "lon": -77.0008685}, {"fusion_lat": 0.0, "name": "a03d4504b0a74b66fa6331a74cad4410", "is_disabled": 0, "rental_uris": {"android": "https://dc.lft.to/lastmile_qr_scan", "ios": "https://dc.lft.to/lastmile_qr_scan"}, "fusion_lon": 0.0, "lat": 38.91704716666667, "bike_id": "a03d4504b0a74b66fa6331a74cad4410", "type": "electric_scooter", "is_reserved": 0, "lon": -77.03236366666667}, {"fusion_lat": 0.0, "name": "4d8c2dc4513a6eeec409abc93a080652", "is_disabled": 0, "rental_uris": {"android": "https://dc.lft.to/lastmile_qr_scan", "ios": "https://dc.lft.to/lastmile_qr_scan"}, "fusion_lon": 0.0, "lat": 38.909764333333335, "bike_id": "4d8c2dc4513a6eeec409abc93a080652", "type": "electric_scooter", "is_reserved": 0, "lon": -77.0480775}, {"fusion_lat": 0.0, "name": "67df84415b82905b07cf7513b5e509b3", "is_disabled": 0, "rental_uris": {"android": "https://dc.lft.to/lastmile_qr_scan", "ios": "https://dc.lft.to/lastmile_qr_scan"}, "fusion_lon": 0.0, "lat": 38.90386433333333, "bike_id": "67df84415b82905b07cf7513b5e509b3", "type": "electric_scooter", "is_reserved": 0, "lon": -77.0384845}, {"fusion_lat": 0.0, "name": "0905be33de41de042a6679cd1e296576", "is_disabled": 0, "rental_uris": {"android": "https://dc.lft.to/lastmile_qr_scan", "ios": "https://dc.lft.to/lastmile_qr_scan"}, "fusion_lon": 0.0, "lat": 38.98050666666666, "bike_id": "0905be33de41de042a6679cd1e296576", "type": "electric_bike", "is_reserved": 0, "lon": -76.95804316666667}, {"fusion_lat": 0.0, "name": "860bee07aa7ba1e30925c21290e67d32", "is_disabled": 0, "rental_uris": {"android": "https://dc.lft.to/lastmile_qr_scan", "ios": "https://dc.lft.to/lastmile_qr_scan"}, "fusion_lon": 0.0, "lat": 38.9237995, "bike_id": "860bee07aa7ba1e30925c21290e67d32", "type": "electric_scooter", "is_reserved": 0, "lon": -77.04107366666666}, {"fusion_lat": 0.0, "name": "1b01654b39b72b1b5eb7ff124f2fef72", "is_disabled": 0, "rental_uris": {"android": "https://dc.lft.to/lastmile_qr_scan", "ios": "https://dc.lft.to/lastmile_qr_scan"}, "fusion_lon": 0.0, "lat": 38.938433333333336, "bike_id": "1b01654b39b72b1b5eb7ff124f2fef72", "type": "electric_scooter", "is_reserved": 0, "lon": -77.024558}, {"fusion_lat": 0.0, "name": "38d6a046d306b4592447b3a3c8e47f20", "is_disabled": 0, "rental_uris": {"android": "https://dc.lft.to/lastmile_qr_scan", "ios": "https://dc.lft.to/lastmile_qr_scan"}, "fusion_lon": 0.0, "lat": 38.941932333333334, "bike_id": "38d6a046d306b4592447b3a3c8e47f20", "type": "electric_scooter", "is_reserved": 0, "lon": -77.04112616666667}, {"fusion_lat": 0.0, "name": "67153978b59054f6756d07e0434c5daf", "is_disabled": 0, "rental_uris": {"android": "https://dc.lft.to/lastmile_qr_scan", "ios": "https://dc.lft.to/lastmile_qr_scan"}, "fusion_lon": 0.0, "lat": 38.92062683333333, "bike_id": "67153978b59054f6756d07e0434c5daf", "type": "electric_scooter", "is_reserved": 0, "lon": -77.02309833333334}, {"fusion_lat": 0.0, "name": "6821f5d9446b009a62083c21b01eb2e5", "is_disabled": 0, "rental_uris": {"android": "https://dc.lft.to/lastmile_qr_scan", "ios": "https://dc.lft.to/lastmile_qr_scan"}, "fusion_lon": 0.0, "lat": 38.904646666666665, "bike_id": "6821f5d9446b009a62083c21b01eb2e5", "type": "electric_scooter", "is_reserved": 0, "lon": -77.03901066666667}, {"fusion_lat": 0.0, "name": "e8422b72c4df26b4fc4608edadfe8414", "is_disabled": 0, "rental_uris": {"android": "https://dc.lft.to/lastmile_qr_scan", "ios": "https://dc.lft.to/lastmile_qr_scan"}, "fusion_lon": 0.0, "lat": 38.90025683333333, "bike_id": "e8422b72c4df26b4fc4608edadfe8414", "type": "electric_scooter", "is_reserved": 0, "lon": -77.001892}, {"fusion_lat": 0.0, "name": "fc4fc5fe0d00fa11658c741ca6786e2f", "is_disabled": 0, "rental_uris": {"android": "https://dc.lft.to/lastmile_qr_scan", "ios": "https://dc.lft.to/lastmile_qr_scan"}, "fusion_lon": 0.0, "lat": 38.91738016666667, "bike_id": "fc4fc5fe0d00fa11658c741ca6786e2f", "type": "electric_scooter", "is_reserved": 0, "lon": -77.0344545}, {"fusion_lat": 0.0, "name": "b4829c03033f23c46bb5cd592c6020d6", "is_disabled": 0, "rental_uris": {"android": "https://dc.lft.to/lastmile_qr_scan", "ios": "https://dc.lft.to/lastmile_qr_scan"}, "fusion_lon": 0.0, "lat": 38.906002, "bike_id": "b4829c03033f23c46bb5cd592c6020d6", "type": "electric_scooter", "is_reserved": 0, "lon": -77.0031695}, {"fusion_lat": 0.0, "name": "8db51f89fa51da101ff846c4172264e7", "is_disabled": 0, "rental_uris": {"android": "https://dc.lft.to/lastmile_qr_scan", "ios": "https://dc.lft.to/lastmile_qr_scan"}, "fusion_lon": 0.0, "lat": 38.911196333333336, "bike_id": "8db51f89fa51da101ff846c4172264e7", "type": "electric_scooter", "is_reserved": 0, "lon": -77.03425633333333}, {"fusion_lat": 0.0, "name": "2834668d2baf2e84e556d5239b2bea80", "is_disabled": 0, "rental_uris": {"android": "https://dc.lft.to/lastmile_qr_scan", "ios": "https://dc.lft.to/lastmile_qr_scan"}, "fusion_lon": 0.0, "lat": 38.88740883333333, "bike_id": "2834668d2baf2e84e556d5239b2bea80", "type": "electric_scooter", "is_reserved": 0, "lon": -77.0213655}, {"fusion_lat": 0.0, "name": "42f679329731014fa9d4e524709055cd", "is_disabled": 0, "rental_uris": {"android": "https://dc.lft.to/lastmile_qr_scan", "ios": "https://dc.lft.to/lastmile_qr_scan"}, "fusion_lon": 0.0, "lat": 38.90666316666667, "bike_id": "42f679329731014fa9d4e524709055cd", "type": "electric_scooter", "is_reserved": 0, "lon": -77.02707633333333}, {"fusion_lat": 0.0, "name": "4bbeea1850b0cee98dc07cf79383660f", "is_disabled": 0, "rental_uris": {"android": "https://dc.lft.to/lastmile_qr_scan", "ios": "https://dc.lft.to/lastmile_qr_scan"}, "fusion_lon": 0.0, "lat": 38.92455566666667, "bike_id": "4bbeea1850b0cee98dc07cf79383660f", "type": "electric_scooter", "is_reserved": 0, "lon": -77.039817}, {"fusion_lat": 0.0, "name": "9995b89ac8473951d2c10feaed743d8f", "is_disabled": 0, "rental_uris": {"android": "https://dc.lft.to/lastmile_qr_scan", "ios": "https://dc.lft.to/lastmile_qr_scan"}, "fusion_lon": 0.0, "lat": 38.921351333333334, "bike_id": "9995b89ac8473951d2c10feaed743d8f", "type": "electric_scooter", "is_reserved": 0, "lon": -77.0442145}, {"fusion_lat": 0.0, "name": "45fbb93fcda19d3e2b765000a0f6b2f2", "is_disabled": 0, "rental_uris": {"android": "https://dc.lft.to/lastmile_qr_scan", "ios": "https://dc.lft.to/lastmile_qr_scan"}, "fusion_lon": 0.0, "lat": 38.89949133333333, "bike_id": "45fbb93fcda19d3e2b765000a0f6b2f2", "type": "electric_scooter", "is_reserved": 0, "lon": -77.02215566666666}, {"fusion_lat": 0.0, "name": "34d0e91b59bee54ba814442a9832545e", "is_disabled": 0, "rental_uris": {"android": "https://dc.lft.to/lastmile_qr_scan", "ios": "https://dc.lft.to/lastmile_qr_scan"}, "fusion_lon": 0.0, "lat": 38.95513016666666, "bike_id": "34d0e91b59bee54ba814442a9832545e", "type": "electric_scooter", "is_reserved": 0, "lon": -77.02837633333333}, {"fusion_lat": 0.0, "name": "338f819ea26417a1e1d1b6129acf7c02", "is_disabled": 0, "rental_uris": {"android": "https://dc.lft.to/lastmile_qr_scan", "ios": "https://dc.lft.to/lastmile_qr_scan"}, "fusion_lon": 0.0, "lat": 38.941056, "bike_id": "338f819ea26417a1e1d1b6129acf7c02", "type": "electric_scooter", "is_reserved": 0, "lon": -77.00054483333334}, {"fusion_lat": 0.0, "name": "dff7dbf3ec96d7354e1816da451e2087", "is_disabled": 0, "rental_uris": {"android": "https://dc.lft.to/lastmile_qr_scan", "ios": "https://dc.lft.to/lastmile_qr_scan"}, "fusion_lon": 0.0, "lat": 38.94895566666667, "bike_id": "dff7dbf3ec96d7354e1816da451e2087", "type": "electric_bike", "is_reserved": 0, "lon": -76.96382216666666}, {"fusion_lat": 0.0, "name": "5f44ca4c3befd2265fcb3dc2592f894e", "is_disabled": 0, "rental_uris": {"android": "https://dc.lft.to/lastmile_qr_scan", "ios": "https://dc.lft.to/lastmile_qr_scan"}, "fusion_lon": 0.0, "lat": 38.9375665, "bike_id": "5f44ca4c3befd2265fcb3dc2592f894e", "type": "electric_bike", "is_reserved": 0, "lon": -76.95828933333334}, {"fusion_lat": 0.0, "name": "4b45807da6d41dc060b9dca5b85e41fd", "is_disabled": 0, "rental_uris": {"android": "https://dc.lft.to/lastmile_qr_scan", "ios": "https://dc.lft.to/lastmile_qr_scan"}, "fusion_lon": 0.0, "lat": 38.88426466666667, "bike_id": "4b45807da6d41dc060b9dca5b85e41fd", "type": "electric_scooter", "is_reserved": 0, "lon": -76.99615666666666}, {"fusion_lat": 0.0, "name": "79cb5ae560535e7d88e027b365ecff32", "is_disabled": 0, "rental_uris": {"android": "https://dc.lft.to/lastmile_qr_scan", "ios": "https://dc.lft.to/lastmile_qr_scan"}, "fusion_lon": 0.0, "lat": 38.9039805, "bike_id": "79cb5ae560535e7d88e027b365ecff32", "type": "electric_scooter", "is_reserved": 0, "lon": -77.00200466666666}, {"fusion_lat": 0.0, "name": "4450b1ab80688cfeafc24bd399a5f4b8", "is_disabled": 0, "rental_uris": {"android": "https://dc.lft.to/lastmile_qr_scan", "ios": "https://dc.lft.to/lastmile_qr_scan"}, "fusion_lon": 0.0, "lat": 38.92515183333333, "bike_id": "4450b1ab80688cfeafc24bd399a5f4b8", "type": "electric_scooter", "is_reserved": 0, "lon": -77.0522795}, {"fusion_lat": 0.0, "name": "b9d244ab11b55a5d9aa850a5caf8991c", "is_disabled": 0, "rental_uris": {"android": "https://dc.lft.to/lastmile_qr_scan", "ios": "https://dc.lft.to/lastmile_qr_scan"}, "fusion_lon": 0.0, "lat": 38.8996625, "bike_id": "b9d244ab11b55a5d9aa850a5caf8991c", "type": "electric_bike", "is_reserved": 0, "lon": -76.9867325}, {"fusion_lat": 0.0, "name": "30ff0c334dd67013538f3cd9a2c1c101", "is_disabled": 0, "rental_uris": {"android": "https://dc.lft.to/lastmile_qr_scan", "ios": "https://dc.lft.to/lastmile_qr_scan"}, "fusion_lon": 0.0, "lat": 38.9077275, "bike_id": "30ff0c334dd67013538f3cd9a2c1c101", "type": "electric_scooter", "is_reserved": 0, "lon": -76.997226}, {"fusion_lat": 0.0, "name": "aa8cec3db01b44920bfdd20b9d986d46", "is_disabled": 0, "rental_uris": {"android": "https://dc.lft.to/lastmile_qr_scan", "ios": "https://dc.lft.to/lastmile_qr_scan"}, "fusion_lon": 0.0, "lat": 38.89387983333334, "bike_id": "aa8cec3db01b44920bfdd20b9d986d46", "type": "electric_scooter", "is_reserved": 0, "lon": -76.92309183333333}, {"fusion_lat": 0.0, "name": "50c2fb959a40fb182a89c23ed1f675e5", "is_disabled": 0, "rental_uris": {"android": "https://dc.lft.to/lastmile_qr_scan", "ios": "https://dc.lft.to/lastmile_qr_scan"}, "fusion_lon": 0.0, "lat": 38.910241, "bike_id": "50c2fb959a40fb182a89c23ed1f675e5", "type": "electric_scooter", "is_reserved": 0, "lon": -77.0689915}, {"fusion_lat": 0.0, "name": "ffc9e5ed2e8131e1b3b8a6ddfedc2e00", "is_disabled": 0, "rental_uris": {"android": "https://dc.lft.to/lastmile_qr_scan", "ios": "https://dc.lft.to/lastmile_qr_scan"}, "fusion_lon": 0.0, "lat": 38.91209633333333, "bike_id": "ffc9e5ed2e8131e1b3b8a6ddfedc2e00", "type": "electric_scooter", "is_reserved": 0, "lon": -77.03864666666666}, {"fusion_lat": 0.0, "name": "d144cd51e4c04a04283f433253017d34", "is_disabled": 0, "rental_uris": {"android": "https://dc.lft.to/lastmile_qr_scan", "ios": "https://dc.lft.to/lastmile_qr_scan"}, "fusion_lon": 0.0, "lat": 38.89089516666667, "bike_id": "d144cd51e4c04a04283f433253017d34", "type": "electric_scooter", "is_reserved": 0, "lon": -77.003435}, {"fusion_lat": 0.0, "name": "717b34182f716e8fb627b8128c4d0675", "is_disabled": 0, "rental_uris": {"android": "https://dc.lft.to/lastmile_qr_scan", "ios": "https://dc.lft.to/lastmile_qr_scan"}, "fusion_lon": 0.0, "lat": 38.919387666666665, "bike_id": "717b34182f716e8fb627b8128c4d0675", "type": "electric_scooter", "is_reserved": 0, "lon": -77.048886}, {"fusion_lat": 0.0, "name": "18648c4f79b761809bcc2fe0c02f8698", "is_disabled": 0, "rental_uris": {"android": "https://dc.lft.to/lastmile_qr_scan", "ios": "https://dc.lft.to/lastmile_qr_scan"}, "fusion_lon": 0.0, "lat": 38.9526175, "bike_id": "18648c4f79b761809bcc2fe0c02f8698", "type": "electric_bike", "is_reserved": 0, "lon": -76.99880716666667}, {"fusion_lat": 0.0, "name": "19c5d7574302f067f754b29ac05048b9", "is_disabled": 0, "rental_uris": {"android": "https://dc.lft.to/lastmile_qr_scan", "ios": "https://dc.lft.to/lastmile_qr_scan"}, "fusion_lon": 0.0, "lat": 38.893482166666665, "bike_id": "19c5d7574302f067f754b29ac05048b9", "type": "electric_scooter", "is_reserved": 0, "lon": -77.03971683333333}, {"fusion_lat": 0.0, "name": "b3628654de5a9eb21265c9cf504bd39f", "is_disabled": 0, "rental_uris": {"android": "https://dc.lft.to/lastmile_qr_scan", "ios": "https://dc.lft.to/lastmile_qr_scan"}, "fusion_lon": 0.0, "lat": 38.907386333333335, "bike_id": "b3628654de5a9eb21265c9cf504bd39f", "type": "electric_scooter", "is_reserved": 0, "lon": -77.04329516666667}, {"fusion_lat": 0.0, "name": "994076371a2529e7fbfc8f9121b8ba63", "is_disabled": 0, "rental_uris": {"android": "https://dc.lft.to/lastmile_qr_scan", "ios": "https://dc.lft.to/lastmile_qr_scan"}, "fusion_lon": 0.0, "lat": 38.907319, "bike_id": "994076371a2529e7fbfc8f9121b8ba63", "type": "electric_scooter", "is_reserved": 0, "lon": -77.04340283333333}, {"fusion_lat": 0.0, "name": "cfc1a8ea639a57b902d2b927d862f742", "is_disabled": 0, "rental_uris": {"android": "https://dc.lft.to/lastmile_qr_scan", "ios": "https://dc.lft.to/lastmile_qr_scan"}, "fusion_lon": 0.0, "lat": 38.92087133333333, "bike_id": "cfc1a8ea639a57b902d2b927d862f742", "type": "electric_scooter", "is_reserved": 0, "lon": -77.0241505}, {"fusion_lat": 0.0, "name": "f3ef45eb155b6c273836de6ce7367073", "is_disabled": 0, "rental_uris": {"android": "https://dc.lft.to/lastmile_qr_scan", "ios": "https://dc.lft.to/lastmile_qr_scan"}, "fusion_lon": 0.0, "lat": 38.930634, "bike_id": "f3ef45eb155b6c273836de6ce7367073", "type": "electric_scooter", "is_reserved": 0, "lon": -77.0321135}, {"fusion_lat": 0.0, "name": "28504dc1b143fc2ee3a9457772b9fa80", "is_disabled": 0, "rental_uris": {"android": "https://dc.lft.to/lastmile_qr_scan", "ios": "https://dc.lft.to/lastmile_qr_scan"}, "fusion_lon": 0.0, "lat": 38.907599833333336, "bike_id": "28504dc1b143fc2ee3a9457772b9fa80", "type": "electric_scooter", "is_reserved": 0, "lon": -77.03581066666666}, {"fusion_lat": 0.0, "name": "101d1fdfa6bc07db9451550712883a0b", "is_disabled": 0, "rental_uris": {"android": "https://dc.lft.to/lastmile_qr_scan", "ios": "https://dc.lft.to/lastmile_qr_scan"}, "fusion_lon": 0.0, "lat": 38.9153095, "bike_id": "101d1fdfa6bc07db9451550712883a0b", "type": "electric_scooter", "is_reserved": 0, "lon": -77.07482816666666}, {"fusion_lat": 0.0, "name": "481135489f34a872f596ebe2781acd2e", "is_disabled": 0, "rental_uris": {"android": "https://dc.lft.to/lastmile_qr_scan", "ios": "https://dc.lft.to/lastmile_qr_scan"}, "fusion_lon": 0.0, "lat": 38.9234645, "bike_id": "481135489f34a872f596ebe2781acd2e", "type": "electric_scooter", "is_reserved": 0, "lon": -77.041594}, {"fusion_lat": 0.0, "name": "bb0e40daf89ed18f4d2e1d2a261a362d", "is_disabled": 0, "rental_uris": {"android": "https://dc.lft.to/lastmile_qr_scan", "ios": "https://dc.lft.to/lastmile_qr_scan"}, "fusion_lon": 0.0, "lat": 38.91977333333333, "bike_id": "bb0e40daf89ed18f4d2e1d2a261a362d", "type": "electric_scooter", "is_reserved": 0, "lon": -77.02404083333333}, {"fusion_lat": 0.0, "name": "49a820047ef3422da3f462365b3a578a", "is_disabled": 0, "rental_uris": {"android": "https://dc.lft.to/lastmile_qr_scan", "ios": "https://dc.lft.to/lastmile_qr_scan"}, "fusion_lon": 0.0, "lat": 38.9169885, "bike_id": "49a820047ef3422da3f462365b3a578a", "type": "electric_scooter", "is_reserved": 0, "lon": -77.0235005}, {"fusion_lat": 0.0, "name": "33f00c12b115f3d700aa0af9ddc7158f", "is_disabled": 0, "rental_uris": {"android": "https://dc.lft.to/lastmile_qr_scan", "ios": "https://dc.lft.to/lastmile_qr_scan"}, "fusion_lon": 0.0, "lat": 38.885382166666666, "bike_id": "33f00c12b115f3d700aa0af9ddc7158f", "type": "electric_scooter", "is_reserved": 0, "lon": -77.00070166666667}, {"fusion_lat": 0.0, "name": "2b55bbe5b05aa4e3094be45e39220ede", "is_disabled": 0, "rental_uris": {"android": "https://dc.lft.to/lastmile_qr_scan", "ios": "https://dc.lft.to/lastmile_qr_scan"}, "fusion_lon": 0.0, "lat": 38.92369633333333, "bike_id": "2b55bbe5b05aa4e3094be45e39220ede", "type": "electric_scooter", "is_reserved": 0, "lon": -77.04322966666666}, {"fusion_lat": 0.0, "name": "82717d39666a52810f40b502e50ffe82", "is_disabled": 0, "rental_uris": {"android": "https://dc.lft.to/lastmile_qr_scan", "ios": "https://dc.lft.to/lastmile_qr_scan"}, "fusion_lon": 0.0, "lat": 38.885328666666666, "bike_id": "82717d39666a52810f40b502e50ffe82", "type": "electric_scooter", "is_reserved": 0, "lon": -77.000687}, {"fusion_lat": 0.0, "name": "cf7dca4da3a8d3c3d36ce9191c7c1328", "is_disabled": 0, "rental_uris": {"android": "https://dc.lft.to/lastmile_qr_scan", "ios": "https://dc.lft.to/lastmile_qr_scan"}, "fusion_lon": 0.0, "lat": 38.87748466666667, "bike_id": "cf7dca4da3a8d3c3d36ce9191c7c1328", "type": "electric_scooter", "is_reserved": 0, "lon": -76.9966475}, {"fusion_lat": 0.0, "name": "022b6f087c5e7c49f9c70182945a5d78", "is_disabled": 0, "rental_uris": {"android": "https://dc.lft.to/lastmile_qr_scan", "ios": "https://dc.lft.to/lastmile_qr_scan"}, "fusion_lon": 0.0, "lat": 38.905116, "bike_id": "022b6f087c5e7c49f9c70182945a5d78", "type": "electric_scooter", "is_reserved": 0, "lon": -77.056807}, {"fusion_lat": 0.0, "name": "684eee14ff9da928c920d14a985bdab5", "is_disabled": 0, "rental_uris": {"android": "https://dc.lft.to/lastmile_qr_scan", "ios": "https://dc.lft.to/lastmile_qr_scan"}, "fusion_lon": 0.0, "lat": 38.90522716666667, "bike_id": "684eee14ff9da928c920d14a985bdab5", "type": "electric_scooter", "is_reserved": 0, "lon": -77.0660585}, {"fusion_lat": 0.0, "name": "11fb4492f8f1723031efa143d02f4bcd", "is_disabled": 0, "rental_uris": {"android": "https://dc.lft.to/lastmile_qr_scan", "ios": "https://dc.lft.to/lastmile_qr_scan"}, "fusion_lon": 0.0, "lat": 38.904552833333334, "bike_id": "11fb4492f8f1723031efa143d02f4bcd", "type": "electric_scooter", "is_reserved": 0, "lon": -77.00170966666667}, {"fusion_lat": 0.0, "name": "ec184839858c3422cff5d7b3afe102d4", "is_disabled": 0, "rental_uris": {"android": "https://dc.lft.to/lastmile_qr_scan", "ios": "https://dc.lft.to/lastmile_qr_scan"}, "fusion_lon": 0.0, "lat": 38.91811583333333, "bike_id": "ec184839858c3422cff5d7b3afe102d4", "type": "electric_scooter", "is_reserved": 0, "lon": -77.0390985}, {"fusion_lat": 0.0, "name": "ddc27687bcc9f7a3c7f9da5f3ba07375", "is_disabled": 0, "rental_uris": {"android": "https://dc.lft.to/lastmile_qr_scan", "ios": "https://dc.lft.to/lastmile_qr_scan"}, "fusion_lon": 0.0, "lat": 38.954214666666665, "bike_id": "ddc27687bcc9f7a3c7f9da5f3ba07375", "type": "electric_scooter", "is_reserved": 0, "lon": -77.02765666666667}, {"fusion_lat": 0.0, "name": "eef8217f0fda63fde2c94851378f8ecb", "is_disabled": 0, "rental_uris": {"android": "https://dc.lft.to/lastmile_qr_scan", "ios": "https://dc.lft.to/lastmile_qr_scan"}, "fusion_lon": 0.0, "lat": 38.923525833333336, "bike_id": "eef8217f0fda63fde2c94851378f8ecb", "type": "electric_scooter", "is_reserved": 0, "lon": -77.03377733333333}, {"fusion_lat": 0.0, "name": "385b2c3235d7b76e2e6565018e587a7c", "is_disabled": 0, "rental_uris": {"android": "https://dc.lft.to/lastmile_qr_scan", "ios": "https://dc.lft.to/lastmile_qr_scan"}, "fusion_lon": 0.0, "lat": 38.997787833333334, "bike_id": "385b2c3235d7b76e2e6565018e587a7c", "type": "electric_bike", "is_reserved": 0, "lon": -77.047221}, {"fusion_lat": 0.0, "name": "c8e1f4c61d227eb42b4c9fa779383448", "is_disabled": 0, "rental_uris": {"android": "https://dc.lft.to/lastmile_qr_scan", "ios": "https://dc.lft.to/lastmile_qr_scan"}, "fusion_lon": 0.0, "lat": 38.925273833333335, "bike_id": "c8e1f4c61d227eb42b4c9fa779383448", "type": "electric_scooter", "is_reserved": 0, "lon": -77.0525015}, {"fusion_lat": 0.0, "name": "11c103542dc1e6e1e8070ba0d1031c23", "is_disabled": 0, "rental_uris": {"android": "https://dc.lft.to/lastmile_qr_scan", "ios": "https://dc.lft.to/lastmile_qr_scan"}, "fusion_lon": 0.0, "lat": 38.90073533333333, "bike_id": "11c103542dc1e6e1e8070ba0d1031c23", "type": "electric_scooter", "is_reserved": 0, "lon": -77.04784416666666}, {"fusion_lat": 0.0, "name": "5c5b0a8ad49aed2e7df3f8feab7fbcae", "is_disabled": 0, "rental_uris": {"android": "https://dc.lft.to/lastmile_qr_scan", "ios": "https://dc.lft.to/lastmile_qr_scan"}, "fusion_lon": 0.0, "lat": 38.903779166666666, "bike_id": "5c5b0a8ad49aed2e7df3f8feab7fbcae", "type": "electric_scooter", "is_reserved": 0, "lon": -77.0482685}, {"fusion_lat": 0.0, "name": "691ceb46192598bd7153cc58e7d06d7b", "is_disabled": 0, "rental_uris": {"android": "https://dc.lft.to/lastmile_qr_scan", "ios": "https://dc.lft.to/lastmile_qr_scan"}, "fusion_lon": 0.0, "lat": 38.90584666666667, "bike_id": "691ceb46192598bd7153cc58e7d06d7b", "type": "electric_scooter", "is_reserved": 0, "lon": -77.00642416666666}, {"fusion_lat": 0.0, "name": "4e32551dbdc54921d2f9e793a36b2841", "is_disabled": 0, "rental_uris": {"android": "https://dc.lft.to/lastmile_qr_scan", "ios": "https://dc.lft.to/lastmile_qr_scan"}, "fusion_lon": 0.0, "lat": 38.905658, "bike_id": "4e32551dbdc54921d2f9e793a36b2841", "type": "electric_scooter", "is_reserved": 0, "lon": -77.0456835}, {"fusion_lat": 0.0, "name": "fe9814791c9fd0dedf8c8d0b5f6b0217", "is_disabled": 0, "rental_uris": {"android": "https://dc.lft.to/lastmile_qr_scan", "ios": "https://dc.lft.to/lastmile_qr_scan"}, "fusion_lon": 0.0, "lat": 38.90957133333333, "bike_id": "fe9814791c9fd0dedf8c8d0b5f6b0217", "type": "electric_scooter", "is_reserved": 0, "lon": -76.98540366666667}, {"fusion_lat": 0.0, "name": "10aba4ae8f79c1c5ba347b80e4d9e238", "is_disabled": 0, "rental_uris": {"android": "https://dc.lft.to/lastmile_qr_scan", "ios": "https://dc.lft.to/lastmile_qr_scan"}, "fusion_lon": 0.0, "lat": 38.90218733333333, "bike_id": "10aba4ae8f79c1c5ba347b80e4d9e238", "type": "electric_scooter", "is_reserved": 0, "lon": -77.01787066666667}, {"fusion_lat": 0.0, "name": "6d8ed1921c206130a4f8b78c950b9d0e", "is_disabled": 0, "rental_uris": {"android": "https://dc.lft.to/lastmile_qr_scan", "ios": "https://dc.lft.to/lastmile_qr_scan"}, "fusion_lon": 0.0, "lat": 38.917099, "bike_id": "6d8ed1921c206130a4f8b78c950b9d0e", "type": "electric_scooter", "is_reserved": 0, "lon": -77.0413015}, {"fusion_lat": 0.0, "name": "0b64f5ec3922188f05e7e2b0e44ef316", "is_disabled": 0, "rental_uris": {"android": "https://dc.lft.to/lastmile_qr_scan", "ios": "https://dc.lft.to/lastmile_qr_scan"}, "fusion_lon": 0.0, "lat": 38.920571833333334, "bike_id": "0b64f5ec3922188f05e7e2b0e44ef316", "type": "electric_scooter", "is_reserved": 0, "lon": -77.02377966666667}, {"fusion_lat": 0.0, "name": "03c0aaec3be6221502efcd433554b16c", "is_disabled": 0, "rental_uris": {"android": "https://dc.lft.to/lastmile_qr_scan", "ios": "https://dc.lft.to/lastmile_qr_scan"}, "fusion_lon": 0.0, "lat": 38.897269, "bike_id": "03c0aaec3be6221502efcd433554b16c", "type": "electric_scooter", "is_reserved": 0, "lon": -77.05528883333334}, {"fusion_lat": 0.0, "name": "505c74859ecbc7783335b7fd5df1c109", "is_disabled": 0, "rental_uris": {"android": "https://dc.lft.to/lastmile_qr_scan", "ios": "https://dc.lft.to/lastmile_qr_scan"}, "fusion_lon": 0.0, "lat": 38.90240633333333, "bike_id": "505c74859ecbc7783335b7fd5df1c109", "type": "electric_scooter", "is_reserved": 0, "lon": -77.0200715}, {"fusion_lat": 0.0, "name": "ca7f0286780ef226504a58dac38d5a27", "is_disabled": 0, "rental_uris": {"android": "https://dc.lft.to/lastmile_qr_scan", "ios": "https://dc.lft.to/lastmile_qr_scan"}, "fusion_lon": 0.0, "lat": 38.84754916666667, "bike_id": "ca7f0286780ef226504a58dac38d5a27", "type": "electric_scooter", "is_reserved": 0, "lon": -76.99508283333333}, {"fusion_lat": 0.0, "name": "23d3c8d1b470978fbc9c020e08f0ae78", "is_disabled": 0, "rental_uris": {"android": "https://dc.lft.to/lastmile_qr_scan", "ios": "https://dc.lft.to/lastmile_qr_scan"}, "fusion_lon": 0.0, "lat": 38.866711333333335, "bike_id": "23d3c8d1b470978fbc9c020e08f0ae78", "type": "electric_scooter", "is_reserved": 0, "lon": -77.01047216666667}, {"fusion_lat": 0.0, "name": "f8e5869c3d4168541df4b99502fbae7a", "is_disabled": 0, "rental_uris": {"android": "https://dc.lft.to/lastmile_qr_scan", "ios": "https://dc.lft.to/lastmile_qr_scan"}, "fusion_lon": 0.0, "lat": 38.853551333333336, "bike_id": "f8e5869c3d4168541df4b99502fbae7a", "type": "electric_bike", "is_reserved": 0, "lon": -77.1346345}, {"fusion_lat": 0.0, "name": "05727543924ac6c8eb9f98575a64bed9", "is_disabled": 0, "rental_uris": {"android": "https://dc.lft.to/lastmile_qr_scan", "ios": "https://dc.lft.to/lastmile_qr_scan"}, "fusion_lon": 0.0, "lat": 38.915941, "bike_id": "05727543924ac6c8eb9f98575a64bed9", "type": "electric_scooter", "is_reserved": 0, "lon": -76.99366266666667}, {"fusion_lat": 0.0, "name": "1b47fc7e9cb870c9a1eb436bd93edd62", "is_disabled": 0, "rental_uris": {"android": "https://dc.lft.to/lastmile_qr_scan", "ios": "https://dc.lft.to/lastmile_qr_scan"}, "fusion_lon": 0.0, "lat": 38.907352, "bike_id": "1b47fc7e9cb870c9a1eb436bd93edd62", "type": "electric_scooter", "is_reserved": 0, "lon": -77.033111}, {"fusion_lat": 0.0, "name": "2f2b23f0679883b55f6889fb3432e527", "is_disabled": 0, "rental_uris": {"android": "https://dc.lft.to/lastmile_qr_scan", "ios": "https://dc.lft.to/lastmile_qr_scan"}, "fusion_lon": 0.0, "lat": 38.9069585, "bike_id": "2f2b23f0679883b55f6889fb3432e527", "type": "electric_scooter", "is_reserved": 0, "lon": -77.0364175}, {"fusion_lat": 0.0, "name": "ca898ba25a67f1faff033ac48b2a4f03", "is_disabled": 0, "rental_uris": {"android": "https://dc.lft.to/lastmile_qr_scan", "ios": "https://dc.lft.to/lastmile_qr_scan"}, "fusion_lon": 0.0, "lat": 38.902114, "bike_id": "ca898ba25a67f1faff033ac48b2a4f03", "type": "electric_scooter", "is_reserved": 0, "lon": -77.01878233333333}, {"fusion_lat": 0.0, "name": "9734e263327573ce9e37a522a194ac36", "is_disabled": 0, "rental_uris": {"android": "https://dc.lft.to/lastmile_qr_scan", "ios": "https://dc.lft.to/lastmile_qr_scan"}, "fusion_lon": 0.0, "lat": 38.91264366666667, "bike_id": "9734e263327573ce9e37a522a194ac36", "type": "electric_scooter", "is_reserved": 0, "lon": -77.036654}, {"fusion_lat": 0.0, "name": "7a761919ae57f38638418a76a54d4090", "is_disabled": 0, "rental_uris": {"android": "https://dc.lft.to/lastmile_qr_scan", "ios": "https://dc.lft.to/lastmile_qr_scan"}, "fusion_lon": 0.0, "lat": 38.95420166666667, "bike_id": "7a761919ae57f38638418a76a54d4090", "type": "electric_scooter", "is_reserved": 0, "lon": -77.02762866666667}, {"fusion_lat": 0.0, "name": "bf57e544321edf1d89da08d56d003e52", "is_disabled": 0, "rental_uris": {"android": "https://dc.lft.to/lastmile_qr_scan", "ios": "https://dc.lft.to/lastmile_qr_scan"}, "fusion_lon": 0.0, "lat": 38.925572, "bike_id": "bf57e544321edf1d89da08d56d003e52", "type": "electric_scooter", "is_reserved": 0, "lon": -77.03341333333333}, {"fusion_lat": 0.0, "name": "38a97644dd2311074b73c484194c908f", "is_disabled": 0, "rental_uris": {"android": "https://dc.lft.to/lastmile_qr_scan", "ios": "https://dc.lft.to/lastmile_qr_scan"}, "fusion_lon": 0.0, "lat": 38.899865, "bike_id": "38a97644dd2311074b73c484194c908f", "type": "electric_scooter", "is_reserved": 0, "lon": -76.99277966666666}, {"fusion_lat": 0.0, "name": "386c22609c6fc219c7137b5d5ba09f91", "is_disabled": 0, "rental_uris": {"android": "https://dc.lft.to/lastmile_qr_scan", "ios": "https://dc.lft.to/lastmile_qr_scan"}, "fusion_lon": 0.0, "lat": 38.9228415, "bike_id": "386c22609c6fc219c7137b5d5ba09f91", "type": "electric_scooter", "is_reserved": 0, "lon": -77.02336216666667}, {"fusion_lat": 0.0, "name": "591f0027e41a15862ae3d879447b1c87", "is_disabled": 0, "rental_uris": {"android": "https://dc.lft.to/lastmile_qr_scan", "ios": "https://dc.lft.to/lastmile_qr_scan"}, "fusion_lon": 0.0, "lat": 38.9100185, "bike_id": "591f0027e41a15862ae3d879447b1c87", "type": "electric_scooter", "is_reserved": 0, "lon": -77.03471016666667}, {"fusion_lat": 0.0, "name": "5f467e6e51ac2a18d353e9b96a641ee9", "is_disabled": 0, "rental_uris": {"android": "https://dc.lft.to/lastmile_qr_scan", "ios": "https://dc.lft.to/lastmile_qr_scan"}, "fusion_lon": 0.0, "lat": 38.9383985, "bike_id": "5f467e6e51ac2a18d353e9b96a641ee9", "type": "electric_scooter", "is_reserved": 0, "lon": -77.02455433333333}, {"fusion_lat": 0.0, "name": "b8d28c22609633c3fedd3e06792024ac", "is_disabled": 0, "rental_uris": {"android": "https://dc.lft.to/lastmile_qr_scan", "ios": "https://dc.lft.to/lastmile_qr_scan"}, "fusion_lon": 0.0, "lat": 38.906331, "bike_id": "b8d28c22609633c3fedd3e06792024ac", "type": "electric_scooter", "is_reserved": 0, "lon": -77.02534966666667}, {"fusion_lat": 0.0, "name": "528da5dc180ce2410b37a8f514bf43c3", "is_disabled": 0, "rental_uris": {"android": "https://dc.lft.to/lastmile_qr_scan", "ios": "https://dc.lft.to/lastmile_qr_scan"}, "fusion_lon": 0.0, "lat": 38.92150683333333, "bike_id": "528da5dc180ce2410b37a8f514bf43c3", "type": "electric_scooter", "is_reserved": 0, "lon": -77.04343583333333}, {"fusion_lat": 0.0, "name": "b1f2a3418361c641de67dea15176d895", "is_disabled": 0, "rental_uris": {"android": "https://dc.lft.to/lastmile_qr_scan", "ios": "https://dc.lft.to/lastmile_qr_scan"}, "fusion_lon": 0.0, "lat": 38.912808, "bike_id": "b1f2a3418361c641de67dea15176d895", "type": "electric_scooter", "is_reserved": 0, "lon": -77.03856633333334}, {"fusion_lat": 0.0, "name": "eb45eec566f823ca42e1470002a26e1c", "is_disabled": 0, "rental_uris": {"android": "https://dc.lft.to/lastmile_qr_scan", "ios": "https://dc.lft.to/lastmile_qr_scan"}, "fusion_lon": 0.0, "lat": 38.93586633333334, "bike_id": "eb45eec566f823ca42e1470002a26e1c", "type": "electric_scooter", "is_reserved": 0, "lon": -77.03344766666666}, {"fusion_lat": 0.0, "name": "d9cc6f2a2dfa452247070f84b4915f71", "is_disabled": 0, "rental_uris": {"android": "https://dc.lft.to/lastmile_qr_scan", "ios": "https://dc.lft.to/lastmile_qr_scan"}, "fusion_lon": 0.0, "lat": 38.883046, "bike_id": "d9cc6f2a2dfa452247070f84b4915f71", "type": "electric_scooter", "is_reserved": 0, "lon": -77.01390033333334}, {"fusion_lat": 0.0, "name": "df0bd7a544085265cf5e6a5fd37499bc", "is_disabled": 0, "rental_uris": {"android": "https://dc.lft.to/lastmile_qr_scan", "ios": "https://dc.lft.to/lastmile_qr_scan"}, "fusion_lon": 0.0, "lat": 38.88547333333333, "bike_id": "df0bd7a544085265cf5e6a5fd37499bc", "type": "electric_scooter", "is_reserved": 0, "lon": -77.02204183333333}, {"fusion_lat": 0.0, "name": "cdb96ab7e0e264a0ef7d90788185e6de", "is_disabled": 0, "rental_uris": {"android": "https://dc.lft.to/lastmile_qr_scan", "ios": "https://dc.lft.to/lastmile_qr_scan"}, "fusion_lon": 0.0, "lat": 38.920756, "bike_id": "cdb96ab7e0e264a0ef7d90788185e6de", "type": "electric_scooter", "is_reserved": 0, "lon": -77.02318933333333}, {"fusion_lat": 0.0, "name": "cb6986e1a9453b44c23c20b39f04fc8f", "is_disabled": 0, "rental_uris": {"android": "https://dc.lft.to/lastmile_qr_scan", "ios": "https://dc.lft.to/lastmile_qr_scan"}, "fusion_lon": 0.0, "lat": 38.90958, "bike_id": "cb6986e1a9453b44c23c20b39f04fc8f", "type": "electric_scooter", "is_reserved": 0, "lon": -77.03947816666667}, {"fusion_lat": 0.0, "name": "a24662167c8c418fb0661c9f23daf970", "is_disabled": 0, "rental_uris": {"android": "https://dc.lft.to/lastmile_qr_scan", "ios": "https://dc.lft.to/lastmile_qr_scan"}, "fusion_lon": 0.0, "lat": 38.916821666666664, "bike_id": "a24662167c8c418fb0661c9f23daf970", "type": "electric_scooter", "is_reserved": 0, "lon": -77.02291116666666}, {"fusion_lat": 0.0, "name": "965887bd5eaf00b9fbea5cc67cdfdb99", "is_disabled": 0, "rental_uris": {"android": "https://dc.lft.to/lastmile_qr_scan", "ios": "https://dc.lft.to/lastmile_qr_scan"}, "fusion_lon": 0.0, "lat": 38.919921, "bike_id": "965887bd5eaf00b9fbea5cc67cdfdb99", "type": "electric_scooter", "is_reserved": 0, "lon": -77.03287}, {"fusion_lat": 0.0, "name": "b23575d461aba8d0b5878d8264e1c6b8", "is_disabled": 0, "rental_uris": {"android": "https://dc.lft.to/lastmile_qr_scan", "ios": "https://dc.lft.to/lastmile_qr_scan"},