{"data": {"bikes": [{"name": "ff2d7f93a83acfbce180854515118cec", "fusion_lat": 0.0, "type": "electric_scooter", "lat": 38.8763935, "is_reserved": 0, "is_disabled": 0, "fusion_lon": 0.0, "bike_id": "ff2d7f93a83acfbce180854515118cec", "lon": -77.00833933333334, "rental_uris": {"ios": "https://dc.lft.to/lastmile_qr_scan", "android": "https://dc.lft.to/lastmile_qr_scan"}}, {"name": "325beeffda75fd86b44b44d5d847fff9", "fusion_lat": 0.0, "type": "electric_scooter", "lat": 38.930707166666664, "is_reserved": 0, "is_disabled": 0, "fusion_lon": 0.0, "bike_id": "325beeffda75fd86b44b44d5d847fff9", "lon": -77.03402266666667, "rental_uris": {"ios": "https://dc.lft.to/lastmile_qr_scan", "android": "https://dc.lft.to/lastmile_qr_scan"}}, {"name": "8f76d366b7d39d785e0d3b0f629ef639", "fusion_lat": 0.0, "type": "electric_bike", "lat": 38.872258333333335, "is_reserved": 0, "is_disabled": 0, "fusion_lon": 0.0, "bike_id": "8f76d366b7d39d785e0d3b0f629ef639", "lon": -77.011745, "rental_uris": {"ios": "https://dc.lft.to/lastmile_qr_scan", "android": "https://dc.lft.to/lastmile_qr_scan"}}, {"name": "a0a34ff121f91e609b67e57ae8e6c80e", "fusion_lat": 0.0, "type": "electric_scooter", "lat": 38.906818666666666, "is_reserved": 0, "is_disabled": 0, "fusion_lon": 0.0, "bike_id": "a0a34ff121f91e609b67e57ae8e6c80e", "lon": -77.04160133333333, "rental_uris": {"ios": "https://dc.lft.to/lastmile_qr_scan", "android": "https://dc.lft.to/lastmile_qr_scan"}}, {"name": "0928e2db043776451d84a96ae2b545c0", "fusion_lat": 0.0, "type": "electric_bike", "lat": 38.93968133333333, "is_reserved": 0, "is_disabled": 0, "fusion_lon": 0.0, "bike_id": "0928e2db043776451d84a96ae2b545c0", "lon": -76.98659583333334, "rental_uris": {"ios": "https://dc.lft.to/lastmile_qr_scan", "android": "https://dc.lft.to/lastmile_qr_scan"}}, {"name": "5abedfe60a7390af5e5ac6c0ecec1b35", "fusion_lat": 0.0, "type": "electric_scooter", "lat": 38.883434, "is_reserved": 0, "is_disabled": 0, "fusion_lon": 0.0, "bike_id": "5abedfe60a7390af5e5ac6c0ecec1b35", "lon": -77.03164666666666, "rental_uris": {"ios": "https://dc.lft.to/lastmile_qr_scan", "android": "https://dc.lft.to/lastmile_qr_scan"}}, {"name": "3f4d89b36bba61632036bf1cb834a3cf", "fusion_lat": 0.0, "type": "electric_scooter", "lat": 38.865128, "is_reserved": 0, "is_disabled": 0, "fusion_lon": 0.0, "bike_id": "3f4d89b36bba61632036bf1cb834a3cf", "lon": -76.97341283333333, "rental_uris": {"ios": "https://dc.lft.to/lastmile_qr_scan", "android": "https://dc.lft.to/lastmile_qr_scan"}}, {"name": "28f4e09a592c38ed100ae019c4c288b3", "fusion_lat": 0.0, "type": "electric_bike", "lat": 38.911533166666665, "is_reserved": 0, "is_disabled": 0, "fusion_lon": 0.0, "bike_id": "28f4e09a592c38ed100ae019c4c288b3", "lon": -77.0029235, "rental_uris": {"ios": "https://dc.lft.to/lastmile_qr_scan", "android": "https://dc.lft.to/lastmile_qr_scan"}}, {"name": "6efd580bd3dbd7aa3c811e32bbf2e28a", "fusion_lat": 0.0, "type": "electric_scooter", "lat": 38.898570666666664, "is_reserved": 0, "is_disabled": 0, "fusion_lon": 0.0, "bike_id": "6efd580bd3dbd7aa3c811e32bbf2e28a", "lon": -76.975614, "rental_uris": {"ios": "https://dc.lft.to/lastmile_qr_scan", "android": "https://dc.lft.to/lastmile_qr_scan"}}, {"name": "4bb82d5cd4407dd54e49ba2d48dabf7f", "fusion_lat": 0.0, "type": "electric_scooter", "lat": 38.89477866666667, "is_reserved": 0, "is_disabled": 0, "fusion_lon": 0.0, "bike_id": "4bb82d5cd4407dd54e49ba2d48dabf7f", "lon": -76.98404216666667, "rental_uris": {"ios": "https://dc.lft.to/lastmile_qr_scan", "android": "https://dc.lft.to/lastmile_qr_scan"}}, {"name": "a4f410530d5dd34984cc4eea82384831", "fusion_lat": 0.0, "type": "electric_scooter", "lat": 38.899210333333336, "is_reserved": 0, "is_disabled": 0, "fusion_lon": 0.0, "bike_id": "a4f410530d5dd34984cc4eea82384831", "lon": -76.93381116666667, "rental_uris": {"ios": "https://dc.lft.to/lastmile_qr_scan", "android": "https://dc.lft.to/lastmile_qr_scan"}}, {"name": "4c4cfe60e41423b1b1742d3a3282878b", "fusion_lat": 0.0, "type": "electric_bike", "lat": 38.881345333333336, "is_reserved": 0, "is_disabled": 0, "fusion_lon": 0.0, "bike_id": "4c4cfe60e41423b1b1742d3a3282878b", "lon": -76.98091733333334, "rental_uris": {"ios": "https://dc.lft.to/lastmile_qr_scan", "android": "https://dc.lft.to/lastmile_qr_scan"}}, {"name": "f41caefdd21611b49ce266df401cf818", "fusion_lat": 0.0, "type": "electric_scooter", "lat": 38.8850255, "is_reserved": 0, "is_disabled": 0, "fusion_lon": 0.0, "bike_id": "f41caefdd21611b49ce266df401cf818", "lon": -77.00564983333334, "rental_uris": {"ios": "https://dc.lft.to/lastmile_qr_scan", "android": "https://dc.lft.to/lastmile_qr_scan"}}, {"name": "fc6d9b1a47b831dec086cf1d7dccfe52", "fusion_lat": 0.0, "type": "electric_scooter", "lat": 38.94313116666667, "is_reserved": 0, "is_disabled": 0, "fusion_lon": 0.0, "bike_id": "fc6d9b1a47b831dec086cf1d7dccfe52", "lon": -77.0591565, "rental_uris": {"ios": "https://dc.lft.to/lastmile_qr_scan", "android": "https://dc.lft.to/lastmile_qr_scan"}}, {"name": "558b1ef3245f49a9c950f043d0f2755f", "fusion_lat": 0.0, "type": "electric_scooter", "lat": 38.90277866666667, "is_reserved": 0, "is_disabled": 0, "fusion_lon": 0.0, "bike_id": "558b1ef3245f49a9c950f043d0f2755f", "lon": -77.00351616666667, "rental_uris": {"ios": "https://dc.lft.to/lastmile_qr_scan", "android": "https://dc.lft.to/lastmile_qr_scan"}}, {"name": "70ffcf5f72869484901b64830ba03616", "fusion_lat": 0.0, "type": "electric_scooter", "lat": 38.9215895, "is_reserved": 0, "is_disabled": 0, "fusion_lon": 0.0, "bike_id": "70ffcf5f72869484901b64830ba03616", "lon": -77.0338625, "rental_uris": {"ios": "https://dc.lft.to/lastmile_qr_scan", "android": "https://dc.lft.to/lastmile_qr_scan"}}, {"name": "f54ffdaac33bd1bbbc71860d226538e3", "fusion_lat": 0.0, "type": "electric_scooter", "lat": 38.93089716666667, "is_reserved": 0, "is_disabled": 0, "fusion_lon": 0.0, "bike_id": "f54ffdaac33bd1bbbc71860d226538e3", "lon": -77.02487116666667, "rental_uris": {"ios": "https://dc.lft.to/lastmile_qr_scan", "android": "https://dc.lft.to/lastmile_qr_scan"}}, {"name": "9745c06a7d1a39a85726aca39aab8244", "fusion_lat": 0.0, "type": "electric_scooter", "lat": 38.921540666666665, "is_reserved": 0, "is_disabled": 0, "fusion_lon": 0.0, "bike_id": "9745c06a7d1a39a85726aca39aab8244", "lon": -77.03386933333333, "rental_uris": {"ios": "https://dc.lft.to/lastmile_qr_scan", "android": "https://dc.lft.to/lastmile_qr_scan"}}, {"name": "ac61955b6b19a96e0e05ff591f5e0164", "fusion_lat": 0.0, "type": "electric_scooter", "lat": 38.90035616666667, "is_reserved": 0, "is_disabled": 0, "fusion_lon": 0.0, "bike_id": "ac61955b6b19a96e0e05ff591f5e0164", "lon": -77.008837, "rental_uris": {"ios": "https://dc.lft.to/lastmile_qr_scan", "android": "https://dc.lft.to/lastmile_qr_scan"}}, {"name": "b10ca83fa93c1b99dd3c167e3e2b2644", "fusion_lat": 0.0, "type": "electric_scooter", "lat": 38.877078166666664, "is_reserved": 0, "is_disabled": 0, "fusion_lon": 0.0, "bike_id": "b10ca83fa93c1b99dd3c167e3e2b2644", "lon": -77.016532, "rental_uris": {"ios": "https://dc.lft.to/lastmile_qr_scan", "android": "https://dc.lft.to/lastmile_qr_scan"}}, {"name": "4e565a7f34b8e8b45d483f778e654b01", "fusion_lat": 0.0, "type": "electric_scooter", "lat": 38.90030516666667, "is_reserved": 0, "is_disabled": 0, "fusion_lon": 0.0, "bike_id": "4e565a7f34b8e8b45d483f778e654b01", "lon": -77.04016733333333, "rental_uris": {"ios": "https://dc.lft.to/lastmile_qr_scan", "android": "https://dc.lft.to/lastmile_qr_scan"}}, {"name": "d5925210443d297f985435f82211d645", "fusion_lat": 0.0, "type": "electric_scooter", "lat": 38.89449466666667, "is_reserved": 0, "is_disabled": 0, "fusion_lon": 0.0, "bike_id": "d5925210443d297f985435f82211d645", "lon": -77.04541816666666, "rental_uris": {"ios": "https://dc.lft.to/lastmile_qr_scan", "android": "https://dc.lft.to/lastmile_qr_scan"}}, {"name": "b147e42c2778211bed5b2df153264416", "fusion_lat": 0.0, "type": "electric_scooter", "lat": 38.917552, "is_reserved": 0, "is_disabled": 0, "fusion_lon": 0.0, "bike_id": "b147e42c2778211bed5b2df153264416", "lon": -77.04154083333333, "rental_uris": {"ios": "https://dc.lft.to/lastmile_qr_scan", "android": "https://dc.lft.to/lastmile_qr_scan"}}, {"name": "36683bf511550016be1f9d0feb811b24", "fusion_lat": 0.0, "type": "electric_scooter", "lat": 38.87329033333333, "is_reserved": 0, "is_disabled": 0, "fusion_lon": 0.0, "bike_id": "36683bf511550016be1f9d0feb811b24", "lon": -77.00125516666667, "rental_uris": {"ios": "https://dc.lft.to/lastmile_qr_scan", "android": "https://dc.lft.to/lastmile_qr_scan"}}, {"name": "994783ac5f48c36cba57a6071b49fa75", "fusion_lat": 0.0, "type": "electric_bike", "lat": 38.951838333333335, "is_reserved": 0, "is_disabled": 0, "fusion_lon": 0.0, "bike_id": "994783ac5f48c36cba57a6071b49fa75", "lon": -76.9354495, "rental_uris": {"ios": "https://dc.lft.to/lastmile_qr_scan", "android": "https://dc.lft.to/lastmile_qr_scan"}}, {"name": "af89476c91edc17cc08627846695b9dc", "fusion_lat": 0.0, "type": "electric_scooter", "lat": 38.93810116666667, "is_reserved": 0, "is_disabled": 0, "fusion_lon": 0.0, "bike_id": "af89476c91edc17cc08627846695b9dc", "lon": -77.02642516666667, "rental_uris": {"ios": "https://dc.lft.to/lastmile_qr_scan", "android": "https://dc.lft.to/lastmile_qr_scan"}}, {"name": "0a40cdc57a7c9c601a22748e8e6983ec", "fusion_lat": 0.0, "type": "electric_scooter", "lat": 38.90137216666667, "is_reserved": 0, "is_disabled": 0, "fusion_lon": 0.0, "bike_id": "0a40cdc57a7c9c601a22748e8e6983ec", "lon": -77.00072533333334, "rental_uris": {"ios": "https://dc.lft.to/lastmile_qr_scan", "android": "https://dc.lft.to/lastmile_qr_scan"}}, {"name": "af13555b13853f747f95f9e79c7a0ab2", "fusion_lat": 0.0, "type": "electric_scooter", "lat": 38.912239666666665, "is_reserved": 0, "is_disabled": 0, "fusion_lon": 0.0, "bike_id": "af13555b13853f747f95f9e79c7a0ab2", "lon": -77.029526, "rental_uris": {"ios": "https://dc.lft.to/lastmile_qr_scan", "android": "https://dc.lft.to/lastmile_qr_scan"}}, {"name": "60d65d3494197b872b38630404df4eb7", "fusion_lat": 0.0, "type": "electric_bike", "lat": 38.923507666666666, "is_reserved": 0, "is_disabled": 0, "fusion_lon": 0.0, "bike_id": "60d65d3494197b872b38630404df4eb7", "lon": -76.992493, "rental_uris": {"ios": "https://dc.lft.to/lastmile_qr_scan", "android": "https://dc.lft.to/lastmile_qr_scan"}}, {"name": "27ced6e1a8a9106c0aaa5d1d8f3c1e9c", "fusion_lat": 0.0, "type": "electric_scooter", "lat": 38.89849, "is_reserved": 0, "is_disabled": 0, "fusion_lon": 0.0, "bike_id": "27ced6e1a8a9106c0aaa5d1d8f3c1e9c", "lon": -77.04074183333333, "rental_uris": {"ios": "https://dc.lft.to/lastmile_qr_scan", "android": "https://dc.lft.to/lastmile_qr_scan"}}, {"name": "ce67e8353fd5922b264ee76a9a6f16f0", "fusion_lat": 0.0, "type": "electric_scooter", "lat": 38.90563366666667, "is_reserved": 0, "is_disabled": 0, "fusion_lon": 0.0, "bike_id": "ce67e8353fd5922b264ee76a9a6f16f0", "lon": -77.037113, "rental_uris": {"ios": "https://dc.lft.to/lastmile_qr_scan", "android": "https://dc.lft.to/lastmile_qr_scan"}}, {"name": "6e9131d484afaf8185475fe1470d2559", "fusion_lat": 0.0, "type": "electric_scooter", "lat": 38.868289, "is_reserved": 0, "is_disabled": 0, "fusion_lon": 0.0, "bike_id": "6e9131d484afaf8185475fe1470d2559", "lon": -76.98610283333333, "rental_uris": {"ios": "https://dc.lft.to/lastmile_qr_scan", "android": "https://dc.lft.to/lastmile_qr_scan"}}, {"name": "bb9a32ef0c0bb0f067e8d6398c557c75", "fusion_lat": 0.0, "type": "electric_scooter", "lat": 38.93871016666667, "is_reserved": 0, "is_disabled": 0, "fusion_lon": 0.0, "bike_id": "bb9a32ef0c0bb0f067e8d6398c557c75", "lon": -77.0221945, "rental_uris": {"ios": "https://dc.lft.to/lastmile_qr_scan", "android": "https://dc.lft.to/lastmile_qr_scan"}}, {"name": "9d95b27a2381ff81b2e976d12e3e9550", "fusion_lat": 0.0, "type": "electric_scooter", "lat": 38.92483266666667, "is_reserved": 0, "is_disabled": 0, "fusion_lon": 0.0, "bike_id": "9d95b27a2381ff81b2e976d12e3e9550", "lon": -77.02998266666667, "rental_uris": {"ios": "https://dc.lft.to/lastmile_qr_scan", "android": "https://dc.lft.to/lastmile_qr_scan"}}, {"name": "59fd50310f5d55cb5e82188d98bd2546", "fusion_lat": 0.0, "type": "electric_scooter", "lat": 38.92803216666667, "is_reserved": 0, "is_disabled": 0, "fusion_lon": 0.0, "bike_id": "59fd50310f5d55cb5e82188d98bd2546", "lon": -77.01407733333333, "rental_uris": {"ios": "https://dc.lft.to/lastmile_qr_scan", "android": "https://dc.lft.to/lastmile_qr_scan"}}, {"name": "3785b2755a31a8476a05a722efbc535f", "fusion_lat": 0.0, "type": "electric_scooter", "lat": 38.915873833333336, "is_reserved": 0, "is_disabled": 0, "fusion_lon": 0.0, "bike_id": "3785b2755a31a8476a05a722efbc535f", "lon": -77.04252683333333, "rental_uris": {"ios": "https://dc.lft.to/lastmile_qr_scan", "android": "https://dc.lft.to/lastmile_qr_scan"}}, {"name": "ef19e81f458ae0ae71543ad6cee59044", "fusion_lat": 0.0, "type": "electric_scooter", "lat": 38.885828, "is_reserved": 0, "is_disabled": 0, "fusion_lon": 0.0, "bike_id": "ef19e81f458ae0ae71543ad6cee59044", "lon": -76.99504400000001, "rental_uris": {"ios": "https://dc.lft.to/lastmile_qr_scan", "android": "https://dc.lft.to/lastmile_qr_scan"}}, {"name": "2caf7771d91edc0122c9371cca93997e", "fusion_lat": 0.0, "type": "electric_scooter", "lat": 38.921633166666666, "is_reserved": 0, "is_disabled": 0, "fusion_lon": 0.0, "bike_id": "2caf7771d91edc0122c9371cca93997e", "lon": -77.04223666666667, "rental_uris": {"ios": "https://dc.lft.to/lastmile_qr_scan", "android": "https://dc.lft.to/lastmile_qr_scan"}}, {"name": "d4813a8d811359899f4fcbd6cefb5db9", "fusion_lat": 0.0, "type": "electric_scooter", "lat": 38.92487966666667, "is_reserved": 0, "is_disabled": 0, "fusion_lon": 0.0, "bike_id": "d4813a8d811359899f4fcbd6cefb5db9", "lon": -77.02707316666667, "rental_uris": {"ios": "https://dc.lft.to/lastmile_qr_scan", "android": "https://dc.lft.to/lastmile_qr_scan"}}, {"name": "b9736a0782684790f807be071d7678fa", "fusion_lat": 0.0, "type": "electric_scooter", "lat": 38.906460333333335, "is_reserved": 0, "is_disabled": 0, "fusion_lon": 0.0, "bike_id": "b9736a0782684790f807be071d7678fa", "lon": -77.005925, "rental_uris": {"ios": "https://dc.lft.to/lastmile_qr_scan", "android": "https://dc.lft.to/lastmile_qr_scan"}}, {"name": "9a0d92e8a28708d479449507fcb04247", "fusion_lat": 0.0, "type": "electric_scooter", "lat": 38.90847766666667, "is_reserved": 0, "is_disabled": 0, "fusion_lon": 0.0, "bike_id": "9a0d92e8a28708d479449507fcb04247", "lon": -77.03268916666667, "rental_uris": {"ios": "https://dc.lft.to/lastmile_qr_scan", "android": "https://dc.lft.to/lastmile_qr_scan"}}, {"name": "de3bb53276ee9afb0d3e95e8a528cc5d", "fusion_lat": 0.0, "type": "electric_bike", "lat": 38.946321833333336, "is_reserved": 0, "is_disabled": 0, "fusion_lon": 0.0, "bike_id": "de3bb53276ee9afb0d3e95e8a528cc5d", "lon": -77.01843, "rental_uris": {"ios": "https://dc.lft.to/lastmile_qr_scan", "android": "https://dc.lft.to/lastmile_qr_scan"}}, {"name": "9e8a4285f0cef54aad65c5bb29160251", "fusion_lat": 0.0, "type": "electric_scooter", "lat": 38.923450833333334, "is_reserved": 0, "is_disabled": 0, "fusion_lon": 0.0, "bike_id": "9e8a4285f0cef54aad65c5bb29160251", "lon": -77.05094733333334, "rental_uris": {"ios": "https://dc.lft.to/lastmile_qr_scan", "android": "https://dc.lft.to/lastmile_qr_scan"}}, {"name": "507e2f87240385d99aa51636832bbfb7", "fusion_lat": 0.0, "type": "electric_scooter", "lat": 38.89525966666667, "is_reserved": 0, "is_disabled": 0, "fusion_lon": 0.0, "bike_id": "507e2f87240385d99aa51636832bbfb7", "lon": -77.01610116666667, "rental_uris": {"ios": "https://dc.lft.to/lastmile_qr_scan", "android": "https://dc.lft.to/lastmile_qr_scan"}}, {"name": "a670f45f2dc57d31f244ce547e5b32d3", "fusion_lat": 0.0, "type": "electric_scooter", "lat": 38.91715333333333, "is_reserved": 0, "is_disabled": 0, "fusion_lon": 0.0, "bike_id": "a670f45f2dc57d31f244ce547e5b32d3", "lon": -77.03550216666666, "rental_uris": {"ios": "https://dc.lft.to/lastmile_qr_scan", "android": "https://dc.lft.to/lastmile_qr_scan"}}, {"name": "ccdacf4b1792449d0c7ced5ab3d2b199", "fusion_lat": 0.0, "type": "electric_bike", "lat": 38.858708666666665, "is_reserved": 0, "is_disabled": 0, "fusion_lon": 0.0, "bike_id": "ccdacf4b1792449d0c7ced5ab3d2b199", "lon": -77.09558333333334, "rental_uris": {"ios": "https://dc.lft.to/lastmile_qr_scan", "android": "https://dc.lft.to/lastmile_qr_scan"}}, {"name": "9b9c199e170b19cdde57072d65aa645e", "fusion_lat": 0.0, "type": "electric_scooter", "lat": 38.91353383333333, "is_reserved": 0, "is_disabled": 0, "fusion_lon": 0.0, "bike_id": "9b9c199e170b19cdde57072d65aa645e", "lon": -77.041684, "rental_uris": {"ios": "https://dc.lft.to/lastmile_qr_scan", "android": "https://dc.lft.to/lastmile_qr_scan"}}, {"name": "f52cce1eb0018f929954b6583e492ae2", "fusion_lat": 0.0, "type": "electric_scooter", "lat": 38.9067855, "is_reserved": 0, "is_disabled": 0, "fusion_lon": 0.0, "bike_id": "f52cce1eb0018f929954b6583e492ae2", "lon": -77.04889666666666, "rental_uris": {"ios": "https://dc.lft.to/lastmile_qr_scan", "android": "https://dc.lft.to/lastmile_qr_scan"}}, {"name": "d9735b57d7460f20ef06394a13b29ebe", "fusion_lat": 0.0, "type": "electric_scooter", "lat": 38.91729133333333, "is_reserved": 0, "is_disabled": 0, "fusion_lon": 0.0, "bike_id": "d9735b57d7460f20ef06394a13b29ebe", "lon": -77.02887066666666, "rental_uris": {"ios": "https://dc.lft.to/lastmile_qr_scan", "android": "https://dc.lft.to/lastmile_qr_scan"}}, {"name": "d7ecfd445d607846fa2a66d1fe863149", "fusion_lat": 0.0, "type": "electric_scooter", "lat": 38.91771816666667, "is_reserved": 0, "is_disabled": 0, "fusion_lon": 0.0, "bike_id": "d7ecfd445d607846fa2a66d1fe863149", "lon": -77.0475315, "rental_uris": {"ios": "https://dc.lft.to/lastmile_qr_scan", "android": "https://dc.lft.to/lastmile_qr_scan"}}, {"name": "36551d6041d922ab7a45e4cf7b5b5d83", "fusion_lat": 0.0, "type": "electric_bike", "lat": 38.85206483333333, "is_reserved": 0, "is_disabled": 0, "fusion_lon": 0.0, "bike_id": "36551d6041d922ab7a45e4cf7b5b5d83", "lon": -77.10130233333334, "rental_uris": {"ios": "https://dc.lft.to/lastmile_qr_scan", "android": "https://dc.lft.to/lastmile_qr_scan"}}, {"name": "fbaf0b2a9f92be2016f6e633b76c6d82", "fusion_lat": 0.0, "type": "electric_scooter", "lat": 38.87806233333333, "is_reserved": 0, "is_disabled": 0, "fusion_lon": 0.0, "bike_id": "fbaf0b2a9f92be2016f6e633b76c6d82", "lon": -77.00361366666667, "rental_uris": {"ios": "https://dc.lft.to/lastmile_qr_scan", "android": "https://dc.lft.to/lastmile_qr_scan"}}, {"name": "1ff0fb970d897c4ec7ab58f59fa15e23", "fusion_lat": 0.0, "type": "electric_scooter", "lat": 38.932050333333336, "is_reserved": 0, "is_disabled": 0, "fusion_lon": 0.0, "bike_id": "1ff0fb970d897c4ec7ab58f59fa15e23", "lon": -77.036391, "rental_uris": {"ios": "https://dc.lft.to/lastmile_qr_scan", "android": "https://dc.lft.to/lastmile_qr_scan"}}, {"name": "2a597f552eef838d7ed5a8105bfa30e7", "fusion_lat": 0.0, "type": "electric_scooter", "lat": 38.9291285, "is_reserved": 0, "is_disabled": 0, "fusion_lon": 0.0, "bike_id": "2a597f552eef838d7ed5a8105bfa30e7", "lon": -77.01953583333334, "rental_uris": {"ios": "https://dc.lft.to/lastmile_qr_scan", "android": "https://dc.lft.to/lastmile_qr_scan"}}, {"name": "a1b3ca537c686d83b83a15c65de07b70", "fusion_lat": 0.0, "type": "electric_bike", "lat": 38.94798616666667, "is_reserved": 0, "is_disabled": 0, "fusion_lon": 0.0, "bike_id": "a1b3ca537c686d83b83a15c65de07b70", "lon": -77.02150233333333, "rental_uris": {"ios": "https://dc.lft.to/lastmile_qr_scan", "android": "https://dc.lft.to/lastmile_qr_scan"}}, {"name": "5cf9d3e9dbd21384f4f06a17fec81021", "fusion_lat": 0.0, "type": "electric_scooter", "lat": 38.91494933333333, "is_reserved": 0, "is_disabled": 0, "fusion_lon": 0.0, "bike_id": "5cf9d3e9dbd21384f4f06a17fec81021", "lon": -77.03246983333334, "rental_uris": {"ios": "https://dc.lft.to/lastmile_qr_scan", "android": "https://dc.lft.to/lastmile_qr_scan"}}, {"name": "760a04820df565e8931e5096361afe08", "fusion_lat": 0.0, "type": "electric_scooter", "lat": 38.918722, "is_reserved": 0, "is_disabled": 0, "fusion_lon": 0.0, "bike_id": "760a04820df565e8931e5096361afe08", "lon": -77.0435215, "rental_uris": {"ios": "https://dc.lft.to/lastmile_qr_scan", "android": "https://dc.lft.to/lastmile_qr_scan"}}, {"name": "a5b18f2b6c81085ed3b3b117949201ac", "fusion_lat": 0.0, "type": "electric_bike", "lat": 38.968628833333334, "is_reserved": 0, "is_disabled": 0, "fusion_lon": 0.0, "bike_id": "a5b18f2b6c81085ed3b3b117949201ac", "lon": -77.03335383333334, "rental_uris": {"ios": "https://dc.lft.to/lastmile_qr_scan", "android": "https://dc.lft.to/lastmile_qr_scan"}}, {"name": "5fe3b784be2517ebf1e8c39e42688f5e", "fusion_lat": 0.0, "type": "electric_scooter", "lat": 38.932014333333335, "is_reserved": 0, "is_disabled": 0, "fusion_lon": 0.0, "bike_id": "5fe3b784be2517ebf1e8c39e42688f5e", "lon": -77.02730366666667, "rental_uris": {"ios": "https://dc.lft.to/lastmile_qr_scan", "android": "https://dc.lft.to/lastmile_qr_scan"}}, {"name": "b296c51f054df651c17d2abaf600ab88", "fusion_lat": 0.0, "type": "electric_scooter", "lat": 38.89958583333333, "is_reserved": 0, "is_disabled": 0, "fusion_lon": 0.0, "bike_id": "b296c51f054df651c17d2abaf600ab88", "lon": -77.03134333333334, "rental_uris": {"ios": "https://dc.lft.to/lastmile_qr_scan", "android": "https://dc.lft.to/lastmile_qr_scan"}}, {"name": "ab6543cf641f0a65ea22de8ade747408", "fusion_lat": 0.0, "type": "electric_scooter", "lat": 38.896025333333334, "is_reserved": 0, "is_disabled": 0, "fusion_lon": 0.0, "bike_id": "ab6543cf641f0a65ea22de8ade747408", "lon": -77.04689183333333, "rental_uris": {"ios": "https://dc.lft.to/lastmile_qr_scan", "android": "https://dc.lft.to/lastmile_qr_scan"}}, {"name": "a9d1191a97b17363013aaf1bedbbd192", "fusion_lat": 0.0, "type": "electric_scooter", "lat": 38.89725933333333, "is_reserved": 0, "is_disabled": 0, "fusion_lon": 0.0, "bike_id": "a9d1191a97b17363013aaf1bedbbd192", "lon": -77.032462, "rental_uris": {"ios": "https://dc.lft.to/lastmile_qr_scan", "android": "https://dc.lft.to/lastmile_qr_scan"}}, {"name": "09b7be1ab15d412bf791d7badc59ec38", "fusion_lat": 0.0, "type": "electric_scooter", "lat": 38.874879666666665, "is_reserved": 0, "is_disabled": 0, "fusion_lon": 0.0, "bike_id": "09b7be1ab15d412bf791d7badc59ec38", "lon": -77.00181883333333, "rental_uris": {"ios": "https://dc.lft.to/lastmile_qr_scan", "android": "https://dc.lft.to/lastmile_qr_scan"}}, {"name": "a47c80b6c6d2f0ddb63cd34b8ebb0027", "fusion_lat": 0.0, "type": "electric_scooter", "lat": 38.91415083333333, "is_reserved": 0, "is_disabled": 0, "fusion_lon": 0.0, "bike_id": "a47c80b6c6d2f0ddb63cd34b8ebb0027", "lon": -77.04499883333334, "rental_uris": {"ios": "https://dc.lft.to/lastmile_qr_scan", "android": "https://dc.lft.to/lastmile_qr_scan"}}, {"name": "5a5c3144ce5955da5de6dfe03be88e1a", "fusion_lat": 0.0, "type": "electric_scooter", "lat": 38.92087216666667, "is_reserved": 0, "is_disabled": 0, "fusion_lon": 0.0, "bike_id": "5a5c3144ce5955da5de6dfe03be88e1a", "lon": -77.0392835, "rental_uris": {"ios": "https://dc.lft.to/lastmile_qr_scan", "android": "https://dc.lft.to/lastmile_qr_scan"}}, {"name": "a968db03161b9eaad2dbf0211c6efbb4", "fusion_lat": 0.0, "type": "electric_scooter", "lat": 38.91282183333333, "is_reserved": 0, "is_disabled": 0, "fusion_lon": 0.0, "bike_id": "a968db03161b9eaad2dbf0211c6efbb4", "lon": -76.9379635, "rental_uris": {"ios": "https://dc.lft.to/lastmile_qr_scan", "android": "https://dc.lft.to/lastmile_qr_scan"}}, {"name": "4a890ab2c122cc29158f562636c26e3a", "fusion_lat": 0.0, "type": "electric_scooter", "lat": 38.887343666666666, "is_reserved": 0, "is_disabled": 0, "fusion_lon": 0.0, "bike_id": "4a890ab2c122cc29158f562636c26e3a", "lon": -77.02208616666667, "rental_uris": {"ios": "https://dc.lft.to/lastmile_qr_scan", "android": "https://dc.lft.to/lastmile_qr_scan"}}, {"name": "e160d9c197dc8003caf93fed8f888529", "fusion_lat": 0.0, "type": "electric_scooter", "lat": 38.898308, "is_reserved": 0, "is_disabled": 0, "fusion_lon": 0.0, "bike_id": "e160d9c197dc8003caf93fed8f888529", "lon": -76.94641216666666, "rental_uris": {"ios": "https://dc.lft.to/lastmile_qr_scan", "android": "https://dc.lft.to/lastmile_qr_scan"}}, {"name": "124c23a1f75a8e022ef45ed13888f025", "fusion_lat": 0.0, "type": "electric_bike", "lat": 38.87733983333333, "is_reserved": 0, "is_disabled": 0, "fusion_lon": 0.0, "bike_id": "124c23a1f75a8e022ef45ed13888f025", "lon": -77.1184785, "rental_uris": {"ios": "https://dc.lft.to/lastmile_qr_scan", "android": "https://dc.lft.to/lastmile_qr_scan"}}, {"name": "c476ee629b840a9c07be5894f3758d18", "fusion_lat": 0.0, "type": "electric_scooter", "lat": 38.93891416666666, "is_reserved": 0, "is_disabled": 0, "fusion_lon": 0.0, "bike_id": "c476ee629b840a9c07be5894f3758d18", "lon": -77.01762866666667, "rental_uris": {"ios": "https://dc.lft.to/lastmile_qr_scan", "android": "https://dc.lft.to/lastmile_qr_scan"}}, {"name": "51fa37894160e6c8c99f7c84a2bcf96b", "fusion_lat": 0.0, "type": "electric_scooter", "lat": 38.919156666666666, "is_reserved": 0, "is_disabled": 0, "fusion_lon": 0.0, "bike_id": "51fa37894160e6c8c99f7c84a2bcf96b", "lon": -77.0112505, "rental_uris": {"ios": "https://dc.lft.to/lastmile_qr_scan", "android": "https://dc.lft.to/lastmile_qr_scan"}}, {"name": "412f2fadeb5ca74c66571f2ce58ae5d7", "fusion_lat": 0.0, "type": "electric_scooter", "lat": 38.9302535, "is_reserved": 0, "is_disabled": 0, "fusion_lon": 0.0, "bike_id": "412f2fadeb5ca74c66571f2ce58ae5d7", "lon": -77.08364283333333, "rental_uris": {"ios": "https://dc.lft.to/lastmile_qr_scan", "android": "https://dc.lft.to/lastmile_qr_scan"}}, {"name": "da6f9a80065796b1a1d31612b46a1236", "fusion_lat": 0.0, "type": "electric_scooter", "lat": 38.8997365, "is_reserved": 0, "is_disabled": 0, "fusion_lon": 0.0, "bike_id": "da6f9a80065796b1a1d31612b46a1236", "lon": -77.03939316666667, "rental_uris": {"ios": "https://dc.lft.to/lastmile_qr_scan", "android": "https://dc.lft.to/lastmile_qr_scan"}}, {"name": "aa36963eaebe53ed7b32e11820bca59f", "fusion_lat": 0.0, "type": "electric_scooter", "lat": 38.92558916666667, "is_reserved": 0, "is_disabled": 0, "fusion_lon": 0.0, "bike_id": "aa36963eaebe53ed7b32e11820bca59f", "lon": -77.00060616666667, "rental_uris": {"ios": "https://dc.lft.to/lastmile_qr_scan", "android": "https://dc.lft.to/lastmile_qr_scan"}}, {"name": "9143676239f9b1afa6d2d43e88e7b748", "fusion_lat": 0.0, "type": "electric_scooter", "lat": 38.924809, "is_reserved": 0, "is_disabled": 0, "fusion_lon": 0.0, "bike_id": "9143676239f9b1afa6d2d43e88e7b748", "lon": -77.02995266666667, "rental_uris": {"ios": "https://dc.lft.to/lastmile_qr_scan", "android": "https://dc.lft.to/lastmile_qr_scan"}}, {"name": "66189e701a62f97772d317ee5c3ec381", "fusion_lat": 0.0, "type": "electric_scooter", "lat": 38.914170666666664, "is_reserved": 0, "is_disabled": 0, "fusion_lon": 0.0, "bike_id": "66189e701a62f97772d317ee5c3ec381", "lon": -77.04495666666666, "rental_uris": {"ios": "https://dc.lft.to/lastmile_qr_scan", "android": "https://dc.lft.to/lastmile_qr_scan"}}, {"name": "318410e0df671591b85832a3ec010bfd", "fusion_lat": 0.0, "type": "electric_scooter", "lat": 38.92591983333333, "is_reserved": 0, "is_disabled": 0, "fusion_lon": 0.0, "bike_id": "318410e0df671591b85832a3ec010bfd", "lon": -77.00854783333334, "rental_uris": {"ios": "https://dc.lft.to/lastmile_qr_scan", "android": "https://dc.lft.to/lastmile_qr_scan"}}, {"name": "02474cd3413ef760b8362d20b79e0993", "fusion_lat": 0.0, "type": "electric_scooter", "lat": 38.897815, "is_reserved": 0, "is_disabled": 0, "fusion_lon": 0.0, "bike_id": "02474cd3413ef760b8362d20b79e0993", "lon": -77.02595766666667, "rental_uris": {"ios": "https://dc.lft.to/lastmile_qr_scan", "android": "https://dc.lft.to/lastmile_qr_scan"}}, {"name": "80074c5728248d3bb073c546af288a07", "fusion_lat": 0.0, "type": "electric_scooter", "lat": 38.912622999999996, "is_reserved": 0, "is_disabled": 0, "fusion_lon": 0.0, "bike_id": "80074c5728248d3bb073c546af288a07", "lon": -77.038625, "rental_uris": {"ios": "https://dc.lft.to/lastmile_qr_scan", "android": "https://dc.lft.to/lastmile_qr_scan"}}, {"name": "48a7477f9671ecf6488d278300404cc1", "fusion_lat": 0.0, "type": "electric_scooter", "lat": 38.913428, "is_reserved": 0, "is_disabled": 0, "fusion_lon": 0.0, "bike_id": "48a7477f9671ecf6488d278300404cc1", "lon": -77.042273, "rental_uris": {"ios": "https://dc.lft.to/lastmile_qr_scan", "android": "https://dc.lft.to/lastmile_qr_scan"}}, {"name": "23c40eeb3f3aee12fe01e453a0cd4bea", "fusion_lat": 0.0, "type": "electric_scooter", "lat": 38.931025166666664, "is_reserved": 0, "is_disabled": 0, "fusion_lon": 0.0, "bike_id": "23c40eeb3f3aee12fe01e453a0cd4bea", "lon": -77.0351655, "rental_uris": {"ios": "https://dc.lft.to/lastmile_qr_scan", "android": "https://dc.lft.to/lastmile_qr_scan"}}, {"name": "8e59492aa6770e408b0a915740fed6a9", "fusion_lat": 0.0, "type": "electric_scooter", "lat": 38.91123483333333, "is_reserved": 0, "is_disabled": 0, "fusion_lon": 0.0, "bike_id": "8e59492aa6770e408b0a915740fed6a9", "lon": -77.04773883333333, "rental_uris": {"ios": "https://dc.lft.to/lastmile_qr_scan", "android": "https://dc.lft.to/lastmile_qr_scan"}}, {"name": "da229e428fecf7ee876eec0d3ef2f7de", "fusion_lat": 0.0, "type": "electric_scooter", "lat": 38.895527333333334, "is_reserved": 0, "is_disabled": 0, "fusion_lon": 0.0, "bike_id": "da229e428fecf7ee876eec0d3ef2f7de", "lon": -76.94870416666667, "rental_uris": {"ios": "https://dc.lft.to/lastmile_qr_scan", "android": "https://dc.lft.to/lastmile_qr_scan"}}, {"name": "2d09a1aefa299df4a79d4c5eef69a958", "fusion_lat": 0.0, "type": "electric_scooter", "lat": 38.927058, "is_reserved": 0, "is_disabled": 0, "fusion_lon": 0.0, "bike_id": "2d09a1aefa299df4a79d4c5eef69a958", "lon": -77.03728366666667, "rental_uris": {"ios": "https://dc.lft.to/lastmile_qr_scan", "android": "https://dc.lft.to/lastmile_qr_scan"}}, {"name": "5632dc23274324d3136670e63bddcae3", "fusion_lat": 0.0, "type": "electric_scooter", "lat": 38.911851, "is_reserved": 0, "is_disabled": 0, "fusion_lon": 0.0, "bike_id": "5632dc23274324d3136670e63bddcae3", "lon": -77.03256133333333, "rental_uris": {"ios": "https://dc.lft.to/lastmile_qr_scan", "android": "https://dc.lft.to/lastmile_qr_scan"}}, {"name": "cd4cc3e9e1f5c51fbde0f13c5d64c077", "fusion_lat": 0.0, "type": "electric_bike", "lat": 38.81513983333333, "is_reserved": 0, "is_disabled": 0, "fusion_lon": 0.0, "bike_id": "cd4cc3e9e1f5c51fbde0f13c5d64c077", "lon": -77.1265535, "rental_uris": {"ios": "https://dc.lft.to/lastmile_qr_scan", "android": "https://dc.lft.to/lastmile_qr_scan"}}, {"name": "a206d19e9388d1aba9cf4de1a87ac91e", "fusion_lat": 0.0, "type": "electric_scooter", "lat": 38.880413, "is_reserved": 0, "is_disabled": 0, "fusion_lon": 0.0, "bike_id": "a206d19e9388d1aba9cf4de1a87ac91e", "lon": -76.92719366666667, "rental_uris": {"ios": "https://dc.lft.to/lastmile_qr_scan", "android": "https://dc.lft.to/lastmile_qr_scan"}}, {"name": "cca8c1deb58bae16ad875cacf1fe03c4", "fusion_lat": 0.0, "type": "electric_bike", "lat": 38.85234466666667, "is_reserved": 0, "is_disabled": 0, "fusion_lon": 0.0, "bike_id": "cca8c1deb58bae16ad875cacf1fe03c4", "lon": -77.10338416666667, "rental_uris": {"ios": "https://dc.lft.to/lastmile_qr_scan", "android": "https://dc.lft.to/lastmile_qr_scan"}}, {"name": "0bfed517341dcef440605bcf7fec1e52", "fusion_lat": 0.0, "type": "electric_scooter", "lat": 38.91136933333333, "is_reserved": 0, "is_disabled": 0, "fusion_lon": 0.0, "bike_id": "0bfed517341dcef440605bcf7fec1e52", "lon": -77.041978, "rental_uris": {"ios": "https://dc.lft.to/lastmile_qr_scan", "android": "https://dc.lft.to/lastmile_qr_scan"}}, {"name": "346c26aac6229174c45e6af351035573", "fusion_lat": 0.0, "type": "electric_scooter", "lat": 38.912822166666665, "is_reserved": 0, "is_disabled": 0, "fusion_lon": 0.0, "bike_id": "346c26aac6229174c45e6af351035573", "lon": -77.038486, "rental_uris": {"ios": "https://dc.lft.to/lastmile_qr_scan", "android": "https://dc.lft.to/lastmile_qr_scan"}}, {"name": "9ec6b3df82d31df8dde5c999f895c1c3", "fusion_lat": 0.0, "type": "electric_scooter", "lat": 38.92438166666667, "is_reserved": 0, "is_disabled": 0, "fusion_lon": 0.0, "bike_id": "9ec6b3df82d31df8dde5c999f895c1c3", "lon": -77.0297935, "rental_uris": {"ios": "https://dc.lft.to/lastmile_qr_scan", "android": "https://dc.lft.to/lastmile_qr_scan"}}, {"name": "702789c43d073c5d91f9ff77a9a63ebb", "fusion_lat": 0.0, "type": "electric_scooter", "lat": 38.90746933333333, "is_reserved": 0, "is_disabled": 0, "fusion_lon": 0.0, "bike_id": "702789c43d073c5d91f9ff77a9a63ebb", "lon": -77.03094383333334, "rental_uris": {"ios": "https://dc.lft.to/lastmile_qr_scan", "android": "https://dc.lft.to/lastmile_qr_scan"}}, {"name": "446b03fd14bf5db02986559af79f9e64", "fusion_lat": 0.0, "type": "electric_scooter", "lat": 38.925397333333336, "is_reserved": 0, "is_disabled": 0, "fusion_lon": 0.0, "bike_id": "446b03fd14bf5db02986559af79f9e64", "lon": -77.032707, "rental_uris": {"ios": "https://dc.lft.to/lastmile_qr_scan", "android": "https://dc.lft.to/lastmile_qr_scan"}}, {"name": "c184a34fda6695d86e0848e9f76f630f", "fusion_lat": 0.0, "type": "electric_bike", "lat": 38.8804585, "is_reserved": 0, "is_disabled": 0, "fusion_lon": 0.0, "bike_id": "c184a34fda6695d86e0848e9f76f630f", "lon": -77.01321216666666, "rental_uris": {"ios": "https://dc.lft.to/lastmile_qr_scan", "android": "https://dc.lft.to/lastmile_qr_scan"}}, {"name": "a7a5e1717147c97bfb71cad87a96f302", "fusion_lat": 0.0, "type": "electric_scooter", "lat": 38.915101, "is_reserved": 0, "is_disabled": 0, "fusion_lon": 0.0, "bike_id": "a7a5e1717147c97bfb71cad87a96f302", "lon": -77.02175483333333, "rental_uris": {"ios": "https://dc.lft.to/lastmile_qr_scan", "android": "https://dc.lft.to/lastmile_qr_scan"}}, {"name": "49d7bac4a45bf262b1e56dcc560e58f7", "fusion_lat": 0.0, "type": "electric_scooter", "lat": 38.89223066666667, "is_reserved": 0, "is_disabled": 0, "fusion_lon": 0.0, "bike_id": "49d7bac4a45bf262b1e56dcc560e58f7", "lon": -77.03213233333334, "rental_uris": {"ios": "https://dc.lft.to/lastmile_qr_scan", "android": "https://dc.lft.to/lastmile_qr_scan"}}, {"name": "b5ffb76d3dfefbcd11b7baeac42367a3", "fusion_lat": 0.0, "type": "electric_scooter", "lat": 38.903845, "is_reserved": 0, "is_disabled": 0, "fusion_lon": 0.0, "bike_id": "b5ffb76d3dfefbcd11b7baeac42367a3", "lon": -77.02721783333334, "rental_uris": {"ios": "https://dc.lft.to/lastmile_qr_scan", "android": "https://dc.lft.to/lastmile_qr_scan"}}, {"name": "7abfaee95ebcf801f9f3b56b70fc8f62", "fusion_lat": 0.0, "type": "electric_scooter", "lat": 38.915918833333336, "is_reserved": 0, "is_disabled": 0, "fusion_lon": 0.0, "bike_id": "7abfaee95ebcf801f9f3b56b70fc8f62", "lon": -77.04355883333334, "rental_uris": {"ios": "https://dc.lft.to/lastmile_qr_scan", "android": "https://dc.lft.to/lastmile_qr_scan"}}, {"name": "9c5b08d9d49be31ed07d9d65e9424d05", "fusion_lat": 0.0, "type": "electric_scooter", "lat": 38.87718316666667, "is_reserved": 0, "is_disabled": 0, "fusion_lon": 0.0, "bike_id": "9c5b08d9d49be31ed07d9d65e9424d05", "lon": -77.01755183333333, "rental_uris": {"ios": "https://dc.lft.to/lastmile_qr_scan", "android": "https://dc.lft.to/lastmile_qr_scan"}}, {"name": "0c9582ecf484592da6c968f01c6934bf", "fusion_lat": 0.0, "type": "electric_scooter", "lat": 38.927535, "is_reserved": 0, "is_disabled": 0, "fusion_lon": 0.0, "bike_id": "0c9582ecf484592da6c968f01c6934bf", "lon": -77.02421083333333, "rental_uris": {"ios": "https://dc.lft.to/lastmile_qr_scan", "android": "https://dc.lft.to/lastmile_qr_scan"}}, {"name": "2096f1e974ad982fe7d35eeaac1d2817", "fusion_lat": 0.0, "type": "electric_bike", "lat": 38.843475, "is_reserved": 0, "is_disabled": 0, "fusion_lon": 0.0, "bike_id": "2096f1e974ad982fe7d35eeaac1d2817", "lon": -77.06403216666666, "rental_uris": {"ios": "https://dc.lft.to/lastmile_qr_scan", "android": "https://dc.lft.to/lastmile_qr_scan"}}, {"name": "5640be3a39e9dc16a22dd1db4431d7ad", "fusion_lat": 0.0, "type": "electric_scooter", "lat": 38.897319, "is_reserved": 0, "is_disabled": 0, "fusion_lon": 0.0, "bike_id": "5640be3a39e9dc16a22dd1db4431d7ad", "lon": -77.0433315, "rental_uris": {"ios": "https://dc.lft.to/lastmile_qr_scan", "android": "https://dc.lft.to/lastmile_qr_scan"}}, {"name": "0e3d4268bba2f2f26ea25b5d69b03c34", "fusion_lat": 0.0, "type": "electric_scooter", "lat": 38.9291825, "is_reserved": 0, "is_disabled": 0, "fusion_lon": 0.0, "bike_id": "0e3d4268bba2f2f26ea25b5d69b03c34", "lon": -77.03257083333334, "rental_uris": {"ios": "https://dc.lft.to/lastmile_qr_scan", "android": "https://dc.lft.to/lastmile_qr_scan"}}, {"name": "f88309a2394f17ccb37dc77143f98b23", "fusion_lat": 0.0, "type": "electric_scooter", "lat": 38.912680333333334, "is_reserved": 0, "is_disabled": 0, "fusion_lon": 0.0, "bike_id": "f88309a2394f17ccb37dc77143f98b23", "lon": -77.038738, "rental_uris": {"ios": "https://dc.lft.to/lastmile_qr_scan", "android": "https://dc.lft.to/lastmile_qr_scan"}}, {"name": "9e5b4226273d13347e492b380876fc57", "fusion_lat": 0.0, "type": "electric_scooter", "lat": 38.90703383333334, "is_reserved": 0, "is_disabled": 0, "fusion_lon": 0.0, "bike_id": "9e5b4226273d13347e492b380876fc57", "lon": -77.0239905, "rental_uris": {"ios": "https://dc.lft.to/lastmile_qr_scan", "android": "https://dc.lft.to/lastmile_qr_scan"}}, {"name": "c6c61c9dd246f5f22e65c56897adba2f", "fusion_lat": 0.0, "type": "electric_scooter", "lat": 38.89089766666667, "is_reserved": 0, "is_disabled": 0, "fusion_lon": 0.0, "bike_id": "c6c61c9dd246f5f22e65c56897adba2f", "lon": -76.9873025, "rental_uris": {"ios": "https://dc.lft.to/lastmile_qr_scan", "android": "https://dc.lft.to/lastmile_qr_scan"}}, {"name": "293ef2deca7f7129f84d3f47397851e2", "fusion_lat": 0.0, "type": "electric_scooter", "lat": 38.9051035, "is_reserved": 0, "is_disabled": 0, "fusion_lon": 0.0, "bike_id": "293ef2deca7f7129f84d3f47397851e2", "lon": -77.04484833333333, "rental_uris": {"ios": "https://dc.lft.to/lastmile_qr_scan", "android": "https://dc.lft.to/lastmile_qr_scan"}}, {"name": "2376f9abbbe25a6e31067810dafcdc24", "fusion_lat": 0.0, "type": "electric_scooter", "lat": 38.905329333333334, "is_reserved": 0, "is_disabled": 0, "fusion_lon": 0.0, "bike_id": "2376f9abbbe25a6e31067810dafcdc24", "lon": -77.0294345, "rental_uris": {"ios": "https://dc.lft.to/lastmile_qr_scan", "android": "https://dc.lft.to/lastmile_qr_scan"}}, {"name": "dbd1f7483f4f7cc8080ea49c087855b9", "fusion_lat": 0.0, "type": "electric_scooter", "lat": 38.887623166666664, "is_reserved": 0, "is_disabled": 0, "fusion_lon": 0.0, "bike_id": "dbd1f7483f4f7cc8080ea49c087855b9", "lon": -76.9559915, "rental_uris": {"ios": "https://dc.lft.to/lastmile_qr_scan", "android": "https://dc.lft.to/lastmile_qr_scan"}}, {"name": "3e7314cfd2c3890ed416139bc4915a00", "fusion_lat": 0.0, "type": "electric_scooter", "lat": 38.91171833333333, "is_reserved": 0, "is_disabled": 0, "fusion_lon": 0.0, "bike_id": "3e7314cfd2c3890ed416139bc4915a00", "lon": -77.01126783333333, "rental_uris": {"ios": "https://dc.lft.to/lastmile_qr_scan", "android": "https://dc.lft.to/lastmile_qr_scan"}}, {"name": "9740a668d1e8a92a02684a4dbed3a160", "fusion_lat": 0.0, "type": "electric_scooter", "lat": 38.93594566666667, "is_reserved": 0, "is_disabled": 0, "fusion_lon": 0.0, "bike_id": "9740a668d1e8a92a02684a4dbed3a160", "lon": -76.99113283333334, "rental_uris": {"ios": "https://dc.lft.to/lastmile_qr_scan", "android": "https://dc.lft.to/lastmile_qr_scan"}}, {"name": "89a5be5bb59e218dd60bdefcb7134e66", "fusion_lat": 0.0, "type": "electric_scooter", "lat": 38.9121125, "is_reserved": 0, "is_disabled": 0, "fusion_lon": 0.0, "bike_id": "89a5be5bb59e218dd60bdefcb7134e66", "lon": -77.0384765, "rental_uris": {"ios": "https://dc.lft.to/lastmile_qr_scan", "android": "https://dc.lft.to/lastmile_qr_scan"}}, {"name": "9be2b7ec9e4da2c7b50283583050fbeb", "fusion_lat": 0.0, "type": "electric_bike", "lat": 38.8754075, "is_reserved": 0, "is_disabled": 0, "fusion_lon": 0.0, "bike_id": "9be2b7ec9e4da2c7b50283583050fbeb", "lon": -77.00617233333334, "rental_uris": {"ios": "https://dc.lft.to/lastmile_qr_scan", "android": "https://dc.lft.to/lastmile_qr_scan"}}, {"name": "52f36d3403889700138ad716416f0b91", "fusion_lat": 0.0, "type": "electric_scooter", "lat": 38.88511716666667, "is_reserved": 0, "is_disabled": 0, "fusion_lon": 0.0, "bike_id": "52f36d3403889700138ad716416f0b91", "lon": -77.033418, "rental_uris": {"ios": "https://dc.lft.to/lastmile_qr_scan", "android": "https://dc.lft.to/lastmile_qr_scan"}}, {"name": "1440c8705ba77197e3295925c57083b7", "fusion_lat": 0.0, "type": "electric_bike", "lat": 38.93530033333333, "is_reserved": 0, "is_disabled": 0, "fusion_lon": 0.0, "bike_id": "1440c8705ba77197e3295925c57083b7", "lon": -77.05697666666667, "rental_uris": {"ios": "https://dc.lft.to/lastmile_qr_scan", "android": "https://dc.lft.to/lastmile_qr_scan"}}, {"name": "65c6b6f8d4db94323a6ca2f61d0eb659", "fusion_lat": 0.0, "type": "electric_scooter", "lat": 38.910546333333336, "is_reserved": 0, "is_disabled": 0, "fusion_lon": 0.0, "bike_id": "65c6b6f8d4db94323a6ca2f61d0eb659", "lon": -77.04572416666667, "rental_uris": {"ios": "https://dc.lft.to/lastmile_qr_scan", "android": "https://dc.lft.to/lastmile_qr_scan"}}, {"name": "5ce34a0142cd571645d81d7e317de59d", "fusion_lat": 0.0, "type": "electric_scooter", "lat": 38.91907333333333, "is_reserved": 0, "is_disabled": 0, "fusion_lon": 0.0, "bike_id": "5ce34a0142cd571645d81d7e317de59d", "lon": -77.0213255, "rental_uris": {"ios": "https://dc.lft.to/lastmile_qr_scan", "android": "https://dc.lft.to/lastmile_qr_scan"}}, {"name": "89f2bee688aca770197191c2c0e6eb39", "fusion_lat": 0.0, "type": "electric_bike", "lat": 38.90633666666667, "is_reserved": 0, "is_disabled": 0, "fusion_lon": 0.0, "bike_id": "89f2bee688aca770197191c2c0e6eb39", "lon": -77.02384, "rental_uris": {"ios": "https://dc.lft.to/lastmile_qr_scan", "android": "https://dc.lft.to/lastmile_qr_scan"}}, {"name": "03c7d9ceee1a8b2bb561c158de8ddc3d", "fusion_lat": 0.0, "type": "electric_scooter", "lat": 38.90530583333334, "is_reserved": 0, "is_disabled": 0, "fusion_lon": 0.0, "bike_id": "03c7d9ceee1a8b2bb561c158de8ddc3d", "lon": -77.02947283333333, "rental_uris": {"ios": "https://dc.lft.to/lastmile_qr_scan", "android": "https://dc.lft.to/lastmile_qr_scan"}}, {"name": "6ad23d4f71320093e5ca67b9eeaa28e6", "fusion_lat": 0.0, "type": "electric_scooter", "lat": 38.918688333333336, "is_reserved": 0, "is_disabled": 0, "fusion_lon": 0.0, "bike_id": "6ad23d4f71320093e5ca67b9eeaa28e6", "lon": -77.04219383333333, "rental_uris": {"ios": "https://dc.lft.to/lastmile_qr_scan", "android": "https://dc.lft.to/lastmile_qr_scan"}}, {"name": "c04d1e18117b31c2967c4805761f4d5e", "fusion_lat": 0.0, "type": "electric_scooter", "lat": 38.886562833333336, "is_reserved": 0, "is_disabled": 0, "fusion_lon": 0.0, "bike_id": "c04d1e18117b31c2967c4805761f4d5e", "lon": -77.0011605, "rental_uris": {"ios": "https://dc.lft.to/lastmile_qr_scan", "android": "https://dc.lft.to/lastmile_qr_scan"}}, {"name": "1d31cf9421c11f15d38a01e13d560adb", "fusion_lat": 0.0, "type": "electric_scooter", "lat": 38.87383966666667, "is_reserved": 0, "is_disabled": 0, "fusion_lon": 0.0, "bike_id": "1d31cf9421c11f15d38a01e13d560adb", "lon": -77.000339, "rental_uris": {"ios": "https://dc.lft.to/lastmile_qr_scan", "android": "https://dc.lft.to/lastmile_qr_scan"}}, {"name": "5e894b292fe1b914d0bdf9f5b0785f85", "fusion_lat": 0.0, "type": "electric_scooter", "lat": 38.924835333333334, "is_reserved": 0, "is_disabled": 0, "fusion_lon": 0.0, "bike_id": "5e894b292fe1b914d0bdf9f5b0785f85", "lon": -77.05213333333333, "rental_uris": {"ios": "https://dc.lft.to/lastmile_qr_scan", "android": "https://dc.lft.to/lastmile_qr_scan"}}, {"name": "afd073ef546df889e7d6605da1914056", "fusion_lat": 0.0, "type": "electric_scooter", "lat": 38.893721666666664, "is_reserved": 0, "is_disabled": 0, "fusion_lon": 0.0, "bike_id": "afd073ef546df889e7d6605da1914056", "lon": -76.94998133333333, "rental_uris": {"ios": "https://dc.lft.to/lastmile_qr_scan", "android": "https://dc.lft.to/lastmile_qr_scan"}}, {"name": "8b7335344c14b88b8246c404d14f3f17", "fusion_lat": 0.0, "type": "electric_scooter", "lat": 38.92726533333333, "is_reserved": 0, "is_disabled": 0, "fusion_lon": 0.0, "bike_id": "8b7335344c14b88b8246c404d14f3f17", "lon": -77.071464, "rental_uris": {"ios": "https://dc.lft.to/lastmile_qr_scan", "android": "https://dc.lft.to/lastmile_qr_scan"}}, {"name": "e7cdbf04523bee9cca97d3596fa1fb8f", "fusion_lat": 0.0, "type": "electric_scooter", "lat": 38.910442, "is_reserved": 0, "is_disabled": 0, "fusion_lon": 0.0, "bike_id": "e7cdbf04523bee9cca97d3596fa1fb8f", "lon": -77.04375416666667, "rental_uris": {"ios": "https://dc.lft.to/lastmile_qr_scan", "android": "https://dc.lft.to/lastmile_qr_scan"}}, {"name": "595f829dbfab8f5af3ecc5f044f4e026", "fusion_lat": 0.0, "type": "electric_bike", "lat": 38.883456, "is_reserved": 0, "is_disabled": 0, "fusion_lon": 0.0, "bike_id": "595f829dbfab8f5af3ecc5f044f4e026", "lon": -77.18294766666666, "rental_uris": {"ios": "https://dc.lft.to/lastmile_qr_scan", "android": "https://dc.lft.to/lastmile_qr_scan"}}, {"name": "4f8ef00bee25cb9035de8548d88f7869", "fusion_lat": 0.0, "type": "electric_bike", "lat": 38.886215666666665, "is_reserved": 0, "is_disabled": 0, "fusion_lon": 0.0, "bike_id": "4f8ef00bee25cb9035de8548d88f7869", "lon": -77.02225866666667, "rental_uris": {"ios": "https://dc.lft.to/lastmile_qr_scan", "android": "https://dc.lft.to/lastmile_qr_scan"}}, {"name": "254f5c0d9c05e872536cc7fea51ecd59", "fusion_lat": 0.0, "type": "electric_scooter", "lat": 38.90027666666667, "is_reserved": 0, "is_disabled": 0, "fusion_lon": 0.0, "bike_id": "254f5c0d9c05e872536cc7fea51ecd59", "lon": -76.9986065, "rental_uris": {"ios": "https://dc.lft.to/lastmile_qr_scan", "android": "https://dc.lft.to/lastmile_qr_scan"}}, {"name": "595b17412628b7215f785b0b3189df31", "fusion_lat": 0.0, "type": "electric_scooter", "lat": 38.88597033333333, "is_reserved": 0, "is_disabled": 0, "fusion_lon": 0.0, "bike_id": "595b17412628b7215f785b0b3189df31", "lon": -77.021963, "rental_uris": {"ios": "https://dc.lft.to/lastmile_qr_scan", "android": "https://dc.lft.to/lastmile_qr_scan"}}, {"name": "8d98cee09ed3e8cecc935a02b80a807c", "fusion_lat": 0.0, "type": "electric_scooter", "lat": 38.8985125, "is_reserved": 0, "is_disabled": 0, "fusion_lon": 0.0, "bike_id": "8d98cee09ed3e8cecc935a02b80a807c", "lon": -77.016119, "rental_uris": {"ios": "https://dc.lft.to/lastmile_qr_scan", "android": "https://dc.lft.to/lastmile_qr_scan"}}, {"name": "c820e57d3e80632f3978bc4dbabcbc02", "fusion_lat": 0.0, "type": "electric_scooter", "lat": 38.934086666666666, "is_reserved": 0, "is_disabled": 0, "fusion_lon": 0.0, "bike_id": "c820e57d3e80632f3978bc4dbabcbc02", "lon": -77.041872, "rental_uris": {"ios": "https://dc.lft.to/lastmile_qr_scan", "android": "https://dc.lft.to/lastmile_qr_scan"}}, {"name": "ed76af588f4c3d37cfcea544e07fcbb3", "fusion_lat": 0.0, "type": "electric_scooter", "lat": 38.920096, "is_reserved": 0, "is_disabled": 0, "fusion_lon": 0.0, "bike_id": "ed76af588f4c3d37cfcea544e07fcbb3", "lon": -77.08196083333333, "rental_uris": {"ios": "https://dc.lft.to/lastmile_qr_scan", "android": "https://dc.lft.to/lastmile_qr_scan"}}, {"name": "8943e624b0d258efd7bb7ab4162306a0", "fusion_lat": 0.0, "type": "electric_scooter", "lat": 38.95454433333333, "is_reserved": 0, "is_disabled": 0, "fusion_lon": 0.0, "bike_id": "8943e624b0d258efd7bb7ab4162306a0", "lon": -77.07932266666667, "rental_uris": {"ios": "https://dc.lft.to/lastmile_qr_scan", "android": "https://dc.lft.to/lastmile_qr_scan"}}, {"name": "f73d74d3af533c48793c717619abdc61", "fusion_lat": 0.0, "type": "electric_scooter", "lat": 38.94701283333333, "is_reserved": 0, "is_disabled": 0, "fusion_lon": 0.0, "bike_id": "f73d74d3af533c48793c717619abdc61", "lon": -77.01938616666666, "rental_uris": {"ios": "https://dc.lft.to/lastmile_qr_scan", "android": "https://dc.lft.to/lastmile_qr_scan"}}, {"name": "3570c4effc77ddb6c41c3698eed5b6cc", "fusion_lat": 0.0, "type": "electric_scooter", "lat": 38.877378, "is_reserved": 0, "is_disabled": 0, "fusion_lon": 0.0, "bike_id": "3570c4effc77ddb6c41c3698eed5b6cc", "lon": -77.00747516666667, "rental_uris": {"ios": "https://dc.lft.to/lastmile_qr_scan", "android": "https://dc.lft.to/lastmile_qr_scan"}}, {"name": "22a5590868d085706074d3f7206fdce5", "fusion_lat": 0.0, "type": "electric_bike", "lat": 38.8079085, "is_reserved": 0, "is_disabled": 0, "fusion_lon": 0.0, "bike_id": "22a5590868d085706074d3f7206fdce5", "lon": -77.12965133333333, "rental_uris": {"ios": "https://dc.lft.to/lastmile_qr_scan", "android": "https://dc.lft.to/lastmile_qr_scan"}}, {"name": "cae3953a49717a7a1082cbe7904e492f", "fusion_lat": 0.0, "type": "electric_scooter", "lat": 38.91122283333333, "is_reserved": 0, "is_disabled": 0, "fusion_lon": 0.0, "bike_id": "cae3953a49717a7a1082cbe7904e492f", "lon": -77.0460175, "rental_uris": {"ios": "https://dc.lft.to/lastmile_qr_scan", "android": "https://dc.lft.to/lastmile_qr_scan"}}, {"name": "06cd1363be076853ef12d4f13c22e6c0", "fusion_lat": 0.0, "type": "electric_scooter", "lat": 38.92346716666667, "is_reserved": 0, "is_disabled": 0, "fusion_lon": 0.0, "bike_id": "06cd1363be076853ef12d4f13c22e6c0", "lon": -77.054369, "rental_uris": {"ios": "https://dc.lft.to/lastmile_qr_scan", "android": "https://dc.lft.to/lastmile_qr_scan"}}, {"name": "96c0e87d722a16550dfea6ec2a2dba48", "fusion_lat": 0.0, "type": "electric_scooter", "lat": 38.87800033333333, "is_reserved": 0, "is_disabled": 0, "fusion_lon": 0.0, "bike_id": "96c0e87d722a16550dfea6ec2a2dba48", "lon": -77.00747966666667, "rental_uris": {"ios": "https://dc.lft.to/lastmile_qr_scan", "android": "https://dc.lft.to/lastmile_qr_scan"}}, {"name": "3f80308f144a0fbb4e595b7837ea5978", "fusion_lat": 0.0, "type": "electric_bike", "lat": 39.00388816666667, "is_reserved": 0, "is_disabled": 0, "fusion_lon": 0.0, "bike_id": "3f80308f144a0fbb4e595b7837ea5978", "lon": -77.012925, "rental_uris": {"ios": "https://dc.lft.to/lastmile_qr_scan", "android": "https://dc.lft.to/lastmile_qr_scan"}}, {"name": "7a91b817302e8901725a05648f61ba60", "fusion_lat": 0.0, "type": "electric_scooter", "lat": 38.956506166666664, "is_reserved": 0, "is_disabled": 0, "fusion_lon": 0.0, "bike_id": "7a91b817302e8901725a05648f61ba60", "lon": -77.0328365, "rental_uris": {"ios": "https://dc.lft.to/lastmile_qr_scan", "android": "https://dc.lft.to/lastmile_qr_scan"}}, {"name": "a09ad9e7f7be31c99bc66f9fa0fb7533", "fusion_lat": 0.0, "type": "electric_bike", "lat": 38.92040983333333, "is_reserved": 0, "is_disabled": 0, "fusion_lon": 0.0, "bike_id": "a09ad9e7f7be31c99bc66f9fa0fb7533", "lon": -77.03475016666667, "rental_uris": {"ios": "https://dc.lft.to/lastmile_qr_scan", "android": "https://dc.lft.to/lastmile_qr_scan"}}, {"name": "f0b39a90e6ec682a88456ee868010d7e", "fusion_lat": 0.0, "type": "electric_scooter", "lat": 38.900084166666666, "is_reserved": 0, "is_disabled": 0, "fusion_lon": 0.0, "bike_id": "f0b39a90e6ec682a88456ee868010d7e", "lon": -76.99036983333333, "rental_uris": {"ios": "https://dc.lft.to/lastmile_qr_scan", "android": "https://dc.lft.to/lastmile_qr_scan"}}, {"name": "fd92ad68079dc7711740706fb0fb3b87", "fusion_lat": 0.0, "type": "electric_scooter", "lat": 38.92100666666666, "is_reserved": 0, "is_disabled": 0, "fusion_lon": 0.0, "bike_id": "fd92ad68079dc7711740706fb0fb3b87", "lon": -76.9919065, "rental_uris": {"ios": "https://dc.lft.to/lastmile_qr_scan", "android": "https://dc.lft.to/lastmile_qr_scan"}}, {"name": "82ac03dcc141c7e602197114b9f4d656", "fusion_lat": 0.0, "type": "electric_scooter", "lat": 38.924813666666665, "is_reserved": 0, "is_disabled": 0, "fusion_lon": 0.0, "bike_id": "82ac03dcc141c7e602197114b9f4d656", "lon": -77.05215383333334, "rental_uris": {"ios": "https://dc.lft.to/lastmile_qr_scan", "android": "https://dc.lft.to/lastmile_qr_scan"}}, {"name": "a3f338ec8a419db3b0e707f37c3c64f8", "fusion_lat": 0.0, "type": "electric_scooter", "lat": 38.932090333333335, "is_reserved": 0, "is_disabled": 0, "fusion_lon": 0.0, "bike_id": "a3f338ec8a419db3b0e707f37c3c64f8", "lon": -77.036666, "rental_uris": {"ios": "https://dc.lft.to/lastmile_qr_scan", "android": "https://dc.lft.to/lastmile_qr_scan"}}, {"name": "9d60f9c6bb10cd4ae97074b456d1ffb3", "fusion_lat": 0.0, "type": "electric_bike", "lat": 39.052036333333334, "is_reserved": 0, "is_disabled": 0, "fusion_lon": 0.0, "bike_id": "9d60f9c6bb10cd4ae97074b456d1ffb3", "lon": -77.10915683333333, "rental_uris": {"ios": "https://dc.lft.to/lastmile_qr_scan", "android": "https://dc.lft.to/lastmile_qr_scan"}}, {"name": "2f157539dbe2b46226ba3d572e97c632", "fusion_lat": 0.0, "type": "electric_scooter", "lat": 38.923676, "is_reserved": 0, "is_disabled": 0, "fusion_lon": 0.0, "bike_id": "2f157539dbe2b46226ba3d572e97c632", "lon": -77.019131, "rental_uris": {"ios": "https://dc.lft.to/lastmile_qr_scan", "android": "https://dc.lft.to/lastmile_qr_scan"}}, {"name": "8dccec3222aa761091954491a32bd2f1", "fusion_lat": 0.0, "type": "electric_scooter", "lat": 38.90140816666667, "is_reserved": 0, "is_disabled": 0, "fusion_lon": 0.0, "bike_id": "8dccec3222aa761091954491a32bd2f1", "lon": -76.99118966666667, "rental_uris": {"ios": "https://dc.lft.to/lastmile_qr_scan", "android": "https://dc.lft.to/lastmile_qr_scan"}}, {"name": "819cf1f40fe6a80508f05e79a32fa2ec", "fusion_lat": 0.0, "type": "electric_bike", "lat": 38.8416105, "is_reserved": 0, "is_disabled": 0, "fusion_lon": 0.0, "bike_id": "819cf1f40fe6a80508f05e79a32fa2ec", "lon": -77.088911, "rental_uris": {"ios": "https://dc.lft.to/lastmile_qr_scan", "android": "https://dc.lft.to/lastmile_qr_scan"}}, {"name": "f8ea0470d529d118f913a3595fb42008", "fusion_lat": 0.0, "type": "electric_scooter", "lat": 38.879407, "is_reserved": 0, "is_disabled": 0, "fusion_lon": 0.0, "bike_id": "f8ea0470d529d118f913a3595fb42008", "lon": -77.00816366666666, "rental_uris": {"ios": "https://dc.lft.to/lastmile_qr_scan", "android": "https://dc.lft.to/lastmile_qr_scan"}}, {"name": "cdc76bf663bf4a31bc7480c2dfb80786", "fusion_lat": 0.0, "type": "electric_scooter", "lat": 38.85809833333333, "is_reserved": 0, "is_disabled": 0, "fusion_lon": 0.0, "bike_id": "cdc76bf663bf4a31bc7480c2dfb80786", "lon": -76.986523, "rental_uris": {"ios": "https://dc.lft.to/lastmile_qr_scan", "android": "https://dc.lft.to/lastmile_qr_scan"}}, {"name": "ec5ba40aedd98385972b7a4d6899f1e0", "fusion_lat": 0.0, "type": "electric_scooter", "lat": 38.9006055, "is_reserved": 0, "is_disabled": 0, "fusion_lon": 0.0, "bike_id": "ec5ba40aedd98385972b7a4d6899f1e0", "lon": -77.01388216666666, "rental_uris": {"ios": "https://dc.lft.to/lastmile_qr_scan", "android": "https://dc.lft.to/lastmile_qr_scan"}}, {"name": "1f88234628aeac80b25d9fdba40ddbc1", "fusion_lat": 0.0, "type": "electric_scooter", "lat": 38.890860333333336, "is_reserved": 0, "is_disabled": 0, "fusion_lon": 0.0, "bike_id": "1f88234628aeac80b25d9fdba40ddbc1", "lon": -76.99788316666667, "rental_uris": {"ios": "https://dc.lft.to/lastmile_qr_scan", "android": "https://dc.lft.to/lastmile_qr_scan"}}, {"name": "1374db5bea4f3c95a821e0a353b86861", "fusion_lat": 0.0, "type": "electric_scooter", "lat": 38.924322, "is_reserved": 0, "is_disabled": 0, "fusion_lon": 0.0, "bike_id": "1374db5bea4f3c95a821e0a353b86861", "lon": -77.041387, "rental_uris": {"ios": "https://dc.lft.to/lastmile_qr_scan", "android": "https://dc.lft.to/lastmile_qr_scan"}}, {"name": "c26697bea5cff047c5d48c4187749e77", "fusion_lat": 0.0, "type": "electric_bike", "lat": 38.965487833333334, "is_reserved": 0, "is_disabled": 0, "fusion_lon": 0.0, "bike_id": "c26697bea5cff047c5d48c4187749e77", "lon": -77.035117, "rental_uris": {"ios": "https://dc.lft.to/lastmile_qr_scan", "android": "https://dc.lft.to/lastmile_qr_scan"}}, {"name": "6c93319275aef1f84baef1bdd4fec3b0", "fusion_lat": 0.0, "type": "electric_scooter", "lat": 38.93179466666667, "is_reserved": 0, "is_disabled": 0, "fusion_lon": 0.0, "bike_id": "6c93319275aef1f84baef1bdd4fec3b0", "lon": -77.05607916666666, "rental_uris": {"ios": "https://dc.lft.to/lastmile_qr_scan", "android": "https://dc.lft.to/lastmile_qr_scan"}}, {"name": "958950c0d60d271efbcf781e33ea7c50", "fusion_lat": 0.0, "type": "electric_scooter", "lat": 38.920602, "is_reserved": 0, "is_disabled": 0, "fusion_lon": 0.0, "bike_id": "958950c0d60d271efbcf781e33ea7c50", "lon": -77.04701083333333, "rental_uris": {"ios": "https://dc.lft.to/lastmile_qr_scan", "android": "https://dc.lft.to/lastmile_qr_scan"}}, {"name": "fb66790d4b11989eb0e90c7b71ba37b8", "fusion_lat": 0.0, "type": "electric_scooter", "lat": 38.86523416666667, "is_reserved": 0, "is_disabled": 0, "fusion_lon": 0.0, "bike_id": "fb66790d4b11989eb0e90c7b71ba37b8", "lon": -76.985569, "rental_uris": {"ios": "https://dc.lft.to/lastmile_qr_scan", "android": "https://dc.lft.to/lastmile_qr_scan"}}, {"name": "7807cadf47e6ce89936ffb52c1d3a4ca", "fusion_lat": 0.0, "type": "electric_scooter", "lat": 38.930674833333335, "is_reserved": 0, "is_disabled": 0, "fusion_lon": 0.0, "bike_id": "7807cadf47e6ce89936ffb52c1d3a4ca", "lon": -77.0340075, "rental_uris": {"ios": "https://dc.lft.to/lastmile_qr_scan", "android": "https://dc.lft.to/lastmile_qr_scan"}}, {"name": "01dde3613782a4aad6ee50a0dca6455b", "fusion_lat": 0.0, "type": "electric_scooter", "lat": 38.87013066666667, "is_reserved": 0, "is_disabled": 0, "fusion_lon": 0.0, "bike_id": "01dde3613782a4aad6ee50a0dca6455b", "lon": -77.01223366666666, "rental_uris": {"ios": "https://dc.lft.to/lastmile_qr_scan", "android": "https://dc.lft.to/lastmile_qr_scan"}}, {"name": "9e0f0cf16931813b616c3613f7ab5b51", "fusion_lat": 0.0, "type": "electric_scooter", "lat": 38.863695666666665, "is_reserved": 0, "is_disabled": 0, "fusion_lon": 0.0, "bike_id": "9e0f0cf16931813b616c3613f7ab5b51", "lon": -77.01367866666666, "rental_uris": {"ios": "https://dc.lft.to/lastmile_qr_scan", "android": "https://dc.lft.to/lastmile_qr_scan"}}, {"name": "66904bb81f43a2b7c9980e14fa999a29", "fusion_lat": 0.0, "type": "electric_scooter", "lat": 38.902812, "is_reserved": 0, "is_disabled": 0, "fusion_lon": 0.0, "bike_id": "66904bb81f43a2b7c9980e14fa999a29", "lon": -77.04255683333334, "rental_uris": {"ios": "https://dc.lft.to/lastmile_qr_scan", "android": "https://dc.lft.to/lastmile_qr_scan"}}, {"name": "635bf011d11bd45905468bb651b7751c", "fusion_lat": 0.0, "type": "electric_scooter", "lat": 38.930629333333336, "is_reserved": 0, "is_disabled": 0, "fusion_lon": 0.0, "bike_id": "635bf011d11bd45905468bb651b7751c", "lon": -77.02325983333333, "rental_uris": {"ios": "https://dc.lft.to/lastmile_qr_scan", "android": "https://dc.lft.to/lastmile_qr_scan"}}, {"name": "2f1bdbe3e611b34663d716226857921c", "fusion_lat": 0.0, "type": "electric_scooter", "lat": 38.897377, "is_reserved": 0, "is_disabled": 0, "fusion_lon": 0.0, "bike_id": "2f1bdbe3e611b34663d716226857921c", "lon": -77.04764866666666, "rental_uris": {"ios": "https://dc.lft.to/lastmile_qr_scan", "android": "https://dc.lft.to/lastmile_qr_scan"}}, {"name": "71f159abde272dfb25933a2b3d7edae3", "fusion_lat": 0.0, "type": "electric_scooter", "lat": 38.92560533333334, "is_reserved": 0, "is_disabled": 0, "fusion_lon": 0.0, "bike_id": "71f159abde272dfb25933a2b3d7edae3", "lon": -77.06281816666667, "rental_uris": {"ios": "https://dc.lft.to/lastmile_qr_scan", "android": "https://dc.lft.to/lastmile_qr_scan"}}, {"name": "b46f3c8af66b2bae2d9e7eef2ada651f", "fusion_lat": 0.0, "type": "electric_scooter", "lat": 38.8835275, "is_reserved": 0, "is_disabled": 0, "fusion_lon": 0.0, "bike_id": "b46f3c8af66b2bae2d9e7eef2ada651f", "lon": -76.9493515, "rental_uris": {"ios": "https://dc.lft.to/lastmile_qr_scan", "android": "https://dc.lft.to/lastmile_qr_scan"}}, {"name": "e33cd92bfc98ca0b8c2a0651378791b7", "fusion_lat": 0.0, "type": "electric_scooter", "lat": 38.912602166666666, "is_reserved": 0, "is_disabled": 0, "fusion_lon": 0.0, "bike_id": "e33cd92bfc98ca0b8c2a0651378791b7", "lon": -77.007617, "rental_uris": {"ios": "https://dc.lft.to/lastmile_qr_scan", "android": "https://dc.lft.to/lastmile_qr_scan"}}, {"name": "00187ab1c86934abcf42630ba48d637e", "fusion_lat": 0.0, "type": "electric_scooter", "lat": 38.90560766666667, "is_reserved": 0, "is_disabled": 0, "fusion_lon": 0.0, "bike_id": "00187ab1c86934abcf42630ba48d637e", "lon": -77.02429433333333, "rental_uris": {"ios": "https://dc.lft.to/lastmile_qr_scan", "android": "https://dc.lft.to/lastmile_qr_scan"}}, {"name": "fea34bb3c2bf072fac4fe8bd9f076581", "fusion_lat": 0.0, "type": "electric_scooter", "lat": 38.912754666666665, "is_reserved": 0, "is_disabled": 0, "fusion_lon": 0.0, "bike_id": "fea34bb3c2bf072fac4fe8bd9f076581", "lon": -77.02244233333333, "rental_uris": {"ios": "https://dc.lft.to/lastmile_qr_scan", "android": "https://dc.lft.to/lastmile_qr_scan"}}, {"name": "da12fdf761df5941df2f055407f56c75", "fusion_lat": 0.0, "type": "electric_bike", "lat": 38.928534, "is_reserved": 0, "is_disabled": 0, "fusion_lon": 0.0, "bike_id": "da12fdf761df5941df2f055407f56c75", "lon": -77.10676516666666, "rental_uris": {"ios": "https://dc.lft.to/lastmile_qr_scan", "android": "https://dc.lft.to/lastmile_qr_scan"}}, {"name": "c5e8878f6c6efad508d8ead9f588571b", "fusion_lat": 0.0, "type": "electric_scooter", "lat": 38.89733116666667, "is_reserved": 0, "is_disabled": 0, "fusion_lon": 0.0, "bike_id": "c5e8878f6c6efad508d8ead9f588571b", "lon": -77.0433995, "rental_uris": {"ios": "https://dc.lft.to/lastmile_qr_scan", "android": "https://dc.lft.to/lastmile_qr_scan"}}, {"name": "e049251b7a68c0e23331105392ea66bf", "fusion_lat": 0.0, "type": "electric_scooter", "lat": 38.922389, "is_reserved": 0, "is_disabled": 0, "fusion_lon": 0.0, "bike_id": "e049251b7a68c0e23331105392ea66bf", "lon": -77.02239483333334, "rental_uris": {"ios": "https://dc.lft.to/lastmile_qr_scan", "android": "https://dc.lft.to/lastmile_qr_scan"}}, {"name": "b114c5a2301415d0e6d60eb3809a28bb", "fusion_lat": 0.0, "type": "electric_scooter", "lat": 38.90727783333333, "is_reserved": 0, "is_disabled": 0, "fusion_lon": 0.0, "bike_id": "b114c5a2301415d0e6d60eb3809a28bb", "lon": -77.04017266666666, "rental_uris": {"ios": "https://dc.lft.to/lastmile_qr_scan", "android": "https://dc.lft.to/lastmile_qr_scan"}}, {"name": "325f7160bb75b3176f4c8af7fcf44f80", "fusion_lat": 0.0, "type": "electric_scooter", "lat": 38.90264116666667, "is_reserved": 0, "is_disabled": 0, "fusion_lon": 0.0, "bike_id": "325f7160bb75b3176f4c8af7fcf44f80", "lon": -77.01746483333334, "rental_uris": {"ios": "https://dc.lft.to/lastmile_qr_scan", "android": "https://dc.lft.to/lastmile_qr_scan"}}, {"name": "43cd2a7c711fe04dba4c3a617ddd0586", "fusion_lat": 0.0, "type": "electric_scooter", "lat": 38.906569, "is_reserved": 0, "is_disabled": 0, "fusion_lon": 0.0, "bike_id": "43cd2a7c711fe04dba4c3a617ddd0586", "lon": -76.9859805, "rental_uris": {"ios": "https://dc.lft.to/lastmile_qr_scan", "android": "https://dc.lft.to/lastmile_qr_scan"}}, {"name": "d8c9a7959de8f5e458670b3775dd9961", "fusion_lat": 0.0, "type": "electric_scooter", "lat": 38.9026775, "is_reserved": 0, "is_disabled": 0, "fusion_lon": 0.0, "bike_id": "d8c9a7959de8f5e458670b3775dd9961", "lon": -77.029517, "rental_uris": {"ios": "https://dc.lft.to/lastmile_qr_scan", "android": "https://dc.lft.to/lastmile_qr_scan"}}, {"name": "a600df7fdaf6d20426bb5de330ddadec", "fusion_lat": 0.0, "type": "electric_scooter", "lat": 38.916861, "is_reserved": 0, "is_disabled": 0, "fusion_lon": 0.0, "bike_id": "a600df7fdaf6d20426bb5de330ddadec", "lon": -77.02908083333334, "rental_uris": {"ios": "https://dc.lft.to/lastmile_qr_scan", "android": "https://dc.lft.to/lastmile_qr_scan"}}, {"name": "d41cb5bd36d0d4f9d51fa32f5e40137d", "fusion_lat": 0.0, "type": "electric_scooter", "lat": 38.898881833333334, "is_reserved": 0, "is_disabled": 0, "fusion_lon": 0.0, "bike_id": "d41cb5bd36d0d4f9d51fa32f5e40137d", "lon": -76.98570083333334, "rental_uris": {"ios": "https://dc.lft.to/lastmile_qr_scan", "android": "https://dc.lft.to/lastmile_qr_scan"}}, {"name": "a218bcdae3c354e67836f9d61284b675", "fusion_lat": 0.0, "type": "electric_scooter", "lat": 38.93907216666667, "is_reserved": 0, "is_disabled": 0, "fusion_lon": 0.0, "bike_id": "a218bcdae3c354e67836f9d61284b675", "lon": -77.06051733333334, "rental_uris": {"ios": "https://dc.lft.to/lastmile_qr_scan", "android": "https://dc.lft.to/lastmile_qr_scan"}}, {"name": "f97a6e4f405ea4769ee778df44f14812", "fusion_lat": 0.0, "type": "electric_scooter", "lat": 38.898864833333334, "is_reserved": 0, "is_disabled": 0, "fusion_lon": 0.0, "bike_id": "f97a6e4f405ea4769ee778df44f14812", "lon": -76.9329945, "rental_uris": {"ios": "https://dc.lft.to/lastmile_qr_scan", "android": "https://dc.lft.to/lastmile_qr_scan"}}, {"name": "62fde07a10653d24d095293047352e69", "fusion_lat": 0.0, "type": "electric_scooter", "lat": 38.91525433333334, "is_reserved": 0, "is_disabled": 0, "fusion_lon": 0.0, "bike_id": "62fde07a10653d24d095293047352e69", "lon": -77.01422366666667, "rental_uris": {"ios": "https://dc.lft.to/lastmile_qr_scan", "android": "https://dc.lft.to/lastmile_qr_scan"}}, {"name": "51dcaab050bd815d2a11445b88985859", "fusion_lat": 0.0, "type": "electric_scooter", "lat": 38.92963433333333, "is_reserved": 0, "is_disabled": 0, "fusion_lon": 0.0, "bike_id": "51dcaab050bd815d2a11445b88985859", "lon": -77.00535516666666, "rental_uris": {"ios": "https://dc.lft.to/lastmile_qr_scan", "android": "https://dc.lft.to/lastmile_qr_scan"}}, {"name": "2220d15f41a608aed08e4c9f6f46b779", "fusion_lat": 0.0, "type": "electric_scooter", "lat": 38.90285183333334, "is_reserved": 0, "is_disabled": 0, "fusion_lon": 0.0, "bike_id": "2220d15f41a608aed08e4c9f6f46b779", "lon": -77.0366675, "rental_uris": {"ios": "https://dc.lft.to/lastmile_qr_scan", "android": "https://dc.lft.to/lastmile_qr_scan"}}, {"name": "26a9b57513d1707901c3e27e404a18c1", "fusion_lat": 0.0, "type": "electric_scooter", "lat": 38.90976583333333, "is_reserved": 0, "is_disabled": 0, "fusion_lon": 0.0, "bike_id": "26a9b57513d1707901c3e27e404a18c1", "lon": -77.0461075, "rental_uris": {"ios": "https://dc.lft.to/lastmile_qr_scan", "android": "https://dc.lft.to/lastmile_qr_scan"}}, {"name": "63bf1de11170e71cd6a4387f9d3abb67", "fusion_lat": 0.0, "type": "electric_scooter", "lat": 38.899704, "is_reserved": 0, "is_disabled": 0, "fusion_lon": 0.0, "bike_id": "63bf1de11170e71cd6a4387f9d3abb67", "lon": -77.016044, "rental_uris": {"ios": "https://dc.lft.to/lastmile_qr_scan", "android": "https://dc.lft.to/lastmile_qr_scan"}}, {"name": "6d299fb721d7dd7d1f2bf4df5b21c87e", "fusion_lat": 0.0, "type": "electric_scooter", "lat": 38.93022333333333, "is_reserved": 0, "is_disabled": 0, "fusion_lon": 0.0, "bike_id": "6d299fb721d7dd7d1f2bf4df5b21c87e", "lon": -77.038047, "rental_uris": {"ios": "https://dc.lft.to/lastmile_qr_scan", "android": "https://dc.lft.to/lastmile_qr_scan"}}, {"name": "8556e4f3ca7f960bfb95ae5efebb33de", "fusion_lat": 0.0, "type": "electric_scooter", "lat": 38.9181575, "is_reserved": 0, "is_disabled": 0, "fusion_lon": 0.0, "bike_id": "8556e4f3ca7f960bfb95ae5efebb33de", "lon": -77.0355675, "rental_uris": {"ios": "https://dc.lft.to/lastmile_qr_scan", "android": "https://dc.lft.to/lastmile_qr_scan"}}, {"name": "05848565c3e21f5ee414bf380accca3a", "fusion_lat": 0.0, "type": "electric_bike", "lat": 38.881055, "is_reserved": 0, "is_disabled": 0, "fusion_lon": 0.0, "bike_id": "05848565c3e21f5ee414bf380accca3a", "lon": -77.01672833333333, "rental_uris": {"ios": "https://dc.lft.to/lastmile_qr_scan", "android": "https://dc.lft.to/lastmile_qr_scan"}}, {"name": "ae5de7c71255bf4559b548ef219a716e", "fusion_lat": 0.0, "type": "electric_bike", "lat": 38.8934845, "is_reserved": 0, "is_disabled": 0, "fusion_lon": 0.0, "bike_id": "ae5de7c71255bf4559b548ef219a716e", "lon": -77.1874105, "rental_uris": {"ios": "https://dc.lft.to/lastmile_qr_scan", "android": "https://dc.lft.to/lastmile_qr_scan"}}, {"name": "b90532378846220f102a0236091e32bb", "fusion_lat": 0.0, "type": "electric_bike", "lat": 38.966233, "is_reserved": 0, "is_disabled": 0, "fusion_lon": 0.0, "bike_id": "b90532378846220f102a0236091e32bb", "lon": -76.97666716666667, "rental_uris": {"ios": "https://dc.lft.to/lastmile_qr_scan", "android": "https://dc.lft.to/lastmile_qr_scan"}}, {"name": "422da8b0162fa7e5d69f8103b756cee4", "fusion_lat": 0.0, "type": "electric_scooter", "lat": 38.91251033333333, "is_reserved": 0, "is_disabled": 0, "fusion_lon": 0.0, "bike_id": "422da8b0162fa7e5d69f8103b756cee4", "lon": -77.00958633333333, "rental_uris": {"ios": "https://dc.lft.to/lastmile_qr_scan", "android": "https://dc.lft.to/lastmile_qr_scan"}}, {"name": "659effa29c3372c1e17e2277c4098724", "fusion_lat": 0.0, "type": "electric_scooter", "lat": 38.9345485, "is_reserved": 0, "is_disabled": 0, "fusion_lon": 0.0, "bike_id": "659effa29c3372c1e17e2277c4098724", "lon": -77.03098966666667, "rental_uris": {"ios": "https://dc.lft.to/lastmile_qr_scan", "android": "https://dc.lft.to/lastmile_qr_scan"}}, {"name": "01e64473b01a71c24aa32ba62567a805", "fusion_lat": 0.0, "type": "electric_scooter", "lat": 38.907402166666664, "is_reserved": 0, "is_disabled": 0, "fusion_lon": 0.0, "bike_id": "01e64473b01a71c24aa32ba62567a805", "lon": -77.03221, "rental_uris": {"ios": "https://dc.lft.to/lastmile_qr_scan", "android": "https://dc.lft.to/lastmile_qr_scan"}}, {"name": "a817142eb54816effa345192cc5eeeab", "fusion_lat": 0.0, "type": "electric_scooter", "lat": 38.91960683333333, "is_reserved": 0, "is_disabled": 0, "fusion_lon": 0.0, "bike_id": "a817142eb54816effa345192cc5eeeab", "lon": -77.014759, "rental_uris": {"ios": "https://dc.lft.to/lastmile_qr_scan", "android": "https://dc.lft.to/lastmile_qr_scan"}}, {"name": "55e0e70ed74600aeddca9b7080af4786", "fusion_lat": 0.0, "type": "electric_scooter", "lat": 38.90270816666666, "is_reserved": 0, "is_disabled": 0, "fusion_lon": 0.0, "bike_id": "55e0e70ed74600aeddca9b7080af4786", "lon": -77.0367225, "rental_uris": {"ios": "https://dc.lft.to/lastmile_qr_scan", "android": "https://dc.lft.to/lastmile_qr_scan"}}, {"name": "cfee2913e3dba42e8d9492d2220a68d6", "fusion_lat": 0.0, "type": "electric_scooter", "lat": 38.88361733333333, "is_reserved": 0, "is_disabled": 0, "fusion_lon": 0.0, "bike_id": "cfee2913e3dba42e8d9492d2220a68d6", "lon": -77.031733, "rental_uris": {"ios": "https://dc.lft.to/lastmile_qr_scan", "android": "https://dc.lft.to/lastmile_qr_scan"}}, {"name": "a34933a3262ad28ca181a65c58ca0188", "fusion_lat": 0.0, "type": "electric_scooter", "lat": 38.905283, "is_reserved": 0, "is_disabled": 0, "fusion_lon": 0.0, "bike_id": "a34933a3262ad28ca181a65c58ca0188", "lon": -77.05763366666666, "rental_uris": {"ios": "https://dc.lft.to/lastmile_qr_scan", "android": "https://dc.lft.to/lastmile_qr_scan"}}, {"name": "f7223bfa56562136d404b7cea39301f7", "fusion_lat": 0.0, "type": "electric_scooter", "lat": 38.9298495, "is_reserved": 0, "is_disabled": 0, "fusion_lon": 0.0, "bike_id": "f7223bfa56562136d404b7cea39301f7", "lon": -77.03266133333334, "rental_uris": {"ios": "https://dc.lft.to/lastmile_qr_scan", "android": "https://dc.lft.to/lastmile_qr_scan"}}, {"name": "a3dd1630f10a890f855b8fb357edc9b0", "fusion_lat": 0.0, "type": "electric_scooter", "lat": 38.88746716666667, "is_reserved": 0, "is_disabled": 0, "fusion_lon": 0.0, "bike_id": "a3dd1630f10a890f855b8fb357edc9b0", "lon": -77.021299, "rental_uris": {"ios": "https://dc.lft.to/lastmile_qr_scan", "android": "https://dc.lft.to/lastmile_qr_scan"}}, {"name": "0bdc887396d1fd73995a8a4210473041", "fusion_lat": 0.0, "type": "electric_scooter", "lat": 38.910078666666664, "is_reserved": 0, "is_disabled": 0, "fusion_lon": 0.0, "bike_id": "0bdc887396d1fd73995a8a4210473041", "lon": -77.01608583333334, "rental_uris": {"ios": "https://dc.lft.to/lastmile_qr_scan", "android": "https://dc.lft.to/lastmile_qr_scan"}}, {"name": "009f95065827407ce7539fcd3fd0e0f0", "fusion_lat": 0.0, "type": "electric_scooter", "lat": 38.8987955, "is_reserved": 0, "is_disabled": 0, "fusion_lon": 0.0, "bike_id": "009f95065827407ce7539fcd3fd0e0f0", "lon": -76.9315825, "rental_uris": {"ios": "https://dc.lft.to/lastmile_qr_scan", "android": "https://dc.lft.to/lastmile_qr_scan"}}, {"name": "72e91864afbf306097dc0f2e35a665fd", "fusion_lat": 0.0, "type": "electric_scooter", "lat": 38.879126, "is_reserved": 0, "is_disabled": 0, "fusion_lon": 0.0, "bike_id": "72e91864afbf306097dc0f2e35a665fd", "lon": -77.00557183333333, "rental_uris": {"ios": "https://dc.lft.to/lastmile_qr_scan", "android": "https://dc.lft.to/lastmile_qr_scan"}}, {"name": "6b51f52e8eebd5e594748bd4c3d9af57", "fusion_lat": 0.0, "type": "electric_scooter", "lat": 38.92528816666667, "is_reserved": 0, "is_disabled": 0, "fusion_lon": 0.0, "bike_id": "6b51f52e8eebd5e594748bd4c3d9af57", "lon": -77.05532216666667, "rental_uris": {"ios": "https://dc.lft.to/lastmile_qr_scan", "android": "https://dc.lft.to/lastmile_qr_scan"}}, {"name": "e58c804779c1f0cba599fa9649b4f28e", "fusion_lat": 0.0, "type": "electric_scooter", "lat": 38.87185916666667, "is_reserved": 0, "is_disabled": 0, "fusion_lon": 0.0, "bike_id": "e58c804779c1f0cba599fa9649b4f28e", "lon": -77.00601333333333, "rental_uris": {"ios": "https://dc.lft.to/lastmile_qr_scan", "android": "https://dc.lft.to/lastmile_qr_scan"}}, {"name": "e6806b3d43b7837303cfa62ffeeda631", "fusion_lat": 0.0, "type": "electric_scooter", "lat": 38.908352666666666, "is_reserved": 0, "is_disabled": 0, "fusion_lon": 0.0, "bike_id": "e6806b3d43b7837303cfa62ffeeda631", "lon": -76.99702983333333, "rental_uris": {"ios": "https://dc.lft.to/lastmile_qr_scan", "android": "https://dc.lft.to/lastmile_qr_scan"}}, {"name": "088c115c27627e639212f0b6dff883fe", "fusion_lat": 0.0, "type": "electric_scooter", "lat": 38.8842945, "is_reserved": 0, "is_disabled": 0, "fusion_lon": 0.0, "bike_id": "088c115c27627e639212f0b6dff883fe", "lon": -76.95755466666667, "rental_uris": {"ios": "https://dc.lft.to/lastmile_qr_scan", "android": "https://dc.lft.to/lastmile_qr_scan"}}, {"name": "7b718f357c738c95a600c708470cc824", "fusion_lat": 0.0, "type": "electric_scooter", "lat": 38.894032333333335, "is_reserved": 0, "is_disabled": 0, "fusion_lon": 0.0, "bike_id": "7b718f357c738c95a600c708470cc824", "lon": -76.9480355, "rental_uris": {"ios": "https://dc.lft.to/lastmile_qr_scan", "android": "https://dc.lft.to/lastmile_qr_scan"}}, {"name": "e61f46256560bf2940d35d3247614575", "fusion_lat": 0.0, "type": "electric_bike", "lat": 38.83813383333333, "is_reserved": 0, "is_disabled": 0, "fusion_lon": 0.0, "bike_id": "e61f46256560bf2940d35d3247614575", "lon": -77.09522, "rental_uris": {"ios": "https://dc.lft.to/lastmile_qr_scan", "android": "https://dc.lft.to/lastmile_qr_scan"}}, {"name": "bb6d2ec5cafd8b96afff29458b6cbb96", "fusion_lat": 0.0, "type": "electric_scooter", "lat": 38.939776333333334, "is_reserved": 0, "is_disabled": 0, "fusion_lon": 0.0, "bike_id": "bb6d2ec5cafd8b96afff29458b6cbb96", "lon": -77.03569016666667, "rental_uris": {"ios": "https://dc.lft.to/lastmile_qr_scan", "android": "https://dc.lft.to/lastmile_qr_scan"}}, {"name": "8b696bde6681140bc6b61400fa6cd7a9", "fusion_lat": 0.0, "type": "electric_scooter", "lat": 38.8571055, "is_reserved": 0, "is_disabled": 0, "fusion_lon": 0.0, "bike_id": "8b696bde6681140bc6b61400fa6cd7a9", "lon": -76.98134483333334, "rental_uris": {"ios": "https://dc.lft.to/lastmile_qr_scan", "android": "https://dc.lft.to/lastmile_qr_scan"}}, {"name": "3357b6cdb3ef95c43c3263ea9e4151a3", "fusion_lat": 0.0, "type": "electric_bike", "lat": 38.79986, "is_reserved": 0, "is_disabled": 0, "fusion_lon": 0.0, "bike_id": "3357b6cdb3ef95c43c3263ea9e4151a3", "lon": -77.12977433333333, "rental_uris": {"ios": "https://dc.lft.to/lastmile_qr_scan", "android": "https://dc.lft.to/lastmile_qr_scan"}}, {"name": "83bae3c0a053952fce0814f24b6d07b5", "fusion_lat": 0.0, "type": "electric_bike", "lat": 38.838298333333334, "is_reserved": 0, "is_disabled": 0, "fusion_lon": 0.0, "bike_id": "83bae3c0a053952fce0814f24b6d07b5", "lon": -76.99681533333333, "rental_uris": {"ios": "https://dc.lft.to/lastmile_qr_scan", "android": "https://dc.lft.to/lastmile_qr_scan"}}, {"name": "e69d8660baf4aa91e0380fc6a3c99ac1", "fusion_lat": 0.0, "type": "electric_bike", "lat": 38.89653233333333, "is_reserved": 0, "is_disabled": 0, "fusion_lon": 0.0, "bike_id": "e69d8660baf4aa91e0380fc6a3c99ac1", "lon": -77.086397, "rental_uris": {"ios": "https://dc.lft.to/lastmile_qr_scan", "android": "https://dc.lft.to/lastmile_qr_scan"}}, {"name": "55356086fcf283589af6bab18c0497ca", "fusion_lat": 0.0, "type": "electric_scooter", "lat": 38.885791833333336, "is_reserved": 0, "is_disabled": 0, "fusion_lon": 0.0, "bike_id": "55356086fcf283589af6bab18c0497ca", "lon": -76.99622216666667, "rental_uris": {"ios": "https://dc.lft.to/lastmile_qr_scan", "android": "https://dc.lft.to/lastmile_qr_scan"}}, {"name": "f69d7ff3dae4be522e7453d7a42fca97", "fusion_lat": 0.0, "type": "electric_scooter", "lat": 38.8868455, "is_reserved": 0, "is_disabled": 0, "fusion_lon": 0.0, "bike_id": "f69d7ff3dae4be522e7453d7a42fca97", "lon": -76.95761633333333, "rental_uris": {"ios": "https://dc.lft.to/lastmile_qr_scan", "android": "https://dc.lft.to/lastmile_qr_scan"}}, {"name": "9b6c8b9a093fd5758207e64a3f847f6f", "fusion_lat": 0.0, "type": "electric_scooter", "lat": 38.91154, "is_reserved": 0, "is_disabled": 0, "fusion_lon": 0.0, "bike_id": "9b6c8b9a093fd5758207e64a3f847f6f", "lon": -77.04428366666667, "rental_uris": {"ios": "https://dc.lft.to/lastmile_qr_scan", "android": "https://dc.lft.to/lastmile_qr_scan"}}, {"name": "a259da68e8e8475b32a9ab9054630345", "fusion_lat": 0.0, "type": "electric_scooter", "lat": 38.897398833333334, "is_reserved": 0, "is_disabled": 0, "fusion_lon": 0.0, "bike_id": "a259da68e8e8475b32a9ab9054630345", "lon": -76.93847233333334, "rental_uris": {"ios": "https://dc.lft.to/lastmile_qr_scan", "android": "https://dc.lft.to/lastmile_qr_scan"}}, {"name": "f2d7220f2ab51982237b02e6dc7969d1", "fusion_lat": 0.0, "type": "electric_scooter", "lat": 38.85848166666667, "is_reserved": 0, "is_disabled": 0, "fusion_lon": 0.0, "bike_id": "f2d7220f2ab51982237b02e6dc7969d1", "lon": -76.95886983333334, "rental_uris": {"ios": "https://dc.lft.to/lastmile_qr_scan", "android": "https://dc.lft.to/lastmile_qr_scan"}}, {"name": "ab83c11fa6881470e1f355f100f08b1c", "fusion_lat": 0.0, "type": "electric_scooter", "lat": 38.895232666666665, "is_reserved": 0, "is_disabled": 0, "fusion_lon": 0.0, "bike_id": "ab83c11fa6881470e1f355f100f08b1c", "lon": -77.0257535, "rental_uris": {"ios": "https://dc.lft.to/lastmile_qr_scan", "android": "https://dc.lft.to/lastmile_qr_scan"}}, {"name": "7b322bef4142dfac594885a682705ccc", "fusion_lat": 0.0, "type": "electric_scooter", "lat": 38.907814, "is_reserved": 0, "is_disabled": 0, "fusion_lon": 0.0, "bike_id": "7b322bef4142dfac594885a682705ccc", "lon": -77.07167283333334, "rental_uris": {"ios": "https://dc.lft.to/lastmile_qr_scan", "android": "https://dc.lft.to/lastmile_qr_scan"}}, {"name": "6a51231fd114f2ca3156ab4507800822", "fusion_lat": 0.0, "type": "electric_scooter", "lat": 38.92162166666667, "is_reserved": 0, "is_disabled": 0, "fusion_lon": 0.0, "bike_id": "6a51231fd114f2ca3156ab4507800822", "lon": -77.04217033333333, "rental_uris": {"ios": "https://dc.lft.to/lastmile_qr_scan", "android": "https://dc.lft.to/lastmile_qr_scan"}}, {"name": "26ca220589c367df8801514a1d9f000a", "fusion_lat": 0.0, "type": "electric_bike", "lat": 38.94227866666667, "is_reserved": 0, "is_disabled": 0, "fusion_lon": 0.0, "bike_id": "26ca220589c367df8801514a1d9f000a", "lon": -77.01384416666667, "rental_uris": {"ios": "https://dc.lft.to/lastmile_qr_scan", "android": "https://dc.lft.to/lastmile_qr_scan"}}, {"name": "2caffa99177afbb34bfa9a1835bbf9a2", "fusion_lat": 0.0, "type": "electric_scooter", "lat": 38.9148435, "is_reserved": 0, "is_disabled": 0, "fusion_lon": 0.0, "bike_id": "2caffa99177afbb34bfa9a1835bbf9a2", "lon": -77.04504783333333, "rental_uris": {"ios": "https://dc.lft.to/lastmile_qr_scan", "android": "https://dc.lft.to/lastmile_qr_scan"}}, {"name": "da3dd9fe33a5c350faf9ab93b9bf3b2f", "fusion_lat": 0.0, "type": "electric_scooter", "lat": 38.91118733333333, "is_reserved": 0, "is_disabled": 0, "fusion_lon": 0.0, "bike_id": "da3dd9fe33a5c350faf9ab93b9bf3b2f", "lon": -77.031459, "rental_uris": {"ios": "https://dc.lft.to/lastmile_qr_scan", "android": "https://dc.lft.to/lastmile_qr_scan"}}, {"name": "019c9c33ed563e00f3328b7ae6a8307d", "fusion_lat": 0.0, "type": "electric_scooter", "lat": 38.89450133333333, "is_reserved": 0, "is_disabled": 0, "fusion_lon": 0.0, "bike_id": "019c9c33ed563e00f3328b7ae6a8307d", "lon": -77.01922783333333, "rental_uris": {"ios": "https://dc.lft.to/lastmile_qr_scan", "android": "https://dc.lft.to/lastmile_qr_scan"}}, {"name": "0430ca91847a6a29fd842248882dd7ef", "fusion_lat": 0.0, "type": "electric_scooter", "lat": 38.93784183333333, "is_reserved": 0, "is_disabled": 0, "fusion_lon": 0.0, "bike_id": "0430ca91847a6a29fd842248882dd7ef", "lon": -77.06002666666667, "rental_uris": {"ios": "https://dc.lft.to/lastmile_qr_scan", "android": "https://dc.lft.to/lastmile_qr_scan"}}, {"name": "d65f1b18862c3e55aabbe01c93ea951f", "fusion_lat": 0.0, "type": "electric_scooter", "lat": 38.90268183333333, "is_reserved": 0, "is_disabled": 0, "fusion_lon": 0.0, "bike_id": "d65f1b18862c3e55aabbe01c93ea951f", "lon": -77.03852283333333, "rental_uris": {"ios": "https://dc.lft.to/lastmile_qr_scan", "android": "https://dc.lft.to/lastmile_qr_scan"}}, {"name": "c339918ed8f9ee56bbb57411d5ce710a", "fusion_lat": 0.0, "type": "electric_scooter", "lat": 38.894861666666664, "is_reserved": 0, "is_disabled": 0, "fusion_lon": 0.0, "bike_id": "c339918ed8f9ee56bbb57411d5ce710a", "lon": -77.0101635, "rental_uris": {"ios": "https://dc.lft.to/lastmile_qr_scan", "android": "https://dc.lft.to/lastmile_qr_scan"}}, {"name": "ab1f1f14b88f424f3e912219a2c90aff", "fusion_lat": 0.0, "type": "electric_bike", "lat": 38.886167, "is_reserved": 0, "is_disabled": 0, "fusion_lon": 0.0, "bike_id": "ab1f1f14b88f424f3e912219a2c90aff", "lon": -77.10753383333333, "rental_uris": {"ios": "https://dc.lft.to/lastmile_qr_scan", "android": "https://dc.lft.to/lastmile_qr_scan"}}, {"name": "afd766dd9328a23f90e4d1fb7b1fd79c", "fusion_lat": 0.0, "type": "electric_bike", "lat": 38.922067, "is_reserved": 0, "is_disabled": 0, "fusion_lon": 0.0, "bike_id": "afd766dd9328a23f90e4d1fb7b1fd79c", "lon": -76.98800833333334, "rental_uris": {"ios": "https://dc.lft.to/lastmile_qr_scan", "android": "https://dc.lft.to/lastmile_qr_scan"}}, {"name": "b155f4edc7f06184629dbc2c150094d3", "fusion_lat": 0.0, "type": "electric_scooter", "lat": 38.88391566666667, "is_reserved": 0, "is_disabled": 0, "fusion_lon": 0.0, "bike_id": "b155f4edc7f06184629dbc2c150094d3", "lon": -76.93046866666667, "rental_uris": {"ios": "https://dc.lft.to/lastmile_qr_scan", "android": "https://dc.lft.to/lastmile_qr_scan"}}, {"name": "3279addc5cfe55efd9843e21a1a3b22f", "fusion_lat": 0.0, "type": "electric_scooter", "lat": 38.862652, "is_reserved": 0, "is_disabled": 0, "fusion_lon": 0.0, "bike_id": "3279addc5cfe55efd9843e21a1a3b22f", "lon": -76.9871835, "rental_uris": {"ios": "https://dc.lft.to/lastmile_qr_scan", "android": "https://dc.lft.to/lastmile_qr_scan"}}, {"name": "e7a54ffd14a13ae70b970f967d6bceb2", "fusion_lat": 0.0, "type": "electric_scooter", "lat": 38.9388835, "is_reserved": 0, "is_disabled": 0, "fusion_lon": 0.0, "bike_id": "e7a54ffd14a13ae70b970f967d6bceb2", "lon": -77.02468666666667, "rental_uris": {"ios": "https://dc.lft.to/lastmile_qr_scan", "android": "https://dc.lft.to/lastmile_qr_scan"}}, {"name": "1aa7216a811b10b5029e970ebacdd7d1", "fusion_lat": 0.0, "type": "electric_scooter", "lat": 38.9028665, "is_reserved": 0, "is_disabled": 0, "fusion_lon": 0.0, "bike_id": "1aa7216a811b10b5029e970ebacdd7d1", "lon": -77.03831933333333, "rental_uris": {"ios": "https://dc.lft.to/lastmile_qr_scan", "android": "https://dc.lft.to/lastmile_qr_scan"}}, {"name": "1ecc0ed5d502d975583c2ea9f1fb0928", "fusion_lat": 0.0, "type": "electric_scooter", "lat": 38.91256583333333, "is_reserved": 0, "is_disabled": 0, "fusion_lon": 0.0, "bike_id": "1ecc0ed5d502d975583c2ea9f1fb0928", "lon": -77.034327, "rental_uris": {"ios": "https://dc.lft.to/lastmile_qr_scan", "android": "https://dc.lft.to/lastmile_qr_scan"}}, {"name": "59a77bf80950309e519b3c6f59266fce", "fusion_lat": 0.0, "type": "electric_scooter", "lat": 38.916822833333335, "is_reserved": 0, "is_disabled": 0, "fusion_lon": 0.0, "bike_id": "59a77bf80950309e519b3c6f59266fce", "lon": -77.02898566666667, "rental_uris": {"ios": "https://dc.lft.to/lastmile_qr_scan", "android": "https://dc.lft.to/lastmile_qr_scan"}}, {"name": "747dd4c741cb03609b46590ec45bf745", "fusion_lat": 0.0, "type": "electric_scooter", "lat": 38.933932666666664, "is_reserved": 0, "is_disabled": 0, "fusion_lon": 0.0, "bike_id": "747dd4c741cb03609b46590ec45bf745", "lon": -77.07386366666667, "rental_uris": {"ios": "https://dc.lft.to/lastmile_qr_scan", "android": "https://dc.lft.to/lastmile_qr_scan"}}, {"name": "a3d0141541d16b7e3458ba847ccae846", "fusion_lat": 0.0, "type": "electric_scooter", "lat": 38.924732666666664, "is_reserved": 0, "is_disabled": 0, "fusion_lon": 0.0, "bike_id": "a3d0141541d16b7e3458ba847ccae846", "lon": -77.0313575, "rental_uris": {"ios": "https://dc.lft.to/lastmile_qr_scan", "android": "https://dc.lft.to/lastmile_qr_scan"}}, {"name": "75005bfc982f80e8c578a0edf540c479", "fusion_lat": 0.0, "type": "electric_bike", "lat": 38.86378716666667, "is_reserved": 0, "is_disabled": 0, "fusion_lon": 0.0, "bike_id": "75005bfc982f80e8c578a0edf540c479", "lon": -77.12898966666667, "rental_uris": {"ios": "https://dc.lft.to/lastmile_qr_scan", "android": "https://dc.lft.to/lastmile_qr_scan"}}, {"name": "68a76ad9d3eebf81f0088c56b0e34390", "fusion_lat": 0.0, "type": "electric_scooter", "lat": 38.90578583333333, "is_reserved": 0, "is_disabled": 0, "fusion_lon": 0.0, "bike_id": "68a76ad9d3eebf81f0088c56b0e34390", "lon": -77.04219566666667, "rental_uris": {"ios": "https://dc.lft.to/lastmile_qr_scan", "android": "https://dc.lft.to/lastmile_qr_scan"}}, {"name": "a8bed5b14fe8c4b5c5dcff12c9ed1742", "fusion_lat": 0.0, "type": "electric_bike", "lat": 38.970883666666666, "is_reserved": 0, "is_disabled": 0, "fusion_lon": 0.0, "bike_id": "a8bed5b14fe8c4b5c5dcff12c9ed1742", "lon": -77.069685, "rental_uris": {"ios": "https://dc.lft.to/lastmile_qr_scan", "android": "https://dc.lft.to/lastmile_qr_scan"}}, {"name": "60ffe338a0ea7d04a1cf81ae88f8a356", "fusion_lat": 0.0, "type": "electric_scooter", "lat": 38.89748916666667, "is_reserved": 0, "is_disabled": 0, "fusion_lon": 0.0, "bike_id": "60ffe338a0ea7d04a1cf81ae88f8a356", "lon": -77.02704783333333, "rental_uris": {"ios": "https://dc.lft.to/lastmile_qr_scan", "android": "https://dc.lft.to/lastmile_qr_scan"}}, {"name": "5f2fd6ce9bc03246ebf700ab91a47e88", "fusion_lat": 0.0, "type": "electric_scooter", "lat": 38.89973116666667, "is_reserved": 0, "is_disabled": 0, "fusion_lon": 0.0, "bike_id": "5f2fd6ce9bc03246ebf700ab91a47e88", "lon": -77.05520266666667, "rental_uris": {"ios": "https://dc.lft.to/lastmile_qr_scan", "android": "https://dc.lft.to/lastmile_qr_scan"}}, {"name": "8e422d932db0d2e30e91e648e8e3eb79", "fusion_lat": 0.0, "type": "electric_bike", "lat": 38.90998333333334, "is_reserved": 0, "is_disabled": 0, "fusion_lon": 0.0, "bike_id": "8e422d932db0d2e30e91e648e8e3eb79", "lon": -77.06177166666667, "rental_uris": {"ios": "https://dc.lft.to/lastmile_qr_scan", "android": "https://dc.lft.to/lastmile_qr_scan"}}, {"name": "c87b0ac5bc5c8cbdc32b03173b290d4c", "fusion_lat": 0.0, "type": "electric_scooter", "lat": 38.912597, "is_reserved": 0, "is_disabled": 0, "fusion_lon": 0.0, "bike_id": "c87b0ac5bc5c8cbdc32b03173b290d4c", "lon": -77.03178583333333, "rental_uris": {"ios": "https://dc.lft.to/lastmile_qr_scan", "android": "https://dc.lft.to/lastmile_qr_scan"}}, {"name": "6589b6936b81a04df4de30315f1a8859", "fusion_lat": 0.0, "type": "electric_scooter", "lat": 38.8923415, "is_reserved": 0, "is_disabled": 0, "fusion_lon": 0.0, "bike_id": "6589b6936b81a04df4de30315f1a8859", "lon": -77.01523816666666, "rental_uris": {"ios": "https://dc.lft.to/lastmile_qr_scan", "android": "https://dc.lft.to/lastmile_qr_scan"}}, {"name": "0a9763ad1adf2e61250b21290676d30f", "fusion_lat": 0.0, "type": "electric_scooter", "lat": 38.87660916666667, "is_reserved": 0, "is_disabled": 0, "fusion_lon": 0.0, "bike_id": "0a9763ad1adf2e61250b21290676d30f", "lon": -77.00430733333333, "rental_uris": {"ios": "https://dc.lft.to/lastmile_qr_scan", "android": "https://dc.lft.to/lastmile_qr_scan"}}, {"name": "0dc4a337d33a2d8bce2c72f3c0b4be65", "fusion_lat": 0.0, "type": "electric_scooter", "lat": 38.907632666666665, "is_reserved": 0, "is_disabled": 0, "fusion_lon": 0.0, "bike_id": "0dc4a337d33a2d8bce2c72f3c0b4be65", "lon": -77.0597455, "rental_uris": {"ios": "https://dc.lft.to/lastmile_qr_scan", "android": "https://dc.lft.to/lastmile_qr_scan"}}, {"name": "ed711bcd5c37a829ef3882e700672478", "fusion_lat": 0.0, "type": "electric_scooter", "lat": 38.9133565, "is_reserved": 0, "is_disabled": 0, "fusion_lon": 0.0, "bike_id": "ed711bcd5c37a829ef3882e700672478", "lon": -77.0487115, "rental_uris": {"ios": "https://dc.lft.to/lastmile_qr_scan", "android": "https://dc.lft.to/lastmile_qr_scan"}}, {"name": "0c49248bcaaeb4205ccafe5d130fe682", "fusion_lat": 0.0, "type": "electric_scooter", "lat": 38.91188366666667, "is_reserved": 0, "is_disabled": 0, "fusion_lon": 0.0, "bike_id": "0c49248bcaaeb4205ccafe5d130fe682", "lon": -77.0453355, "rental_uris": {"ios": "https://dc.lft.to/lastmile_qr_scan", "android": "https://dc.lft.to/lastmile_qr_scan"}}, {"name": "0484b8ce93a45d51f2cfb0adc6b078a7", "fusion_lat": 0.0, "type": "electric_scooter", "lat": 38.90738316666667, "is_reserved": 0, "is_disabled": 0, "fusion_lon": 0.0, "bike_id": "0484b8ce93a45d51f2cfb0adc6b078a7", "lon": -77.04889216666666, "rental_uris": {"ios": "https://dc.lft.to/lastmile_qr_scan", "android": "https://dc.lft.to/lastmile_qr_scan"}}, {"name": "f018a0b69d742446e3ef987809d8fed6", "fusion_lat": 0.0, "type": "electric_scooter", "lat": 38.92701316666667, "is_reserved": 0, "is_disabled": 0, "fusion_lon": 0.0, "bike_id": "f018a0b69d742446e3ef987809d8fed6", "lon": -77.02426733333333, "rental_uris": {"ios": "https://dc.lft.to/lastmile_qr_scan", "android": "https://dc.lft.to/lastmile_qr_scan"}}, {"name": "e777e005b1d8e30663633b5fa8e795c6", "fusion_lat": 0.0, "type": "electric_scooter", "lat": 38.9395065, "is_reserved": 0, "is_disabled": 0, "fusion_lon": 0.0, "bike_id": "e777e005b1d8e30663633b5fa8e795c6", "lon": -77.07252783333334, "rental_uris": {"ios": "https://dc.lft.to/lastmile_qr_scan", "android": "https://dc.lft.to/lastmile_qr_scan"}}, {"name": "f117d42283cee55efce4b8a86f668d46", "fusion_lat": 0.0, "type": "electric_scooter", "lat": 38.936035, "is_reserved": 0, "is_disabled": 0, "fusion_lon": 0.0, "bike_id": "f117d42283cee55efce4b8a86f668d46", "lon": -77.05862616666667, "rental_uris": {"ios": "https://dc.lft.to/lastmile_qr_scan", "android": "https://dc.lft.to/lastmile_qr_scan"}}, {"name": "7a37ae54205966694f189fca036f1179", "fusion_lat": 0.0, "type": "electric_scooter", "lat": 38.887158666666664, "is_reserved": 0, "is_disabled": 0, "fusion_lon": 0.0, "bike_id": "7a37ae54205966694f189fca036f1179", "lon": -77.01775083333334, "rental_uris": {"ios": "https://dc.lft.to/lastmile_qr_scan", "android": "https://dc.lft.to/lastmile_qr_scan"}}, {"name": "dd98fccb02c8ad69587a9f98d3e00ff0", "fusion_lat": 0.0, "type": "electric_scooter", "lat": 38.93307733333333, "is_reserved": 0, "is_disabled": 0, "fusion_lon": 0.0, "bike_id": "dd98fccb02c8ad69587a9f98d3e00ff0", "lon": -77.03771066666667, "rental_uris": {"ios": "https://dc.lft.to/lastmile_qr_scan", "android": "https://dc.lft.to/lastmile_qr_scan"}}, {"name": "7002b4945a2cf601c9e0276ad09d5dfc", "fusion_lat": 0.0, "type": "electric_bike", "lat": 39.033440666666664, "is_reserved": 0, "is_disabled": 0, "fusion_lon": 0.0, "bike_id": "7002b4945a2cf601c9e0276ad09d5dfc", "lon": -77.049106, "rental_uris": {"ios": "https://dc.lft.to/lastmile_qr_scan", "android": "https://dc.lft.to/lastmile_qr_scan"}}, {"name": "e8cdd1fd3bb3af3f83bf80b2c5fd0faf", "fusion_lat": 0.0, "type": "electric_scooter", "lat": 38.91009483333333, "is_reserved": 0, "is_disabled": 0, "fusion_lon": 0.0, "bike_id": "e8cdd1fd3bb3af3f83bf80b2c5fd0faf", "lon": -77.04421033333334, "rental_uris": {"ios": "https://dc.lft.to/lastmile_qr_scan", "android": "https://dc.lft.to/lastmile_qr_scan"}}, {"name": "d8c5cf54bb0665a551552ada0982ef06", "fusion_lat": 0.0, "type": "electric_scooter", "lat": 38.885841166666665, "is_reserved": 0, "is_disabled": 0, "fusion_lon": 0.0, "bike_id": "d8c5cf54bb0665a551552ada0982ef06", "lon": -76.994917, "rental_uris": {"ios": "https://dc.lft.to/lastmile_qr_scan", "android": "https://dc.lft.to/lastmile_qr_scan"}}, {"name": "3ff1b1180fb29658b4634cebd5f9820e", "fusion_lat": 0.0, "type": "electric_scooter", "lat": 38.92367466666666, "is_reserved": 0, "is_disabled": 0, "fusion_lon": 0.0, "bike_id": "3ff1b1180fb29658b4634cebd5f9820e", "lon": -77.01915933333333, "rental_uris": {"ios": "https://dc.lft.to/lastmile_qr_scan", "android": "https://dc.lft.to/lastmile_qr_scan"}}, {"name": "58279529fd216903f6350cf52ea4e81a", "fusion_lat": 0.0, "type": "electric_scooter", "lat": 38.92285483333333, "is_reserved": 0, "is_disabled": 0, "fusion_lon": 0.0, "bike_id": "58279529fd216903f6350cf52ea4e81a", "lon": -77.02968083333333, "rental_uris": {"ios": "https://dc.lft.to/lastmile_qr_scan", "android": "https://dc.lft.to/lastmile_qr_scan"}}, {"name": "d59a219951a4766565d3d682c60aaca4", "fusion_lat": 0.0, "type": "electric_scooter", "lat": 38.874973, "is_reserved": 0, "is_disabled": 0, "fusion_lon": 0.0, "bike_id": "d59a219951a4766565d3d682c60aaca4", "lon": -76.9979455, "rental_uris": {"ios": "https://dc.lft.to/lastmile_qr_scan", "android": "https://dc.lft.to/lastmile_qr_scan"}}, {"name": "42c397d575cbb0bf1606b7abc78e07d4", "fusion_lat": 0.0, "type": "electric_scooter", "lat": 38.906244666666666, "is_reserved": 0, "is_disabled": 0, "fusion_lon": 0.0, "bike_id": "42c397d575cbb0bf1606b7abc78e07d4", "lon": -77.00592433333334, "rental_uris": {"ios": "https://dc.lft.to/lastmile_qr_scan", "android": "https://dc.lft.to/lastmile_qr_scan"}}, {"name": "cfa6d620f7f7443699d4ba7135f2bee4", "fusion_lat": 0.0, "type": "electric_scooter", "lat": 38.87623216666667, "is_reserved": 0, "is_disabled": 0, "fusion_lon": 0.0, "bike_id": "cfa6d620f7f7443699d4ba7135f2bee4", "lon": -76.96532066666667, "rental_uris": {"ios": "https://dc.lft.to/lastmile_qr_scan", "android": "https://dc.lft.to/lastmile_qr_scan"}}, {"name": "e7be78e511154077c00c7764a7498f29", "fusion_lat": 0.0, "type": "electric_scooter", "lat": 38.900242, "is_reserved": 0, "is_disabled": 0, "fusion_lon": 0.0, "bike_id": "e7be78e511154077c00c7764a7498f29", "lon": -77.00098133333333, "rental_uris": {"ios": "https://dc.lft.to/lastmile_qr_scan", "android": "https://dc.lft.to/lastmile_qr_scan"}}, {"name": "71eaf39fabe89fac0e02dddfe584d949", "fusion_lat": 0.0, "type": "electric_scooter", "lat": 38.914040166666666, "is_reserved": 0, "is_disabled": 0, "fusion_lon": 0.0, "bike_id": "71eaf39fabe89fac0e02dddfe584d949", "lon": -77.022294, "rental_uris": {"ios": "https://dc.lft.to/lastmile_qr_scan", "android": "https://dc.lft.to/lastmile_qr_scan"}}, {"name": "e51053cc1ff618250dfc31d20b7631ce", "fusion_lat": 0.0, "type": "electric_bike", "lat": 38.86278033333333, "is_reserved": 0, "is_disabled": 0, "fusion_lon": 0.0, "bike_id": "e51053cc1ff618250dfc31d20b7631ce", "lon": -77.05932533333333, "rental_uris": {"ios": "https://dc.lft.to/lastmile_qr_scan", "android": "https://dc.lft.to/lastmile_qr_scan"}}, {"name": "dcbb1b5377a1a10e77818acc052330d4", "fusion_lat": 0.0, "type": "electric_bike", "lat": 38.839876333333336, "is_reserved": 0, "is_disabled": 0, "fusion_lon": 0.0, "bike_id": "dcbb1b5377a1a10e77818acc052330d4", "lon": -77.00566533333334, "rental_uris": {"ios": "https://dc.lft.to/lastmile_qr_scan", "android": "https://dc.lft.to/lastmile_qr_scan"}}, {"name": "97cc1087bb99ee067aa0890e19a744ff", "fusion_lat": 0.0, "type": "electric_scooter", "lat": 38.9122635, "is_reserved": 0, "is_disabled": 0, "fusion_lon": 0.0, "bike_id": "97cc1087bb99ee067aa0890e19a744ff", "lon": -77.0320185, "rental_uris": {"ios": "https://dc.lft.to/lastmile_qr_scan", "android": "https://dc.lft.to/lastmile_qr_scan"}}, {"name": "60f1e1a497015d9535a0e8999d4e269b", "fusion_lat": 0.0, "type": "electric_scooter", "lat": 38.9124775, "is_reserved": 0, "is_disabled": 0, "fusion_lon": 0.0, "bike_id": "60f1e1a497015d9535a0e8999d4e269b", "lon": -77.0383635, "rental_uris": {"ios": "https://dc.lft.to/lastmile_qr_scan", "android": "https://dc.lft.to/lastmile_qr_scan"}}, {"name": "e92714b68d649fcb9158617787789516", "fusion_lat": 0.0, "type": "electric_scooter", "lat": 38.89221716666667, "is_reserved": 0, "is_disabled": 0, "fusion_lon": 0.0, "bike_id": "e92714b68d649fcb9158617787789516", "lon": -77.02227983333333, "rental_uris": {"ios": "https://dc.lft.to/lastmile_qr_scan", "android": "https://dc.lft.to/lastmile_qr_scan"}}, {"name": "7fd656a17247fce50d6ec6b5a8fa6436", "fusion_lat": 0.0, "type": "electric_scooter", "lat": 38.88596916666667, "is_reserved": 0, "is_disabled": 0, "fusion_lon": 0.0, "bike_id": "7fd656a17247fce50d6ec6b5a8fa6436", "lon": -77.022029, "rental_uris": {"ios": "https://dc.lft.to/lastmile_qr_scan", "android": "https://dc.lft.to/lastmile_qr_scan"}}, {"name": "efa54f3e959f1ec0c0777e71c1f951b1", "fusion_lat": 0.0, "type": "electric_scooter", "lat": 38.900760166666664, "is_reserved": 0, "is_disabled": 0, "fusion_lon": 0.0, "bike_id": "efa54f3e959f1ec0c0777e71c1f951b1", "lon": -77.0501615, "rental_uris": {"ios": "https://dc.lft.to/lastmile_qr_scan", "android": "https://dc.lft.to/lastmile_qr_scan"}}, {"name": "4a70ce1a98041d0c7da4e0e1d9d6a86d", "fusion_lat": 0.0, "type": "electric_scooter", "lat": 38.86248766666667, "is_reserved": 0, "is_disabled": 0, "fusion_lon": 0.0, "bike_id": "4a70ce1a98041d0c7da4e0e1d9d6a86d", "lon": -76.99532466666666, "rental_uris": {"ios": "https://dc.lft.to/lastmile_qr_scan", "android": "https://dc.lft.to/lastmile_qr_scan"}}, {"name": "76ea9876eba8a45c3226929719743c24", "fusion_lat": 0.0, "type": "electric_scooter", "lat": 38.929784833333336, "is_reserved": 0, "is_disabled": 0, "fusion_lon": 0.0, "bike_id": "76ea9876eba8a45c3226929719743c24", "lon": -77.0144915, "rental_uris": {"ios": "https://dc.lft.to/lastmile_qr_scan", "android": "https://dc.lft.to/lastmile_qr_scan"}}, {"name": "f1ac5dd518b65fabeeeb5f15dd4548b3", "fusion_lat": 0.0, "type": "electric_scooter", "lat": 38.94314, "is_reserved": 0, "is_disabled": 0, "fusion_lon": 0.0, "bike_id": "f1ac5dd518b65fabeeeb5f15dd4548b3", "lon": -77.02486833333333, "rental_uris": {"ios": "https://dc.lft.to/lastmile_qr_scan", "android": "https://dc.lft.to/lastmile_qr_scan"}}, {"name": "1917ae1a828eb1feac3432a9a3f8a161", "fusion_lat": 0.0, "type": "electric_scooter", "lat": 38.874733666666664, "is_reserved": 0, "is_disabled": 0, "fusion_lon": 0.0, "bike_id": "1917ae1a828eb1feac3432a9a3f8a161", "lon": -77.01070016666667, "rental_uris": {"ios": "https://dc.lft.to/lastmile_qr_scan", "android": "https://dc.lft.to/lastmile_qr_scan"}}, {"name": "2a8f2fd8341f706789fbb2f4ccd68ec3", "fusion_lat": 0.0, "type": "electric_bike", "lat": 38.896514833333335, "is_reserved": 0, "is_disabled": 0, "fusion_lon": 0.0, "bike_id": "2a8f2fd8341f706789fbb2f4ccd68ec3", "lon": -77.10452016666666, "rental_uris": {"ios": "https://dc.lft.to/lastmile_qr_scan", "android": "https://dc.lft.to/lastmile_qr_scan"}}, {"name": "24af2cd1d5811ae91b5fcb33c139bc19", "fusion_lat": 0.0, "type": "electric_scooter", "lat": 38.9187, "is_reserved": 0, "is_disabled": 0, "fusion_lon": 0.0, "bike_id": "24af2cd1d5811ae91b5fcb33c139bc19", "lon": -77.044424, "rental_uris": {"ios": "https://dc.lft.to/lastmile_qr_scan", "android": "https://dc.lft.to/lastmile_qr_scan"}}, {"name": "825e0537be7c6ebb778e382e2858f72f", "fusion_lat": 0.0, "type": "electric_bike", "lat": 38.868699666666664, "is_reserved": 0, "is_disabled": 0, "fusion_lon": 0.0, "bike_id": "825e0537be7c6ebb778e382e2858f72f", "lon": -76.91663733333333, "rental_uris": {"ios": "https://dc.lft.to/lastmile_qr_scan", "android": "https://dc.lft.to/lastmile_qr_scan"}},