{"data": {"bikes": [{"bike_id": "d10fe65c63513b165d3e2191ab80c160", "is_reserved": 0, "name": "d10fe65c63513b165d3e2191ab80c160", "lat": 38.923445, "fusion_lat": 0.0, "lon": -77.05216683333333, "is_disabled": 0, "fusion_lon": 0.0, "rental_uris": {"android": "https://dc.lft.to/lastmile_qr_scan", "ios": "https://dc.lft.to/lastmile_qr_scan"}, "type": "electric_scooter"}, {"bike_id": "591270172eba85e7727478e615edee23", "is_reserved": 0, "name": "591270172eba85e7727478e615edee23", "lat": 38.892215, "fusion_lat": 0.0, "lon": -77.04328666666666, "is_disabled": 0, "fusion_lon": 0.0, "rental_uris": {"android": "https://dc.lft.to/lastmile_qr_scan", "ios": "https://dc.lft.to/lastmile_qr_scan"}, "type": "electric_scooter"}, {"bike_id": "35f2cf0debd3f3a837974ad643edcc7a", "is_reserved": 0, "name": "35f2cf0debd3f3a837974ad643edcc7a", "lat": 38.924589, "fusion_lat": 0.0, "lon": -77.02154183333333, "is_disabled": 0, "fusion_lon": 0.0, "rental_uris": {"android": "https://dc.lft.to/lastmile_qr_scan", "ios": "https://dc.lft.to/lastmile_qr_scan"}, "type": "electric_scooter"}, {"bike_id": "ceb377dbfa2bffb02aa3c1f92da9fac2", "is_reserved": 0, "name": "ceb377dbfa2bffb02aa3c1f92da9fac2", "lat": 38.9179885, "fusion_lat": 0.0, "lon": -77.031827, "is_disabled": 0, "fusion_lon": 0.0, "rental_uris": {"android": "https://dc.lft.to/lastmile_qr_scan", "ios": "https://dc.lft.to/lastmile_qr_scan"}, "type": "electric_scooter"}, {"bike_id": "dc1264958f95fc540446a819ffd6ffff", "is_reserved": 0, "name": "dc1264958f95fc540446a819ffd6ffff", "lat": 38.91654033333333, "fusion_lat": 0.0, "lon": -77.04178883333333, "is_disabled": 0, "fusion_lon": 0.0, "rental_uris": {"android": "https://dc.lft.to/lastmile_qr_scan", "ios": "https://dc.lft.to/lastmile_qr_scan"}, "type": "electric_scooter"}, {"bike_id": "5728c701303de2310e105afe04e48f35", "is_reserved": 0, "name": "5728c701303de2310e105afe04e48f35", "lat": 38.90682816666666, "fusion_lat": 0.0, "lon": -77.03811233333333, "is_disabled": 0, "fusion_lon": 0.0, "rental_uris": {"android": "https://dc.lft.to/lastmile_qr_scan", "ios": "https://dc.lft.to/lastmile_qr_scan"}, "type": "electric_scooter"}, {"bike_id": "0aed85145a0e986499d75794413d649e", "is_reserved": 0, "name": "0aed85145a0e986499d75794413d649e", "lat": 38.89426316666667, "fusion_lat": 0.0, "lon": -77.021841, "is_disabled": 0, "fusion_lon": 0.0, "rental_uris": {"android": "https://dc.lft.to/lastmile_qr_scan", "ios": "https://dc.lft.to/lastmile_qr_scan"}, "type": "electric_scooter"}, {"bike_id": "18ad7e1c76a0b617b819a63cc808503f", "is_reserved": 0, "name": "18ad7e1c76a0b617b819a63cc808503f", "lat": 38.92114316666667, "fusion_lat": 0.0, "lon": -77.021344, "is_disabled": 0, "fusion_lon": 0.0, "rental_uris": {"android": "https://dc.lft.to/lastmile_qr_scan", "ios": "https://dc.lft.to/lastmile_qr_scan"}, "type": "electric_scooter"}, {"bike_id": "552876dcd449feacbfc3e28b659c7886", "is_reserved": 0, "name": "552876dcd449feacbfc3e28b659c7886", "lat": 38.907919166666666, "fusion_lat": 0.0, "lon": -77.04256466666666, "is_disabled": 0, "fusion_lon": 0.0, "rental_uris": {"android": "https://dc.lft.to/lastmile_qr_scan", "ios": "https://dc.lft.to/lastmile_qr_scan"}, "type": "electric_scooter"}, {"bike_id": "86609f93e2985eedce8d8c4502314b20", "is_reserved": 0, "name": "86609f93e2985eedce8d8c4502314b20", "lat": 38.92317033333333, "fusion_lat": 0.0, "lon": -77.04038966666667, "is_disabled": 0, "fusion_lon": 0.0, "rental_uris": {"android": "https://dc.lft.to/lastmile_qr_scan", "ios": "https://dc.lft.to/lastmile_qr_scan"}, "type": "electric_scooter"}, {"bike_id": "1da93144cab7b6dc83edb3cf72d42566", "is_reserved": 0, "name": "1da93144cab7b6dc83edb3cf72d42566", "lat": 38.9010465, "fusion_lat": 0.0, "lon": -76.93049666666667, "is_disabled": 0, "fusion_lon": 0.0, "rental_uris": {"android": "https://dc.lft.to/lastmile_qr_scan", "ios": "https://dc.lft.to/lastmile_qr_scan"}, "type": "electric_scooter"}, {"bike_id": "695ddf408994cb4513cc6fe9f217c021", "is_reserved": 0, "name": "695ddf408994cb4513cc6fe9f217c021", "lat": 38.91202533333333, "fusion_lat": 0.0, "lon": -77.011783, "is_disabled": 0, "fusion_lon": 0.0, "rental_uris": {"android": "https://dc.lft.to/lastmile_qr_scan", "ios": "https://dc.lft.to/lastmile_qr_scan"}, "type": "electric_scooter"}, {"bike_id": "b788b5d4031222ba43f7ad225541ff33", "is_reserved": 0, "name": "b788b5d4031222ba43f7ad225541ff33", "lat": 38.92476, "fusion_lat": 0.0, "lon": -77.02073766666666, "is_disabled": 0, "fusion_lon": 0.0, "rental_uris": {"android": "https://dc.lft.to/lastmile_qr_scan", "ios": "https://dc.lft.to/lastmile_qr_scan"}, "type": "electric_scooter"}, {"bike_id": "70bcd38b4b58c4e74aae15d765e7425d", "is_reserved": 0, "name": "70bcd38b4b58c4e74aae15d765e7425d", "lat": 38.860141666666664, "fusion_lat": 0.0, "lon": -76.96709183333333, "is_disabled": 0, "fusion_lon": 0.0, "rental_uris": {"android": "https://dc.lft.to/lastmile_qr_scan", "ios": "https://dc.lft.to/lastmile_qr_scan"}, "type": "electric_scooter"}, {"bike_id": "fa07e1b9b2d41f240acd9bc8cd79c103", "is_reserved": 0, "name": "fa07e1b9b2d41f240acd9bc8cd79c103", "lat": 38.900022166666666, "fusion_lat": 0.0, "lon": -76.9975725, "is_disabled": 0, "fusion_lon": 0.0, "rental_uris": {"android": "https://dc.lft.to/lastmile_qr_scan", "ios": "https://dc.lft.to/lastmile_qr_scan"}, "type": "electric_bike"}, {"bike_id": "d50c0aed78e71a8301ce3e7a641b1587", "is_reserved": 0, "name": "d50c0aed78e71a8301ce3e7a641b1587", "lat": 38.905730166666665, "fusion_lat": 0.0, "lon": -77.0221085, "is_disabled": 0, "fusion_lon": 0.0, "rental_uris": {"android": "https://dc.lft.to/lastmile_qr_scan", "ios": "https://dc.lft.to/lastmile_qr_scan"}, "type": "electric_scooter"}, {"bike_id": "11d67347b53591c7b11a061a471bf1b6", "is_reserved": 0, "name": "11d67347b53591c7b11a061a471bf1b6", "lat": 38.89900333333333, "fusion_lat": 0.0, "lon": -76.98495233333334, "is_disabled": 0, "fusion_lon": 0.0, "rental_uris": {"android": "https://dc.lft.to/lastmile_qr_scan", "ios": "https://dc.lft.to/lastmile_qr_scan"}, "type": "electric_scooter"}, {"bike_id": "4eb067d2c659932c5a9f384a48f3c34f", "is_reserved": 0, "name": "4eb067d2c659932c5a9f384a48f3c34f", "lat": 38.904770166666665, "fusion_lat": 0.0, "lon": -77.00208116666667, "is_disabled": 0, "fusion_lon": 0.0, "rental_uris": {"android": "https://dc.lft.to/lastmile_qr_scan", "ios": "https://dc.lft.to/lastmile_qr_scan"}, "type": "electric_scooter"}, {"bike_id": "0e054cc2ede1cdee1075660472b726f2", "is_reserved": 0, "name": "0e054cc2ede1cdee1075660472b726f2", "lat": 38.876707333333336, "fusion_lat": 0.0, "lon": -77.00333666666667, "is_disabled": 0, "fusion_lon": 0.0, "rental_uris": {"android": "https://dc.lft.to/lastmile_qr_scan", "ios": "https://dc.lft.to/lastmile_qr_scan"}, "type": "electric_scooter"}, {"bike_id": "4256da75507c1b4d7154551559a28cb3", "is_reserved": 0, "name": "4256da75507c1b4d7154551559a28cb3", "lat": 39.004804666666665, "fusion_lat": 0.0, "lon": -77.02184016666666, "is_disabled": 0, "fusion_lon": 0.0, "rental_uris": {"android": "https://dc.lft.to/lastmile_qr_scan", "ios": "https://dc.lft.to/lastmile_qr_scan"}, "type": "electric_bike"}, {"bike_id": "66c42c8cb34eeca9509ed0bb51d0fbf7", "is_reserved": 0, "name": "66c42c8cb34eeca9509ed0bb51d0fbf7", "lat": 38.92250083333333, "fusion_lat": 0.0, "lon": -77.01921183333333, "is_disabled": 0, "fusion_lon": 0.0, "rental_uris": {"android": "https://dc.lft.to/lastmile_qr_scan", "ios": "https://dc.lft.to/lastmile_qr_scan"}, "type": "electric_scooter"}, {"bike_id": "1da25a2e7fea989ee24bc862d666b5ef", "is_reserved": 0, "name": "1da25a2e7fea989ee24bc862d666b5ef", "lat": 38.9418465, "fusion_lat": 0.0, "lon": -77.02488166666667, "is_disabled": 0, "fusion_lon": 0.0, "rental_uris": {"android": "https://dc.lft.to/lastmile_qr_scan", "ios": "https://dc.lft.to/lastmile_qr_scan"}, "type": "electric_scooter"}, {"bike_id": "21edcf1c41feca88e1c5817704e8e198", "is_reserved": 0, "name": "21edcf1c41feca88e1c5817704e8e198", "lat": 38.916870333333335, "fusion_lat": 0.0, "lon": -77.03856466666667, "is_disabled": 0, "fusion_lon": 0.0, "rental_uris": {"android": "https://dc.lft.to/lastmile_qr_scan", "ios": "https://dc.lft.to/lastmile_qr_scan"}, "type": "electric_scooter"}, {"bike_id": "c4d197975e1e1ae55c16464c0b3ac5b8", "is_reserved": 0, "name": "c4d197975e1e1ae55c16464c0b3ac5b8", "lat": 38.92365366666667, "fusion_lat": 0.0, "lon": -77.0194515, "is_disabled": 0, "fusion_lon": 0.0, "rental_uris": {"android": "https://dc.lft.to/lastmile_qr_scan", "ios": "https://dc.lft.to/lastmile_qr_scan"}, "type": "electric_scooter"}, {"bike_id": "6926893d1cafe6afa647f2532aac836b", "is_reserved": 0, "name": "6926893d1cafe6afa647f2532aac836b", "lat": 38.835825166666666, "fusion_lat": 0.0, "lon": -76.99011383333334, "is_disabled": 0, "fusion_lon": 0.0, "rental_uris": {"android": "https://dc.lft.to/lastmile_qr_scan", "ios": "https://dc.lft.to/lastmile_qr_scan"}, "type": "electric_bike"}, {"bike_id": "a58bfd227732a70969d39d5bdd6da108", "is_reserved": 0, "name": "a58bfd227732a70969d39d5bdd6da108", "lat": 38.91544616666667, "fusion_lat": 0.0, "lon": -77.01221716666667, "is_disabled": 0, "fusion_lon": 0.0, "rental_uris": {"android": "https://dc.lft.to/lastmile_qr_scan", "ios": "https://dc.lft.to/lastmile_qr_scan"}, "type": "electric_scooter"}, {"bike_id": "6a3361d35b8e334965f9c0ad9a93770d", "is_reserved": 0, "name": "6a3361d35b8e334965f9c0ad9a93770d", "lat": 38.901684833333334, "fusion_lat": 0.0, "lon": -77.01606933333333, "is_disabled": 0, "fusion_lon": 0.0, "rental_uris": {"android": "https://dc.lft.to/lastmile_qr_scan", "ios": "https://dc.lft.to/lastmile_qr_scan"}, "type": "electric_scooter"}, {"bike_id": "2456d03c3d8b6a9599107198d8ce34b0", "is_reserved": 0, "name": "2456d03c3d8b6a9599107198d8ce34b0", "lat": 38.92221116666666, "fusion_lat": 0.0, "lon": -77.02116833333334, "is_disabled": 0, "fusion_lon": 0.0, "rental_uris": {"android": "https://dc.lft.to/lastmile_qr_scan", "ios": "https://dc.lft.to/lastmile_qr_scan"}, "type": "electric_scooter"}, {"bike_id": "8b42b40ebefae5bb99e68d46d4583c09", "is_reserved": 0, "name": "8b42b40ebefae5bb99e68d46d4583c09", "lat": 38.9059845, "fusion_lat": 0.0, "lon": -77.07621533333334, "is_disabled": 0, "fusion_lon": 0.0, "rental_uris": {"android": "https://dc.lft.to/lastmile_qr_scan", "ios": "https://dc.lft.to/lastmile_qr_scan"}, "type": "electric_bike"}, {"bike_id": "21b00e67d5f71c736c307c21dd4b2831", "is_reserved": 0, "name": "21b00e67d5f71c736c307c21dd4b2831", "lat": 38.924674333333336, "fusion_lat": 0.0, "lon": -77.05232733333334, "is_disabled": 0, "fusion_lon": 0.0, "rental_uris": {"android": "https://dc.lft.to/lastmile_qr_scan", "ios": "https://dc.lft.to/lastmile_qr_scan"}, "type": "electric_scooter"}, {"bike_id": "bf45ff5370a3e6f6da406ccb37f54288", "is_reserved": 0, "name": "bf45ff5370a3e6f6da406ccb37f54288", "lat": 38.91731166666667, "fusion_lat": 0.0, "lon": -77.01919766666667, "is_disabled": 0, "fusion_lon": 0.0, "rental_uris": {"android": "https://dc.lft.to/lastmile_qr_scan", "ios": "https://dc.lft.to/lastmile_qr_scan"}, "type": "electric_scooter"}, {"bike_id": "27dfa74ac9a6f37c3588db1751a01d76", "is_reserved": 0, "name": "27dfa74ac9a6f37c3588db1751a01d76", "lat": 38.86665833333333, "fusion_lat": 0.0, "lon": -76.988978, "is_disabled": 0, "fusion_lon": 0.0, "rental_uris": {"android": "https://dc.lft.to/lastmile_qr_scan", "ios": "https://dc.lft.to/lastmile_qr_scan"}, "type": "electric_scooter"}, {"bike_id": "8e338ce8f955a944de2d3b306f5561d0", "is_reserved": 0, "name": "8e338ce8f955a944de2d3b306f5561d0", "lat": 38.9169635, "fusion_lat": 0.0, "lon": -77.02647616666667, "is_disabled": 0, "fusion_lon": 0.0, "rental_uris": {"android": "https://dc.lft.to/lastmile_qr_scan", "ios": "https://dc.lft.to/lastmile_qr_scan"}, "type": "electric_scooter"}, {"bike_id": "9ddf9a6531b3233c6bb3fd4114bf41e4", "is_reserved": 0, "name": "9ddf9a6531b3233c6bb3fd4114bf41e4", "lat": 38.90953833333333, "fusion_lat": 0.0, "lon": -77.02712666666666, "is_disabled": 0, "fusion_lon": 0.0, "rental_uris": {"android": "https://dc.lft.to/lastmile_qr_scan", "ios": "https://dc.lft.to/lastmile_qr_scan"}, "type": "electric_scooter"}, {"bike_id": "74df7343b4c8bd921140b11be846b749", "is_reserved": 0, "name": "74df7343b4c8bd921140b11be846b749", "lat": 38.88729766666667, "fusion_lat": 0.0, "lon": -77.03185416666666, "is_disabled": 0, "fusion_lon": 0.0, "rental_uris": {"android": "https://dc.lft.to/lastmile_qr_scan", "ios": "https://dc.lft.to/lastmile_qr_scan"}, "type": "electric_scooter"}, {"bike_id": "d1aee95322342c7a8bdb5412ea7abb9d", "is_reserved": 0, "name": "d1aee95322342c7a8bdb5412ea7abb9d", "lat": 38.876545, "fusion_lat": 0.0, "lon": -77.00075483333333, "is_disabled": 0, "fusion_lon": 0.0, "rental_uris": {"android": "https://dc.lft.to/lastmile_qr_scan", "ios": "https://dc.lft.to/lastmile_qr_scan"}, "type": "electric_scooter"}, {"bike_id": "ec040d8d08e7a8699cd909e6ae9c3315", "is_reserved": 0, "name": "ec040d8d08e7a8699cd909e6ae9c3315", "lat": 38.91481783333333, "fusion_lat": 0.0, "lon": -77.0461325, "is_disabled": 0, "fusion_lon": 0.0, "rental_uris": {"android": "https://dc.lft.to/lastmile_qr_scan", "ios": "https://dc.lft.to/lastmile_qr_scan"}, "type": "electric_scooter"}, {"bike_id": "0e01f9d7fb7411b82496e8cb3853e564", "is_reserved": 0, "name": "0e01f9d7fb7411b82496e8cb3853e564", "lat": 38.874939499999996, "fusion_lat": 0.0, "lon": -77.00283133333333, "is_disabled": 0, "fusion_lon": 0.0, "rental_uris": {"android": "https://dc.lft.to/lastmile_qr_scan", "ios": "https://dc.lft.to/lastmile_qr_scan"}, "type": "electric_scooter"}, {"bike_id": "4cd86542ecf6e055dc16d4a12a48bce4", "is_reserved": 0, "name": "4cd86542ecf6e055dc16d4a12a48bce4", "lat": 38.92838916666667, "fusion_lat": 0.0, "lon": -77.0141435, "is_disabled": 0, "fusion_lon": 0.0, "rental_uris": {"android": "https://dc.lft.to/lastmile_qr_scan", "ios": "https://dc.lft.to/lastmile_qr_scan"}, "type": "electric_scooter"}, {"bike_id": "53963c35a314d3747876e0f8ee9eb9bd", "is_reserved": 0, "name": "53963c35a314d3747876e0f8ee9eb9bd", "lat": 38.9168675, "fusion_lat": 0.0, "lon": -77.02956283333333, "is_disabled": 0, "fusion_lon": 0.0, "rental_uris": {"android": "https://dc.lft.to/lastmile_qr_scan", "ios": "https://dc.lft.to/lastmile_qr_scan"}, "type": "electric_scooter"}, {"bike_id": "f8f18da62f8f7921ffae63c2a2968c32", "is_reserved": 0, "name": "f8f18da62f8f7921ffae63c2a2968c32", "lat": 38.91799783333333, "fusion_lat": 0.0, "lon": -77.03183066666666, "is_disabled": 0, "fusion_lon": 0.0, "rental_uris": {"android": "https://dc.lft.to/lastmile_qr_scan", "ios": "https://dc.lft.to/lastmile_qr_scan"}, "type": "electric_scooter"}, {"bike_id": "037793c237ecaf1b7167fcc69f876d09", "is_reserved": 0, "name": "037793c237ecaf1b7167fcc69f876d09", "lat": 38.954072833333335, "fusion_lat": 0.0, "lon": -77.027914, "is_disabled": 0, "fusion_lon": 0.0, "rental_uris": {"android": "https://dc.lft.to/lastmile_qr_scan", "ios": "https://dc.lft.to/lastmile_qr_scan"}, "type": "electric_scooter"}, {"bike_id": "36e6436a5b09f07fe7078974dc4f9fca", "is_reserved": 0, "name": "36e6436a5b09f07fe7078974dc4f9fca", "lat": 38.931841166666665, "fusion_lat": 0.0, "lon": -77.03154383333333, "is_disabled": 0, "fusion_lon": 0.0, "rental_uris": {"android": "https://dc.lft.to/lastmile_qr_scan", "ios": "https://dc.lft.to/lastmile_qr_scan"}, "type": "electric_scooter"}, {"bike_id": "12cdeb611a4e9b45c249d502e0945a64", "is_reserved": 0, "name": "12cdeb611a4e9b45c249d502e0945a64", "lat": 38.860166, "fusion_lat": 0.0, "lon": -77.12805066666667, "is_disabled": 0, "fusion_lon": 0.0, "rental_uris": {"android": "https://dc.lft.to/lastmile_qr_scan", "ios": "https://dc.lft.to/lastmile_qr_scan"}, "type": "electric_bike"}, {"bike_id": "8455615ea657bdc4abd9238c552b72c4", "is_reserved": 0, "name": "8455615ea657bdc4abd9238c552b72c4", "lat": 38.904679, "fusion_lat": 0.0, "lon": -77.0281375, "is_disabled": 0, "fusion_lon": 0.0, "rental_uris": {"android": "https://dc.lft.to/lastmile_qr_scan", "ios": "https://dc.lft.to/lastmile_qr_scan"}, "type": "electric_scooter"}, {"bike_id": "412099386e90bbb59344644ae9b4c421", "is_reserved": 0, "name": "412099386e90bbb59344644ae9b4c421", "lat": 38.92258433333333, "fusion_lat": 0.0, "lon": -77.01950533333333, "is_disabled": 0, "fusion_lon": 0.0, "rental_uris": {"android": "https://dc.lft.to/lastmile_qr_scan", "ios": "https://dc.lft.to/lastmile_qr_scan"}, "type": "electric_scooter"}, {"bike_id": "62a9c7cbaaea7ca0b95dc448cc3e150a", "is_reserved": 0, "name": "62a9c7cbaaea7ca0b95dc448cc3e150a", "lat": 38.926709, "fusion_lat": 0.0, "lon": -77.0302935, "is_disabled": 0, "fusion_lon": 0.0, "rental_uris": {"android": "https://dc.lft.to/lastmile_qr_scan", "ios": "https://dc.lft.to/lastmile_qr_scan"}, "type": "electric_scooter"}, {"bike_id": "85aef6348503df1fa89755dbbd680d7b", "is_reserved": 0, "name": "85aef6348503df1fa89755dbbd680d7b", "lat": 38.916970666666664, "fusion_lat": 0.0, "lon": -77.04273283333333, "is_disabled": 0, "fusion_lon": 0.0, "rental_uris": {"android": "https://dc.lft.to/lastmile_qr_scan", "ios": "https://dc.lft.to/lastmile_qr_scan"}, "type": "electric_scooter"}, {"bike_id": "20df3f8282a09e4b53b3850c134d2353", "is_reserved": 0, "name": "20df3f8282a09e4b53b3850c134d2353", "lat": 38.93011666666666, "fusion_lat": 0.0, "lon": -77.05523483333333, "is_disabled": 0, "fusion_lon": 0.0, "rental_uris": {"android": "https://dc.lft.to/lastmile_qr_scan", "ios": "https://dc.lft.to/lastmile_qr_scan"}, "type": "electric_scooter"}, {"bike_id": "6aa4c4e5e36ad7109c8236d7c3d7986f", "is_reserved": 0, "name": "6aa4c4e5e36ad7109c8236d7c3d7986f", "lat": 38.959345666666664, "fusion_lat": 0.0, "lon": -76.92836433333333, "is_disabled": 0, "fusion_lon": 0.0, "rental_uris": {"android": "https://dc.lft.to/lastmile_qr_scan", "ios": "https://dc.lft.to/lastmile_qr_scan"}, "type": "electric_bike"}, {"bike_id": "f5d10f137aaeca89b4ff30797274b48c", "is_reserved": 0, "name": "f5d10f137aaeca89b4ff30797274b48c", "lat": 38.879122, "fusion_lat": 0.0, "lon": -76.994873, "is_disabled": 0, "fusion_lon": 0.0, "rental_uris": {"android": "https://dc.lft.to/lastmile_qr_scan", "ios": "https://dc.lft.to/lastmile_qr_scan"}, "type": "electric_scooter"}, {"bike_id": "cccefe6156d304b59504debb59d7277a", "is_reserved": 0, "name": "cccefe6156d304b59504debb59d7277a", "lat": 38.91939883333333, "fusion_lat": 0.0, "lon": -77.04489483333333, "is_disabled": 0, "fusion_lon": 0.0, "rental_uris": {"android": "https://dc.lft.to/lastmile_qr_scan", "ios": "https://dc.lft.to/lastmile_qr_scan"}, "type": "electric_scooter"}, {"bike_id": "7a8550336a6c621c2ce7c67285ac98ab", "is_reserved": 0, "name": "7a8550336a6c621c2ce7c67285ac98ab", "lat": 38.8957905, "fusion_lat": 0.0, "lon": -76.98327416666666, "is_disabled": 0, "fusion_lon": 0.0, "rental_uris": {"android": "https://dc.lft.to/lastmile_qr_scan", "ios": "https://dc.lft.to/lastmile_qr_scan"}, "type": "electric_scooter"}, {"bike_id": "3c7cff025b607b6c4f1fc10de2c86dd8", "is_reserved": 0, "name": "3c7cff025b607b6c4f1fc10de2c86dd8", "lat": 38.91636966666667, "fusion_lat": 0.0, "lon": -77.04013883333333, "is_disabled": 0, "fusion_lon": 0.0, "rental_uris": {"android": "https://dc.lft.to/lastmile_qr_scan", "ios": "https://dc.lft.to/lastmile_qr_scan"}, "type": "electric_scooter"}, {"bike_id": "dd88c28f3fdce01ae8570cf59e1a2f41", "is_reserved": 0, "name": "dd88c28f3fdce01ae8570cf59e1a2f41", "lat": 38.87420916666667, "fusion_lat": 0.0, "lon": -76.97177483333333, "is_disabled": 0, "fusion_lon": 0.0, "rental_uris": {"android": "https://dc.lft.to/lastmile_qr_scan", "ios": "https://dc.lft.to/lastmile_qr_scan"}, "type": "electric_scooter"}, {"bike_id": "8c37a25cab62a046a4f80907a7059d29", "is_reserved": 0, "name": "8c37a25cab62a046a4f80907a7059d29", "lat": 38.915548666666666, "fusion_lat": 0.0, "lon": -77.0058645, "is_disabled": 0, "fusion_lon": 0.0, "rental_uris": {"android": "https://dc.lft.to/lastmile_qr_scan", "ios": "https://dc.lft.to/lastmile_qr_scan"}, "type": "electric_scooter"}, {"bike_id": "c76d0199639fc3efb8c88d771354a7dd", "is_reserved": 0, "name": "c76d0199639fc3efb8c88d771354a7dd", "lat": 38.91807, "fusion_lat": 0.0, "lon": -77.03176566666667, "is_disabled": 0, "fusion_lon": 0.0, "rental_uris": {"android": "https://dc.lft.to/lastmile_qr_scan", "ios": "https://dc.lft.to/lastmile_qr_scan"}, "type": "electric_scooter"}, {"bike_id": "900026306a58af0228782d6179cf2ab3", "is_reserved": 0, "name": "900026306a58af0228782d6179cf2ab3", "lat": 38.898598666666665, "fusion_lat": 0.0, "lon": -77.02216933333334, "is_disabled": 0, "fusion_lon": 0.0, "rental_uris": {"android": "https://dc.lft.to/lastmile_qr_scan", "ios": "https://dc.lft.to/lastmile_qr_scan"}, "type": "electric_scooter"}, {"bike_id": "96cb86d56ba5b516743eff802f9d7b62", "is_reserved": 0, "name": "96cb86d56ba5b516743eff802f9d7b62", "lat": 38.923842666666665, "fusion_lat": 0.0, "lon": -77.02741416666667, "is_disabled": 0, "fusion_lon": 0.0, "rental_uris": {"android": "https://dc.lft.to/lastmile_qr_scan", "ios": "https://dc.lft.to/lastmile_qr_scan"}, "type": "electric_scooter"}, {"bike_id": "442f3cba11e74593ada75c83f0cbd563", "is_reserved": 0, "name": "442f3cba11e74593ada75c83f0cbd563", "lat": 38.872631, "fusion_lat": 0.0, "lon": -77.00576233333334, "is_disabled": 0, "fusion_lon": 0.0, "rental_uris": {"android": "https://dc.lft.to/lastmile_qr_scan", "ios": "https://dc.lft.to/lastmile_qr_scan"}, "type": "electric_scooter"}, {"bike_id": "a1a8dbda3327af1b6b788f867b044678", "is_reserved": 0, "name": "a1a8dbda3327af1b6b788f867b044678", "lat": 38.904016166666665, "fusion_lat": 0.0, "lon": -77.03635766666666, "is_disabled": 0, "fusion_lon": 0.0, "rental_uris": {"android": "https://dc.lft.to/lastmile_qr_scan", "ios": "https://dc.lft.to/lastmile_qr_scan"}, "type": "electric_scooter"}, {"bike_id": "391b8dafa4b7afe6b17e8d94ce112048", "is_reserved": 0, "name": "391b8dafa4b7afe6b17e8d94ce112048", "lat": 38.90282366666667, "fusion_lat": 0.0, "lon": -77.0238495, "is_disabled": 0, "fusion_lon": 0.0, "rental_uris": {"android": "https://dc.lft.to/lastmile_qr_scan", "ios": "https://dc.lft.to/lastmile_qr_scan"}, "type": "electric_scooter"}, {"bike_id": "6a9287ba675ee301bf2dd87d8030a548", "is_reserved": 0, "name": "6a9287ba675ee301bf2dd87d8030a548", "lat": 38.9237185, "fusion_lat": 0.0, "lon": -77.05173083333334, "is_disabled": 0, "fusion_lon": 0.0, "rental_uris": {"android": "https://dc.lft.to/lastmile_qr_scan", "ios": "https://dc.lft.to/lastmile_qr_scan"}, "type": "electric_scooter"}, {"bike_id": "641aec3fd74a19a8c5979439f05fa320", "is_reserved": 0, "name": "641aec3fd74a19a8c5979439f05fa320", "lat": 38.909642833333336, "fusion_lat": 0.0, "lon": -77.04848416666667, "is_disabled": 0, "fusion_lon": 0.0, "rental_uris": {"android": "https://dc.lft.to/lastmile_qr_scan", "ios": "https://dc.lft.to/lastmile_qr_scan"}, "type": "electric_scooter"}, {"bike_id": "286e6644d799520be96dae8897f36067", "is_reserved": 0, "name": "286e6644d799520be96dae8897f36067", "lat": 38.906216, "fusion_lat": 0.0, "lon": -77.033318, "is_disabled": 0, "fusion_lon": 0.0, "rental_uris": {"android": "https://dc.lft.to/lastmile_qr_scan", "ios": "https://dc.lft.to/lastmile_qr_scan"}, "type": "electric_scooter"}, {"bike_id": "c74139107cc4217edf5cf9ff9d780ff5", "is_reserved": 0, "name": "c74139107cc4217edf5cf9ff9d780ff5", "lat": 38.898951833333335, "fusion_lat": 0.0, "lon": -77.03932916666666, "is_disabled": 0, "fusion_lon": 0.0, "rental_uris": {"android": "https://dc.lft.to/lastmile_qr_scan", "ios": "https://dc.lft.to/lastmile_qr_scan"}, "type": "electric_scooter"}, {"bike_id": "4cadf8a202d15df08a953e2fca1bf95a", "is_reserved": 0, "name": "4cadf8a202d15df08a953e2fca1bf95a", "lat": 38.90031316666666, "fusion_lat": 0.0, "lon": -76.99836833333333, "is_disabled": 0, "fusion_lon": 0.0, "rental_uris": {"android": "https://dc.lft.to/lastmile_qr_scan", "ios": "https://dc.lft.to/lastmile_qr_scan"}, "type": "electric_scooter"}, {"bike_id": "6a91d231fed6bfa32a8512d323eab842", "is_reserved": 0, "name": "6a91d231fed6bfa32a8512d323eab842", "lat": 38.909371666666665, "fusion_lat": 0.0, "lon": -77.02815916666667, "is_disabled": 0, "fusion_lon": 0.0, "rental_uris": {"android": "https://dc.lft.to/lastmile_qr_scan", "ios": "https://dc.lft.to/lastmile_qr_scan"}, "type": "electric_scooter"}, {"bike_id": "8911588cdee125ce768a9d6a3e4c6987", "is_reserved": 0, "name": "8911588cdee125ce768a9d6a3e4c6987", "lat": 38.877496, "fusion_lat": 0.0, "lon": -77.003394, "is_disabled": 0, "fusion_lon": 0.0, "rental_uris": {"android": "https://dc.lft.to/lastmile_qr_scan", "ios": "https://dc.lft.to/lastmile_qr_scan"}, "type": "electric_scooter"}, {"bike_id": "eadc21b2630ad496236484033ce71d48", "is_reserved": 0, "name": "eadc21b2630ad496236484033ce71d48", "lat": 38.90493766666667, "fusion_lat": 0.0, "lon": -77.06265083333334, "is_disabled": 0, "fusion_lon": 0.0, "rental_uris": {"android": "https://dc.lft.to/lastmile_qr_scan", "ios": "https://dc.lft.to/lastmile_qr_scan"}, "type": "electric_scooter"}, {"bike_id": "7650e07ecd7664e3bf59a88e1a2a73ca", "is_reserved": 0, "name": "7650e07ecd7664e3bf59a88e1a2a73ca", "lat": 38.896142166666664, "fusion_lat": 0.0, "lon": -77.0133385, "is_disabled": 0, "fusion_lon": 0.0, "rental_uris": {"android": "https://dc.lft.to/lastmile_qr_scan", "ios": "https://dc.lft.to/lastmile_qr_scan"}, "type": "electric_scooter"}, {"bike_id": "52ec923dec13741f2767f16f6dc83fbd", "is_reserved": 0, "name": "52ec923dec13741f2767f16f6dc83fbd", "lat": 38.900320666666666, "fusion_lat": 0.0, "lon": -76.99626533333333, "is_disabled": 0, "fusion_lon": 0.0, "rental_uris": {"android": "https://dc.lft.to/lastmile_qr_scan", "ios": "https://dc.lft.to/lastmile_qr_scan"}, "type": "electric_scooter"}, {"bike_id": "874a9f19d22624477032d161dff6eb75", "is_reserved": 0, "name": "874a9f19d22624477032d161dff6eb75", "lat": 38.923241166666664, "fusion_lat": 0.0, "lon": -77.04021816666666, "is_disabled": 0, "fusion_lon": 0.0, "rental_uris": {"android": "https://dc.lft.to/lastmile_qr_scan", "ios": "https://dc.lft.to/lastmile_qr_scan"}, "type": "electric_scooter"}, {"bike_id": "cd024cbae494b33b67c5e4a25fb608c2", "is_reserved": 0, "name": "cd024cbae494b33b67c5e4a25fb608c2", "lat": 38.917332333333334, "fusion_lat": 0.0, "lon": -77.022882, "is_disabled": 0, "fusion_lon": 0.0, "rental_uris": {"android": "https://dc.lft.to/lastmile_qr_scan", "ios": "https://dc.lft.to/lastmile_qr_scan"}, "type": "electric_scooter"}, {"bike_id": "ba5797c5945861576c222d0191d84827", "is_reserved": 0, "name": "ba5797c5945861576c222d0191d84827", "lat": 38.9092505, "fusion_lat": 0.0, "lon": -76.9997315, "is_disabled": 0, "fusion_lon": 0.0, "rental_uris": {"android": "https://dc.lft.to/lastmile_qr_scan", "ios": "https://dc.lft.to/lastmile_qr_scan"}, "type": "electric_scooter"}, {"bike_id": "54c7a2f8787f3f2d012278dbd84a55d1", "is_reserved": 0, "name": "54c7a2f8787f3f2d012278dbd84a55d1", "lat": 38.90352983333333, "fusion_lat": 0.0, "lon": -77.04504266666666, "is_disabled": 0, "fusion_lon": 0.0, "rental_uris": {"android": "https://dc.lft.to/lastmile_qr_scan", "ios": "https://dc.lft.to/lastmile_qr_scan"}, "type": "electric_scooter"}, {"bike_id": "bfe54fafad457d14c412397a8484bfad", "is_reserved": 0, "name": "bfe54fafad457d14c412397a8484bfad", "lat": 38.89553, "fusion_lat": 0.0, "lon": -76.94874166666666, "is_disabled": 0, "fusion_lon": 0.0, "rental_uris": {"android": "https://dc.lft.to/lastmile_qr_scan", "ios": "https://dc.lft.to/lastmile_qr_scan"}, "type": "electric_scooter"}, {"bike_id": "a973a478775fcf08d11d67ad8a0b6a33", "is_reserved": 0, "name": "a973a478775fcf08d11d67ad8a0b6a33", "lat": 38.907953666666664, "fusion_lat": 0.0, "lon": -77.029454, "is_disabled": 0, "fusion_lon": 0.0, "rental_uris": {"android": "https://dc.lft.to/lastmile_qr_scan", "ios": "https://dc.lft.to/lastmile_qr_scan"}, "type": "electric_scooter"}, {"bike_id": "5ad5d3a825c430a84c90a742d89d963e", "is_reserved": 0, "name": "5ad5d3a825c430a84c90a742d89d963e", "lat": 38.905333166666665, "fusion_lat": 0.0, "lon": -76.99801383333333, "is_disabled": 0, "fusion_lon": 0.0, "rental_uris": {"android": "https://dc.lft.to/lastmile_qr_scan", "ios": "https://dc.lft.to/lastmile_qr_scan"}, "type": "electric_bike"}, {"bike_id": "7312ecafd7d9c32e4edcdd7081ddbaa7", "is_reserved": 0, "name": "7312ecafd7d9c32e4edcdd7081ddbaa7", "lat": 38.912244666666666, "fusion_lat": 0.0, "lon": -77.031749, "is_disabled": 0, "fusion_lon": 0.0, "rental_uris": {"android": "https://dc.lft.to/lastmile_qr_scan", "ios": "https://dc.lft.to/lastmile_qr_scan"}, "type": "electric_scooter"}, {"bike_id": "4902cee43328c07f39b59e6240bc4747", "is_reserved": 0, "name": "4902cee43328c07f39b59e6240bc4747", "lat": 38.911181666666664, "fusion_lat": 0.0, "lon": -77.03294483333333, "is_disabled": 0, "fusion_lon": 0.0, "rental_uris": {"android": "https://dc.lft.to/lastmile_qr_scan", "ios": "https://dc.lft.to/lastmile_qr_scan"}, "type": "electric_scooter"}, {"bike_id": "2560c659719a1478f522ef2dc9bc288c", "is_reserved": 0, "name": "2560c659719a1478f522ef2dc9bc288c", "lat": 38.8983495, "fusion_lat": 0.0, "lon": -76.946328, "is_disabled": 0, "fusion_lon": 0.0, "rental_uris": {"android": "https://dc.lft.to/lastmile_qr_scan", "ios": "https://dc.lft.to/lastmile_qr_scan"}, "type": "electric_scooter"}, {"bike_id": "f98bb00e3ffc697ae612f6fc24144afa", "is_reserved": 0, "name": "f98bb00e3ffc697ae612f6fc24144afa", "lat": 38.900297333333334, "fusion_lat": 0.0, "lon": -76.98832683333333, "is_disabled": 0, "fusion_lon": 0.0, "rental_uris": {"android": "https://dc.lft.to/lastmile_qr_scan", "ios": "https://dc.lft.to/lastmile_qr_scan"}, "type": "electric_scooter"}, {"bike_id": "794ff8c0bb401524270e5eb5e81f3727", "is_reserved": 0, "name": "794ff8c0bb401524270e5eb5e81f3727", "lat": 38.91767466666667, "fusion_lat": 0.0, "lon": -77.04041716666667, "is_disabled": 0, "fusion_lon": 0.0, "rental_uris": {"android": "https://dc.lft.to/lastmile_qr_scan", "ios": "https://dc.lft.to/lastmile_qr_scan"}, "type": "electric_scooter"}, {"bike_id": "fc2e73ab32d69487f459d9b72da287c7", "is_reserved": 0, "name": "fc2e73ab32d69487f459d9b72da287c7", "lat": 38.932243166666666, "fusion_lat": 0.0, "lon": -76.99490766666666, "is_disabled": 0, "fusion_lon": 0.0, "rental_uris": {"android": "https://dc.lft.to/lastmile_qr_scan", "ios": "https://dc.lft.to/lastmile_qr_scan"}, "type": "electric_scooter"}, {"bike_id": "161757c0aac92491714679e5763a4477", "is_reserved": 0, "name": "161757c0aac92491714679e5763a4477", "lat": 38.9055125, "fusion_lat": 0.0, "lon": -77.0053855, "is_disabled": 0, "fusion_lon": 0.0, "rental_uris": {"android": "https://dc.lft.to/lastmile_qr_scan", "ios": "https://dc.lft.to/lastmile_qr_scan"}, "type": "electric_scooter"}, {"bike_id": "ca49c29ecd06f00bf7b1b3a248ae39ee", "is_reserved": 0, "name": "ca49c29ecd06f00bf7b1b3a248ae39ee", "lat": 38.92454683333333, "fusion_lat": 0.0, "lon": -76.97107083333333, "is_disabled": 0, "fusion_lon": 0.0, "rental_uris": {"android": "https://dc.lft.to/lastmile_qr_scan", "ios": "https://dc.lft.to/lastmile_qr_scan"}, "type": "electric_scooter"}, {"bike_id": "d7088c091c87be3a178b325613272a3b", "is_reserved": 0, "name": "d7088c091c87be3a178b325613272a3b", "lat": 38.9344745, "fusion_lat": 0.0, "lon": -77.05773266666667, "is_disabled": 0, "fusion_lon": 0.0, "rental_uris": {"android": "https://dc.lft.to/lastmile_qr_scan", "ios": "https://dc.lft.to/lastmile_qr_scan"}, "type": "electric_scooter"}, {"bike_id": "448c267a9fc97098191400d53bc46c0a", "is_reserved": 0, "name": "448c267a9fc97098191400d53bc46c0a", "lat": 38.902826, "fusion_lat": 0.0, "lon": -77.03466766666666, "is_disabled": 0, "fusion_lon": 0.0, "rental_uris": {"android": "https://dc.lft.to/lastmile_qr_scan", "ios": "https://dc.lft.to/lastmile_qr_scan"}, "type": "electric_scooter"}, {"bike_id": "387d33e97d5a4fb7eb469e723c1e14d3", "is_reserved": 0, "name": "387d33e97d5a4fb7eb469e723c1e14d3", "lat": 38.921650166666666, "fusion_lat": 0.0, "lon": -77.04358533333334, "is_disabled": 0, "fusion_lon": 0.0, "rental_uris": {"android": "https://dc.lft.to/lastmile_qr_scan", "ios": "https://dc.lft.to/lastmile_qr_scan"}, "type": "electric_scooter"}, {"bike_id": "12416f042ca2edb81a62ef994512d1d4", "is_reserved": 0, "name": "12416f042ca2edb81a62ef994512d1d4", "lat": 38.90224166666667, "fusion_lat": 0.0, "lon": -77.02181266666666, "is_disabled": 0, "fusion_lon": 0.0, "rental_uris": {"android": "https://dc.lft.to/lastmile_qr_scan", "ios": "https://dc.lft.to/lastmile_qr_scan"}, "type": "electric_scooter"}, {"bike_id": "48312e02dbff4e425c6616b783319a73", "is_reserved": 0, "name": "48312e02dbff4e425c6616b783319a73", "lat": 38.89887266666667, "fusion_lat": 0.0, "lon": -76.93173933333334, "is_disabled": 0, "fusion_lon": 0.0, "rental_uris": {"android": "https://dc.lft.to/lastmile_qr_scan", "ios": "https://dc.lft.to/lastmile_qr_scan"}, "type": "electric_scooter"}, {"bike_id": "3f992b1da4414e47d6262837552a6acf", "is_reserved": 0, "name": "3f992b1da4414e47d6262837552a6acf", "lat": 38.89754766666667, "fusion_lat": 0.0, "lon": -77.02778266666667, "is_disabled": 0, "fusion_lon": 0.0, "rental_uris": {"android": "https://dc.lft.to/lastmile_qr_scan", "ios": "https://dc.lft.to/lastmile_qr_scan"}, "type": "electric_scooter"}, {"bike_id": "047f96f9c98cf0005fad8e4b7b036fd5", "is_reserved": 0, "name": "047f96f9c98cf0005fad8e4b7b036fd5", "lat": 38.89729716666667, "fusion_lat": 0.0, "lon": -77.05522566666667, "is_disabled": 0, "fusion_lon": 0.0, "rental_uris": {"android": "https://dc.lft.to/lastmile_qr_scan", "ios": "https://dc.lft.to/lastmile_qr_scan"}, "type": "electric_scooter"}, {"bike_id": "f5515052e74780db80294f88fdf15c19", "is_reserved": 0, "name": "f5515052e74780db80294f88fdf15c19", "lat": 38.9126805, "fusion_lat": 0.0, "lon": -77.03214333333334, "is_disabled": 0, "fusion_lon": 0.0, "rental_uris": {"android": "https://dc.lft.to/lastmile_qr_scan", "ios": "https://dc.lft.to/lastmile_qr_scan"}, "type": "electric_scooter"}, {"bike_id": "aa25750bf5eb957ea21625185496acd1", "is_reserved": 0, "name": "aa25750bf5eb957ea21625185496acd1", "lat": 38.867181333333335, "fusion_lat": 0.0, "lon": -77.013837, "is_disabled": 0, "fusion_lon": 0.0, "rental_uris": {"android": "https://dc.lft.to/lastmile_qr_scan", "ios": "https://dc.lft.to/lastmile_qr_scan"}, "type": "electric_scooter"}, {"bike_id": "3c29483f3c9a5dd47fee32a255ab8659", "is_reserved": 0, "name": "3c29483f3c9a5dd47fee32a255ab8659", "lat": 38.9001525, "fusion_lat": 0.0, "lon": -77.0006245, "is_disabled": 0, "fusion_lon": 0.0, "rental_uris": {"android": "https://dc.lft.to/lastmile_qr_scan", "ios": "https://dc.lft.to/lastmile_qr_scan"}, "type": "electric_scooter"}, {"bike_id": "2a61d30682f9f0bcc53775b393551004", "is_reserved": 0, "name": "2a61d30682f9f0bcc53775b393551004", "lat": 38.857705833333334, "fusion_lat": 0.0, "lon": -76.9876105, "is_disabled": 0, "fusion_lon": 0.0, "rental_uris": {"android": "https://dc.lft.to/lastmile_qr_scan", "ios": "https://dc.lft.to/lastmile_qr_scan"}, "type": "electric_bike"}, {"bike_id": "df4cd79b5f2cb61ecc14179caee67dfe", "is_reserved": 0, "name": "df4cd79b5f2cb61ecc14179caee67dfe", "lat": 38.900382666666665, "fusion_lat": 0.0, "lon": -77.023987, "is_disabled": 0, "fusion_lon": 0.0, "rental_uris": {"android": "https://dc.lft.to/lastmile_qr_scan", "ios": "https://dc.lft.to/lastmile_qr_scan"}, "type": "electric_scooter"}, {"bike_id": "741c522e1b672a85ef5f6450d0667ad7", "is_reserved": 0, "name": "741c522e1b672a85ef5f6450d0667ad7", "lat": 38.89767066666667, "fusion_lat": 0.0, "lon": -77.008925, "is_disabled": 0, "fusion_lon": 0.0, "rental_uris": {"android": "https://dc.lft.to/lastmile_qr_scan", "ios": "https://dc.lft.to/lastmile_qr_scan"}, "type": "electric_scooter"}, {"bike_id": "64549ebdc74b1f55fb489231f1b06943", "is_reserved": 0, "name": "64549ebdc74b1f55fb489231f1b06943", "lat": 38.905534833333334, "fusion_lat": 0.0, "lon": -77.00528333333334, "is_disabled": 0, "fusion_lon": 0.0, "rental_uris": {"android": "https://dc.lft.to/lastmile_qr_scan", "ios": "https://dc.lft.to/lastmile_qr_scan"}, "type": "electric_scooter"}, {"bike_id": "ab1b7a1c5b269ef685032d1016c28846", "is_reserved": 0, "name": "ab1b7a1c5b269ef685032d1016c28846", "lat": 38.885008166666665, "fusion_lat": 0.0, "lon": -76.99740733333333, "is_disabled": 0, "fusion_lon": 0.0, "rental_uris": {"android": "https://dc.lft.to/lastmile_qr_scan", "ios": "https://dc.lft.to/lastmile_qr_scan"}, "type": "electric_scooter"}, {"bike_id": "31e3cd4216aecce261ff6aaa91f08c2c", "is_reserved": 0, "name": "31e3cd4216aecce261ff6aaa91f08c2c", "lat": 39.086155833333336, "fusion_lat": 0.0, "lon": -77.15255133333334, "is_disabled": 0, "fusion_lon": 0.0, "rental_uris": {"android": "https://dc.lft.to/lastmile_qr_scan", "ios": "https://dc.lft.to/lastmile_qr_scan"}, "type": "electric_bike"}, {"bike_id": "19560b5897785da045cf67c5ee7dba78", "is_reserved": 0, "name": "19560b5897785da045cf67c5ee7dba78", "lat": 38.895615666666664, "fusion_lat": 0.0, "lon": -77.07833366666667, "is_disabled": 0, "fusion_lon": 0.0, "rental_uris": {"android": "https://dc.lft.to/lastmile_qr_scan", "ios": "https://dc.lft.to/lastmile_qr_scan"}, "type": "electric_bike"}, {"bike_id": "e1acef4c1679153c2967418a2f32951d", "is_reserved": 0, "name": "e1acef4c1679153c2967418a2f32951d", "lat": 38.871822333333334, "fusion_lat": 0.0, "lon": -77.00655366666666, "is_disabled": 0, "fusion_lon": 0.0, "rental_uris": {"android": "https://dc.lft.to/lastmile_qr_scan", "ios": "https://dc.lft.to/lastmile_qr_scan"}, "type": "electric_scooter"}, {"bike_id": "d612bf03f5a7986ab3dd224a37dc079e", "is_reserved": 0, "name": "d612bf03f5a7986ab3dd224a37dc079e", "lat": 38.90034716666667, "fusion_lat": 0.0, "lon": -77.015353, "is_disabled": 0, "fusion_lon": 0.0, "rental_uris": {"android": "https://dc.lft.to/lastmile_qr_scan", "ios": "https://dc.lft.to/lastmile_qr_scan"}, "type": "electric_scooter"}, {"bike_id": "506c13c768d28b08ab2c42d723daee2b", "is_reserved": 0, "name": "506c13c768d28b08ab2c42d723daee2b", "lat": 38.923423666666665, "fusion_lat": 0.0, "lon": -77.05226283333333, "is_disabled": 0, "fusion_lon": 0.0, "rental_uris": {"android": "https://dc.lft.to/lastmile_qr_scan", "ios": "https://dc.lft.to/lastmile_qr_scan"}, "type": "electric_scooter"}, {"bike_id": "79190eefbf81858792be8c2f0d61368d", "is_reserved": 0, "name": "79190eefbf81858792be8c2f0d61368d", "lat": 38.89685083333333, "fusion_lat": 0.0, "lon": -77.024847, "is_disabled": 0, "fusion_lon": 0.0, "rental_uris": {"android": "https://dc.lft.to/lastmile_qr_scan", "ios": "https://dc.lft.to/lastmile_qr_scan"}, "type": "electric_scooter"}, {"bike_id": "a729dd11d67d04e33a90e6ea39a6c1fd", "is_reserved": 0, "name": "a729dd11d67d04e33a90e6ea39a6c1fd", "lat": 38.909958833333334, "fusion_lat": 0.0, "lon": -77.03846116666666, "is_disabled": 0, "fusion_lon": 0.0, "rental_uris": {"android": "https://dc.lft.to/lastmile_qr_scan", "ios": "https://dc.lft.to/lastmile_qr_scan"}, "type": "electric_bike"}, {"bike_id": "37d2e1bbe84c9e9367cca5974a144924", "is_reserved": 0, "name": "37d2e1bbe84c9e9367cca5974a144924", "lat": 38.956292833333336, "fusion_lat": 0.0, "lon": -77.0283895, "is_disabled": 0, "fusion_lon": 0.0, "rental_uris": {"android": "https://dc.lft.to/lastmile_qr_scan", "ios": "https://dc.lft.to/lastmile_qr_scan"}, "type": "electric_scooter"}, {"bike_id": "b5166287603b492555346acad53d67b7", "is_reserved": 0, "name": "b5166287603b492555346acad53d67b7", "lat": 38.915897666666666, "fusion_lat": 0.0, "lon": -76.98386583333334, "is_disabled": 0, "fusion_lon": 0.0, "rental_uris": {"android": "https://dc.lft.to/lastmile_qr_scan", "ios": "https://dc.lft.to/lastmile_qr_scan"}, "type": "electric_scooter"}, {"bike_id": "20955a352674c11ac44418d3406c8d77", "is_reserved": 0, "name": "20955a352674c11ac44418d3406c8d77", "lat": 38.8982575, "fusion_lat": 0.0, "lon": -77.03360416666666, "is_disabled": 0, "fusion_lon": 0.0, "rental_uris": {"android": "https://dc.lft.to/lastmile_qr_scan", "ios": "https://dc.lft.to/lastmile_qr_scan"}, "type": "electric_scooter"}, {"bike_id": "2729b36723cc11ee9b7c33b9f2d6e816", "is_reserved": 0, "name": "2729b36723cc11ee9b7c33b9f2d6e816", "lat": 38.916466166666666, "fusion_lat": 0.0, "lon": -77.04146016666667, "is_disabled": 0, "fusion_lon": 0.0, "rental_uris": {"android": "https://dc.lft.to/lastmile_qr_scan", "ios": "https://dc.lft.to/lastmile_qr_scan"}, "type": "electric_scooter"}, {"bike_id": "4e3dbd7a6e1b9e5f73e13bae887a0711", "is_reserved": 0, "name": "4e3dbd7a6e1b9e5f73e13bae887a0711", "lat": 38.90152166666667, "fusion_lat": 0.0, "lon": -77.059081, "is_disabled": 0, "fusion_lon": 0.0, "rental_uris": {"android": "https://dc.lft.to/lastmile_qr_scan", "ios": "https://dc.lft.to/lastmile_qr_scan"}, "type": "electric_scooter"}, {"bike_id": "e8a268e1fc6d0978df13abf8bdc35f36", "is_reserved": 0, "name": "e8a268e1fc6d0978df13abf8bdc35f36", "lat": 38.87959816666667, "fusion_lat": 0.0, "lon": -77.00590566666666, "is_disabled": 0, "fusion_lon": 0.0, "rental_uris": {"android": "https://dc.lft.to/lastmile_qr_scan", "ios": "https://dc.lft.to/lastmile_qr_scan"}, "type": "electric_scooter"}, {"bike_id": "71f8ef5859f5def0235e5d6bb8a5a437", "is_reserved": 0, "name": "71f8ef5859f5def0235e5d6bb8a5a437", "lat": 38.90735816666667, "fusion_lat": 0.0, "lon": -77.02947066666667, "is_disabled": 0, "fusion_lon": 0.0, "rental_uris": {"android": "https://dc.lft.to/lastmile_qr_scan", "ios": "https://dc.lft.to/lastmile_qr_scan"}, "type": "electric_scooter"}, {"bike_id": "f37907d6e8ccedd58863e4a630bd3d10", "is_reserved": 0, "name": "f37907d6e8ccedd58863e4a630bd3d10", "lat": 38.90507733333333, "fusion_lat": 0.0, "lon": -76.97444366666667, "is_disabled": 0, "fusion_lon": 0.0, "rental_uris": {"android": "https://dc.lft.to/lastmile_qr_scan", "ios": "https://dc.lft.to/lastmile_qr_scan"}, "type": "electric_bike"}, {"bike_id": "177492b6b0bdb50a68af17048d8d1582", "is_reserved": 0, "name": "177492b6b0bdb50a68af17048d8d1582", "lat": 38.90727016666666, "fusion_lat": 0.0, "lon": -77.0453905, "is_disabled": 0, "fusion_lon": 0.0, "rental_uris": {"android": "https://dc.lft.to/lastmile_qr_scan", "ios": "https://dc.lft.to/lastmile_qr_scan"}, "type": "electric_scooter"}, {"bike_id": "a35a0148e2b8e3eb88ff5f131094b798", "is_reserved": 0, "name": "a35a0148e2b8e3eb88ff5f131094b798", "lat": 38.864594, "fusion_lat": 0.0, "lon": -77.0134845, "is_disabled": 0, "fusion_lon": 0.0, "rental_uris": {"android": "https://dc.lft.to/lastmile_qr_scan", "ios": "https://dc.lft.to/lastmile_qr_scan"}, "type": "electric_scooter"}, {"bike_id": "77a1fee0eb2f5ef870f7d28eafd45c12", "is_reserved": 0, "name": "77a1fee0eb2f5ef870f7d28eafd45c12", "lat": 38.843571, "fusion_lat": 0.0, "lon": -76.97825983333334, "is_disabled": 0, "fusion_lon": 0.0, "rental_uris": {"android": "https://dc.lft.to/lastmile_qr_scan", "ios": "https://dc.lft.to/lastmile_qr_scan"}, "type": "electric_bike"}, {"bike_id": "13c914b9cc001bd337b4432138396714", "is_reserved": 0, "name": "13c914b9cc001bd337b4432138396714", "lat": 38.917956, "fusion_lat": 0.0, "lon": -77.0344865, "is_disabled": 0, "fusion_lon": 0.0, "rental_uris": {"android": "https://dc.lft.to/lastmile_qr_scan", "ios": "https://dc.lft.to/lastmile_qr_scan"}, "type": "electric_scooter"}, {"bike_id": "7ee21e45b3512dc4ad8c927579513346", "is_reserved": 0, "name": "7ee21e45b3512dc4ad8c927579513346", "lat": 38.9126965, "fusion_lat": 0.0, "lon": -77.01680033333334, "is_disabled": 0, "fusion_lon": 0.0, "rental_uris": {"android": "https://dc.lft.to/lastmile_qr_scan", "ios": "https://dc.lft.to/lastmile_qr_scan"}, "type": "electric_scooter"}, {"bike_id": "bc867f511551cdfeee1af37fd0b8786b", "is_reserved": 0, "name": "bc867f511551cdfeee1af37fd0b8786b", "lat": 38.910895, "fusion_lat": 0.0, "lon": -77.021956, "is_disabled": 0, "fusion_lon": 0.0, "rental_uris": {"android": "https://dc.lft.to/lastmile_qr_scan", "ios": "https://dc.lft.to/lastmile_qr_scan"}, "type": "electric_scooter"}, {"bike_id": "c881c78a0fcd4ca2953a04e3e42c1962", "is_reserved": 0, "name": "c881c78a0fcd4ca2953a04e3e42c1962", "lat": 38.90636533333333, "fusion_lat": 0.0, "lon": -77.00596166666666, "is_disabled": 0, "fusion_lon": 0.0, "rental_uris": {"android": "https://dc.lft.to/lastmile_qr_scan", "ios": "https://dc.lft.to/lastmile_qr_scan"}, "type": "electric_scooter"}, {"bike_id": "355a74a17072ae16a49edf33f60d1b9b", "is_reserved": 0, "name": "355a74a17072ae16a49edf33f60d1b9b", "lat": 38.899661, "fusion_lat": 0.0, "lon": -77.0160925, "is_disabled": 0, "fusion_lon": 0.0, "rental_uris": {"android": "https://dc.lft.to/lastmile_qr_scan", "ios": "https://dc.lft.to/lastmile_qr_scan"}, "type": "electric_scooter"}, {"bike_id": "40a217a31c6283ccb08f7fe34242fdab", "is_reserved": 0, "name": "40a217a31c6283ccb08f7fe34242fdab", "lat": 38.92580733333333, "fusion_lat": 0.0, "lon": -77.03639783333334, "is_disabled": 0, "fusion_lon": 0.0, "rental_uris": {"android": "https://dc.lft.to/lastmile_qr_scan", "ios": "https://dc.lft.to/lastmile_qr_scan"}, "type": "electric_scooter"}, {"bike_id": "5ed40e3955cf608b4bbf65978dadf0cb", "is_reserved": 0, "name": "5ed40e3955cf608b4bbf65978dadf0cb", "lat": 38.887314, "fusion_lat": 0.0, "lon": -77.03194483333333, "is_disabled": 0, "fusion_lon": 0.0, "rental_uris": {"android": "https://dc.lft.to/lastmile_qr_scan", "ios": "https://dc.lft.to/lastmile_qr_scan"}, "type": "electric_scooter"}, {"bike_id": "a92589e5556c1de39c0d864718462429", "is_reserved": 0, "name": "a92589e5556c1de39c0d864718462429", "lat": 38.83829816666667, "fusion_lat": 0.0, "lon": -76.99681866666667, "is_disabled": 0, "fusion_lon": 0.0, "rental_uris": {"android": "https://dc.lft.to/lastmile_qr_scan", "ios": "https://dc.lft.to/lastmile_qr_scan"}, "type": "electric_bike"}, {"bike_id": "7b006e97995e7fea82e64d8db5a9f098", "is_reserved": 0, "name": "7b006e97995e7fea82e64d8db5a9f098", "lat": 38.88728183333333, "fusion_lat": 0.0, "lon": -77.01765916666666, "is_disabled": 0, "fusion_lon": 0.0, "rental_uris": {"android": "https://dc.lft.to/lastmile_qr_scan", "ios": "https://dc.lft.to/lastmile_qr_scan"}, "type": "electric_scooter"}, {"bike_id": "69087a2b35eb582a45414ff112b60d82", "is_reserved": 0, "name": "69087a2b35eb582a45414ff112b60d82", "lat": 38.92155733333333, "fusion_lat": 0.0, "lon": -77.03357116666666, "is_disabled": 0, "fusion_lon": 0.0, "rental_uris": {"android": "https://dc.lft.to/lastmile_qr_scan", "ios": "https://dc.lft.to/lastmile_qr_scan"}, "type": "electric_scooter"}, {"bike_id": "a241284bdd838331137a1edc0c17146b", "is_reserved": 0, "name": "a241284bdd838331137a1edc0c17146b", "lat": 38.91695833333333, "fusion_lat": 0.0, "lon": -77.02293183333333, "is_disabled": 0, "fusion_lon": 0.0, "rental_uris": {"android": "https://dc.lft.to/lastmile_qr_scan", "ios": "https://dc.lft.to/lastmile_qr_scan"}, "type": "electric_scooter"}, {"bike_id": "b693e405189073531fff8a96954d8646", "is_reserved": 0, "name": "b693e405189073531fff8a96954d8646", "lat": 38.914144, "fusion_lat": 0.0, "lon": -77.01075983333334, "is_disabled": 0, "fusion_lon": 0.0, "rental_uris": {"android": "https://dc.lft.to/lastmile_qr_scan", "ios": "https://dc.lft.to/lastmile_qr_scan"}, "type": "electric_scooter"}, {"bike_id": "ae5c969647a0a669b08b02e84aa37981", "is_reserved": 0, "name": "ae5c969647a0a669b08b02e84aa37981", "lat": 38.9204505, "fusion_lat": 0.0, "lon": -77.01688866666667, "is_disabled": 0, "fusion_lon": 0.0, "rental_uris": {"android": "https://dc.lft.to/lastmile_qr_scan", "ios": "https://dc.lft.to/lastmile_qr_scan"}, "type": "electric_scooter"}, {"bike_id": "18345dd9753a2200aed8c23a33b938ca", "is_reserved": 0, "name": "18345dd9753a2200aed8c23a33b938ca", "lat": 38.909638666666666, "fusion_lat": 0.0, "lon": -77.0395325, "is_disabled": 0, "fusion_lon": 0.0, "rental_uris": {"android": "https://dc.lft.to/lastmile_qr_scan", "ios": "https://dc.lft.to/lastmile_qr_scan"}, "type": "electric_scooter"}, {"bike_id": "ea116818cedb1834c4f35b653269c037", "is_reserved": 0, "name": "ea116818cedb1834c4f35b653269c037", "lat": 38.919922166666666, "fusion_lat": 0.0, "lon": -77.0328055, "is_disabled": 0, "fusion_lon": 0.0, "rental_uris": {"android": "https://dc.lft.to/lastmile_qr_scan", "ios": "https://dc.lft.to/lastmile_qr_scan"}, "type": "electric_scooter"}, {"bike_id": "c5a78a37352fba65f00db0801be1fe5c", "is_reserved": 0, "name": "c5a78a37352fba65f00db0801be1fe5c", "lat": 38.88189833333333, "fusion_lat": 0.0, "lon": -77.00350883333333, "is_disabled": 0, "fusion_lon": 0.0, "rental_uris": {"android": "https://dc.lft.to/lastmile_qr_scan", "ios": "https://dc.lft.to/lastmile_qr_scan"}, "type": "electric_scooter"}, {"bike_id": "78da1703f3b8889d51d2f26e770f2d33", "is_reserved": 0, "name": "78da1703f3b8889d51d2f26e770f2d33", "lat": 38.91798683333333, "fusion_lat": 0.0, "lon": -77.02709833333333, "is_disabled": 0, "fusion_lon": 0.0, "rental_uris": {"android": "https://dc.lft.to/lastmile_qr_scan", "ios": "https://dc.lft.to/lastmile_qr_scan"}, "type": "electric_scooter"}, {"bike_id": "91af532b2fcafa4ee9c85810a3767388", "is_reserved": 0, "name": "91af532b2fcafa4ee9c85810a3767388", "lat": 38.930228666666665, "fusion_lat": 0.0, "lon": -77.03785866666666, "is_disabled": 0, "fusion_lon": 0.0, "rental_uris": {"android": "https://dc.lft.to/lastmile_qr_scan", "ios": "https://dc.lft.to/lastmile_qr_scan"}, "type": "electric_scooter"}, {"bike_id": "919ae2a5ea721fd7ca91d21e64aa26bf", "is_reserved": 0, "name": "919ae2a5ea721fd7ca91d21e64aa26bf", "lat": 38.923698, "fusion_lat": 0.0, "lon": -77.028185, "is_disabled": 0, "fusion_lon": 0.0, "rental_uris": {"android": "https://dc.lft.to/lastmile_qr_scan", "ios": "https://dc.lft.to/lastmile_qr_scan"}, "type": "electric_scooter"}, {"bike_id": "9532c03477e7c13f9369b3655c68baf0", "is_reserved": 0, "name": "9532c03477e7c13f9369b3655c68baf0", "lat": 38.921374166666666, "fusion_lat": 0.0, "lon": -77.00939766666667, "is_disabled": 0, "fusion_lon": 0.0, "rental_uris": {"android": "https://dc.lft.to/lastmile_qr_scan", "ios": "https://dc.lft.to/lastmile_qr_scan"}, "type": "electric_scooter"}, {"bike_id": "ee8d1b05698ee7c6f8ab53a5d2f2c43d", "is_reserved": 0, "name": "ee8d1b05698ee7c6f8ab53a5d2f2c43d", "lat": 38.90380916666667, "fusion_lat": 0.0, "lon": -77.03307116666667, "is_disabled": 0, "fusion_lon": 0.0, "rental_uris": {"android": "https://dc.lft.to/lastmile_qr_scan", "ios": "https://dc.lft.to/lastmile_qr_scan"}, "type": "electric_scooter"}, {"bike_id": "0e2474d9ebc179f13ba3abc11e747631", "is_reserved": 0, "name": "0e2474d9ebc179f13ba3abc11e747631", "lat": 38.87437216666667, "fusion_lat": 0.0, "lon": -77.00924233333333, "is_disabled": 0, "fusion_lon": 0.0, "rental_uris": {"android": "https://dc.lft.to/lastmile_qr_scan", "ios": "https://dc.lft.to/lastmile_qr_scan"}, "type": "electric_scooter"}, {"bike_id": "47d44993e8525384904ff40d697e97cd", "is_reserved": 0, "name": "47d44993e8525384904ff40d697e97cd", "lat": 38.89726483333333, "fusion_lat": 0.0, "lon": -77.0187485, "is_disabled": 0, "fusion_lon": 0.0, "rental_uris": {"android": "https://dc.lft.to/lastmile_qr_scan", "ios": "https://dc.lft.to/lastmile_qr_scan"}, "type": "electric_scooter"}, {"bike_id": "fb0f5f63b0558771f9ee5982b5d9e1be", "is_reserved": 0, "name": "fb0f5f63b0558771f9ee5982b5d9e1be", "lat": 38.892343, "fusion_lat": 0.0, "lon": -77.048724, "is_disabled": 0, "fusion_lon": 0.0, "rental_uris": {"android": "https://dc.lft.to/lastmile_qr_scan", "ios": "https://dc.lft.to/lastmile_qr_scan"}, "type": "electric_scooter"}, {"bike_id": "dd1515a7229ff7a8dc16c8ddc0268da3", "is_reserved": 0, "name": "dd1515a7229ff7a8dc16c8ddc0268da3", "lat": 38.919229333333334, "fusion_lat": 0.0, "lon": -77.03185783333333, "is_disabled": 0, "fusion_lon": 0.0, "rental_uris": {"android": "https://dc.lft.to/lastmile_qr_scan", "ios": "https://dc.lft.to/lastmile_qr_scan"}, "type": "electric_scooter"}, {"bike_id": "d9994dba8201d7fef5c19788ab6c38e6", "is_reserved": 0, "name": "d9994dba8201d7fef5c19788ab6c38e6", "lat": 38.903818, "fusion_lat": 0.0, "lon": -76.97615083333334, "is_disabled": 0, "fusion_lon": 0.0, "rental_uris": {"android": "https://dc.lft.to/lastmile_qr_scan", "ios": "https://dc.lft.to/lastmile_qr_scan"}, "type": "electric_scooter"}, {"bike_id": "6df883829d19e6701b1269f8257fde17", "is_reserved": 0, "name": "6df883829d19e6701b1269f8257fde17", "lat": 38.90908316666667, "fusion_lat": 0.0, "lon": -77.0727305, "is_disabled": 0, "fusion_lon": 0.0, "rental_uris": {"android": "https://dc.lft.to/lastmile_qr_scan", "ios": "https://dc.lft.to/lastmile_qr_scan"}, "type": "electric_scooter"}, {"bike_id": "82b23e6d79c8cd8ee9e614a368ea05b5", "is_reserved": 0, "name": "82b23e6d79c8cd8ee9e614a368ea05b5", "lat": 38.9052795, "fusion_lat": 0.0, "lon": -77.04348633333333, "is_disabled": 0, "fusion_lon": 0.0, "rental_uris": {"android": "https://dc.lft.to/lastmile_qr_scan", "ios": "https://dc.lft.to/lastmile_qr_scan"}, "type": "electric_scooter"}, {"bike_id": "9ac210725ea5ee7d686eaf5c65ec4b02", "is_reserved": 0, "name": "9ac210725ea5ee7d686eaf5c65ec4b02", "lat": 38.90533216666667, "fusion_lat": 0.0, "lon": -77.04881583333334, "is_disabled": 0, "fusion_lon": 0.0, "rental_uris": {"android": "https://dc.lft.to/lastmile_qr_scan", "ios": "https://dc.lft.to/lastmile_qr_scan"}, "type": "electric_bike"}, {"bike_id": "e55a9fe6a32ddd8ba173beefdf0af947", "is_reserved": 0, "name": "e55a9fe6a32ddd8ba173beefdf0af947", "lat": 38.904490833333334, "fusion_lat": 0.0, "lon": -77.053213, "is_disabled": 0, "fusion_lon": 0.0, "rental_uris": {"android": "https://dc.lft.to/lastmile_qr_scan", "ios": "https://dc.lft.to/lastmile_qr_scan"}, "type": "electric_scooter"}, {"bike_id": "a0cf3f59f29988d1fe0c392f3041cfeb", "is_reserved": 0, "name": "a0cf3f59f29988d1fe0c392f3041cfeb", "lat": 38.9104245, "fusion_lat": 0.0, "lon": -77.04266566666666, "is_disabled": 0, "fusion_lon": 0.0, "rental_uris": {"android": "https://dc.lft.to/lastmile_qr_scan", "ios": "https://dc.lft.to/lastmile_qr_scan"}, "type": "electric_scooter"}, {"bike_id": "dea78a9515d1d8ab8668795b3140c2d0", "is_reserved": 0, "name": "dea78a9515d1d8ab8668795b3140c2d0", "lat": 38.9057505, "fusion_lat": 0.0, "lon": -77.05694166666666, "is_disabled": 0, "fusion_lon": 0.0, "rental_uris": {"android": "https://dc.lft.to/lastmile_qr_scan", "ios": "https://dc.lft.to/lastmile_qr_scan"}, "type": "electric_scooter"}, {"bike_id": "8ccc04a714529d1df2fa564b9db87786", "is_reserved": 0, "name": "8ccc04a714529d1df2fa564b9db87786", "lat": 38.9001095, "fusion_lat": 0.0, "lon": -76.99859833333333, "is_disabled": 0, "fusion_lon": 0.0, "rental_uris": {"android": "https://dc.lft.to/lastmile_qr_scan", "ios": "https://dc.lft.to/lastmile_qr_scan"}, "type": "electric_scooter"}, {"bike_id": "58a4d42baca847886259610dc15510ba", "is_reserved": 0, "name": "58a4d42baca847886259610dc15510ba", "lat": 38.90367883333333, "fusion_lat": 0.0, "lon": -77.02945383333333, "is_disabled": 0, "fusion_lon": 0.0, "rental_uris": {"android": "https://dc.lft.to/lastmile_qr_scan", "ios": "https://dc.lft.to/lastmile_qr_scan"}, "type": "electric_scooter"}, {"bike_id": "d9611d20a36758ca2181cb20a1ceeb83", "is_reserved": 0, "name": "d9611d20a36758ca2181cb20a1ceeb83", "lat": 38.9064705, "fusion_lat": 0.0, "lon": -77.031573, "is_disabled": 0, "fusion_lon": 0.0, "rental_uris": {"android": "https://dc.lft.to/lastmile_qr_scan", "ios": "https://dc.lft.to/lastmile_qr_scan"}, "type": "electric_scooter"}, {"bike_id": "03bf11f13b7a4b7793f4b50c3fcc0311", "is_reserved": 0, "name": "03bf11f13b7a4b7793f4b50c3fcc0311", "lat": 38.921791999999996, "fusion_lat": 0.0, "lon": -77.0210475, "is_disabled": 0, "fusion_lon": 0.0, "rental_uris": {"android": "https://dc.lft.to/lastmile_qr_scan", "ios": "https://dc.lft.to/lastmile_qr_scan"}, "type": "electric_scooter"}, {"bike_id": "2b7d5c28a056180549d3fc659ec61fc1", "is_reserved": 0, "name": "2b7d5c28a056180549d3fc659ec61fc1", "lat": 38.899060666666664, "fusion_lat": 0.0, "lon": -77.02714883333333, "is_disabled": 0, "fusion_lon": 0.0, "rental_uris": {"android": "https://dc.lft.to/lastmile_qr_scan", "ios": "https://dc.lft.to/lastmile_qr_scan"}, "type": "electric_scooter"}, {"bike_id": "8524d85f1c98e78871ef9295f7e12618", "is_reserved": 0, "name": "8524d85f1c98e78871ef9295f7e12618", "lat": 38.941374, "fusion_lat": 0.0, "lon": -77.02500816666667, "is_disabled": 0, "fusion_lon": 0.0, "rental_uris": {"android": "https://dc.lft.to/lastmile_qr_scan", "ios": "https://dc.lft.to/lastmile_qr_scan"}, "type": "electric_scooter"}, {"bike_id": "73ac50cec92eb31246555d5737e715cb", "is_reserved": 0, "name": "73ac50cec92eb31246555d5737e715cb", "lat": 38.9157555, "fusion_lat": 0.0, "lon": -76.98380666666667, "is_disabled": 0, "fusion_lon": 0.0, "rental_uris": {"android": "https://dc.lft.to/lastmile_qr_scan", "ios": "https://dc.lft.to/lastmile_qr_scan"}, "type": "electric_scooter"}, {"bike_id": "7b83e907c00770e101e9822512c48799", "is_reserved": 0, "name": "7b83e907c00770e101e9822512c48799", "lat": 38.88769583333333, "fusion_lat": 0.0, "lon": -77.02368383333334, "is_disabled": 0, "fusion_lon": 0.0, "rental_uris": {"android": "https://dc.lft.to/lastmile_qr_scan", "ios": "https://dc.lft.to/lastmile_qr_scan"}, "type": "electric_scooter"}, {"bike_id": "a41220bbb8e5a31230ce20272e5e12ba", "is_reserved": 0, "name": "a41220bbb8e5a31230ce20272e5e12ba", "lat": 38.90587266666667, "fusion_lat": 0.0, "lon": -77.04698716666667, "is_disabled": 0, "fusion_lon": 0.0, "rental_uris": {"android": "https://dc.lft.to/lastmile_qr_scan", "ios": "https://dc.lft.to/lastmile_qr_scan"}, "type": "electric_scooter"}, {"bike_id": "4c927b986f2e8238568143d8f538f61e", "is_reserved": 0, "name": "4c927b986f2e8238568143d8f538f61e", "lat": 38.896196, "fusion_lat": 0.0, "lon": -77.02133916666666, "is_disabled": 0, "fusion_lon": 0.0, "rental_uris": {"android": "https://dc.lft.to/lastmile_qr_scan", "ios": "https://dc.lft.to/lastmile_qr_scan"}, "type": "electric_bike"}, {"bike_id": "b984fecd5eb542f48f833ff88de2b4c5", "is_reserved": 0, "name": "b984fecd5eb542f48f833ff88de2b4c5", "lat": 38.89937, "fusion_lat": 0.0, "lon": -77.04010116666667, "is_disabled": 0, "fusion_lon": 0.0, "rental_uris": {"android": "https://dc.lft.to/lastmile_qr_scan", "ios": "https://dc.lft.to/lastmile_qr_scan"}, "type": "electric_scooter"}, {"bike_id": "8a69b88e298f29431eb11b60f949819b", "is_reserved": 0, "name": "8a69b88e298f29431eb11b60f949819b", "lat": 38.92476766666667, "fusion_lat": 0.0, "lon": -77.03047633333334, "is_disabled": 0, "fusion_lon": 0.0, "rental_uris": {"android": "https://dc.lft.to/lastmile_qr_scan", "ios": "https://dc.lft.to/lastmile_qr_scan"}, "type": "electric_scooter"}, {"bike_id": "9796bb033294c92aed6cc0c5a17091ab", "is_reserved": 0, "name": "9796bb033294c92aed6cc0c5a17091ab", "lat": 38.898494, "fusion_lat": 0.0, "lon": -76.95041383333333, "is_disabled": 0, "fusion_lon": 0.0, "rental_uris": {"android": "https://dc.lft.to/lastmile_qr_scan", "ios": "https://dc.lft.to/lastmile_qr_scan"}, "type": "electric_scooter"}, {"bike_id": "e8b03eac56ec843f301607ca0fb095ba", "is_reserved": 0, "name": "e8b03eac56ec843f301607ca0fb095ba", "lat": 38.9211635, "fusion_lat": 0.0, "lon": -77.2367735, "is_disabled": 0, "fusion_lon": 0.0, "rental_uris": {"android": "https://dc.lft.to/lastmile_qr_scan", "ios": "https://dc.lft.to/lastmile_qr_scan"}, "type": "electric_bike"}, {"bike_id": "b3e3f464d6a1200a1cf61115d55b5e4a", "is_reserved": 0, "name": "b3e3f464d6a1200a1cf61115d55b5e4a", "lat": 38.8766805, "fusion_lat": 0.0, "lon": -77.00351683333334, "is_disabled": 0, "fusion_lon": 0.0, "rental_uris": {"android": "https://dc.lft.to/lastmile_qr_scan", "ios": "https://dc.lft.to/lastmile_qr_scan"}, "type": "electric_scooter"}, {"bike_id": "344ea8b8d6cbc554ac55a790aa4d5693", "is_reserved": 0, "name": "344ea8b8d6cbc554ac55a790aa4d5693", "lat": 38.91914416666667, "fusion_lat": 0.0, "lon": -77.03174116666666, "is_disabled": 0, "fusion_lon": 0.0, "rental_uris": {"android": "https://dc.lft.to/lastmile_qr_scan", "ios": "https://dc.lft.to/lastmile_qr_scan"}, "type": "electric_scooter"}, {"bike_id": "f4003cb55b638376f5d50c4139905540", "is_reserved": 0, "name": "f4003cb55b638376f5d50c4139905540", "lat": 38.899955166666665, "fusion_lat": 0.0, "lon": -77.02714166666667, "is_disabled": 0, "fusion_lon": 0.0, "rental_uris": {"android": "https://dc.lft.to/lastmile_qr_scan", "ios": "https://dc.lft.to/lastmile_qr_scan"}, "type": "electric_scooter"}, {"bike_id": "6e443e28453a9ec478a317f909eb5008", "is_reserved": 0, "name": "6e443e28453a9ec478a317f909eb5008", "lat": 38.89713966666667, "fusion_lat": 0.0, "lon": -77.02741333333333, "is_disabled": 0, "fusion_lon": 0.0, "rental_uris": {"android": "https://dc.lft.to/lastmile_qr_scan", "ios": "https://dc.lft.to/lastmile_qr_scan"}, "type": "electric_scooter"}, {"bike_id": "32ba374b1da9dec2818677dd8935444d", "is_reserved": 0, "name": "32ba374b1da9dec2818677dd8935444d", "lat": 38.916272, "fusion_lat": 0.0, "lon": -77.050668, "is_disabled": 0, "fusion_lon": 0.0, "rental_uris": {"android": "https://dc.lft.to/lastmile_qr_scan", "ios": "https://dc.lft.to/lastmile_qr_scan"}, "type": "electric_scooter"}, {"bike_id": "18e505799634a39745e950f251c62067", "is_reserved": 0, "name": "18e505799634a39745e950f251c62067", "lat": 38.89957116666667, "fusion_lat": 0.0, "lon": -77.02459183333333, "is_disabled": 0, "fusion_lon": 0.0, "rental_uris": {"android": "https://dc.lft.to/lastmile_qr_scan", "ios": "https://dc.lft.to/lastmile_qr_scan"}, "type": "electric_scooter"}, {"bike_id": "94ac1d81f0999e36dacb868a82d5ebc8", "is_reserved": 0, "name": "94ac1d81f0999e36dacb868a82d5ebc8", "lat": 38.9288935, "fusion_lat": 0.0, "lon": -77.013679, "is_disabled": 0, "fusion_lon": 0.0, "rental_uris": {"android": "https://dc.lft.to/lastmile_qr_scan", "ios": "https://dc.lft.to/lastmile_qr_scan"}, "type": "electric_scooter"}, {"bike_id": "52ccf00723ab6d19be2581417e0adb16", "is_reserved": 0, "name": "52ccf00723ab6d19be2581417e0adb16", "lat": 38.918584833333334, "fusion_lat": 0.0, "lon": -77.040325, "is_disabled": 0, "fusion_lon": 0.0, "rental_uris": {"android": "https://dc.lft.to/lastmile_qr_scan", "ios": "https://dc.lft.to/lastmile_qr_scan"}, "type": "electric_scooter"}, {"bike_id": "6f43f5f679aa3573b04aa0be0a0094c1", "is_reserved": 0, "name": "6f43f5f679aa3573b04aa0be0a0094c1", "lat": 38.91809133333334, "fusion_lat": 0.0, "lon": -77.03179733333333, "is_disabled": 0, "fusion_lon": 0.0, "rental_uris": {"android": "https://dc.lft.to/lastmile_qr_scan", "ios": "https://dc.lft.to/lastmile_qr_scan"}, "type": "electric_scooter"}, {"bike_id": "6e9fae9f62528661deb9618cb153676b", "is_reserved": 0, "name": "6e9fae9f62528661deb9618cb153676b", "lat": 38.9141535, "fusion_lat": 0.0, "lon": -77.03895383333334, "is_disabled": 0, "fusion_lon": 0.0, "rental_uris": {"android": "https://dc.lft.to/lastmile_qr_scan", "ios": "https://dc.lft.to/lastmile_qr_scan"}, "type": "electric_scooter"}, {"bike_id": "35b4fbe82f5ccc0cc1aeb92fba75df85", "is_reserved": 0, "name": "35b4fbe82f5ccc0cc1aeb92fba75df85", "lat": 38.920323833333335, "fusion_lat": 0.0, "lon": -77.08187766666667, "is_disabled": 0, "fusion_lon": 0.0, "rental_uris": {"android": "https://dc.lft.to/lastmile_qr_scan", "ios": "https://dc.lft.to/lastmile_qr_scan"}, "type": "electric_scooter"}, {"bike_id": "96d13087ceedc8857e5d9a037a6ce43d", "is_reserved": 0, "name": "96d13087ceedc8857e5d9a037a6ce43d", "lat": 38.934247, "fusion_lat": 0.0, "lon": -77.042774, "is_disabled": 0, "fusion_lon": 0.0, "rental_uris": {"android": "https://dc.lft.to/lastmile_qr_scan", "ios": "https://dc.lft.to/lastmile_qr_scan"}, "type": "electric_scooter"}, {"bike_id": "8b6b8e665a5e0eda593c5aa46625a021", "is_reserved": 0, "name": "8b6b8e665a5e0eda593c5aa46625a021", "lat": 38.907146, "fusion_lat": 0.0, "lon": -77.04075316666666, "is_disabled": 0, "fusion_lon": 0.0, "rental_uris": {"android": "https://dc.lft.to/lastmile_qr_scan", "ios": "https://dc.lft.to/lastmile_qr_scan"}, "type": "electric_scooter"}, {"bike_id": "dcf4b00711c5f474aff1d394cdd557d3", "is_reserved": 0, "name": "dcf4b00711c5f474aff1d394cdd557d3", "lat": 38.88747033333333, "fusion_lat": 0.0, "lon": -77.0277385, "is_disabled": 0, "fusion_lon": 0.0, "rental_uris": {"android": "https://dc.lft.to/lastmile_qr_scan", "ios": "https://dc.lft.to/lastmile_qr_scan"}, "type": "electric_scooter"}, {"bike_id": "6a075e09bc00c6a58548b8a240f21d6d", "is_reserved": 0, "name": "6a075e09bc00c6a58548b8a240f21d6d", "lat": 38.917339, "fusion_lat": 0.0, "lon": -77.034514, "is_disabled": 0, "fusion_lon": 0.0, "rental_uris": {"android": "https://dc.lft.to/lastmile_qr_scan", "ios": "https://dc.lft.to/lastmile_qr_scan"}, "type": "electric_scooter"}, {"bike_id": "a1e5d3c2243377485b2c872f9e148677", "is_reserved": 0, "name": "a1e5d3c2243377485b2c872f9e148677", "lat": 38.92114083333333, "fusion_lat": 0.0, "lon": -77.0457135, "is_disabled": 0, "fusion_lon": 0.0, "rental_uris": {"android": "https://dc.lft.to/lastmile_qr_scan", "ios": "https://dc.lft.to/lastmile_qr_scan"}, "type": "electric_scooter"}, {"bike_id": "feae67460b8446ea6a923c3bee7799f5", "is_reserved": 0, "name": "feae67460b8446ea6a923c3bee7799f5", "lat": 38.9057725, "fusion_lat": 0.0, "lon": -77.00603533333333, "is_disabled": 0, "fusion_lon": 0.0, "rental_uris": {"android": "https://dc.lft.to/lastmile_qr_scan", "ios": "https://dc.lft.to/lastmile_qr_scan"}, "type": "electric_scooter"}, {"bike_id": "b72382a02919f0d4efa8e40b772b8182", "is_reserved": 0, "name": "b72382a02919f0d4efa8e40b772b8182", "lat": 38.87378916666667, "fusion_lat": 0.0, "lon": -77.00041533333334, "is_disabled": 0, "fusion_lon": 0.0, "rental_uris": {"android": "https://dc.lft.to/lastmile_qr_scan", "ios": "https://dc.lft.to/lastmile_qr_scan"}, "type": "electric_scooter"}, {"bike_id": "8219e55c377b947d736ffcd2607f2150", "is_reserved": 0, "name": "8219e55c377b947d736ffcd2607f2150", "lat": 38.924439666666665, "fusion_lat": 0.0, "lon": -77.0223635, "is_disabled": 0, "fusion_lon": 0.0, "rental_uris": {"android": "https://dc.lft.to/lastmile_qr_scan", "ios": "https://dc.lft.to/lastmile_qr_scan"}, "type": "electric_scooter"}, {"bike_id": "7407c4e1dc2f99e757018301391762d2", "is_reserved": 0, "name": "7407c4e1dc2f99e757018301391762d2", "lat": 38.878318166666666, "fusion_lat": 0.0, "lon": -76.96320483333334, "is_disabled": 0, "fusion_lon": 0.0, "rental_uris": {"android": "https://dc.lft.to/lastmile_qr_scan", "ios": "https://dc.lft.to/lastmile_qr_scan"}, "type": "electric_scooter"}, {"bike_id": "82f3305af1e91b26d4d3afa51810a3e2", "is_reserved": 0, "name": "82f3305af1e91b26d4d3afa51810a3e2", "lat": 38.91775416666667, "fusion_lat": 0.0, "lon": -77.02117616666666, "is_disabled": 0, "fusion_lon": 0.0, "rental_uris": {"android": "https://dc.lft.to/lastmile_qr_scan", "ios": "https://dc.lft.to/lastmile_qr_scan"}, "type": "electric_scooter"}, {"bike_id": "5767b01bf878e8af6e5a0a67d35b0dd9", "is_reserved": 0, "name": "5767b01bf878e8af6e5a0a67d35b0dd9", "lat": 38.919151, "fusion_lat": 0.0, "lon": -77.02401966666666, "is_disabled": 0, "fusion_lon": 0.0, "rental_uris": {"android": "https://dc.lft.to/lastmile_qr_scan", "ios": "https://dc.lft.to/lastmile_qr_scan"}, "type": "electric_scooter"}, {"bike_id": "0af25f645099a10a215d5c5ac2e8f487", "is_reserved": 0, "name": "0af25f645099a10a215d5c5ac2e8f487", "lat": 38.927414, "fusion_lat": 0.0, "lon": -77.0225225, "is_disabled": 0, "fusion_lon": 0.0, "rental_uris": {"android": "https://dc.lft.to/lastmile_qr_scan", "ios": "https://dc.lft.to/lastmile_qr_scan"}, "type": "electric_scooter"}, {"bike_id": "e28a0ffddefa1f1813622ab3dfc1cfa9", "is_reserved": 0, "name": "e28a0ffddefa1f1813622ab3dfc1cfa9", "lat": 38.89911433333333, "fusion_lat": 0.0, "lon": -77.0336585, "is_disabled": 0, "fusion_lon": 0.0, "rental_uris": {"android": "https://dc.lft.to/lastmile_qr_scan", "ios": "https://dc.lft.to/lastmile_qr_scan"}, "type": "electric_scooter"}, {"bike_id": "af95c77ac7b161d17123e93fe38a256e", "is_reserved": 0, "name": "af95c77ac7b161d17123e93fe38a256e", "lat": 38.9074885, "fusion_lat": 0.0, "lon": -77.02382066666667, "is_disabled": 0, "fusion_lon": 0.0, "rental_uris": {"android": "https://dc.lft.to/lastmile_qr_scan", "ios": "https://dc.lft.to/lastmile_qr_scan"}, "type": "electric_scooter"}, {"bike_id": "7a4f99d4872ad8986cb0b80acabb5f91", "is_reserved": 0, "name": "7a4f99d4872ad8986cb0b80acabb5f91", "lat": 38.94087833333333, "fusion_lat": 0.0, "lon": -77.02637616666667, "is_disabled": 0, "fusion_lon": 0.0, "rental_uris": {"android": "https://dc.lft.to/lastmile_qr_scan", "ios": "https://dc.lft.to/lastmile_qr_scan"}, "type": "electric_scooter"}, {"bike_id": "9153b976d514b700e2840e518776e2e0", "is_reserved": 0, "name": "9153b976d514b700e2840e518776e2e0", "lat": 38.92043733333333, "fusion_lat": 0.0, "lon": -77.033908, "is_disabled": 0, "fusion_lon": 0.0, "rental_uris": {"android": "https://dc.lft.to/lastmile_qr_scan", "ios": "https://dc.lft.to/lastmile_qr_scan"}, "type": "electric_scooter"}, {"bike_id": "91b4d390d3591beb1e6403883fdcb7c1", "is_reserved": 0, "name": "91b4d390d3591beb1e6403883fdcb7c1", "lat": 38.900581, "fusion_lat": 0.0, "lon": -77.026157, "is_disabled": 0, "fusion_lon": 0.0, "rental_uris": {"android": "https://dc.lft.to/lastmile_qr_scan", "ios": "https://dc.lft.to/lastmile_qr_scan"}, "type": "electric_scooter"}, {"bike_id": "c612877344b06d8c78ba094c5e8cb168", "is_reserved": 0, "name": "c612877344b06d8c78ba094c5e8cb168", "lat": 38.902575166666665, "fusion_lat": 0.0, "lon": -77.0388185, "is_disabled": 0, "fusion_lon": 0.0, "rental_uris": {"android": "https://dc.lft.to/lastmile_qr_scan", "ios": "https://dc.lft.to/lastmile_qr_scan"}, "type": "electric_scooter"}, {"bike_id": "7b14e29b56f4009f589a6e866d1c5c7c", "is_reserved": 0, "name": "7b14e29b56f4009f589a6e866d1c5c7c", "lat": 38.908152333333334, "fusion_lat": 0.0, "lon": -77.039453, "is_disabled": 0, "fusion_lon": 0.0, "rental_uris": {"android": "https://dc.lft.to/lastmile_qr_scan", "ios": "https://dc.lft.to/lastmile_qr_scan"}, "type": "electric_scooter"}, {"bike_id": "6c2306b39277b840cd0c270a6ac6ae38", "is_reserved": 0, "name": "6c2306b39277b840cd0c270a6ac6ae38", "lat": 38.885384333333334, "fusion_lat": 0.0, "lon": -77.00065433333333, "is_disabled": 0, "fusion_lon": 0.0, "rental_uris": {"android": "https://dc.lft.to/lastmile_qr_scan", "ios": "https://dc.lft.to/lastmile_qr_scan"}, "type": "electric_scooter"}, {"bike_id": "992e0f3b83b909546b464a31634b947d", "is_reserved": 0, "name": "992e0f3b83b909546b464a31634b947d", "lat": 38.885394166666664, "fusion_lat": 0.0, "lon": -77.00064283333333, "is_disabled": 0, "fusion_lon": 0.0, "rental_uris": {"android": "https://dc.lft.to/lastmile_qr_scan", "ios": "https://dc.lft.to/lastmile_qr_scan"}, "type": "electric_scooter"}, {"bike_id": "bf25435936ddb293730b41409d855652", "is_reserved": 0, "name": "bf25435936ddb293730b41409d855652", "lat": 38.91681916666667, "fusion_lat": 0.0, "lon": -77.02351833333333, "is_disabled": 0, "fusion_lon": 0.0, "rental_uris": {"android": "https://dc.lft.to/lastmile_qr_scan", "ios": "https://dc.lft.to/lastmile_qr_scan"}, "type": "electric_scooter"}, {"bike_id": "0ea35f0bc90ab267f9de7d6f040c3a2b", "is_reserved": 0, "name": "0ea35f0bc90ab267f9de7d6f040c3a2b", "lat": 38.9046145, "fusion_lat": 0.0, "lon": -77.06286333333334, "is_disabled": 0, "fusion_lon": 0.0, "rental_uris": {"android": "https://dc.lft.to/lastmile_qr_scan", "ios": "https://dc.lft.to/lastmile_qr_scan"}, "type": "electric_scooter"}, {"bike_id": "d37990e1bd66eb52952a629e28b703e9", "is_reserved": 0, "name": "d37990e1bd66eb52952a629e28b703e9", "lat": 38.88729683333333, "fusion_lat": 0.0, "lon": -77.0176925, "is_disabled": 0, "fusion_lon": 0.0, "rental_uris": {"android": "https://dc.lft.to/lastmile_qr_scan", "ios": "https://dc.lft.to/lastmile_qr_scan"}, "type": "electric_scooter"}, {"bike_id": "59cfaa64b727e75e74777eec74510776", "is_reserved": 0, "name": "59cfaa64b727e75e74777eec74510776", "lat": 38.89222183333333, "fusion_lat": 0.0, "lon": -77.02626216666667, "is_disabled": 0, "fusion_lon": 0.0, "rental_uris": {"android": "https://dc.lft.to/lastmile_qr_scan", "ios": "https://dc.lft.to/lastmile_qr_scan"}, "type": "electric_scooter"}, {"bike_id": "057ea678816c4cf9ee6681445f4873b1", "is_reserved": 0, "name": "057ea678816c4cf9ee6681445f4873b1", "lat": 38.903999166666665, "fusion_lat": 0.0, "lon": -77.06798983333333, "is_disabled": 0, "fusion_lon": 0.0, "rental_uris": {"android": "https://dc.lft.to/lastmile_qr_scan", "ios": "https://dc.lft.to/lastmile_qr_scan"}, "type": "electric_scooter"}, {"bike_id": "1d8c2a1fd4af55238119b28a85453883", "is_reserved": 0, "name": "1d8c2a1fd4af55238119b28a85453883", "lat": 38.907781166666666, "fusion_lat": 0.0, "lon": -77.0716255, "is_disabled": 0, "fusion_lon": 0.0, "rental_uris": {"android": "https://dc.lft.to/lastmile_qr_scan", "ios": "https://dc.lft.to/lastmile_qr_scan"}, "type": "electric_scooter"}, {"bike_id": "3913840b9b069ab93612a6acf480a8dc", "is_reserved": 0, "name": "3913840b9b069ab93612a6acf480a8dc", "lat": 38.904587166666666, "fusion_lat": 0.0, "lon": -77.0016855, "is_disabled": 0, "fusion_lon": 0.0, "rental_uris": {"android": "https://dc.lft.to/lastmile_qr_scan", "ios": "https://dc.lft.to/lastmile_qr_scan"}, "type": "electric_scooter"}, {"bike_id": "0c6afb1886cc2d16ff8e7361181d2255", "is_reserved": 0, "name": "0c6afb1886cc2d16ff8e7361181d2255", "lat": 38.92252033333333, "fusion_lat": 0.0, "lon": -77.03520916666666, "is_disabled": 0, "fusion_lon": 0.0, "rental_uris": {"android": "https://dc.lft.to/lastmile_qr_scan", "ios": "https://dc.lft.to/lastmile_qr_scan"}, "type": "electric_scooter"}, {"bike_id": "15e9a11d34af94ec4137d920dfe93891", "is_reserved": 0, "name": "15e9a11d34af94ec4137d920dfe93891", "lat": 38.900973666666665, "fusion_lat": 0.0, "lon": -77.05699466666667, "is_disabled": 0, "fusion_lon": 0.0, "rental_uris": {"android": "https://dc.lft.to/lastmile_qr_scan", "ios": "https://dc.lft.to/lastmile_qr_scan"}, "type": "electric_scooter"}, {"bike_id": "cbefc7288ec529287ea27c99c27b317e", "is_reserved": 0, "name": "cbefc7288ec529287ea27c99c27b317e", "lat": 38.90882766666667, "fusion_lat": 0.0, "lon": -77.07534066666666, "is_disabled": 0, "fusion_lon": 0.0, "rental_uris": {"android": "https://dc.lft.to/lastmile_qr_scan", "ios": "https://dc.lft.to/lastmile_qr_scan"}, "type": "electric_scooter"}, {"bike_id": "1466e40a26b384b7b59e13c2faa7f43f", "is_reserved": 0, "name": "1466e40a26b384b7b59e13c2faa7f43f", "lat": 38.9056345, "fusion_lat": 0.0, "lon": -76.98140583333333, "is_disabled": 0, "fusion_lon": 0.0, "rental_uris": {"android": "https://dc.lft.to/lastmile_qr_scan", "ios": "https://dc.lft.to/lastmile_qr_scan"}, "type": "electric_scooter"}, {"bike_id": "5b8bcad17edce4c92023b312e39277dc", "is_reserved": 0, "name": "5b8bcad17edce4c92023b312e39277dc", "lat": 38.90736183333333, "fusion_lat": 0.0, "lon": -77.0294975, "is_disabled": 0, "fusion_lon": 0.0, "rental_uris": {"android": "https://dc.lft.to/lastmile_qr_scan", "ios": "https://dc.lft.to/lastmile_qr_scan"}, "type": "electric_scooter"}, {"bike_id": "8eeb52a86fd0e01899b563f6c055af60", "is_reserved": 0, "name": "8eeb52a86fd0e01899b563f6c055af60", "lat": 38.9097845, "fusion_lat": 0.0, "lon": -77.03420883333334, "is_disabled": 0, "fusion_lon": 0.0, "rental_uris": {"android": "https://dc.lft.to/lastmile_qr_scan", "ios": "https://dc.lft.to/lastmile_qr_scan"}, "type": "electric_scooter"}, {"bike_id": "1cf98014db96e868014fedd4de7818e9", "is_reserved": 0, "name": "1cf98014db96e868014fedd4de7818e9", "lat": 38.91020616666667, "fusion_lat": 0.0, "lon": -77.04260333333333, "is_disabled": 0, "fusion_lon": 0.0, "rental_uris": {"android": "https://dc.lft.to/lastmile_qr_scan", "ios": "https://dc.lft.to/lastmile_qr_scan"}, "type": "electric_scooter"}, {"bike_id": "a97a7f09075c884f2dccb638db4689e2", "is_reserved": 0, "name": "a97a7f09075c884f2dccb638db4689e2", "lat": 38.901985833333335, "fusion_lat": 0.0, "lon": -77.02377983333334, "is_disabled": 0, "fusion_lon": 0.0, "rental_uris": {"android": "https://dc.lft.to/lastmile_qr_scan", "ios": "https://dc.lft.to/lastmile_qr_scan"}, "type": "electric_scooter"}, {"bike_id": "94a08b8a1bafad7ad1a634fbd1388563", "is_reserved": 0, "name": "94a08b8a1bafad7ad1a634fbd1388563", "lat": 38.931749833333335, "fusion_lat": 0.0, "lon": -77.05651833333333, "is_disabled": 0, "fusion_lon": 0.0, "rental_uris": {"android": "https://dc.lft.to/lastmile_qr_scan", "ios": "https://dc.lft.to/lastmile_qr_scan"}, "type": "electric_scooter"}, {"bike_id": "1b0ff1ee561cf454db8cc9269a699174", "is_reserved": 0, "name": "1b0ff1ee561cf454db8cc9269a699174", "lat": 38.910199666666664, "fusion_lat": 0.0, "lon": -77.0425685, "is_disabled": 0, "fusion_lon": 0.0, "rental_uris": {"android": "https://dc.lft.to/lastmile_qr_scan", "ios": "https://dc.lft.to/lastmile_qr_scan"}, "type": "electric_scooter"}, {"bike_id": "eea3dc652904ca818be22333d026a8ec", "is_reserved": 0, "name": "eea3dc652904ca818be22333d026a8ec", "lat": 38.9110335, "fusion_lat": 0.0, "lon": -77.0420165, "is_disabled": 0, "fusion_lon": 0.0, "rental_uris": {"android": "https://dc.lft.to/lastmile_qr_scan", "ios": "https://dc.lft.to/lastmile_qr_scan"}, "type": "electric_scooter"}, {"bike_id": "a6a00955f15e6034f2b617de4c06ae68", "is_reserved": 0, "name": "a6a00955f15e6034f2b617de4c06ae68", "lat": 38.928622833333336, "fusion_lat": 0.0, "lon": -77.03223766666666, "is_disabled": 0, "fusion_lon": 0.0, "rental_uris": {"android": "https://dc.lft.to/lastmile_qr_scan", "ios": "https://dc.lft.to/lastmile_qr_scan"}, "type": "electric_scooter"}, {"bike_id": "0ee9f3a99647a75fdcff5dba454d8586", "is_reserved": 0, "name": "0ee9f3a99647a75fdcff5dba454d8586", "lat": 38.906672666666665, "fusion_lat": 0.0, "lon": -77.027084, "is_disabled": 0, "fusion_lon": 0.0, "rental_uris": {"android": "https://dc.lft.to/lastmile_qr_scan", "ios": "https://dc.lft.to/lastmile_qr_scan"}, "type": "electric_scooter"}, {"bike_id": "2053b86d8f1eb57465ab609a97b2a56b", "is_reserved": 0, "name": "2053b86d8f1eb57465ab609a97b2a56b", "lat": 38.92486366666667, "fusion_lat": 0.0, "lon": -77.23359083333334, "is_disabled": 0, "fusion_lon": 0.0, "rental_uris": {"android": "https://dc.lft.to/lastmile_qr_scan", "ios": "https://dc.lft.to/lastmile_qr_scan"}, "type": "electric_bike"}, {"bike_id": "1978f9f7f9498ce67ea282d06d8a3f56", "is_reserved": 0, "name": "1978f9f7f9498ce67ea282d06d8a3f56", "lat": 38.90120183333333, "fusion_lat": 0.0, "lon": -77.03368283333333, "is_disabled": 0, "fusion_lon": 0.0, "rental_uris": {"android": "https://dc.lft.to/lastmile_qr_scan", "ios": "https://dc.lft.to/lastmile_qr_scan"}, "type": "electric_scooter"}, {"bike_id": "6c8def16e9494649862ac54db72fc5a3", "is_reserved": 0, "name": "6c8def16e9494649862ac54db72fc5a3", "lat": 38.90277316666667, "fusion_lat": 0.0, "lon": -77.03359783333333, "is_disabled": 0, "fusion_lon": 0.0, "rental_uris": {"android": "https://dc.lft.to/lastmile_qr_scan", "ios": "https://dc.lft.to/lastmile_qr_scan"}, "type": "electric_scooter"}, {"bike_id": "0579f3cdc2bf03c0191f7fd4373faedd", "is_reserved": 0, "name": "0579f3cdc2bf03c0191f7fd4373faedd", "lat": 38.91818383333333, "fusion_lat": 0.0, "lon": -77.04005783333334, "is_disabled": 0, "fusion_lon": 0.0, "rental_uris": {"android": "https://dc.lft.to/lastmile_qr_scan", "ios": "https://dc.lft.to/lastmile_qr_scan"}, "type": "electric_scooter"}, {"bike_id": "0e1fd7af7054ea0e4d149e3ce3a30d37", "is_reserved": 0, "name": "0e1fd7af7054ea0e4d149e3ce3a30d37", "lat": 38.89212166666667, "fusion_lat": 0.0, "lon": -76.99571233333333, "is_disabled": 0, "fusion_lon": 0.0, "rental_uris": {"android": "https://dc.lft.to/lastmile_qr_scan", "ios": "https://dc.lft.to/lastmile_qr_scan"}, "type": "electric_scooter"}, {"bike_id": "c70f6fb5b9f8a0e29a88708177950ed1", "is_reserved": 0, "name": "c70f6fb5b9f8a0e29a88708177950ed1", "lat": 38.9377785, "fusion_lat": 0.0, "lon": -77.03265766666667, "is_disabled": 0, "fusion_lon": 0.0, "rental_uris": {"android": "https://dc.lft.to/lastmile_qr_scan", "ios": "https://dc.lft.to/lastmile_qr_scan"}, "type": "electric_scooter"}, {"bike_id": "145a87ab86b7bf19b55461d1b3c7fdc5", "is_reserved": 0, "name": "145a87ab86b7bf19b55461d1b3c7fdc5", "lat": 38.91266383333333, "fusion_lat": 0.0, "lon": -77.02824283333334, "is_disabled": 0, "fusion_lon": 0.0, "rental_uris": {"android": "https://dc.lft.to/lastmile_qr_scan", "ios": "https://dc.lft.to/lastmile_qr_scan"}, "type": "electric_scooter"}, {"bike_id": "57157192467b5e2625ee7fccef39a968", "is_reserved": 0, "name": "57157192467b5e2625ee7fccef39a968", "lat": 38.91191083333333, "fusion_lat": 0.0, "lon": -77.03755483333333, "is_disabled": 0, "fusion_lon": 0.0, "rental_uris": {"android": "https://dc.lft.to/lastmile_qr_scan", "ios": "https://dc.lft.to/lastmile_qr_scan"}, "type": "electric_scooter"}, {"bike_id": "236ac1d5fbd395c4799c81e70b171a8b", "is_reserved": 0, "name": "236ac1d5fbd395c4799c81e70b171a8b", "lat": 38.95606216666667, "fusion_lat": 0.0, "lon": -77.03352483333333, "is_disabled": 0, "fusion_lon": 0.0, "rental_uris": {"android": "https://dc.lft.to/lastmile_qr_scan", "ios": "https://dc.lft.to/lastmile_qr_scan"}, "type": "electric_scooter"}, {"bike_id": "a37f3a2b1c7067df6d0102baf67b6f8a", "is_reserved": 0, "name": "a37f3a2b1c7067df6d0102baf67b6f8a", "lat": 38.895998, "fusion_lat": 0.0, "lon": -77.023438, "is_disabled": 0, "fusion_lon": 0.0, "rental_uris": {"android": "https://dc.lft.to/lastmile_qr_scan", "ios": "https://dc.lft.to/lastmile_qr_scan"}, "type": "electric_scooter"}, {"bike_id": "1b1546454b8e52bd1d3ba58dbada216b", "is_reserved": 0, "name": "1b1546454b8e52bd1d3ba58dbada216b", "lat": 38.867376166666666, "fusion_lat": 0.0, "lon": -76.98788183333333, "is_disabled": 0, "fusion_lon": 0.0, "rental_uris": {"android": "https://dc.lft.to/lastmile_qr_scan", "ios": "https://dc.lft.to/lastmile_qr_scan"}, "type": "electric_scooter"}, {"bike_id": "7da4fc70e624b4db9956f0715ea2edb8", "is_reserved": 0, "name": "7da4fc70e624b4db9956f0715ea2edb8", "lat": 38.88602016666667, "fusion_lat": 0.0, "lon": -76.99535333333333, "is_disabled": 0, "fusion_lon": 0.0, "rental_uris": {"android": "https://dc.lft.to/lastmile_qr_scan", "ios": "https://dc.lft.to/lastmile_qr_scan"}, "type": "electric_scooter"}, {"bike_id": "ff73d3d1121462543799cafbf05a79c4", "is_reserved": 0, "name": "ff73d3d1121462543799cafbf05a79c4", "lat": 38.961856, "fusion_lat": 0.0, "lon": -77.05264433333333, "is_disabled": 0, "fusion_lon": 0.0, "rental_uris": {"android": "https://dc.lft.to/lastmile_qr_scan", "ios": "https://dc.lft.to/lastmile_qr_scan"}, "type": "electric_bike"}, {"bike_id": "9d96ed17919603f27f4e956d79220a55", "is_reserved": 0, "name": "9d96ed17919603f27f4e956d79220a55", "lat": 38.898721333333334, "fusion_lat": 0.0, "lon": -77.018741, "is_disabled": 0, "fusion_lon": 0.0, "rental_uris": {"android": "https://dc.lft.to/lastmile_qr_scan", "ios": "https://dc.lft.to/lastmile_qr_scan"}, "type": "electric_scooter"}, {"bike_id": "60d7cec5f6e27d9676cc89a3dfce5a99", "is_reserved": 0, "name": "60d7cec5f6e27d9676cc89a3dfce5a99", "lat": 38.96575966666666, "fusion_lat": 0.0, "lon": -77.00266416666666, "is_disabled": 0, "fusion_lon": 0.0, "rental_uris": {"android": "https://dc.lft.to/lastmile_qr_scan", "ios": "https://dc.lft.to/lastmile_qr_scan"}, "type": "electric_scooter"}, {"bike_id": "221ec922c7cd0e92d1bb838990d4f452", "is_reserved": 0, "name": "221ec922c7cd0e92d1bb838990d4f452", "lat": 38.92047, "fusion_lat": 0.0, "lon": -77.021949, "is_disabled": 0, "fusion_lon": 0.0, "rental_uris": {"android": "https://dc.lft.to/lastmile_qr_scan", "ios": "https://dc.lft.to/lastmile_qr_scan"}, "type": "electric_scooter"}, {"bike_id": "02bed9bfa31a916cea2687458ef47ded", "is_reserved": 0, "name": "02bed9bfa31a916cea2687458ef47ded", "lat": 38.898356, "fusion_lat": 0.0, "lon": -77.03043033333333, "is_disabled": 0, "fusion_lon": 0.0, "rental_uris": {"android": "https://dc.lft.to/lastmile_qr_scan", "ios": "https://dc.lft.to/lastmile_qr_scan"}, "type": "electric_scooter"}, {"bike_id": "aa956b73044d2489ff63a54387c784af", "is_reserved": 0, "name": "aa956b73044d2489ff63a54387c784af", "lat": 38.9242235, "fusion_lat": 0.0, "lon": -77.057388, "is_disabled": 0, "fusion_lon": 0.0, "rental_uris": {"android": "https://dc.lft.to/lastmile_qr_scan", "ios": "https://dc.lft.to/lastmile_qr_scan"}, "type": "electric_scooter"}, {"bike_id": "474c17cb282bd76df7b7c8c662f0bdf4", "is_reserved": 0, "name": "474c17cb282bd76df7b7c8c662f0bdf4", "lat": 38.873752, "fusion_lat": 0.0, "lon": -77.00137766666667, "is_disabled": 0, "fusion_lon": 0.0, "rental_uris": {"android": "https://dc.lft.to/lastmile_qr_scan", "ios": "https://dc.lft.to/lastmile_qr_scan"}, "type": "electric_scooter"}, {"bike_id": "d3595e2ab81df4c02e50b47548a13548", "is_reserved": 0, "name": "d3595e2ab81df4c02e50b47548a13548", "lat": 38.9048785, "fusion_lat": 0.0, "lon": -77.02109666666666, "is_disabled": 0, "fusion_lon": 0.0, "rental_uris": {"android": "https://dc.lft.to/lastmile_qr_scan", "ios": "https://dc.lft.to/lastmile_qr_scan"}, "type": "electric_scooter"}, {"bike_id": "5f88582e84da4390d6478b4abfe301e0", "is_reserved": 0, "name": "5f88582e84da4390d6478b4abfe301e0", "lat": 38.91721483333333, "fusion_lat": 0.0, "lon": -77.026968, "is_disabled": 0, "fusion_lon": 0.0, "rental_uris": {"android": "https://dc.lft.to/lastmile_qr_scan", "ios": "https://dc.lft.to/lastmile_qr_scan"}, "type": "electric_scooter"}, {"bike_id": "e3643d0ad8b6bfe7d6f508a533132598", "is_reserved": 0, "name": "e3643d0ad8b6bfe7d6f508a533132598", "lat": 38.912197166666665, "fusion_lat": 0.0, "lon": -77.03182733333334, "is_disabled": 0, "fusion_lon": 0.0, "rental_uris": {"android": "https://dc.lft.to/lastmile_qr_scan", "ios": "https://dc.lft.to/lastmile_qr_scan"}, "type": "electric_scooter"}, {"bike_id": "f4a5a3239f2b07f31844223ade438bee", "is_reserved": 0, "name": "f4a5a3239f2b07f31844223ade438bee", "lat": 38.91186533333333, "fusion_lat": 0.0, "lon": -77.03044616666666, "is_disabled": 0, "fusion_lon": 0.0, "rental_uris": {"android": "https://dc.lft.to/lastmile_qr_scan", "ios": "https://dc.lft.to/lastmile_qr_scan"}, "type": "electric_scooter"}, {"bike_id": "ed14de8a5761191daaf53a774661e0ce", "is_reserved": 0, "name": "ed14de8a5761191daaf53a774661e0ce", "lat": 38.895564666666665, "fusion_lat": 0.0, "lon": -76.94871633333334, "is_disabled": 0, "fusion_lon": 0.0, "rental_uris": {"android": "https://dc.lft.to/lastmile_qr_scan", "ios": "https://dc.lft.to/lastmile_qr_scan"}, "type": "electric_scooter"}, {"bike_id": "c5cd362825ba53e46c0dbdec19ad67e3", "is_reserved": 0, "name": "c5cd362825ba53e46c0dbdec19ad67e3", "lat": 38.892228, "fusion_lat": 0.0, "lon": -77.02630116666667, "is_disabled": 0, "fusion_lon": 0.0, "rental_uris": {"android": "https://dc.lft.to/lastmile_qr_scan", "ios": "https://dc.lft.to/lastmile_qr_scan"}, "type": "electric_scooter"}, {"bike_id": "9e82d57fd819bbc12ccd5c5b2cf9a09c", "is_reserved": 0, "name": "9e82d57fd819bbc12ccd5c5b2cf9a09c", "lat": 38.916193166666666, "fusion_lat": 0.0, "lon": -77.03189416666666, "is_disabled": 0, "fusion_lon": 0.0, "rental_uris": {"android": "https://dc.lft.to/lastmile_qr_scan", "ios": "https://dc.lft.to/lastmile_qr_scan"}, "type": "electric_scooter"}, {"bike_id": "4e3fc41f0eae3de9385ed67e76f445a0", "is_reserved": 0, "name": "4e3fc41f0eae3de9385ed67e76f445a0", "lat": 38.90193433333334, "fusion_lat": 0.0, "lon": -77.02753616666666, "is_disabled": 0, "fusion_lon": 0.0, "rental_uris": {"android": "https://dc.lft.to/lastmile_qr_scan", "ios": "https://dc.lft.to/lastmile_qr_scan"}, "type": "electric_scooter"}, {"bike_id": "48856ea4e0cb205d860b94545ee7aeb2", "is_reserved": 0, "name": "48856ea4e0cb205d860b94545ee7aeb2", "lat": 38.884996666666666, "fusion_lat": 0.0, "lon": -76.9806045, "is_disabled": 0, "fusion_lon": 0.0, "rental_uris": {"android": "https://dc.lft.to/lastmile_qr_scan", "ios": "https://dc.lft.to/lastmile_qr_scan"}, "type": "electric_scooter"}, {"bike_id": "35368b91bdc3915c9159d597e5f9f2fc", "is_reserved": 0, "name": "35368b91bdc3915c9159d597e5f9f2fc", "lat": 38.9014505, "fusion_lat": 0.0, "lon": -77.04359483333333, "is_disabled": 0, "fusion_lon": 0.0, "rental_uris": {"android": "https://dc.lft.to/lastmile_qr_scan", "ios": "https://dc.lft.to/lastmile_qr_scan"}, "type": "electric_scooter"}, {"bike_id": "ca3c64211390aae89f3823fe16a7ba52", "is_reserved": 0, "name": "ca3c64211390aae89f3823fe16a7ba52", "lat": 38.923458833333335, "fusion_lat": 0.0, "lon": -77.05169266666667, "is_disabled": 0, "fusion_lon": 0.0, "rental_uris": {"android": "https://dc.lft.to/lastmile_qr_scan", "ios": "https://dc.lft.to/lastmile_qr_scan"}, "type": "electric_scooter"}, {"bike_id": "571763470c010d60db157ad42a93ee0d", "is_reserved": 0, "name": "571763470c010d60db157ad42a93ee0d", "lat": 38.907936166666666, "fusion_lat": 0.0, "lon": -77.04347416666667, "is_disabled": 0, "fusion_lon": 0.0, "rental_uris": {"android": "https://dc.lft.to/lastmile_qr_scan", "ios": "https://dc.lft.to/lastmile_qr_scan"}, "type": "electric_scooter"}, {"bike_id": "ca81a4225f92b08c44b4bad62a052a42", "is_reserved": 0, "name": "ca81a4225f92b08c44b4bad62a052a42", "lat": 38.90530166666667, "fusion_lat": 0.0, "lon": -77.06517433333333, "is_disabled": 0, "fusion_lon": 0.0, "rental_uris": {"android": "https://dc.lft.to/lastmile_qr_scan", "ios": "https://dc.lft.to/lastmile_qr_scan"}, "type": "electric_scooter"}, {"bike_id": "6cfb5081d14857667d1cc565094b0dd0", "is_reserved": 0, "name": "6cfb5081d14857667d1cc565094b0dd0", "lat": 38.89524316666667, "fusion_lat": 0.0, "lon": -77.04486533333333, "is_disabled": 0, "fusion_lon": 0.0, "rental_uris": {"android": "https://dc.lft.to/lastmile_qr_scan", "ios": "https://dc.lft.to/lastmile_qr_scan"}, "type": "electric_scooter"}, {"bike_id": "9b27bb888233f1927057866768319a88", "is_reserved": 0, "name": "9b27bb888233f1927057866768319a88", "lat": 38.88609133333333, "fusion_lat": 0.0, "lon": -76.99533983333333, "is_disabled": 0, "fusion_lon": 0.0, "rental_uris": {"android": "https://dc.lft.to/lastmile_qr_scan", "ios": "https://dc.lft.to/lastmile_qr_scan"}, "type": "electric_scooter"}, {"bike_id": "2a54dacb33a0ec253f8de4e3766f1758", "is_reserved": 0, "name": "2a54dacb33a0ec253f8de4e3766f1758", "lat": 38.88421683333333, "fusion_lat": 0.0, "lon": -76.94205416666667, "is_disabled": 0, "fusion_lon": 0.0, "rental_uris": {"android": "https://dc.lft.to/lastmile_qr_scan", "ios": "https://dc.lft.to/lastmile_qr_scan"}, "type": "electric_scooter"}, {"bike_id": "1557700a30626847302fd7b5bb2c0cbb", "is_reserved": 0, "name": "1557700a30626847302fd7b5bb2c0cbb", "lat": 38.8873005, "fusion_lat": 0.0, "lon": -76.983596, "is_disabled": 0, "fusion_lon": 0.0, "rental_uris": {"android": "https://dc.lft.to/lastmile_qr_scan", "ios": "https://dc.lft.to/lastmile_qr_scan"}, "type": "electric_scooter"}, {"bike_id": "46d70a319283d58ba2a8117f9ba4205d", "is_reserved": 0, "name": "46d70a319283d58ba2a8117f9ba4205d", "lat": 38.875561833333336, "fusion_lat": 0.0, "lon": -77.005899, "is_disabled": 0, "fusion_lon": 0.0, "rental_uris": {"android": "https://dc.lft.to/lastmile_qr_scan", "ios": "https://dc.lft.to/lastmile_qr_scan"}, "type": "electric_scooter"}, {"bike_id": "371d9b89695bee937a5baa4f44da87d5", "is_reserved": 0, "name": "371d9b89695bee937a5baa4f44da87d5", "lat": 38.919613166666664, "fusion_lat": 0.0, "lon": -77.02397166666667, "is_disabled": 0, "fusion_lon": 0.0, "rental_uris": {"android": "https://dc.lft.to/lastmile_qr_scan", "ios": "https://dc.lft.to/lastmile_qr_scan"}, "type": "electric_scooter"}, {"bike_id": "1cc4d410503ddd45058513b95c30cded", "is_reserved": 0, "name": "1cc4d410503ddd45058513b95c30cded", "lat": 38.900383, "fusion_lat": 0.0, "lon": -77.02594883333333, "is_disabled": 0, "fusion_lon": 0.0, "rental_uris": {"android": "https://dc.lft.to/lastmile_qr_scan", "ios": "https://dc.lft.to/lastmile_qr_scan"}, "type": "electric_scooter"}, {"bike_id": "18e5134dddd78119b066fa0f93188d84", "is_reserved": 0, "name": "18e5134dddd78119b066fa0f93188d84", "lat": 38.923396333333336, "fusion_lat": 0.0, "lon": -77.05302016666667, "is_disabled": 0, "fusion_lon": 0.0, "rental_uris": {"android": "https://dc.lft.to/lastmile_qr_scan", "ios": "https://dc.lft.to/lastmile_qr_scan"}, "type": "electric_scooter"}, {"bike_id": "8528024375ff9381d3ba184be7cb95d2", "is_reserved": 0, "name": "8528024375ff9381d3ba184be7cb95d2", "lat": 38.89598733333333, "fusion_lat": 0.0, "lon": -77.0234995, "is_disabled": 0, "fusion_lon": 0.0, "rental_uris": {"android": "https://dc.lft.to/lastmile_qr_scan", "ios": "https://dc.lft.to/lastmile_qr_scan"}, "type": "electric_scooter"}, {"bike_id": "b93f661fac705d97e4e767e80bcef533", "is_reserved": 0, "name": "b93f661fac705d97e4e767e80bcef533", "lat": 38.906723666666664, "fusion_lat": 0.0, "lon": -77.02703466666667, "is_disabled": 0, "fusion_lon": 0.0, "rental_uris": {"android": "https://dc.lft.to/lastmile_qr_scan", "ios": "https://dc.lft.to/lastmile_qr_scan"}, "type": "electric_scooter"}, {"bike_id": "823b390a73e2cf38c61a3d03e50847bf", "is_reserved": 0, "name": "823b390a73e2cf38c61a3d03e50847bf", "lat": 38.90147016666667, "fusion_lat": 0.0, "lon": -77.01502166666667, "is_disabled": 0, "fusion_lon": 0.0, "rental_uris": {"android": "https://dc.lft.to/lastmile_qr_scan", "ios": "https://dc.lft.to/lastmile_qr_scan"}, "type": "electric_scooter"}, {"bike_id": "ae416cabe267037ea09ab9269b7c46f6", "is_reserved": 0, "name": "ae416cabe267037ea09ab9269b7c46f6", "lat": 38.874831666666665, "fusion_lat": 0.0, "lon": -77.00589933333333, "is_disabled": 0, "fusion_lon": 0.0, "rental_uris": {"android": "https://dc.lft.to/lastmile_qr_scan", "ios": "https://dc.lft.to/lastmile_qr_scan"}, "type": "electric_scooter"}, {"bike_id": "7b69b444dca570e19738e268c8071e9f", "is_reserved": 0, "name": "7b69b444dca570e19738e268c8071e9f", "lat": 38.8757875, "fusion_lat": 0.0, "lon": -77.00543483333334, "is_disabled": 0, "fusion_lon": 0.0, "rental_uris": {"android": "https://dc.lft.to/lastmile_qr_scan", "ios": "https://dc.lft.to/lastmile_qr_scan"}, "type": "electric_scooter"}, {"bike_id": "a90864d6a28029e9a1836025bd224dee", "is_reserved": 0, "name": "a90864d6a28029e9a1836025bd224dee", "lat": 38.920961166666665, "fusion_lat": 0.0, "lon": -77.02531933333333, "is_disabled": 0, "fusion_lon": 0.0, "rental_uris": {"android": "https://dc.lft.to/lastmile_qr_scan", "ios": "https://dc.lft.to/lastmile_qr_scan"}, "type": "electric_scooter"}, {"bike_id": "b6b12b3c0ecdb79e40f763883473a258", "is_reserved": 0, "name": "b6b12b3c0ecdb79e40f763883473a258", "lat": 38.916633833333336, "fusion_lat": 0.0, "lon": -77.02470983333333, "is_disabled": 0, "fusion_lon": 0.0, "rental_uris": {"android": "https://dc.lft.to/lastmile_qr_scan", "ios": "https://dc.lft.to/lastmile_qr_scan"}, "type": "electric_scooter"}, {"bike_id": "78986c247759da4158c81d84c720cf63", "is_reserved": 0, "name": "78986c247759da4158c81d84c720cf63", "lat": 38.895855833333336, "fusion_lat": 0.0, "lon": -76.98319133333334, "is_disabled": 0, "fusion_lon": 0.0, "rental_uris": {"android": "https://dc.lft.to/lastmile_qr_scan", "ios": "https://dc.lft.to/lastmile_qr_scan"}, "type": "electric_scooter"}, {"bike_id": "9370653d1e43c49ee5be838c06aa574a", "is_reserved": 0, "name": "9370653d1e43c49ee5be838c06aa574a", "lat": 38.929742833333336, "fusion_lat": 0.0, "lon": -77.02819866666667, "is_disabled": 0, "fusion_lon": 0.0, "rental_uris": {"android": "https://dc.lft.to/lastmile_qr_scan", "ios": "https://dc.lft.to/lastmile_qr_scan"}, "type": "electric_scooter"}, {"bike_id": "079cdfeeb5e4c5ee82a1a0361944f9af", "is_reserved": 0, "name": "079cdfeeb5e4c5ee82a1a0361944f9af", "lat": 38.94564583333333, "fusion_lat": 0.0, "lon": -77.07955916666667, "is_disabled": 0, "fusion_lon": 0.0, "rental_uris": {"android": "https://dc.lft.to/lastmile_qr_scan", "ios": "https://dc.lft.to/lastmile_qr_scan"}, "type": "electric_scooter"}, {"bike_id": "dee5d564ee70be24ea25b64313cf308e", "is_reserved": 0, "name": "dee5d564ee70be24ea25b64313cf308e", "lat": 38.90377933333333, "fusion_lat": 0.0, "lon": -77.0363625, "is_disabled": 0, "fusion_lon": 0.0, "rental_uris": {"android": "https://dc.lft.to/lastmile_qr_scan", "ios": "https://dc.lft.to/lastmile_qr_scan"}, "type": "electric_bike"}, {"bike_id": "24e6bcdcc09b9c4e1c27654f4c86ba9f", "is_reserved": 0, "name": "24e6bcdcc09b9c4e1c27654f4c86ba9f", "lat": 38.918452, "fusion_lat": 0.0, "lon": -77.0321145, "is_disabled": 0, "fusion_lon": 0.0, "rental_uris": {"android": "https://dc.lft.to/lastmile_qr_scan", "ios": "https://dc.lft.to/lastmile_qr_scan"}, "type": "electric_scooter"}, {"bike_id": "5896428f7907e1d27f840e8b911b4a77", "is_reserved": 0, "name": "5896428f7907e1d27f840e8b911b4a77", "lat": 38.892249, "fusion_lat": 0.0, "lon": -77.0489605, "is_disabled": 0, "fusion_lon": 0.0, "rental_uris": {"android": "https://dc.lft.to/lastmile_qr_scan", "ios": "https://dc.lft.to/lastmile_qr_scan"}, "type": "electric_scooter"}, {"bike_id": "c122b93bd2451a5e3a84657700e23943", "is_reserved": 0, "name": "c122b93bd2451a5e3a84657700e23943", "lat": 38.904661, "fusion_lat": 0.0, "lon": -77.0282215, "is_disabled": 0, "fusion_lon": 0.0, "rental_uris": {"android": "https://dc.lft.to/lastmile_qr_scan", "ios": "https://dc.lft.to/lastmile_qr_scan"}, "type": "electric_scooter"}, {"bike_id": "a24c3e57de90ab072df3068593a683b9", "is_reserved": 0, "name": "a24c3e57de90ab072df3068593a683b9", "lat": 38.9019765, "fusion_lat": 0.0, "lon": -77.02219433333333, "is_disabled": 0, "fusion_lon": 0.0, "rental_uris": {"android": "https://dc.lft.to/lastmile_qr_scan", "ios": "https://dc.lft.to/lastmile_qr_scan"}, "type": "electric_scooter"}, {"bike_id": "255d2c94defb4609df7981f7a0065c07", "is_reserved": 0, "name": "255d2c94defb4609df7981f7a0065c07", "lat": 38.8967835, "fusion_lat": 0.0, "lon": -77.011945, "is_disabled": 0, "fusion_lon": 0.0, "rental_uris": {"android": "https://dc.lft.to/lastmile_qr_scan", "ios": "https://dc.lft.to/lastmile_qr_scan"}, "type": "electric_scooter"}, {"bike_id": "5d4ffd535ec570d43d36af8dd68d7c04", "is_reserved": 0, "name": "5d4ffd535ec570d43d36af8dd68d7c04", "lat": 38.961815666666666, "fusion_lat": 0.0, "lon": -77.01435033333334, "is_disabled": 0, "fusion_lon": 0.0, "rental_uris": {"android": "https://dc.lft.to/lastmile_qr_scan", "ios": "https://dc.lft.to/lastmile_qr_scan"}, "type": "electric_scooter"}, {"bike_id": "a34bb546f7a602ea6b5de71e58064904", "is_reserved": 0, "name": "a34bb546f7a602ea6b5de71e58064904", "lat": 38.90051583333333, "fusion_lat": 0.0, "lon": -77.000661, "is_disabled": 0, "fusion_lon": 0.0, "rental_uris": {"android": "https://dc.lft.to/lastmile_qr_scan", "ios": "https://dc.lft.to/lastmile_qr_scan"}, "type": "electric_scooter"}, {"bike_id": "346040b3ca82df0fc32562f9ae0a6435", "is_reserved": 0, "name": "346040b3ca82df0fc32562f9ae0a6435", "lat": 38.91119416666667, "fusion_lat": 0.0, "lon": -77.04404166666667, "is_disabled": 0, "fusion_lon": 0.0, "rental_uris": {"android": "https://dc.lft.to/lastmile_qr_scan", "ios": "https://dc.lft.to/lastmile_qr_scan"}, "type": "electric_scooter"}, {"bike_id": "a681672eb95bf27338593f849f8a2f72", "is_reserved": 0, "name": "a681672eb95bf27338593f849f8a2f72", "lat": 38.90374466666667, "fusion_lat": 0.0, "lon": -77.05064683333333, "is_disabled": 0, "fusion_lon": 0.0, "rental_uris": {"android": "https://dc.lft.to/lastmile_qr_scan", "ios": "https://dc.lft.to/lastmile_qr_scan"}, "type": "electric_scooter"}, {"bike_id": "7188bca28f53a1f4aa6ab56df51045a9", "is_reserved": 0, "name": "7188bca28f53a1f4aa6ab56df51045a9", "lat": 38.90000916666666, "fusion_lat": 0.0, "lon": -77.024038, "is_disabled": 0, "fusion_lon": 0.0, "rental_uris": {"android": "https://dc.lft.to/lastmile_qr_scan", "ios": "https://dc.lft.to/lastmile_qr_scan"}, "type": "electric_scooter"}, {"bike_id": "883c03c6be37afa1cf160da4cb83819d", "is_reserved": 0, "name": "883c03c6be37afa1cf160da4cb83819d", "lat": 38.887378166666664, "fusion_lat": 0.0, "lon": -77.00346433333333, "is_disabled": 0, "fusion_lon": 0.0, "rental_uris": {"android": "https://dc.lft.to/lastmile_qr_scan", "ios": "https://dc.lft.to/lastmile_qr_scan"}, "type": "electric_scooter"}, {"bike_id": "2b141e3f3512ad2adc802f18ca63a056", "is_reserved": 0, "name": "2b141e3f3512ad2adc802f18ca63a056", "lat": 38.887297333333336, "fusion_lat": 0.0, "lon": -76.98357083333333, "is_disabled": 0, "fusion_lon": 0.0, "rental_uris": {"android": "https://dc.lft.to/lastmile_qr_scan", "ios": "https://dc.lft.to/lastmile_qr_scan"}, "type": "electric_scooter"}, {"bike_id": "eb57db77e8a81499efa56fe23f3cd144", "is_reserved": 0, "name": "eb57db77e8a81499efa56fe23f3cd144", "lat": 38.919354166666665, "fusion_lat": 0.0, "lon": -77.04162983333333, "is_disabled": 0, "fusion_lon": 0.0, "rental_uris": {"android": "https://dc.lft.to/lastmile_qr_scan", "ios": "https://dc.lft.to/lastmile_qr_scan"}, "type": "electric_scooter"},