{"data": {"bikes": [{"lon": -77.0240485, "is_disabled": 0, "lat": 38.917621, "fusion_lat": 0.0, "is_reserved": 0, "rental_uris": {"ios": "https://dc.lft.to/lastmile_qr_scan", "android": "https://dc.lft.to/lastmile_qr_scan"}, "fusion_lon": 0.0, "type": "electric_scooter", "bike_id": "9f00a197a6b9c223fb5fe2c939026205", "name": "9f00a197a6b9c223fb5fe2c939026205"}, {"lon": -77.20138366666667, "is_disabled": 0, "lat": 38.92223833333333, "fusion_lat": 0.0, "is_reserved": 0, "rental_uris": {"ios": "https://dc.lft.to/lastmile_qr_scan", "android": "https://dc.lft.to/lastmile_qr_scan"}, "fusion_lon": 0.0, "type": "electric_bike", "bike_id": "c951b4a00f36d44f7633795add349a0a", "name": "c951b4a00f36d44f7633795add349a0a"}, {"lon": -76.946391, "is_disabled": 0, "lat": 38.89872366666667, "fusion_lat": 0.0, "is_reserved": 0, "rental_uris": {"ios": "https://dc.lft.to/lastmile_qr_scan", "android": "https://dc.lft.to/lastmile_qr_scan"}, "fusion_lon": 0.0, "type": "electric_scooter", "bike_id": "122db8ce68296c4b9d103b331c90f701", "name": "122db8ce68296c4b9d103b331c90f701"}, {"lon": -77.0223605, "is_disabled": 0, "lat": 38.9347665, "fusion_lat": 0.0, "is_reserved": 0, "rental_uris": {"ios": "https://dc.lft.to/lastmile_qr_scan", "android": "https://dc.lft.to/lastmile_qr_scan"}, "fusion_lon": 0.0, "type": "electric_scooter", "bike_id": "c222651ea1f148b893fff42eae5999b0", "name": "c222651ea1f148b893fff42eae5999b0"}, {"lon": -77.04653566666667, "is_disabled": 0, "lat": 38.90974466666667, "fusion_lat": 0.0, "is_reserved": 0, "rental_uris": {"ios": "https://dc.lft.to/lastmile_qr_scan", "android": "https://dc.lft.to/lastmile_qr_scan"}, "fusion_lon": 0.0, "type": "electric_scooter", "bike_id": "7d50bcc94029dab798defc102a94799d", "name": "7d50bcc94029dab798defc102a94799d"}, {"lon": -77.03287916666666, "is_disabled": 0, "lat": 38.92269966666667, "fusion_lat": 0.0, "is_reserved": 0, "rental_uris": {"ios": "https://dc.lft.to/lastmile_qr_scan", "android": "https://dc.lft.to/lastmile_qr_scan"}, "fusion_lon": 0.0, "type": "electric_scooter", "bike_id": "f18a7ed512cabb08afdd2865f7ed5bd1", "name": "f18a7ed512cabb08afdd2865f7ed5bd1"}, {"lon": -76.97093683333334, "is_disabled": 0, "lat": 38.870656, "fusion_lat": 0.0, "is_reserved": 0, "rental_uris": {"ios": "https://dc.lft.to/lastmile_qr_scan", "android": "https://dc.lft.to/lastmile_qr_scan"}, "fusion_lon": 0.0, "type": "electric_scooter", "bike_id": "b33aca5d4e8196ac45ae890a95472034", "name": "b33aca5d4e8196ac45ae890a95472034"}, {"lon": -77.0315465, "is_disabled": 0, "lat": 38.964453166666665, "fusion_lat": 0.0, "is_reserved": 0, "rental_uris": {"ios": "https://dc.lft.to/lastmile_qr_scan", "android": "https://dc.lft.to/lastmile_qr_scan"}, "fusion_lon": 0.0, "type": "electric_bike", "bike_id": "313d4ff60580f9a7c33085e68dbb1ac4", "name": "313d4ff60580f9a7c33085e68dbb1ac4"}, {"lon": -77.04680666666667, "is_disabled": 0, "lat": 38.89334316666667, "fusion_lat": 0.0, "is_reserved": 0, "rental_uris": {"ios": "https://dc.lft.to/lastmile_qr_scan", "android": "https://dc.lft.to/lastmile_qr_scan"}, "fusion_lon": 0.0, "type": "electric_scooter", "bike_id": "0ca995cdf944b4823761b6dc36b2cb23", "name": "0ca995cdf944b4823761b6dc36b2cb23"}, {"lon": -76.97101166666667, "is_disabled": 0, "lat": 38.9245085, "fusion_lat": 0.0, "is_reserved": 0, "rental_uris": {"ios": "https://dc.lft.to/lastmile_qr_scan", "android": "https://dc.lft.to/lastmile_qr_scan"}, "fusion_lon": 0.0, "type": "electric_bike", "bike_id": "89a23f3fdfe8a5a87a245816ee68a68e", "name": "89a23f3fdfe8a5a87a245816ee68a68e"}, {"lon": -77.057456, "is_disabled": 0, "lat": 38.933971666666665, "fusion_lat": 0.0, "is_reserved": 0, "rental_uris": {"ios": "https://dc.lft.to/lastmile_qr_scan", "android": "https://dc.lft.to/lastmile_qr_scan"}, "fusion_lon": 0.0, "type": "electric_scooter", "bike_id": "4de691e371661f153d0faf7ec4e04753", "name": "4de691e371661f153d0faf7ec4e04753"}, {"lon": -77.0319905, "is_disabled": 0, "lat": 38.909856833333336, "fusion_lat": 0.0, "is_reserved": 0, "rental_uris": {"ios": "https://dc.lft.to/lastmile_qr_scan", "android": "https://dc.lft.to/lastmile_qr_scan"}, "fusion_lon": 0.0, "type": "electric_scooter", "bike_id": "5f7986c048ca56f3cfe75b84382fa4b6", "name": "5f7986c048ca56f3cfe75b84382fa4b6"}, {"lon": -77.045, "is_disabled": 0, "lat": 38.9118625, "fusion_lat": 0.0, "is_reserved": 0, "rental_uris": {"ios": "https://dc.lft.to/lastmile_qr_scan", "android": "https://dc.lft.to/lastmile_qr_scan"}, "fusion_lon": 0.0, "type": "electric_scooter", "bike_id": "5ad32d49f346947e97cc39205176efde", "name": "5ad32d49f346947e97cc39205176efde"}, {"lon": -77.03208733333334, "is_disabled": 0, "lat": 38.91718916666667, "fusion_lat": 0.0, "is_reserved": 0, "rental_uris": {"ios": "https://dc.lft.to/lastmile_qr_scan", "android": "https://dc.lft.to/lastmile_qr_scan"}, "fusion_lon": 0.0, "type": "electric_scooter", "bike_id": "325870fc3f53bdacd877dda1e1de4338", "name": "325870fc3f53bdacd877dda1e1de4338"}, {"lon": -77.03838333333333, "is_disabled": 0, "lat": 38.941937333333335, "fusion_lat": 0.0, "is_reserved": 0, "rental_uris": {"ios": "https://dc.lft.to/lastmile_qr_scan", "android": "https://dc.lft.to/lastmile_qr_scan"}, "fusion_lon": 0.0, "type": "electric_scooter", "bike_id": "f7fef43aaafb87c72ced7bf6be3a87c7", "name": "f7fef43aaafb87c72ced7bf6be3a87c7"}, {"lon": -77.02823783333334, "is_disabled": 0, "lat": 38.88659083333334, "fusion_lat": 0.0, "is_reserved": 0, "rental_uris": {"ios": "https://dc.lft.to/lastmile_qr_scan", "android": "https://dc.lft.to/lastmile_qr_scan"}, "fusion_lon": 0.0, "type": "electric_scooter", "bike_id": "f8117e0a1fde7d8e66e8d6d4137576e1", "name": "f8117e0a1fde7d8e66e8d6d4137576e1"}, {"lon": -77.038243, "is_disabled": 0, "lat": 38.931307833333335, "fusion_lat": 0.0, "is_reserved": 0, "rental_uris": {"ios": "https://dc.lft.to/lastmile_qr_scan", "android": "https://dc.lft.to/lastmile_qr_scan"}, "fusion_lon": 0.0, "type": "electric_scooter", "bike_id": "903f5da1dfd90def3ecd3069ce1b6fdb", "name": "903f5da1dfd90def3ecd3069ce1b6fdb"}, {"lon": -77.02571816666666, "is_disabled": 0, "lat": 38.89744133333333, "fusion_lat": 0.0, "is_reserved": 0, "rental_uris": {"ios": "https://dc.lft.to/lastmile_qr_scan", "android": "https://dc.lft.to/lastmile_qr_scan"}, "fusion_lon": 0.0, "type": "electric_scooter", "bike_id": "59ee6c0176afd47feb8f7923082467e1", "name": "59ee6c0176afd47feb8f7923082467e1"}, {"lon": -77.017552, "is_disabled": 0, "lat": 38.87690933333333, "fusion_lat": 0.0, "is_reserved": 0, "rental_uris": {"ios": "https://dc.lft.to/lastmile_qr_scan", "android": "https://dc.lft.to/lastmile_qr_scan"}, "fusion_lon": 0.0, "type": "electric_scooter", "bike_id": "1e86748b74e0bee69c2078d85750af77", "name": "1e86748b74e0bee69c2078d85750af77"}, {"lon": -77.02223883333333, "is_disabled": 0, "lat": 38.8922545, "fusion_lat": 0.0, "is_reserved": 0, "rental_uris": {"ios": "https://dc.lft.to/lastmile_qr_scan", "android": "https://dc.lft.to/lastmile_qr_scan"}, "fusion_lon": 0.0, "type": "electric_scooter", "bike_id": "ca7a873c4f534eeeb398c839c6ee8c69", "name": "ca7a873c4f534eeeb398c839c6ee8c69"}, {"lon": -77.05913016666666, "is_disabled": 0, "lat": 38.902682666666664, "fusion_lat": 0.0, "is_reserved": 0, "rental_uris": {"ios": "https://dc.lft.to/lastmile_qr_scan", "android": "https://dc.lft.to/lastmile_qr_scan"}, "fusion_lon": 0.0, "type": "electric_scooter", "bike_id": "e36ec8545afeb5173c390d86bb2669ce", "name": "e36ec8545afeb5173c390d86bb2669ce"}, {"lon": -77.03381716666667, "is_disabled": 0, "lat": 38.899277833333336, "fusion_lat": 0.0, "is_reserved": 0, "rental_uris": {"ios": "https://dc.lft.to/lastmile_qr_scan", "android": "https://dc.lft.to/lastmile_qr_scan"}, "fusion_lon": 0.0, "type": "electric_scooter", "bike_id": "bf07d9e9d5a9a1820cf0fe4a8a093e16", "name": "bf07d9e9d5a9a1820cf0fe4a8a093e16"}, {"lon": -77.06267866666667, "is_disabled": 0, "lat": 38.90573966666667, "fusion_lat": 0.0, "is_reserved": 0, "rental_uris": {"ios": "https://dc.lft.to/lastmile_qr_scan", "android": "https://dc.lft.to/lastmile_qr_scan"}, "fusion_lon": 0.0, "type": "electric_scooter", "bike_id": "12322331165b72cab0f0ee550cbd6198", "name": "12322331165b72cab0f0ee550cbd6198"}, {"lon": -77.00601033333334, "is_disabled": 0, "lat": 38.876039666666664, "fusion_lat": 0.0, "is_reserved": 0, "rental_uris": {"ios": "https://dc.lft.to/lastmile_qr_scan", "android": "https://dc.lft.to/lastmile_qr_scan"}, "fusion_lon": 0.0, "type": "electric_scooter", "bike_id": "b674c7c442ffffa2e62fc496b32dde7a", "name": "b674c7c442ffffa2e62fc496b32dde7a"}, {"lon": -77.0285945, "is_disabled": 0, "lat": 38.893783, "fusion_lat": 0.0, "is_reserved": 0, "rental_uris": {"ios": "https://dc.lft.to/lastmile_qr_scan", "android": "https://dc.lft.to/lastmile_qr_scan"}, "fusion_lon": 0.0, "type": "electric_scooter", "bike_id": "3ae8d5aac98cc770c619da1a5f127761", "name": "3ae8d5aac98cc770c619da1a5f127761"}, {"lon": -76.96058316666667, "is_disabled": 0, "lat": 38.88327833333334, "fusion_lat": 0.0, "is_reserved": 0, "rental_uris": {"ios": "https://dc.lft.to/lastmile_qr_scan", "android": "https://dc.lft.to/lastmile_qr_scan"}, "fusion_lon": 0.0, "type": "electric_bike", "bike_id": "52ff2b92c575a60db05355ed68edd480", "name": "52ff2b92c575a60db05355ed68edd480"}, {"lon": -77.02024216666666, "is_disabled": 0, "lat": 38.924337666666666, "fusion_lat": 0.0, "is_reserved": 0, "rental_uris": {"ios": "https://dc.lft.to/lastmile_qr_scan", "android": "https://dc.lft.to/lastmile_qr_scan"}, "fusion_lon": 0.0, "type": "electric_scooter", "bike_id": "15d9eddf70c794fe5716e45f4cec16c7", "name": "15d9eddf70c794fe5716e45f4cec16c7"}, {"lon": -77.03844566666666, "is_disabled": 0, "lat": 38.92181316666667, "fusion_lat": 0.0, "is_reserved": 0, "rental_uris": {"ios": "https://dc.lft.to/lastmile_qr_scan", "android": "https://dc.lft.to/lastmile_qr_scan"}, "fusion_lon": 0.0, "type": "electric_scooter", "bike_id": "453c16179922b62ae0fbd11879e4378a", "name": "453c16179922b62ae0fbd11879e4378a"}, {"lon": -77.02964516666667, "is_disabled": 0, "lat": 38.92754033333333, "fusion_lat": 0.0, "is_reserved": 0, "rental_uris": {"ios": "https://dc.lft.to/lastmile_qr_scan", "android": "https://dc.lft.to/lastmile_qr_scan"}, "fusion_lon": 0.0, "type": "electric_scooter", "bike_id": "1822370259ab1eff557a8ce5b5dbfcb9", "name": "1822370259ab1eff557a8ce5b5dbfcb9"}, {"lon": -77.0419765, "is_disabled": 0, "lat": 38.905848166666665, "fusion_lat": 0.0, "is_reserved": 0, "rental_uris": {"ios": "https://dc.lft.to/lastmile_qr_scan", "android": "https://dc.lft.to/lastmile_qr_scan"}, "fusion_lon": 0.0, "type": "electric_scooter", "bike_id": "bdbf948186b38e66d682b1825d7b9600", "name": "bdbf948186b38e66d682b1825d7b9600"}, {"lon": -77.04490766666666, "is_disabled": 0, "lat": 38.9312955, "fusion_lat": 0.0, "is_reserved": 0, "rental_uris": {"ios": "https://dc.lft.to/lastmile_qr_scan", "android": "https://dc.lft.to/lastmile_qr_scan"}, "fusion_lon": 0.0, "type": "electric_scooter", "bike_id": "6ac77eb7bba68a1ff87d91df51689622", "name": "6ac77eb7bba68a1ff87d91df51689622"}, {"lon": -77.04347816666667, "is_disabled": 0, "lat": 38.9219795, "fusion_lat": 0.0, "is_reserved": 0, "rental_uris": {"ios": "https://dc.lft.to/lastmile_qr_scan", "android": "https://dc.lft.to/lastmile_qr_scan"}, "fusion_lon": 0.0, "type": "electric_scooter", "bike_id": "e04a8e2ae0d9dc16ca4c5e68c1ba2787", "name": "e04a8e2ae0d9dc16ca4c5e68c1ba2787"}, {"lon": -76.93372266666667, "is_disabled": 0, "lat": 38.89926716666667, "fusion_lat": 0.0, "is_reserved": 0, "rental_uris": {"ios": "https://dc.lft.to/lastmile_qr_scan", "android": "https://dc.lft.to/lastmile_qr_scan"}, "fusion_lon": 0.0, "type": "electric_scooter", "bike_id": "30f2b319fac61d19b180954a816ab2ce", "name": "30f2b319fac61d19b180954a816ab2ce"}, {"lon": -77.0023855, "is_disabled": 0, "lat": 38.875148333333335, "fusion_lat": 0.0, "is_reserved": 0, "rental_uris": {"ios": "https://dc.lft.to/lastmile_qr_scan", "android": "https://dc.lft.to/lastmile_qr_scan"}, "fusion_lon": 0.0, "type": "electric_scooter", "bike_id": "f9fb416ec9e2c5deac3c15939e91f0c5", "name": "f9fb416ec9e2c5deac3c15939e91f0c5"}, {"lon": -76.970293, "is_disabled": 0, "lat": 38.873593666666665, "fusion_lat": 0.0, "is_reserved": 0, "rental_uris": {"ios": "https://dc.lft.to/lastmile_qr_scan", "android": "https://dc.lft.to/lastmile_qr_scan"}, "fusion_lon": 0.0, "type": "electric_scooter", "bike_id": "ada6c4e542cdb232a2bcae7125b62be3", "name": "ada6c4e542cdb232a2bcae7125b62be3"}, {"lon": -77.02554416666666, "is_disabled": 0, "lat": 38.919196166666666, "fusion_lat": 0.0, "is_reserved": 0, "rental_uris": {"ios": "https://dc.lft.to/lastmile_qr_scan", "android": "https://dc.lft.to/lastmile_qr_scan"}, "fusion_lon": 0.0, "type": "electric_scooter", "bike_id": "3e2472c3c3cd5be8f8daf2d6bb9fb314", "name": "3e2472c3c3cd5be8f8daf2d6bb9fb314"}, {"lon": -77.13937366666667, "is_disabled": 0, "lat": 38.87306616666667, "fusion_lat": 0.0, "is_reserved": 0, "rental_uris": {"ios": "https://dc.lft.to/lastmile_qr_scan", "android": "https://dc.lft.to/lastmile_qr_scan"}, "fusion_lon": 0.0, "type": "electric_bike", "bike_id": "a6b3d19aa446e4510db705c776f10c5e", "name": "a6b3d19aa446e4510db705c776f10c5e"}, {"lon": -76.97952266666667, "is_disabled": 0, "lat": 38.90436233333333, "fusion_lat": 0.0, "is_reserved": 0, "rental_uris": {"ios": "https://dc.lft.to/lastmile_qr_scan", "android": "https://dc.lft.to/lastmile_qr_scan"}, "fusion_lon": 0.0, "type": "electric_scooter", "bike_id": "9c83edea5dc8601606054cfa74195633", "name": "9c83edea5dc8601606054cfa74195633"}, {"lon": -77.01543233333334, "is_disabled": 0, "lat": 38.88574633333333, "fusion_lat": 0.0, "is_reserved": 0, "rental_uris": {"ios": "https://dc.lft.to/lastmile_qr_scan", "android": "https://dc.lft.to/lastmile_qr_scan"}, "fusion_lon": 0.0, "type": "electric_scooter", "bike_id": "7e0b61bf86c16b8623a0f4105be6b420", "name": "7e0b61bf86c16b8623a0f4105be6b420"}, {"lon": -77.04372083333334, "is_disabled": 0, "lat": 38.904089666666664, "fusion_lat": 0.0, "is_reserved": 0, "rental_uris": {"ios": "https://dc.lft.to/lastmile_qr_scan", "android": "https://dc.lft.to/lastmile_qr_scan"}, "fusion_lon": 0.0, "type": "electric_scooter", "bike_id": "d172b00af819852165bf69f52998903b", "name": "d172b00af819852165bf69f52998903b"}, {"lon": -77.001757, "is_disabled": 0, "lat": 38.844724666666664, "fusion_lat": 0.0, "is_reserved": 0, "rental_uris": {"ios": "https://dc.lft.to/lastmile_qr_scan", "android": "https://dc.lft.to/lastmile_qr_scan"}, "fusion_lon": 0.0, "type": "electric_bike", "bike_id": "1fdd8aa029c6a03727a509567385795c", "name": "1fdd8aa029c6a03727a509567385795c"}, {"lon": -77.02453183333333, "is_disabled": 0, "lat": 38.91838383333333, "fusion_lat": 0.0, "is_reserved": 0, "rental_uris": {"ios": "https://dc.lft.to/lastmile_qr_scan", "android": "https://dc.lft.to/lastmile_qr_scan"}, "fusion_lon": 0.0, "type": "electric_scooter", "bike_id": "348331e763bf4bf2a2d4247f7c0f3bba", "name": "348331e763bf4bf2a2d4247f7c0f3bba"}, {"lon": -76.9940905, "is_disabled": 0, "lat": 38.877893, "fusion_lat": 0.0, "is_reserved": 0, "rental_uris": {"ios": "https://dc.lft.to/lastmile_qr_scan", "android": "https://dc.lft.to/lastmile_qr_scan"}, "fusion_lon": 0.0, "type": "electric_scooter", "bike_id": "46c5b9f5f9937acf1a31ff86024254f4", "name": "46c5b9f5f9937acf1a31ff86024254f4"}, {"lon": -77.0227965, "is_disabled": 0, "lat": 38.8952515, "fusion_lat": 0.0, "is_reserved": 0, "rental_uris": {"ios": "https://dc.lft.to/lastmile_qr_scan", "android": "https://dc.lft.to/lastmile_qr_scan"}, "fusion_lon": 0.0, "type": "electric_scooter", "bike_id": "bd8e8469eb0b0f00c7c51f4dcf65e0c9", "name": "bd8e8469eb0b0f00c7c51f4dcf65e0c9"}, {"lon": -77.02645016666666, "is_disabled": 0, "lat": 38.910715, "fusion_lat": 0.0, "is_reserved": 0, "rental_uris": {"ios": "https://dc.lft.to/lastmile_qr_scan", "android": "https://dc.lft.to/lastmile_qr_scan"}, "fusion_lon": 0.0, "type": "electric_scooter", "bike_id": "f3fbb227f850aed4ac5953058aae8dff", "name": "f3fbb227f850aed4ac5953058aae8dff"}, {"lon": -77.04536633333333, "is_disabled": 0, "lat": 38.93161883333333, "fusion_lat": 0.0, "is_reserved": 0, "rental_uris": {"ios": "https://dc.lft.to/lastmile_qr_scan", "android": "https://dc.lft.to/lastmile_qr_scan"}, "fusion_lon": 0.0, "type": "electric_scooter", "bike_id": "80103a3ccc28fc9eb995f407c4d413fd", "name": "80103a3ccc28fc9eb995f407c4d413fd"}, {"lon": -77.03664133333334, "is_disabled": 0, "lat": 38.9238845, "fusion_lat": 0.0, "is_reserved": 0, "rental_uris": {"ios": "https://dc.lft.to/lastmile_qr_scan", "android": "https://dc.lft.to/lastmile_qr_scan"}, "fusion_lon": 0.0, "type": "electric_scooter", "bike_id": "30681be85f4d7e5702f385e33d58b5e4", "name": "30681be85f4d7e5702f385e33d58b5e4"}, {"lon": -77.0080135, "is_disabled": 0, "lat": 38.949208666666664, "fusion_lat": 0.0, "is_reserved": 0, "rental_uris": {"ios": "https://dc.lft.to/lastmile_qr_scan", "android": "https://dc.lft.to/lastmile_qr_scan"}, "fusion_lon": 0.0, "type": "electric_scooter", "bike_id": "a9202f433d614e6d536d593cfebdecf5", "name": "a9202f433d614e6d536d593cfebdecf5"}, {"lon": -77.02396616666667, "is_disabled": 0, "lat": 38.93711583333334, "fusion_lat": 0.0, "is_reserved": 0, "rental_uris": {"ios": "https://dc.lft.to/lastmile_qr_scan", "android": "https://dc.lft.to/lastmile_qr_scan"}, "fusion_lon": 0.0, "type": "electric_scooter", "bike_id": "bfd046c668ad3132dfd2b227705d5471", "name": "bfd046c668ad3132dfd2b227705d5471"}, {"lon": -77.05566483333334, "is_disabled": 0, "lat": 38.8039885, "fusion_lat": 0.0, "is_reserved": 0, "rental_uris": {"ios": "https://dc.lft.to/lastmile_qr_scan", "android": "https://dc.lft.to/lastmile_qr_scan"}, "fusion_lon": 0.0, "type": "electric_bike", "bike_id": "8eef7f6cec43070dd3242e3801a0bb08", "name": "8eef7f6cec43070dd3242e3801a0bb08"}, {"lon": -77.02188866666667, "is_disabled": 0, "lat": 38.887262166666666, "fusion_lat": 0.0, "is_reserved": 0, "rental_uris": {"ios": "https://dc.lft.to/lastmile_qr_scan", "android": "https://dc.lft.to/lastmile_qr_scan"}, "fusion_lon": 0.0, "type": "electric_scooter", "bike_id": "ccde6139755fac7a2e5bffbc82e68e9e", "name": "ccde6139755fac7a2e5bffbc82e68e9e"}, {"lon": -77.05031016666666, "is_disabled": 0, "lat": 38.903742666666666, "fusion_lat": 0.0, "is_reserved": 0, "rental_uris": {"ios": "https://dc.lft.to/lastmile_qr_scan", "android": "https://dc.lft.to/lastmile_qr_scan"}, "fusion_lon": 0.0, "type": "electric_scooter", "bike_id": "a8f37c28acdeacfaf5166c1808c008cd", "name": "a8f37c28acdeacfaf5166c1808c008cd"}, {"lon": -77.03197783333333, "is_disabled": 0, "lat": 38.903702833333334, "fusion_lat": 0.0, "is_reserved": 0, "rental_uris": {"ios": "https://dc.lft.to/lastmile_qr_scan", "android": "https://dc.lft.to/lastmile_qr_scan"}, "fusion_lon": 0.0, "type": "electric_scooter", "bike_id": "4570c513ed2285377c86b42d5f8ff594", "name": "4570c513ed2285377c86b42d5f8ff594"}, {"lon": -77.12936916666666, "is_disabled": 0, "lat": 38.865211333333335, "fusion_lat": 0.0, "is_reserved": 0, "rental_uris": {"ios": "https://dc.lft.to/lastmile_qr_scan", "android": "https://dc.lft.to/lastmile_qr_scan"}, "fusion_lon": 0.0, "type": "electric_bike", "bike_id": "6ebe9b67e1803b93a5366413665d1fcc", "name": "6ebe9b67e1803b93a5366413665d1fcc"}, {"lon": -76.9494445, "is_disabled": 0, "lat": 38.893665166666665, "fusion_lat": 0.0, "is_reserved": 0, "rental_uris": {"ios": "https://dc.lft.to/lastmile_qr_scan", "android": "https://dc.lft.to/lastmile_qr_scan"}, "fusion_lon": 0.0, "type": "electric_scooter", "bike_id": "7f2073b1c1f8135f7df92172081cc1ff", "name": "7f2073b1c1f8135f7df92172081cc1ff"}, {"lon": -77.00339133333334, "is_disabled": 0, "lat": 38.89532533333333, "fusion_lat": 0.0, "is_reserved": 0, "rental_uris": {"ios": "https://dc.lft.to/lastmile_qr_scan", "android": "https://dc.lft.to/lastmile_qr_scan"}, "fusion_lon": 0.0, "type": "electric_scooter", "bike_id": "e07df16573dc1e095dcec2066ce949f7", "name": "e07df16573dc1e095dcec2066ce949f7"}, {"lon": -77.0319535, "is_disabled": 0, "lat": 38.90989833333333, "fusion_lat": 0.0, "is_reserved": 0, "rental_uris": {"ios": "https://dc.lft.to/lastmile_qr_scan", "android": "https://dc.lft.to/lastmile_qr_scan"}, "fusion_lon": 0.0, "type": "electric_scooter", "bike_id": "26d3efe15cf52271dc3759b2c725f3ac", "name": "26d3efe15cf52271dc3759b2c725f3ac"}, {"lon": -77.0240965, "is_disabled": 0, "lat": 38.91550933333333, "fusion_lat": 0.0, "is_reserved": 0, "rental_uris": {"ios": "https://dc.lft.to/lastmile_qr_scan", "android": "https://dc.lft.to/lastmile_qr_scan"}, "fusion_lon": 0.0, "type": "electric_scooter", "bike_id": "22d3b3d2c624050a85d336e1d74a6cd2", "name": "22d3b3d2c624050a85d336e1d74a6cd2"}, {"lon": -76.9771295, "is_disabled": 0, "lat": 38.8852045, "fusion_lat": 0.0, "is_reserved": 0, "rental_uris": {"ios": "https://dc.lft.to/lastmile_qr_scan", "android": "https://dc.lft.to/lastmile_qr_scan"}, "fusion_lon": 0.0, "type": "electric_scooter", "bike_id": "570320a5bbe08de34771fe112f703275", "name": "570320a5bbe08de34771fe112f703275"}, {"lon": -77.0326835, "is_disabled": 0, "lat": 38.89880733333333, "fusion_lat": 0.0, "is_reserved": 0, "rental_uris": {"ios": "https://dc.lft.to/lastmile_qr_scan", "android": "https://dc.lft.to/lastmile_qr_scan"}, "fusion_lon": 0.0, "type": "electric_scooter", "bike_id": "48e46891759f38855e31a42999b11b41", "name": "48e46891759f38855e31a42999b11b41"}, {"lon": -77.0450705, "is_disabled": 0, "lat": 38.903668333333336, "fusion_lat": 0.0, "is_reserved": 0, "rental_uris": {"ios": "https://dc.lft.to/lastmile_qr_scan", "android": "https://dc.lft.to/lastmile_qr_scan"}, "fusion_lon": 0.0, "type": "electric_scooter", "bike_id": "3e431d142d961e92121ce2685c6201ae", "name": "3e431d142d961e92121ce2685c6201ae"}, {"lon": -77.13301416666667, "is_disabled": 0, "lat": 38.887191, "fusion_lat": 0.0, "is_reserved": 0, "rental_uris": {"ios": "https://dc.lft.to/lastmile_qr_scan", "android": "https://dc.lft.to/lastmile_qr_scan"}, "fusion_lon": 0.0, "type": "electric_bike", "bike_id": "1111834b5e0cbc6ebfc3672ec66d1f02", "name": "1111834b5e0cbc6ebfc3672ec66d1f02"}, {"lon": -77.02696716666667, "is_disabled": 0, "lat": 38.971848333333334, "fusion_lat": 0.0, "is_reserved": 0, "rental_uris": {"ios": "https://dc.lft.to/lastmile_qr_scan", "android": "https://dc.lft.to/lastmile_qr_scan"}, "fusion_lon": 0.0, "type": "electric_scooter", "bike_id": "49eb2c112cc35df07b4e747a0c428b10", "name": "49eb2c112cc35df07b4e747a0c428b10"}, {"lon": -77.0344575, "is_disabled": 0, "lat": 38.90558333333333, "fusion_lat": 0.0, "is_reserved": 0, "rental_uris": {"ios": "https://dc.lft.to/lastmile_qr_scan", "android": "https://dc.lft.to/lastmile_qr_scan"}, "fusion_lon": 0.0, "type": "electric_scooter", "bike_id": "2742a146e4d22cdae550da98bb79b0d4", "name": "2742a146e4d22cdae550da98bb79b0d4"}, {"lon": -77.0028265, "is_disabled": 0, "lat": 38.919145, "fusion_lat": 0.0, "is_reserved": 0, "rental_uris": {"ios": "https://dc.lft.to/lastmile_qr_scan", "android": "https://dc.lft.to/lastmile_qr_scan"}, "fusion_lon": 0.0, "type": "electric_scooter", "bike_id": "efbc54fe448662594409aacddb109189", "name": "efbc54fe448662594409aacddb109189"}, {"lon": -77.01419666666666, "is_disabled": 0, "lat": 38.928297666666666, "fusion_lat": 0.0, "is_reserved": 0, "rental_uris": {"ios": "https://dc.lft.to/lastmile_qr_scan", "android": "https://dc.lft.to/lastmile_qr_scan"}, "fusion_lon": 0.0, "type": "electric_scooter", "bike_id": "0fccbdecb747b818604ea1a5961ee25f", "name": "0fccbdecb747b818604ea1a5961ee25f"}, {"lon": -76.99157966666667, "is_disabled": 0, "lat": 38.90042166666667, "fusion_lat": 0.0, "is_reserved": 0, "rental_uris": {"ios": "https://dc.lft.to/lastmile_qr_scan", "android": "https://dc.lft.to/lastmile_qr_scan"}, "fusion_lon": 0.0, "type": "electric_scooter", "bike_id": "bcd7b62a70eccb85b07554804725755b", "name": "bcd7b62a70eccb85b07554804725755b"}, {"lon": -77.03810066666667, "is_disabled": 0, "lat": 38.90253166666667, "fusion_lat": 0.0, "is_reserved": 0, "rental_uris": {"ios": "https://dc.lft.to/lastmile_qr_scan", "android": "https://dc.lft.to/lastmile_qr_scan"}, "fusion_lon": 0.0, "type": "electric_scooter", "bike_id": "9027b017e0f1e4ebf0b8113e6d66a557", "name": "9027b017e0f1e4ebf0b8113e6d66a557"}, {"lon": -77.0216175, "is_disabled": 0, "lat": 38.89735983333333, "fusion_lat": 0.0, "is_reserved": 0, "rental_uris": {"ios": "https://dc.lft.to/lastmile_qr_scan", "android": "https://dc.lft.to/lastmile_qr_scan"}, "fusion_lon": 0.0, "type": "electric_scooter", "bike_id": "f68d8d0bd02b1f3952a529cdab89bc72", "name": "f68d8d0bd02b1f3952a529cdab89bc72"}, {"lon": -76.9493895, "is_disabled": 0, "lat": 38.89363766666666, "fusion_lat": 0.0, "is_reserved": 0, "rental_uris": {"ios": "https://dc.lft.to/lastmile_qr_scan", "android": "https://dc.lft.to/lastmile_qr_scan"}, "fusion_lon": 0.0, "type": "electric_scooter", "bike_id": "97a06dea64a2cdecca4c9e66660c5d39", "name": "97a06dea64a2cdecca4c9e66660c5d39"}, {"lon": -77.04644916666666, "is_disabled": 0, "lat": 38.8984095, "fusion_lat": 0.0, "is_reserved": 0, "rental_uris": {"ios": "https://dc.lft.to/lastmile_qr_scan", "android": "https://dc.lft.to/lastmile_qr_scan"}, "fusion_lon": 0.0, "type": "electric_scooter", "bike_id": "4f0a4902c826f17139c71d8439420bcb", "name": "4f0a4902c826f17139c71d8439420bcb"}, {"lon": -77.0562405, "is_disabled": 0, "lat": 38.906888, "fusion_lat": 0.0, "is_reserved": 0, "rental_uris": {"ios": "https://dc.lft.to/lastmile_qr_scan", "android": "https://dc.lft.to/lastmile_qr_scan"}, "fusion_lon": 0.0, "type": "electric_scooter", "bike_id": "ef30a499c0feb7359fcc3b231ebd85f0", "name": "ef30a499c0feb7359fcc3b231ebd85f0"}, {"lon": -77.03296866666666, "is_disabled": 0, "lat": 38.92353716666667, "fusion_lat": 0.0, "is_reserved": 0, "rental_uris": {"ios": "https://dc.lft.to/lastmile_qr_scan", "android": "https://dc.lft.to/lastmile_qr_scan"}, "fusion_lon": 0.0, "type": "electric_scooter", "bike_id": "ffa67c3a72fc3bfb015017cf877f1ff4", "name": "ffa67c3a72fc3bfb015017cf877f1ff4"}, {"lon": -77.045333, "is_disabled": 0, "lat": 38.900687, "fusion_lat": 0.0, "is_reserved": 0, "rental_uris": {"ios": "https://dc.lft.to/lastmile_qr_scan", "android": "https://dc.lft.to/lastmile_qr_scan"}, "fusion_lon": 0.0, "type": "electric_scooter", "bike_id": "4ab62ed8d8b9a056bc43bbf0abfc8d4f", "name": "4ab62ed8d8b9a056bc43bbf0abfc8d4f"}, {"lon": -77.02195983333333, "is_disabled": 0, "lat": 38.91129983333333, "fusion_lat": 0.0, "is_reserved": 0, "rental_uris": {"ios": "https://dc.lft.to/lastmile_qr_scan", "android": "https://dc.lft.to/lastmile_qr_scan"}, "fusion_lon": 0.0, "type": "electric_scooter", "bike_id": "819994bae16e58a249ad26448009dcc1", "name": "819994bae16e58a249ad26448009dcc1"}, {"lon": -77.02239116666667, "is_disabled": 0, "lat": 38.922445833333335, "fusion_lat": 0.0, "is_reserved": 0, "rental_uris": {"ios": "https://dc.lft.to/lastmile_qr_scan", "android": "https://dc.lft.to/lastmile_qr_scan"}, "fusion_lon": 0.0, "type": "electric_scooter", "bike_id": "9c4d6306d90b0f9117189ce63a8605b4", "name": "9c4d6306d90b0f9117189ce63a8605b4"}, {"lon": -77.00576833333334, "is_disabled": 0, "lat": 38.90038033333333, "fusion_lat": 0.0, "is_reserved": 0, "rental_uris": {"ios": "https://dc.lft.to/lastmile_qr_scan", "android": "https://dc.lft.to/lastmile_qr_scan"}, "fusion_lon": 0.0, "type": "electric_scooter", "bike_id": "acec31a0f31d5a5e93b27fc036867657", "name": "acec31a0f31d5a5e93b27fc036867657"}, {"lon": -76.99629716666666, "is_disabled": 0, "lat": 38.9053745, "fusion_lat": 0.0, "is_reserved": 0, "rental_uris": {"ios": "https://dc.lft.to/lastmile_qr_scan", "android": "https://dc.lft.to/lastmile_qr_scan"}, "fusion_lon": 0.0, "type": "electric_scooter", "bike_id": "458e63c948ea2d88632f004b3021ab9e", "name": "458e63c948ea2d88632f004b3021ab9e"}, {"lon": -76.9973495, "is_disabled": 0, "lat": 39.04242133333333, "fusion_lat": 0.0, "is_reserved": 0, "rental_uris": {"ios": "https://dc.lft.to/lastmile_qr_scan", "android": "https://dc.lft.to/lastmile_qr_scan"}, "fusion_lon": 0.0, "type": "electric_bike", "bike_id": "a7a3a553b95de2c2c7b42f7d3edf1195", "name": "a7a3a553b95de2c2c7b42f7d3edf1195"}, {"lon": -77.03184216666666, "is_disabled": 0, "lat": 38.91744683333334, "fusion_lat": 0.0, "is_reserved": 0, "rental_uris": {"ios": "https://dc.lft.to/lastmile_qr_scan", "android": "https://dc.lft.to/lastmile_qr_scan"}, "fusion_lon": 0.0, "type": "electric_scooter", "bike_id": "56050e7d66a903481c32369fd3ee6ea2", "name": "56050e7d66a903481c32369fd3ee6ea2"}, {"lon": -77.0178545, "is_disabled": 0, "lat": 38.877138333333335, "fusion_lat": 0.0, "is_reserved": 0, "rental_uris": {"ios": "https://dc.lft.to/lastmile_qr_scan", "android": "https://dc.lft.to/lastmile_qr_scan"}, "fusion_lon": 0.0, "type": "electric_scooter", "bike_id": "10a602fb189787e30b5ef06745d04def", "name": "10a602fb189787e30b5ef06745d04def"}, {"lon": -77.01193983333333, "is_disabled": 0, "lat": 38.91572266666667, "fusion_lat": 0.0, "is_reserved": 0, "rental_uris": {"ios": "https://dc.lft.to/lastmile_qr_scan", "android": "https://dc.lft.to/lastmile_qr_scan"}, "fusion_lon": 0.0, "type": "electric_scooter", "bike_id": "f929d97b84827ca0daa6cce9afc8cc29", "name": "f929d97b84827ca0daa6cce9afc8cc29"}, {"lon": -77.08865733333333, "is_disabled": 0, "lat": 38.91640366666667, "fusion_lat": 0.0, "is_reserved": 0, "rental_uris": {"ios": "https://dc.lft.to/lastmile_qr_scan", "android": "https://dc.lft.to/lastmile_qr_scan"}, "fusion_lon": 0.0, "type": "electric_scooter", "bike_id": "1cd84db1cc911ac5be91f8394c6121b2", "name": "1cd84db1cc911ac5be91f8394c6121b2"}, {"lon": -77.07241083333334, "is_disabled": 0, "lat": 38.93948283333334, "fusion_lat": 0.0, "is_reserved": 0, "rental_uris": {"ios": "https://dc.lft.to/lastmile_qr_scan", "android": "https://dc.lft.to/lastmile_qr_scan"}, "fusion_lon": 0.0, "type": "electric_scooter", "bike_id": "3a2d51b10dcbf312b3789b9e4f6856f1", "name": "3a2d51b10dcbf312b3789b9e4f6856f1"}, {"lon": -77.02883416666667, "is_disabled": 0, "lat": 38.92487033333333, "fusion_lat": 0.0, "is_reserved": 0, "rental_uris": {"ios": "https://dc.lft.to/lastmile_qr_scan", "android": "https://dc.lft.to/lastmile_qr_scan"}, "fusion_lon": 0.0, "type": "electric_scooter", "bike_id": "4b02dda04da1515e8e9f9c60bbefd579", "name": "4b02dda04da1515e8e9f9c60bbefd579"}, {"lon": -77.01729916666666, "is_disabled": 0, "lat": 38.88743066666667, "fusion_lat": 0.0, "is_reserved": 0, "rental_uris": {"ios": "https://dc.lft.to/lastmile_qr_scan", "android": "https://dc.lft.to/lastmile_qr_scan"}, "fusion_lon": 0.0, "type": "electric_scooter", "bike_id": "45ece630cc51ad7c5d2ad833659295de", "name": "45ece630cc51ad7c5d2ad833659295de"}, {"lon": -76.92049433333334, "is_disabled": 0, "lat": 38.8974115, "fusion_lat": 0.0, "is_reserved": 0, "rental_uris": {"ios": "https://dc.lft.to/lastmile_qr_scan", "android": "https://dc.lft.to/lastmile_qr_scan"}, "fusion_lon": 0.0, "type": "electric_bike", "bike_id": "787e56da992e41f95cc2b62908b847f9", "name": "787e56da992e41f95cc2b62908b847f9"}, {"lon": -77.03331333333334, "is_disabled": 0, "lat": 38.9171585, "fusion_lat": 0.0, "is_reserved": 0, "rental_uris": {"ios": "https://dc.lft.to/lastmile_qr_scan", "android": "https://dc.lft.to/lastmile_qr_scan"}, "fusion_lon": 0.0, "type": "electric_scooter", "bike_id": "4ae06625e10baf7be72f4d574a197c60", "name": "4ae06625e10baf7be72f4d574a197c60"}, {"lon": -77.008849, "is_disabled": 0, "lat": 38.90076, "fusion_lat": 0.0, "is_reserved": 0, "rental_uris": {"ios": "https://dc.lft.to/lastmile_qr_scan", "android": "https://dc.lft.to/lastmile_qr_scan"}, "fusion_lon": 0.0, "type": "electric_scooter", "bike_id": "f46dc6cd3c16eb387af13643514c5492", "name": "f46dc6cd3c16eb387af13643514c5492"}, {"lon": -77.03219183333333, "is_disabled": 0, "lat": 38.89982666666667, "fusion_lat": 0.0, "is_reserved": 0, "rental_uris": {"ios": "https://dc.lft.to/lastmile_qr_scan", "android": "https://dc.lft.to/lastmile_qr_scan"}, "fusion_lon": 0.0, "type": "electric_scooter", "bike_id": "d93d17b8f304cfc8045588f75ec83ca0", "name": "d93d17b8f304cfc8045588f75ec83ca0"}, {"lon": -77.0402855, "is_disabled": 0, "lat": 38.917161166666666, "fusion_lat": 0.0, "is_reserved": 0, "rental_uris": {"ios": "https://dc.lft.to/lastmile_qr_scan", "android": "https://dc.lft.to/lastmile_qr_scan"}, "fusion_lon": 0.0, "type": "electric_scooter", "bike_id": "ab510f62d7796aa6ba5f05a1f5de101f", "name": "ab510f62d7796aa6ba5f05a1f5de101f"}, {"lon": -77.02116966666667, "is_disabled": 0, "lat": 38.91741833333333, "fusion_lat": 0.0, "is_reserved": 0, "rental_uris": {"ios": "https://dc.lft.to/lastmile_qr_scan", "android": "https://dc.lft.to/lastmile_qr_scan"}, "fusion_lon": 0.0, "type": "electric_scooter", "bike_id": "a6decff59fd5632355fd1abdd81d50c4", "name": "a6decff59fd5632355fd1abdd81d50c4"}, {"lon": -77.02777116666667, "is_disabled": 0, "lat": 38.89632133333333, "fusion_lat": 0.0, "is_reserved": 0, "rental_uris": {"ios": "https://dc.lft.to/lastmile_qr_scan", "android": "https://dc.lft.to/lastmile_qr_scan"}, "fusion_lon": 0.0, "type": "electric_scooter", "bike_id": "1bc39f8a8e8ce39bfc45896a41669c19", "name": "1bc39f8a8e8ce39bfc45896a41669c19"}, {"lon": -77.00559016666666, "is_disabled": 0, "lat": 38.874718333333334, "fusion_lat": 0.0, "is_reserved": 0, "rental_uris": {"ios": "https://dc.lft.to/lastmile_qr_scan", "android": "https://dc.lft.to/lastmile_qr_scan"}, "fusion_lon": 0.0, "type": "electric_scooter", "bike_id": "4ad007935289fe6801dad88f53eaf10b", "name": "4ad007935289fe6801dad88f53eaf10b"}, {"lon": -77.03522566666666, "is_disabled": 0, "lat": 38.92174283333333, "fusion_lat": 0.0, "is_reserved": 0, "rental_uris": {"ios": "https://dc.lft.to/lastmile_qr_scan", "android": "https://dc.lft.to/lastmile_qr_scan"}, "fusion_lon": 0.0, "type": "electric_scooter", "bike_id": "3673940351ec6590154c105f4b39e7c8", "name": "3673940351ec6590154c105f4b39e7c8"}, {"lon": -77.04120316666666, "is_disabled": 0, "lat": 38.90593483333333, "fusion_lat": 0.0, "is_reserved": 0, "rental_uris": {"ios": "https://dc.lft.to/lastmile_qr_scan", "android": "https://dc.lft.to/lastmile_qr_scan"}, "fusion_lon": 0.0, "type": "electric_scooter", "bike_id": "29f96e79a156655046599290ed7672ea", "name": "29f96e79a156655046599290ed7672ea"}, {"lon": -77.03196183333333, "is_disabled": 0, "lat": 38.89768333333333, "fusion_lat": 0.0, "is_reserved": 0, "rental_uris": {"ios": "https://dc.lft.to/lastmile_qr_scan", "android": "https://dc.lft.to/lastmile_qr_scan"}, "fusion_lon": 0.0, "type": "electric_scooter", "bike_id": "621068563e116c0c782990111b8e6d32", "name": "621068563e116c0c782990111b8e6d32"}, {"lon": -77.033447, "is_disabled": 0, "lat": 38.8924725, "fusion_lat": 0.0, "is_reserved": 0, "rental_uris": {"ios": "https://dc.lft.to/lastmile_qr_scan", "android": "https://dc.lft.to/lastmile_qr_scan"}, "fusion_lon": 0.0, "type": "electric_scooter", "bike_id": "d444b50f5620713c757fe471bb4c91f0", "name": "d444b50f5620713c757fe471bb4c91f0"}, {"lon": -77.03220883333333, "is_disabled": 0, "lat": 38.917128166666664, "fusion_lat": 0.0, "is_reserved": 0, "rental_uris": {"ios": "https://dc.lft.to/lastmile_qr_scan", "android": "https://dc.lft.to/lastmile_qr_scan"}, "fusion_lon": 0.0, "type": "electric_scooter", "bike_id": "254d83296a92b05385ce637ed4959e40", "name": "254d83296a92b05385ce637ed4959e40"}, {"lon": -77.017621, "is_disabled": 0, "lat": 38.8871175, "fusion_lat": 0.0, "is_reserved": 0, "rental_uris": {"ios": "https://dc.lft.to/lastmile_qr_scan", "android": "https://dc.lft.to/lastmile_qr_scan"}, "fusion_lon": 0.0, "type": "electric_scooter", "bike_id": "3143b455a2bc88f3df009dbfaab04f69", "name": "3143b455a2bc88f3df009dbfaab04f69"}, {"lon": -77.05033, "is_disabled": 0, "lat": 38.92365683333333, "fusion_lat": 0.0, "is_reserved": 0, "rental_uris": {"ios": "https://dc.lft.to/lastmile_qr_scan", "android": "https://dc.lft.to/lastmile_qr_scan"}, "fusion_lon": 0.0, "type": "electric_scooter", "bike_id": "0fcdb827562610a1cb23edeac2e6ffd6", "name": "0fcdb827562610a1cb23edeac2e6ffd6"}, {"lon": -77.01211916666666, "is_disabled": 0, "lat": 38.8979435, "fusion_lat": 0.0, "is_reserved": 0, "rental_uris": {"ios": "https://dc.lft.to/lastmile_qr_scan", "android": "https://dc.lft.to/lastmile_qr_scan"}, "fusion_lon": 0.0, "type": "electric_scooter", "bike_id": "4c563b8d0b454a202fb629cc5cedd4a5", "name": "4c563b8d0b454a202fb629cc5cedd4a5"}, {"lon": -77.02443583333333, "is_disabled": 0, "lat": 38.920548833333335, "fusion_lat": 0.0, "is_reserved": 0, "rental_uris": {"ios": "https://dc.lft.to/lastmile_qr_scan", "android": "https://dc.lft.to/lastmile_qr_scan"}, "fusion_lon": 0.0, "type": "electric_scooter", "bike_id": "e75cbd61e049d57a20d4865714bc9bc5", "name": "e75cbd61e049d57a20d4865714bc9bc5"}, {"lon": -77.02173266666667, "is_disabled": 0, "lat": 38.901970166666665, "fusion_lat": 0.0, "is_reserved": 0, "rental_uris": {"ios": "https://dc.lft.to/lastmile_qr_scan", "android": "https://dc.lft.to/lastmile_qr_scan"}, "fusion_lon": 0.0, "type": "electric_scooter", "bike_id": "31aea28571b9ca4c0c9c33891dd250a6", "name": "31aea28571b9ca4c0c9c33891dd250a6"}, {"lon": -77.0420825, "is_disabled": 0, "lat": 38.92322383333333, "fusion_lat": 0.0, "is_reserved": 0, "rental_uris": {"ios": "https://dc.lft.to/lastmile_qr_scan", "android": "https://dc.lft.to/lastmile_qr_scan"}, "fusion_lon": 0.0, "type": "electric_scooter", "bike_id": "caf6c0d6055765ffb64d83d94a312cff", "name": "caf6c0d6055765ffb64d83d94a312cff"}, {"lon": -77.0272065, "is_disabled": 0, "lat": 38.927663, "fusion_lat": 0.0, "is_reserved": 0, "rental_uris": {"ios": "https://dc.lft.to/lastmile_qr_scan", "android": "https://dc.lft.to/lastmile_qr_scan"}, "fusion_lon": 0.0, "type": "electric_scooter", "bike_id": "0f3997fce6de1a15747a745cb662bac0", "name": "0f3997fce6de1a15747a745cb662bac0"}, {"lon": -77.031855, "is_disabled": 0, "lat": 38.89720766666667, "fusion_lat": 0.0, "is_reserved": 0, "rental_uris": {"ios": "https://dc.lft.to/lastmile_qr_scan", "android": "https://dc.lft.to/lastmile_qr_scan"}, "fusion_lon": 0.0, "type": "electric_scooter", "bike_id": "56e9865bab02ea00a7cf7e315af2f594", "name": "56e9865bab02ea00a7cf7e315af2f594"}, {"lon": -77.00587116666667, "is_disabled": 0, "lat": 38.905467333333334, "fusion_lat": 0.0, "is_reserved": 0, "rental_uris": {"ios": "https://dc.lft.to/lastmile_qr_scan", "android": "https://dc.lft.to/lastmile_qr_scan"}, "fusion_lon": 0.0, "type": "electric_scooter", "bike_id": "75da86c182403efd540c60ec83ad313b", "name": "75da86c182403efd540c60ec83ad313b"}, {"lon": -77.03179716666666, "is_disabled": 0, "lat": 38.91423416666667, "fusion_lat": 0.0, "is_reserved": 0, "rental_uris": {"ios": "https://dc.lft.to/lastmile_qr_scan", "android": "https://dc.lft.to/lastmile_qr_scan"}, "fusion_lon": 0.0, "type": "electric_scooter", "bike_id": "7ac5871ae5829b1385d1b6fd81aaa1fe", "name": "7ac5871ae5829b1385d1b6fd81aaa1fe"}, {"lon": -77.0448745, "is_disabled": 0, "lat": 38.896189666666665, "fusion_lat": 0.0, "is_reserved": 0, "rental_uris": {"ios": "https://dc.lft.to/lastmile_qr_scan", "android": "https://dc.lft.to/lastmile_qr_scan"}, "fusion_lon": 0.0, "type": "electric_scooter", "bike_id": "f083f0fbde0ea3e261613e6e751fe4ea", "name": "f083f0fbde0ea3e261613e6e751fe4ea"}, {"lon": -77.02845866666667, "is_disabled": 0, "lat": 38.942688, "fusion_lat": 0.0, "is_reserved": 0, "rental_uris": {"ios": "https://dc.lft.to/lastmile_qr_scan", "android": "https://dc.lft.to/lastmile_qr_scan"}, "fusion_lon": 0.0, "type": "electric_scooter", "bike_id": "e1cd24fb1025a43668c04d6e7993b078", "name": "e1cd24fb1025a43668c04d6e7993b078"}, {"lon": -77.04151183333333, "is_disabled": 0, "lat": 38.907237, "fusion_lat": 0.0, "is_reserved": 0, "rental_uris": {"ios": "https://dc.lft.to/lastmile_qr_scan", "android": "https://dc.lft.to/lastmile_qr_scan"}, "fusion_lon": 0.0, "type": "electric_scooter", "bike_id": "6b387f5437e4a7bbf08ecf0eaf1ae981", "name": "6b387f5437e4a7bbf08ecf0eaf1ae981"}, {"lon": -76.99009483333333, "is_disabled": 0, "lat": 38.86512833333333, "fusion_lat": 0.0, "is_reserved": 0, "rental_uris": {"ios": "https://dc.lft.to/lastmile_qr_scan", "android": "https://dc.lft.to/lastmile_qr_scan"}, "fusion_lon": 0.0, "type": "electric_scooter", "bike_id": "ea6f93ec749072b9ac419d52d70be811", "name": "ea6f93ec749072b9ac419d52d70be811"}, {"lon": -76.98217383333333, "is_disabled": 0, "lat": 38.9089405, "fusion_lat": 0.0, "is_reserved": 0, "rental_uris": {"ios": "https://dc.lft.to/lastmile_qr_scan", "android": "https://dc.lft.to/lastmile_qr_scan"}, "fusion_lon": 0.0, "type": "electric_scooter", "bike_id": "cc9970efcb5262e67e90502abe4bb026", "name": "cc9970efcb5262e67e90502abe4bb026"}, {"lon": -77.03996833333333, "is_disabled": 0, "lat": 38.90605016666667, "fusion_lat": 0.0, "is_reserved": 0, "rental_uris": {"ios": "https://dc.lft.to/lastmile_qr_scan", "android": "https://dc.lft.to/lastmile_qr_scan"}, "fusion_lon": 0.0, "type": "electric_scooter", "bike_id": "407d7555c403faef82a8dcd83973e127", "name": "407d7555c403faef82a8dcd83973e127"}, {"lon": -77.075395, "is_disabled": 0, "lat": 38.908775166666665, "fusion_lat": 0.0, "is_reserved": 0, "rental_uris": {"ios": "https://dc.lft.to/lastmile_qr_scan", "android": "https://dc.lft.to/lastmile_qr_scan"}, "fusion_lon": 0.0, "type": "electric_scooter", "bike_id": "b767a09e1d87ec06ee5fe9b43340169a", "name": "b767a09e1d87ec06ee5fe9b43340169a"}, {"lon": -77.02786733333333, "is_disabled": 0, "lat": 38.92772683333333, "fusion_lat": 0.0, "is_reserved": 0, "rental_uris": {"ios": "https://dc.lft.to/lastmile_qr_scan", "android": "https://dc.lft.to/lastmile_qr_scan"}, "fusion_lon": 0.0, "type": "electric_scooter", "bike_id": "a408bb2732852777d75cef13ce9c4abb", "name": "a408bb2732852777d75cef13ce9c4abb"}, {"lon": -77.03221966666666, "is_disabled": 0, "lat": 38.89223766666667, "fusion_lat": 0.0, "is_reserved": 0, "rental_uris": {"ios": "https://dc.lft.to/lastmile_qr_scan", "android": "https://dc.lft.to/lastmile_qr_scan"}, "fusion_lon": 0.0, "type": "electric_scooter", "bike_id": "ea75cfa8ac1416355285400158b36c67", "name": "ea75cfa8ac1416355285400158b36c67"}, {"lon": -77.032173, "is_disabled": 0, "lat": 38.91700183333333, "fusion_lat": 0.0, "is_reserved": 0, "rental_uris": {"ios": "https://dc.lft.to/lastmile_qr_scan", "android": "https://dc.lft.to/lastmile_qr_scan"}, "fusion_lon": 0.0, "type": "electric_scooter", "bike_id": "f6650b3ecfa03a23099e331c070422b9", "name": "f6650b3ecfa03a23099e331c070422b9"}, {"lon": -76.99576966666666, "is_disabled": 0, "lat": 38.85180233333333, "fusion_lat": 0.0, "is_reserved": 0, "rental_uris": {"ios": "https://dc.lft.to/lastmile_qr_scan", "android": "https://dc.lft.to/lastmile_qr_scan"}, "fusion_lon": 0.0, "type": "electric_scooter", "bike_id": "6f635653a199c6e70bd6a88df2705a79", "name": "6f635653a199c6e70bd6a88df2705a79"}, {"lon": -77.02477366666666, "is_disabled": 0, "lat": 38.880248, "fusion_lat": 0.0, "is_reserved": 0, "rental_uris": {"ios": "https://dc.lft.to/lastmile_qr_scan", "android": "https://dc.lft.to/lastmile_qr_scan"}, "fusion_lon": 0.0, "type": "electric_scooter", "bike_id": "dd6ec083c47a2e46c5626b4a1b0abdd0", "name": "dd6ec083c47a2e46c5626b4a1b0abdd0"}, {"lon": -77.06072383333333, "is_disabled": 0, "lat": 38.906920666666664, "fusion_lat": 0.0, "is_reserved": 0, "rental_uris": {"ios": "https://dc.lft.to/lastmile_qr_scan", "android": "https://dc.lft.to/lastmile_qr_scan"}, "fusion_lon": 0.0, "type": "electric_scooter", "bike_id": "529fcc8e08fd746bd967f65db96a8c82", "name": "529fcc8e08fd746bd967f65db96a8c82"}, {"lon": -77.02594033333334, "is_disabled": 0, "lat": 38.9110655, "fusion_lat": 0.0, "is_reserved": 0, "rental_uris": {"ios": "https://dc.lft.to/lastmile_qr_scan", "android": "https://dc.lft.to/lastmile_qr_scan"}, "fusion_lon": 0.0, "type": "electric_scooter", "bike_id": "59be9cc61763f7c2e0429769b2699af4", "name": "59be9cc61763f7c2e0429769b2699af4"}, {"lon": -77.002438, "is_disabled": 0, "lat": 38.875008333333334, "fusion_lat": 0.0, "is_reserved": 0, "rental_uris": {"ios": "https://dc.lft.to/lastmile_qr_scan", "android": "https://dc.lft.to/lastmile_qr_scan"}, "fusion_lon": 0.0, "type": "electric_scooter", "bike_id": "1b6f1f41749e3569ac65b8a4e7551ff3", "name": "1b6f1f41749e3569ac65b8a4e7551ff3"}, {"lon": -77.11776583333334, "is_disabled": 0, "lat": 38.8316635, "fusion_lat": 0.0, "is_reserved": 0, "rental_uris": {"ios": "https://dc.lft.to/lastmile_qr_scan", "android": "https://dc.lft.to/lastmile_qr_scan"}, "fusion_lon": 0.0, "type": "electric_bike", "bike_id": "23bfb169dd7f1da87c03d97c5ed7bdc3", "name": "23bfb169dd7f1da87c03d97c5ed7bdc3"}, {"lon": -77.022137, "is_disabled": 0, "lat": 38.924721166666664, "fusion_lat": 0.0, "is_reserved": 0, "rental_uris": {"ios": "https://dc.lft.to/lastmile_qr_scan", "android": "https://dc.lft.to/lastmile_qr_scan"}, "fusion_lon": 0.0, "type": "electric_scooter", "bike_id": "5f25c26bb729d5bc927532ea5935dd79", "name": "5f25c26bb729d5bc927532ea5935dd79"}, {"lon": -77.0409755, "is_disabled": 0, "lat": 38.905527, "fusion_lat": 0.0, "is_reserved": 0, "rental_uris": {"ios": "https://dc.lft.to/lastmile_qr_scan", "android": "https://dc.lft.to/lastmile_qr_scan"}, "fusion_lon": 0.0, "type": "electric_scooter", "bike_id": "7a93ef3e426d025033cbec9e724fad27", "name": "7a93ef3e426d025033cbec9e724fad27"}, {"lon": -77.05029966666666, "is_disabled": 0, "lat": 38.892504833333334, "fusion_lat": 0.0, "is_reserved": 0, "rental_uris": {"ios": "https://dc.lft.to/lastmile_qr_scan", "android": "https://dc.lft.to/lastmile_qr_scan"}, "fusion_lon": 0.0, "type": "electric_scooter", "bike_id": "45b9a2f5c27419c7bcb6a79040abc61a", "name": "45b9a2f5c27419c7bcb6a79040abc61a"}, {"lon": -77.03981983333334, "is_disabled": 0, "lat": 38.89223966666667, "fusion_lat": 0.0, "is_reserved": 0, "rental_uris": {"ios": "https://dc.lft.to/lastmile_qr_scan", "android": "https://dc.lft.to/lastmile_qr_scan"}, "fusion_lon": 0.0, "type": "electric_scooter", "bike_id": "62f0f0e44af39285b3ad3e64261f4d87", "name": "62f0f0e44af39285b3ad3e64261f4d87"}, {"lon": -77.00337433333333, "is_disabled": 0, "lat": 38.893572666666664, "fusion_lat": 0.0, "is_reserved": 0, "rental_uris": {"ios": "https://dc.lft.to/lastmile_qr_scan", "android": "https://dc.lft.to/lastmile_qr_scan"}, "fusion_lon": 0.0, "type": "electric_scooter", "bike_id": "0149916fe0550ff67b2130f4a1f1c276", "name": "0149916fe0550ff67b2130f4a1f1c276"}, {"lon": -77.024071, "is_disabled": 0, "lat": 38.90704566666667, "fusion_lat": 0.0, "is_reserved": 0, "rental_uris": {"ios": "https://dc.lft.to/lastmile_qr_scan", "android": "https://dc.lft.to/lastmile_qr_scan"}, "fusion_lon": 0.0, "type": "electric_scooter", "bike_id": "6ed7e4acb053c3ef8767ab8d8e195429", "name": "6ed7e4acb053c3ef8767ab8d8e195429"}, {"lon": -77.04005216666667, "is_disabled": 0, "lat": 38.93429283333333, "fusion_lat": 0.0, "is_reserved": 0, "rental_uris": {"ios": "https://dc.lft.to/lastmile_qr_scan", "android": "https://dc.lft.to/lastmile_qr_scan"}, "fusion_lon": 0.0, "type": "electric_scooter", "bike_id": "a4127f92282fc00e6221dd96744ef20a", "name": "a4127f92282fc00e6221dd96744ef20a"}, {"lon": -77.0219685, "is_disabled": 0, "lat": 38.950090833333334, "fusion_lat": 0.0, "is_reserved": 0, "rental_uris": {"ios": "https://dc.lft.to/lastmile_qr_scan", "android": "https://dc.lft.to/lastmile_qr_scan"}, "fusion_lon": 0.0, "type": "electric_scooter", "bike_id": "eddd38c894a73224d92e01062f7daf81", "name": "eddd38c894a73224d92e01062f7daf81"}, {"lon": -77.04370516666667, "is_disabled": 0, "lat": 38.892253333333336, "fusion_lat": 0.0, "is_reserved": 0, "rental_uris": {"ios": "https://dc.lft.to/lastmile_qr_scan", "android": "https://dc.lft.to/lastmile_qr_scan"}, "fusion_lon": 0.0, "type": "electric_scooter", "bike_id": "4b133e77aa86c281c0a808e0bb686232", "name": "4b133e77aa86c281c0a808e0bb686232"}, {"lon": -77.02101733333333, "is_disabled": 0, "lat": 38.921828, "fusion_lat": 0.0, "is_reserved": 0, "rental_uris": {"ios": "https://dc.lft.to/lastmile_qr_scan", "android": "https://dc.lft.to/lastmile_qr_scan"}, "fusion_lon": 0.0, "type": "electric_scooter", "bike_id": "d9ced5322d2e152ad182a2e457575cf1", "name": "d9ced5322d2e152ad182a2e457575cf1"}, {"lon": -76.97906566666667, "is_disabled": 0, "lat": 38.90431383333333, "fusion_lat": 0.0, "is_reserved": 0, "rental_uris": {"ios": "https://dc.lft.to/lastmile_qr_scan", "android": "https://dc.lft.to/lastmile_qr_scan"}, "fusion_lon": 0.0, "type": "electric_scooter", "bike_id": "50b143ac06ea36c44b728949d061befc", "name": "50b143ac06ea36c44b728949d061befc"}, {"lon": -77.01957566666667, "is_disabled": 0, "lat": 38.898393666666664, "fusion_lat": 0.0, "is_reserved": 0, "rental_uris": {"ios": "https://dc.lft.to/lastmile_qr_scan", "android": "https://dc.lft.to/lastmile_qr_scan"}, "fusion_lon": 0.0, "type": "electric_scooter", "bike_id": "b55060b1f5a0ef27177a1872f2c97bee", "name": "b55060b1f5a0ef27177a1872f2c97bee"}, {"lon": -76.94638316666666, "is_disabled": 0, "lat": 38.898653833333334, "fusion_lat": 0.0, "is_reserved": 0, "rental_uris": {"ios": "https://dc.lft.to/lastmile_qr_scan", "android": "https://dc.lft.to/lastmile_qr_scan"}, "fusion_lon": 0.0, "type": "electric_scooter", "bike_id": "20b53aa98e309d4ffe5f7cd7d456e779", "name": "20b53aa98e309d4ffe5f7cd7d456e779"}, {"lon": -77.0706015, "is_disabled": 0, "lat": 38.90106983333333, "fusion_lat": 0.0, "is_reserved": 0, "rental_uris": {"ios": "https://dc.lft.to/lastmile_qr_scan", "android": "https://dc.lft.to/lastmile_qr_scan"}, "fusion_lon": 0.0, "type": "electric_scooter", "bike_id": "afc7810e280f7ff0592c239dbe967179", "name": "afc7810e280f7ff0592c239dbe967179"}, {"lon": -77.0336955, "is_disabled": 0, "lat": 38.902873666666665, "fusion_lat": 0.0, "is_reserved": 0, "rental_uris": {"ios": "https://dc.lft.to/lastmile_qr_scan", "android": "https://dc.lft.to/lastmile_qr_scan"}, "fusion_lon": 0.0, "type": "electric_scooter", "bike_id": "7241152baa946d62d54b00e4f112a888", "name": "7241152baa946d62d54b00e4f112a888"}, {"lon": -77.03517666666667, "is_disabled": 0, "lat": 38.921743, "fusion_lat": 0.0, "is_reserved": 0, "rental_uris": {"ios": "https://dc.lft.to/lastmile_qr_scan", "android": "https://dc.lft.to/lastmile_qr_scan"}, "fusion_lon": 0.0, "type": "electric_scooter", "bike_id": "32e4834d1fd8f60afbc8fda135e9a252", "name": "32e4834d1fd8f60afbc8fda135e9a252"}, {"lon": -77.04482866666666, "is_disabled": 0, "lat": 38.895228, "fusion_lat": 0.0, "is_reserved": 0, "rental_uris": {"ios": "https://dc.lft.to/lastmile_qr_scan", "android": "https://dc.lft.to/lastmile_qr_scan"}, "fusion_lon": 0.0, "type": "electric_scooter", "bike_id": "fc8f0853e8e026e5d2616d925c2efeea", "name": "fc8f0853e8e026e5d2616d925c2efeea"}, {"lon": -77.02002683333333, "is_disabled": 0, "lat": 38.89548933333333, "fusion_lat": 0.0, "is_reserved": 0, "rental_uris": {"ios": "https://dc.lft.to/lastmile_qr_scan", "android": "https://dc.lft.to/lastmile_qr_scan"}, "fusion_lon": 0.0, "type": "electric_scooter", "bike_id": "0c1f8966a13f40d6fd1b205a2b86ad67", "name": "0c1f8966a13f40d6fd1b205a2b86ad67"}, {"lon": -77.01085966666666, "is_disabled": 0, "lat": 38.9175115, "fusion_lat": 0.0, "is_reserved": 0, "rental_uris": {"ios": "https://dc.lft.to/lastmile_qr_scan", "android": "https://dc.lft.to/lastmile_qr_scan"}, "fusion_lon": 0.0, "type": "electric_scooter", "bike_id": "acd58371d916be05af07a1f867fae60d", "name": "acd58371d916be05af07a1f867fae60d"}, {"lon": -77.02449183333333, "is_disabled": 0, "lat": 38.91891866666667, "fusion_lat": 0.0, "is_reserved": 0, "rental_uris": {"ios": "https://dc.lft.to/lastmile_qr_scan", "android": "https://dc.lft.to/lastmile_qr_scan"}, "fusion_lon": 0.0, "type": "electric_scooter", "bike_id": "05ab2b1ee20bebf44fa2281cfdecb499", "name": "05ab2b1ee20bebf44fa2281cfdecb499"}, {"lon": -76.97398116666666, "is_disabled": 0, "lat": 38.8453425, "fusion_lat": 0.0, "is_reserved": 0, "rental_uris": {"ios": "https://dc.lft.to/lastmile_qr_scan", "android": "https://dc.lft.to/lastmile_qr_scan"}, "fusion_lon": 0.0, "type": "electric_bike", "bike_id": "c043467c1bab8df2007cfd8d4460e5d4", "name": "c043467c1bab8df2007cfd8d4460e5d4"}, {"lon": -77.03641983333333, "is_disabled": 0, "lat": 38.91738383333333, "fusion_lat": 0.0, "is_reserved": 0, "rental_uris": {"ios": "https://dc.lft.to/lastmile_qr_scan", "android": "https://dc.lft.to/lastmile_qr_scan"}, "fusion_lon": 0.0, "type": "electric_scooter", "bike_id": "7a8df7c16bc2ce08b5600dca7de1db80", "name": "7a8df7c16bc2ce08b5600dca7de1db80"}, {"lon": -77.015336, "is_disabled": 0, "lat": 38.88746533333333, "fusion_lat": 0.0, "is_reserved": 0, "rental_uris": {"ios": "https://dc.lft.to/lastmile_qr_scan", "android": "https://dc.lft.to/lastmile_qr_scan"}, "fusion_lon": 0.0, "type": "electric_scooter", "bike_id": "f4b1640cdfbc9940561ba94f3cccf941", "name": "f4b1640cdfbc9940561ba94f3cccf941"}, {"lon": -77.08357033333333, "is_disabled": 0, "lat": 38.9295485, "fusion_lat": 0.0, "is_reserved": 0, "rental_uris": {"ios": "https://dc.lft.to/lastmile_qr_scan", "android": "https://dc.lft.to/lastmile_qr_scan"}, "fusion_lon": 0.0, "type": "electric_scooter", "bike_id": "704b18ff6e507beb49f157adc10c2f4d", "name": "704b18ff6e507beb49f157adc10c2f4d"}, {"lon": -77.02382983333334, "is_disabled": 0, "lat": 38.91294666666667, "fusion_lat": 0.0, "is_reserved": 0, "rental_uris": {"ios": "https://dc.lft.to/lastmile_qr_scan", "android": "https://dc.lft.to/lastmile_qr_scan"}, "fusion_lon": 0.0, "type": "electric_scooter", "bike_id": "ca6a7c283bc2e94a9ded8b4766aaeec3", "name": "ca6a7c283bc2e94a9ded8b4766aaeec3"}, {"lon": -77.0318155, "is_disabled": 0, "lat": 38.90879316666667, "fusion_lat": 0.0, "is_reserved": 0, "rental_uris": {"ios": "https://dc.lft.to/lastmile_qr_scan", "android": "https://dc.lft.to/lastmile_qr_scan"}, "fusion_lon": 0.0, "type": "electric_scooter", "bike_id": "d147bf15ed9a7170b9ca0f1535357331", "name": "d147bf15ed9a7170b9ca0f1535357331"}, {"lon": -77.04044, "is_disabled": 0, "lat": 38.91763533333334, "fusion_lat": 0.0, "is_reserved": 0, "rental_uris": {"ios": "https://dc.lft.to/lastmile_qr_scan", "android": "https://dc.lft.to/lastmile_qr_scan"}, "fusion_lon": 0.0, "type": "electric_scooter", "bike_id": "5f64c50d2ac218a9da3451fb344a1030", "name": "5f64c50d2ac218a9da3451fb344a1030"}, {"lon": -77.046816, "is_disabled": 0, "lat": 38.89460533333333, "fusion_lat": 0.0, "is_reserved": 0, "rental_uris": {"ios": "https://dc.lft.to/lastmile_qr_scan", "android": "https://dc.lft.to/lastmile_qr_scan"}, "fusion_lon": 0.0, "type": "electric_scooter", "bike_id": "c410e29daabf312711684dc2f66f51b8", "name": "c410e29daabf312711684dc2f66f51b8"}, {"lon": -77.03234216666667, "is_disabled": 0, "lat": 38.91717833333333, "fusion_lat": 0.0, "is_reserved": 0, "rental_uris": {"ios": "https://dc.lft.to/lastmile_qr_scan", "android": "https://dc.lft.to/lastmile_qr_scan"}, "fusion_lon": 0.0, "type": "electric_scooter", "bike_id": "78e8fa5e712fe508662cd2f165b76752", "name": "78e8fa5e712fe508662cd2f165b76752"}, {"lon": -77.00461033333333, "is_disabled": 0, "lat": 38.87662816666667, "fusion_lat": 0.0, "is_reserved": 0, "rental_uris": {"ios": "https://dc.lft.to/lastmile_qr_scan", "android": "https://dc.lft.to/lastmile_qr_scan"}, "fusion_lon": 0.0, "type": "electric_scooter", "bike_id": "012f62f8b7a4e82630120f00f62c2ef2", "name": "012f62f8b7a4e82630120f00f62c2ef2"}, {"lon": -77.03466166666666, "is_disabled": 0, "lat": 38.9043345, "fusion_lat": 0.0, "is_reserved": 0, "rental_uris": {"ios": "https://dc.lft.to/lastmile_qr_scan", "android": "https://dc.lft.to/lastmile_qr_scan"}, "fusion_lon": 0.0, "type": "electric_scooter", "bike_id": "20a56748b1248a900e2b3cfbba97d5a9", "name": "20a56748b1248a900e2b3cfbba97d5a9"}, {"lon": -77.041432, "is_disabled": 0, "lat": 38.9168965, "fusion_lat": 0.0, "is_reserved": 0, "rental_uris": {"ios": "https://dc.lft.to/lastmile_qr_scan", "android": "https://dc.lft.to/lastmile_qr_scan"}, "fusion_lon": 0.0, "type": "electric_scooter", "bike_id": "2770b9e7d5c829310a4e019e2960a6c5", "name": "2770b9e7d5c829310a4e019e2960a6c5"}, {"lon": -77.02409733333333, "is_disabled": 0, "lat": 38.9114995, "fusion_lat": 0.0, "is_reserved": 0, "rental_uris": {"ios": "https://dc.lft.to/lastmile_qr_scan", "android": "https://dc.lft.to/lastmile_qr_scan"}, "fusion_lon": 0.0, "type": "electric_scooter", "bike_id": "2d2b991e3ed4155064507d4e080ec972", "name": "2d2b991e3ed4155064507d4e080ec972"}, {"lon": -77.00339066666666, "is_disabled": 0, "lat": 38.89359433333333, "fusion_lat": 0.0, "is_reserved": 0, "rental_uris": {"ios": "https://dc.lft.to/lastmile_qr_scan", "android": "https://dc.lft.to/lastmile_qr_scan"}, "fusion_lon": 0.0, "type": "electric_scooter", "bike_id": "9f0db80e6434c2498c918012a2a64219", "name": "9f0db80e6434c2498c918012a2a64219"}, {"lon": -77.02390883333334, "is_disabled": 0, "lat": 38.898753, "fusion_lat": 0.0, "is_reserved": 0, "rental_uris": {"ios": "https://dc.lft.to/lastmile_qr_scan", "android": "https://dc.lft.to/lastmile_qr_scan"}, "fusion_lon": 0.0, "type": "electric_scooter", "bike_id": "35cf58fa2edb2f870dce6617789daa1a", "name": "35cf58fa2edb2f870dce6617789daa1a"}, {"lon": -77.072696, "is_disabled": 0, "lat": 38.934815666666665, "fusion_lat": 0.0, "is_reserved": 0, "rental_uris": {"ios": "https://dc.lft.to/lastmile_qr_scan", "android": "https://dc.lft.to/lastmile_qr_scan"}, "fusion_lon": 0.0, "type": "electric_scooter", "bike_id": "357de589abfa009bfed9864067d832a7", "name": "357de589abfa009bfed9864067d832a7"}, {"lon": -76.98236733333333, "is_disabled": 0, "lat": 38.90895583333333, "fusion_lat": 0.0, "is_reserved": 0, "rental_uris": {"ios": "https://dc.lft.to/lastmile_qr_scan", "android": "https://dc.lft.to/lastmile_qr_scan"}, "fusion_lon": 0.0, "type": "electric_scooter", "bike_id": "86b5995fadb07bd8813a07632f937585", "name": "86b5995fadb07bd8813a07632f937585"}, {"lon": -77.03834866666666, "is_disabled": 0, "lat": 38.91117233333333, "fusion_lat": 0.0, "is_reserved": 0, "rental_uris": {"ios": "https://dc.lft.to/lastmile_qr_scan", "android": "https://dc.lft.to/lastmile_qr_scan"}, "fusion_lon": 0.0, "type": "electric_scooter", "bike_id": "6c722c833a0c03596f512ff1d59a2609", "name": "6c722c833a0c03596f512ff1d59a2609"}, {"lon": -77.02769766666667, "is_disabled": 0, "lat": 38.91694283333333, "fusion_lat": 0.0, "is_reserved": 0, "rental_uris": {"ios": "https://dc.lft.to/lastmile_qr_scan", "android": "https://dc.lft.to/lastmile_qr_scan"}, "fusion_lon": 0.0, "type": "electric_scooter", "bike_id": "f593623487f2f7f9660ab30bbfb60589", "name": "f593623487f2f7f9660ab30bbfb60589"}, {"lon": -77.0071605, "is_disabled": 0, "lat": 38.88492166666666, "fusion_lat": 0.0, "is_reserved": 0, "rental_uris": {"ios": "https://dc.lft.to/lastmile_qr_scan", "android": "https://dc.lft.to/lastmile_qr_scan"}, "fusion_lon": 0.0, "type": "electric_scooter", "bike_id": "9c83d38a826ed955716b5fda3000f95c", "name": "9c83d38a826ed955716b5fda3000f95c"}, {"lon": -77.02405783333333, "is_disabled": 0, "lat": 38.914076, "fusion_lat": 0.0, "is_reserved": 0, "rental_uris": {"ios": "https://dc.lft.to/lastmile_qr_scan", "android": "https://dc.lft.to/lastmile_qr_scan"}, "fusion_lon": 0.0, "type": "electric_scooter", "bike_id": "c13e7b975dc58b4d41def4eb2c90fc09", "name": "c13e7b975dc58b4d41def4eb2c90fc09"}, {"lon": -77.03910283333333, "is_disabled": 0, "lat": 38.90185866666667, "fusion_lat": 0.0, "is_reserved": 0, "rental_uris": {"ios": "https://dc.lft.to/lastmile_qr_scan", "android": "https://dc.lft.to/lastmile_qr_scan"}, "fusion_lon": 0.0, "type": "electric_bike", "bike_id": "c7dc9e8242cfb31b5478a2ef565b3283", "name": "c7dc9e8242cfb31b5478a2ef565b3283"}, {"lon": -77.00627033333333, "is_disabled": 0, "lat": 38.8718025, "fusion_lat": 0.0, "is_reserved": 0, "rental_uris": {"ios": "https://dc.lft.to/lastmile_qr_scan", "android": "https://dc.lft.to/lastmile_qr_scan"}, "fusion_lon": 0.0, "type": "electric_scooter", "bike_id": "ba23ba84d3f98c5611aac85456e448e6", "name": "ba23ba84d3f98c5611aac85456e448e6"}, {"lon": -77.05095216666666, "is_disabled": 0, "lat": 38.9234445, "fusion_lat": 0.0, "is_reserved": 0, "rental_uris": {"ios": "https://dc.lft.to/lastmile_qr_scan", "android": "https://dc.lft.to/lastmile_qr_scan"}, "fusion_lon": 0.0, "type": "electric_scooter", "bike_id": "66a40e7bf3642d8a51ebf55e23fc7955", "name": "66a40e7bf3642d8a51ebf55e23fc7955"}, {"lon": -77.031747, "is_disabled": 0, "lat": 38.91421183333333, "fusion_lat": 0.0, "is_reserved": 0, "rental_uris": {"ios": "https://dc.lft.to/lastmile_qr_scan", "android": "https://dc.lft.to/lastmile_qr_scan"}, "fusion_lon": 0.0, "type": "electric_scooter", "bike_id": "a056951632798747749c8ea375f1ff62", "name": "a056951632798747749c8ea375f1ff62"}, {"lon": -76.95188066666667, "is_disabled": 0, "lat": 38.891313333333336, "fusion_lat": 0.0, "is_reserved": 0, "rental_uris": {"ios": "https://dc.lft.to/lastmile_qr_scan", "android": "https://dc.lft.to/lastmile_qr_scan"}, "fusion_lon": 0.0, "type": "electric_scooter", "bike_id": "5afd9e8b8b3e6f52b832a5fe6bb2f57a", "name": "5afd9e8b8b3e6f52b832a5fe6bb2f57a"}, {"lon": -77.00915733333333, "is_disabled": 0, "lat": 38.89649766666667, "fusion_lat": 0.0, "is_reserved": 0, "rental_uris": {"ios": "https://dc.lft.to/lastmile_qr_scan", "android": "https://dc.lft.to/lastmile_qr_scan"}, "fusion_lon": 0.0, "type": "electric_scooter", "bike_id": "f2da2225e0bcf157a0f32a55eca203e7", "name": "f2da2225e0bcf157a0f32a55eca203e7"}, {"lon": -77.02963766666667, "is_disabled": 0, "lat": 38.92259333333333, "fusion_lat": 0.0, "is_reserved": 0, "rental_uris": {"ios": "https://dc.lft.to/lastmile_qr_scan", "android": "https://dc.lft.to/lastmile_qr_scan"}, "fusion_lon": 0.0, "type": "electric_scooter", "bike_id": "18aebefabd07336277c6ceb09211e1ac", "name": "18aebefabd07336277c6ceb09211e1ac"}, {"lon": -77.0429485, "is_disabled": 0, "lat": 38.90671666666667, "fusion_lat": 0.0, "is_reserved": 0, "rental_uris": {"ios": "https://dc.lft.to/lastmile_qr_scan", "android": "https://dc.lft.to/lastmile_qr_scan"}, "fusion_lon": 0.0, "type": "electric_scooter", "bike_id": "e4aaa45fe1c23615b716308c62ecd272", "name": "e4aaa45fe1c23615b716308c62ecd272"}, {"lon": -77.00067133333333, "is_disabled": 0, "lat": 38.87693483333334, "fusion_lat": 0.0, "is_reserved": 0, "rental_uris": {"ios": "https://dc.lft.to/lastmile_qr_scan", "android": "https://dc.lft.to/lastmile_qr_scan"}, "fusion_lon": 0.0, "type": "electric_scooter", "bike_id": "1ee65ce1b46ca6bc8d1cb8cfc4098322", "name": "1ee65ce1b46ca6bc8d1cb8cfc4098322"}, {"lon": -77.033883, "is_disabled": 0, "lat": 38.921589833333336, "fusion_lat": 0.0, "is_reserved": 0, "rental_uris": {"ios": "https://dc.lft.to/lastmile_qr_scan", "android": "https://dc.lft.to/lastmile_qr_scan"}, "fusion_lon": 0.0, "type": "electric_scooter", "bike_id": "72b6722fd40b765af480d537c85dc699", "name": "72b6722fd40b765af480d537c85dc699"}, {"lon": -76.99449633333333, "is_disabled": 0, "lat": 38.921852333333334, "fusion_lat": 0.0, "is_reserved": 0, "rental_uris": {"ios": "https://dc.lft.to/lastmile_qr_scan", "android": "https://dc.lft.to/lastmile_qr_scan"}, "fusion_lon": 0.0, "type": "electric_scooter", "bike_id": "d852faad5311c651fae266721e107f33", "name": "d852faad5311c651fae266721e107f33"}, {"lon": -77.01888216666667, "is_disabled": 0, "lat": 38.939922333333335, "fusion_lat": 0.0, "is_reserved": 0, "rental_uris": {"ios": "https://dc.lft.to/lastmile_qr_scan", "android": "https://dc.lft.to/lastmile_qr_scan"}, "fusion_lon": 0.0, "type": "electric_scooter", "bike_id": "fd4ddf5bfb46dad92e289b4d6ba09542", "name": "fd4ddf5bfb46dad92e289b4d6ba09542"}, {"lon": -77.04451866666666, "is_disabled": 0, "lat": 38.89730733333333, "fusion_lat": 0.0, "is_reserved": 0, "rental_uris": {"ios": "https://dc.lft.to/lastmile_qr_scan", "android": "https://dc.lft.to/lastmile_qr_scan"}, "fusion_lon": 0.0, "type": "electric_scooter", "bike_id": "f1ae55ae66b91d83754930216f869641", "name": "f1ae55ae66b91d83754930216f869641"}, {"lon": -77.04509883333333, "is_disabled": 0, "lat": 38.9036845, "fusion_lat": 0.0, "is_reserved": 0, "rental_uris": {"ios": "https://dc.lft.to/lastmile_qr_scan", "android": "https://dc.lft.to/lastmile_qr_scan"}, "fusion_lon": 0.0, "type": "electric_scooter", "bike_id": "f57f90b541af547de3e728c5536539df", "name": "f57f90b541af547de3e728c5536539df"}, {"lon": -77.0317205, "is_disabled": 0, "lat": 38.900815, "fusion_lat": 0.0, "is_reserved": 0, "rental_uris": {"ios": "https://dc.lft.to/lastmile_qr_scan", "android": "https://dc.lft.to/lastmile_qr_scan"}, "fusion_lon": 0.0, "type": "electric_scooter", "bike_id": "86871ec7799c45d2a4dc10fd5d73bd9a", "name": "86871ec7799c45d2a4dc10fd5d73bd9a"}, {"lon": -77.0223, "is_disabled": 0, "lat": 38.905604833333335, "fusion_lat": 0.0, "is_reserved": 0, "rental_uris": {"ios": "https://dc.lft.to/lastmile_qr_scan", "android": "https://dc.lft.to/lastmile_qr_scan"}, "fusion_lon": 0.0, "type": "electric_scooter", "bike_id": "fcc306a354e2190412dacf4df4232700", "name": "fcc306a354e2190412dacf4df4232700"}, {"lon": -77.03436, "is_disabled": 0, "lat": 38.919186333333336, "fusion_lat": 0.0, "is_reserved": 0, "rental_uris": {"ios": "https://dc.lft.to/lastmile_qr_scan", "android": "https://dc.lft.to/lastmile_qr_scan"}, "fusion_lon": 0.0, "type": "electric_scooter", "bike_id": "282e4c48655656d899ff697efcb7c078", "name": "282e4c48655656d899ff697efcb7c078"}, {"lon": -76.9788215, "is_disabled": 0, "lat": 38.90196683333333, "fusion_lat": 0.0, "is_reserved": 0, "rental_uris": {"ios": "https://dc.lft.to/lastmile_qr_scan", "android": "https://dc.lft.to/lastmile_qr_scan"}, "fusion_lon": 0.0, "type": "electric_scooter", "bike_id": "119641b84d419960d1f6fd3da5e5d9e0", "name": "119641b84d419960d1f6fd3da5e5d9e0"}, {"lon": -77.02725233333334, "is_disabled": 0, "lat": 38.8967095, "fusion_lat": 0.0, "is_reserved": 0, "rental_uris": {"ios": "https://dc.lft.to/lastmile_qr_scan", "android": "https://dc.lft.to/lastmile_qr_scan"}, "fusion_lon": 0.0, "type": "electric_scooter", "bike_id": "fe84416978f7083027159d74f23dcfdd", "name": "fe84416978f7083027159d74f23dcfdd"}, {"lon": -77.03208166666667, "is_disabled": 0, "lat": 38.9120735, "fusion_lat": 0.0, "is_reserved": 0, "rental_uris": {"ios": "https://dc.lft.to/lastmile_qr_scan", "android": "https://dc.lft.to/lastmile_qr_scan"}, "fusion_lon": 0.0, "type": "electric_scooter", "bike_id": "5ce6348b156c76cbc78899d6735a2665", "name": "5ce6348b156c76cbc78899d6735a2665"}, {"lon": -77.03550266666667, "is_disabled": 0, "lat": 38.90827633333333, "fusion_lat": 0.0, "is_reserved": 0, "rental_uris": {"ios": "https://dc.lft.to/lastmile_qr_scan", "android": "https://dc.lft.to/lastmile_qr_scan"}, "fusion_lon": 0.0, "type": "electric_scooter", "bike_id": "87a8ecf73bb3d58516f4de586a6ee91a", "name": "87a8ecf73bb3d58516f4de586a6ee91a"}, {"lon": -77.02243433333334, "is_disabled": 0, "lat": 38.891965, "fusion_lat": 0.0, "is_reserved": 0, "rental_uris": {"ios": "https://dc.lft.to/lastmile_qr_scan", "android": "https://dc.lft.to/lastmile_qr_scan"}, "fusion_lon": 0.0, "type": "electric_scooter", "bike_id": "528e43bec785fea6a07a7c8345d4e5d0", "name": "528e43bec785fea6a07a7c8345d4e5d0"}, {"lon": -76.99399883333334, "is_disabled": 0, "lat": 38.910122, "fusion_lat": 0.0, "is_reserved": 0, "rental_uris": {"ios": "https://dc.lft.to/lastmile_qr_scan", "android": "https://dc.lft.to/lastmile_qr_scan"}, "fusion_lon": 0.0, "type": "electric_scooter", "bike_id": "5372a19984dd37bbdc3d40ec9c2d9b89", "name": "5372a19984dd37bbdc3d40ec9c2d9b89"}, {"lon": -76.98115066666666, "is_disabled": 0, "lat": 38.91474816666667, "fusion_lat": 0.0, "is_reserved": 0, "rental_uris": {"ios": "https://dc.lft.to/lastmile_qr_scan", "android": "https://dc.lft.to/lastmile_qr_scan"}, "fusion_lon": 0.0, "type": "electric_scooter", "bike_id": "f4affe4eedcd200805c77b62778bab9f", "name": "f4affe4eedcd200805c77b62778bab9f"}, {"lon": -77.0134885, "is_disabled": 0, "lat": 38.919145, "fusion_lat": 0.0, "is_reserved": 0, "rental_uris": {"ios": "https://dc.lft.to/lastmile_qr_scan", "android": "https://dc.lft.to/lastmile_qr_scan"}, "fusion_lon": 0.0, "type": "electric_scooter", "bike_id": "b254188497f3fe9fac515cc65a81ba26", "name": "b254188497f3fe9fac515cc65a81ba26"}, {"lon": -77.04340183333333, "is_disabled": 0, "lat": 38.90602633333334, "fusion_lat": 0.0, "is_reserved": 0, "rental_uris": {"ios": "https://dc.lft.to/lastmile_qr_scan", "android": "https://dc.lft.to/lastmile_qr_scan"}, "fusion_lon": 0.0, "type": "electric_scooter", "bike_id": "3d594cc77fe360195751357fc4095561", "name": "3d594cc77fe360195751357fc4095561"}, {"lon": -77.03847733333333, "is_disabled": 0, "lat": 38.909813166666666, "fusion_lat": 0.0, "is_reserved": 0, "rental_uris": {"ios": "https://dc.lft.to/lastmile_qr_scan", "android": "https://dc.lft.to/lastmile_qr_scan"}, "fusion_lon": 0.0, "type": "electric_scooter", "bike_id": "8256299005565f62348b3a3cb987b95e", "name": "8256299005565f62348b3a3cb987b95e"}, {"lon": -77.02633883333333, "is_disabled": 0, "lat": 38.896593, "fusion_lat": 0.0, "is_reserved": 0, "rental_uris": {"ios": "https://dc.lft.to/lastmile_qr_scan", "android": "https://dc.lft.to/lastmile_qr_scan"}, "fusion_lon": 0.0, "type": "electric_scooter", "bike_id": "4ca7eeb4aa9acbd1772f8e62dfc2383d", "name": "4ca7eeb4aa9acbd1772f8e62dfc2383d"}, {"lon": -76.9970045, "is_disabled": 0, "lat": 38.90796666666667, "fusion_lat": 0.0, "is_reserved": 0, "rental_uris": {"ios": "https://dc.lft.to/lastmile_qr_scan", "android": "https://dc.lft.to/lastmile_qr_scan"}, "fusion_lon": 0.0, "type": "electric_scooter", "bike_id": "a11d19572f83c0737badae408ddcdf1c", "name": "a11d19572f83c0737badae408ddcdf1c"}, {"lon": -77.0466885, "is_disabled": 0, "lat": 38.90400283333334, "fusion_lat": 0.0, "is_reserved": 0, "rental_uris": {"ios": "https://dc.lft.to/lastmile_qr_scan", "android": "https://dc.lft.to/lastmile_qr_scan"}, "fusion_lon": 0.0, "type": "electric_scooter", "bike_id": "2ff399b7ef18b09b24404982335e8e0d", "name": "2ff399b7ef18b09b24404982335e8e0d"}, {"lon": -77.04271216666666, "is_disabled": 0, "lat": 38.92555683333333, "fusion_lat": 0.0, "is_reserved": 0, "rental_uris": {"ios": "https://dc.lft.to/lastmile_qr_scan", "android": "https://dc.lft.to/lastmile_qr_scan"}, "fusion_lon": 0.0, "type": "electric_scooter", "bike_id": "25ef5e141cb11e1035423710247064e5", "name": "25ef5e141cb11e1035423710247064e5"}, {"lon": -77.04177616666666, "is_disabled": 0, "lat": 38.901599833333336, "fusion_lat": 0.0, "is_reserved": 0, "rental_uris": {"ios": "https://dc.lft.to/lastmile_qr_scan", "android": "https://dc.lft.to/lastmile_qr_scan"}, "fusion_lon": 0.0, "type": "electric_scooter", "bike_id": "569a63a9ad58be7c976c06c36075a014", "name": "569a63a9ad58be7c976c06c36075a014"}, {"lon": -76.965277, "is_disabled": 0, "lat": 38.87631866666667, "fusion_lat": 0.0, "is_reserved": 0, "rental_uris": {"ios": "https://dc.lft.to/lastmile_qr_scan", "android": "https://dc.lft.to/lastmile_qr_scan"}, "fusion_lon": 0.0, "type": "electric_scooter", "bike_id": "8d951c6cb5794e07e501ef9d5ee0512c", "name": "8d951c6cb5794e07e501ef9d5ee0512c"}, {"lon": -77.00825333333333, "is_disabled": 0, "lat": 38.876775, "fusion_lat": 0.0, "is_reserved": 0, "rental_uris": {"ios": "https://dc.lft.to/lastmile_qr_scan", "android": "https://dc.lft.to/lastmile_qr_scan"}, "fusion_lon": 0.0, "type": "electric_scooter", "bike_id": "b0ad8384b544053beecf0b5ccee0d475", "name": "b0ad8384b544053beecf0b5ccee0d475"}, {"lon": -77.0409565, "is_disabled": 0, "lat": 38.9173335, "fusion_lat": 0.0, "is_reserved": 0, "rental_uris": {"ios": "https://dc.lft.to/lastmile_qr_scan", "android": "https://dc.lft.to/lastmile_qr_scan"}, "fusion_lon": 0.0, "type": "electric_scooter", "bike_id": "c0f2f83b5cc2c03e1f0fb14643847042", "name": "c0f2f83b5cc2c03e1f0fb14643847042"}, {"lon": -77.022022, "is_disabled": 0, "lat": 38.91129266666667, "fusion_lat": 0.0, "is_reserved": 0, "rental_uris": {"ios": "https://dc.lft.to/lastmile_qr_scan", "android": "https://dc.lft.to/lastmile_qr_scan"}, "fusion_lon": 0.0, "type": "electric_scooter", "bike_id": "22e16149f2f646605cfa8d154d707261", "name": "22e16149f2f646605cfa8d154d707261"}, {"lon": -77.019048, "is_disabled": 0, "lat": 38.91727983333333, "fusion_lat": 0.0, "is_reserved": 0, "rental_uris": {"ios": "https://dc.lft.to/lastmile_qr_scan", "android": "https://dc.lft.to/lastmile_qr_scan"}, "fusion_lon": 0.0, "type": "electric_scooter", "bike_id": "0a649b634a5a53ab1618bf5fb35de219", "name": "0a649b634a5a53ab1618bf5fb35de219"}, {"lon": -77.02815083333333, "is_disabled": 0, "lat": 38.89999616666667, "fusion_lat": 0.0, "is_reserved": 0, "rental_uris": {"ios": "https://dc.lft.to/lastmile_qr_scan", "android": "https://dc.lft.to/lastmile_qr_scan"}, "fusion_lon": 0.0, "type": "electric_scooter", "bike_id": "8972f5119fbbdb0c657466516871cde8", "name": "8972f5119fbbdb0c657466516871cde8"}, {"lon": -77.01211666666667, "is_disabled": 0, "lat": 38.87476266666667, "fusion_lat": 0.0, "is_reserved": 0, "rental_uris": {"ios": "https://dc.lft.to/lastmile_qr_scan", "android": "https://dc.lft.to/lastmile_qr_scan"}, "fusion_lon": 0.0, "type": "electric_scooter", "bike_id": "9357ac6c29f0fbd8adee13327953c59b", "name": "9357ac6c29f0fbd8adee13327953c59b"}, {"lon": -77.0414225, "is_disabled": 0, "lat": 38.90741416666667, "fusion_lat": 0.0, "is_reserved": 0, "rental_uris": {"ios": "https://dc.lft.to/lastmile_qr_scan", "android": "https://dc.lft.to/lastmile_qr_scan"}, "fusion_lon": 0.0, "type": "electric_scooter", "bike_id": "92e6a95d72ea10799164710f0646d97b", "name": "92e6a95d72ea10799164710f0646d97b"}, {"lon": -77.02210166666667, "is_disabled": 0, "lat": 38.895356666666665, "fusion_lat": 0.0, "is_reserved": 0, "rental_uris": {"ios": "https://dc.lft.to/lastmile_qr_scan", "android": "https://dc.lft.to/lastmile_qr_scan"}, "fusion_lon": 0.0, "type": "electric_scooter", "bike_id": "776e3a39209c20d5aaaadf6355836226", "name": "776e3a39209c20d5aaaadf6355836226"}, {"lon": -77.02044483333333, "is_disabled": 0, "lat": 38.920942333333336, "fusion_lat": 0.0, "is_reserved": 0, "rental_uris": {"ios": "https://dc.lft.to/lastmile_qr_scan", "android": "https://dc.lft.to/lastmile_qr_scan"}, "fusion_lon": 0.0, "type": "electric_scooter", "bike_id": "80c327c4fe043de7d6155761b686cd0a", "name": "80c327c4fe043de7d6155761b686cd0a"}, {"lon": -77.03735683333333, "is_disabled": 0, "lat": 38.926626666666664, "fusion_lat": 0.0, "is_reserved": 0, "rental_uris": {"ios": "https://dc.lft.to/lastmile_qr_scan", "android": "https://dc.lft.to/lastmile_qr_scan"}, "fusion_lon": 0.0, "type": "electric_scooter", "bike_id": "c0f21b85f1ac59ce6c98daa68f816c25", "name": "c0f21b85f1ac59ce6c98daa68f816c25"}, {"lon": -77.028201, "is_disabled": 0, "lat": 38.902656666666665, "fusion_lat": 0.0, "is_reserved": 0, "rental_uris": {"ios": "https://dc.lft.to/lastmile_qr_scan", "android": "https://dc.lft.to/lastmile_qr_scan"}, "fusion_lon": 0.0, "type": "electric_scooter", "bike_id": "24b5d3a0523995dc27f0bf30e5dd936b", "name": "24b5d3a0523995dc27f0bf30e5dd936b"}, {"lon": -77.016931, "is_disabled": 0, "lat": 38.974978666666665, "fusion_lat": 0.0, "is_reserved": 0, "rental_uris": {"ios": "https://dc.lft.to/lastmile_qr_scan", "android": "https://dc.lft.to/lastmile_qr_scan"}, "fusion_lon": 0.0, "type": "electric_scooter", "bike_id": "9057b18a8287bc3624f4331eda5af041", "name": "9057b18a8287bc3624f4331eda5af041"}, {"lon": -77.02698183333334, "is_disabled": 0, "lat": 38.90951316666667, "fusion_lat": 0.0, "is_reserved": 0, "rental_uris": {"ios": "https://dc.lft.to/lastmile_qr_scan", "android": "https://dc.lft.to/lastmile_qr_scan"}, "fusion_lon": 0.0, "type": "electric_scooter", "bike_id": "76719b646c011f3593e12af97cc82907", "name": "76719b646c011f3593e12af97cc82907"}, {"lon": -77.02837366666667, "is_disabled": 0, "lat": 38.893742333333336, "fusion_lat": 0.0, "is_reserved": 0, "rental_uris": {"ios": "https://dc.lft.to/lastmile_qr_scan", "android": "https://dc.lft.to/lastmile_qr_scan"}, "fusion_lon": 0.0, "type": "electric_scooter", "bike_id": "7301474290f9c2d5973c790eec91b1ea", "name": "7301474290f9c2d5973c790eec91b1ea"}, {"lon": -77.11791883333333, "is_disabled": 0, "lat": 39.0550055, "fusion_lat": 0.0, "is_reserved": 0, "rental_uris": {"ios": "https://dc.lft.to/lastmile_qr_scan", "android": "https://dc.lft.to/lastmile_qr_scan"}, "fusion_lon": 0.0, "type": "electric_bike", "bike_id": "4d57d44921ebbd9c84002b3cf5abaf07", "name": "4d57d44921ebbd9c84002b3cf5abaf07"}, {"lon": -77.00611383333333, "is_disabled": 0, "lat": 38.8718455, "fusion_lat": 0.0, "is_reserved": 0, "rental_uris": {"ios": "https://dc.lft.to/lastmile_qr_scan", "android": "https://dc.lft.to/lastmile_qr_scan"}, "fusion_lon": 0.0, "type": "electric_scooter", "bike_id": "f315cb8dcefab497f534c51f794408bb", "name": "f315cb8dcefab497f534c51f794408bb"}, {"lon": -77.02296983333333, "is_disabled": 0, "lat": 38.89706433333333, "fusion_lat": 0.0, "is_reserved": 0, "rental_uris": {"ios": "https://dc.lft.to/lastmile_qr_scan", "android": "https://dc.lft.to/lastmile_qr_scan"}, "fusion_lon": 0.0, "type": "electric_scooter", "bike_id": "739fb47f87fde1d82d62dd7df0c7d80b", "name": "739fb47f87fde1d82d62dd7df0c7d80b"}, {"lon": -77.04772, "is_disabled": 0, "lat": 38.91760466666667, "fusion_lat": 0.0, "is_reserved": 0, "rental_uris": {"ios": "https://dc.lft.to/lastmile_qr_scan", "android": "https://dc.lft.to/lastmile_qr_scan"}, "fusion_lon": 0.0, "type": "electric_scooter", "bike_id": "861c83706683cd8695e3b88618aca831", "name": "861c83706683cd8695e3b88618aca831"}, {"lon": -77.01364966666667, "is_disabled": 0, "lat": 38.88644566666667, "fusion_lat": 0.0, "is_reserved": 0, "rental_uris": {"ios": "https://dc.lft.to/lastmile_qr_scan", "android": "https://dc.lft.to/lastmile_qr_scan"}, "fusion_lon": 0.0, "type": "electric_scooter", "bike_id": "68094f193ffc92d2c37f7e632c290493", "name": "68094f193ffc92d2c37f7e632c290493"}, {"lon": -77.00359783333333, "is_disabled": 0, "lat": 38.90604166666667, "fusion_lat": 0.0, "is_reserved": 0, "rental_uris": {"ios": "https://dc.lft.to/lastmile_qr_scan", "android": "https://dc.lft.to/lastmile_qr_scan"}, "fusion_lon": 0.0, "type": "electric_scooter", "bike_id": "c8c7b6eb1f2b7c45080f2bf408b74df9", "name": "c8c7b6eb1f2b7c45080f2bf408b74df9"}, {"lon": -77.02365866666666, "is_disabled": 0, "lat": 38.902403166666666, "fusion_lat": 0.0, "is_reserved": 0, "rental_uris": {"ios": "https://dc.lft.to/lastmile_qr_scan", "android": "https://dc.lft.to/lastmile_qr_scan"}, "fusion_lon": 0.0, "type": "electric_scooter", "bike_id": "db35bcb48f2645ef992d029a87123152", "name": "db35bcb48f2645ef992d029a87123152"}, {"lon": -77.04583783333334, "is_disabled": 0, "lat": 38.909501, "fusion_lat": 0.0, "is_reserved": 0, "rental_uris": {"ios": "https://dc.lft.to/lastmile_qr_scan", "android": "https://dc.lft.to/lastmile_qr_scan"}, "fusion_lon": 0.0, "type": "electric_scooter", "bike_id": "4b3d381c98b33beae89bbb6016f38fa7", "name": "4b3d381c98b33beae89bbb6016f38fa7"}, {"lon": -77.032358, "is_disabled": 0, "lat": 38.900241, "fusion_lat": 0.0, "is_reserved": 0, "rental_uris": {"ios": "https://dc.lft.to/lastmile_qr_scan", "android": "https://dc.lft.to/lastmile_qr_scan"}, "fusion_lon": 0.0, "type": "electric_scooter", "bike_id": "9ea742e2c9c80b2c89e5fb32a975239b", "name": "9ea742e2c9c80b2c89e5fb32a975239b"}, {"lon": -76.98573016666667, "is_disabled": 0, "lat": 38.8668905, "fusion_lat": 0.0, "is_reserved": 0, "rental_uris": {"ios": "https://dc.lft.to/lastmile_qr_scan", "android": "https://dc.lft.to/lastmile_qr_scan"}, "fusion_lon": 0.0, "type": "electric_scooter", "bike_id": "ac6ad1045598fd7594dcf63b2ad1068f", "name": "ac6ad1045598fd7594dcf63b2ad1068f"}, {"lon": -76.98718016666666, "is_disabled": 0, "lat": 38.86633716666667, "fusion_lat": 0.0, "is_reserved": 0, "rental_uris": {"ios": "https://dc.lft.to/lastmile_qr_scan", "android": "https://dc.lft.to/lastmile_qr_scan"}, "fusion_lon": 0.0, "type": "electric_scooter", "bike_id": "68ac573d91ada9122908c03ebda5a81d", "name": "68ac573d91ada9122908c03ebda5a81d"}, {"lon": -77.006891, "is_disabled": 0, "lat": 38.90036633333333, "fusion_lat": 0.0, "is_reserved": 0, "rental_uris": {"ios": "https://dc.lft.to/lastmile_qr_scan", "android": "https://dc.lft.to/lastmile_qr_scan"}, "fusion_lon": 0.0, "type": "electric_scooter", "bike_id": "91ed8a85fc52bcc1dc79468027c251e8", "name": "91ed8a85fc52bcc1dc79468027c251e8"}, {"lon": -77.014868, "is_disabled": 0, "lat": 38.89226516666667, "fusion_lat": 0.0, "is_reserved": 0, "rental_uris": {"ios": "https://dc.lft.to/lastmile_qr_scan", "android": "https://dc.lft.to/lastmile_qr_scan"}, "fusion_lon": 0.0, "type": "electric_scooter", "bike_id": "ea10b0939528ad5799a343e08babc7c2", "name": "ea10b0939528ad5799a343e08babc7c2"}, {"lon": -77.03216333333333, "is_disabled": 0, "lat": 38.8980245, "fusion_lat": 0.0, "is_reserved": 0, "rental_uris": {"ios": "https://dc.lft.to/lastmile_qr_scan", "android": "https://dc.lft.to/lastmile_qr_scan"}, "fusion_lon": 0.0, "type": "electric_scooter", "bike_id": "3dd016bbfe185e9def971d94f7c4fd08", "name": "3dd016bbfe185e9def971d94f7c4fd08"}, {"lon": -76.98034283333334, "is_disabled": 0, "lat": 38.90788333333333, "fusion_lat": 0.0, "is_reserved": 0, "rental_uris": {"ios": "https://dc.lft.to/lastmile_qr_scan", "android": "https://dc.lft.to/lastmile_qr_scan"}, "fusion_lon": 0.0, "type": "electric_scooter", "bike_id": "4bca5a9f11613b8dd29b94c6b09a52c2", "name": "4bca5a9f11613b8dd29b94c6b09a52c2"}, {"lon": -77.02715383333333, "is_disabled": 0, "lat": 38.90717383333333, "fusion_lat": 0.0, "is_reserved": 0, "rental_uris": {"ios": "https://dc.lft.to/lastmile_qr_scan", "android": "https://dc.lft.to/lastmile_qr_scan"}, "fusion_lon": 0.0, "type": "electric_scooter", "bike_id": "9c0a686899e0ce329087f463b8c23c6f", "name": "9c0a686899e0ce329087f463b8c23c6f"}, {"lon": -77.1043945, "is_disabled": 0, "lat": 38.89678883333333, "fusion_lat": 0.0, "is_reserved": 0, "rental_uris": {"ios": "https://dc.lft.to/lastmile_qr_scan", "android": "https://dc.lft.to/lastmile_qr_scan"}, "fusion_lon": 0.0, "type": "electric_bike", "bike_id": "d96411f9ce452d1bd335722d6afd9a57", "name": "d96411f9ce452d1bd335722d6afd9a57"}, {"lon": -77.04168533333333, "is_disabled": 0, "lat": 38.906584, "fusion_lat": 0.0, "is_reserved": 0, "rental_uris": {"ios": "https://dc.lft.to/lastmile_qr_scan", "android": "https://dc.lft.to/lastmile_qr_scan"}, "fusion_lon": 0.0, "type": "electric_scooter", "bike_id": "f614ab6c89d44b493dbe67a63c94d809", "name": "f614ab6c89d44b493dbe67a63c94d809"}, {"lon": -77.02890416666666, "is_disabled": 0, "lat": 38.901314166666666, "fusion_lat": 0.0, "is_reserved": 0, "rental_uris": {"ios": "https://dc.lft.to/lastmile_qr_scan", "android": "https://dc.lft.to/lastmile_qr_scan"}, "fusion_lon": 0.0, "type": "electric_scooter", "bike_id": "18180b6734c01c78a1ceef948716638d", "name": "18180b6734c01c78a1ceef948716638d"}, {"lon": -77.01232, "is_disabled": 0, "lat": 38.87507333333333, "fusion_lat": 0.0, "is_reserved": 0, "rental_uris": {"ios": "https://dc.lft.to/lastmile_qr_scan", "android": "https://dc.lft.to/lastmile_qr_scan"}, "fusion_lon": 0.0, "type": "electric_scooter", "bike_id": "e39eb350967a61c2db2b3ffb0f938b8b", "name": "e39eb350967a61c2db2b3ffb0f938b8b"}, {"lon": -77.0865475, "is_disabled": 0, "lat": 38.809063333333334, "fusion_lat": 0.0, "is_reserved": 0, "rental_uris": {"ios": "https://dc.lft.to/lastmile_qr_scan", "android": "https://dc.lft.to/lastmile_qr_scan"}, "fusion_lon": 0.0, "type": "electric_bike", "bike_id": "63509c41370e5786f2ee7960ead8279d", "name": "63509c41370e5786f2ee7960ead8279d"}, {"lon": -77.03951816666667, "is_disabled": 0, "lat": 38.8986115, "fusion_lat": 0.0, "is_reserved": 0, "rental_uris": {"ios": "https://dc.lft.to/lastmile_qr_scan", "android": "https://dc.lft.to/lastmile_qr_scan"}, "fusion_lon": 0.0, "type": "electric_scooter", "bike_id": "8f27b8f1ad3b93cb819dc48816665f0a", "name": "8f27b8f1ad3b93cb819dc48816665f0a"}, {"lon": -77.05886183333334, "is_disabled": 0, "lat": 38.93636883333333, "fusion_lat": 0.0, "is_reserved": 0, "rental_uris": {"ios": "https://dc.lft.to/lastmile_qr_scan", "android": "https://dc.lft.to/lastmile_qr_scan"}, "fusion_lon": 0.0, "type": "electric_scooter", "bike_id": "0b33461c898ee1d7b6a71803fe00db9e", "name": "0b33461c898ee1d7b6a71803fe00db9e"}, {"lon": -77.018986, "is_disabled": 0, "lat": 38.9176955, "fusion_lat": 0.0, "is_reserved": 0, "rental_uris": {"ios": "https://dc.lft.to/lastmile_qr_scan", "android": "https://dc.lft.to/lastmile_qr_scan"}, "fusion_lon": 0.0, "type": "electric_bike", "bike_id": "a4d2d0fc1ae96d44c0fc9d78f68472a4", "name": "a4d2d0fc1ae96d44c0fc9d78f68472a4"}, {"lon": -77.0408085, "is_disabled": 0, "lat": 38.902362333333336, "fusion_lat": 0.0, "is_reserved": 0, "rental_uris": {"ios": "https://dc.lft.to/lastmile_qr_scan", "android": "https://dc.lft.to/lastmile_qr_scan"}, "fusion_lon": 0.0, "type": "electric_scooter", "bike_id": "cd06fe312449751c1beb10279d4a43a5", "name": "cd06fe312449751c1beb10279d4a43a5"}, {"lon": -76.9834035, "is_disabled": 0, "lat": 38.90093533333334, "fusion_lat": 0.0, "is_reserved": 0, "rental_uris": {"ios": "https://dc.lft.to/lastmile_qr_scan", "android": "https://dc.lft.to/lastmile_qr_scan"}, "fusion_lon": 0.0, "type": "electric_scooter", "bike_id": "421c6a5233c3ee1876ef6949aa169bb0", "name": "421c6a5233c3ee1876ef6949aa169bb0"}, {"lon": -77.044151, "is_disabled": 0, "lat": 38.897442833333336, "fusion_lat": 0.0, "is_reserved": 0, "rental_uris": {"ios": "https://dc.lft.to/lastmile_qr_scan", "android": "https://dc.lft.to/lastmile_qr_scan"}, "fusion_lon": 0.0, "type": "electric_scooter", "bike_id": "f3815d705235ec12e581a5d4a586b5b3", "name": "f3815d705235ec12e581a5d4a586b5b3"}, {"lon": -77.02501933333333, "is_disabled": 0, "lat": 38.919527333333335, "fusion_lat": 0.0, "is_reserved": 0, "rental_uris": {"ios": "https://dc.lft.to/lastmile_qr_scan", "android": "https://dc.lft.to/lastmile_qr_scan"}, "fusion_lon": 0.0, "type": "electric_scooter", "bike_id": "526fde60b2274c8e9d1909be12dc8360", "name": "526fde60b2274c8e9d1909be12dc8360"}, {"lon": -76.95331283333333, "is_disabled": 0, "lat": 38.892497166666665, "fusion_lat": 0.0, "is_reserved": 0, "rental_uris": {"ios": "https://dc.lft.to/lastmile_qr_scan", "android": "https://dc.lft.to/lastmile_qr_scan"}, "fusion_lon": 0.0, "type": "electric_scooter", "bike_id": "0b9e3b94e8305de18b196d41223bf5d0", "name": "0b9e3b94e8305de18b196d41223bf5d0"}, {"lon": -76.9901045, "is_disabled": 0, "lat": 38.865103500000004, "fusion_lat": 0.0, "is_reserved": 0, "rental_uris": {"ios": "https://dc.lft.to/lastmile_qr_scan", "android": "https://dc.lft.to/lastmile_qr_scan"}, "fusion_lon": 0.0, "type": "electric_scooter", "bike_id": "2db40aaa46de28829dc4abb9c81fedab", "name": "2db40aaa46de28829dc4abb9c81fedab"}, {"lon": -77.03261166666667, "is_disabled": 0, "lat": 38.9290175, "fusion_lat": 0.0, "is_reserved": 0, "rental_uris": {"ios": "https://dc.lft.to/lastmile_qr_scan", "android": "https://dc.lft.to/lastmile_qr_scan"}, "fusion_lon": 0.0, "type": "electric_scooter", "bike_id": "1b4b908d384156ffbd2c372be465540e", "name": "1b4b908d384156ffbd2c372be465540e"}, {"lon": -77.0191205, "is_disabled": 0, "lat": 38.9234505, "fusion_lat": 0.0, "is_reserved": 0, "rental_uris": {"ios": "https://dc.lft.to/lastmile_qr_scan", "android": "https://dc.lft.to/lastmile_qr_scan"}, "fusion_lon": 0.0, "type": "electric_scooter", "bike_id": "42904c127e941d8de036aee77558097a", "name": "42904c127e941d8de036aee77558097a"}, {"lon": -77.05513833333333, "is_disabled": 0, "lat": 38.915339833333334, "fusion_lat": 0.0, "is_reserved": 0, "rental_uris": {"ios": "https://dc.lft.to/lastmile_qr_scan", "android": "https://dc.lft.to/lastmile_qr_scan"}, "fusion_lon": 0.0, "type": "electric_scooter", "bike_id": "79380f59970956c0ce42a7092a46b8ea", "name": "79380f59970956c0ce42a7092a46b8ea"}, {"lon": -77.02780983333334, "is_disabled": 0, "lat": 38.89626, "fusion_lat": 0.0, "is_reserved": 0, "rental_uris": {"ios": "https://dc.lft.to/lastmile_qr_scan", "android": "https://dc.lft.to/lastmile_qr_scan"}, "fusion_lon": 0.0, "type": "electric_scooter", "bike_id": "65fba0667fe41bbce62053f2ef98207e", "name": "65fba0667fe41bbce62053f2ef98207e"}, {"lon": -77.0436, "is_disabled": 0, "lat": 38.911141666666666, "fusion_lat": 0.0, "is_reserved": 0, "rental_uris": {"ios": "https://dc.lft.to/lastmile_qr_scan", "android": "https://dc.lft.to/lastmile_qr_scan"}, "fusion_lon": 0.0, "type": "electric_scooter", "bike_id": "04ffe32e94ee67bdb56fc31aa82f2113", "name": "04ffe32e94ee67bdb56fc31aa82f2113"}, {"lon": -76.9824465, "is_disabled": 0, "lat": 38.871206666666666, "fusion_lat": 0.0, "is_reserved": 0, "rental_uris": {"ios": "https://dc.lft.to/lastmile_qr_scan", "android": "https://dc.lft.to/lastmile_qr_scan"}, "fusion_lon": 0.0, "type": "electric_scooter", "bike_id": "1caba8b23ed9d893221b28c449d33a84", "name": "1caba8b23ed9d893221b28c449d33a84"}, {"lon": -77.01503366666667, "is_disabled": 0, "lat": 38.9266725, "fusion_lat": 0.0, "is_reserved": 0, "rental_uris": {"ios": "https://dc.lft.to/lastmile_qr_scan", "android": "https://dc.lft.to/lastmile_qr_scan"}, "fusion_lon": 0.0, "type": "electric_scooter", "bike_id": "038045814a171e38c97b3ae14f613f02", "name": "038045814a171e38c97b3ae14f613f02"}, {"lon": -77.0223745, "is_disabled": 0, "lat": 38.8997765, "fusion_lat": 0.0, "is_reserved": 0, "rental_uris": {"ios": "https://dc.lft.to/lastmile_qr_scan", "android": "https://dc.lft.to/lastmile_qr_scan"}, "fusion_lon": 0.0, "type": "electric_scooter", "bike_id": "5f617e83658d32f0c0a5333294505e32", "name": "5f617e83658d32f0c0a5333294505e32"}, {"lon": -77.00345683333333, "is_disabled": 0, "lat": 38.89536983333333, "fusion_lat": 0.0, "is_reserved": 0, "rental_uris": {"ios": "https://dc.lft.to/lastmile_qr_scan", "android": "https://dc.lft.to/lastmile_qr_scan"}, "fusion_lon": 0.0, "type": "electric_scooter", "bike_id": "8a778222ac344fb9506293acae380aec", "name": "8a778222ac344fb9506293acae380aec"}, {"lon": -77.01838733333334, "is_disabled": 0, "lat": 38.978180333333334, "fusion_lat": 0.0, "is_reserved": 0, "rental_uris": {"ios": "https://dc.lft.to/lastmile_qr_scan", "android": "https://dc.lft.to/lastmile_qr_scan"}, "fusion_lon": 0.0, "type": "electric_scooter", "bike_id": "7ab14d47d273ab5bef3f4b0b1939206e", "name": "7ab14d47d273ab5bef3f4b0b1939206e"}, {"lon": -77.0321255, "is_disabled": 0, "lat": 38.892406333333334, "fusion_lat": 0.0, "is_reserved": 0, "rental_uris": {"ios": "https://dc.lft.to/lastmile_qr_scan", "android": "https://dc.lft.to/lastmile_qr_scan"}, "fusion_lon": 0.0, "type": "electric_scooter", "bike_id": "4adc6f9cfd0ed44adeea947d8b136dc9", "name": "4adc6f9cfd0ed44adeea947d8b136dc9"}, {"lon": -77.0397375, "is_disabled": 0, "lat": 38.902970833333335, "fusion_lat": 0.0, "is_reserved": 0, "rental_uris": {"ios": "https://dc.lft.to/lastmile_qr_scan", "android": "https://dc.lft.to/lastmile_qr_scan"}, "fusion_lon": 0.0, "type": "electric_scooter", "bike_id": "923869f2afa9733a7a2a0ef0c2036c16", "name": "923869f2afa9733a7a2a0ef0c2036c16"}, {"lon": -77.03229616666667, "is_disabled": 0, "lat": 38.92075216666667, "fusion_lat": 0.0, "is_reserved": 0, "rental_uris": {"ios": "https://dc.lft.to/lastmile_qr_scan", "android": "https://dc.lft.to/lastmile_qr_scan"}, "fusion_lon": 0.0, "type": "electric_scooter", "bike_id": "4a8a2a58004722f9a5a2c0f232ef5d19", "name": "4a8a2a58004722f9a5a2c0f232ef5d19"}, {"lon": -76.99188466666666, "is_disabled": 0, "lat": 38.8583635, "fusion_lat": 0.0, "is_reserved": 0, "rental_uris": {"ios": "https://dc.lft.to/lastmile_qr_scan", "android": "https://dc.lft.to/lastmile_qr_scan"}, "fusion_lon": 0.0, "type": "electric_scooter", "bike_id": "674bcde2829cec03a8b1690c4e7983ad", "name": "674bcde2829cec03a8b1690c4e7983ad"}, {"lon": -77.15019816666667, "is_disabled": 0, "lat": 39.057869, "fusion_lat": 0.0, "is_reserved": 0, "rental_uris": {"ios": "https://dc.lft.to/lastmile_qr_scan", "android": "https://dc.lft.to/lastmile_qr_scan"}, "fusion_lon": 0.0, "type": "electric_bike", "bike_id": "a876c7418ba8dc70fc511fc099ae9feb", "name": "a876c7418ba8dc70fc511fc099ae9feb"}, {"lon": -77.03680933333334, "is_disabled": 0, "lat": 38.902299166666666, "fusion_lat": 0.0, "is_reserved": 0, "rental_uris": {"ios": "https://dc.lft.to/lastmile_qr_scan", "android": "https://dc.lft.to/lastmile_qr_scan"}, "fusion_lon": 0.0, "type": "electric_scooter", "bike_id": "938403c467c9db43bc37456872c42d9f", "name": "938403c467c9db43bc37456872c42d9f"}, {"lon": -76.9496065, "is_disabled": 0, "lat": 38.894746166666664, "fusion_lat": 0.0, "is_reserved": 0, "rental_uris": {"ios": "https://dc.lft.to/lastmile_qr_scan", "android": "https://dc.lft.to/lastmile_qr_scan"}, "fusion_lon": 0.0, "type": "electric_scooter", "bike_id": "3fdbb81e8a4220d07b1152b8abc6f22a", "name": "3fdbb81e8a4220d07b1152b8abc6f22a"}, {"lon": -76.9906555, "is_disabled": 0, "lat": 38.8637845, "fusion_lat": 0.0, "is_reserved": 0, "rental_uris": {"ios": "https://dc.lft.to/lastmile_qr_scan", "android": "https://dc.lft.to/lastmile_qr_scan"}, "fusion_lon": 0.0, "type": "electric_scooter", "bike_id": "25219dda4598ff4e8277e88921b7b791", "name": "25219dda4598ff4e8277e88921b7b791"}, {"lon": -77.03279316666666, "is_disabled": 0, "lat": 38.9325535, "fusion_lat": 0.0, "is_reserved": 0, "rental_uris": {"ios": "https://dc.lft.to/lastmile_qr_scan", "android": "https://dc.lft.to/lastmile_qr_scan"}, "fusion_lon": 0.0, "type": "electric_scooter", "bike_id": "114ef8d50a882db66dfe3c0b0260a0b2", "name": "114ef8d50a882db66dfe3c0b0260a0b2"}, {"lon": -76.99809616666667, "is_disabled": 0, "lat": 38.8199115, "fusion_lat": 0.0, "is_reserved": 0, "rental_uris": {"ios": "https://dc.lft.to/lastmile_qr_scan", "android": "https://dc.lft.to/lastmile_qr_scan"}, "fusion_lon": 0.0, "type": "electric_bike", "bike_id": "cceb5594901cd3d3cb73d51c03055d90", "name": "cceb5594901cd3d3cb73d51c03055d90"}, {"lon": -77.01534333333333, "is_disabled": 0, "lat": 38.887449333333336, "fusion_lat": 0.0, "is_reserved": 0, "rental_uris": {"ios": "https://dc.lft.to/lastmile_qr_scan", "android": "https://dc.lft.to/lastmile_qr_scan"}, "fusion_lon": 0.0, "type": "electric_scooter", "bike_id": "9ec2cfc4e8218be82c87b5c4fa50ef8e", "name": "9ec2cfc4e8218be82c87b5c4fa50ef8e"}, {"lon": -77.024083, "is_disabled": 0, "lat": 38.91409, "fusion_lat": 0.0, "is_reserved": 0, "rental_uris": {"ios": "https://dc.lft.to/lastmile_qr_scan", "android": "https://dc.lft.to/lastmile_qr_scan"}, "fusion_lon": 0.0, "type": "electric_scooter", "bike_id": "8c60ccc951efb9a64ea18a5e8f8cedd1", "name": "8c60ccc951efb9a64ea18a5e8f8cedd1"}, {"lon": -77.08065816666667, "is_disabled": 0, "lat": 39.0525635, "fusion_lat": 0.0, "is_reserved": 0, "rental_uris": {"ios": "https://dc.lft.to/lastmile_qr_scan", "android": "https://dc.lft.to/lastmile_qr_scan"}, "fusion_lon": 0.0, "type": "electric_bike", "bike_id": "49f0cd3ea9201dcf428d714f19d4cff8", "name": "49f0cd3ea9201dcf428d714f19d4cff8"}, {"lon": -77.004848, "is_disabled": 0, "lat": 38.874764666666664, "fusion_lat": 0.0, "is_reserved": 0, "rental_uris": {"ios": "https://dc.lft.to/lastmile_qr_scan", "android": "https://dc.lft.to/lastmile_qr_scan"}, "fusion_lon": 0.0, "type": "electric_scooter", "bike_id": "7986189eb16d6783dd63dbde9c11d801", "name": "7986189eb16d6783dd63dbde9c11d801"}, {"lon": -77.0446845, "is_disabled": 0, "lat": 38.914921166666666, "fusion_lat": 0.0, "is_reserved": 0, "rental_uris": {"ios": "https://dc.lft.to/lastmile_qr_scan", "android": "https://dc.lft.to/lastmile_qr_scan"}, "fusion_lon": 0.0, "type": "electric_scooter", "bike_id": "2c3a201c0c8ac28a2d8b62902ff40eaa", "name": "2c3a201c0c8ac28a2d8b62902ff40eaa"}, {"lon": -77.02056433333334, "is_disabled": 0, "lat": 38.933425166666666, "fusion_lat": 0.0, "is_reserved": 0, "rental_uris": {"ios": "https://dc.lft.to/lastmile_qr_scan", "android": "https://dc.lft.to/lastmile_qr_scan"}, "fusion_lon": 0.0, "type": "electric_scooter", "bike_id": "b736fb65ec9a523f56d56a622da43a2a", "name": "b736fb65ec9a523f56d56a622da43a2a"}, {"lon": -77.01758183333334, "is_disabled": 0, "lat": 38.902626833333336, "fusion_lat": 0.0, "is_reserved": 0, "rental_uris": {"ios": "https://dc.lft.to/lastmile_qr_scan", "android": "https://dc.lft.to/lastmile_qr_scan"}, "fusion_lon": 0.0, "type": "electric_scooter", "bike_id": "b032909a68eb994c98aae3fa36ea2afc", "name": "b032909a68eb994c98aae3fa36ea2afc"}, {"lon": -77.03834583333334, "is_disabled": 0, "lat": 38.90787066666667, "fusion_lat": 0.0, "is_reserved": 0, "rental_uris": {"ios": "https://dc.lft.to/lastmile_qr_scan", "android": "https://dc.lft.to/lastmile_qr_scan"}, "fusion_lon": 0.0, "type": "electric_scooter", "bike_id": "d0ebce5e4b68bb187153594a928ac779", "name": "d0ebce5e4b68bb187153594a928ac779"}, {"lon": -77.04353666666667, "is_disabled": 0, "lat": 38.90526283333333, "fusion_lat": 0.0, "is_reserved": 0, "rental_uris": {"ios": "https://dc.lft.to/lastmile_qr_scan", "android": "https://dc.lft.to/lastmile_qr_scan"}, "fusion_lon": 0.0, "type": "electric_scooter", "bike_id": "0ca3ea862ab3f2ace4680b84484aa343", "name": "0ca3ea862ab3f2ace4680b84484aa343"}, {"lon": -77.03472766666667, "is_disabled": 0, "lat": 38.90441033333333, "fusion_lat": 0.0, "is_reserved": 0, "rental_uris": {"ios": "https://dc.lft.to/lastmile_qr_scan", "android": "https://dc.lft.to/lastmile_qr_scan"}, "fusion_lon": 0.0, "type": "electric_scooter", "bike_id": "35d4d3e9813c2b54cefa4f2a3ec5866b", "name": "35d4d3e9813c2b54cefa4f2a3ec5866b"}, {"lon": -76.95778283333334, "is_disabled": 0, "lat": 38.8688685, "fusion_lat": 0.0, "is_reserved": 0, "rental_uris": {"ios": "https://dc.lft.to/lastmile_qr_scan", "android": "https://dc.lft.to/lastmile_qr_scan"}, "fusion_lon": 0.0, "type": "electric_bike", "bike_id": "6c04bc8ce28b882fb004df50cb37d6af", "name": "6c04bc8ce28b882fb004df50cb37d6af"}, {"lon": -77.006021, "is_disabled": 0, "lat": 38.87578083333333, "fusion_lat": 0.0, "is_reserved": 0, "rental_uris": {"ios": "https://dc.lft.to/lastmile_qr_scan", "android": "https://dc.lft.to/lastmile_qr_scan"}, "fusion_lon": 0.0, "type": "electric_scooter", "bike_id": "793de14790f31121de19f99a22811bc9", "name": "793de14790f31121de19f99a22811bc9"}, {"lon": -77.0494, "is_disabled": 0, "lat": 38.918282, "fusion_lat": 0.0, "is_reserved": 0, "rental_uris": {"ios": "https://dc.lft.to/lastmile_qr_scan", "android": "https://dc.lft.to/lastmile_qr_scan"}, "fusion_lon": 0.0, "type": "electric_scooter", "bike_id": "a3ba0d2e12bd3ef2bdae4b2100595267", "name": "a3ba0d2e12bd3ef2bdae4b2100595267"}, {"lon": -76.96536566666667, "is_disabled": 0, "lat": 38.9184585, "fusion_lat": 0.0, "is_reserved": 0, "rental_uris": {"ios": "https://dc.lft.to/lastmile_qr_scan", "android": "https://dc.lft.to/lastmile_qr_scan"}, "fusion_lon": 0.0, "type": "electric_scooter", "bike_id": "e8f12f5e344890a4bda1c113ce08fb61", "name": "e8f12f5e344890a4bda1c113ce08fb61"}, {"lon": -76.97027316666667, "is_disabled": 0, "lat": 38.8736105, "fusion_lat": 0.0, "is_reserved": 0, "rental_uris": {"ios": "https://dc.lft.to/lastmile_qr_scan", "android": "https://dc.lft.to/lastmile_qr_scan"}, "fusion_lon": 0.0, "type": "electric_scooter", "bike_id": "9d4c6bb92cf7dd3aea1b351b759ed659", "name": "9d4c6bb92cf7dd3aea1b351b759ed659"}, {"lon": -77.02299083333334, "is_disabled": 0, "lat": 38.89508216666667, "fusion_lat": 0.0, "is_reserved": 0, "rental_uris": {"ios": "https://dc.lft.to/lastmile_qr_scan", "android": "https://dc.lft.to/lastmile_qr_scan"}, "fusion_lon": 0.0, "type": "electric_scooter", "bike_id": "206e6b199b885dfefc55af21a23b462e", "name": "206e6b199b885dfefc55af21a23b462e"}, {"lon": -77.029552, "is_disabled": 0, "lat": 38.93254566666667, "fusion_lat": 0.0, "is_reserved": 0, "rental_uris": {"ios": "https://dc.lft.to/lastmile_qr_scan", "android": "https://dc.lft.to/lastmile_qr_scan"}, "fusion_lon": 0.0, "type": "electric_scooter", "bike_id": "f2baba41c354b7cc458986a5c10086c8", "name": "f2baba41c354b7cc458986a5c10086c8"}, {"lon": -77.0401665, "is_disabled": 0, "lat": 38.896327666666664, "fusion_lat": 0.0, "is_reserved": 0, "rental_uris": {"ios": "https://dc.lft.to/lastmile_qr_scan", "android": "https://dc.lft.to/lastmile_qr_scan"}, "fusion_lon": 0.0, "type": "electric_scooter", "bike_id": "edf3470f14581ad97606d0623a5cc4ee", "name": "edf3470f14581ad97606d0623a5cc4ee"}, {"lon": -76.94640633333333, "is_disabled": 0, "lat": 38.898666166666665, "fusion_lat": 0.0, "is_reserved": 0, "rental_uris": {"ios": "https://dc.lft.to/lastmile_qr_scan", "android": "https://dc.lft.to/lastmile_qr_scan"}, "fusion_lon": 0.0, "type": "electric_scooter", "bike_id": "e302544c28d2a92f5cfbdec012c7cd19", "name": "e302544c28d2a92f5cfbdec012c7cd19"},