{"data": {"bikes": [{"lat": 38.909119833333335, "is_disabled": 0, "type": "electric_scooter", "lon": -76.98563916666667, "bike_id": "7b670f8e13e1cd45160f591931a4ed7e", "fusion_lat": 0.0, "name": "7b670f8e13e1cd45160f591931a4ed7e", "is_reserved": 0, "rental_uris": {"android": "https://dc.lft.to/lastmile_qr_scan", "ios": "https://dc.lft.to/lastmile_qr_scan"}, "fusion_lon": 0.0}, {"lat": 38.9482215, "is_disabled": 0, "type": "electric_scooter", "lon": -76.99906183333333, "bike_id": "1258fc8a7aca2ea254b3481e113f07c5", "fusion_lat": 0.0, "name": "1258fc8a7aca2ea254b3481e113f07c5", "is_reserved": 0, "rental_uris": {"android": "https://dc.lft.to/lastmile_qr_scan", "ios": "https://dc.lft.to/lastmile_qr_scan"}, "fusion_lon": 0.0}, {"lat": 38.886025833333335, "is_disabled": 0, "type": "electric_scooter", "lon": -77.01901033333333, "bike_id": "f80ad8b9ea8145686eacf2b512484481", "fusion_lat": 0.0, "name": "f80ad8b9ea8145686eacf2b512484481", "is_reserved": 0, "rental_uris": {"android": "https://dc.lft.to/lastmile_qr_scan", "ios": "https://dc.lft.to/lastmile_qr_scan"}, "fusion_lon": 0.0}, {"lat": 38.87989266666666, "is_disabled": 0, "type": "electric_scooter", "lon": -77.02406166666667, "bike_id": "090a3fc69c60bc67b8df5a379d218993", "fusion_lat": 0.0, "name": "090a3fc69c60bc67b8df5a379d218993", "is_reserved": 0, "rental_uris": {"android": "https://dc.lft.to/lastmile_qr_scan", "ios": "https://dc.lft.to/lastmile_qr_scan"}, "fusion_lon": 0.0}, {"lat": 38.920793833333335, "is_disabled": 0, "type": "electric_scooter", "lon": -77.01428733333333, "bike_id": "aac9a0b27de48ca5d55a65cb5478c656", "fusion_lat": 0.0, "name": "aac9a0b27de48ca5d55a65cb5478c656", "is_reserved": 0, "rental_uris": {"android": "https://dc.lft.to/lastmile_qr_scan", "ios": "https://dc.lft.to/lastmile_qr_scan"}, "fusion_lon": 0.0}, {"lat": 38.8854845, "is_disabled": 0, "type": "electric_bike", "lon": -77.11787533333333, "bike_id": "8daf06457d483b5727bfbd422ec2a8c3", "fusion_lat": 0.0, "name": "8daf06457d483b5727bfbd422ec2a8c3", "is_reserved": 0, "rental_uris": {"android": "https://dc.lft.to/lastmile_qr_scan", "ios": "https://dc.lft.to/lastmile_qr_scan"}, "fusion_lon": 0.0}, {"lat": 38.904096333333335, "is_disabled": 0, "type": "electric_scooter", "lon": -77.05037383333334, "bike_id": "35cde93c10850d2dded3ea8d77fbbac9", "fusion_lat": 0.0, "name": "35cde93c10850d2dded3ea8d77fbbac9", "is_reserved": 0, "rental_uris": {"android": "https://dc.lft.to/lastmile_qr_scan", "ios": "https://dc.lft.to/lastmile_qr_scan"}, "fusion_lon": 0.0}, {"lat": 38.886756166666665, "is_disabled": 0, "type": "electric_bike", "lon": -77.1626535, "bike_id": "019e3757c38ae201e195b2265a189560", "fusion_lat": 0.0, "name": "019e3757c38ae201e195b2265a189560", "is_reserved": 0, "rental_uris": {"android": "https://dc.lft.to/lastmile_qr_scan", "ios": "https://dc.lft.to/lastmile_qr_scan"}, "fusion_lon": 0.0}, {"lat": 38.908278, "is_disabled": 0, "type": "electric_scooter", "lon": -77.020011, "bike_id": "dd15cefa69edfc0ded3af7e80c1e2eac", "fusion_lat": 0.0, "name": "dd15cefa69edfc0ded3af7e80c1e2eac", "is_reserved": 0, "rental_uris": {"android": "https://dc.lft.to/lastmile_qr_scan", "ios": "https://dc.lft.to/lastmile_qr_scan"}, "fusion_lon": 0.0}, {"lat": 38.916891166666666, "is_disabled": 0, "type": "electric_scooter", "lon": -76.979418, "bike_id": "c089e09fcd4b70d10a16fd5e22cc477b", "fusion_lat": 0.0, "name": "c089e09fcd4b70d10a16fd5e22cc477b", "is_reserved": 0, "rental_uris": {"android": "https://dc.lft.to/lastmile_qr_scan", "ios": "https://dc.lft.to/lastmile_qr_scan"}, "fusion_lon": 0.0}, {"lat": 38.91803616666667, "is_disabled": 0, "type": "electric_scooter", "lon": -77.03681433333334, "bike_id": "eb31cce39d5b6106b53fbabc320be3a2", "fusion_lat": 0.0, "name": "eb31cce39d5b6106b53fbabc320be3a2", "is_reserved": 0, "rental_uris": {"android": "https://dc.lft.to/lastmile_qr_scan", "ios": "https://dc.lft.to/lastmile_qr_scan"}, "fusion_lon": 0.0}, {"lat": 38.90543783333333, "is_disabled": 0, "type": "electric_scooter", "lon": -77.04956583333333, "bike_id": "66d29ee57b9670441df61a09fc6bf5d7", "fusion_lat": 0.0, "name": "66d29ee57b9670441df61a09fc6bf5d7", "is_reserved": 0, "rental_uris": {"android": "https://dc.lft.to/lastmile_qr_scan", "ios": "https://dc.lft.to/lastmile_qr_scan"}, "fusion_lon": 0.0}, {"lat": 38.91106533333333, "is_disabled": 0, "type": "electric_scooter", "lon": -77.02017683333334, "bike_id": "ebe6a8b28675da6f1d7cbe5f6eda4044", "fusion_lat": 0.0, "name": "ebe6a8b28675da6f1d7cbe5f6eda4044", "is_reserved": 0, "rental_uris": {"android": "https://dc.lft.to/lastmile_qr_scan", "ios": "https://dc.lft.to/lastmile_qr_scan"}, "fusion_lon": 0.0}, {"lat": 38.9225075, "is_disabled": 0, "type": "electric_scooter", "lon": -77.01949116666667, "bike_id": "d74317ff74c67e6178530275b1d6348f", "fusion_lat": 0.0, "name": "d74317ff74c67e6178530275b1d6348f", "is_reserved": 0, "rental_uris": {"android": "https://dc.lft.to/lastmile_qr_scan", "ios": "https://dc.lft.to/lastmile_qr_scan"}, "fusion_lon": 0.0}, {"lat": 38.855106166666666, "is_disabled": 0, "type": "electric_bike", "lon": -76.98403216666667, "bike_id": "28ad7123ffb855866038558949a38c18", "fusion_lat": 0.0, "name": "28ad7123ffb855866038558949a38c18", "is_reserved": 0, "rental_uris": {"android": "https://dc.lft.to/lastmile_qr_scan", "ios": "https://dc.lft.to/lastmile_qr_scan"}, "fusion_lon": 0.0}, {"lat": 38.91992583333333, "is_disabled": 0, "type": "electric_scooter", "lon": -77.03220683333333, "bike_id": "2130268227a0b41025cb2c99afb03d73", "fusion_lat": 0.0, "name": "2130268227a0b41025cb2c99afb03d73", "is_reserved": 0, "rental_uris": {"android": "https://dc.lft.to/lastmile_qr_scan", "ios": "https://dc.lft.to/lastmile_qr_scan"}, "fusion_lon": 0.0}, {"lat": 38.92472016666667, "is_disabled": 0, "type": "electric_scooter", "lon": -77.052333, "bike_id": "13b9252febaa3068285115d39d4bfcb0", "fusion_lat": 0.0, "name": "13b9252febaa3068285115d39d4bfcb0", "is_reserved": 0, "rental_uris": {"android": "https://dc.lft.to/lastmile_qr_scan", "ios": "https://dc.lft.to/lastmile_qr_scan"}, "fusion_lon": 0.0}, {"lat": 38.915578333333336, "is_disabled": 0, "type": "electric_scooter", "lon": -77.031629, "bike_id": "072477139b6582781f90ea3c6b283f7a", "fusion_lat": 0.0, "name": "072477139b6582781f90ea3c6b283f7a", "is_reserved": 0, "rental_uris": {"android": "https://dc.lft.to/lastmile_qr_scan", "ios": "https://dc.lft.to/lastmile_qr_scan"}, "fusion_lon": 0.0}, {"lat": 38.81352233333333, "is_disabled": 0, "type": "electric_bike", "lon": -77.0492065, "bike_id": "60ae854801a0a5b0bcc99558ec069ed1", "fusion_lat": 0.0, "name": "60ae854801a0a5b0bcc99558ec069ed1", "is_reserved": 0, "rental_uris": {"android": "https://dc.lft.to/lastmile_qr_scan", "ios": "https://dc.lft.to/lastmile_qr_scan"}, "fusion_lon": 0.0}, {"lat": 38.88405016666667, "is_disabled": 0, "type": "electric_scooter", "lon": -77.01776516666666, "bike_id": "5e0d22bddf2264927acf67fec57c499c", "fusion_lat": 0.0, "name": "5e0d22bddf2264927acf67fec57c499c", "is_reserved": 0, "rental_uris": {"android": "https://dc.lft.to/lastmile_qr_scan", "ios": "https://dc.lft.to/lastmile_qr_scan"}, "fusion_lon": 0.0}, {"lat": 38.9342055, "is_disabled": 0, "type": "electric_scooter", "lon": -77.055535, "bike_id": "2a3840bd9b830ea74f88b7f17945ae46", "fusion_lat": 0.0, "name": "2a3840bd9b830ea74f88b7f17945ae46", "is_reserved": 0, "rental_uris": {"android": "https://dc.lft.to/lastmile_qr_scan", "ios": "https://dc.lft.to/lastmile_qr_scan"}, "fusion_lon": 0.0}, {"lat": 38.90323983333333, "is_disabled": 0, "type": "electric_scooter", "lon": -77.06305966666666, "bike_id": "0f9a2d0b2694b6b8417112dcc06f483b", "fusion_lat": 0.0, "name": "0f9a2d0b2694b6b8417112dcc06f483b", "is_reserved": 0, "rental_uris": {"android": "https://dc.lft.to/lastmile_qr_scan", "ios": "https://dc.lft.to/lastmile_qr_scan"}, "fusion_lon": 0.0}, {"lat": 38.93362716666667, "is_disabled": 0, "type": "electric_scooter", "lon": -77.05736216666666, "bike_id": "f5abb897fcedf8a740f85b758da11521", "fusion_lat": 0.0, "name": "f5abb897fcedf8a740f85b758da11521", "is_reserved": 0, "rental_uris": {"android": "https://dc.lft.to/lastmile_qr_scan", "ios": "https://dc.lft.to/lastmile_qr_scan"}, "fusion_lon": 0.0}, {"lat": 38.910947666666665, "is_disabled": 0, "type": "electric_scooter", "lon": -77.0481375, "bike_id": "4db348dee289eb52f1c931466f2b2b99", "fusion_lat": 0.0, "name": "4db348dee289eb52f1c931466f2b2b99", "is_reserved": 0, "rental_uris": {"android": "https://dc.lft.to/lastmile_qr_scan", "ios": "https://dc.lft.to/lastmile_qr_scan"}, "fusion_lon": 0.0}, {"lat": 38.91507566666667, "is_disabled": 0, "type": "electric_scooter", "lon": -76.983735, "bike_id": "eb4fc22b1c52df33eba7cf2b6804e492", "fusion_lat": 0.0, "name": "eb4fc22b1c52df33eba7cf2b6804e492", "is_reserved": 0, "rental_uris": {"android": "https://dc.lft.to/lastmile_qr_scan", "ios": "https://dc.lft.to/lastmile_qr_scan"}, "fusion_lon": 0.0}, {"lat": 38.920352333333334, "is_disabled": 0, "type": "electric_scooter", "lon": -77.04180016666666, "bike_id": "23347839010b4ea4557c1b559a043b5a", "fusion_lat": 0.0, "name": "23347839010b4ea4557c1b559a043b5a", "is_reserved": 0, "rental_uris": {"android": "https://dc.lft.to/lastmile_qr_scan", "ios": "https://dc.lft.to/lastmile_qr_scan"}, "fusion_lon": 0.0}, {"lat": 38.901296333333335, "is_disabled": 0, "type": "electric_bike", "lon": -77.03444366666666, "bike_id": "cc51ac04b4a8a52708a3c052a09efbc3", "fusion_lat": 0.0, "name": "cc51ac04b4a8a52708a3c052a09efbc3", "is_reserved": 0, "rental_uris": {"android": "https://dc.lft.to/lastmile_qr_scan", "ios": "https://dc.lft.to/lastmile_qr_scan"}, "fusion_lon": 0.0}, {"lat": 38.91413683333333, "is_disabled": 0, "type": "electric_scooter", "lon": -77.02218233333333, "bike_id": "62ddcfc3c9e262c4c6e67bb4a2377598", "fusion_lat": 0.0, "name": "62ddcfc3c9e262c4c6e67bb4a2377598", "is_reserved": 0, "rental_uris": {"android": "https://dc.lft.to/lastmile_qr_scan", "ios": "https://dc.lft.to/lastmile_qr_scan"}, "fusion_lon": 0.0}, {"lat": 38.876621, "is_disabled": 0, "type": "electric_scooter", "lon": -77.004259, "bike_id": "024ead3692f22c5a2daa96a1c11b0d05", "fusion_lat": 0.0, "name": "024ead3692f22c5a2daa96a1c11b0d05", "is_reserved": 0, "rental_uris": {"android": "https://dc.lft.to/lastmile_qr_scan", "ios": "https://dc.lft.to/lastmile_qr_scan"}, "fusion_lon": 0.0}, {"lat": 38.915886666666665, "is_disabled": 0, "type": "electric_scooter", "lon": -77.03193816666666, "bike_id": "4ec11f88d68cd07d91a62caef8647231", "fusion_lat": 0.0, "name": "4ec11f88d68cd07d91a62caef8647231", "is_reserved": 0, "rental_uris": {"android": "https://dc.lft.to/lastmile_qr_scan", "ios": "https://dc.lft.to/lastmile_qr_scan"}, "fusion_lon": 0.0}, {"lat": 38.91986716666667, "is_disabled": 0, "type": "electric_scooter", "lon": -77.03261533333334, "bike_id": "1be04e27e62cfab5ea83c000e90e2e4e", "fusion_lat": 0.0, "name": "1be04e27e62cfab5ea83c000e90e2e4e", "is_reserved": 0, "rental_uris": {"android": "https://dc.lft.to/lastmile_qr_scan", "ios": "https://dc.lft.to/lastmile_qr_scan"}, "fusion_lon": 0.0}, {"lat": 38.8983895, "is_disabled": 0, "type": "electric_scooter", "lon": -77.02808766666666, "bike_id": "50ff22db8cd2d147bb80c85c48d2f77d", "fusion_lat": 0.0, "name": "50ff22db8cd2d147bb80c85c48d2f77d", "is_reserved": 0, "rental_uris": {"android": "https://dc.lft.to/lastmile_qr_scan", "ios": "https://dc.lft.to/lastmile_qr_scan"}, "fusion_lon": 0.0}, {"lat": 38.90573833333333, "is_disabled": 0, "type": "electric_scooter", "lon": -77.02693966666666, "bike_id": "900137714388c80d3a3d2b19090d768b", "fusion_lat": 0.0, "name": "900137714388c80d3a3d2b19090d768b", "is_reserved": 0, "rental_uris": {"android": "https://dc.lft.to/lastmile_qr_scan", "ios": "https://dc.lft.to/lastmile_qr_scan"}, "fusion_lon": 0.0}, {"lat": 38.962242333333336, "is_disabled": 0, "type": "electric_bike", "lon": -77.02628183333333, "bike_id": "432219b3c2f168787d4ca664eb6673ef", "fusion_lat": 0.0, "name": "432219b3c2f168787d4ca664eb6673ef", "is_reserved": 0, "rental_uris": {"android": "https://dc.lft.to/lastmile_qr_scan", "ios": "https://dc.lft.to/lastmile_qr_scan"}, "fusion_lon": 0.0}, {"lat": 38.91374716666667, "is_disabled": 0, "type": "electric_scooter", "lon": -77.02003833333333, "bike_id": "069439fc53c40f8e44cb8b48ac6fe239", "fusion_lat": 0.0, "name": "069439fc53c40f8e44cb8b48ac6fe239", "is_reserved": 0, "rental_uris": {"android": "https://dc.lft.to/lastmile_qr_scan", "ios": "https://dc.lft.to/lastmile_qr_scan"}, "fusion_lon": 0.0}, {"lat": 38.90300533333333, "is_disabled": 0, "type": "electric_scooter", "lon": -77.03950166666667, "bike_id": "f359362f8e3c74f2df0ea8055331f14e", "fusion_lat": 0.0, "name": "f359362f8e3c74f2df0ea8055331f14e", "is_reserved": 0, "rental_uris": {"android": "https://dc.lft.to/lastmile_qr_scan", "ios": "https://dc.lft.to/lastmile_qr_scan"}, "fusion_lon": 0.0}, {"lat": 38.94824966666667, "is_disabled": 0, "type": "electric_scooter", "lon": -76.99907216666666, "bike_id": "6c0507d0205dc5e72863ea5f6f887afc", "fusion_lat": 0.0, "name": "6c0507d0205dc5e72863ea5f6f887afc", "is_reserved": 0, "rental_uris": {"android": "https://dc.lft.to/lastmile_qr_scan", "ios": "https://dc.lft.to/lastmile_qr_scan"}, "fusion_lon": 0.0}, {"lat": 38.916803333333334, "is_disabled": 0, "type": "electric_scooter", "lon": -77.03221616666667, "bike_id": "3d82f43b509c7dcdf04a6a62427b1231", "fusion_lat": 0.0, "name": "3d82f43b509c7dcdf04a6a62427b1231", "is_reserved": 0, "rental_uris": {"android": "https://dc.lft.to/lastmile_qr_scan", "ios": "https://dc.lft.to/lastmile_qr_scan"}, "fusion_lon": 0.0}, {"lat": 38.897324166666664, "is_disabled": 0, "type": "electric_scooter", "lon": -77.02178333333333, "bike_id": "cf540c4a2b2750c4811f1085655d91b7", "fusion_lat": 0.0, "name": "cf540c4a2b2750c4811f1085655d91b7", "is_reserved": 0, "rental_uris": {"android": "https://dc.lft.to/lastmile_qr_scan", "ios": "https://dc.lft.to/lastmile_qr_scan"}, "fusion_lon": 0.0}, {"lat": 38.91565516666667, "is_disabled": 0, "type": "electric_scooter", "lon": -77.03149783333333, "bike_id": "5c757cdd22238faeb71d0a5853954901", "fusion_lat": 0.0, "name": "5c757cdd22238faeb71d0a5853954901", "is_reserved": 0, "rental_uris": {"android": "https://dc.lft.to/lastmile_qr_scan", "ios": "https://dc.lft.to/lastmile_qr_scan"}, "fusion_lon": 0.0}, {"lat": 38.895721, "is_disabled": 0, "type": "electric_scooter", "lon": -76.93038533333333, "bike_id": "531e2fbdb88901f1e1988dcc5c9b61e0", "fusion_lat": 0.0, "name": "531e2fbdb88901f1e1988dcc5c9b61e0", "is_reserved": 0, "rental_uris": {"android": "https://dc.lft.to/lastmile_qr_scan", "ios": "https://dc.lft.to/lastmile_qr_scan"}, "fusion_lon": 0.0}, {"lat": 38.903417833333336, "is_disabled": 0, "type": "electric_scooter", "lon": -77.0450075, "bike_id": "c65e6137da09281a3d7489519b56136c", "fusion_lat": 0.0, "name": "c65e6137da09281a3d7489519b56136c", "is_reserved": 0, "rental_uris": {"android": "https://dc.lft.to/lastmile_qr_scan", "ios": "https://dc.lft.to/lastmile_qr_scan"}, "fusion_lon": 0.0}, {"lat": 38.902923333333334, "is_disabled": 0, "type": "electric_scooter", "lon": -77.03854983333333, "bike_id": "7a412dbfa487fbf736d1f55ef82c7097", "fusion_lat": 0.0, "name": "7a412dbfa487fbf736d1f55ef82c7097", "is_reserved": 0, "rental_uris": {"android": "https://dc.lft.to/lastmile_qr_scan", "ios": "https://dc.lft.to/lastmile_qr_scan"}, "fusion_lon": 0.0}, {"lat": 38.89911816666667, "is_disabled": 0, "type": "electric_scooter", "lon": -76.9334875, "bike_id": "2d320ab16248951877822c99fcc09890", "fusion_lat": 0.0, "name": "2d320ab16248951877822c99fcc09890", "is_reserved": 0, "rental_uris": {"android": "https://dc.lft.to/lastmile_qr_scan", "ios": "https://dc.lft.to/lastmile_qr_scan"}, "fusion_lon": 0.0}, {"lat": 38.983815666666665, "is_disabled": 0, "type": "electric_bike", "lon": -77.00542816666666, "bike_id": "312ef9d4fee73f7a36db68be42e251dc", "fusion_lat": 0.0, "name": "312ef9d4fee73f7a36db68be42e251dc", "is_reserved": 0, "rental_uris": {"android": "https://dc.lft.to/lastmile_qr_scan", "ios": "https://dc.lft.to/lastmile_qr_scan"}, "fusion_lon": 0.0}, {"lat": 38.91278416666667, "is_disabled": 0, "type": "electric_scooter", "lon": -77.04508666666666, "bike_id": "3492686defbb47f25cb8257dfc738b40", "fusion_lat": 0.0, "name": "3492686defbb47f25cb8257dfc738b40", "is_reserved": 0, "rental_uris": {"android": "https://dc.lft.to/lastmile_qr_scan", "ios": "https://dc.lft.to/lastmile_qr_scan"}, "fusion_lon": 0.0}, {"lat": 38.95289433333333, "is_disabled": 0, "type": "electric_bike", "lon": -76.94599666666667, "bike_id": "395dad63feda97492163b03114a2907f", "fusion_lat": 0.0, "name": "395dad63feda97492163b03114a2907f", "is_reserved": 0, "rental_uris": {"android": "https://dc.lft.to/lastmile_qr_scan", "ios": "https://dc.lft.to/lastmile_qr_scan"}, "fusion_lon": 0.0}, {"lat": 38.93582966666666, "is_disabled": 0, "type": "electric_scooter", "lon": -77.03738716666666, "bike_id": "93f57fb75c0b5f3b9fa84091cb556035", "fusion_lat": 0.0, "name": "93f57fb75c0b5f3b9fa84091cb556035", "is_reserved": 0, "rental_uris": {"android": "https://dc.lft.to/lastmile_qr_scan", "ios": "https://dc.lft.to/lastmile_qr_scan"}, "fusion_lon": 0.0}, {"lat": 38.914147666666665, "is_disabled": 0, "type": "electric_scooter", "lon": -77.02950883333334, "bike_id": "9086b9961ef7d46557ea0ceebdc97594", "fusion_lat": 0.0, "name": "9086b9961ef7d46557ea0ceebdc97594", "is_reserved": 0, "rental_uris": {"android": "https://dc.lft.to/lastmile_qr_scan", "ios": "https://dc.lft.to/lastmile_qr_scan"}, "fusion_lon": 0.0}, {"lat": 38.939528833333334, "is_disabled": 0, "type": "electric_bike", "lon": -77.360995, "bike_id": "f8527316602e69ff3901c6f824887f07", "fusion_lat": 0.0, "name": "f8527316602e69ff3901c6f824887f07", "is_reserved": 0, "rental_uris": {"android": "https://dc.lft.to/lastmile_qr_scan", "ios": "https://dc.lft.to/lastmile_qr_scan"}, "fusion_lon": 0.0}, {"lat": 38.893944166666664, "is_disabled": 0, "type": "electric_scooter", "lon": -76.9500935, "bike_id": "fa0584fed7bf8c1cb1b73d093d731d5f", "fusion_lat": 0.0, "name": "fa0584fed7bf8c1cb1b73d093d731d5f", "is_reserved": 0, "rental_uris": {"android": "https://dc.lft.to/lastmile_qr_scan", "ios": "https://dc.lft.to/lastmile_qr_scan"}, "fusion_lon": 0.0}, {"lat": 38.917689333333335, "is_disabled": 0, "type": "electric_scooter", "lon": -77.0319465, "bike_id": "b0c9fb3124be4b7ebfde0690da06ad7f", "fusion_lat": 0.0, "name": "b0c9fb3124be4b7ebfde0690da06ad7f", "is_reserved": 0, "rental_uris": {"android": "https://dc.lft.to/lastmile_qr_scan", "ios": "https://dc.lft.to/lastmile_qr_scan"}, "fusion_lon": 0.0}, {"lat": 38.922590666666665, "is_disabled": 0, "type": "electric_scooter", "lon": -77.0469595, "bike_id": "833e829928ed052e60b610bff7be6d9a", "fusion_lat": 0.0, "name": "833e829928ed052e60b610bff7be6d9a", "is_reserved": 0, "rental_uris": {"android": "https://dc.lft.to/lastmile_qr_scan", "ios": "https://dc.lft.to/lastmile_qr_scan"}, "fusion_lon": 0.0}, {"lat": 38.933662166666664, "is_disabled": 0, "type": "electric_scooter", "lon": -77.05740016666667, "bike_id": "dd692770989530c235e9317d83de4950", "fusion_lat": 0.0, "name": "dd692770989530c235e9317d83de4950", "is_reserved": 0, "rental_uris": {"android": "https://dc.lft.to/lastmile_qr_scan", "ios": "https://dc.lft.to/lastmile_qr_scan"}, "fusion_lon": 0.0}, {"lat": 38.920817166666666, "is_disabled": 0, "type": "electric_scooter", "lon": -77.03653633333333, "bike_id": "4a47e35402deeeeb18558ab3ed3bd8fe", "fusion_lat": 0.0, "name": "4a47e35402deeeeb18558ab3ed3bd8fe", "is_reserved": 0, "rental_uris": {"android": "https://dc.lft.to/lastmile_qr_scan", "ios": "https://dc.lft.to/lastmile_qr_scan"}, "fusion_lon": 0.0}, {"lat": 38.89010533333333, "is_disabled": 0, "type": "electric_scooter", "lon": -76.93750433333334, "bike_id": "c006159a7ec671af3911127c9561eadc", "fusion_lat": 0.0, "name": "c006159a7ec671af3911127c9561eadc", "is_reserved": 0, "rental_uris": {"android": "https://dc.lft.to/lastmile_qr_scan", "ios": "https://dc.lft.to/lastmile_qr_scan"}, "fusion_lon": 0.0}, {"lat": 38.929915333333334, "is_disabled": 0, "type": "electric_scooter", "lon": -77.03639016666666, "bike_id": "632951a7b214feab3727df57ffc6170e", "fusion_lat": 0.0, "name": "632951a7b214feab3727df57ffc6170e", "is_reserved": 0, "rental_uris": {"android": "https://dc.lft.to/lastmile_qr_scan", "ios": "https://dc.lft.to/lastmile_qr_scan"}, "fusion_lon": 0.0}, {"lat": 38.920868, "is_disabled": 0, "type": "electric_scooter", "lon": -77.017481, "bike_id": "e89c1bf5919161b3f017e5b088c110a5", "fusion_lat": 0.0, "name": "e89c1bf5919161b3f017e5b088c110a5", "is_reserved": 0, "rental_uris": {"android": "https://dc.lft.to/lastmile_qr_scan", "ios": "https://dc.lft.to/lastmile_qr_scan"}, "fusion_lon": 0.0}, {"lat": 38.909073666666664, "is_disabled": 0, "type": "electric_scooter", "lon": -77.02298016666667, "bike_id": "189a8c7aa0e410b47c8e79c8a7a23a31", "fusion_lat": 0.0, "name": "189a8c7aa0e410b47c8e79c8a7a23a31", "is_reserved": 0, "rental_uris": {"android": "https://dc.lft.to/lastmile_qr_scan", "ios": "https://dc.lft.to/lastmile_qr_scan"}, "fusion_lon": 0.0}, {"lat": 38.910123166666665, "is_disabled": 0, "type": "electric_scooter", "lon": -76.993944, "bike_id": "7338c6e0e1bdc5c92cbeacb34092c827", "fusion_lat": 0.0, "name": "7338c6e0e1bdc5c92cbeacb34092c827", "is_reserved": 0, "rental_uris": {"android": "https://dc.lft.to/lastmile_qr_scan", "ios": "https://dc.lft.to/lastmile_qr_scan"}, "fusion_lon": 0.0}, {"lat": 38.917006666666666, "is_disabled": 0, "type": "electric_scooter", "lon": -77.03127583333334, "bike_id": "05cafc234da238e19e3e2745eca8f5ba", "fusion_lat": 0.0, "name": "05cafc234da238e19e3e2745eca8f5ba", "is_reserved": 0, "rental_uris": {"android": "https://dc.lft.to/lastmile_qr_scan", "ios": "https://dc.lft.to/lastmile_qr_scan"}, "fusion_lon": 0.0}, {"lat": 38.898927666666665, "is_disabled": 0, "type": "electric_scooter", "lon": -77.03249033333333, "bike_id": "15f282b8b0e66edb9f8be642aae0a048", "fusion_lat": 0.0, "name": "15f282b8b0e66edb9f8be642aae0a048", "is_reserved": 0, "rental_uris": {"android": "https://dc.lft.to/lastmile_qr_scan", "ios": "https://dc.lft.to/lastmile_qr_scan"}, "fusion_lon": 0.0}, {"lat": 38.904183, "is_disabled": 0, "type": "electric_scooter", "lon": -77.068911, "bike_id": "8d2119a753f943b7a3fdb3c28e736bcd", "fusion_lat": 0.0, "name": "8d2119a753f943b7a3fdb3c28e736bcd", "is_reserved": 0, "rental_uris": {"android": "https://dc.lft.to/lastmile_qr_scan", "ios": "https://dc.lft.to/lastmile_qr_scan"}, "fusion_lon": 0.0}, {"lat": 38.91671516666667, "is_disabled": 0, "type": "electric_scooter", "lon": -77.02718066666667, "bike_id": "093ab4bf0c706a88803e48910596c131", "fusion_lat": 0.0, "name": "093ab4bf0c706a88803e48910596c131", "is_reserved": 0, "rental_uris": {"android": "https://dc.lft.to/lastmile_qr_scan", "ios": "https://dc.lft.to/lastmile_qr_scan"}, "fusion_lon": 0.0}, {"lat": 38.900594166666664, "is_disabled": 0, "type": "electric_scooter", "lon": -77.00211466666667, "bike_id": "11488c150d4862221f9c183764a07f2c", "fusion_lat": 0.0, "name": "11488c150d4862221f9c183764a07f2c", "is_reserved": 0, "rental_uris": {"android": "https://dc.lft.to/lastmile_qr_scan", "ios": "https://dc.lft.to/lastmile_qr_scan"}, "fusion_lon": 0.0}, {"lat": 38.887403166666665, "is_disabled": 0, "type": "electric_scooter", "lon": -77.01533316666666, "bike_id": "180d29dba37f26b578ecca99c798b88b", "fusion_lat": 0.0, "name": "180d29dba37f26b578ecca99c798b88b", "is_reserved": 0, "rental_uris": {"android": "https://dc.lft.to/lastmile_qr_scan", "ios": "https://dc.lft.to/lastmile_qr_scan"}, "fusion_lon": 0.0}, {"lat": 38.901110333333335, "is_disabled": 0, "type": "electric_scooter", "lon": -76.99548233333333, "bike_id": "e6bd4b3b62ee4341af78cb8b95d37ee9", "fusion_lat": 0.0, "name": "e6bd4b3b62ee4341af78cb8b95d37ee9", "is_reserved": 0, "rental_uris": {"android": "https://dc.lft.to/lastmile_qr_scan", "ios": "https://dc.lft.to/lastmile_qr_scan"}, "fusion_lon": 0.0}, {"lat": 38.88674366666667, "is_disabled": 0, "type": "electric_bike", "lon": -77.162564, "bike_id": "f5c2c6c5d1f45a2d855197899b297454", "fusion_lat": 0.0, "name": "f5c2c6c5d1f45a2d855197899b297454", "is_reserved": 0, "rental_uris": {"android": "https://dc.lft.to/lastmile_qr_scan", "ios": "https://dc.lft.to/lastmile_qr_scan"}, "fusion_lon": 0.0}, {"lat": 38.933815333333335, "is_disabled": 0, "type": "electric_scooter", "lon": -77.032537, "bike_id": "033557658392ad628a834fdbe804ddbc", "fusion_lat": 0.0, "name": "033557658392ad628a834fdbe804ddbc", "is_reserved": 0, "rental_uris": {"android": "https://dc.lft.to/lastmile_qr_scan", "ios": "https://dc.lft.to/lastmile_qr_scan"}, "fusion_lon": 0.0}, {"lat": 38.902766, "is_disabled": 0, "type": "electric_scooter", "lon": -77.03886016666667, "bike_id": "522f9ad0b8e937daa9acfd42378fd33b", "fusion_lat": 0.0, "name": "522f9ad0b8e937daa9acfd42378fd33b", "is_reserved": 0, "rental_uris": {"android": "https://dc.lft.to/lastmile_qr_scan", "ios": "https://dc.lft.to/lastmile_qr_scan"}, "fusion_lon": 0.0}, {"lat": 38.9175565, "is_disabled": 0, "type": "electric_scooter", "lon": -77.03188866666666, "bike_id": "2f9d5ba16f95b0bcf5298966344f204a", "fusion_lat": 0.0, "name": "2f9d5ba16f95b0bcf5298966344f204a", "is_reserved": 0, "rental_uris": {"android": "https://dc.lft.to/lastmile_qr_scan", "ios": "https://dc.lft.to/lastmile_qr_scan"}, "fusion_lon": 0.0}, {"lat": 38.90278083333333, "is_disabled": 0, "type": "electric_scooter", "lon": -77.0439175, "bike_id": "74b57d1da9b207f3bc8b788aafa4fd78", "fusion_lat": 0.0, "name": "74b57d1da9b207f3bc8b788aafa4fd78", "is_reserved": 0, "rental_uris": {"android": "https://dc.lft.to/lastmile_qr_scan", "ios": "https://dc.lft.to/lastmile_qr_scan"}, "fusion_lon": 0.0}, {"lat": 38.90988483333334, "is_disabled": 0, "type": "electric_scooter", "lon": -77.0384845, "bike_id": "f016cd9e6832173047c152dddc668ea9", "fusion_lat": 0.0, "name": "f016cd9e6832173047c152dddc668ea9", "is_reserved": 0, "rental_uris": {"android": "https://dc.lft.to/lastmile_qr_scan", "ios": "https://dc.lft.to/lastmile_qr_scan"}, "fusion_lon": 0.0}, {"lat": 38.90373783333333, "is_disabled": 0, "type": "electric_scooter", "lon": -77.036656, "bike_id": "65809a111cbb48792be3c1d57d860e74", "fusion_lat": 0.0, "name": "65809a111cbb48792be3c1d57d860e74", "is_reserved": 0, "rental_uris": {"android": "https://dc.lft.to/lastmile_qr_scan", "ios": "https://dc.lft.to/lastmile_qr_scan"}, "fusion_lon": 0.0}, {"lat": 38.91631316666667, "is_disabled": 0, "type": "electric_scooter", "lon": -77.031713, "bike_id": "fc033710c8fdb8812a5108a7a235ffc4", "fusion_lat": 0.0, "name": "fc033710c8fdb8812a5108a7a235ffc4", "is_reserved": 0, "rental_uris": {"android": "https://dc.lft.to/lastmile_qr_scan", "ios": "https://dc.lft.to/lastmile_qr_scan"}, "fusion_lon": 0.0}, {"lat": 38.90734, "is_disabled": 0, "type": "electric_scooter", "lon": -77.02718633333333, "bike_id": "59c5ab826b5f659112db4468eb539b30", "fusion_lat": 0.0, "name": "59c5ab826b5f659112db4468eb539b30", "is_reserved": 0, "rental_uris": {"android": "https://dc.lft.to/lastmile_qr_scan", "ios": "https://dc.lft.to/lastmile_qr_scan"}, "fusion_lon": 0.0}, {"lat": 38.892185, "is_disabled": 0, "type": "electric_scooter", "lon": -77.045135, "bike_id": "9730f16ce2936dd42d1d2c9fbd051e07", "fusion_lat": 0.0, "name": "9730f16ce2936dd42d1d2c9fbd051e07", "is_reserved": 0, "rental_uris": {"android": "https://dc.lft.to/lastmile_qr_scan", "ios": "https://dc.lft.to/lastmile_qr_scan"}, "fusion_lon": 0.0}, {"lat": 38.900681666666664, "is_disabled": 0, "type": "electric_scooter", "lon": -77.01217566666666, "bike_id": "427066d6e693283aa551a9ee28b44ef7", "fusion_lat": 0.0, "name": "427066d6e693283aa551a9ee28b44ef7", "is_reserved": 0, "rental_uris": {"android": "https://dc.lft.to/lastmile_qr_scan", "ios": "https://dc.lft.to/lastmile_qr_scan"}, "fusion_lon": 0.0}, {"lat": 38.97092283333333, "is_disabled": 0, "type": "electric_bike", "lon": -77.069777, "bike_id": "3d5a067a5bdc5dbc8c9614e06ea947c9", "fusion_lat": 0.0, "name": "3d5a067a5bdc5dbc8c9614e06ea947c9", "is_reserved": 0, "rental_uris": {"android": "https://dc.lft.to/lastmile_qr_scan", "ios": "https://dc.lft.to/lastmile_qr_scan"}, "fusion_lon": 0.0}, {"lat": 38.89218866666667, "is_disabled": 0, "type": "electric_scooter", "lon": -77.0222315, "bike_id": "1aafcac31c6a9ab7c651fddc4f9e877e", "fusion_lat": 0.0, "name": "1aafcac31c6a9ab7c651fddc4f9e877e", "is_reserved": 0, "rental_uris": {"android": "https://dc.lft.to/lastmile_qr_scan", "ios": "https://dc.lft.to/lastmile_qr_scan"}, "fusion_lon": 0.0}, {"lat": 38.87920316666667, "is_disabled": 0, "type": "electric_scooter", "lon": -77.03100733333333, "bike_id": "18f50115da3d2675cacdb4bd6c41e5f2", "fusion_lat": 0.0, "name": "18f50115da3d2675cacdb4bd6c41e5f2", "is_reserved": 0, "rental_uris": {"android": "https://dc.lft.to/lastmile_qr_scan", "ios": "https://dc.lft.to/lastmile_qr_scan"}, "fusion_lon": 0.0}, {"lat": 38.90816233333334, "is_disabled": 0, "type": "electric_scooter", "lon": -77.04344066666667, "bike_id": "d05554e74828f29145105b6a04a12cb9", "fusion_lat": 0.0, "name": "d05554e74828f29145105b6a04a12cb9", "is_reserved": 0, "rental_uris": {"android": "https://dc.lft.to/lastmile_qr_scan", "ios": "https://dc.lft.to/lastmile_qr_scan"}, "fusion_lon": 0.0}, {"lat": 38.907208, "is_disabled": 0, "type": "electric_scooter", "lon": -77.01685316666666, "bike_id": "02bd51cd3cb447139595d10f9a6dadce", "fusion_lat": 0.0, "name": "02bd51cd3cb447139595d10f9a6dadce", "is_reserved": 0, "rental_uris": {"android": "https://dc.lft.to/lastmile_qr_scan", "ios": "https://dc.lft.to/lastmile_qr_scan"}, "fusion_lon": 0.0}, {"lat": 38.905675, "is_disabled": 0, "type": "electric_scooter", "lon": -77.00596916666667, "bike_id": "ac6897ae959a2e0f537d4380a5ba5828", "fusion_lat": 0.0, "name": "ac6897ae959a2e0f537d4380a5ba5828", "is_reserved": 0, "rental_uris": {"android": "https://dc.lft.to/lastmile_qr_scan", "ios": "https://dc.lft.to/lastmile_qr_scan"}, "fusion_lon": 0.0}, {"lat": 38.917016, "is_disabled": 0, "type": "electric_scooter", "lon": -77.02660083333333, "bike_id": "da2c1026b06c51afe83afd3b13bd5156", "fusion_lat": 0.0, "name": "da2c1026b06c51afe83afd3b13bd5156", "is_reserved": 0, "rental_uris": {"android": "https://dc.lft.to/lastmile_qr_scan", "ios": "https://dc.lft.to/lastmile_qr_scan"}, "fusion_lon": 0.0}, {"lat": 38.9068155, "is_disabled": 0, "type": "electric_scooter", "lon": -77.02696816666666, "bike_id": "6268903d665cce044c8ca95e89a46d3b", "fusion_lat": 0.0, "name": "6268903d665cce044c8ca95e89a46d3b", "is_reserved": 0, "rental_uris": {"android": "https://dc.lft.to/lastmile_qr_scan", "ios": "https://dc.lft.to/lastmile_qr_scan"}, "fusion_lon": 0.0}, {"lat": 38.89958166666667, "is_disabled": 0, "type": "electric_scooter", "lon": -77.02578033333333, "bike_id": "c370772d49d8c74575026486c0fb98c4", "fusion_lat": 0.0, "name": "c370772d49d8c74575026486c0fb98c4", "is_reserved": 0, "rental_uris": {"android": "https://dc.lft.to/lastmile_qr_scan", "ios": "https://dc.lft.to/lastmile_qr_scan"}, "fusion_lon": 0.0}, {"lat": 38.84099633333334, "is_disabled": 0, "type": "electric_bike", "lon": -77.089409, "bike_id": "fbd80e7c6759929c129d3b61cf26d248", "fusion_lat": 0.0, "name": "fbd80e7c6759929c129d3b61cf26d248", "is_reserved": 0, "rental_uris": {"android": "https://dc.lft.to/lastmile_qr_scan", "ios": "https://dc.lft.to/lastmile_qr_scan"}, "fusion_lon": 0.0}, {"lat": 38.902776333333335, "is_disabled": 0, "type": "electric_scooter", "lon": -77.038594, "bike_id": "9283fac870e3863a8c078e72a0d6069f", "fusion_lat": 0.0, "name": "9283fac870e3863a8c078e72a0d6069f", "is_reserved": 0, "rental_uris": {"android": "https://dc.lft.to/lastmile_qr_scan", "ios": "https://dc.lft.to/lastmile_qr_scan"}, "fusion_lon": 0.0}, {"lat": 38.8987565, "is_disabled": 0, "type": "electric_scooter", "lon": -76.9318415, "bike_id": "d905e5240bf25a264b98220aff295e8a", "fusion_lat": 0.0, "name": "d905e5240bf25a264b98220aff295e8a", "is_reserved": 0, "rental_uris": {"android": "https://dc.lft.to/lastmile_qr_scan", "ios": "https://dc.lft.to/lastmile_qr_scan"}, "fusion_lon": 0.0}, {"lat": 38.934854, "is_disabled": 0, "type": "electric_bike", "lon": -77.030202, "bike_id": "dcce666302d5d866837454e24b2fd0f3", "fusion_lat": 0.0, "name": "dcce666302d5d866837454e24b2fd0f3", "is_reserved": 0, "rental_uris": {"android": "https://dc.lft.to/lastmile_qr_scan", "ios": "https://dc.lft.to/lastmile_qr_scan"}, "fusion_lon": 0.0}, {"lat": 38.901943833333334, "is_disabled": 0, "type": "electric_scooter", "lon": -77.02181283333333, "bike_id": "e9926d3587a465e36be6cdcda5093738", "fusion_lat": 0.0, "name": "e9926d3587a465e36be6cdcda5093738", "is_reserved": 0, "rental_uris": {"android": "https://dc.lft.to/lastmile_qr_scan", "ios": "https://dc.lft.to/lastmile_qr_scan"}, "fusion_lon": 0.0}, {"lat": 38.8934335, "is_disabled": 0, "type": "electric_scooter", "lon": -76.99156366666666, "bike_id": "6c069faffb9a25dd723e489515c74e7f", "fusion_lat": 0.0, "name": "6c069faffb9a25dd723e489515c74e7f", "is_reserved": 0, "rental_uris": {"android": "https://dc.lft.to/lastmile_qr_scan", "ios": "https://dc.lft.to/lastmile_qr_scan"}, "fusion_lon": 0.0}, {"lat": 38.88194716666667, "is_disabled": 0, "type": "electric_scooter", "lon": -76.99509933333333, "bike_id": "93102d0a9364450af7b2384d2c41c8db", "fusion_lat": 0.0, "name": "93102d0a9364450af7b2384d2c41c8db", "is_reserved": 0, "rental_uris": {"android": "https://dc.lft.to/lastmile_qr_scan", "ios": "https://dc.lft.to/lastmile_qr_scan"}, "fusion_lon": 0.0}, {"lat": 38.91064083333333, "is_disabled": 0, "type": "electric_scooter", "lon": -77.03102683333333, "bike_id": "27b83f29701548dd7fcb7a807a3b69bc", "fusion_lat": 0.0, "name": "27b83f29701548dd7fcb7a807a3b69bc", "is_reserved": 0, "rental_uris": {"android": "https://dc.lft.to/lastmile_qr_scan", "ios": "https://dc.lft.to/lastmile_qr_scan"}, "fusion_lon": 0.0}, {"lat": 38.91561433333333, "is_disabled": 0, "type": "electric_scooter", "lon": -77.03146816666667, "bike_id": "cf0ea8ba6147e1b15b12d5e78071f184", "fusion_lat": 0.0, "name": "cf0ea8ba6147e1b15b12d5e78071f184", "is_reserved": 0, "rental_uris": {"android": "https://dc.lft.to/lastmile_qr_scan", "ios": "https://dc.lft.to/lastmile_qr_scan"}, "fusion_lon": 0.0}, {"lat": 38.935307333333334, "is_disabled": 0, "type": "electric_scooter", "lon": -77.07295866666666, "bike_id": "535ff97064d8f830676a9003299c2cc8", "fusion_lat": 0.0, "name": "535ff97064d8f830676a9003299c2cc8", "is_reserved": 0, "rental_uris": {"android": "https://dc.lft.to/lastmile_qr_scan", "ios": "https://dc.lft.to/lastmile_qr_scan"}, "fusion_lon": 0.0}, {"lat": 38.94173766666667, "is_disabled": 0, "type": "electric_scooter", "lon": -77.02502733333333, "bike_id": "845b56d9bdff5be4ecd8f472d205d847", "fusion_lat": 0.0, "name": "845b56d9bdff5be4ecd8f472d205d847", "is_reserved": 0, "rental_uris": {"android": "https://dc.lft.to/lastmile_qr_scan", "ios": "https://dc.lft.to/lastmile_qr_scan"}, "fusion_lon": 0.0}, {"lat": 38.892208333333336, "is_disabled": 0, "type": "electric_scooter", "lon": -76.93301516666666, "bike_id": "c9ad2602a8abedce80f114f95826cf65", "fusion_lat": 0.0, "name": "c9ad2602a8abedce80f114f95826cf65", "is_reserved": 0, "rental_uris": {"android": "https://dc.lft.to/lastmile_qr_scan", "ios": "https://dc.lft.to/lastmile_qr_scan"}, "fusion_lon": 0.0}, {"lat": 38.904941, "is_disabled": 0, "type": "electric_scooter", "lon": -77.048937, "bike_id": "44cd66afe0cc4a74e3ade44bfb116fa1", "fusion_lat": 0.0, "name": "44cd66afe0cc4a74e3ade44bfb116fa1", "is_reserved": 0, "rental_uris": {"android": "https://dc.lft.to/lastmile_qr_scan", "ios": "https://dc.lft.to/lastmile_qr_scan"}, "fusion_lon": 0.0}, {"lat": 38.909484166666665, "is_disabled": 0, "type": "electric_scooter", "lon": -77.034538, "bike_id": "1dd3bd86e867ce23ab3d140bd1fbd546", "fusion_lat": 0.0, "name": "1dd3bd86e867ce23ab3d140bd1fbd546", "is_reserved": 0, "rental_uris": {"android": "https://dc.lft.to/lastmile_qr_scan", "ios": "https://dc.lft.to/lastmile_qr_scan"}, "fusion_lon": 0.0}, {"lat": 38.913554, "is_disabled": 0, "type": "electric_scooter", "lon": -77.03361216666667, "bike_id": "d69bc3e80dc648c543851e218357fcd3", "fusion_lat": 0.0, "name": "d69bc3e80dc648c543851e218357fcd3", "is_reserved": 0, "rental_uris": {"android": "https://dc.lft.to/lastmile_qr_scan", "ios": "https://dc.lft.to/lastmile_qr_scan"}, "fusion_lon": 0.0}, {"lat": 38.915677333333335, "is_disabled": 0, "type": "electric_scooter", "lon": -77.02287883333334, "bike_id": "68ccad32d8f0a0a3f78f31073fe4d70a", "fusion_lat": 0.0, "name": "68ccad32d8f0a0a3f78f31073fe4d70a", "is_reserved": 0, "rental_uris": {"android": "https://dc.lft.to/lastmile_qr_scan", "ios": "https://dc.lft.to/lastmile_qr_scan"}, "fusion_lon": 0.0}, {"lat": 38.86507133333333, "is_disabled": 0, "type": "electric_scooter", "lon": -76.99006083333333, "bike_id": "ba59a3b40aa98cd4f0ec916a3d24b47d", "fusion_lat": 0.0, "name": "ba59a3b40aa98cd4f0ec916a3d24b47d", "is_reserved": 0, "rental_uris": {"android": "https://dc.lft.to/lastmile_qr_scan", "ios": "https://dc.lft.to/lastmile_qr_scan"}, "fusion_lon": 0.0}, {"lat": 38.9022145, "is_disabled": 0, "type": "electric_scooter", "lon": -77.05902816666666, "bike_id": "6c02547ad83ff4503cc03425cb670baa", "fusion_lat": 0.0, "name": "6c02547ad83ff4503cc03425cb670baa", "is_reserved": 0, "rental_uris": {"android": "https://dc.lft.to/lastmile_qr_scan", "ios": "https://dc.lft.to/lastmile_qr_scan"}, "fusion_lon": 0.0}, {"lat": 38.900966, "is_disabled": 0, "type": "electric_scooter", "lon": -77.056067, "bike_id": "1594ae4a429c88097257c5e480cd5999", "fusion_lat": 0.0, "name": "1594ae4a429c88097257c5e480cd5999", "is_reserved": 0, "rental_uris": {"android": "https://dc.lft.to/lastmile_qr_scan", "ios": "https://dc.lft.to/lastmile_qr_scan"}, "fusion_lon": 0.0}, {"lat": 38.897988833333336, "is_disabled": 0, "type": "electric_scooter", "lon": -77.02810483333333, "bike_id": "ad1d0143c291b7734452a5e52781758f", "fusion_lat": 0.0, "name": "ad1d0143c291b7734452a5e52781758f", "is_reserved": 0, "rental_uris": {"android": "https://dc.lft.to/lastmile_qr_scan", "ios": "https://dc.lft.to/lastmile_qr_scan"}, "fusion_lon": 0.0}, {"lat": 38.89222733333333, "is_disabled": 0, "type": "electric_scooter", "lon": -77.02212683333333, "bike_id": "3e26e468d44d470411a6ad38d1a77d83", "fusion_lat": 0.0, "name": "3e26e468d44d470411a6ad38d1a77d83", "is_reserved": 0, "rental_uris": {"android": "https://dc.lft.to/lastmile_qr_scan", "ios": "https://dc.lft.to/lastmile_qr_scan"}, "fusion_lon": 0.0}, {"lat": 38.89999016666667, "is_disabled": 0, "type": "electric_scooter", "lon": -77.00585933333333, "bike_id": "9ee53daf61b9845619207f5c0cc7108b", "fusion_lat": 0.0, "name": "9ee53daf61b9845619207f5c0cc7108b", "is_reserved": 0, "rental_uris": {"android": "https://dc.lft.to/lastmile_qr_scan", "ios": "https://dc.lft.to/lastmile_qr_scan"}, "fusion_lon": 0.0}, {"lat": 38.903346, "is_disabled": 0, "type": "electric_scooter", "lon": -77.02602766666666, "bike_id": "6be5f67fcf12a0b85d0040988da6ea95", "fusion_lat": 0.0, "name": "6be5f67fcf12a0b85d0040988da6ea95", "is_reserved": 0, "rental_uris": {"android": "https://dc.lft.to/lastmile_qr_scan", "ios": "https://dc.lft.to/lastmile_qr_scan"}, "fusion_lon": 0.0}, {"lat": 38.9199995, "is_disabled": 0, "type": "electric_scooter", "lon": -77.0321565, "bike_id": "a6f4bb20854b0c49bc2a0c40c4dc2c75", "fusion_lat": 0.0, "name": "a6f4bb20854b0c49bc2a0c40c4dc2c75", "is_reserved": 0, "rental_uris": {"android": "https://dc.lft.to/lastmile_qr_scan", "ios": "https://dc.lft.to/lastmile_qr_scan"}, "fusion_lon": 0.0}, {"lat": 38.88258966666667, "is_disabled": 0, "type": "electric_scooter", "lon": -77.0036955, "bike_id": "665558b0889be3913e447f3a852c14e4", "fusion_lat": 0.0, "name": "665558b0889be3913e447f3a852c14e4", "is_reserved": 0, "rental_uris": {"android": "https://dc.lft.to/lastmile_qr_scan", "ios": "https://dc.lft.to/lastmile_qr_scan"}, "fusion_lon": 0.0}, {"lat": 38.89924666666667, "is_disabled": 0, "type": "electric_scooter", "lon": -77.02811216666667, "bike_id": "4ae6b28f874b0b2a3e236896f4720922", "fusion_lat": 0.0, "name": "4ae6b28f874b0b2a3e236896f4720922", "is_reserved": 0, "rental_uris": {"android": "https://dc.lft.to/lastmile_qr_scan", "ios": "https://dc.lft.to/lastmile_qr_scan"}, "fusion_lon": 0.0}, {"lat": 38.842699333333336, "is_disabled": 0, "type": "electric_bike", "lon": -76.98845583333333, "bike_id": "3addd76eed615b1c648d0e0d43aa23a3", "fusion_lat": 0.0, "name": "3addd76eed615b1c648d0e0d43aa23a3", "is_reserved": 0, "rental_uris": {"android": "https://dc.lft.to/lastmile_qr_scan", "ios": "https://dc.lft.to/lastmile_qr_scan"}, "fusion_lon": 0.0}, {"lat": 38.884856666666664, "is_disabled": 0, "type": "electric_scooter", "lon": -77.00710833333333, "bike_id": "2a8cf5714fb999feeb36107e4db258fc", "fusion_lat": 0.0, "name": "2a8cf5714fb999feeb36107e4db258fc", "is_reserved": 0, "rental_uris": {"android": "https://dc.lft.to/lastmile_qr_scan", "ios": "https://dc.lft.to/lastmile_qr_scan"}, "fusion_lon": 0.0}, {"lat": 38.86617616666667, "is_disabled": 0, "type": "electric_scooter", "lon": -76.98699666666667, "bike_id": "d05f7eeb8281cb5c5771dc7bec991dd9", "fusion_lat": 0.0, "name": "d05f7eeb8281cb5c5771dc7bec991dd9", "is_reserved": 0, "rental_uris": {"android": "https://dc.lft.to/lastmile_qr_scan", "ios": "https://dc.lft.to/lastmile_qr_scan"}, "fusion_lon": 0.0}, {"lat": 38.8922115, "is_disabled": 0, "type": "electric_scooter", "lon": -77.027835, "bike_id": "c86224f0b719d2409ee3748eb35b7301", "fusion_lat": 0.0, "name": "c86224f0b719d2409ee3748eb35b7301", "is_reserved": 0, "rental_uris": {"android": "https://dc.lft.to/lastmile_qr_scan", "ios": "https://dc.lft.to/lastmile_qr_scan"}, "fusion_lon": 0.0}, {"lat": 38.905269833333335, "is_disabled": 0, "type": "electric_scooter", "lon": -77.04355783333334, "bike_id": "5523e0d1d64ffbae9ce491cd64f8409f", "fusion_lat": 0.0, "name": "5523e0d1d64ffbae9ce491cd64f8409f", "is_reserved": 0, "rental_uris": {"android": "https://dc.lft.to/lastmile_qr_scan", "ios": "https://dc.lft.to/lastmile_qr_scan"}, "fusion_lon": 0.0}, {"lat": 38.90016116666666, "is_disabled": 0, "type": "electric_scooter", "lon": -76.99743466666666, "bike_id": "2a0ee6c2dec05e85a68e483d26e5a338", "fusion_lat": 0.0, "name": "2a0ee6c2dec05e85a68e483d26e5a338", "is_reserved": 0, "rental_uris": {"android": "https://dc.lft.to/lastmile_qr_scan", "ios": "https://dc.lft.to/lastmile_qr_scan"}, "fusion_lon": 0.0}, {"lat": 38.91364516666667, "is_disabled": 0, "type": "electric_scooter", "lon": -77.039595, "bike_id": "22ea38ecfa1b1c74b2fde0852430a555", "fusion_lat": 0.0, "name": "22ea38ecfa1b1c74b2fde0852430a555", "is_reserved": 0, "rental_uris": {"android": "https://dc.lft.to/lastmile_qr_scan", "ios": "https://dc.lft.to/lastmile_qr_scan"}, "fusion_lon": 0.0}, {"lat": 38.905289, "is_disabled": 0, "type": "electric_scooter", "lon": -77.04196433333334, "bike_id": "aeafa00d98eab330de8648350897cc98", "fusion_lat": 0.0, "name": "aeafa00d98eab330de8648350897cc98", "is_reserved": 0, "rental_uris": {"android": "https://dc.lft.to/lastmile_qr_scan", "ios": "https://dc.lft.to/lastmile_qr_scan"}, "fusion_lon": 0.0}, {"lat": 38.949283, "is_disabled": 0, "type": "electric_scooter", "lon": -77.0193545, "bike_id": "45a96a1e8497be1098ebde1c281dfd50", "fusion_lat": 0.0, "name": "45a96a1e8497be1098ebde1c281dfd50", "is_reserved": 0, "rental_uris": {"android": "https://dc.lft.to/lastmile_qr_scan", "ios": "https://dc.lft.to/lastmile_qr_scan"}, "fusion_lon": 0.0}, {"lat": 38.9052575, "is_disabled": 0, "type": "electric_scooter", "lon": -77.04181166666666, "bike_id": "116a24b0e332e34af5614beab22c3770", "fusion_lat": 0.0, "name": "116a24b0e332e34af5614beab22c3770", "is_reserved": 0, "rental_uris": {"android": "https://dc.lft.to/lastmile_qr_scan", "ios": "https://dc.lft.to/lastmile_qr_scan"}, "fusion_lon": 0.0}, {"lat": 38.92613266666667, "is_disabled": 0, "type": "electric_scooter", "lon": -76.99607633333333, "bike_id": "53c635383dfb665beffd0297ca680a1c", "fusion_lat": 0.0, "name": "53c635383dfb665beffd0297ca680a1c", "is_reserved": 0, "rental_uris": {"android": "https://dc.lft.to/lastmile_qr_scan", "ios": "https://dc.lft.to/lastmile_qr_scan"}, "fusion_lon": 0.0}, {"lat": 38.91560166666667, "is_disabled": 0, "type": "electric_scooter", "lon": -77.04001133333334, "bike_id": "d234e7ca544bf0e7c250e92968cf3888", "fusion_lat": 0.0, "name": "d234e7ca544bf0e7c250e92968cf3888", "is_reserved": 0, "rental_uris": {"android": "https://dc.lft.to/lastmile_qr_scan", "ios": "https://dc.lft.to/lastmile_qr_scan"}, "fusion_lon": 0.0}, {"lat": 38.91267066666666, "is_disabled": 0, "type": "electric_scooter", "lon": -77.0225365, "bike_id": "4a3dd9ae3d2226fe854af356d12e645a", "fusion_lat": 0.0, "name": "4a3dd9ae3d2226fe854af356d12e645a", "is_reserved": 0, "rental_uris": {"android": "https://dc.lft.to/lastmile_qr_scan", "ios": "https://dc.lft.to/lastmile_qr_scan"}, "fusion_lon": 0.0}, {"lat": 38.889990166666664, "is_disabled": 0, "type": "electric_scooter", "lon": -76.95414183333334, "bike_id": "86d4f0dc5bcdaea05c1d945009a731ba", "fusion_lat": 0.0, "name": "86d4f0dc5bcdaea05c1d945009a731ba", "is_reserved": 0, "rental_uris": {"android": "https://dc.lft.to/lastmile_qr_scan", "ios": "https://dc.lft.to/lastmile_qr_scan"}, "fusion_lon": 0.0}, {"lat": 38.928275166666666, "is_disabled": 0, "type": "electric_scooter", "lon": -77.01391716666667, "bike_id": "3a4bb067c31ae57cbc9df4d5e0b76495", "fusion_lat": 0.0, "name": "3a4bb067c31ae57cbc9df4d5e0b76495", "is_reserved": 0, "rental_uris": {"android": "https://dc.lft.to/lastmile_qr_scan", "ios": "https://dc.lft.to/lastmile_qr_scan"}, "fusion_lon": 0.0}, {"lat": 38.985062166666665, "is_disabled": 0, "type": "electric_bike", "lon": -76.98213200000001, "bike_id": "b2220d6a0a374e6659de45a47f1fe810", "fusion_lat": 0.0, "name": "b2220d6a0a374e6659de45a47f1fe810", "is_reserved": 0, "rental_uris": {"android": "https://dc.lft.to/lastmile_qr_scan", "ios": "https://dc.lft.to/lastmile_qr_scan"}, "fusion_lon": 0.0}, {"lat": 38.805769166666664, "is_disabled": 0, "type": "electric_bike", "lon": -77.06860766666667, "bike_id": "89af3af055b6bfa8a08c79bd04f1b4d5", "fusion_lat": 0.0, "name": "89af3af055b6bfa8a08c79bd04f1b4d5", "is_reserved": 0, "rental_uris": {"android": "https://dc.lft.to/lastmile_qr_scan", "ios": "https://dc.lft.to/lastmile_qr_scan"}, "fusion_lon": 0.0}, {"lat": 38.909559333333334, "is_disabled": 0, "type": "electric_scooter", "lon": -77.03467833333333, "bike_id": "56a390332742c26f9017c846f03d1411", "fusion_lat": 0.0, "name": "56a390332742c26f9017c846f03d1411", "is_reserved": 0, "rental_uris": {"android": "https://dc.lft.to/lastmile_qr_scan", "ios": "https://dc.lft.to/lastmile_qr_scan"}, "fusion_lon": 0.0}, {"lat": 38.910160166666664, "is_disabled": 0, "type": "electric_scooter", "lon": -77.03179, "bike_id": "c556b0c5dbcfce836cd1a27384cb1f98", "fusion_lat": 0.0, "name": "c556b0c5dbcfce836cd1a27384cb1f98", "is_reserved": 0, "rental_uris": {"android": "https://dc.lft.to/lastmile_qr_scan", "ios": "https://dc.lft.to/lastmile_qr_scan"}, "fusion_lon": 0.0}, {"lat": 38.904133, "is_disabled": 0, "type": "electric_scooter", "lon": -77.0258975, "bike_id": "7bc9af0171a74c0d4adf08ea93145ea5", "fusion_lat": 0.0, "name": "7bc9af0171a74c0d4adf08ea93145ea5", "is_reserved": 0, "rental_uris": {"android": "https://dc.lft.to/lastmile_qr_scan", "ios": "https://dc.lft.to/lastmile_qr_scan"}, "fusion_lon": 0.0}, {"lat": 38.98269066666667, "is_disabled": 0, "type": "electric_bike", "lon": -77.017814, "bike_id": "f670d146dd7c9d9447b5d3da2884912e", "fusion_lat": 0.0, "name": "f670d146dd7c9d9447b5d3da2884912e", "is_reserved": 0, "rental_uris": {"android": "https://dc.lft.to/lastmile_qr_scan", "ios": "https://dc.lft.to/lastmile_qr_scan"}, "fusion_lon": 0.0}, {"lat": 38.909629833333334, "is_disabled": 0, "type": "electric_scooter", "lon": -77.038345, "bike_id": "10b832318929c71cdbf63b9fba604196", "fusion_lat": 0.0, "name": "10b832318929c71cdbf63b9fba604196", "is_reserved": 0, "rental_uris": {"android": "https://dc.lft.to/lastmile_qr_scan", "ios": "https://dc.lft.to/lastmile_qr_scan"}, "fusion_lon": 0.0}, {"lat": 38.91734316666667, "is_disabled": 0, "type": "electric_scooter", "lon": -77.03191233333334, "bike_id": "e64cd0e0c4c71fdaada469a46e59a41a", "fusion_lat": 0.0, "name": "e64cd0e0c4c71fdaada469a46e59a41a", "is_reserved": 0, "rental_uris": {"android": "https://dc.lft.to/lastmile_qr_scan", "ios": "https://dc.lft.to/lastmile_qr_scan"}, "fusion_lon": 0.0}, {"lat": 38.900898, "is_disabled": 0, "type": "electric_bike", "lon": -77.04878266666667, "bike_id": "ed5e0d355b1f5b4218045f1021c29a27", "fusion_lat": 0.0, "name": "ed5e0d355b1f5b4218045f1021c29a27", "is_reserved": 0, "rental_uris": {"android": "https://dc.lft.to/lastmile_qr_scan", "ios": "https://dc.lft.to/lastmile_qr_scan"}, "fusion_lon": 0.0}, {"lat": 38.958801333333334, "is_disabled": 0, "type": "electric_bike", "lon": -77.0103495, "bike_id": "2d865378342e03843433ba97b6c7ff75", "fusion_lat": 0.0, "name": "2d865378342e03843433ba97b6c7ff75", "is_reserved": 0, "rental_uris": {"android": "https://dc.lft.to/lastmile_qr_scan", "ios": "https://dc.lft.to/lastmile_qr_scan"}, "fusion_lon": 0.0}, {"lat": 38.9166865, "is_disabled": 0, "type": "electric_scooter", "lon": -77.02297233333333, "bike_id": "a98997672f78a7c490cb14948480f1b6", "fusion_lat": 0.0, "name": "a98997672f78a7c490cb14948480f1b6", "is_reserved": 0, "rental_uris": {"android": "https://dc.lft.to/lastmile_qr_scan", "ios": "https://dc.lft.to/lastmile_qr_scan"}, "fusion_lon": 0.0}, {"lat": 38.892224166666665, "is_disabled": 0, "type": "electric_scooter", "lon": -77.0221365, "bike_id": "86d440fe4040a3b8c20e85fd8abab51a", "fusion_lat": 0.0, "name": "86d440fe4040a3b8c20e85fd8abab51a", "is_reserved": 0, "rental_uris": {"android": "https://dc.lft.to/lastmile_qr_scan", "ios": "https://dc.lft.to/lastmile_qr_scan"}, "fusion_lon": 0.0}, {"lat": 38.89455433333333, "is_disabled": 0, "type": "electric_scooter", "lon": -76.97811033333333, "bike_id": "ad4323b2a7f303c3857a5d605c03352e", "fusion_lat": 0.0, "name": "ad4323b2a7f303c3857a5d605c03352e", "is_reserved": 0, "rental_uris": {"android": "https://dc.lft.to/lastmile_qr_scan", "ios": "https://dc.lft.to/lastmile_qr_scan"}, "fusion_lon": 0.0}, {"lat": 38.902446166666664, "is_disabled": 0, "type": "electric_scooter", "lon": -77.026341, "bike_id": "4727d97d1c88f0a017568ce86b68d5b9", "fusion_lat": 0.0, "name": "4727d97d1c88f0a017568ce86b68d5b9", "is_reserved": 0, "rental_uris": {"android": "https://dc.lft.to/lastmile_qr_scan", "ios": "https://dc.lft.to/lastmile_qr_scan"}, "fusion_lon": 0.0}, {"lat": 38.92336183333333, "is_disabled": 0, "type": "electric_scooter", "lon": -77.036165, "bike_id": "07833561bd9c7dabfde14de3ca624aa9", "fusion_lat": 0.0, "name": "07833561bd9c7dabfde14de3ca624aa9", "is_reserved": 0, "rental_uris": {"android": "https://dc.lft.to/lastmile_qr_scan", "ios": "https://dc.lft.to/lastmile_qr_scan"}, "fusion_lon": 0.0}, {"lat": 38.8866945, "is_disabled": 0, "type": "electric_scooter", "lon": -76.99023016666666, "bike_id": "8c778802b478212b8c42adbd6bc4e61e", "fusion_lat": 0.0, "name": "8c778802b478212b8c42adbd6bc4e61e", "is_reserved": 0, "rental_uris": {"android": "https://dc.lft.to/lastmile_qr_scan", "ios": "https://dc.lft.to/lastmile_qr_scan"}, "fusion_lon": 0.0}, {"lat": 38.890106833333334, "is_disabled": 0, "type": "electric_scooter", "lon": -76.93741533333333, "bike_id": "5ff7a6885c1355a8d6ff03f80c267524", "fusion_lat": 0.0, "name": "5ff7a6885c1355a8d6ff03f80c267524", "is_reserved": 0, "rental_uris": {"android": "https://dc.lft.to/lastmile_qr_scan", "ios": "https://dc.lft.to/lastmile_qr_scan"}, "fusion_lon": 0.0}, {"lat": 38.912652, "is_disabled": 0, "type": "electric_scooter", "lon": -77.02252483333334, "bike_id": "264b66fd4b601c46beb20804a4cb959d", "fusion_lat": 0.0, "name": "264b66fd4b601c46beb20804a4cb959d", "is_reserved": 0, "rental_uris": {"android": "https://dc.lft.to/lastmile_qr_scan", "ios": "https://dc.lft.to/lastmile_qr_scan"}, "fusion_lon": 0.0}, {"lat": 38.901930166666666, "is_disabled": 0, "type": "electric_scooter", "lon": -77.02188933333333, "bike_id": "6296ec2a8c34c36338b44f12ba5f2c90", "fusion_lat": 0.0, "name": "6296ec2a8c34c36338b44f12ba5f2c90", "is_reserved": 0, "rental_uris": {"android": "https://dc.lft.to/lastmile_qr_scan", "ios": "https://dc.lft.to/lastmile_qr_scan"}, "fusion_lon": 0.0}, {"lat": 39.074995333333334, "is_disabled": 0, "type": "electric_bike", "lon": -77.118996, "bike_id": "85130fe00cce9443ca5930be66a5899c", "fusion_lat": 0.0, "name": "85130fe00cce9443ca5930be66a5899c", "is_reserved": 0, "rental_uris": {"android": "https://dc.lft.to/lastmile_qr_scan", "ios": "https://dc.lft.to/lastmile_qr_scan"}, "fusion_lon": 0.0}, {"lat": 38.93059566666667, "is_disabled": 0, "type": "electric_scooter", "lon": -77.0363455, "bike_id": "1af218b7954dc2caff81e09ed767d67f", "fusion_lat": 0.0, "name": "1af218b7954dc2caff81e09ed767d67f", "is_reserved": 0, "rental_uris": {"android": "https://dc.lft.to/lastmile_qr_scan", "ios": "https://dc.lft.to/lastmile_qr_scan"}, "fusion_lon": 0.0}, {"lat": 38.93074133333333, "is_disabled": 0, "type": "electric_scooter", "lon": -77.037274, "bike_id": "66e750473665f3e4d22073859279904a", "fusion_lat": 0.0, "name": "66e750473665f3e4d22073859279904a", "is_reserved": 0, "rental_uris": {"android": "https://dc.lft.to/lastmile_qr_scan", "ios": "https://dc.lft.to/lastmile_qr_scan"}, "fusion_lon": 0.0}, {"lat": 38.906692166666666, "is_disabled": 0, "type": "electric_scooter", "lon": -77.03825866666666, "bike_id": "ced03257dba594aa0ad0493ce9a56beb", "fusion_lat": 0.0, "name": "ced03257dba594aa0ad0493ce9a56beb", "is_reserved": 0, "rental_uris": {"android": "https://dc.lft.to/lastmile_qr_scan", "ios": "https://dc.lft.to/lastmile_qr_scan"}, "fusion_lon": 0.0}, {"lat": 38.94416283333333, "is_disabled": 0, "type": "electric_scooter", "lon": -77.055236, "bike_id": "d613b9985a5d2108469329a5ce000168", "fusion_lat": 0.0, "name": "d613b9985a5d2108469329a5ce000168", "is_reserved": 0, "rental_uris": {"android": "https://dc.lft.to/lastmile_qr_scan", "ios": "https://dc.lft.to/lastmile_qr_scan"}, "fusion_lon": 0.0}, {"lat": 38.91108933333334, "is_disabled": 0, "type": "electric_scooter", "lon": -77.03145933333333, "bike_id": "9a4671cdcb5e1f77ccb33ea14cc77bbf", "fusion_lat": 0.0, "name": "9a4671cdcb5e1f77ccb33ea14cc77bbf", "is_reserved": 0, "rental_uris": {"android": "https://dc.lft.to/lastmile_qr_scan", "ios": "https://dc.lft.to/lastmile_qr_scan"}, "fusion_lon": 0.0}, {"lat": 38.922006333333336, "is_disabled": 0, "type": "electric_scooter", "lon": -77.04259316666666, "bike_id": "07fed837c5f8069724a383d351bd1402", "fusion_lat": 0.0, "name": "07fed837c5f8069724a383d351bd1402", "is_reserved": 0, "rental_uris": {"android": "https://dc.lft.to/lastmile_qr_scan", "ios": "https://dc.lft.to/lastmile_qr_scan"}, "fusion_lon": 0.0}, {"lat": 38.911205333333335, "is_disabled": 0, "type": "electric_scooter", "lon": -77.03147833333334, "bike_id": "c62d2ab161ae4883f694321e1609e9b2", "fusion_lat": 0.0, "name": "c62d2ab161ae4883f694321e1609e9b2", "is_reserved": 0, "rental_uris": {"android": "https://dc.lft.to/lastmile_qr_scan", "ios": "https://dc.lft.to/lastmile_qr_scan"}, "fusion_lon": 0.0}, {"lat": 38.906279833333336, "is_disabled": 0, "type": "electric_scooter", "lon": -77.022005, "bike_id": "4a68fbd3a85b3d9104a586f551a21fdc", "fusion_lat": 0.0, "name": "4a68fbd3a85b3d9104a586f551a21fdc", "is_reserved": 0, "rental_uris": {"android": "https://dc.lft.to/lastmile_qr_scan", "ios": "https://dc.lft.to/lastmile_qr_scan"}, "fusion_lon": 0.0}, {"lat": 38.90727666666667, "is_disabled": 0, "type": "electric_scooter", "lon": -76.996811, "bike_id": "d602245387e00ba9fd9febdbf5dc100b", "fusion_lat": 0.0, "name": "d602245387e00ba9fd9febdbf5dc100b", "is_reserved": 0, "rental_uris": {"android": "https://dc.lft.to/lastmile_qr_scan", "ios": "https://dc.lft.to/lastmile_qr_scan"}, "fusion_lon": 0.0}, {"lat": 38.887395166666664, "is_disabled": 0, "type": "electric_scooter", "lon": -77.02206366666667, "bike_id": "e9c12088a1a63964b124bee9ccedbe8b", "fusion_lat": 0.0, "name": "e9c12088a1a63964b124bee9ccedbe8b", "is_reserved": 0, "rental_uris": {"android": "https://dc.lft.to/lastmile_qr_scan", "ios": "https://dc.lft.to/lastmile_qr_scan"}, "fusion_lon": 0.0}, {"lat": 38.918083, "is_disabled": 0, "type": "electric_scooter", "lon": -77.04034016666667, "bike_id": "6e13cdb59ad207bed5a5b090a6c3f50e", "fusion_lat": 0.0, "name": "6e13cdb59ad207bed5a5b090a6c3f50e", "is_reserved": 0, "rental_uris": {"android": "https://dc.lft.to/lastmile_qr_scan", "ios": "https://dc.lft.to/lastmile_qr_scan"}, "fusion_lon": 0.0}, {"lat": 38.89392566666667, "is_disabled": 0, "type": "electric_scooter", "lon": -76.95002633333333, "bike_id": "c7b72f5405b6235a5ec220915eeb2943", "fusion_lat": 0.0, "name": "c7b72f5405b6235a5ec220915eeb2943", "is_reserved": 0, "rental_uris": {"android": "https://dc.lft.to/lastmile_qr_scan", "ios": "https://dc.lft.to/lastmile_qr_scan"}, "fusion_lon": 0.0}, {"lat": 38.915676833333336, "is_disabled": 0, "type": "electric_scooter", "lon": -77.02008233333333, "bike_id": "e1db1df65e8190d0e4a99ad5b374cebb", "fusion_lat": 0.0, "name": "e1db1df65e8190d0e4a99ad5b374cebb", "is_reserved": 0, "rental_uris": {"android": "https://dc.lft.to/lastmile_qr_scan", "ios": "https://dc.lft.to/lastmile_qr_scan"}, "fusion_lon": 0.0}, {"lat": 38.923635, "is_disabled": 0, "type": "electric_scooter", "lon": -77.0512615, "bike_id": "d04c81315fbfc2d5ea1ad029e6396089", "fusion_lat": 0.0, "name": "d04c81315fbfc2d5ea1ad029e6396089", "is_reserved": 0, "rental_uris": {"android": "https://dc.lft.to/lastmile_qr_scan", "ios": "https://dc.lft.to/lastmile_qr_scan"}, "fusion_lon": 0.0}, {"lat": 38.91203683333333, "is_disabled": 0, "type": "electric_scooter", "lon": -77.0450705, "bike_id": "e3a05879ab4414d8bc3557cde3c9638d", "fusion_lat": 0.0, "name": "e3a05879ab4414d8bc3557cde3c9638d", "is_reserved": 0, "rental_uris": {"android": "https://dc.lft.to/lastmile_qr_scan", "ios": "https://dc.lft.to/lastmile_qr_scan"}, "fusion_lon": 0.0}, {"lat": 38.907358, "is_disabled": 0, "type": "electric_scooter", "lon": -77.025921, "bike_id": "fce1e407a078c82d1ece1fdad916d199", "fusion_lat": 0.0, "name": "fce1e407a078c82d1ece1fdad916d199", "is_reserved": 0, "rental_uris": {"android": "https://dc.lft.to/lastmile_qr_scan", "ios": "https://dc.lft.to/lastmile_qr_scan"}, "fusion_lon": 0.0}, {"lat": 38.90112383333334, "is_disabled": 0, "type": "electric_scooter", "lon": -77.0267, "bike_id": "b3746b02fd25278c1afc34338acaf1ab", "fusion_lat": 0.0, "name": "b3746b02fd25278c1afc34338acaf1ab", "is_reserved": 0, "rental_uris": {"android": "https://dc.lft.to/lastmile_qr_scan", "ios": "https://dc.lft.to/lastmile_qr_scan"}, "fusion_lon": 0.0}, {"lat": 38.910512833333335, "is_disabled": 0, "type": "electric_scooter", "lon": -77.01517083333333, "bike_id": "f0ae4f7ed282964312c6742efbcb6b6e", "fusion_lat": 0.0, "name": "f0ae4f7ed282964312c6742efbcb6b6e", "is_reserved": 0, "rental_uris": {"android": "https://dc.lft.to/lastmile_qr_scan", "ios": "https://dc.lft.to/lastmile_qr_scan"}, "fusion_lon": 0.0}, {"lat": 38.8812155, "is_disabled": 0, "type": "electric_scooter", "lon": -77.01413833333334, "bike_id": "2b89c8b11ef625511e26b368c50ca4aa", "fusion_lat": 0.0, "name": "2b89c8b11ef625511e26b368c50ca4aa", "is_reserved": 0, "rental_uris": {"android": "https://dc.lft.to/lastmile_qr_scan", "ios": "https://dc.lft.to/lastmile_qr_scan"}, "fusion_lon": 0.0}, {"lat": 38.9078065, "is_disabled": 0, "type": "electric_scooter", "lon": -77.0423195, "bike_id": "ada3bf4010f63b76b84a1a9a909d314a", "fusion_lat": 0.0, "name": "ada3bf4010f63b76b84a1a9a909d314a", "is_reserved": 0, "rental_uris": {"android": "https://dc.lft.to/lastmile_qr_scan", "ios": "https://dc.lft.to/lastmile_qr_scan"}, "fusion_lon": 0.0}, {"lat": 38.9557485, "is_disabled": 0, "type": "electric_scooter", "lon": -77.07007033333333, "bike_id": "7a779b31a6e1ef33a1967f0237eabc29", "fusion_lat": 0.0, "name": "7a779b31a6e1ef33a1967f0237eabc29", "is_reserved": 0, "rental_uris": {"android": "https://dc.lft.to/lastmile_qr_scan", "ios": "https://dc.lft.to/lastmile_qr_scan"}, "fusion_lon": 0.0}, {"lat": 38.905528, "is_disabled": 0, "type": "electric_scooter", "lon": -77.05712, "bike_id": "b221cbff7ebc6de6142cb8205593b172", "fusion_lat": 0.0, "name": "b221cbff7ebc6de6142cb8205593b172", "is_reserved": 0, "rental_uris": {"android": "https://dc.lft.to/lastmile_qr_scan", "ios": "https://dc.lft.to/lastmile_qr_scan"}, "fusion_lon": 0.0}, {"lat": 38.89842566666667, "is_disabled": 0, "type": "electric_scooter", "lon": -76.94633633333333, "bike_id": "4effa09bc435c851b8ae1f21927dbda9", "fusion_lat": 0.0, "name": "4effa09bc435c851b8ae1f21927dbda9", "is_reserved": 0, "rental_uris": {"android": "https://dc.lft.to/lastmile_qr_scan", "ios": "https://dc.lft.to/lastmile_qr_scan"}, "fusion_lon": 0.0}, {"lat": 38.900755, "is_disabled": 0, "type": "electric_scooter", "lon": -77.02712666666666, "bike_id": "fbf556a7db63ef8783fae947967e2fdb", "fusion_lat": 0.0, "name": "fbf556a7db63ef8783fae947967e2fdb", "is_reserved": 0, "rental_uris": {"android": "https://dc.lft.to/lastmile_qr_scan", "ios": "https://dc.lft.to/lastmile_qr_scan"}, "fusion_lon": 0.0}, {"lat": 38.89715783333333, "is_disabled": 0, "type": "electric_scooter", "lon": -77.02140683333333, "bike_id": "57f68ed1680e6347d15bb6eeb0aa6baa", "fusion_lat": 0.0, "name": "57f68ed1680e6347d15bb6eeb0aa6baa", "is_reserved": 0, "rental_uris": {"android": "https://dc.lft.to/lastmile_qr_scan", "ios": "https://dc.lft.to/lastmile_qr_scan"}, "fusion_lon": 0.0}, {"lat": 38.954033333333335, "is_disabled": 0, "type": "electric_scooter", "lon": -77.0362665, "bike_id": "f864c077dde73651fa295922618687a7", "fusion_lat": 0.0, "name": "f864c077dde73651fa295922618687a7", "is_reserved": 0, "rental_uris": {"android": "https://dc.lft.to/lastmile_qr_scan", "ios": "https://dc.lft.to/lastmile_qr_scan"}, "fusion_lon": 0.0}, {"lat": 38.91806283333333, "is_disabled": 0, "type": "electric_scooter", "lon": -77.040279, "bike_id": "a33f82fb2e2a87d28182d35ca5a9589d", "fusion_lat": 0.0, "name": "a33f82fb2e2a87d28182d35ca5a9589d", "is_reserved": 0, "rental_uris": {"android": "https://dc.lft.to/lastmile_qr_scan", "ios": "https://dc.lft.to/lastmile_qr_scan"}, "fusion_lon": 0.0}, {"lat": 38.91408166666667, "is_disabled": 0, "type": "electric_scooter", "lon": -77.02566316666666, "bike_id": "a473078ea9ef2493909dd5aec91945ca", "fusion_lat": 0.0, "name": "a473078ea9ef2493909dd5aec91945ca", "is_reserved": 0, "rental_uris": {"android": "https://dc.lft.to/lastmile_qr_scan", "ios": "https://dc.lft.to/lastmile_qr_scan"}, "fusion_lon": 0.0}, {"lat": 38.8044455, "is_disabled": 0, "type": "electric_bike", "lon": -77.06087083333334, "bike_id": "1a61b45301e00f32f2f26120704c7f19", "fusion_lat": 0.0, "name": "1a61b45301e00f32f2f26120704c7f19", "is_reserved": 0, "rental_uris": {"android": "https://dc.lft.to/lastmile_qr_scan", "ios": "https://dc.lft.to/lastmile_qr_scan"}, "fusion_lon": 0.0}, {"lat": 38.86907883333333, "is_disabled": 0, "type": "electric_bike", "lon": -77.13177483333334, "bike_id": "c4c05a9ee1b5a1df45fc0ce88512aec4", "fusion_lat": 0.0, "name": "c4c05a9ee1b5a1df45fc0ce88512aec4", "is_reserved": 0, "rental_uris": {"android": "https://dc.lft.to/lastmile_qr_scan", "ios": "https://dc.lft.to/lastmile_qr_scan"}, "fusion_lon": 0.0}, {"lat": 39.015747166666664, "is_disabled": 0, "type": "electric_bike", "lon": -77.04237116666667, "bike_id": "d588f64392848b0cf14937dd82c30e53", "fusion_lat": 0.0, "name": "d588f64392848b0cf14937dd82c30e53", "is_reserved": 0, "rental_uris": {"android": "https://dc.lft.to/lastmile_qr_scan", "ios": "https://dc.lft.to/lastmile_qr_scan"}, "fusion_lon": 0.0}, {"lat": 38.89908633333334, "is_disabled": 0, "type": "electric_scooter", "lon": -77.0328305, "bike_id": "60d592db01f31dff6eab733f4bc61579", "fusion_lat": 0.0, "name": "60d592db01f31dff6eab733f4bc61579", "is_reserved": 0, "rental_uris": {"android": "https://dc.lft.to/lastmile_qr_scan", "ios": "https://dc.lft.to/lastmile_qr_scan"}, "fusion_lon": 0.0}, {"lat": 38.958770666666666, "is_disabled": 0, "type": "electric_bike", "lon": -77.01031016666667, "bike_id": "34ff3915375df1dea4f1a506078bdd31", "fusion_lat": 0.0, "name": "34ff3915375df1dea4f1a506078bdd31", "is_reserved": 0, "rental_uris": {"android": "https://dc.lft.to/lastmile_qr_scan", "ios": "https://dc.lft.to/lastmile_qr_scan"}, "fusion_lon": 0.0}, {"lat": 38.922056833333336, "is_disabled": 0, "type": "electric_scooter", "lon": -77.040184, "bike_id": "52a7d37f00242d28a091c2e0aa5e043c", "fusion_lat": 0.0, "name": "52a7d37f00242d28a091c2e0aa5e043c", "is_reserved": 0, "rental_uris": {"android": "https://dc.lft.to/lastmile_qr_scan", "ios": "https://dc.lft.to/lastmile_qr_scan"}, "fusion_lon": 0.0}, {"lat": 38.895483666666664, "is_disabled": 0, "type": "electric_scooter", "lon": -77.009103, "bike_id": "db64d994750ce3e197cc283e08052e6d", "fusion_lat": 0.0, "name": "db64d994750ce3e197cc283e08052e6d", "is_reserved": 0, "rental_uris": {"android": "https://dc.lft.to/lastmile_qr_scan", "ios": "https://dc.lft.to/lastmile_qr_scan"}, "fusion_lon": 0.0}, {"lat": 38.896988666666665, "is_disabled": 0, "type": "electric_scooter", "lon": -77.04879316666667, "bike_id": "8904ab534a3994bf09cf24501949b339", "fusion_lat": 0.0, "name": "8904ab534a3994bf09cf24501949b339", "is_reserved": 0, "rental_uris": {"android": "https://dc.lft.to/lastmile_qr_scan", "ios": "https://dc.lft.to/lastmile_qr_scan"}, "fusion_lon": 0.0}, {"lat": 38.91920533333333, "is_disabled": 0, "type": "electric_scooter", "lon": -77.03188233333333, "bike_id": "d466f8de0a5952d601fdab72c71be314", "fusion_lat": 0.0, "name": "d466f8de0a5952d601fdab72c71be314", "is_reserved": 0, "rental_uris": {"android": "https://dc.lft.to/lastmile_qr_scan", "ios": "https://dc.lft.to/lastmile_qr_scan"}, "fusion_lon": 0.0}, {"lat": 38.8990175, "is_disabled": 0, "type": "electric_scooter", "lon": -76.933508, "bike_id": "9cf248f0f805491e17614e0d85b64731", "fusion_lat": 0.0, "name": "9cf248f0f805491e17614e0d85b64731", "is_reserved": 0, "rental_uris": {"android": "https://dc.lft.to/lastmile_qr_scan", "ios": "https://dc.lft.to/lastmile_qr_scan"}, "fusion_lon": 0.0}, {"lat": 38.9119005, "is_disabled": 0, "type": "electric_scooter", "lon": -77.0108435, "bike_id": "a1c1cc6268b02774a1a270b5d329fa99", "fusion_lat": 0.0, "name": "a1c1cc6268b02774a1a270b5d329fa99", "is_reserved": 0, "rental_uris": {"android": "https://dc.lft.to/lastmile_qr_scan", "ios": "https://dc.lft.to/lastmile_qr_scan"}, "fusion_lon": 0.0}, {"lat": 38.9023675, "is_disabled": 0, "type": "electric_scooter", "lon": -77.0020385, "bike_id": "b07d52274d85ea51aee2e89effcf3153", "fusion_lat": 0.0, "name": "b07d52274d85ea51aee2e89effcf3153", "is_reserved": 0, "rental_uris": {"android": "https://dc.lft.to/lastmile_qr_scan", "ios": "https://dc.lft.to/lastmile_qr_scan"}, "fusion_lon": 0.0}, {"lat": 38.930178166666664, "is_disabled": 0, "type": "electric_scooter", "lon": -77.04449333333334, "bike_id": "7daebdbba5becf18e937fca3af375814", "fusion_lat": 0.0, "name": "7daebdbba5becf18e937fca3af375814", "is_reserved": 0, "rental_uris": {"android": "https://dc.lft.to/lastmile_qr_scan", "ios": "https://dc.lft.to/lastmile_qr_scan"}, "fusion_lon": 0.0}, {"lat": 38.914061833333335, "is_disabled": 0, "type": "electric_scooter", "lon": -77.031586, "bike_id": "d663f3f22051b1af116f55e9d9c34259", "fusion_lat": 0.0, "name": "d663f3f22051b1af116f55e9d9c34259", "is_reserved": 0, "rental_uris": {"android": "https://dc.lft.to/lastmile_qr_scan", "ios": "https://dc.lft.to/lastmile_qr_scan"}, "fusion_lon": 0.0}, {"lat": 38.910279, "is_disabled": 0, "type": "electric_scooter", "lon": -77.04269416666666, "bike_id": "88a45741c2a73a48287e723f4869ec78", "fusion_lat": 0.0, "name": "88a45741c2a73a48287e723f4869ec78", "is_reserved": 0, "rental_uris": {"android": "https://dc.lft.to/lastmile_qr_scan", "ios": "https://dc.lft.to/lastmile_qr_scan"}, "fusion_lon": 0.0}, {"lat": 38.9329405, "is_disabled": 0, "type": "electric_scooter", "lon": -77.04534916666667, "bike_id": "a9eb2de33e598e30206c75d7bebd0f1e", "fusion_lat": 0.0, "name": "a9eb2de33e598e30206c75d7bebd0f1e", "is_reserved": 0, "rental_uris": {"android": "https://dc.lft.to/lastmile_qr_scan", "ios": "https://dc.lft.to/lastmile_qr_scan"}, "fusion_lon": 0.0}, {"lat": 38.928577, "is_disabled": 0, "type": "electric_scooter", "lon": -77.0370325, "bike_id": "df6009c7b58374384e0d1f4e3a84dd9f", "fusion_lat": 0.0, "name": "df6009c7b58374384e0d1f4e3a84dd9f", "is_reserved": 0, "rental_uris": {"android": "https://dc.lft.to/lastmile_qr_scan", "ios": "https://dc.lft.to/lastmile_qr_scan"}, "fusion_lon": 0.0}, {"lat": 38.91463066666667, "is_disabled": 0, "type": "electric_scooter", "lon": -77.01435316666667, "bike_id": "7abd23664311252939665292595a00da", "fusion_lat": 0.0, "name": "7abd23664311252939665292595a00da", "is_reserved": 0, "rental_uris": {"android": "https://dc.lft.to/lastmile_qr_scan", "ios": "https://dc.lft.to/lastmile_qr_scan"}, "fusion_lon": 0.0}, {"lat": 38.90028383333333, "is_disabled": 0, "type": "electric_scooter", "lon": -77.033151, "bike_id": "d1c59caafff771b53f02775881d5cc23", "fusion_lat": 0.0, "name": "d1c59caafff771b53f02775881d5cc23", "is_reserved": 0, "rental_uris": {"android": "https://dc.lft.to/lastmile_qr_scan", "ios": "https://dc.lft.to/lastmile_qr_scan"}, "fusion_lon": 0.0}, {"lat": 38.91442033333333, "is_disabled": 0, "type": "electric_bike", "lon": -76.97225533333334, "bike_id": "930278daae486ba3304d0b6b62399206", "fusion_lat": 0.0, "name": "930278daae486ba3304d0b6b62399206", "is_reserved": 0, "rental_uris": {"android": "https://dc.lft.to/lastmile_qr_scan", "ios": "https://dc.lft.to/lastmile_qr_scan"}, "fusion_lon": 0.0}, {"lat": 38.906540166666666, "is_disabled": 0, "type": "electric_scooter", "lon": -77.03790216666667, "bike_id": "09f8bcad16592db6a9210f766f1fc8bb", "fusion_lat": 0.0, "name": "09f8bcad16592db6a9210f766f1fc8bb", "is_reserved": 0, "rental_uris": {"android": "https://dc.lft.to/lastmile_qr_scan", "ios": "https://dc.lft.to/lastmile_qr_scan"}, "fusion_lon": 0.0}, {"lat": 38.905727, "is_disabled": 0, "type": "electric_scooter", "lon": -77.02695583333333, "bike_id": "067c5b050b2abc3243d089a527ac4b72", "fusion_lat": 0.0, "name": "067c5b050b2abc3243d089a527ac4b72", "is_reserved": 0, "rental_uris": {"android": "https://dc.lft.to/lastmile_qr_scan", "ios": "https://dc.lft.to/lastmile_qr_scan"}, "fusion_lon": 0.0}, {"lat": 38.87069783333333, "is_disabled": 0, "type": "electric_bike", "lon": -76.97838683333333, "bike_id": "67ebcdcb9a4be10bba9500662bc60a1d", "fusion_lat": 0.0, "name": "67ebcdcb9a4be10bba9500662bc60a1d", "is_reserved": 0, "rental_uris": {"android": "https://dc.lft.to/lastmile_qr_scan", "ios": "https://dc.lft.to/lastmile_qr_scan"}, "fusion_lon": 0.0}, {"lat": 38.90965033333333, "is_disabled": 0, "type": "electric_scooter", "lon": -77.03865783333333, "bike_id": "87f93fa330e9213bb49fbdf88d87c0a5", "fusion_lat": 0.0, "name": "87f93fa330e9213bb49fbdf88d87c0a5", "is_reserved": 0, "rental_uris": {"android": "https://dc.lft.to/lastmile_qr_scan", "ios": "https://dc.lft.to/lastmile_qr_scan"}, "fusion_lon": 0.0}, {"lat": 38.88390066666667, "is_disabled": 0, "type": "electric_scooter", "lon": -76.98547716666667, "bike_id": "20f4675e3c1f61a06f4f63a2ea7a01b8", "fusion_lat": 0.0, "name": "20f4675e3c1f61a06f4f63a2ea7a01b8", "is_reserved": 0, "rental_uris": {"android": "https://dc.lft.to/lastmile_qr_scan", "ios": "https://dc.lft.to/lastmile_qr_scan"}, "fusion_lon": 0.0}, {"lat": 38.8922155, "is_disabled": 0, "type": "electric_scooter", "lon": -77.02212983333334, "bike_id": "3f3b028eb57cbc5d343cb55e653143a8", "fusion_lat": 0.0, "name": "3f3b028eb57cbc5d343cb55e653143a8", "is_reserved": 0, "rental_uris": {"android": "https://dc.lft.to/lastmile_qr_scan", "ios": "https://dc.lft.to/lastmile_qr_scan"}, "fusion_lon": 0.0}, {"lat": 38.89034866666667, "is_disabled": 0, "type": "electric_scooter", "lon": -76.93754516666667, "bike_id": "f92cb242c6872b8ee2fd8f171d015552", "fusion_lat": 0.0, "name": "f92cb242c6872b8ee2fd8f171d015552", "is_reserved": 0, "rental_uris": {"android": "https://dc.lft.to/lastmile_qr_scan", "ios": "https://dc.lft.to/lastmile_qr_scan"}, "fusion_lon": 0.0}, {"lat": 38.92540133333333, "is_disabled": 0, "type": "electric_scooter", "lon": -77.041336, "bike_id": "8c55280b50a70cb5ee0ea65375a8e50f", "fusion_lat": 0.0, "name": "8c55280b50a70cb5ee0ea65375a8e50f", "is_reserved": 0, "rental_uris": {"android": "https://dc.lft.to/lastmile_qr_scan", "ios": "https://dc.lft.to/lastmile_qr_scan"}, "fusion_lon": 0.0}, {"lat": 38.89448633333333, "is_disabled": 0, "type": "electric_scooter", "lon": -77.02400533333333, "bike_id": "8567d98a4d6714a96b8d782eecb54dce", "fusion_lat": 0.0, "name": "8567d98a4d6714a96b8d782eecb54dce", "is_reserved": 0, "rental_uris": {"android": "https://dc.lft.to/lastmile_qr_scan", "ios": "https://dc.lft.to/lastmile_qr_scan"}, "fusion_lon": 0.0}, {"lat": 38.883743833333334, "is_disabled": 0, "type": "electric_scooter", "lon": -76.9951835, "bike_id": "1ff95513b6d6d21fe80a4350a62883a6", "fusion_lat": 0.0, "name": "1ff95513b6d6d21fe80a4350a62883a6", "is_reserved": 0, "rental_uris": {"android": "https://dc.lft.to/lastmile_qr_scan", "ios": "https://dc.lft.to/lastmile_qr_scan"}, "fusion_lon": 0.0}, {"lat": 38.900585666666665, "is_disabled": 0, "type": "electric_scooter", "lon": -77.00211766666666, "bike_id": "91f1a10fe780ac609068bfe97b368392", "fusion_lat": 0.0, "name": "91f1a10fe780ac609068bfe97b368392", "is_reserved": 0, "rental_uris": {"android": "https://dc.lft.to/lastmile_qr_scan", "ios": "https://dc.lft.to/lastmile_qr_scan"}, "fusion_lon": 0.0}, {"lat": 38.85394766666667, "is_disabled": 0, "type": "electric_bike", "lon": -77.1248565, "bike_id": "bead4de1057faae78b6ec45195f1c9dc", "fusion_lat": 0.0, "name": "bead4de1057faae78b6ec45195f1c9dc", "is_reserved": 0, "rental_uris": {"android": "https://dc.lft.to/lastmile_qr_scan", "ios": "https://dc.lft.to/lastmile_qr_scan"}, "fusion_lon": 0.0}, {"lat": 38.850786, "is_disabled": 0, "type": "electric_bike", "lon": -76.95677133333334, "bike_id": "cea9aacebf4f4f69f96dbc35e5dedd90", "fusion_lat": 0.0, "name": "cea9aacebf4f4f69f96dbc35e5dedd90", "is_reserved": 0, "rental_uris": {"android": "https://dc.lft.to/lastmile_qr_scan", "ios": "https://dc.lft.to/lastmile_qr_scan"}, "fusion_lon": 0.0}, {"lat": 38.895768833333335, "is_disabled": 0, "type": "electric_scooter", "lon": -76.98182216666666, "bike_id": "d29ab6b76153e69ed34ea0940b580deb", "fusion_lat": 0.0, "name": "d29ab6b76153e69ed34ea0940b580deb", "is_reserved": 0, "rental_uris": {"android": "https://dc.lft.to/lastmile_qr_scan", "ios": "https://dc.lft.to/lastmile_qr_scan"}, "fusion_lon": 0.0}, {"lat": 38.89991916666666, "is_disabled": 0, "type": "electric_scooter", "lon": -77.0525795, "bike_id": "fa10eec1ae426ddbd6ad1104de7d75eb", "fusion_lat": 0.0, "name": "fa10eec1ae426ddbd6ad1104de7d75eb", "is_reserved": 0, "rental_uris": {"android": "https://dc.lft.to/lastmile_qr_scan", "ios": "https://dc.lft.to/lastmile_qr_scan"}, "fusion_lon": 0.0}, {"lat": 38.89453316666667, "is_disabled": 0, "type": "electric_scooter", "lon": -77.02692816666666, "bike_id": "d9277caf5f7248ce7b73627ae97063a0", "fusion_lat": 0.0, "name": "d9277caf5f7248ce7b73627ae97063a0", "is_reserved": 0, "rental_uris": {"android": "https://dc.lft.to/lastmile_qr_scan", "ios": "https://dc.lft.to/lastmile_qr_scan"}, "fusion_lon": 0.0}, {"lat": 38.899921666666664, "is_disabled": 0, "type": "electric_scooter", "lon": -77.02666983333333, "bike_id": "1f4225f43c57bd0b142fe13775c127f3", "fusion_lat": 0.0, "name": "1f4225f43c57bd0b142fe13775c127f3", "is_reserved": 0, "rental_uris": {"android": "https://dc.lft.to/lastmile_qr_scan", "ios": "https://dc.lft.to/lastmile_qr_scan"}, "fusion_lon": 0.0}, {"lat": 38.917636333333334, "is_disabled": 0, "type": "electric_scooter", "lon": -77.03200933333333, "bike_id": "8c4a2df4020277dbaa777e7c1d433c7a", "fusion_lat": 0.0, "name": "8c4a2df4020277dbaa777e7c1d433c7a", "is_reserved": 0, "rental_uris": {"android": "https://dc.lft.to/lastmile_qr_scan", "ios": "https://dc.lft.to/lastmile_qr_scan"}, "fusion_lon": 0.0}, {"lat": 38.9026825, "is_disabled": 0, "type": "electric_scooter", "lon": -77.04372833333333, "bike_id": "77f712b7b8a304e20276a302a769b279", "fusion_lat": 0.0, "name": "77f712b7b8a304e20276a302a769b279", "is_reserved": 0, "rental_uris": {"android": "https://dc.lft.to/lastmile_qr_scan", "ios": "https://dc.lft.to/lastmile_qr_scan"}, "fusion_lon": 0.0}, {"lat": 38.92118133333334, "is_disabled": 0, "type": "electric_scooter", "lon": -77.03199333333333, "bike_id": "8b1cb30370759edba5bcbb06280035ab", "fusion_lat": 0.0, "name": "8b1cb30370759edba5bcbb06280035ab", "is_reserved": 0, "rental_uris": {"android": "https://dc.lft.to/lastmile_qr_scan", "ios": "https://dc.lft.to/lastmile_qr_scan"}, "fusion_lon": 0.0}, {"lat": 38.91705733333333, "is_disabled": 0, "type": "electric_scooter", "lon": -77.04686883333333, "bike_id": "1d4876b7e4509eab826bc6dd7c83eb6f", "fusion_lat": 0.0, "name": "1d4876b7e4509eab826bc6dd7c83eb6f", "is_reserved": 0, "rental_uris": {"android": "https://dc.lft.to/lastmile_qr_scan", "ios": "https://dc.lft.to/lastmile_qr_scan"}, "fusion_lon": 0.0}, {"lat": 38.90374516666667, "is_disabled": 0, "type": "electric_scooter", "lon": -77.03566416666666, "bike_id": "a0e4f28861cf29b83bb4055f45109524", "fusion_lat": 0.0, "name": "a0e4f28861cf29b83bb4055f45109524", "is_reserved": 0, "rental_uris": {"android": "https://dc.lft.to/lastmile_qr_scan", "ios": "https://dc.lft.to/lastmile_qr_scan"}, "fusion_lon": 0.0}, {"lat": 38.91348633333333, "is_disabled": 0, "type": "electric_scooter", "lon": -77.03190483333333, "bike_id": "3f8425592921dbc2cf8241d282a70cde", "fusion_lat": 0.0, "name": "3f8425592921dbc2cf8241d282a70cde", "is_reserved": 0, "rental_uris": {"android": "https://dc.lft.to/lastmile_qr_scan", "ios": "https://dc.lft.to/lastmile_qr_scan"}, "fusion_lon": 0.0}, {"lat": 38.914682, "is_disabled": 0, "type": "electric_scooter", "lon": -77.0321155, "bike_id": "0210d15681e6575ba0c6108d28afff3b", "fusion_lat": 0.0, "name": "0210d15681e6575ba0c6108d28afff3b", "is_reserved": 0, "rental_uris": {"android": "https://dc.lft.to/lastmile_qr_scan", "ios": "https://dc.lft.to/lastmile_qr_scan"}, "fusion_lon": 0.0}, {"lat": 38.915533833333335, "is_disabled": 0, "type": "electric_scooter", "lon": -77.03502083333333, "bike_id": "858248c8e6b288d0f1eff01bd533ca15", "fusion_lat": 0.0, "name": "858248c8e6b288d0f1eff01bd533ca15", "is_reserved": 0, "rental_uris": {"android": "https://dc.lft.to/lastmile_qr_scan", "ios": "https://dc.lft.to/lastmile_qr_scan"}, "fusion_lon": 0.0}, {"lat": 38.89554533333333, "is_disabled": 0, "type": "electric_scooter", "lon": -76.93381166666667, "bike_id": "352ea4f6209b73f437d8eeb4aa42afd5", "fusion_lat": 0.0, "name": "352ea4f6209b73f437d8eeb4aa42afd5", "is_reserved": 0, "rental_uris": {"android": "https://dc.lft.to/lastmile_qr_scan", "ios": "https://dc.lft.to/lastmile_qr_scan"}, "fusion_lon": 0.0}, {"lat": 38.938795, "is_disabled": 0, "type": "electric_scooter", "lon": -77.03261683333334, "bike_id": "56388ffc5a28dfc4191d8877b7cd0231", "fusion_lat": 0.0, "name": "56388ffc5a28dfc4191d8877b7cd0231", "is_reserved": 0, "rental_uris": {"android": "https://dc.lft.to/lastmile_qr_scan", "ios": "https://dc.lft.to/lastmile_qr_scan"}, "fusion_lon": 0.0}, {"lat": 38.916959166666665, "is_disabled": 0, "type": "electric_scooter", "lon": -77.03976316666666, "bike_id": "23c2e2d0881c6200f0af29cc5a450d0d", "fusion_lat": 0.0, "name": "23c2e2d0881c6200f0af29cc5a450d0d", "is_reserved": 0, "rental_uris": {"android": "https://dc.lft.to/lastmile_qr_scan", "ios": "https://dc.lft.to/lastmile_qr_scan"}, "fusion_lon": 0.0}, {"lat": 38.949939, "is_disabled": 0, "type": "electric_scooter", "lon": -77.06686116666667, "bike_id": "3879e5933582def17cfb0e2def0b8b4f", "fusion_lat": 0.0, "name": "3879e5933582def17cfb0e2def0b8b4f", "is_reserved": 0, "rental_uris": {"android": "https://dc.lft.to/lastmile_qr_scan", "ios": "https://dc.lft.to/lastmile_qr_scan"}, "fusion_lon": 0.0}, {"lat": 38.923269166666664, "is_disabled": 0, "type": "electric_scooter", "lon": -77.02977116666666, "bike_id": "0306e29712e72bd1455c531b3c237328", "fusion_lat": 0.0, "name": "0306e29712e72bd1455c531b3c237328", "is_reserved": 0, "rental_uris": {"android": "https://dc.lft.to/lastmile_qr_scan", "ios": "https://dc.lft.to/lastmile_qr_scan"}, "fusion_lon": 0.0}, {"lat": 38.92869666666667, "is_disabled": 0, "type": "electric_scooter", "lon": -77.033045, "bike_id": "7cc6c554a0781dc7dfdd3f16ae9eee2e", "fusion_lat": 0.0, "name": "7cc6c554a0781dc7dfdd3f16ae9eee2e", "is_reserved": 0, "rental_uris": {"android": "https://dc.lft.to/lastmile_qr_scan", "ios": "https://dc.lft.to/lastmile_qr_scan"}, "fusion_lon": 0.0}, {"lat": 38.90110833333333, "is_disabled": 0, "type": "electric_scooter", "lon": -76.99618583333333, "bike_id": "c49a3e2e106f982ae232ab28ee0ef4ee", "fusion_lat": 0.0, "name": "c49a3e2e106f982ae232ab28ee0ef4ee", "is_reserved": 0, "rental_uris": {"android": "https://dc.lft.to/lastmile_qr_scan", "ios": "https://dc.lft.to/lastmile_qr_scan"}, "fusion_lon": 0.0}, {"lat": 38.9097455, "is_disabled": 0, "type": "electric_scooter", "lon": -77.03252016666667, "bike_id": "4a3eaf5576d56258ac60dd6c867230ac", "fusion_lat": 0.0, "name": "4a3eaf5576d56258ac60dd6c867230ac", "is_reserved": 0, "rental_uris": {"android": "https://dc.lft.to/lastmile_qr_scan", "ios": "https://dc.lft.to/lastmile_qr_scan"}, "fusion_lon": 0.0}, {"lat": 38.903787333333334, "is_disabled": 0, "type": "electric_scooter", "lon": -77.04517866666667, "bike_id": "4431fb8d723d6487d6899d52efa5a767", "fusion_lat": 0.0, "name": "4431fb8d723d6487d6899d52efa5a767", "is_reserved": 0, "rental_uris": {"android": "https://dc.lft.to/lastmile_qr_scan", "ios": "https://dc.lft.to/lastmile_qr_scan"}, "fusion_lon": 0.0}, {"lat": 38.94793133333334, "is_disabled": 0, "type": "electric_scooter", "lon": -77.021683, "bike_id": "843434fb95b6d96fb7cfc489b4d3b3de", "fusion_lat": 0.0, "name": "843434fb95b6d96fb7cfc489b4d3b3de", "is_reserved": 0, "rental_uris": {"android": "https://dc.lft.to/lastmile_qr_scan", "ios": "https://dc.lft.to/lastmile_qr_scan"}, "fusion_lon": 0.0}, {"lat": 38.921809, "is_disabled": 0, "type": "electric_scooter", "lon": -77.04716283333333, "bike_id": "64baac92eaab8d24558bf14912277470", "fusion_lat": 0.0, "name": "64baac92eaab8d24558bf14912277470", "is_reserved": 0, "rental_uris": {"android": "https://dc.lft.to/lastmile_qr_scan", "ios": "https://dc.lft.to/lastmile_qr_scan"}, "fusion_lon": 0.0}, {"lat": 38.897409833333334, "is_disabled": 0, "type": "electric_scooter", "lon": -77.04724416666667, "bike_id": "4a3a3a7b4ad4977a3b8a7afc53e54f16", "fusion_lat": 0.0, "name": "4a3a3a7b4ad4977a3b8a7afc53e54f16", "is_reserved": 0, "rental_uris": {"android": "https://dc.lft.to/lastmile_qr_scan", "ios": "https://dc.lft.to/lastmile_qr_scan"}, "fusion_lon": 0.0}, {"lat": 38.8857515, "is_disabled": 0, "type": "electric_scooter", "lon": -76.91912233333333, "bike_id": "932d5e584bdda20d07eeea6e801d41df", "fusion_lat": 0.0, "name": "932d5e584bdda20d07eeea6e801d41df", "is_reserved": 0, "rental_uris": {"android": "https://dc.lft.to/lastmile_qr_scan", "ios": "https://dc.lft.to/lastmile_qr_scan"}, "fusion_lon": 0.0}, {"lat": 38.892207, "is_disabled": 0, "type": "electric_scooter", "lon": -77.03165566666667, "bike_id": "882eead1e34fb0aa9a25fbfee634ab78", "fusion_lat": 0.0, "name": "882eead1e34fb0aa9a25fbfee634ab78", "is_reserved": 0, "rental_uris": {"android": "https://dc.lft.to/lastmile_qr_scan", "ios": "https://dc.lft.to/lastmile_qr_scan"}, "fusion_lon": 0.0}, {"lat": 38.935310333333334, "is_disabled": 0, "type": "electric_scooter", "lon": -77.03483466666667, "bike_id": "2e26efa3da52d72384d89c84b32dc545", "fusion_lat": 0.0, "name": "2e26efa3da52d72384d89c84b32dc545", "is_reserved": 0, "rental_uris": {"android": "https://dc.lft.to/lastmile_qr_scan", "ios": "https://dc.lft.to/lastmile_qr_scan"}, "fusion_lon": 0.0}, {"lat": 38.92637966666667, "is_disabled": 0, "type": "electric_bike", "lon": -77.02567933333333, "bike_id": "011f956fee80984a3856c949e3b3fa32", "fusion_lat": 0.0, "name": "011f956fee80984a3856c949e3b3fa32", "is_reserved": 0, "rental_uris": {"android": "https://dc.lft.to/lastmile_qr_scan", "ios": "https://dc.lft.to/lastmile_qr_scan"}, "fusion_lon": 0.0}, {"lat": 38.913224166666666, "is_disabled": 0, "type": "electric_scooter", "lon": -77.04009566666667, "bike_id": "e054345e5ed04a31631992f6fef55eca", "fusion_lat": 0.0, "name": "e054345e5ed04a31631992f6fef55eca", "is_reserved": 0, "rental_uris": {"android": "https://dc.lft.to/lastmile_qr_scan", "ios": "https://dc.lft.to/lastmile_qr_scan"}, "fusion_lon": 0.0}, {"lat": 38.905795, "is_disabled": 0, "type": "electric_scooter", "lon": -77.0279895, "bike_id": "035ecf8b208b566e4171230563a27d62", "fusion_lat": 0.0, "name": "035ecf8b208b566e4171230563a27d62", "is_reserved": 0, "rental_uris": {"android": "https://dc.lft.to/lastmile_qr_scan", "ios": "https://dc.lft.to/lastmile_qr_scan"}, "fusion_lon": 0.0}, {"lat": 38.909661, "is_disabled": 0, "type": "electric_scooter", "lon": -77.02286366666667, "bike_id": "177c881f3a49af8725962f510f8a59c4", "fusion_lat": 0.0, "name": "177c881f3a49af8725962f510f8a59c4", "is_reserved": 0, "rental_uris": {"android": "https://dc.lft.to/lastmile_qr_scan", "ios": "https://dc.lft.to/lastmile_qr_scan"}, "fusion_lon": 0.0}, {"lat": 38.927446833333335, "is_disabled": 0, "type": "electric_scooter", "lon": -77.024151, "bike_id": "1eb017cf18d931c82a0a5a3ed99127f5", "fusion_lat": 0.0, "name": "1eb017cf18d931c82a0a5a3ed99127f5", "is_reserved": 0, "rental_uris": {"android": "https://dc.lft.to/lastmile_qr_scan", "ios": "https://dc.lft.to/lastmile_qr_scan"}, "fusion_lon": 0.0}, {"lat": 38.91735716666667, "is_disabled": 0, "type": "electric_scooter", "lon": -77.0459605, "bike_id": "dd128a8481fe81680ed56f1777f3ba4f", "fusion_lat": 0.0, "name": "dd128a8481fe81680ed56f1777f3ba4f", "is_reserved": 0, "rental_uris": {"android": "https://dc.lft.to/lastmile_qr_scan", "ios": "https://dc.lft.to/lastmile_qr_scan"}, "fusion_lon": 0.0}, {"lat": 38.916898833333335, "is_disabled": 0, "type": "electric_scooter", "lon": -77.028563, "bike_id": "d92b7711c9fae9f184b5de733e15d5b9", "fusion_lat": 0.0, "name": "d92b7711c9fae9f184b5de733e15d5b9", "is_reserved": 0, "rental_uris": {"android": "https://dc.lft.to/lastmile_qr_scan", "ios": "https://dc.lft.to/lastmile_qr_scan"}, "fusion_lon": 0.0}, {"lat": 38.90013833333333, "is_disabled": 0, "type": "electric_scooter", "lon": -76.9223815, "bike_id": "f343c70495a1fc5e428257483f3e0a52", "fusion_lat": 0.0, "name": "f343c70495a1fc5e428257483f3e0a52", "is_reserved": 0, "rental_uris": {"android": "https://dc.lft.to/lastmile_qr_scan", "ios": "https://dc.lft.to/lastmile_qr_scan"}, "fusion_lon": 0.0}, {"lat": 38.899514833333335, "is_disabled": 0, "type": "electric_scooter", "lon": -77.00354733333333, "bike_id": "1c3d094a5b5bc8ef0c3be53339259343", "fusion_lat": 0.0, "name": "1c3d094a5b5bc8ef0c3be53339259343", "is_reserved": 0, "rental_uris": {"android": "https://dc.lft.to/lastmile_qr_scan", "ios": "https://dc.lft.to/lastmile_qr_scan"}, "fusion_lon": 0.0}, {"lat": 38.916885, "is_disabled": 0, "type": "electric_scooter", "lon": -77.03355333333333, "bike_id": "80451359e1dd60c2447bfd2803ff17cf", "fusion_lat": 0.0, "name": "80451359e1dd60c2447bfd2803ff17cf", "is_reserved": 0, "rental_uris": {"android": "https://dc.lft.to/lastmile_qr_scan", "ios": "https://dc.lft.to/lastmile_qr_scan"}, "fusion_lon": 0.0}, {"lat": 38.93336983333333, "is_disabled": 0, "type": "electric_scooter", "lon": -76.99309616666666, "bike_id": "22c502d780478bf56fa12d987a97f02a", "fusion_lat": 0.0, "name": "22c502d780478bf56fa12d987a97f02a", "is_reserved": 0, "rental_uris": {"android": "https://dc.lft.to/lastmile_qr_scan", "ios": "https://dc.lft.to/lastmile_qr_scan"}, "fusion_lon": 0.0}, {"lat": 38.90854433333333, "is_disabled": 0, "type": "electric_scooter", "lon": -77.0321095, "bike_id": "9f369e538705a5c18b62f03acd4ab2de", "fusion_lat": 0.0, "name": "9f369e538705a5c18b62f03acd4ab2de", "is_reserved": 0, "rental_uris": {"android": "https://dc.lft.to/lastmile_qr_scan", "ios": "https://dc.lft.to/lastmile_qr_scan"}, "fusion_lon": 0.0}, {"lat": 38.9233285, "is_disabled": 0, "type": "electric_scooter", "lon": -77.03202, "bike_id": "8fb1d0e9314870b4d758fe14cdcc4c84", "fusion_lat": 0.0, "name": "8fb1d0e9314870b4d758fe14cdcc4c84", "is_reserved": 0, "rental_uris": {"android": "https://dc.lft.to/lastmile_qr_scan", "ios": "https://dc.lft.to/lastmile_qr_scan"}, "fusion_lon": 0.0}, {"lat": 38.92362216666667, "is_disabled": 0, "type": "electric_scooter", "lon": -77.05125783333334, "bike_id": "99d4f58d938980e7cf988750afd9baca", "fusion_lat": 0.0, "name": "99d4f58d938980e7cf988750afd9baca", "is_reserved": 0, "rental_uris": {"android": "https://dc.lft.to/lastmile_qr_scan", "ios": "https://dc.lft.to/lastmile_qr_scan"}, "fusion_lon": 0.0}, {"lat": 38.909662, "is_disabled": 0, "type": "electric_scooter", "lon": -77.02166716666666, "bike_id": "a2cca7eadac7699b3e39ce35e33143cd", "fusion_lat": 0.0, "name": "a2cca7eadac7699b3e39ce35e33143cd", "is_reserved": 0, "rental_uris": {"android": "https://dc.lft.to/lastmile_qr_scan", "ios": "https://dc.lft.to/lastmile_qr_scan"}, "fusion_lon": 0.0}, {"lat": 38.93048533333334, "is_disabled": 0, "type": "electric_scooter", "lon": -77.03297083333334, "bike_id": "f927fb8b44a7a5f45de50d171309ef45", "fusion_lat": 0.0, "name": "f927fb8b44a7a5f45de50d171309ef45", "is_reserved": 0, "rental_uris": {"android": "https://dc.lft.to/lastmile_qr_scan", "ios": "https://dc.lft.to/lastmile_qr_scan"}, "fusion_lon": 0.0}, {"lat": 38.89627633333333, "is_disabled": 0, "type": "electric_scooter", "lon": -77.02696533333334, "bike_id": "24cdd393c5339a2402956aae0b50b0fa", "fusion_lat": 0.0, "name": "24cdd393c5339a2402956aae0b50b0fa", "is_reserved": 0, "rental_uris": {"android": "https://dc.lft.to/lastmile_qr_scan", "ios": "https://dc.lft.to/lastmile_qr_scan"}, "fusion_lon": 0.0}, {"lat": 38.905279, "is_disabled": 0, "type": "electric_scooter", "lon": -77.0417305, "bike_id": "bff7ca1974ade081cccbc5eb3aca4cbe", "fusion_lat": 0.0, "name": "bff7ca1974ade081cccbc5eb3aca4cbe", "is_reserved": 0, "rental_uris": {"android": "https://dc.lft.to/lastmile_qr_scan", "ios": "https://dc.lft.to/lastmile_qr_scan"}, "fusion_lon": 0.0}, {"lat": 38.9056245, "is_disabled": 0, "type": "electric_scooter", "lon": -77.0177, "bike_id": "c73f73793254b2577940644a5804d2f8", "fusion_lat": 0.0, "name": "c73f73793254b2577940644a5804d2f8", "is_reserved": 0, "rental_uris": {"android": "https://dc.lft.to/lastmile_qr_scan", "ios": "https://dc.lft.to/lastmile_qr_scan"}, "fusion_lon": 0.0}, {"lat": 38.9168755, "is_disabled": 0, "type": "electric_scooter", "lon": -77.0288395, "bike_id": "c21771586b346e222153dd571bb64f6b", "fusion_lat": 0.0, "name": "c21771586b346e222153dd571bb64f6b", "is_reserved": 0, "rental_uris": {"android": "https://dc.lft.to/lastmile_qr_scan", "ios": "https://dc.lft.to/lastmile_qr_scan"}, "fusion_lon": 0.0}, {"lat": 38.964381333333336, "is_disabled": 0, "type": "electric_bike", "lon": -77.02066116666667, "bike_id": "eedc13f4cc44d8281c0af43b7d1e461d", "fusion_lat": 0.0, "name": "eedc13f4cc44d8281c0af43b7d1e461d", "is_reserved": 0, "rental_uris": {"android": "https://dc.lft.to/lastmile_qr_scan", "ios": "https://dc.lft.to/lastmile_qr_scan"}, "fusion_lon": 0.0}, {"lat": 38.885283666666666, "is_disabled": 0, "type": "electric_scooter", "lon": -77.0113785, "bike_id": "36a7ce774ac38cdf3f624e53e0e9e320", "fusion_lat": 0.0, "name": "36a7ce774ac38cdf3f624e53e0e9e320", "is_reserved": 0, "rental_uris": {"android": "https://dc.lft.to/lastmile_qr_scan", "ios": "https://dc.lft.to/lastmile_qr_scan"}, "fusion_lon": 0.0}, {"lat": 38.906779, "is_disabled": 0, "type": "electric_scooter", "lon": -77.02693633333334, "bike_id": "de43c4ace5afe981a435d5f8337eafa6", "fusion_lat": 0.0, "name": "de43c4ace5afe981a435d5f8337eafa6", "is_reserved": 0, "rental_uris": {"android": "https://dc.lft.to/lastmile_qr_scan", "ios": "https://dc.lft.to/lastmile_qr_scan"}, "fusion_lon": 0.0}, {"lat": 38.90383683333334, "is_disabled": 0, "type": "electric_scooter", "lon": -77.0451945, "bike_id": "0f6f5c9909eb46e33b9f2b61b1193f56", "fusion_lat": 0.0, "name": "0f6f5c9909eb46e33b9f2b61b1193f56", "is_reserved": 0, "rental_uris": {"android": "https://dc.lft.to/lastmile_qr_scan", "ios": "https://dc.lft.to/lastmile_qr_scan"}, "fusion_lon": 0.0}, {"lat": 38.8617165, "is_disabled": 0, "type": "electric_bike", "lon": -77.13145416666667, "bike_id": "08c743a02f84abb987d4060f368803ad", "fusion_lat": 0.0, "name": "08c743a02f84abb987d4060f368803ad", "is_reserved": 0, "rental_uris": {"android": "https://dc.lft.to/lastmile_qr_scan", "ios": "https://dc.lft.to/lastmile_qr_scan"}, "fusion_lon": 0.0}, {"lat": 38.89884933333333, "is_disabled": 0, "type": "electric_scooter", "lon": -76.93175116666667, "bike_id": "767d1e36488d52e8210dff3e936de458", "fusion_lat": 0.0, "name": "767d1e36488d52e8210dff3e936de458", "is_reserved": 0, "rental_uris": {"android": "https://dc.lft.to/lastmile_qr_scan", "ios": "https://dc.lft.to/lastmile_qr_scan"}, "fusion_lon": 0.0}, {"lat": 38.917899, "is_disabled": 0, "type": "electric_bike", "lon": -76.97188633333333, "bike_id": "5e54c7ca0a766c8c9452419aab8b3603", "fusion_lat": 0.0, "name": "5e54c7ca0a766c8c9452419aab8b3603", "is_reserved": 0, "rental_uris": {"android": "https://dc.lft.to/lastmile_qr_scan", "ios": "https://dc.lft.to/lastmile_qr_scan"}, "fusion_lon": 0.0}, {"lat": 38.86700233333333, "is_disabled": 0, "type": "electric_scooter", "lon": -76.98713866666667, "bike_id": "4e5bab4af7aed5410e5ec38b43ee1725", "fusion_lat": 0.0, "name": "4e5bab4af7aed5410e5ec38b43ee1725", "is_reserved": 0, "rental_uris": {"android": "https://dc.lft.to/lastmile_qr_scan", "ios": "https://dc.lft.to/lastmile_qr_scan"}, "fusion_lon": 0.0}, {"lat": 38.91745483333333, "is_disabled": 0, "type": "electric_scooter", "lon": -77.03200716666667, "bike_id": "536df84f4b0d982ade35db3606eae707", "fusion_lat": 0.0, "name": "536df84f4b0d982ade35db3606eae707", "is_reserved": 0, "rental_uris": {"android": "https://dc.lft.to/lastmile_qr_scan", "ios": "https://dc.lft.to/lastmile_qr_scan"}, "fusion_lon": 0.0}, {"lat": 38.89630066666667, "is_disabled": 0, "type": "electric_scooter", "lon": -77.0265815, "bike_id": "00a65245f2edba487c0e9b162cf41157", "fusion_lat": 0.0, "name": "00a65245f2edba487c0e9b162cf41157", "is_reserved": 0, "rental_uris": {"android": "https://dc.lft.to/lastmile_qr_scan", "ios": "https://dc.lft.to/lastmile_qr_scan"}, "fusion_lon": 0.0}, {"lat": 38.920367666666664, "is_disabled": 0, "type": "electric_scooter", "lon": -77.04184166666667, "bike_id": "a12d35e839ab8260828f72acbe791534", "fusion_lat": 0.0, "name": "a12d35e839ab8260828f72acbe791534", "is_reserved": 0, "rental_uris": {"android": "https://dc.lft.to/lastmile_qr_scan", "ios": "https://dc.lft.to/lastmile_qr_scan"}, "fusion_lon": 0.0}, {"lat": 38.90638216666667, "is_disabled": 0, "type": "electric_scooter", "lon": -77.0338095, "bike_id": "a65a4d6ef7a34055b4182658efbcf2cd", "fusion_lat": 0.0, "name": "a65a4d6ef7a34055b4182658efbcf2cd", "is_reserved": 0, "rental_uris": {"android": "https://dc.lft.to/lastmile_qr_scan", "ios": "https://dc.lft.to/lastmile_qr_scan"}, "fusion_lon": 0.0}, {"lat": 38.90671533333333, "is_disabled": 0, "type": "electric_scooter", "lon": -77.037557, "bike_id": "867d9b52e9ac6bbb1f42f0731e3a181e", "fusion_lat": 0.0, "name": "867d9b52e9ac6bbb1f42f0731e3a181e", "is_reserved": 0, "rental_uris": {"android": "https://dc.lft.to/lastmile_qr_scan", "ios": "https://dc.lft.to/lastmile_qr_scan"}, "fusion_lon": 0.0}, {"lat": 38.89729533333333, "is_disabled": 0, "type": "electric_scooter", "lon": -77.0217735, "bike_id": "f125a510caff039942f3012f6427cc86", "fusion_lat": 0.0, "name": "f125a510caff039942f3012f6427cc86", "is_reserved": 0, "rental_uris": {"android": "https://dc.lft.to/lastmile_qr_scan", "ios": "https://dc.lft.to/lastmile_qr_scan"}, "fusion_lon": 0.0}, {"lat": 38.93507183333333, "is_disabled": 0, "type": "electric_scooter", "lon": -77.0428455, "bike_id": "a08656fcf7eb2976871d54de0440c472", "fusion_lat": 0.0, "name": "a08656fcf7eb2976871d54de0440c472", "is_reserved": 0, "rental_uris": {"android": "https://dc.lft.to/lastmile_qr_scan", "ios": "https://dc.lft.to/lastmile_qr_scan"}, "fusion_lon": 0.0}, {"lat": 38.892249166666666, "is_disabled": 0, "type": "electric_bike", "lon": -77.03449866666666, "bike_id": "df44115e87697d698bb5f64532bf4c82", "fusion_lat": 0.0, "name": "df44115e87697d698bb5f64532bf4c82", "is_reserved": 0, "rental_uris": {"android": "https://dc.lft.to/lastmile_qr_scan", "ios": "https://dc.lft.to/lastmile_qr_scan"}, "fusion_lon": 0.0}, {"lat": 38.908347166666665, "is_disabled": 0, "type": "electric_scooter", "lon": -77.0346405, "bike_id": "641a916e8e7a8eebf3f032c5fed5b7b9", "fusion_lat": 0.0, "name": "641a916e8e7a8eebf3f032c5fed5b7b9", "is_reserved": 0, "rental_uris": {"android": "https://dc.lft.to/lastmile_qr_scan", "ios": "https://dc.lft.to/lastmile_qr_scan"}, "fusion_lon": 0.0}, {"lat": 38.91732283333333, "is_disabled": 0, "type": "electric_scooter", "lon": -77.0364165, "bike_id": "b9fbe1f39afbbaff8035fd8f765b6ce6", "fusion_lat": 0.0, "name": "b9fbe1f39afbbaff8035fd8f765b6ce6", "is_reserved": 0, "rental_uris": {"android": "https://dc.lft.to/lastmile_qr_scan", "ios": "https://dc.lft.to/lastmile_qr_scan"}, "fusion_lon": 0.0}, {"lat": 38.89900733333333, "is_disabled": 0, "type": "electric_scooter", "lon": -76.93357966666667, "bike_id": "f577be623156ffa70f5c6928b7b76ce9", "fusion_lat": 0.0, "name": "f577be623156ffa70f5c6928b7b76ce9", "is_reserved": 0, "rental_uris": {"android": "https://dc.lft.to/lastmile_qr_scan", "ios": "https://dc.lft.to/lastmile_qr_scan"}, "fusion_lon": 0.0}, {"lat": 38.90555716666667, "is_disabled": 0, "type": "electric_scooter", "lon": -77.0342755, "bike_id": "15360240f13c8faecc996cb6ec00c8e0", "fusion_lat": 0.0, "name": "15360240f13c8faecc996cb6ec00c8e0", "is_reserved": 0, "rental_uris": {"android": "https://dc.lft.to/lastmile_qr_scan", "ios": "https://dc.lft.to/lastmile_qr_scan"}, "fusion_lon": 0.0}, {"lat": 38.91711, "is_disabled": 0, "type": "electric_scooter", "lon": -77.02662283333333, "bike_id": "e6f220909c38d127620fda6467990cfe", "fusion_lat": 0.0, "name": "e6f220909c38d127620fda6467990cfe", "is_reserved": 0, "rental_uris": {"android": "https://dc.lft.to/lastmile_qr_scan", "ios": "https://dc.lft.to/lastmile_qr_scan"}, "fusion_lon": 0.0}, {"lat": 38.859068666666666, "is_disabled": 0, "type": "electric_scooter", "lon": -76.99148383333333, "bike_id": "337b5feade361f24ed0c26e2387a48a3", "fusion_lat": 0.0, "name": "337b5feade361f24ed0c26e2387a48a3", "is_reserved": 0, "rental_uris": {"android": "https://dc.lft.to/lastmile_qr_scan", "ios": "https://dc.lft.to/lastmile_qr_scan"}, "fusion_lon": 0.0}, {"lat": 38.91194133333333, "is_disabled": 0, "type": "electric_scooter", "lon": -77.031976, "bike_id": "1637b76a748b1c5400392fb98196acad", "fusion_lat": 0.0, "name": "1637b76a748b1c5400392fb98196acad", "is_reserved": 0, "rental_uris": {"android": "https://dc.lft.to/lastmile_qr_scan", "ios": "https://dc.lft.to/lastmile_qr_scan"}, "fusion_lon": 0.0}, {"lat": 38.90612216666667, "is_disabled": 0, "type": "electric_scooter", "lon": -77.01883916666667, "bike_id": "96e5e0dbb23c81c771f8ce30f9a93738", "fusion_lat": 0.0, "name": "96e5e0dbb23c81c771f8ce30f9a93738", "is_reserved": 0, "rental_uris": {"android": "https://dc.lft.to/lastmile_qr_scan", "ios": "https://dc.lft.to/lastmile_qr_scan"}, "fusion_lon": 0.0}, {"lat": 38.947148, "is_disabled": 0, "type": "electric_scooter", "lon": -77.033325, "bike_id": "0fa88e0263e9d50d40d623ee3c285b38", "fusion_lat": 0.0, "name": "0fa88e0263e9d50d40d623ee3c285b38", "is_reserved": 0, "rental_uris": {"android": "https://dc.lft.to/lastmile_qr_scan", "ios": "https://dc.lft.to/lastmile_qr_scan"}, "fusion_lon": 0.0}, {"lat": 39.052009, "is_disabled": 0, "type": "electric_bike", "lon": -77.10915683333333, "bike_id": "b153ebcbd1d651fae9f29204d2572de2", "fusion_lat": 0.0, "name": "b153ebcbd1d651fae9f29204d2572de2", "is_reserved": 0, "rental_uris": {"android": "https://dc.lft.to/lastmile_qr_scan", "ios": "https://dc.lft.to/lastmile_qr_scan"}, "fusion_lon": 0.0},