{"data": {"bikes": [{"fusion_lat": 0.0, "name": "2d9c1bbd5bac64a65157e4193f3d34bc", "is_disabled": 0, "rental_uris": {"android": "https://dc.lft.to/lastmile_qr_scan", "ios": "https://dc.lft.to/lastmile_qr_scan"}, "fusion_lon": 0.0, "lat": 38.911939833333335, "bike_id": "2d9c1bbd5bac64a65157e4193f3d34bc", "type": "electric_scooter", "is_reserved": 0, "lon": -77.03041333333333}, {"fusion_lat": 0.0, "name": "eb9ef6c9145e471b8b77fe0ed774872d", "is_disabled": 0, "rental_uris": {"android": "https://dc.lft.to/lastmile_qr_scan", "ios": "https://dc.lft.to/lastmile_qr_scan"}, "fusion_lon": 0.0, "lat": 38.96179883333333, "bike_id": "eb9ef6c9145e471b8b77fe0ed774872d", "type": "electric_bike", "is_reserved": 0, "lon": -77.052665}, {"fusion_lat": 0.0, "name": "4d36af9e38d380c600d537e23c1d0c1a", "is_disabled": 0, "rental_uris": {"android": "https://dc.lft.to/lastmile_qr_scan", "ios": "https://dc.lft.to/lastmile_qr_scan"}, "fusion_lon": 0.0, "lat": 38.92413666666667, "bike_id": "4d36af9e38d380c600d537e23c1d0c1a", "type": "electric_scooter", "is_reserved": 0, "lon": -77.0575195}, {"fusion_lat": 0.0, "name": "b23930738779e6b34565e9b8bc739e6e", "is_disabled": 0, "rental_uris": {"android": "https://dc.lft.to/lastmile_qr_scan", "ios": "https://dc.lft.to/lastmile_qr_scan"}, "fusion_lon": 0.0, "lat": 38.900243333333336, "bike_id": "b23930738779e6b34565e9b8bc739e6e", "type": "electric_scooter", "is_reserved": 0, "lon": -77.01187983333334}, {"fusion_lat": 0.0, "name": "e59a4c71f46403d40c46ab1b251468f4", "is_disabled": 0, "rental_uris": {"android": "https://dc.lft.to/lastmile_qr_scan", "ios": "https://dc.lft.to/lastmile_qr_scan"}, "fusion_lon": 0.0, "lat": 38.898172333333335, "bike_id": "e59a4c71f46403d40c46ab1b251468f4", "type": "electric_scooter", "is_reserved": 0, "lon": -77.03046033333334}, {"fusion_lat": 0.0, "name": "03c7a3d7aa5a4a6a88257f1c8e066402", "is_disabled": 0, "rental_uris": {"android": "https://dc.lft.to/lastmile_qr_scan", "ios": "https://dc.lft.to/lastmile_qr_scan"}, "fusion_lon": 0.0, "lat": 38.917231666666666, "bike_id": "03c7a3d7aa5a4a6a88257f1c8e066402", "type": "electric_scooter", "is_reserved": 0, "lon": -77.02702883333333}, {"fusion_lat": 0.0, "name": "98d8d668b84d8af7fec1a4b4bb35d005", "is_disabled": 0, "rental_uris": {"android": "https://dc.lft.to/lastmile_qr_scan", "ios": "https://dc.lft.to/lastmile_qr_scan"}, "fusion_lon": 0.0, "lat": 38.886128666666664, "bike_id": "98d8d668b84d8af7fec1a4b4bb35d005", "type": "electric_scooter", "is_reserved": 0, "lon": -76.99538066666666}, {"fusion_lat": 0.0, "name": "760b91f3e248f37fe29ed5d7328f4701", "is_disabled": 0, "rental_uris": {"android": "https://dc.lft.to/lastmile_qr_scan", "ios": "https://dc.lft.to/lastmile_qr_scan"}, "fusion_lon": 0.0, "lat": 38.926839666666666, "bike_id": "760b91f3e248f37fe29ed5d7328f4701", "type": "electric_scooter", "is_reserved": 0, "lon": -77.02887516666667}, {"fusion_lat": 0.0, "name": "54e4d3dd4ac930a9c66c470a7758dc2a", "is_disabled": 0, "rental_uris": {"android": "https://dc.lft.to/lastmile_qr_scan", "ios": "https://dc.lft.to/lastmile_qr_scan"}, "fusion_lon": 0.0, "lat": 38.8837795, "bike_id": "54e4d3dd4ac930a9c66c470a7758dc2a", "type": "electric_scooter", "is_reserved": 0, "lon": -76.995192}, {"fusion_lat": 0.0, "name": "54bb22632b7539bcbe774c40ca2f091d", "is_disabled": 0, "rental_uris": {"android": "https://dc.lft.to/lastmile_qr_scan", "ios": "https://dc.lft.to/lastmile_qr_scan"}, "fusion_lon": 0.0, "lat": 38.937099, "bike_id": "54bb22632b7539bcbe774c40ca2f091d", "type": "electric_scooter", "is_reserved": 0, "lon": -77.02386216666666}, {"fusion_lat": 0.0, "name": "f204dc2b62e7c2d95c7c4ada245d4905", "is_disabled": 0, "rental_uris": {"android": "https://dc.lft.to/lastmile_qr_scan", "ios": "https://dc.lft.to/lastmile_qr_scan"}, "fusion_lon": 0.0, "lat": 38.965760833333334, "bike_id": "f204dc2b62e7c2d95c7c4ada245d4905", "type": "electric_scooter", "is_reserved": 0, "lon": -77.00266666666667}, {"fusion_lat": 0.0, "name": "7f9b668215760797bc61192d90b14cc0", "is_disabled": 0, "rental_uris": {"android": "https://dc.lft.to/lastmile_qr_scan", "ios": "https://dc.lft.to/lastmile_qr_scan"}, "fusion_lon": 0.0, "lat": 38.924344166666664, "bike_id": "7f9b668215760797bc61192d90b14cc0", "type": "electric_scooter", "is_reserved": 0, "lon": -77.04462283333334}, {"fusion_lat": 0.0, "name": "e2354e564dbbc5805eeb390f0edc29c9", "is_disabled": 0, "rental_uris": {"android": "https://dc.lft.to/lastmile_qr_scan", "ios": "https://dc.lft.to/lastmile_qr_scan"}, "fusion_lon": 0.0, "lat": 38.867301166666664, "bike_id": "e2354e564dbbc5805eeb390f0edc29c9", "type": "electric_scooter", "is_reserved": 0, "lon": -76.987895}, {"fusion_lat": 0.0, "name": "b0fdb9aa0e39aabd4da931c6b9c48ebc", "is_disabled": 0, "rental_uris": {"android": "https://dc.lft.to/lastmile_qr_scan", "ios": "https://dc.lft.to/lastmile_qr_scan"}, "fusion_lon": 0.0, "lat": 38.897080333333335, "bike_id": "b0fdb9aa0e39aabd4da931c6b9c48ebc", "type": "electric_scooter", "is_reserved": 0, "lon": -77.01313066666667}, {"fusion_lat": 0.0, "name": "714860e6a02bcdb960b3b76b1fd9e8cb", "is_disabled": 0, "rental_uris": {"android": "https://dc.lft.to/lastmile_qr_scan", "ios": "https://dc.lft.to/lastmile_qr_scan"}, "fusion_lon": 0.0, "lat": 38.8923245, "bike_id": "714860e6a02bcdb960b3b76b1fd9e8cb", "type": "electric_scooter", "is_reserved": 0, "lon": -77.02384}, {"fusion_lat": 0.0, "name": "4c726bcfd4af6c26d60fa48b45418dde", "is_disabled": 0, "rental_uris": {"android": "https://dc.lft.to/lastmile_qr_scan", "ios": "https://dc.lft.to/lastmile_qr_scan"}, "fusion_lon": 0.0, "lat": 38.873799, "bike_id": "4c726bcfd4af6c26d60fa48b45418dde", "type": "electric_scooter", "is_reserved": 0, "lon": -77.00127316666666}, {"fusion_lat": 0.0, "name": "1f813d87ecfa7db0217bf03bb83ce46d", "is_disabled": 0, "rental_uris": {"android": "https://dc.lft.to/lastmile_qr_scan", "ios": "https://dc.lft.to/lastmile_qr_scan"}, "fusion_lon": 0.0, "lat": 38.90209333333333, "bike_id": "1f813d87ecfa7db0217bf03bb83ce46d", "type": "electric_scooter", "is_reserved": 0, "lon": -77.02752066666666}, {"fusion_lat": 0.0, "name": "1fd05e0219ea5174e80edca592718653", "is_disabled": 0, "rental_uris": {"android": "https://dc.lft.to/lastmile_qr_scan", "ios": "https://dc.lft.to/lastmile_qr_scan"}, "fusion_lon": 0.0, "lat": 38.9202855, "bike_id": "1fd05e0219ea5174e80edca592718653", "type": "electric_scooter", "is_reserved": 0, "lon": -77.01027916666666}, {"fusion_lat": 0.0, "name": "d387b486d7b59111352c2fc047cdc857", "is_disabled": 0, "rental_uris": {"android": "https://dc.lft.to/lastmile_qr_scan", "ios": "https://dc.lft.to/lastmile_qr_scan"}, "fusion_lon": 0.0, "lat": 38.837511, "bike_id": "d387b486d7b59111352c2fc047cdc857", "type": "electric_bike", "is_reserved": 0, "lon": -77.09302183333334}, {"fusion_lat": 0.0, "name": "287d56dbee2d6ca4a209afe883aad72c", "is_disabled": 0, "rental_uris": {"android": "https://dc.lft.to/lastmile_qr_scan", "ios": "https://dc.lft.to/lastmile_qr_scan"}, "fusion_lon": 0.0, "lat": 38.91112233333333, "bike_id": "287d56dbee2d6ca4a209afe883aad72c", "type": "electric_scooter", "is_reserved": 0, "lon": -77.0445975}, {"fusion_lat": 0.0, "name": "0761eb33bb328237fc5b9d4d9032378b", "is_disabled": 0, "rental_uris": {"android": "https://dc.lft.to/lastmile_qr_scan", "ios": "https://dc.lft.to/lastmile_qr_scan"}, "fusion_lon": 0.0, "lat": 38.88768483333333, "bike_id": "0761eb33bb328237fc5b9d4d9032378b", "type": "electric_scooter", "is_reserved": 0, "lon": -76.99159483333334}, {"fusion_lat": 0.0, "name": "9c64520b985ff707f094b990db331639", "is_disabled": 0, "rental_uris": {"android": "https://dc.lft.to/lastmile_qr_scan", "ios": "https://dc.lft.to/lastmile_qr_scan"}, "fusion_lon": 0.0, "lat": 38.88730266666666, "bike_id": "9c64520b985ff707f094b990db331639", "type": "electric_scooter", "is_reserved": 0, "lon": -77.03181916666666}, {"fusion_lat": 0.0, "name": "dbc4f942ad97d4d3f820a66f534e39c0", "is_disabled": 0, "rental_uris": {"android": "https://dc.lft.to/lastmile_qr_scan", "ios": "https://dc.lft.to/lastmile_qr_scan"}, "fusion_lon": 0.0, "lat": 38.93983166666666, "bike_id": "dbc4f942ad97d4d3f820a66f534e39c0", "type": "electric_scooter", "is_reserved": 0, "lon": -77.02902383333333}, {"fusion_lat": 0.0, "name": "9730ff055d025a5d1aff6034faf737d4", "is_disabled": 0, "rental_uris": {"android": "https://dc.lft.to/lastmile_qr_scan", "ios": "https://dc.lft.to/lastmile_qr_scan"}, "fusion_lon": 0.0, "lat": 38.9214535, "bike_id": "9730ff055d025a5d1aff6034faf737d4", "type": "electric_scooter", "is_reserved": 0, "lon": -77.04351016666666}, {"fusion_lat": 0.0, "name": "abb5627b650bdb838c10361d7697a277", "is_disabled": 0, "rental_uris": {"android": "https://dc.lft.to/lastmile_qr_scan", "ios": "https://dc.lft.to/lastmile_qr_scan"}, "fusion_lon": 0.0, "lat": 38.9017735, "bike_id": "abb5627b650bdb838c10361d7697a277", "type": "electric_scooter", "is_reserved": 0, "lon": -77.05055566666667}, {"fusion_lat": 0.0, "name": "38563a5e6a2f9639ab3e7e7b65e04090", "is_disabled": 0, "rental_uris": {"android": "https://dc.lft.to/lastmile_qr_scan", "ios": "https://dc.lft.to/lastmile_qr_scan"}, "fusion_lon": 0.0, "lat": 38.918078666666666, "bike_id": "38563a5e6a2f9639ab3e7e7b65e04090", "type": "electric_scooter", "is_reserved": 0, "lon": -77.02495316666666}, {"fusion_lat": 0.0, "name": "5c22954a3b6a2ee5c90b89b6d2d77ef3", "is_disabled": 0, "rental_uris": {"android": "https://dc.lft.to/lastmile_qr_scan", "ios": "https://dc.lft.to/lastmile_qr_scan"}, "fusion_lon": 0.0, "lat": 38.899333666666664, "bike_id": "5c22954a3b6a2ee5c90b89b6d2d77ef3", "type": "electric_scooter", "is_reserved": 0, "lon": -77.03916783333334}, {"fusion_lat": 0.0, "name": "e0e69e6c5c6a84266434f1077b4c4b76", "is_disabled": 0, "rental_uris": {"android": "https://dc.lft.to/lastmile_qr_scan", "ios": "https://dc.lft.to/lastmile_qr_scan"}, "fusion_lon": 0.0, "lat": 38.918038833333334, "bike_id": "e0e69e6c5c6a84266434f1077b4c4b76", "type": "electric_scooter", "is_reserved": 0, "lon": -77.0249725}, {"fusion_lat": 0.0, "name": "20857396a4abecfb3c940094c4d0590b", "is_disabled": 0, "rental_uris": {"android": "https://dc.lft.to/lastmile_qr_scan", "ios": "https://dc.lft.to/lastmile_qr_scan"}, "fusion_lon": 0.0, "lat": 38.921308333333336, "bike_id": "20857396a4abecfb3c940094c4d0590b", "type": "electric_scooter", "is_reserved": 0, "lon": -77.004041}, {"fusion_lat": 0.0, "name": "7683d1d08b233f5af104fb96172fe3b5", "is_disabled": 0, "rental_uris": {"android": "https://dc.lft.to/lastmile_qr_scan", "ios": "https://dc.lft.to/lastmile_qr_scan"}, "fusion_lon": 0.0, "lat": 38.901915, "bike_id": "7683d1d08b233f5af104fb96172fe3b5", "type": "electric_scooter", "is_reserved": 0, "lon": -77.02218383333333}, {"fusion_lat": 0.0, "name": "ee263c7ceeac9c7eb52b375965c01b7f", "is_disabled": 0, "rental_uris": {"android": "https://dc.lft.to/lastmile_qr_scan", "ios": "https://dc.lft.to/lastmile_qr_scan"}, "fusion_lon": 0.0, "lat": 38.923418166666664, "bike_id": "ee263c7ceeac9c7eb52b375965c01b7f", "type": "electric_scooter", "is_reserved": 0, "lon": -77.05171633333333}, {"fusion_lat": 0.0, "name": "f015294deb8447d82b597c8003b367d0", "is_disabled": 0, "rental_uris": {"android": "https://dc.lft.to/lastmile_qr_scan", "ios": "https://dc.lft.to/lastmile_qr_scan"}, "fusion_lon": 0.0, "lat": 38.916966, "bike_id": "f015294deb8447d82b597c8003b367d0", "type": "electric_scooter", "is_reserved": 0, "lon": -77.028658}, {"fusion_lat": 0.0, "name": "1e980d4239b15f19424dc0a361abe892", "is_disabled": 0, "rental_uris": {"android": "https://dc.lft.to/lastmile_qr_scan", "ios": "https://dc.lft.to/lastmile_qr_scan"}, "fusion_lon": 0.0, "lat": 38.899758, "bike_id": "1e980d4239b15f19424dc0a361abe892", "type": "electric_scooter", "is_reserved": 0, "lon": -77.02219333333333}, {"fusion_lat": 0.0, "name": "ed210389878c349c436672d89de6695e", "is_disabled": 0, "rental_uris": {"android": "https://dc.lft.to/lastmile_qr_scan", "ios": "https://dc.lft.to/lastmile_qr_scan"}, "fusion_lon": 0.0, "lat": 38.97881183333333, "bike_id": "ed210389878c349c436672d89de6695e", "type": "electric_bike", "is_reserved": 0, "lon": -77.06032816666666}, {"fusion_lat": 0.0, "name": "1282e2031371954603172c1d6d2204a0", "is_disabled": 0, "rental_uris": {"android": "https://dc.lft.to/lastmile_qr_scan", "ios": "https://dc.lft.to/lastmile_qr_scan"}, "fusion_lon": 0.0, "lat": 38.93587183333333, "bike_id": "1282e2031371954603172c1d6d2204a0", "type": "electric_scooter", "is_reserved": 0, "lon": -77.02847583333333}, {"fusion_lat": 0.0, "name": "65caff78c73b8fec3d29325878c7ba37", "is_disabled": 0, "rental_uris": {"android": "https://dc.lft.to/lastmile_qr_scan", "ios": "https://dc.lft.to/lastmile_qr_scan"}, "fusion_lon": 0.0, "lat": 38.87482883333333, "bike_id": "65caff78c73b8fec3d29325878c7ba37", "type": "electric_scooter", "is_reserved": 0, "lon": -77.005942}, {"fusion_lat": 0.0, "name": "f4e9bb6031480c5ebcfa57d538407979", "is_disabled": 0, "rental_uris": {"android": "https://dc.lft.to/lastmile_qr_scan", "ios": "https://dc.lft.to/lastmile_qr_scan"}, "fusion_lon": 0.0, "lat": 38.877157, "bike_id": "f4e9bb6031480c5ebcfa57d538407979", "type": "electric_scooter", "is_reserved": 0, "lon": -77.01759683333333}, {"fusion_lat": 0.0, "name": "0afbc9fa8480099240d4c7590203f9a8", "is_disabled": 0, "rental_uris": {"android": "https://dc.lft.to/lastmile_qr_scan", "ios": "https://dc.lft.to/lastmile_qr_scan"}, "fusion_lon": 0.0, "lat": 38.939568, "bike_id": "0afbc9fa8480099240d4c7590203f9a8", "type": "electric_scooter", "is_reserved": 0, "lon": -77.021909}, {"fusion_lat": 0.0, "name": "8e3dbc50d7624c044b9afe6a2402f476", "is_disabled": 0, "rental_uris": {"android": "https://dc.lft.to/lastmile_qr_scan", "ios": "https://dc.lft.to/lastmile_qr_scan"}, "fusion_lon": 0.0, "lat": 38.91121183333333, "bike_id": "8e3dbc50d7624c044b9afe6a2402f476", "type": "electric_scooter", "is_reserved": 0, "lon": -76.99762866666667}, {"fusion_lat": 0.0, "name": "cbbfac19c88197727427a3c2e0fcf466", "is_disabled": 0, "rental_uris": {"android": "https://dc.lft.to/lastmile_qr_scan", "ios": "https://dc.lft.to/lastmile_qr_scan"}, "fusion_lon": 0.0, "lat": 38.895014333333336, "bike_id": "cbbfac19c88197727427a3c2e0fcf466", "type": "electric_scooter", "is_reserved": 0, "lon": -77.03958}, {"fusion_lat": 0.0, "name": "b53437a38dca757f0046be5726a35fe4", "is_disabled": 0, "rental_uris": {"android": "https://dc.lft.to/lastmile_qr_scan", "ios": "https://dc.lft.to/lastmile_qr_scan"}, "fusion_lon": 0.0, "lat": 38.89818183333333, "bike_id": "b53437a38dca757f0046be5726a35fe4", "type": "electric_scooter", "is_reserved": 0, "lon": -77.02580383333333}, {"fusion_lat": 0.0, "name": "1f22e6f1b8c92e18e4539cfdb10ed85b", "is_disabled": 0, "rental_uris": {"android": "https://dc.lft.to/lastmile_qr_scan", "ios": "https://dc.lft.to/lastmile_qr_scan"}, "fusion_lon": 0.0, "lat": 38.9009235, "bike_id": "1f22e6f1b8c92e18e4539cfdb10ed85b", "type": "electric_scooter", "is_reserved": 0, "lon": -76.98340283333333}, {"fusion_lat": 0.0, "name": "2004009c7b64e0a9dd4210c93eb55a46", "is_disabled": 0, "rental_uris": {"android": "https://dc.lft.to/lastmile_qr_scan", "ios": "https://dc.lft.to/lastmile_qr_scan"}, "fusion_lon": 0.0, "lat": 38.911237166666666, "bike_id": "2004009c7b64e0a9dd4210c93eb55a46", "type": "electric_scooter", "is_reserved": 0, "lon": -76.997621}, {"fusion_lat": 0.0, "name": "0662797ac7d80905b06842cf3502a2e0", "is_disabled": 0, "rental_uris": {"android": "https://dc.lft.to/lastmile_qr_scan", "ios": "https://dc.lft.to/lastmile_qr_scan"}, "fusion_lon": 0.0, "lat": 38.93130683333333, "bike_id": "0662797ac7d80905b06842cf3502a2e0", "type": "electric_scooter", "is_reserved": 0, "lon": -77.03851583333334}, {"fusion_lat": 0.0, "name": "10c71f1cc6ca49f2a80bdca980034662", "is_disabled": 0, "rental_uris": {"android": "https://dc.lft.to/lastmile_qr_scan", "ios": "https://dc.lft.to/lastmile_qr_scan"}, "fusion_lon": 0.0, "lat": 38.871825333333334, "bike_id": "10c71f1cc6ca49f2a80bdca980034662", "type": "electric_scooter", "is_reserved": 0, "lon": -77.00572716666667}, {"fusion_lat": 0.0, "name": "4abb03dd360ca57830ba652672648077", "is_disabled": 0, "rental_uris": {"android": "https://dc.lft.to/lastmile_qr_scan", "ios": "https://dc.lft.to/lastmile_qr_scan"}, "fusion_lon": 0.0, "lat": 38.9562475, "bike_id": "4abb03dd360ca57830ba652672648077", "type": "electric_bike", "is_reserved": 0, "lon": -76.93898933333334}, {"fusion_lat": 0.0, "name": "26fbddeffc5cdc53f8bf015f6686ca49", "is_disabled": 0, "rental_uris": {"android": "https://dc.lft.to/lastmile_qr_scan", "ios": "https://dc.lft.to/lastmile_qr_scan"}, "fusion_lon": 0.0, "lat": 38.91980183333333, "bike_id": "26fbddeffc5cdc53f8bf015f6686ca49", "type": "electric_scooter", "is_reserved": 0, "lon": -77.026143}, {"fusion_lat": 0.0, "name": "618a0657033b76659a630bf61b22176b", "is_disabled": 0, "rental_uris": {"android": "https://dc.lft.to/lastmile_qr_scan", "ios": "https://dc.lft.to/lastmile_qr_scan"}, "fusion_lon": 0.0, "lat": 38.91482383333334, "bike_id": "618a0657033b76659a630bf61b22176b", "type": "electric_scooter", "is_reserved": 0, "lon": -77.04607783333333}, {"fusion_lat": 0.0, "name": "f33336f9643a42a545e0a58b3331e306", "is_disabled": 0, "rental_uris": {"android": "https://dc.lft.to/lastmile_qr_scan", "ios": "https://dc.lft.to/lastmile_qr_scan"}, "fusion_lon": 0.0, "lat": 38.89525, "bike_id": "f33336f9643a42a545e0a58b3331e306", "type": "electric_scooter", "is_reserved": 0, "lon": -76.93411416666666}, {"fusion_lat": 0.0, "name": "a98901ccabc8c1e4033941dc800a03ad", "is_disabled": 0, "rental_uris": {"android": "https://dc.lft.to/lastmile_qr_scan", "ios": "https://dc.lft.to/lastmile_qr_scan"}, "fusion_lon": 0.0, "lat": 38.899026, "bike_id": "a98901ccabc8c1e4033941dc800a03ad", "type": "electric_scooter", "is_reserved": 0, "lon": -76.99386733333333}, {"fusion_lat": 0.0, "name": "e3f41e75dbafc146119d4214f96549de", "is_disabled": 0, "rental_uris": {"android": "https://dc.lft.to/lastmile_qr_scan", "ios": "https://dc.lft.to/lastmile_qr_scan"}, "fusion_lon": 0.0, "lat": 38.905095833333334, "bike_id": "e3f41e75dbafc146119d4214f96549de", "type": "electric_scooter", "is_reserved": 0, "lon": -77.06470366666667}, {"fusion_lat": 0.0, "name": "4043842040cf50f1caa2352753bb85b7", "is_disabled": 0, "rental_uris": {"android": "https://dc.lft.to/lastmile_qr_scan", "ios": "https://dc.lft.to/lastmile_qr_scan"}, "fusion_lon": 0.0, "lat": 38.916856833333334, "bike_id": "4043842040cf50f1caa2352753bb85b7", "type": "electric_scooter", "is_reserved": 0, "lon": -77.01564}, {"fusion_lat": 0.0, "name": "f3ac4ccb4c474a4edaf87d831cb23792", "is_disabled": 0, "rental_uris": {"android": "https://dc.lft.to/lastmile_qr_scan", "ios": "https://dc.lft.to/lastmile_qr_scan"}, "fusion_lon": 0.0, "lat": 38.851756333333334, "bike_id": "f3ac4ccb4c474a4edaf87d831cb23792", "type": "electric_scooter", "is_reserved": 0, "lon": -76.995801}, {"fusion_lat": 0.0, "name": "a87dc7ba218ee565d0989fa1de2999b5", "is_disabled": 0, "rental_uris": {"android": "https://dc.lft.to/lastmile_qr_scan", "ios": "https://dc.lft.to/lastmile_qr_scan"}, "fusion_lon": 0.0, "lat": 38.88327, "bike_id": "a87dc7ba218ee565d0989fa1de2999b5", "type": "electric_scooter", "is_reserved": 0, "lon": -76.93497083333334}, {"fusion_lat": 0.0, "name": "dc05cf61953ee463e2cf5f3fbba999fc", "is_disabled": 0, "rental_uris": {"android": "https://dc.lft.to/lastmile_qr_scan", "ios": "https://dc.lft.to/lastmile_qr_scan"}, "fusion_lon": 0.0, "lat": 38.947204166666666, "bike_id": "dc05cf61953ee463e2cf5f3fbba999fc", "type": "electric_scooter", "is_reserved": 0, "lon": -77.06545133333333}, {"fusion_lat": 0.0, "name": "f87f3ae4bab9e73746ff48153909c60c", "is_disabled": 0, "rental_uris": {"android": "https://dc.lft.to/lastmile_qr_scan", "ios": "https://dc.lft.to/lastmile_qr_scan"}, "fusion_lon": 0.0, "lat": 38.887336833333336, "bike_id": "f87f3ae4bab9e73746ff48153909c60c", "type": "electric_scooter", "is_reserved": 0, "lon": -77.0318775}, {"fusion_lat": 0.0, "name": "7e6d9d9ba63a2444de334c6bd8cc6ce1", "is_disabled": 0, "rental_uris": {"android": "https://dc.lft.to/lastmile_qr_scan", "ios": "https://dc.lft.to/lastmile_qr_scan"}, "fusion_lon": 0.0, "lat": 38.897168666666666, "bike_id": "7e6d9d9ba63a2444de334c6bd8cc6ce1", "type": "electric_scooter", "is_reserved": 0, "lon": -77.047418}, {"fusion_lat": 0.0, "name": "cb7077b0191b28a7e538ef2641ab32dc", "is_disabled": 0, "rental_uris": {"android": "https://dc.lft.to/lastmile_qr_scan", "ios": "https://dc.lft.to/lastmile_qr_scan"}, "fusion_lon": 0.0, "lat": 38.923364166666666, "bike_id": "cb7077b0191b28a7e538ef2641ab32dc", "type": "electric_scooter", "is_reserved": 0, "lon": -77.05680066666666}, {"fusion_lat": 0.0, "name": "30db8585e73151f62a771c09540d953d", "is_disabled": 0, "rental_uris": {"android": "https://dc.lft.to/lastmile_qr_scan", "ios": "https://dc.lft.to/lastmile_qr_scan"}, "fusion_lon": 0.0, "lat": 38.91268133333333, "bike_id": "30db8585e73151f62a771c09540d953d", "type": "electric_scooter", "is_reserved": 0, "lon": -77.02234}, {"fusion_lat": 0.0, "name": "53180706f93eb397108dc2f1c93f7f27", "is_disabled": 0, "rental_uris": {"android": "https://dc.lft.to/lastmile_qr_scan", "ios": "https://dc.lft.to/lastmile_qr_scan"}, "fusion_lon": 0.0, "lat": 38.906636666666664, "bike_id": "53180706f93eb397108dc2f1c93f7f27", "type": "electric_scooter", "is_reserved": 0, "lon": -77.00919116666667}, {"fusion_lat": 0.0, "name": "7a914a607d1da52365bacc106d4a02bd", "is_disabled": 0, "rental_uris": {"android": "https://dc.lft.to/lastmile_qr_scan", "ios": "https://dc.lft.to/lastmile_qr_scan"}, "fusion_lon": 0.0, "lat": 38.898371833333336, "bike_id": "7a914a607d1da52365bacc106d4a02bd", "type": "electric_scooter", "is_reserved": 0, "lon": -77.05023716666666}, {"fusion_lat": 0.0, "name": "9aa08c96a2e501599ace3c3779662542", "is_disabled": 0, "rental_uris": {"android": "https://dc.lft.to/lastmile_qr_scan", "ios": "https://dc.lft.to/lastmile_qr_scan"}, "fusion_lon": 0.0, "lat": 38.920954, "bike_id": "9aa08c96a2e501599ace3c3779662542", "type": "electric_scooter", "is_reserved": 0, "lon": -77.025195}, {"fusion_lat": 0.0, "name": "62f201589429b05273dc54a4a74f0887", "is_disabled": 0, "rental_uris": {"android": "https://dc.lft.to/lastmile_qr_scan", "ios": "https://dc.lft.to/lastmile_qr_scan"}, "fusion_lon": 0.0, "lat": 38.905597, "bike_id": "62f201589429b05273dc54a4a74f0887", "type": "electric_scooter", "is_reserved": 0, "lon": -77.03744883333333}, {"fusion_lat": 0.0, "name": "b1eaf5881d550966e54ac3ae1ba93461", "is_disabled": 0, "rental_uris": {"android": "https://dc.lft.to/lastmile_qr_scan", "ios": "https://dc.lft.to/lastmile_qr_scan"}, "fusion_lon": 0.0, "lat": 38.918170333333336, "bike_id": "b1eaf5881d550966e54ac3ae1ba93461", "type": "electric_scooter", "is_reserved": 0, "lon": -77.02475533333333}, {"fusion_lat": 0.0, "name": "fbb7e5ab1aee435011263ea0b205e37d", "is_disabled": 0, "rental_uris": {"android": "https://dc.lft.to/lastmile_qr_scan", "ios": "https://dc.lft.to/lastmile_qr_scan"}, "fusion_lon": 0.0, "lat": 38.906726166666665, "bike_id": "fbb7e5ab1aee435011263ea0b205e37d", "type": "electric_scooter", "is_reserved": 0, "lon": -77.03428266666667}, {"fusion_lat": 0.0, "name": "6b1b1508bfb02176ed0caaccd6dfb12f", "is_disabled": 0, "rental_uris": {"android": "https://dc.lft.to/lastmile_qr_scan", "ios": "https://dc.lft.to/lastmile_qr_scan"}, "fusion_lon": 0.0, "lat": 38.90537116666667, "bike_id": "6b1b1508bfb02176ed0caaccd6dfb12f", "type": "electric_scooter", "is_reserved": 0, "lon": -77.02213883333333}, {"fusion_lat": 0.0, "name": "36ef727dd57c67d227a13c9cb70f3aea", "is_disabled": 0, "rental_uris": {"android": "https://dc.lft.to/lastmile_qr_scan", "ios": "https://dc.lft.to/lastmile_qr_scan"}, "fusion_lon": 0.0, "lat": 38.8982735, "bike_id": "36ef727dd57c67d227a13c9cb70f3aea", "type": "electric_bike", "is_reserved": 0, "lon": -77.0060415}, {"fusion_lat": 0.0, "name": "bb35b57e638baaa0cfc8011574c9c52c", "is_disabled": 0, "rental_uris": {"android": "https://dc.lft.to/lastmile_qr_scan", "ios": "https://dc.lft.to/lastmile_qr_scan"}, "fusion_lon": 0.0, "lat": 38.909751, "bike_id": "bb35b57e638baaa0cfc8011574c9c52c", "type": "electric_scooter", "is_reserved": 0, "lon": -77.03427916666666}, {"fusion_lat": 0.0, "name": "e2c824b703c4cd51af442d5cdca883f1", "is_disabled": 0, "rental_uris": {"android": "https://dc.lft.to/lastmile_qr_scan", "ios": "https://dc.lft.to/lastmile_qr_scan"}, "fusion_lon": 0.0, "lat": 38.907084166666664, "bike_id": "e2c824b703c4cd51af442d5cdca883f1", "type": "electric_scooter", "is_reserved": 0, "lon": -77.03177616666666}, {"fusion_lat": 0.0, "name": "6b89f6fa24656952b53c455affe3ddd4", "is_disabled": 0, "rental_uris": {"android": "https://dc.lft.to/lastmile_qr_scan", "ios": "https://dc.lft.to/lastmile_qr_scan"}, "fusion_lon": 0.0, "lat": 38.914007166666664, "bike_id": "6b89f6fa24656952b53c455affe3ddd4", "type": "electric_scooter", "is_reserved": 0, "lon": -77.0220855}, {"fusion_lat": 0.0, "name": "8ba098e039022c169158f74a888e9b57", "is_disabled": 0, "rental_uris": {"android": "https://dc.lft.to/lastmile_qr_scan", "ios": "https://dc.lft.to/lastmile_qr_scan"}, "fusion_lon": 0.0, "lat": 38.90015266666666, "bike_id": "8ba098e039022c169158f74a888e9b57", "type": "electric_scooter", "is_reserved": 0, "lon": -76.99860533333333}, {"fusion_lat": 0.0, "name": "1558776ba61d99b99b3aa29040d1bdae", "is_disabled": 0, "rental_uris": {"android": "https://dc.lft.to/lastmile_qr_scan", "ios": "https://dc.lft.to/lastmile_qr_scan"}, "fusion_lon": 0.0, "lat": 38.919929, "bike_id": "1558776ba61d99b99b3aa29040d1bdae", "type": "electric_scooter", "is_reserved": 0, "lon": -77.03229383333333}, {"fusion_lat": 0.0, "name": "0188e561d0237ca0935f317f003d62e1", "is_disabled": 0, "rental_uris": {"android": "https://dc.lft.to/lastmile_qr_scan", "ios": "https://dc.lft.to/lastmile_qr_scan"}, "fusion_lon": 0.0, "lat": 38.923443666666664, "bike_id": "0188e561d0237ca0935f317f003d62e1", "type": "electric_scooter", "is_reserved": 0, "lon": -77.05176733333333}, {"fusion_lat": 0.0, "name": "9f40e58816c4845c9b33c3a2c8c1eb7b", "is_disabled": 0, "rental_uris": {"android": "https://dc.lft.to/lastmile_qr_scan", "ios": "https://dc.lft.to/lastmile_qr_scan"}, "fusion_lon": 0.0, "lat": 38.90566366666667, "bike_id": "9f40e58816c4845c9b33c3a2c8c1eb7b", "type": "electric_scooter", "is_reserved": 0, "lon": -77.016987}, {"fusion_lat": 0.0, "name": "267e777afc3d882332173899c4b73166", "is_disabled": 0, "rental_uris": {"android": "https://dc.lft.to/lastmile_qr_scan", "ios": "https://dc.lft.to/lastmile_qr_scan"}, "fusion_lon": 0.0, "lat": 38.9053985, "bike_id": "267e777afc3d882332173899c4b73166", "type": "electric_scooter", "is_reserved": 0, "lon": -77.0272435}, {"fusion_lat": 0.0, "name": "ae0f0efa9f1af6b65caa8512196658c7", "is_disabled": 0, "rental_uris": {"android": "https://dc.lft.to/lastmile_qr_scan", "ios": "https://dc.lft.to/lastmile_qr_scan"}, "fusion_lon": 0.0, "lat": 38.907745, "bike_id": "ae0f0efa9f1af6b65caa8512196658c7", "type": "electric_scooter", "is_reserved": 0, "lon": -77.03862216666667}, {"fusion_lat": 0.0, "name": "0af911b93dc4bbe0895a59b900ad3f6f", "is_disabled": 0, "rental_uris": {"android": "https://dc.lft.to/lastmile_qr_scan", "ios": "https://dc.lft.to/lastmile_qr_scan"}, "fusion_lon": 0.0, "lat": 38.8881485, "bike_id": "0af911b93dc4bbe0895a59b900ad3f6f", "type": "electric_scooter", "is_reserved": 0, "lon": -77.01492783333333}, {"fusion_lat": 0.0, "name": "786ac149ca9130f69a82ebc05e29de4b", "is_disabled": 0, "rental_uris": {"android": "https://dc.lft.to/lastmile_qr_scan", "ios": "https://dc.lft.to/lastmile_qr_scan"}, "fusion_lon": 0.0, "lat": 38.901280666666665, "bike_id": "786ac149ca9130f69a82ebc05e29de4b", "type": "electric_scooter", "is_reserved": 0, "lon": -77.04423516666667}, {"fusion_lat": 0.0, "name": "fa3cb6439d140d4d7194f3813aaba8a1", "is_disabled": 0, "rental_uris": {"android": "https://dc.lft.to/lastmile_qr_scan", "ios": "https://dc.lft.to/lastmile_qr_scan"}, "fusion_lon": 0.0, "lat": 38.86525666666667, "bike_id": "fa3cb6439d140d4d7194f3813aaba8a1", "type": "electric_bike", "is_reserved": 0, "lon": -77.12936866666666}, {"fusion_lat": 0.0, "name": "8317ef5caa6c1f021b43cdffba3a9b76", "is_disabled": 0, "rental_uris": {"android": "https://dc.lft.to/lastmile_qr_scan", "ios": "https://dc.lft.to/lastmile_qr_scan"}, "fusion_lon": 0.0, "lat": 38.914669833333335, "bike_id": "8317ef5caa6c1f021b43cdffba3a9b76", "type": "electric_scooter", "is_reserved": 0, "lon": -77.025841}, {"fusion_lat": 0.0, "name": "162a1f1ba5fb50677a20056052385673", "is_disabled": 0, "rental_uris": {"android": "https://dc.lft.to/lastmile_qr_scan", "ios": "https://dc.lft.to/lastmile_qr_scan"}, "fusion_lon": 0.0, "lat": 38.924667, "bike_id": "162a1f1ba5fb50677a20056052385673", "type": "electric_scooter", "is_reserved": 0, "lon": -77.02076166666667}, {"fusion_lat": 0.0, "name": "b0b9ae86ee4e6fc79ea151e6a0041527", "is_disabled": 0, "rental_uris": {"android": "https://dc.lft.to/lastmile_qr_scan", "ios": "https://dc.lft.to/lastmile_qr_scan"}, "fusion_lon": 0.0, "lat": 38.92311333333333, "bike_id": "b0b9ae86ee4e6fc79ea151e6a0041527", "type": "electric_scooter", "is_reserved": 0, "lon": -77.04043016666667}, {"fusion_lat": 0.0, "name": "62a2ae36e7426c091f16a98c357eba27", "is_disabled": 0, "rental_uris": {"android": "https://dc.lft.to/lastmile_qr_scan", "ios": "https://dc.lft.to/lastmile_qr_scan"}, "fusion_lon": 0.0, "lat": 38.92237266666667, "bike_id": "62a2ae36e7426c091f16a98c357eba27", "type": "electric_scooter", "is_reserved": 0, "lon": -77.0390525}, {"fusion_lat": 0.0, "name": "479df2d41431c2829a7a64aedee5c3b9", "is_disabled": 0, "rental_uris": {"android": "https://dc.lft.to/lastmile_qr_scan", "ios": "https://dc.lft.to/lastmile_qr_scan"}, "fusion_lon": 0.0, "lat": 38.91107133333333, "bike_id": "479df2d41431c2829a7a64aedee5c3b9", "type": "electric_scooter", "is_reserved": 0, "lon": -77.0316315}, {"fusion_lat": 0.0, "name": "a10eec7cdfa00e4966d6501abe2824b1", "is_disabled": 0, "rental_uris": {"android": "https://dc.lft.to/lastmile_qr_scan", "ios": "https://dc.lft.to/lastmile_qr_scan"}, "fusion_lon": 0.0, "lat": 38.92219633333333, "bike_id": "a10eec7cdfa00e4966d6501abe2824b1", "type": "electric_scooter", "is_reserved": 0, "lon": -77.021205}, {"fusion_lat": 0.0, "name": "1a28bb16dccbdb0f8d4384cb7734d6ef", "is_disabled": 0, "rental_uris": {"android": "https://dc.lft.to/lastmile_qr_scan", "ios": "https://dc.lft.to/lastmile_qr_scan"}, "fusion_lon": 0.0, "lat": 38.906447666666665, "bike_id": "1a28bb16dccbdb0f8d4384cb7734d6ef", "type": "electric_scooter", "is_reserved": 0, "lon": -77.03429516666667}, {"fusion_lat": 0.0, "name": "0482d19c3d3fd7e085a109f9f610f10b", "is_disabled": 0, "rental_uris": {"android": "https://dc.lft.to/lastmile_qr_scan", "ios": "https://dc.lft.to/lastmile_qr_scan"}, "fusion_lon": 0.0, "lat": 38.89432166666667, "bike_id": "0482d19c3d3fd7e085a109f9f610f10b", "type": "electric_scooter", "is_reserved": 0, "lon": -77.02178983333333}, {"fusion_lat": 0.0, "name": "f60954b72913f423ace5c28b2bdd374a", "is_disabled": 0, "rental_uris": {"android": "https://dc.lft.to/lastmile_qr_scan", "ios": "https://dc.lft.to/lastmile_qr_scan"}, "fusion_lon": 0.0, "lat": 38.904585, "bike_id": "f60954b72913f423ace5c28b2bdd374a", "type": "electric_scooter", "is_reserved": 0, "lon": -77.02820583333333}, {"fusion_lat": 0.0, "name": "c65b1d450eaf302a76a4abe38d63f03b", "is_disabled": 0, "rental_uris": {"android": "https://dc.lft.to/lastmile_qr_scan", "ios": "https://dc.lft.to/lastmile_qr_scan"}, "fusion_lon": 0.0, "lat": 38.89975916666667, "bike_id": "c65b1d450eaf302a76a4abe38d63f03b", "type": "electric_scooter", "is_reserved": 0, "lon": -77.052637}, {"fusion_lat": 0.0, "name": "f5cffbd5a68a72652d26ba6938d19281", "is_disabled": 0, "rental_uris": {"android": "https://dc.lft.to/lastmile_qr_scan", "ios": "https://dc.lft.to/lastmile_qr_scan"}, "fusion_lon": 0.0, "lat": 38.93178666666667, "bike_id": "f5cffbd5a68a72652d26ba6938d19281", "type": "electric_scooter", "is_reserved": 0, "lon": -77.020049}, {"fusion_lat": 0.0, "name": "e6df3a4a3ad32f63df3802a2c8f2e2a3", "is_disabled": 0, "rental_uris": {"android": "https://dc.lft.to/lastmile_qr_scan", "ios": "https://dc.lft.to/lastmile_qr_scan"}, "fusion_lon": 0.0, "lat": 38.87306, "bike_id": "e6df3a4a3ad32f63df3802a2c8f2e2a3", "type": "electric_scooter", "is_reserved": 0, "lon": -76.9780085}, {"fusion_lat": 0.0, "name": "8f3cb9aa4738c7a0bb84a2594625aa67", "is_disabled": 0, "rental_uris": {"android": "https://dc.lft.to/lastmile_qr_scan", "ios": "https://dc.lft.to/lastmile_qr_scan"}, "fusion_lon": 0.0, "lat": 38.860130833333336, "bike_id": "8f3cb9aa4738c7a0bb84a2594625aa67", "type": "electric_scooter", "is_reserved": 0, "lon": -76.967041}, {"fusion_lat": 0.0, "name": "a62dcf0fb314d8d41444ff3870aa1c4c", "is_disabled": 0, "rental_uris": {"android": "https://dc.lft.to/lastmile_qr_scan", "ios": "https://dc.lft.to/lastmile_qr_scan"}, "fusion_lon": 0.0, "lat": 38.90103416666667, "bike_id": "a62dcf0fb314d8d41444ff3870aa1c4c", "type": "electric_scooter", "is_reserved": 0, "lon": -76.93049816666667}, {"fusion_lat": 0.0, "name": "537a95e12a29f987e32a3662368ab0cf", "is_disabled": 0, "rental_uris": {"android": "https://dc.lft.to/lastmile_qr_scan", "ios": "https://dc.lft.to/lastmile_qr_scan"}, "fusion_lon": 0.0, "lat": 38.923433833333334, "bike_id": "537a95e12a29f987e32a3662368ab0cf", "type": "electric_scooter", "is_reserved": 0, "lon": -77.05222016666667}, {"fusion_lat": 0.0, "name": "b4904ade02bdc2e7488f510689dff55c", "is_disabled": 0, "rental_uris": {"android": "https://dc.lft.to/lastmile_qr_scan", "ios": "https://dc.lft.to/lastmile_qr_scan"}, "fusion_lon": 0.0, "lat": 38.903598833333334, "bike_id": "b4904ade02bdc2e7488f510689dff55c", "type": "electric_scooter", "is_reserved": 0, "lon": -77.01799116666666}, {"fusion_lat": 0.0, "name": "12736b8fb915b480f09c0e1ebacb4275", "is_disabled": 0, "rental_uris": {"android": "https://dc.lft.to/lastmile_qr_scan", "ios": "https://dc.lft.to/lastmile_qr_scan"}, "fusion_lon": 0.0, "lat": 38.907988, "bike_id": "12736b8fb915b480f09c0e1ebacb4275", "type": "electric_scooter", "is_reserved": 0, "lon": -77.04235966666667}, {"fusion_lat": 0.0, "name": "077fe34841c3c85f0778f10dbe940710", "is_disabled": 0, "rental_uris": {"android": "https://dc.lft.to/lastmile_qr_scan", "ios": "https://dc.lft.to/lastmile_qr_scan"}, "fusion_lon": 0.0, "lat": 38.897163, "bike_id": "077fe34841c3c85f0778f10dbe940710", "type": "electric_scooter", "is_reserved": 0, "lon": -77.0246205}, {"fusion_lat": 0.0, "name": "a8584a3ed79d814102da1b00615f3999", "is_disabled": 0, "rental_uris": {"android": "https://dc.lft.to/lastmile_qr_scan", "ios": "https://dc.lft.to/lastmile_qr_scan"}, "fusion_lon": 0.0, "lat": 38.911204, "bike_id": "a8584a3ed79d814102da1b00615f3999", "type": "electric_scooter", "is_reserved": 0, "lon": -77.02197783333334}, {"fusion_lat": 0.0, "name": "24b4f793f9fdffd3e207584f9d6ae830", "is_disabled": 0, "rental_uris": {"android": "https://dc.lft.to/lastmile_qr_scan", "ios": "https://dc.lft.to/lastmile_qr_scan"}, "fusion_lon": 0.0, "lat": 38.930881, "bike_id": "24b4f793f9fdffd3e207584f9d6ae830", "type": "electric_scooter", "is_reserved": 0, "lon": -77.01998266666666}, {"fusion_lat": 0.0, "name": "3df92c95b645cfac39357a1cce2e4307", "is_disabled": 0, "rental_uris": {"android": "https://dc.lft.to/lastmile_qr_scan", "ios": "https://dc.lft.to/lastmile_qr_scan"}, "fusion_lon": 0.0, "lat": 38.899976833333334, "bike_id": "3df92c95b645cfac39357a1cce2e4307", "type": "electric_scooter", "is_reserved": 0, "lon": -77.00207916666666}, {"fusion_lat": 0.0, "name": "e69cd994aa9ca0fac62777d83c314e42", "is_disabled": 0, "rental_uris": {"android": "https://dc.lft.to/lastmile_qr_scan", "ios": "https://dc.lft.to/lastmile_qr_scan"}, "fusion_lon": 0.0, "lat": 38.95606033333333, "bike_id": "e69cd994aa9ca0fac62777d83c314e42", "type": "electric_scooter", "is_reserved": 0, "lon": -77.03354966666667}, {"fusion_lat": 0.0, "name": "bd2ab54d27e5dec23871e20a8b0bb630", "is_disabled": 0, "rental_uris": {"android": "https://dc.lft.to/lastmile_qr_scan", "ios": "https://dc.lft.to/lastmile_qr_scan"}, "fusion_lon": 0.0, "lat": 38.915668333333336, "bike_id": "bd2ab54d27e5dec23871e20a8b0bb630", "type": "electric_scooter", "is_reserved": 0, "lon": -77.03139}, {"fusion_lat": 0.0, "name": "18f79a11c2d0be119d1e838134515d85", "is_disabled": 0, "rental_uris": {"android": "https://dc.lft.to/lastmile_qr_scan", "ios": "https://dc.lft.to/lastmile_qr_scan"}, "fusion_lon": 0.0, "lat": 38.92242816666667, "bike_id": "18f79a11c2d0be119d1e838134515d85", "type": "electric_scooter", "is_reserved": 0, "lon": -77.03664883333333}, {"fusion_lat": 0.0, "name": "53f1d206e3fa2d298018f4e276f3a4e9", "is_disabled": 0, "rental_uris": {"android": "https://dc.lft.to/lastmile_qr_scan", "ios": "https://dc.lft.to/lastmile_qr_scan"}, "fusion_lon": 0.0, "lat": 38.907997333333334, "bike_id": "53f1d206e3fa2d298018f4e276f3a4e9", "type": "electric_scooter", "is_reserved": 0, "lon": -77.034624}, {"fusion_lat": 0.0, "name": "cd126424ec01f2f48c4dfce759246e25", "is_disabled": 0, "rental_uris": {"android": "https://dc.lft.to/lastmile_qr_scan", "ios": "https://dc.lft.to/lastmile_qr_scan"}, "fusion_lon": 0.0, "lat": 38.899054666666665, "bike_id": "cd126424ec01f2f48c4dfce759246e25", "type": "electric_scooter", "is_reserved": 0, "lon": -76.99160833333333}, {"fusion_lat": 0.0, "name": "858e2e2d74bc268d1aa7614007acba19", "is_disabled": 0, "rental_uris": {"android": "https://dc.lft.to/lastmile_qr_scan", "ios": "https://dc.lft.to/lastmile_qr_scan"}, "fusion_lon": 0.0, "lat": 38.89980533333333, "bike_id": "858e2e2d74bc268d1aa7614007acba19", "type": "electric_scooter", "is_reserved": 0, "lon": -77.01632316666667}, {"fusion_lat": 0.0, "name": "0aa9f35b2bf3f94e805fc4eacb6d6c39", "is_disabled": 0, "rental_uris": {"android": "https://dc.lft.to/lastmile_qr_scan", "ios": "https://dc.lft.to/lastmile_qr_scan"}, "fusion_lon": 0.0, "lat": 38.917109333333336, "bike_id": "0aa9f35b2bf3f94e805fc4eacb6d6c39", "type": "electric_scooter", "is_reserved": 0, "lon": -76.9766435}, {"fusion_lat": 0.0, "name": "618b2dbbdfd9fb933ec1d284e9b8c171", "is_disabled": 0, "rental_uris": {"android": "https://dc.lft.to/lastmile_qr_scan", "ios": "https://dc.lft.to/lastmile_qr_scan"}, "fusion_lon": 0.0, "lat": 38.907786333333334, "bike_id": "618b2dbbdfd9fb933ec1d284e9b8c171", "type": "electric_scooter", "is_reserved": 0, "lon": -77.0385995}, {"fusion_lat": 0.0, "name": "7d9045824d77305e0689b2b0e96ff12c", "is_disabled": 0, "rental_uris": {"android": "https://dc.lft.to/lastmile_qr_scan", "ios": "https://dc.lft.to/lastmile_qr_scan"}, "fusion_lon": 0.0, "lat": 38.91915433333333, "bike_id": "7d9045824d77305e0689b2b0e96ff12c", "type": "electric_scooter", "is_reserved": 0, "lon": -77.03218766666667}, {"fusion_lat": 0.0, "name": "0f7ec0a5ab6b74f1499095631a9d0a87", "is_disabled": 0, "rental_uris": {"android": "https://dc.lft.to/lastmile_qr_scan", "ios": "https://dc.lft.to/lastmile_qr_scan"}, "fusion_lon": 0.0, "lat": 38.9279015, "bike_id": "0f7ec0a5ab6b74f1499095631a9d0a87", "type": "electric_scooter", "is_reserved": 0, "lon": -77.0245555}, {"fusion_lat": 0.0, "name": "2729a5b7bdc9a428bdfab411ca8b40c8", "is_disabled": 0, "rental_uris": {"android": "https://dc.lft.to/lastmile_qr_scan", "ios": "https://dc.lft.to/lastmile_qr_scan"}, "fusion_lon": 0.0, "lat": 38.90090466666667, "bike_id": "2729a5b7bdc9a428bdfab411ca8b40c8", "type": "electric_scooter", "is_reserved": 0, "lon": -76.98325466666667}, {"fusion_lat": 0.0, "name": "a8df203768dd2838a1624cb38bbd02b7", "is_disabled": 0, "rental_uris": {"android": "https://dc.lft.to/lastmile_qr_scan", "ios": "https://dc.lft.to/lastmile_qr_scan"}, "fusion_lon": 0.0, "lat": 38.87967733333333, "bike_id": "a8df203768dd2838a1624cb38bbd02b7", "type": "electric_bike", "is_reserved": 0, "lon": -76.916163}, {"fusion_lat": 0.0, "name": "db8ec2c4e3ee324f771685a5fa4b5100", "is_disabled": 0, "rental_uris": {"android": "https://dc.lft.to/lastmile_qr_scan", "ios": "https://dc.lft.to/lastmile_qr_scan"}, "fusion_lon": 0.0, "lat": 38.8947215, "bike_id": "db8ec2c4e3ee324f771685a5fa4b5100", "type": "electric_scooter", "is_reserved": 0, "lon": -77.0176435}, {"fusion_lat": 0.0, "name": "2e555b8c07aa8e7ba2e1668915e04fef", "is_disabled": 0, "rental_uris": {"android": "https://dc.lft.to/lastmile_qr_scan", "ios": "https://dc.lft.to/lastmile_qr_scan"}, "fusion_lon": 0.0, "lat": 38.873894666666665, "bike_id": "2e555b8c07aa8e7ba2e1668915e04fef", "type": "electric_scooter", "is_reserved": 0, "lon": -77.00062216666667}, {"fusion_lat": 0.0, "name": "962640307f7228eb0b94b2d667cf42cf", "is_disabled": 0, "rental_uris": {"android": "https://dc.lft.to/lastmile_qr_scan", "ios": "https://dc.lft.to/lastmile_qr_scan"}, "fusion_lon": 0.0, "lat": 38.92349633333333, "bike_id": "962640307f7228eb0b94b2d667cf42cf", "type": "electric_scooter", "is_reserved": 0, "lon": -77.03311683333334}, {"fusion_lat": 0.0, "name": "842aae4f45ca97b55e5eb853febeab79", "is_disabled": 0, "rental_uris": {"android": "https://dc.lft.to/lastmile_qr_scan", "ios": "https://dc.lft.to/lastmile_qr_scan"}, "fusion_lon": 0.0, "lat": 38.9149535, "bike_id": "842aae4f45ca97b55e5eb853febeab79", "type": "electric_scooter", "is_reserved": 0, "lon": -77.01221166666667}, {"fusion_lat": 0.0, "name": "ac0c421d4dd1de9db55e511bf6b56c5c", "is_disabled": 0, "rental_uris": {"android": "https://dc.lft.to/lastmile_qr_scan", "ios": "https://dc.lft.to/lastmile_qr_scan"}, "fusion_lon": 0.0, "lat": 38.91554433333334, "bike_id": "ac0c421d4dd1de9db55e511bf6b56c5c", "type": "electric_scooter", "is_reserved": 0, "lon": -77.03853266666667}, {"fusion_lat": 0.0, "name": "ae2cf882a84f800e5f0d6d223fad5716", "is_disabled": 0, "rental_uris": {"android": "https://dc.lft.to/lastmile_qr_scan", "ios": "https://dc.lft.to/lastmile_qr_scan"}, "fusion_lon": 0.0, "lat": 38.907814, "bike_id": "ae2cf882a84f800e5f0d6d223fad5716", "type": "electric_scooter", "is_reserved": 0, "lon": -76.993839}, {"fusion_lat": 0.0, "name": "0ff8959d87437bd097bea37096d80e60", "is_disabled": 0, "rental_uris": {"android": "https://dc.lft.to/lastmile_qr_scan", "ios": "https://dc.lft.to/lastmile_qr_scan"}, "fusion_lon": 0.0, "lat": 38.902398, "bike_id": "0ff8959d87437bd097bea37096d80e60", "type": "electric_scooter", "is_reserved": 0, "lon": -77.00200983333333}, {"fusion_lat": 0.0, "name": "20abaa47ae879093875569b105840696", "is_disabled": 0, "rental_uris": {"android": "https://dc.lft.to/lastmile_qr_scan", "ios": "https://dc.lft.to/lastmile_qr_scan"}, "fusion_lon": 0.0, "lat": 38.927584833333334, "bike_id": "20abaa47ae879093875569b105840696", "type": "electric_scooter", "is_reserved": 0, "lon": -77.02961866666666}, {"fusion_lat": 0.0, "name": "084ba5305ba7601273c89f5909f36386", "is_disabled": 0, "rental_uris": {"android": "https://dc.lft.to/lastmile_qr_scan", "ios": "https://dc.lft.to/lastmile_qr_scan"}, "fusion_lon": 0.0, "lat": 38.89278916666667, "bike_id": "084ba5305ba7601273c89f5909f36386", "type": "electric_scooter", "is_reserved": 0, "lon": -77.0317325}, {"fusion_lat": 0.0, "name": "8912809be42a9c0e5eb1c5d884644e94", "is_disabled": 0, "rental_uris": {"android": "https://dc.lft.to/lastmile_qr_scan", "ios": "https://dc.lft.to/lastmile_qr_scan"}, "fusion_lon": 0.0, "lat": 38.91257483333333, "bike_id": "8912809be42a9c0e5eb1c5d884644e94", "type": "electric_scooter", "is_reserved": 0, "lon": -77.03874033333334}, {"fusion_lat": 0.0, "name": "2f90356397d11bd80e7fdaa8ad24d57c", "is_disabled": 0, "rental_uris": {"android": "https://dc.lft.to/lastmile_qr_scan", "ios": "https://dc.lft.to/lastmile_qr_scan"}, "fusion_lon": 0.0, "lat": 38.874698333333335, "bike_id": "2f90356397d11bd80e7fdaa8ad24d57c", "type": "electric_scooter", "is_reserved": 0, "lon": -77.00466066666667}, {"fusion_lat": 0.0, "name": "1f99fee640f69889763fd9a3100ab36f", "is_disabled": 0, "rental_uris": {"android": "https://dc.lft.to/lastmile_qr_scan", "ios": "https://dc.lft.to/lastmile_qr_scan"}, "fusion_lon": 0.0, "lat": 38.92644966666667, "bike_id": "1f99fee640f69889763fd9a3100ab36f", "type": "electric_scooter", "is_reserved": 0, "lon": -77.041276}, {"fusion_lat": 0.0, "name": "73c37eca541adc5aa6bdd4291dc2797c", "is_disabled": 0, "rental_uris": {"android": "https://dc.lft.to/lastmile_qr_scan", "ios": "https://dc.lft.to/lastmile_qr_scan"}, "fusion_lon": 0.0, "lat": 38.931147, "bike_id": "73c37eca541adc5aa6bdd4291dc2797c", "type": "electric_scooter", "is_reserved": 0, "lon": -77.02100283333333}, {"fusion_lat": 0.0, "name": "28e1b2f9de94c284a779737967202924", "is_disabled": 0, "rental_uris": {"android": "https://dc.lft.to/lastmile_qr_scan", "ios": "https://dc.lft.to/lastmile_qr_scan"}, "fusion_lon": 0.0, "lat": 38.91761016666667, "bike_id": "28e1b2f9de94c284a779737967202924", "type": "electric_scooter", "is_reserved": 0, "lon": -77.06952883333334}, {"fusion_lat": 0.0, "name": "463715c16239ac36d6728d3cd65c3e61", "is_disabled": 0, "rental_uris": {"android": "https://dc.lft.to/lastmile_qr_scan", "ios": "https://dc.lft.to/lastmile_qr_scan"}, "fusion_lon": 0.0, "lat": 38.910201666666666, "bike_id": "463715c16239ac36d6728d3cd65c3e61", "type": "electric_scooter", "is_reserved": 0, "lon": -77.0425265}, {"fusion_lat": 0.0, "name": "29dd1d91afde3995548e4750cabed358", "is_disabled": 0, "rental_uris": {"android": "https://dc.lft.to/lastmile_qr_scan", "ios": "https://dc.lft.to/lastmile_qr_scan"}, "fusion_lon": 0.0, "lat": 38.9417645, "bike_id": "29dd1d91afde3995548e4750cabed358", "type": "electric_scooter", "is_reserved": 0, "lon": -77.03657416666667}, {"fusion_lat": 0.0, "name": "750ba0687c013bd936d628dbdaaf10ce", "is_disabled": 0, "rental_uris": {"android": "https://dc.lft.to/lastmile_qr_scan", "ios": "https://dc.lft.to/lastmile_qr_scan"}, "fusion_lon": 0.0, "lat": 38.88359716666667, "bike_id": "750ba0687c013bd936d628dbdaaf10ce", "type": "electric_scooter", "is_reserved": 0, "lon": -77.01956783333333}, {"fusion_lat": 0.0, "name": "31eb2f3ffaf9411328caff6150283cd8", "is_disabled": 0, "rental_uris": {"android": "https://dc.lft.to/lastmile_qr_scan", "ios": "https://dc.lft.to/lastmile_qr_scan"}, "fusion_lon": 0.0, "lat": 38.903993166666666, "bike_id": "31eb2f3ffaf9411328caff6150283cd8", "type": "electric_scooter", "is_reserved": 0, "lon": -76.99009716666667}, {"fusion_lat": 0.0, "name": "45d6839e7b9df4aa4f8770ec4a5d5c20", "is_disabled": 0, "rental_uris": {"android": "https://dc.lft.to/lastmile_qr_scan", "ios": "https://dc.lft.to/lastmile_qr_scan"}, "fusion_lon": 0.0, "lat": 38.91801366666667, "bike_id": "45d6839e7b9df4aa4f8770ec4a5d5c20", "type": "electric_scooter", "is_reserved": 0, "lon": -77.04028316666667}, {"fusion_lat": 0.0, "name": "f894acaf3954f2f5e72b5735586ed8c9", "is_disabled": 0, "rental_uris": {"android": "https://dc.lft.to/lastmile_qr_scan", "ios": "https://dc.lft.to/lastmile_qr_scan"}, "fusion_lon": 0.0, "lat": 38.92377466666667, "bike_id": "f894acaf3954f2f5e72b5735586ed8c9", "type": "electric_scooter", "is_reserved": 0, "lon": -77.03632266666666}, {"fusion_lat": 0.0, "name": "6539295774a2a76c152c484e64a12471", "is_disabled": 0, "rental_uris": {"android": "https://dc.lft.to/lastmile_qr_scan", "ios": "https://dc.lft.to/lastmile_qr_scan"}, "fusion_lon": 0.0, "lat": 38.918170833333335, "bike_id": "6539295774a2a76c152c484e64a12471", "type": "electric_scooter", "is_reserved": 0, "lon": -77.04004233333333}, {"fusion_lat": 0.0, "name": "646d326e49e905f651729689c57fa673", "is_disabled": 0, "rental_uris": {"android": "https://dc.lft.to/lastmile_qr_scan", "ios": "https://dc.lft.to/lastmile_qr_scan"}, "fusion_lon": 0.0, "lat": 38.900962666666665, "bike_id": "646d326e49e905f651729689c57fa673", "type": "electric_scooter", "is_reserved": 0, "lon": -77.01978533333333}, {"fusion_lat": 0.0, "name": "44f877ee5b4993bd65222fe3e36f7048", "is_disabled": 0, "rental_uris": {"android": "https://dc.lft.to/lastmile_qr_scan", "ios": "https://dc.lft.to/lastmile_qr_scan"}, "fusion_lon": 0.0, "lat": 38.92059233333333, "bike_id": "44f877ee5b4993bd65222fe3e36f7048", "type": "electric_scooter", "is_reserved": 0, "lon": -77.0323765}, {"fusion_lat": 0.0, "name": "d8d227982fba05157aa066c28458265f", "is_disabled": 0, "rental_uris": {"android": "https://dc.lft.to/lastmile_qr_scan", "ios": "https://dc.lft.to/lastmile_qr_scan"}, "fusion_lon": 0.0, "lat": 38.8217655, "bike_id": "d8d227982fba05157aa066c28458265f", "type": "electric_bike", "is_reserved": 0, "lon": -77.00146166666667}, {"fusion_lat": 0.0, "name": "c257fce04fe35ab46487f7ca7ba476c0", "is_disabled": 0, "rental_uris": {"android": "https://dc.lft.to/lastmile_qr_scan", "ios": "https://dc.lft.to/lastmile_qr_scan"}, "fusion_lon": 0.0, "lat": 38.895444, "bike_id": "c257fce04fe35ab46487f7ca7ba476c0", "type": "electric_scooter", "is_reserved": 0, "lon": -76.98340416666667}, {"fusion_lat": 0.0, "name": "2733c2ad9b4a4e575045d00e8526ce6a", "is_disabled": 0, "rental_uris": {"android": "https://dc.lft.to/lastmile_qr_scan", "ios": "https://dc.lft.to/lastmile_qr_scan"}, "fusion_lon": 0.0, "lat": 38.857881166666665, "bike_id": "2733c2ad9b4a4e575045d00e8526ce6a", "type": "electric_bike", "is_reserved": 0, "lon": -76.98731583333333}, {"fusion_lat": 0.0, "name": "6008a288b24835931a833b2204ce4513", "is_disabled": 0, "rental_uris": {"android": "https://dc.lft.to/lastmile_qr_scan", "ios": "https://dc.lft.to/lastmile_qr_scan"}, "fusion_lon": 0.0, "lat": 38.90200566666667, "bike_id": "6008a288b24835931a833b2204ce4513", "type": "electric_scooter", "is_reserved": 0, "lon": -77.02373633333333}, {"fusion_lat": 0.0, "name": "c014f636f52372faf1f3e5197480e518", "is_disabled": 0, "rental_uris": {"android": "https://dc.lft.to/lastmile_qr_scan", "ios": "https://dc.lft.to/lastmile_qr_scan"}, "fusion_lon": 0.0, "lat": 38.89606933333334, "bike_id": "c014f636f52372faf1f3e5197480e518", "type": "electric_scooter", "is_reserved": 0, "lon": -77.00931066666666}, {"fusion_lat": 0.0, "name": "e6bc5999c81782d3777c9484a23fe95f", "is_disabled": 0, "rental_uris": {"android": "https://dc.lft.to/lastmile_qr_scan", "ios": "https://dc.lft.to/lastmile_qr_scan"}, "fusion_lon": 0.0, "lat": 38.895936166666665, "bike_id": "e6bc5999c81782d3777c9484a23fe95f", "type": "electric_scooter", "is_reserved": 0, "lon": -77.026821}, {"fusion_lat": 0.0, "name": "307c90a9da123370adbc6c69f78a4152", "is_disabled": 0, "rental_uris": {"android": "https://dc.lft.to/lastmile_qr_scan", "ios": "https://dc.lft.to/lastmile_qr_scan"}, "fusion_lon": 0.0, "lat": 38.8625155, "bike_id": "307c90a9da123370adbc6c69f78a4152", "type": "electric_bike", "is_reserved": 0, "lon": -76.9833565}, {"fusion_lat": 0.0, "name": "cc30e66b9b601dae109eb932030957c7", "is_disabled": 0, "rental_uris": {"android": "https://dc.lft.to/lastmile_qr_scan", "ios": "https://dc.lft.to/lastmile_qr_scan"}, "fusion_lon": 0.0, "lat": 38.9176605, "bike_id": "cc30e66b9b601dae109eb932030957c7", "type": "electric_scooter", "is_reserved": 0, "lon": -77.01475033333334}, {"fusion_lat": 0.0, "name": "d6818e8a9156df71b1d0babeb4b1e27b", "is_disabled": 0, "rental_uris": {"android": "https://dc.lft.to/lastmile_qr_scan", "ios": "https://dc.lft.to/lastmile_qr_scan"}, "fusion_lon": 0.0, "lat": 38.910302, "bike_id": "d6818e8a9156df71b1d0babeb4b1e27b", "type": "electric_scooter", "is_reserved": 0, "lon": -76.99342783333333}, {"fusion_lat": 0.0, "name": "495c0f5bcdf6dc68eead7d523798b842", "is_disabled": 0, "rental_uris": {"android": "https://dc.lft.to/lastmile_qr_scan", "ios": "https://dc.lft.to/lastmile_qr_scan"}, "fusion_lon": 0.0, "lat": 38.921374, "bike_id": "495c0f5bcdf6dc68eead7d523798b842", "type": "electric_scooter", "is_reserved": 0, "lon": -77.04004}, {"fusion_lat": 0.0, "name": "3684792005d85fca9ba679340061e66c", "is_disabled": 0, "rental_uris": {"android": "https://dc.lft.to/lastmile_qr_scan", "ios": "https://dc.lft.to/lastmile_qr_scan"}, "fusion_lon": 0.0, "lat": 38.930791666666664, "bike_id": "3684792005d85fca9ba679340061e66c", "type": "electric_scooter", "is_reserved": 0, "lon": -77.03410683333334}, {"fusion_lat": 0.0, "name": "ac78171e57113ef75138f515e5660313", "is_disabled": 0, "rental_uris": {"android": "https://dc.lft.to/lastmile_qr_scan", "ios": "https://dc.lft.to/lastmile_qr_scan"}, "fusion_lon": 0.0, "lat": 38.806725666666665, "bike_id": "ac78171e57113ef75138f515e5660313", "type": "electric_bike", "is_reserved": 0, "lon": -77.06917783333333}, {"fusion_lat": 0.0, "name": "4e4ae9d80f591b61d5efdae1b399bf4a", "is_disabled": 0, "rental_uris": {"android": "https://dc.lft.to/lastmile_qr_scan", "ios": "https://dc.lft.to/lastmile_qr_scan"}, "fusion_lon": 0.0, "lat": 38.91269533333333, "bike_id": "4e4ae9d80f591b61d5efdae1b399bf4a", "type": "electric_scooter", "is_reserved": 0, "lon": -77.03120283333334}, {"fusion_lat": 0.0, "name": "e0c19b5a310c0143a412d0eb8dee07b3", "is_disabled": 0, "rental_uris": {"android": "https://dc.lft.to/lastmile_qr_scan", "ios": "https://dc.lft.to/lastmile_qr_scan"}, "fusion_lon": 0.0, "lat": 38.89229616666667, "bike_id": "e0c19b5a310c0143a412d0eb8dee07b3", "type": "electric_scooter", "is_reserved": 0, "lon": -76.988187}, {"fusion_lat": 0.0, "name": "b2cdfe4cdcdb62244a683093b028e48a", "is_disabled": 0, "rental_uris": {"android": "https://dc.lft.to/lastmile_qr_scan", "ios": "https://dc.lft.to/lastmile_qr_scan"}, "fusion_lon": 0.0, "lat": 38.92175116666667, "bike_id": "b2cdfe4cdcdb62244a683093b028e48a", "type": "electric_scooter", "is_reserved": 0, "lon": -77.04026783333333}, {"fusion_lat": 0.0, "name": "ff9b63e427c5fea4c882afafdafa29c4", "is_disabled": 0, "rental_uris": {"android": "https://dc.lft.to/lastmile_qr_scan", "ios": "https://dc.lft.to/lastmile_qr_scan"}, "fusion_lon": 0.0, "lat": 38.8071275, "bike_id": "ff9b63e427c5fea4c882afafdafa29c4", "type": "electric_bike", "is_reserved": 0, "lon": -77.061769}, {"fusion_lat": 0.0, "name": "bc1b8c1cf3c082fbff19bb99249e605d", "is_disabled": 0, "rental_uris": {"android": "https://dc.lft.to/lastmile_qr_scan", "ios": "https://dc.lft.to/lastmile_qr_scan"}, "fusion_lon": 0.0, "lat": 38.928597833333335, "bike_id": "bc1b8c1cf3c082fbff19bb99249e605d", "type": "electric_scooter", "is_reserved": 0, "lon": -77.01378116666666}, {"fusion_lat": 0.0, "name": "8710aee50569596ae0968da938691869", "is_disabled": 0, "rental_uris": {"android": "https://dc.lft.to/lastmile_qr_scan", "ios": "https://dc.lft.to/lastmile_qr_scan"}, "fusion_lon": 0.0, "lat": 38.905738166666666, "bike_id": "8710aee50569596ae0968da938691869", "type": "electric_scooter", "is_reserved": 0, "lon": -77.02208833333333}, {"fusion_lat": 0.0, "name": "d158bc3a4b27111acd4c9bd09fe716f1", "is_disabled": 0, "rental_uris": {"android": "https://dc.lft.to/lastmile_qr_scan", "ios": "https://dc.lft.to/lastmile_qr_scan"}, "fusion_lon": 0.0, "lat": 38.90535233333333, "bike_id": "d158bc3a4b27111acd4c9bd09fe716f1", "type": "electric_scooter", "is_reserved": 0, "lon": -77.04562616666666}, {"fusion_lat": 0.0, "name": "2573da12c17df2a0266af967fe2128d1", "is_disabled": 0, "rental_uris": {"android": "https://dc.lft.to/lastmile_qr_scan", "ios": "https://dc.lft.to/lastmile_qr_scan"}, "fusion_lon": 0.0, "lat": 38.90689116666667, "bike_id": "2573da12c17df2a0266af967fe2128d1", "type": "electric_scooter", "is_reserved": 0, "lon": -77.05053516666666}, {"fusion_lat": 0.0, "name": "19e8f651caea9c5875caefb9e4a02e32", "is_disabled": 0, "rental_uris": {"android": "https://dc.lft.to/lastmile_qr_scan", "ios": "https://dc.lft.to/lastmile_qr_scan"}, "fusion_lon": 0.0, "lat": 38.928331, "bike_id": "19e8f651caea9c5875caefb9e4a02e32", "type": "electric_scooter", "is_reserved": 0, "lon": -77.00599416666667}, {"fusion_lat": 0.0, "name": "c7873995f158eb78fe7b0f73b1a36cbf", "is_disabled": 0, "rental_uris": {"android": "https://dc.lft.to/lastmile_qr_scan", "ios": "https://dc.lft.to/lastmile_qr_scan"}, "fusion_lon": 0.0, "lat": 38.90171216666667, "bike_id": "c7873995f158eb78fe7b0f73b1a36cbf", "type": "electric_scooter", "is_reserved": 0, "lon": -76.992649}, {"fusion_lat": 0.0, "name": "343f1a9856f8b37423b2ea14bdc1791f", "is_disabled": 0, "rental_uris": {"android": "https://dc.lft.to/lastmile_qr_scan", "ios": "https://dc.lft.to/lastmile_qr_scan"}, "fusion_lon": 0.0, "lat": 38.92614666666667, "bike_id": "343f1a9856f8b37423b2ea14bdc1791f", "type": "electric_scooter", "is_reserved": 0, "lon": -77.02163833333333}, {"fusion_lat": 0.0, "name": "76c4ab4c095e74782eb7c2bca67b0560", "is_disabled": 0, "rental_uris": {"android": "https://dc.lft.to/lastmile_qr_scan", "ios": "https://dc.lft.to/lastmile_qr_scan"}, "fusion_lon": 0.0, "lat": 38.887338166666666, "bike_id": "76c4ab4c095e74782eb7c2bca67b0560", "type": "electric_scooter", "is_reserved": 0, "lon": -77.01518666666666}, {"fusion_lat": 0.0, "name": "c5faf6ec29486f8900aee42eae3c213d", "is_disabled": 0, "rental_uris": {"android": "https://dc.lft.to/lastmile_qr_scan", "ios": "https://dc.lft.to/lastmile_qr_scan"}, "fusion_lon": 0.0, "lat": 38.902756333333336, "bike_id": "c5faf6ec29486f8900aee42eae3c213d", "type": "electric_scooter", "is_reserved": 0, "lon": -77.02275583333333}, {"fusion_lat": 0.0, "name": "42dc6c63060cc434e2ac1dd9e01f61ce", "is_disabled": 0, "rental_uris": {"android": "https://dc.lft.to/lastmile_qr_scan", "ios": "https://dc.lft.to/lastmile_qr_scan"}, "fusion_lon": 0.0, "lat": 38.8874115, "bike_id": "42dc6c63060cc434e2ac1dd9e01f61ce", "type": "electric_scooter", "is_reserved": 0, "lon": -77.02126}, {"fusion_lat": 0.0, "name": "061ec106d370fdd96a7ab60d453825cf", "is_disabled": 0, "rental_uris": {"android": "https://dc.lft.to/lastmile_qr_scan", "ios": "https://dc.lft.to/lastmile_qr_scan"}, "fusion_lon": 0.0, "lat": 38.881259166666666, "bike_id": "061ec106d370fdd96a7ab60d453825cf", "type": "electric_bike", "is_reserved": 0, "lon": -76.99799233333333}, {"fusion_lat": 0.0, "name": "09c1129dab5684b99dd4d8e04f193dab", "is_disabled": 0, "rental_uris": {"android": "https://dc.lft.to/lastmile_qr_scan", "ios": "https://dc.lft.to/lastmile_qr_scan"}, "fusion_lon": 0.0, "lat": 38.9417745, "bike_id": "09c1129dab5684b99dd4d8e04f193dab", "type": "electric_scooter", "is_reserved": 0, "lon": -77.02616433333333}, {"fusion_lat": 0.0, "name": "4f4854130df8ce7f6e2f9a5503547d5b", "is_disabled": 0, "rental_uris": {"android": "https://dc.lft.to/lastmile_qr_scan", "ios": "https://dc.lft.to/lastmile_qr_scan"}, "fusion_lon": 0.0, "lat": 38.914136666666664, "bike_id": "4f4854130df8ce7f6e2f9a5503547d5b", "type": "electric_scooter", "is_reserved": 0, "lon": -77.03021066666666}, {"fusion_lat": 0.0, "name": "87e696b45ec6b94eca204cd90130de64", "is_disabled": 0, "rental_uris": {"android": "https://dc.lft.to/lastmile_qr_scan", "ios": "https://dc.lft.to/lastmile_qr_scan"}, "fusion_lon": 0.0, "lat": 38.91562016666666, "bike_id": "87e696b45ec6b94eca204cd90130de64", "type": "electric_scooter", "is_reserved": 0, "lon": -77.0106165}, {"fusion_lat": 0.0, "name": "99a7445d260820765564d58a18330de1", "is_disabled": 0, "rental_uris": {"android": "https://dc.lft.to/lastmile_qr_scan", "ios": "https://dc.lft.to/lastmile_qr_scan"}, "fusion_lon": 0.0, "lat": 38.90975533333334, "bike_id": "99a7445d260820765564d58a18330de1", "type": "electric_scooter", "is_reserved": 0, "lon": -77.0268715}, {"fusion_lat": 0.0, "name": "63f6ab9c3c328210affd837b4c0210af", "is_disabled": 0, "rental_uris": {"android": "https://dc.lft.to/lastmile_qr_scan", "ios": "https://dc.lft.to/lastmile_qr_scan"}, "fusion_lon": 0.0, "lat": 38.9207705, "bike_id": "63f6ab9c3c328210affd837b4c0210af", "type": "electric_bike", "is_reserved": 0, "lon": -76.98945683333334}, {"fusion_lat": 0.0, "name": "43cd5ce5c1c2342670a8a41967dc26aa", "is_disabled": 0, "rental_uris": {"android": "https://dc.lft.to/lastmile_qr_scan", "ios": "https://dc.lft.to/lastmile_qr_scan"}, "fusion_lon": 0.0, "lat": 38.915517, "bike_id": "43cd5ce5c1c2342670a8a41967dc26aa", "type": "electric_scooter", "is_reserved": 0, "lon": -77.03852583333334}, {"fusion_lat": 0.0, "name": "43187a789d3790f97e182e1ba8a98042", "is_disabled": 0, "rental_uris": {"android": "https://dc.lft.to/lastmile_qr_scan", "ios": "https://dc.lft.to/lastmile_qr_scan"}, "fusion_lon": 0.0, "lat": 38.926841, "bike_id": "43187a789d3790f97e182e1ba8a98042", "type": "electric_scooter", "is_reserved": 0, "lon": -77.02996166666667}, {"fusion_lat": 0.0, "name": "a5c6bde9341dfc3c5efd634295a0b458", "is_disabled": 0, "rental_uris": {"android": "https://dc.lft.to/lastmile_qr_scan", "ios": "https://dc.lft.to/lastmile_qr_scan"}, "fusion_lon": 0.0, "lat": 38.9199835, "bike_id": "a5c6bde9341dfc3c5efd634295a0b458", "type": "electric_scooter", "is_reserved": 0, "lon": -77.0328385}, {"fusion_lat": 0.0, "name": "94a095d53a0be72ccd263abc6bef3860", "is_disabled": 0, "rental_uris": {"android": "https://dc.lft.to/lastmile_qr_scan", "ios": "https://dc.lft.to/lastmile_qr_scan"}, "fusion_lon": 0.0, "lat": 38.907731166666665, "bike_id": "94a095d53a0be72ccd263abc6bef3860", "type": "electric_scooter", "is_reserved": 0, "lon": -77.03193466666667}, {"fusion_lat": 0.0, "name": "b78a9507c4d486a3ff0b08d34289f72d", "is_disabled": 0, "rental_uris": {"android": "https://dc.lft.to/lastmile_qr_scan", "ios": "https://dc.lft.to/lastmile_qr_scan"}, "fusion_lon": 0.0, "lat": 38.9002655, "bike_id": "b78a9507c4d486a3ff0b08d34289f72d", "type": "electric_scooter", "is_reserved": 0, "lon": -77.011926}, {"fusion_lat": 0.0, "name": "bd3d5cc42962223fdb5810241b247d55", "is_disabled": 0, "rental_uris": {"android": "https://dc.lft.to/lastmile_qr_scan", "ios": "https://dc.lft.to/lastmile_qr_scan"}, "fusion_lon": 0.0, "lat": 38.9021, "bike_id": "bd3d5cc42962223fdb5810241b247d55", "type": "electric_scooter", "is_reserved": 0, "lon": -77.04387383333334}, {"fusion_lat": 0.0, "name": "36d34fccb7b860c68856d8c3a126f9ad", "is_disabled": 0, "rental_uris": {"android": "https://dc.lft.to/lastmile_qr_scan", "ios": "https://dc.lft.to/lastmile_qr_scan"}, "fusion_lon": 0.0, "lat": 38.885392333333336, "bike_id": "36d34fccb7b860c68856d8c3a126f9ad", "type": "electric_scooter", "is_reserved": 0, "lon": -76.97890133333334}, {"fusion_lat": 0.0, "name": "1c173a523b076439216b7e215d718c97", "is_disabled": 0, "rental_uris": {"android": "https://dc.lft.to/lastmile_qr_scan", "ios": "https://dc.lft.to/lastmile_qr_scan"}, "fusion_lon": 0.0, "lat": 38.87080533333334, "bike_id": "1c173a523b076439216b7e215d718c97", "type": "electric_scooter", "is_reserved": 0, "lon": -77.01383866666667}, {"fusion_lat": 0.0, "name": "3d6cfa71072a56d04b46ff3b4713d74d", "is_disabled": 0, "rental_uris": {"android": "https://dc.lft.to/lastmile_qr_scan", "ios": "https://dc.lft.to/lastmile_qr_scan"}, "fusion_lon": 0.0, "lat": 38.902773833333335, "bike_id": "3d6cfa71072a56d04b46ff3b4713d74d", "type": "electric_scooter", "is_reserved": 0, "lon": -77.00577033333333}, {"fusion_lat": 0.0, "name": "7dfd6c0edc02cdd90c5e096d30b378ec", "is_disabled": 0, "rental_uris": {"android": "https://dc.lft.to/lastmile_qr_scan", "ios": "https://dc.lft.to/lastmile_qr_scan"}, "fusion_lon": 0.0, "lat": 38.88730866666667, "bike_id": "7dfd6c0edc02cdd90c5e096d30b378ec", "type": "electric_scooter", "is_reserved": 0, "lon": -77.00321366666667}, {"fusion_lat": 0.0, "name": "dd932d6d3fca45a9081516cce90b528a", "is_disabled": 0, "rental_uris": {"android": "https://dc.lft.to/lastmile_qr_scan", "ios": "https://dc.lft.to/lastmile_qr_scan"}, "fusion_lon": 0.0, "lat": 38.93764683333333, "bike_id": "dd932d6d3fca45a9081516cce90b528a", "type": "electric_scooter", "is_reserved": 0, "lon": -77.0237735}, {"fusion_lat": 0.0, "name": "1f4beda424b2d879a190813658b40c77", "is_disabled": 0, "rental_uris": {"android": "https://dc.lft.to/lastmile_qr_scan", "ios": "https://dc.lft.to/lastmile_qr_scan"}, "fusion_lon": 0.0, "lat": 38.887461333333334, "bike_id": "1f4beda424b2d879a190813658b40c77", "type": "electric_scooter", "is_reserved": 0, "lon": -77.01785633333333}, {"fusion_lat": 0.0, "name": "338a5d21a048999a31cf9d8295753819", "is_disabled": 0, "rental_uris": {"android": "https://dc.lft.to/lastmile_qr_scan", "ios": "https://dc.lft.to/lastmile_qr_scan"}, "fusion_lon": 0.0, "lat": 38.920846, "bike_id": "338a5d21a048999a31cf9d8295753819", "type": "electric_scooter", "is_reserved": 0, "lon": -77.02538516666667}, {"fusion_lat": 0.0, "name": "d094ca1dfabaf14f3fb749abb65b4153", "is_disabled": 0, "rental_uris": {"android": "https://dc.lft.to/lastmile_qr_scan", "ios": "https://dc.lft.to/lastmile_qr_scan"}, "fusion_lon": 0.0, "lat": 38.871786666666665, "bike_id": "d094ca1dfabaf14f3fb749abb65b4153", "type": "electric_scooter", "is_reserved": 0, "lon": -77.00612616666666}, {"fusion_lat": 0.0, "name": "1ae3403c24a52d3ced6769c6426ed115", "is_disabled": 0, "rental_uris": {"android": "https://dc.lft.to/lastmile_qr_scan", "ios": "https://dc.lft.to/lastmile_qr_scan"}, "fusion_lon": 0.0, "lat": 38.96592166666667, "bike_id": "1ae3403c24a52d3ced6769c6426ed115", "type": "electric_scooter", "is_reserved": 0, "lon": -77.01595533333334}, {"fusion_lat": 0.0, "name": "49fcf3663b6fdcb5d0d72b58cec3a1bb", "is_disabled": 0, "rental_uris": {"android": "https://dc.lft.to/lastmile_qr_scan", "ios": "https://dc.lft.to/lastmile_qr_scan"}, "fusion_lon": 0.0, "lat": 38.9100665, "bike_id": "49fcf3663b6fdcb5d0d72b58cec3a1bb", "type": "electric_scooter", "is_reserved": 0, "lon": -77.04910616666666}, {"fusion_lat": 0.0, "name": "c727f7f5213effd7561373b271837c03", "is_disabled": 0, "rental_uris": {"android": "https://dc.lft.to/lastmile_qr_scan", "ios": "https://dc.lft.to/lastmile_qr_scan"}, "fusion_lon": 0.0, "lat": 38.898152833333334, "bike_id": "c727f7f5213effd7561373b271837c03", "type": "electric_scooter", "is_reserved": 0, "lon": -77.02494183333333}, {"fusion_lat": 0.0, "name": "6c8748bda35a74f52e32187c54d0ad1c", "is_disabled": 0, "rental_uris": {"android": "https://dc.lft.to/lastmile_qr_scan", "ios": "https://dc.lft.to/lastmile_qr_scan"}, "fusion_lon": 0.0, "lat": 38.924233666666666, "bike_id": "6c8748bda35a74f52e32187c54d0ad1c", "type": "electric_scooter", "is_reserved": 0, "lon": -76.99718583333333}, {"fusion_lat": 0.0, "name": "0495f204b0f0cdcb12411cdd3a8b6d88", "is_disabled": 0, "rental_uris": {"android": "https://dc.lft.to/lastmile_qr_scan", "ios": "https://dc.lft.to/lastmile_qr_scan"}, "fusion_lon": 0.0, "lat": 38.887675, "bike_id": "0495f204b0f0cdcb12411cdd3a8b6d88", "type": "electric_scooter", "is_reserved": 0, "lon": -77.02372916666667}, {"fusion_lat": 0.0, "name": "e693d16ce4d4e955f2df0aeb8671207d", "is_disabled": 0, "rental_uris": {"android": "https://dc.lft.to/lastmile_qr_scan", "ios": "https://dc.lft.to/lastmile_qr_scan"}, "fusion_lon": 0.0, "lat": 38.8873985, "bike_id": "e693d16ce4d4e955f2df0aeb8671207d", "type": "electric_scooter", "is_reserved": 0, "lon": -77.021257}, {"fusion_lat": 0.0, "name": "45987be4b54069f85b530353e50fee4e", "is_disabled": 0, "rental_uris": {"android": "https://dc.lft.to/lastmile_qr_scan", "ios": "https://dc.lft.to/lastmile_qr_scan"}, "fusion_lon": 0.0, "lat": 38.933779333333334, "bike_id": "45987be4b54069f85b530353e50fee4e", "type": "electric_scooter", "is_reserved": 0, "lon": -77.03887216666666}, {"fusion_lat": 0.0, "name": "becfa46128ece1a3c83f3e7ce0d36ebc", "is_disabled": 0, "rental_uris": {"android": "https://dc.lft.to/lastmile_qr_scan", "ios": "https://dc.lft.to/lastmile_qr_scan"}, "fusion_lon": 0.0, "lat": 38.92471483333333, "bike_id": "becfa46128ece1a3c83f3e7ce0d36ebc", "type": "electric_scooter", "is_reserved": 0, "lon": -77.03769166666666}, {"fusion_lat": 0.0, "name": "964be41220e27365f51f5051603dd80d", "is_disabled": 0, "rental_uris": {"android": "https://dc.lft.to/lastmile_qr_scan", "ios": "https://dc.lft.to/lastmile_qr_scan"}, "fusion_lon": 0.0, "lat": 38.90731566666667, "bike_id": "964be41220e27365f51f5051603dd80d", "type": "electric_bike", "is_reserved": 0, "lon": -77.04045433333333}, {"fusion_lat": 0.0, "name": "1dbbae35815213a8ffce295ff657b17a", "is_disabled": 0, "rental_uris": {"android": "https://dc.lft.to/lastmile_qr_scan", "ios": "https://dc.lft.to/lastmile_qr_scan"}, "fusion_lon": 0.0, "lat": 38.90561833333334, "bike_id": "1dbbae35815213a8ffce295ff657b17a", "type": "electric_scooter", "is_reserved": 0, "lon": -77.0242015}, {"fusion_lat": 0.0, "name": "9413c0c5a4a02ec514d39e787f7931a0", "is_disabled": 0, "rental_uris": {"android": "https://dc.lft.to/lastmile_qr_scan", "ios": "https://dc.lft.to/lastmile_qr_scan"}, "fusion_lon": 0.0, "lat": 38.90273166666667, "bike_id": "9413c0c5a4a02ec514d39e787f7931a0", "type": "electric_scooter", "is_reserved": 0, "lon": -77.02611983333334}, {"fusion_lat": 0.0, "name": "f1c4327b9edf53c90e0af51151e10b1f", "is_disabled": 0, "rental_uris": {"android": "https://dc.lft.to/lastmile_qr_scan", "ios": "https://dc.lft.to/lastmile_qr_scan"}, "fusion_lon": 0.0, "lat": 38.907871666666665, "bike_id": "f1c4327b9edf53c90e0af51151e10b1f", "type": "electric_scooter", "is_reserved": 0, "lon": -77.01106383333334}, {"fusion_lat": 0.0, "name": "87a5e64c73d4b8a4297da83dcf6c4928", "is_disabled": 0, "rental_uris": {"android": "https://dc.lft.to/lastmile_qr_scan", "ios": "https://dc.lft.to/lastmile_qr_scan"}, "fusion_lon": 0.0, "lat": 38.8639415, "bike_id": "87a5e64c73d4b8a4297da83dcf6c4928", "type": "electric_bike", "is_reserved": 0, "lon": -77.201112}, {"fusion_lat": 0.0, "name": "9829ed534b45e5f8e0aa8b75e932202d", "is_disabled": 0, "rental_uris": {"android": "https://dc.lft.to/lastmile_qr_scan", "ios": "https://dc.lft.to/lastmile_qr_scan"}, "fusion_lon": 0.0, "lat": 38.90079216666667, "bike_id": "9829ed534b45e5f8e0aa8b75e932202d", "type": "electric_scooter", "is_reserved": 0, "lon": -77.050703}, {"fusion_lat": 0.0, "name": "c9da4f458074448ae0e0122d13e05b74", "is_disabled": 0, "rental_uris": {"android": "https://dc.lft.to/lastmile_qr_scan", "ios": "https://dc.lft.to/lastmile_qr_scan"}, "fusion_lon": 0.0, "lat": 38.924331333333335, "bike_id": "c9da4f458074448ae0e0122d13e05b74", "type": "electric_scooter", "is_reserved": 0, "lon": -77.02704933333334}, {"fusion_lat": 0.0, "name": "f85188057aa2947ec06c5ac4a7f7d753", "is_disabled": 0, "rental_uris": {"android": "https://dc.lft.to/lastmile_qr_scan", "ios": "https://dc.lft.to/lastmile_qr_scan"}, "fusion_lon": 0.0, "lat": 38.9056315, "bike_id": "f85188057aa2947ec06c5ac4a7f7d753", "type": "electric_scooter", "is_reserved": 0, "lon": -77.00805616666666}, {"fusion_lat": 0.0, "name": "91e25e9d25c00f51cd2f11c63d3465dd", "is_disabled": 0, "rental_uris": {"android": "https://dc.lft.to/lastmile_qr_scan", "ios": "https://dc.lft.to/lastmile_qr_scan"}, "fusion_lon": 0.0, "lat": 38.996982833333334, "bike_id": "91e25e9d25c00f51cd2f11c63d3465dd", "type": "electric_bike", "is_reserved": 0, "lon": -77.02562183333333}, {"fusion_lat": 0.0, "name": "6d6bf0469ad2b18fe80ca3ac080f5a83", "is_disabled": 0, "rental_uris": {"android": "https://dc.lft.to/lastmile_qr_scan", "ios": "https://dc.lft.to/lastmile_qr_scan"}, "fusion_lon": 0.0, "lat": 38.914825666666665, "bike_id": "6d6bf0469ad2b18fe80ca3ac080f5a83", "type": "electric_scooter", "is_reserved": 0, "lon": -77.04255233333333}, {"fusion_lat": 0.0, "name": "1f042844b97039c6847f097f43e6a8e2", "is_disabled": 0, "rental_uris": {"android": "https://dc.lft.to/lastmile_qr_scan", "ios": "https://dc.lft.to/lastmile_qr_scan"}, "fusion_lon": 0.0, "lat": 38.921460333333336, "bike_id": "1f042844b97039c6847f097f43e6a8e2", "type": "electric_scooter", "is_reserved": 0, "lon": -77.04365}, {"fusion_lat": 0.0, "name": "007052eb939bfd8795800c98e07e6626", "is_disabled": 0, "rental_uris": {"android": "https://dc.lft.to/lastmile_qr_scan", "ios": "https://dc.lft.to/lastmile_qr_scan"}, "fusion_lon": 0.0, "lat": 38.9159945, "bike_id": "007052eb939bfd8795800c98e07e6626", "type": "electric_scooter", "is_reserved": 0, "lon": -77.0322135}, {"fusion_lat": 0.0, "name": "314169c50abe608d8909aa2877865893", "is_disabled": 0, "rental_uris": {"android": "https://dc.lft.to/lastmile_qr_scan", "ios": "https://dc.lft.to/lastmile_qr_scan"}, "fusion_lon": 0.0, "lat": 38.907602833333335, "bike_id": "314169c50abe608d8909aa2877865893", "type": "electric_scooter", "is_reserved": 0, "lon": -77.0358455}, {"fusion_lat": 0.0, "name": "74365f244b2d272f4a68ec9f76d998ed", "is_disabled": 0, "rental_uris": {"android": "https://dc.lft.to/lastmile_qr_scan", "ios": "https://dc.lft.to/lastmile_qr_scan"}, "fusion_lon": 0.0, "lat": 38.90807316666667, "bike_id": "74365f244b2d272f4a68ec9f76d998ed", "type": "electric_scooter", "is_reserved": 0, "lon": -77.0416235}, {"fusion_lat": 0.0, "name": "33fd1c91fe0205c725d6f06e1830790f", "is_disabled": 0, "rental_uris": {"android": "https://dc.lft.to/lastmile_qr_scan", "ios": "https://dc.lft.to/lastmile_qr_scan"}, "fusion_lon": 0.0, "lat": 38.897362, "bike_id": "33fd1c91fe0205c725d6f06e1830790f", "type": "electric_scooter", "is_reserved": 0, "lon": -77.03293783333334}, {"fusion_lat": 0.0, "name": "a02071b8e211859623b49dd5caa7b6b6", "is_disabled": 0, "rental_uris": {"android": "https://dc.lft.to/lastmile_qr_scan", "ios": "https://dc.lft.to/lastmile_qr_scan"}, "fusion_lon": 0.0, "lat": 38.91269, "bike_id": "a02071b8e211859623b49dd5caa7b6b6", "type": "electric_scooter", "is_reserved": 0, "lon": -77.04037466666666}, {"fusion_lat": 0.0, "name": "a99dc952382da961f56eac7e2521aa1b", "is_disabled": 0, "rental_uris": {"android": "https://dc.lft.to/lastmile_qr_scan", "ios": "https://dc.lft.to/lastmile_qr_scan"}, "fusion_lon": 0.0, "lat": 38.8766575, "bike_id": "a99dc952382da961f56eac7e2521aa1b", "type": "electric_scooter", "is_reserved": 0, "lon": -77.00352766666667}, {"fusion_lat": 0.0, "name": "9b835985ab59590e8288094c4488e158", "is_disabled": 0, "rental_uris": {"android": "https://dc.lft.to/lastmile_qr_scan", "ios": "https://dc.lft.to/lastmile_qr_scan"}, "fusion_lon": 0.0, "lat": 38.897757166666665, "bike_id": "9b835985ab59590e8288094c4488e158", "type": "electric_scooter", "is_reserved": 0, "lon": -77.04465916666666}, {"fusion_lat": 0.0, "name": "3ca1cd9b356d4f73c76feeb665eb11ae", "is_disabled": 0, "rental_uris": {"android": "https://dc.lft.to/lastmile_qr_scan", "ios": "https://dc.lft.to/lastmile_qr_scan"}, "fusion_lon": 0.0, "lat": 38.900155, "bike_id": "3ca1cd9b356d4f73c76feeb665eb11ae", "type": "electric_scooter", "is_reserved": 0, "lon": -76.99980016666666}, {"fusion_lat": 0.0, "name": "6140e6be22093977e74c3ad7647b7a53", "is_disabled": 0, "rental_uris": {"android": "https://dc.lft.to/lastmile_qr_scan", "ios": "https://dc.lft.to/lastmile_qr_scan"}, "fusion_lon": 0.0, "lat": 38.927657333333336, "bike_id": "6140e6be22093977e74c3ad7647b7a53", "type": "electric_scooter", "is_reserved": 0, "lon": -77.03244216666667}, {"fusion_lat": 0.0, "name": "8abb44aa44bcc3a937bb0d197cfcbb49", "is_disabled": 0, "rental_uris": {"android": "https://dc.lft.to/lastmile_qr_scan", "ios": "https://dc.lft.to/lastmile_qr_scan"}, "fusion_lon": 0.0, "lat": 38.906347833333335, "bike_id": "8abb44aa44bcc3a937bb0d197cfcbb49", "type": "electric_scooter", "is_reserved": 0, "lon": -77.04348166666666}, {"fusion_lat": 0.0, "name": "b8a48eba57b7405d988708eaf75f71b7", "is_disabled": 0, "rental_uris": {"android": "https://dc.lft.to/lastmile_qr_scan", "ios": "https://dc.lft.to/lastmile_qr_scan"}, "fusion_lon": 0.0, "lat": 38.92846333333333, "bike_id": "b8a48eba57b7405d988708eaf75f71b7", "type": "electric_bike", "is_reserved": 0, "lon": -77.02061583333334}, {"fusion_lat": 0.0, "name": "f180889ca04957549a79e36b958d0796", "is_disabled": 0, "rental_uris": {"android": "https://dc.lft.to/lastmile_qr_scan", "ios": "https://dc.lft.to/lastmile_qr_scan"}, "fusion_lon": 0.0, "lat": 38.930504, "bike_id": "f180889ca04957549a79e36b958d0796", "type": "electric_bike", "is_reserved": 0, "lon": -77.03899633333333}, {"fusion_lat": 0.0, "name": "a8f1ebec776472f3d06620e2791eda72", "is_disabled": 0, "rental_uris": {"android": "https://dc.lft.to/lastmile_qr_scan", "ios": "https://dc.lft.to/lastmile_qr_scan"}, "fusion_lon": 0.0, "lat": 38.93853883333333, "bike_id": "a8f1ebec776472f3d06620e2791eda72", "type": "electric_scooter", "is_reserved": 0, "lon": -77.03395666666667}, {"fusion_lat": 0.0, "name": "d6eddab3b360b1841ae106f53c843875", "is_disabled": 0, "rental_uris": {"android": "https://dc.lft.to/lastmile_qr_scan", "ios": "https://dc.lft.to/lastmile_qr_scan"}, "fusion_lon": 0.0, "lat": 38.917891166666664, "bike_id": "d6eddab3b360b1841ae106f53c843875", "type": "electric_scooter", "is_reserved": 0, "lon": -77.04167066666666}, {"fusion_lat": 0.0, "name": "1d033ccb826752b33d0bd04677e3afc7", "is_disabled": 0, "rental_uris": {"android": "https://dc.lft.to/lastmile_qr_scan", "ios": "https://dc.lft.to/lastmile_qr_scan"}, "fusion_lon": 0.0, "lat": 38.928686666666664, "bike_id": "1d033ccb826752b33d0bd04677e3afc7", "type": "electric_scooter", "is_reserved": 0, "lon": -77.03531883333333}, {"fusion_lat": 0.0, "name": "f4c348c0a3a377ec682de7b871b1220b", "is_disabled": 0, "rental_uris": {"android": "https://dc.lft.to/lastmile_qr_scan", "ios": "https://dc.lft.to/lastmile_qr_scan"}, "fusion_lon": 0.0, "lat": 38.87396533333333, "bike_id": "f4c348c0a3a377ec682de7b871b1220b", "type": "electric_scooter", "is_reserved": 0, "lon": -77.00203283333333}, {"fusion_lat": 0.0, "name": "ec4612bd2907ce88abaeda939f473add", "is_disabled": 0, "rental_uris": {"android": "https://dc.lft.to/lastmile_qr_scan", "ios": "https://dc.lft.to/lastmile_qr_scan"}, "fusion_lon": 0.0, "lat": 38.917659, "bike_id": "ec4612bd2907ce88abaeda939f473add", "type": "electric_scooter", "is_reserved": 0, "lon": -77.004545}, {"fusion_lat": 0.0, "name": "70c2116bafb2b6ec327c79ad6ec6e9d3", "is_disabled": 0, "rental_uris": {"android": "https://dc.lft.to/lastmile_qr_scan", "ios": "https://dc.lft.to/lastmile_qr_scan"}, "fusion_lon": 0.0, "lat": 38.90881816666667, "bike_id": "70c2116bafb2b6ec327c79ad6ec6e9d3", "type": "electric_scooter", "is_reserved": 0, "lon": -77.04391833333334}, {"fusion_lat": 0.0, "name": "c31b702e415481aaefcac1502929f245", "is_disabled": 0, "rental_uris": {"android": "https://dc.lft.to/lastmile_qr_scan", "ios": "https://dc.lft.to/lastmile_qr_scan"}, "fusion_lon": 0.0, "lat": 38.902125166666664, "bike_id": "c31b702e415481aaefcac1502929f245", "type": "electric_scooter", "is_reserved": 0, "lon": -76.98614783333333}, {"fusion_lat": 0.0, "name": "2f6e4ecf5fbb6f123b6667b5845ebade", "is_disabled": 0, "rental_uris": {"android": "https://dc.lft.to/lastmile_qr_scan", "ios": "https://dc.lft.to/lastmile_qr_scan"}, "fusion_lon": 0.0, "lat": 38.831591, "bike_id": "2f6e4ecf5fbb6f123b6667b5845ebade", "type": "electric_bike", "is_reserved": 0, "lon": -76.99574066666666}, {"fusion_lat": 0.0, "name": "4eaf12f0dc92dfcb74329ef329b3ce5e", "is_disabled": 0, "rental_uris": {"android": "https://dc.lft.to/lastmile_qr_scan", "ios": "https://dc.lft.to/lastmile_qr_scan"}, "fusion_lon": 0.0, "lat": 38.957062, "bike_id": "4eaf12f0dc92dfcb74329ef329b3ce5e", "type": "electric_scooter", "is_reserved": 0, "lon": -77.0240635}, {"fusion_lat": 0.0, "name": "0123c0b382962b9ab32ef8805449b330", "is_disabled": 0, "rental_uris": {"android": "https://dc.lft.to/lastmile_qr_scan", "ios": "https://dc.lft.to/lastmile_qr_scan"}, "fusion_lon": 0.0, "lat": 38.899925833333334, "bike_id": "0123c0b382962b9ab32ef8805449b330", "type": "electric_scooter", "is_reserved": 0, "lon": -77.02407183333334}, {"fusion_lat": 0.0, "name": "2c95f5a0a6fa0fcc276eb9d52498dab6", "is_disabled": 0, "rental_uris": {"android": "https://dc.lft.to/lastmile_qr_scan", "ios": "https://dc.lft.to/lastmile_qr_scan"}, "fusion_lon": 0.0, "lat": 38.8854215, "bike_id": "2c95f5a0a6fa0fcc276eb9d52498dab6", "type": "electric_scooter", "is_reserved": 0, "lon": -77.02003766666667}, {"fusion_lat": 0.0, "name": "2561bff93ab34f178f91a64b829059be", "is_disabled": 0, "rental_uris": {"android": "https://dc.lft.to/lastmile_qr_scan", "ios": "https://dc.lft.to/lastmile_qr_scan"}, "fusion_lon": 0.0, "lat": 38.935902166666665, "bike_id": "2561bff93ab34f178f91a64b829059be", "type": "electric_scooter", "is_reserved": 0, "lon": -77.03763416666666}, {"fusion_lat": 0.0, "name": "fbef499d4a3f961dd51139600c0bd70d", "is_disabled": 0, "rental_uris": {"android": "https://dc.lft.to/lastmile_qr_scan", "ios": "https://dc.lft.to/lastmile_qr_scan"}, "fusion_lon": 0.0, "lat": 38.902145, "bike_id": "fbef499d4a3f961dd51139600c0bd70d", "type": "electric_scooter", "is_reserved": 0, "lon": -77.0458425}, {"fusion_lat": 0.0, "name": "4c13800c66de67835ebd2b63025c6507", "is_disabled": 0, "rental_uris": {"android": "https://dc.lft.to/lastmile_qr_scan", "ios": "https://dc.lft.to/lastmile_qr_scan"}, "fusion_lon": 0.0, "lat": 38.9054535, "bike_id": "4c13800c66de67835ebd2b63025c6507", "type": "electric_scooter", "is_reserved": 0, "lon": -77.06284866666667}, {"fusion_lat": 0.0, "name": "1fddc915110dc5f323f06436f30b839c", "is_disabled": 0, "rental_uris": {"android": "https://dc.lft.to/lastmile_qr_scan", "ios": "https://dc.lft.to/lastmile_qr_scan"}, "fusion_lon": 0.0, "lat": 38.8873745, "bike_id": "1fddc915110dc5f323f06436f30b839c", "type": "electric_scooter", "is_reserved": 0, "lon": -77.0035065}, {"fusion_lat": 0.0, "name": "8e055081823b51050f2b17f94a30f829", "is_disabled": 0, "rental_uris": {"android": "https://dc.lft.to/lastmile_qr_scan", "ios": "https://dc.lft.to/lastmile_qr_scan"}, "fusion_lon": 0.0, "lat": 38.900271333333336, "bike_id": "8e055081823b51050f2b17f94a30f829", "type": "electric_scooter", "is_reserved": 0, "lon": -77.01218866666666}, {"fusion_lat": 0.0, "name": "bc46a863aa7ba609b34d57a0a0bf857b", "is_disabled": 0, "rental_uris": {"android": "https://dc.lft.to/lastmile_qr_scan", "ios": "https://dc.lft.to/lastmile_qr_scan"}, "fusion_lon": 0.0, "lat": 38.902978166666664, "bike_id": "bc46a863aa7ba609b34d57a0a0bf857b", "type": "electric_scooter", "is_reserved": 0, "lon": -77.01183366666666}, {"fusion_lat": 0.0, "name": "42b858dc6095cdc58726a4d43639f0d4", "is_disabled": 0, "rental_uris": {"android": "https://dc.lft.to/lastmile_qr_scan", "ios": "https://dc.lft.to/lastmile_qr_scan"}, "fusion_lon": 0.0, "lat": 38.937702, "bike_id": "42b858dc6095cdc58726a4d43639f0d4", "type": "electric_bike", "is_reserved": 0, "lon": -77.018797}, {"fusion_lat": 0.0, "name": "b34a0765ba0247773aff9aa70041368a", "is_disabled": 0, "rental_uris": {"android": "https://dc.lft.to/lastmile_qr_scan", "ios": "https://dc.lft.to/lastmile_qr_scan"}, "fusion_lon": 0.0, "lat": 38.887304, "bike_id": "b34a0765ba0247773aff9aa70041368a", "type": "electric_scooter", "is_reserved": 0, "lon": -76.98357316666667}, {"fusion_lat": 0.0, "name": "f53ff5573aaac2d95a8c1184086885aa", "is_disabled": 0, "rental_uris": {"android": "https://dc.lft.to/lastmile_qr_scan", "ios": "https://dc.lft.to/lastmile_qr_scan"}, "fusion_lon": 0.0, "lat": 38.931875166666664, "bike_id": "f53ff5573aaac2d95a8c1184086885aa", "type": "electric_scooter", "is_reserved": 0, "lon": -77.0196605}, {"fusion_lat": 0.0, "name": "75ec2311abd6718c6009068d7890532e", "is_disabled": 0, "rental_uris": {"android": "https://dc.lft.to/lastmile_qr_scan", "ios": "https://dc.lft.to/lastmile_qr_scan"}, "fusion_lon": 0.0, "lat": 38.91843433333333, "bike_id": "75ec2311abd6718c6009068d7890532e", "type": "electric_scooter", "is_reserved": 0, "lon": -77.03206366666667}, {"fusion_lat": 0.0, "name": "341e6a390841bc3dc3cfb7366cb48ecb", "is_disabled": 0, "rental_uris": {"android": "https://dc.lft.to/lastmile_qr_scan", "ios": "https://dc.lft.to/lastmile_qr_scan"}, "fusion_lon": 0.0, "lat": 38.92166183333333, "bike_id": "341e6a390841bc3dc3cfb7366cb48ecb", "type": "electric_scooter", "is_reserved": 0, "lon": -77.04246166666667}, {"fusion_lat": 0.0, "name": "1a178520c2e6d912bfb90398a9635610", "is_disabled": 0, "rental_uris": {"android": "https://dc.lft.to/lastmile_qr_scan", "ios": "https://dc.lft.to/lastmile_qr_scan"}, "fusion_lon": 0.0, "lat": 38.916381, "bike_id": "1a178520c2e6d912bfb90398a9635610", "type": "electric_scooter", "is_reserved": 0, "lon": -77.032126}, {"fusion_lat": 0.0, "name": "e815dcec33a28994e4ca4bc52c8d02cc", "is_disabled": 0, "rental_uris": {"android": "https://dc.lft.to/lastmile_qr_scan", "ios": "https://dc.lft.to/lastmile_qr_scan"}, "fusion_lon": 0.0, "lat": 38.92440233333333, "bike_id": "e815dcec33a28994e4ca4bc52c8d02cc", "type": "electric_scooter", "is_reserved": 0, "lon": -77.02030216666667}, {"fusion_lat": 0.0, "name": "6374c1c0fd2d305dabcf8c3b9802cfc9", "is_disabled": 0, "rental_uris": {"android": "https://dc.lft.to/lastmile_qr_scan", "ios": "https://dc.lft.to/lastmile_qr_scan"}, "fusion_lon": 0.0, "lat": 38.921111, "bike_id": "6374c1c0fd2d305dabcf8c3b9802cfc9", "type": "electric_scooter", "is_reserved": 0, "lon": -77.04388533333334}, {"fusion_lat": 0.0, "name": "508d147b5bdabd5e592c06eb5d37693a", "is_disabled": 0, "rental_uris": {"android": "https://dc.lft.to/lastmile_qr_scan", "ios": "https://dc.lft.to/lastmile_qr_scan"}, "fusion_lon": 0.0, "lat": 38.92418, "bike_id": "508d147b5bdabd5e592c06eb5d37693a", "type": "electric_scooter", "is_reserved": 0, "lon": -77.01947666666666}, {"fusion_lat": 0.0, "name": "12c949f2af8c7d5e851e0aae92e446ba", "is_disabled": 0, "rental_uris": {"android": "https://dc.lft.to/lastmile_qr_scan", "ios": "https://dc.lft.to/lastmile_qr_scan"}, "fusion_lon": 0.0, "lat": 38.92679233333333, "bike_id": "12c949f2af8c7d5e851e0aae92e446ba", "type": "electric_scooter", "is_reserved": 0, "lon": -77.0310045}, {"fusion_lat": 0.0, "name": "b69c961e8487dd05a79b94ce539572dd", "is_disabled": 0, "rental_uris": {"android": "https://dc.lft.to/lastmile_qr_scan", "ios": "https://dc.lft.to/lastmile_qr_scan"}, "fusion_lon": 0.0, "lat": 38.89217516666667, "bike_id": "b69c961e8487dd05a79b94ce539572dd", "type": "electric_scooter", "is_reserved": 0, "lon": -77.02811566666666}, {"fusion_lat": 0.0, "name": "6dd60498640b33d54c1fa48b43e81f13", "is_disabled": 0, "rental_uris": {"android": "https://dc.lft.to/lastmile_qr_scan", "ios": "https://dc.lft.to/lastmile_qr_scan"}, "fusion_lon": 0.0, "lat": 38.90572366666667, "bike_id": "6dd60498640b33d54c1fa48b43e81f13", "type": "electric_scooter", "is_reserved": 0, "lon": -77.034302}, {"fusion_lat": 0.0, "name": "d3626807341ebcbbbacee2cd890e4097", "is_disabled": 0, "rental_uris": {"android": "https://dc.lft.to/lastmile_qr_scan", "ios": "https://dc.lft.to/lastmile_qr_scan"}, "fusion_lon": 0.0, "lat": 38.919554, "bike_id": "d3626807341ebcbbbacee2cd890e4097", "type": "electric_scooter", "is_reserved": 0, "lon": -77.01787366666667}, {"fusion_lat": 0.0, "name": "71291ba445df7bcb8b6c402d9635dd10", "is_disabled": 0, "rental_uris": {"android": "https://dc.lft.to/lastmile_qr_scan", "ios": "https://dc.lft.to/lastmile_qr_scan"}, "fusion_lon": 0.0, "lat": 38.8974775, "bike_id": "71291ba445df7bcb8b6c402d9635dd10", "type": "electric_scooter", "is_reserved": 0, "lon": -76.94186916666666}, {"fusion_lat": 0.0, "name": "d190d3ea17c74907eee837936e2d410c", "is_disabled": 0, "rental_uris": {"android": "https://dc.lft.to/lastmile_qr_scan", "ios": "https://dc.lft.to/lastmile_qr_scan"}, "fusion_lon": 0.0, "lat": 38.92445883333333, "bike_id": "d190d3ea17c74907eee837936e2d410c", "type": "electric_scooter", "is_reserved": 0, "lon": -77.040215}, {"fusion_lat": 0.0, "name": "8c3a88de88c3d83a9abafb345e70acd4", "is_disabled": 0, "rental_uris": {"android": "https://dc.lft.to/lastmile_qr_scan", "ios": "https://dc.lft.to/lastmile_qr_scan"}, "fusion_lon": 0.0, "lat": 38.89589616666667, "bike_id": "8c3a88de88c3d83a9abafb345e70acd4", "type": "electric_scooter", "is_reserved": 0, "lon": -77.02673883333334}, {"fusion_lat": 0.0, "name": "c3b893559db2537c091c1dc296670947", "is_disabled": 0, "rental_uris": {"android": "https://dc.lft.to/lastmile_qr_scan", "ios": "https://dc.lft.to/lastmile_qr_scan"}, "fusion_lon": 0.0, "lat": 38.900006833333336, "bike_id": "c3b893559db2537c091c1dc296670947", "type": "electric_scooter", "is_reserved": 0, "lon": -77.00668383333333}, {"fusion_lat": 0.0, "name": "c10fc45d433d679489628f1650ea4523", "is_disabled": 0, "rental_uris": {"android": "https://dc.lft.to/lastmile_qr_scan", "ios": "https://dc.lft.to/lastmile_qr_scan"}, "fusion_lon": 0.0, "lat": 38.906632333333334, "bike_id": "c10fc45d433d679489628f1650ea4523", "type": "electric_scooter", "is_reserved": 0, "lon": -77.02703066666666}, {"fusion_lat": 0.0, "name": "f6629cd8f8a2ebf67b19d8625c69a434", "is_disabled": 0, "rental_uris": {"android": "https://dc.lft.to/lastmile_qr_scan", "ios": "https://dc.lft.to/lastmile_qr_scan"}, "fusion_lon": 0.0, "lat": 38.90510416666667, "bike_id": "f6629cd8f8a2ebf67b19d8625c69a434", "type": "electric_scooter", "is_reserved": 0, "lon": -77.0300665}, {"fusion_lat": 0.0, "name": "2c053443dbf9a66611e8271883a4772e", "is_disabled": 0, "rental_uris": {"android": "https://dc.lft.to/lastmile_qr_scan", "ios": "https://dc.lft.to/lastmile_qr_scan"}, "fusion_lon": 0.0, "lat": 38.926181166666666, "bike_id": "2c053443dbf9a66611e8271883a4772e", "type": "electric_scooter", "is_reserved": 0, "lon": -77.041907}, {"fusion_lat": 0.0, "name": "e45936783fcc0ca6b4d44cfcc2f9ba85", "is_disabled": 0, "rental_uris": {"android": "https://dc.lft.to/lastmile_qr_scan", "ios": "https://dc.lft.to/lastmile_qr_scan"}, "fusion_lon": 0.0, "lat": 38.93048733333333, "bike_id": "e45936783fcc0ca6b4d44cfcc2f9ba85", "type": "electric_scooter", "is_reserved": 0, "lon": -77.03226083333334}, {"fusion_lat": 0.0, "name": "d607d030a475856fa53b71d697613e54", "is_disabled": 0, "rental_uris": {"android": "https://dc.lft.to/lastmile_qr_scan", "ios": "https://dc.lft.to/lastmile_qr_scan"}, "fusion_lon": 0.0, "lat": 38.8961535, "bike_id": "d607d030a475856fa53b71d697613e54", "type": "electric_scooter", "is_reserved": 0, "lon": -76.98568066666667}, {"fusion_lat": 0.0, "name": "6a795774b024e6f51f26bfaf0813aa16", "is_disabled": 0, "rental_uris": {"android": "https://dc.lft.to/lastmile_qr_scan", "ios": "https://dc.lft.to/lastmile_qr_scan"}, "fusion_lon": 0.0, "lat": 38.839419166666666, "bike_id": "6a795774b024e6f51f26bfaf0813aa16", "type": "electric_bike", "is_reserved": 0, "lon": -77.07898816666666}, {"fusion_lat": 0.0, "name": "21a507b216f1c202c07548f1f786e2d9", "is_disabled": 0, "rental_uris": {"android": "https://dc.lft.to/lastmile_qr_scan", "ios": "https://dc.lft.to/lastmile_qr_scan"}, "fusion_lon": 0.0, "lat": 38.92604083333333, "bike_id": "21a507b216f1c202c07548f1f786e2d9", "type": "electric_scooter", "is_reserved": 0, "lon": -77.02392066666667}, {"fusion_lat": 0.0, "name": "ec8cd2892b23b5b318050d71b8b4c744", "is_disabled": 0, "rental_uris": {"android": "https://dc.lft.to/lastmile_qr_scan", "ios": "https://dc.lft.to/lastmile_qr_scan"}, "fusion_lon": 0.0, "lat": 38.90739033333333, "bike_id": "ec8cd2892b23b5b318050d71b8b4c744", "type": "electric_scooter", "is_reserved": 0, "lon": -77.0074795}, {"fusion_lat": 0.0, "name": "86f0b94cedbb4a4bd6c1a34d6dfe0205", "is_disabled": 0, "rental_uris": {"android": "https://dc.lft.to/lastmile_qr_scan", "ios": "https://dc.lft.to/lastmile_qr_scan"}, "fusion_lon": 0.0, "lat": 38.878294833333335, "bike_id": "86f0b94cedbb4a4bd6c1a34d6dfe0205", "type": "electric_scooter", "is_reserved": 0, "lon": -77.006182}, {"fusion_lat": 0.0, "name": "9b1174a533b58c924ac3bf5c57bd7b93", "is_disabled": 0, "rental_uris": {"android": "https://dc.lft.to/lastmile_qr_scan", "ios": "https://dc.lft.to/lastmile_qr_scan"}, "fusion_lon": 0.0, "lat": 38.918032833333335, "bike_id": "9b1174a533b58c924ac3bf5c57bd7b93", "type": "electric_scooter", "is_reserved": 0, "lon": -77.02496833333333}, {"fusion_lat": 0.0, "name": "c837ade40e6a975611f4323615a7026f", "is_disabled": 0, "rental_uris": {"android": "https://dc.lft.to/lastmile_qr_scan", "ios": "https://dc.lft.to/lastmile_qr_scan"}, "fusion_lon": 0.0, "lat": 38.93364616666667, "bike_id": "c837ade40e6a975611f4323615a7026f", "type": "electric_scooter", "is_reserved": 0, "lon": -77.03896883333333}, {"fusion_lat": 0.0, "name": "4dc0b1c3276fbf65106344754dd87783", "is_disabled": 0, "rental_uris": {"android": "https://dc.lft.to/lastmile_qr_scan", "ios": "https://dc.lft.to/lastmile_qr_scan"}, "fusion_lon": 0.0, "lat": 38.93639133333333, "bike_id": "4dc0b1c3276fbf65106344754dd87783", "type": "electric_scooter", "is_reserved": 0, "lon": -77.03639366666667}, {"fusion_lat": 0.0, "name": "ce6c6e6bc571364a61c5083d5db2b26c", "is_disabled": 0, "rental_uris": {"android": "https://dc.lft.to/lastmile_qr_scan", "ios": "https://dc.lft.to/lastmile_qr_scan"}, "fusion_lon": 0.0, "lat": 38.909697333333334, "bike_id": "ce6c6e6bc571364a61c5083d5db2b26c", "type": "electric_scooter", "is_reserved": 0, "lon": -77.03205466666667}, {"fusion_lat": 0.0, "name": "fdefec2df6715d10404a11d0d2e39eff", "is_disabled": 0, "rental_uris": {"android": "https://dc.lft.to/lastmile_qr_scan", "ios": "https://dc.lft.to/lastmile_qr_scan"}, "fusion_lon": 0.0, "lat": 38.903046833333335, "bike_id": "fdefec2df6715d10404a11d0d2e39eff", "type": "electric_scooter", "is_reserved": 0, "lon": -77.05813233333333}, {"fusion_lat": 0.0, "name": "e2133e450753cf4f480064d6bac3b037", "is_disabled": 0, "rental_uris": {"android": "https://dc.lft.to/lastmile_qr_scan", "ios": "https://dc.lft.to/lastmile_qr_scan"}, "fusion_lon": 0.0, "lat": 38.883690666666666, "bike_id": "e2133e450753cf4f480064d6bac3b037", "type": "electric_scooter", "is_reserved": 0, "lon": -76.9951965}, {"fusion_lat": 0.0, "name": "4fac28962a2aa3153b8351a14288bd4b", "is_disabled": 0, "rental_uris": {"android": "https://dc.lft.to/lastmile_qr_scan", "ios": "https://dc.lft.to/lastmile_qr_scan"}, "fusion_lon": 0.0, "lat": 38.900560166666665, "bike_id": "4fac28962a2aa3153b8351a14288bd4b", "type": "electric_scooter", "is_reserved": 0, "lon": -76.99944983333333}, {"fusion_lat": 0.0, "name": "d68b4bdf7fd79e96bb0ba9538e68cc52", "is_disabled": 0, "rental_uris": {"android": "https://dc.lft.to/lastmile_qr_scan", "ios": "https://dc.lft.to/lastmile_qr_scan"}, "fusion_lon": 0.0, "lat": 38.90791516666667, "bike_id": "d68b4bdf7fd79e96bb0ba9538e68cc52", "type": "electric_scooter", "is_reserved": 0, "lon": -77.03447483333333}, {"fusion_lat": 0.0, "name": "213653f616ec4d12c8fd162f01406d98", "is_disabled": 0, "rental_uris": {"android": "https://dc.lft.to/lastmile_qr_scan", "ios": "https://dc.lft.to/lastmile_qr_scan"}, "fusion_lon": 0.0, "lat": 38.9202165, "bike_id": "213653f616ec4d12c8fd162f01406d98", "type": "electric_scooter", "is_reserved": 0, "lon": -77.01314483333333}, {"fusion_lat": 0.0, "name": "fdfbbfbf5a2a6d64d44d94cd99b98f0d", "is_disabled": 0, "rental_uris": {"android": "https://dc.lft.to/lastmile_qr_scan", "ios": "https://dc.lft.to/lastmile_qr_scan"}, "fusion_lon": 0.0, "lat": 38.892466666666664, "bike_id": "fdfbbfbf5a2a6d64d44d94cd99b98f0d", "type": "electric_scooter", "is_reserved": 0, "lon": -77.039593}, {"fusion_lat": 0.0, "name": "7ed3423d4e115a05870aefe022f211c6", "is_disabled": 0, "rental_uris": {"android": "https://dc.lft.to/lastmile_qr_scan", "ios": "https://dc.lft.to/lastmile_qr_scan"}, "fusion_lon": 0.0, "lat": 38.9287805, "bike_id": "7ed3423d4e115a05870aefe022f211c6", "type": "electric_scooter", "is_reserved": 0, "lon": -77.0135615}, {"fusion_lat": 0.0, "name": "bca9e2a4fae36710906044e567e38701", "is_disabled": 0, "rental_uris": {"android": "https://dc.lft.to/lastmile_qr_scan", "ios": "https://dc.lft.to/lastmile_qr_scan"}, "fusion_lon": 0.0, "lat": 38.9112195, "bike_id": "bca9e2a4fae36710906044e567e38701", "type": "electric_scooter", "is_reserved": 0, "lon": -77.00755516666666}, {"fusion_lat": 0.0, "name": "1b6590a5f07db6cd279f9a918e2786a3", "is_disabled": 0, "rental_uris": {"android": "https://dc.lft.to/lastmile_qr_scan", "ios": "https://dc.lft.to/lastmile_qr_scan"}, "fusion_lon": 0.0, "lat": 38.9262205, "bike_id": "1b6590a5f07db6cd279f9a918e2786a3", "type": "electric_scooter", "is_reserved": 0, "lon": -77.03675133333333}, {"fusion_lat": 0.0, "name": "12e37b534864cf7cf44ef57b04b5ba52", "is_disabled": 0, "rental_uris": {"android": "https://dc.lft.to/lastmile_qr_scan", "ios": "https://dc.lft.to/lastmile_qr_scan"}, "fusion_lon": 0.0, "lat": 38.9231535, "bike_id": "12e37b534864cf7cf44ef57b04b5ba52", "type": "electric_scooter", "is_reserved": 0, "lon": -77.0403165}, {"fusion_lat": 0.0, "name": "4e0f84c33c50eaaae03ff7cccf064a28", "is_disabled": 0, "rental_uris": {"android": "https://dc.lft.to/lastmile_qr_scan", "ios": "https://dc.lft.to/lastmile_qr_scan"}, "fusion_lon": 0.0, "lat": 38.91943533333333, "bike_id": "4e0f84c33c50eaaae03ff7cccf064a28", "type": "electric_scooter", "is_reserved": 0, "lon": -77.07843116666666}, {"fusion_lat": 0.0, "name": "a619ee66c71bb30ab4094fe7e1fb7fc5", "is_disabled": 0, "rental_uris": {"android": "https://dc.lft.to/lastmile_qr_scan", "ios": "https://dc.lft.to/lastmile_qr_scan"}, "fusion_lon": 0.0, "lat": 38.907338333333335, "bike_id": "a619ee66c71bb30ab4094fe7e1fb7fc5", "type": "electric_scooter", "is_reserved": 0, "lon": -77.0433405}, {"fusion_lat": 0.0, "name": "c684a25c1c443636c6fdbf04ec74e68b", "is_disabled": 0, "rental_uris": {"android": "https://dc.lft.to/lastmile_qr_scan", "ios": "https://dc.lft.to/lastmile_qr_scan"}, "fusion_lon": 0.0, "lat": 38.9325825, "bike_id": "c684a25c1c443636c6fdbf04ec74e68b", "type": "electric_scooter", "is_reserved": 0, "lon": -77.0326925}, {"fusion_lat": 0.0, "name": "b65e1ff07fb87502825fb011d55d397a", "is_disabled": 0, "rental_uris": {"android": "https://dc.lft.to/lastmile_qr_scan", "ios": "https://dc.lft.to/lastmile_qr_scan"}, "fusion_lon": 0.0, "lat": 38.88744766666667, "bike_id": "b65e1ff07fb87502825fb011d55d397a", "type": "electric_scooter", "is_reserved": 0, "lon": -77.02568583333333}, {"fusion_lat": 0.0, "name": "c9ff645c30ead00fbed140ccf0ac6a9a", "is_disabled": 0, "rental_uris": {"android": "https://dc.lft.to/lastmile_qr_scan", "ios": "https://dc.lft.to/lastmile_qr_scan"}, "fusion_lon": 0.0, "lat": 38.934775, "bike_id": "c9ff645c30ead00fbed140ccf0ac6a9a", "type": "electric_scooter", "is_reserved": 0, "lon": -77.07270566666666}, {"fusion_lat": 0.0, "name": "51592308827896cf0b90fd84cd38d399", "is_disabled": 0, "rental_uris": {"android": "https://dc.lft.to/lastmile_qr_scan", "ios": "https://dc.lft.to/lastmile_qr_scan"}, "fusion_lon": 0.0, "lat": 38.89876066666667, "bike_id": "51592308827896cf0b90fd84cd38d399", "type": "electric_scooter", "is_reserved": 0, "lon": -76.93181033333333}, {"fusion_lat": 0.0, "name": "46ba480481f8167dbe1bbf9e2077eddf", "is_disabled": 0, "rental_uris": {"android": "https://dc.lft.to/lastmile_qr_scan", "ios": "https://dc.lft.to/lastmile_qr_scan"}, "fusion_lon": 0.0, "lat": 38.924421833333334, "bike_id": "46ba480481f8167dbe1bbf9e2077eddf", "type": "electric_scooter", "is_reserved": 0, "lon": -77.02232466666666}, {"fusion_lat": 0.0, "name": "d1f365580708afe6c3ad681c6dc4aae1", "is_disabled": 0, "rental_uris": {"android": "https://dc.lft.to/lastmile_qr_scan", "ios": "https://dc.lft.to/lastmile_qr_scan"}, "fusion_lon": 0.0, "lat": 38.905437166666665, "bike_id": "d1f365580708afe6c3ad681c6dc4aae1", "type": "electric_scooter", "is_reserved": 0, "lon": -77.05142533333333}, {"fusion_lat": 0.0, "name": "dd55fde760bf7ff60294867a2ede9488", "is_disabled": 0, "rental_uris": {"android": "https://dc.lft.to/lastmile_qr_scan", "ios": "https://dc.lft.to/lastmile_qr_scan"}, "fusion_lon": 0.0, "lat": 38.94183233333333, "bike_id": "dd55fde760bf7ff60294867a2ede9488", "type": "electric_scooter", "is_reserved": 0, "lon": -77.02491566666667}, {"fusion_lat": 0.0, "name": "99ac314fe67fd72b721b4fa242f89282", "is_disabled": 0, "rental_uris": {"android": "https://dc.lft.to/lastmile_qr_scan", "ios": "https://dc.lft.to/lastmile_qr_scan"}, "fusion_lon": 0.0, "lat": 38.870854333333334, "bike_id": "99ac314fe67fd72b721b4fa242f89282", "type": "electric_scooter", "is_reserved": 0, "lon": -76.9656815}, {"fusion_lat": 0.0, "name": "b24f97c60a547a75840cb6a71e8c8895", "is_disabled": 0, "rental_uris": {"android": "https://dc.lft.to/lastmile_qr_scan", "ios": "https://dc.lft.to/lastmile_qr_scan"}, "fusion_lon": 0.0, "lat": 38.91705966666667, "bike_id": "b24f97c60a547a75840cb6a71e8c8895", "type": "electric_scooter", "is_reserved": 0, "lon": -77.02389833333334}, {"fusion_lat": 0.0, "name": "8626b694a3e05ac903ef01fca317aded", "is_disabled": 0, "rental_uris": {"android": "https://dc.lft.to/lastmile_qr_scan", "ios": "https://dc.lft.to/lastmile_qr_scan"}, "fusion_lon": 0.0, "lat": 38.8736615, "bike_id": "8626b694a3e05ac903ef01fca317aded", "type": "electric_scooter", "is_reserved": 0, "lon": -77.00028216666666}, {"fusion_lat": 0.0, "name": "19610779d7d2f04723ce2961a405fb98", "is_disabled": 0, "rental_uris": {"android": "https://dc.lft.to/lastmile_qr_scan", "ios": "https://dc.lft.to/lastmile_qr_scan"}, "fusion_lon": 0.0, "lat": 38.8869965, "bike_id": "19610779d7d2f04723ce2961a405fb98", "type": "electric_bike", "is_reserved": 0, "lon": -76.99682233333333},