{"data": {"bikes": [{"lon": -77.0321755, "is_disabled": 0, "lat": 38.8922145, "fusion_lat": 0.0, "is_reserved": 0, "rental_uris": {"ios": "https://dc.lft.to/lastmile_qr_scan", "android": "https://dc.lft.to/lastmile_qr_scan"}, "fusion_lon": 0.0, "type": "electric_scooter", "bike_id": "9eccb69ed4f11578ff07970065ca1ec5", "name": "9eccb69ed4f11578ff07970065ca1ec5"}, {"lon": -76.99013583333333, "is_disabled": 0, "lat": 38.8650475, "fusion_lat": 0.0, "is_reserved": 0, "rental_uris": {"ios": "https://dc.lft.to/lastmile_qr_scan", "android": "https://dc.lft.to/lastmile_qr_scan"}, "fusion_lon": 0.0, "type": "electric_scooter", "bike_id": "e1321f264aa463b0c98567757d5ebd1d", "name": "e1321f264aa463b0c98567757d5ebd1d"}, {"lon": -77.00590866666667, "is_disabled": 0, "lat": 38.9053235, "fusion_lat": 0.0, "is_reserved": 0, "rental_uris": {"ios": "https://dc.lft.to/lastmile_qr_scan", "android": "https://dc.lft.to/lastmile_qr_scan"}, "fusion_lon": 0.0, "type": "electric_scooter", "bike_id": "c53370482193dd7ffdafbb3fbe8a9027", "name": "c53370482193dd7ffdafbb3fbe8a9027"}, {"lon": -77.0358425, "is_disabled": 0, "lat": 38.903859, "fusion_lat": 0.0, "is_reserved": 0, "rental_uris": {"ios": "https://dc.lft.to/lastmile_qr_scan", "android": "https://dc.lft.to/lastmile_qr_scan"}, "fusion_lon": 0.0, "type": "electric_scooter", "bike_id": "48eb46d6307603e4f4b97a9de0db4cad", "name": "48eb46d6307603e4f4b97a9de0db4cad"}, {"lon": -77.04496566666667, "is_disabled": 0, "lat": 38.8962065, "fusion_lat": 0.0, "is_reserved": 0, "rental_uris": {"ios": "https://dc.lft.to/lastmile_qr_scan", "android": "https://dc.lft.to/lastmile_qr_scan"}, "fusion_lon": 0.0, "type": "electric_scooter", "bike_id": "ed537965905604b147bbbd1a149df066", "name": "ed537965905604b147bbbd1a149df066"}, {"lon": -77.03170666666666, "is_disabled": 0, "lat": 38.9141625, "fusion_lat": 0.0, "is_reserved": 0, "rental_uris": {"ios": "https://dc.lft.to/lastmile_qr_scan", "android": "https://dc.lft.to/lastmile_qr_scan"}, "fusion_lon": 0.0, "type": "electric_scooter", "bike_id": "39dd7ead6140b2e53e71bb5a7af2f3b9", "name": "39dd7ead6140b2e53e71bb5a7af2f3b9"}, {"lon": -77.03899933333334, "is_disabled": 0, "lat": 38.90655616666667, "fusion_lat": 0.0, "is_reserved": 0, "rental_uris": {"ios": "https://dc.lft.to/lastmile_qr_scan", "android": "https://dc.lft.to/lastmile_qr_scan"}, "fusion_lon": 0.0, "type": "electric_scooter", "bike_id": "1e12dea5fc0cc7611aa806d4fea2c170", "name": "1e12dea5fc0cc7611aa806d4fea2c170"}, {"lon": -77.03981666666667, "is_disabled": 0, "lat": 38.90604966666667, "fusion_lat": 0.0, "is_reserved": 0, "rental_uris": {"ios": "https://dc.lft.to/lastmile_qr_scan", "android": "https://dc.lft.to/lastmile_qr_scan"}, "fusion_lon": 0.0, "type": "electric_scooter", "bike_id": "d852c3ba0c28cd7c5f17281e158ab4f1", "name": "d852c3ba0c28cd7c5f17281e158ab4f1"}, {"lon": -77.0284205, "is_disabled": 0, "lat": 38.9426015, "fusion_lat": 0.0, "is_reserved": 0, "rental_uris": {"ios": "https://dc.lft.to/lastmile_qr_scan", "android": "https://dc.lft.to/lastmile_qr_scan"}, "fusion_lon": 0.0, "type": "electric_scooter", "bike_id": "5293cf524e83fc34b71919a490ceae5d", "name": "5293cf524e83fc34b71919a490ceae5d"}, {"lon": -77.07534966666667, "is_disabled": 0, "lat": 38.908812833333336, "fusion_lat": 0.0, "is_reserved": 0, "rental_uris": {"ios": "https://dc.lft.to/lastmile_qr_scan", "android": "https://dc.lft.to/lastmile_qr_scan"}, "fusion_lon": 0.0, "type": "electric_scooter", "bike_id": "42f7cbf0a17519e968335393503b1afa", "name": "42f7cbf0a17519e968335393503b1afa"}, {"lon": -77.0422955, "is_disabled": 0, "lat": 38.91103916666667, "fusion_lat": 0.0, "is_reserved": 0, "rental_uris": {"ios": "https://dc.lft.to/lastmile_qr_scan", "android": "https://dc.lft.to/lastmile_qr_scan"}, "fusion_lon": 0.0, "type": "electric_scooter", "bike_id": "c701e0901099f8b7dae3cdbf54394646", "name": "c701e0901099f8b7dae3cdbf54394646"}, {"lon": -77.02948766666667, "is_disabled": 0, "lat": 38.89628866666666, "fusion_lat": 0.0, "is_reserved": 0, "rental_uris": {"ios": "https://dc.lft.to/lastmile_qr_scan", "android": "https://dc.lft.to/lastmile_qr_scan"}, "fusion_lon": 0.0, "type": "electric_scooter", "bike_id": "267353cc2f6ed0a06b6f2fef889541eb", "name": "267353cc2f6ed0a06b6f2fef889541eb"}, {"lon": -77.01204983333334, "is_disabled": 0, "lat": 38.897948166666666, "fusion_lat": 0.0, "is_reserved": 0, "rental_uris": {"ios": "https://dc.lft.to/lastmile_qr_scan", "android": "https://dc.lft.to/lastmile_qr_scan"}, "fusion_lon": 0.0, "type": "electric_scooter", "bike_id": "6faa678ece7400f7260e6ad4b978c560", "name": "6faa678ece7400f7260e6ad4b978c560"}, {"lon": -77.050314, "is_disabled": 0, "lat": 38.923651166666666, "fusion_lat": 0.0, "is_reserved": 0, "rental_uris": {"ios": "https://dc.lft.to/lastmile_qr_scan", "android": "https://dc.lft.to/lastmile_qr_scan"}, "fusion_lon": 0.0, "type": "electric_scooter", "bike_id": "985a6846aa1ab3a62fdf9455d1fd3af6", "name": "985a6846aa1ab3a62fdf9455d1fd3af6"}, {"lon": -77.031659, "is_disabled": 0, "lat": 38.897196666666666, "fusion_lat": 0.0, "is_reserved": 0, "rental_uris": {"ios": "https://dc.lft.to/lastmile_qr_scan", "android": "https://dc.lft.to/lastmile_qr_scan"}, "fusion_lon": 0.0, "type": "electric_scooter", "bike_id": "62e8cb84568fbbfff4aaec11b077ea48", "name": "62e8cb84568fbbfff4aaec11b077ea48"}, {"lon": -77.03837166666666, "is_disabled": 0, "lat": 38.90280116666667, "fusion_lat": 0.0, "is_reserved": 0, "rental_uris": {"ios": "https://dc.lft.to/lastmile_qr_scan", "android": "https://dc.lft.to/lastmile_qr_scan"}, "fusion_lon": 0.0, "type": "electric_scooter", "bike_id": "80b0707b5b50dbe6ca75970bfb1b71e2", "name": "80b0707b5b50dbe6ca75970bfb1b71e2"}, {"lon": -77.0364025, "is_disabled": 0, "lat": 38.9174755, "fusion_lat": 0.0, "is_reserved": 0, "rental_uris": {"ios": "https://dc.lft.to/lastmile_qr_scan", "android": "https://dc.lft.to/lastmile_qr_scan"}, "fusion_lon": 0.0, "type": "electric_scooter", "bike_id": "5c981cab01f5a9bfec7d849ed2b5e06d", "name": "5c981cab01f5a9bfec7d849ed2b5e06d"}, {"lon": -77.00256, "is_disabled": 0, "lat": 38.89491116666667, "fusion_lat": 0.0, "is_reserved": 0, "rental_uris": {"ios": "https://dc.lft.to/lastmile_qr_scan", "android": "https://dc.lft.to/lastmile_qr_scan"}, "fusion_lon": 0.0, "type": "electric_scooter", "bike_id": "9efe9bcf1c96228dc3493ab915c76be9", "name": "9efe9bcf1c96228dc3493ab915c76be9"}, {"lon": -77.041852, "is_disabled": 0, "lat": 38.92050866666666, "fusion_lat": 0.0, "is_reserved": 0, "rental_uris": {"ios": "https://dc.lft.to/lastmile_qr_scan", "android": "https://dc.lft.to/lastmile_qr_scan"}, "fusion_lon": 0.0, "type": "electric_scooter", "bike_id": "47cc148bcd35363558ccfb13105989dd", "name": "47cc148bcd35363558ccfb13105989dd"}, {"lon": -77.04765, "is_disabled": 0, "lat": 38.91758816666667, "fusion_lat": 0.0, "is_reserved": 0, "rental_uris": {"ios": "https://dc.lft.to/lastmile_qr_scan", "android": "https://dc.lft.to/lastmile_qr_scan"}, "fusion_lon": 0.0, "type": "electric_scooter", "bike_id": "52ca7dfa7441ef0898d2048365b0d692", "name": "52ca7dfa7441ef0898d2048365b0d692"}, {"lon": -77.002025, "is_disabled": 0, "lat": 38.96503333333333, "fusion_lat": 0.0, "is_reserved": 0, "rental_uris": {"ios": "https://dc.lft.to/lastmile_qr_scan", "android": "https://dc.lft.to/lastmile_qr_scan"}, "fusion_lon": 0.0, "type": "electric_scooter", "bike_id": "893f4a2cd36e77a9ee70bab433fda6d4", "name": "893f4a2cd36e77a9ee70bab433fda6d4"}, {"lon": -77.040388, "is_disabled": 0, "lat": 38.905823166666664, "fusion_lat": 0.0, "is_reserved": 0, "rental_uris": {"ios": "https://dc.lft.to/lastmile_qr_scan", "android": "https://dc.lft.to/lastmile_qr_scan"}, "fusion_lon": 0.0, "type": "electric_scooter", "bike_id": "09d29b1d64c5a68ce3e7a80417b7ab63", "name": "09d29b1d64c5a68ce3e7a80417b7ab63"}, {"lon": -77.03187716666666, "is_disabled": 0, "lat": 38.915702, "fusion_lat": 0.0, "is_reserved": 0, "rental_uris": {"ios": "https://dc.lft.to/lastmile_qr_scan", "android": "https://dc.lft.to/lastmile_qr_scan"}, "fusion_lon": 0.0, "type": "electric_scooter", "bike_id": "19e9fa424ba655e7393dd69df4803a25", "name": "19e9fa424ba655e7393dd69df4803a25"}, {"lon": -77.01406233333333, "is_disabled": 0, "lat": 38.928171666666664, "fusion_lat": 0.0, "is_reserved": 0, "rental_uris": {"ios": "https://dc.lft.to/lastmile_qr_scan", "android": "https://dc.lft.to/lastmile_qr_scan"}, "fusion_lon": 0.0, "type": "electric_scooter", "bike_id": "146a3bf28568778711fdbb1a84617dc0", "name": "146a3bf28568778711fdbb1a84617dc0"}, {"lon": -76.96711533333334, "is_disabled": 0, "lat": 38.86036283333333, "fusion_lat": 0.0, "is_reserved": 0, "rental_uris": {"ios": "https://dc.lft.to/lastmile_qr_scan", "android": "https://dc.lft.to/lastmile_qr_scan"}, "fusion_lon": 0.0, "type": "electric_scooter", "bike_id": "63e3258d91980b2a2e68f1fab7a7e624", "name": "63e3258d91980b2a2e68f1fab7a7e624"}, {"lon": -77.0202005, "is_disabled": 0, "lat": 38.876823333333334, "fusion_lat": 0.0, "is_reserved": 0, "rental_uris": {"ios": "https://dc.lft.to/lastmile_qr_scan", "android": "https://dc.lft.to/lastmile_qr_scan"}, "fusion_lon": 0.0, "type": "electric_scooter", "bike_id": "73a9adbe1db2e186da37683c6ed3a9aa", "name": "73a9adbe1db2e186da37683c6ed3a9aa"}, {"lon": -77.01095916666667, "is_disabled": 0, "lat": 38.872965, "fusion_lat": 0.0, "is_reserved": 0, "rental_uris": {"ios": "https://dc.lft.to/lastmile_qr_scan", "android": "https://dc.lft.to/lastmile_qr_scan"}, "fusion_lon": 0.0, "type": "electric_bike", "bike_id": "b30296868381254b4824654c7f684a1f", "name": "b30296868381254b4824654c7f684a1f"}, {"lon": -77.033606, "is_disabled": 0, "lat": 38.9014315, "fusion_lat": 0.0, "is_reserved": 0, "rental_uris": {"ios": "https://dc.lft.to/lastmile_qr_scan", "android": "https://dc.lft.to/lastmile_qr_scan"}, "fusion_lon": 0.0, "type": "electric_scooter", "bike_id": "c9c90f2b8432457a9b7bc7e32d856c06", "name": "c9c90f2b8432457a9b7bc7e32d856c06"}, {"lon": -76.99134866666667, "is_disabled": 0, "lat": 38.90315116666667, "fusion_lat": 0.0, "is_reserved": 0, "rental_uris": {"ios": "https://dc.lft.to/lastmile_qr_scan", "android": "https://dc.lft.to/lastmile_qr_scan"}, "fusion_lon": 0.0, "type": "electric_scooter", "bike_id": "388133033f917d1146348e414a4c4490", "name": "388133033f917d1146348e414a4c4490"}, {"lon": -76.992442, "is_disabled": 0, "lat": 38.794706166666664, "fusion_lat": 0.0, "is_reserved": 0, "rental_uris": {"ios": "https://dc.lft.to/lastmile_qr_scan", "android": "https://dc.lft.to/lastmile_qr_scan"}, "fusion_lon": 0.0, "type": "electric_bike", "bike_id": "82a6075a16d4e2f9a5204b0560ff8a49", "name": "82a6075a16d4e2f9a5204b0560ff8a49"}, {"lon": -77.03189883333333, "is_disabled": 0, "lat": 38.892460166666666, "fusion_lat": 0.0, "is_reserved": 0, "rental_uris": {"ios": "https://dc.lft.to/lastmile_qr_scan", "android": "https://dc.lft.to/lastmile_qr_scan"}, "fusion_lon": 0.0, "type": "electric_scooter", "bike_id": "ef04b83dea7cf13d0d6b00a604b3f7ae", "name": "ef04b83dea7cf13d0d6b00a604b3f7ae"}, {"lon": -77.1265585, "is_disabled": 0, "lat": 38.815069333333334, "fusion_lat": 0.0, "is_reserved": 0, "rental_uris": {"ios": "https://dc.lft.to/lastmile_qr_scan", "android": "https://dc.lft.to/lastmile_qr_scan"}, "fusion_lon": 0.0, "type": "electric_bike", "bike_id": "b4cca0360d6555ed923e5d80a1f3885b", "name": "b4cca0360d6555ed923e5d80a1f3885b"}, {"lon": -77.04462016666666, "is_disabled": 0, "lat": 38.909585166666666, "fusion_lat": 0.0, "is_reserved": 0, "rental_uris": {"ios": "https://dc.lft.to/lastmile_qr_scan", "android": "https://dc.lft.to/lastmile_qr_scan"}, "fusion_lon": 0.0, "type": "electric_scooter", "bike_id": "6d14d56fd72ba966e2682baa94ba9e3a", "name": "6d14d56fd72ba966e2682baa94ba9e3a"}, {"lon": -76.981842, "is_disabled": 0, "lat": 38.895777833333334, "fusion_lat": 0.0, "is_reserved": 0, "rental_uris": {"ios": "https://dc.lft.to/lastmile_qr_scan", "android": "https://dc.lft.to/lastmile_qr_scan"}, "fusion_lon": 0.0, "type": "electric_scooter", "bike_id": "3c2ce7d5f883cfee095a42d6caad238f", "name": "3c2ce7d5f883cfee095a42d6caad238f"}, {"lon": -77.0220505, "is_disabled": 0, "lat": 38.90829466666667, "fusion_lat": 0.0, "is_reserved": 0, "rental_uris": {"ios": "https://dc.lft.to/lastmile_qr_scan", "android": "https://dc.lft.to/lastmile_qr_scan"}, "fusion_lon": 0.0, "type": "electric_scooter", "bike_id": "49a26ed555069366479cd02c3f40300e", "name": "49a26ed555069366479cd02c3f40300e"}, {"lon": -77.02228, "is_disabled": 0, "lat": 38.92471416666667, "fusion_lat": 0.0, "is_reserved": 0, "rental_uris": {"ios": "https://dc.lft.to/lastmile_qr_scan", "android": "https://dc.lft.to/lastmile_qr_scan"}, "fusion_lon": 0.0, "type": "electric_scooter", "bike_id": "41e49e8d8f4f6c77fa3884b96121c543", "name": "41e49e8d8f4f6c77fa3884b96121c543"}, {"lon": -77.03183316666667, "is_disabled": 0, "lat": 38.90303816666667, "fusion_lat": 0.0, "is_reserved": 0, "rental_uris": {"ios": "https://dc.lft.to/lastmile_qr_scan", "android": "https://dc.lft.to/lastmile_qr_scan"}, "fusion_lon": 0.0, "type": "electric_scooter", "bike_id": "6f9f7f4160bed0935da6fc1d5b96fa36", "name": "6f9f7f4160bed0935da6fc1d5b96fa36"}, {"lon": -77.029414, "is_disabled": 0, "lat": 38.90236733333333, "fusion_lat": 0.0, "is_reserved": 0, "rental_uris": {"ios": "https://dc.lft.to/lastmile_qr_scan", "android": "https://dc.lft.to/lastmile_qr_scan"}, "fusion_lon": 0.0, "type": "electric_scooter", "bike_id": "74eb9afd5af1762e688d6d7f20562102", "name": "74eb9afd5af1762e688d6d7f20562102"}, {"lon": -76.985457, "is_disabled": 0, "lat": 38.86688383333333, "fusion_lat": 0.0, "is_reserved": 0, "rental_uris": {"ios": "https://dc.lft.to/lastmile_qr_scan", "android": "https://dc.lft.to/lastmile_qr_scan"}, "fusion_lon": 0.0, "type": "electric_scooter", "bike_id": "93f60c946cac148cdb73db07fd28446c", "name": "93f60c946cac148cdb73db07fd28446c"}, {"lon": -76.94640133333333, "is_disabled": 0, "lat": 38.89861716666667, "fusion_lat": 0.0, "is_reserved": 0, "rental_uris": {"ios": "https://dc.lft.to/lastmile_qr_scan", "android": "https://dc.lft.to/lastmile_qr_scan"}, "fusion_lon": 0.0, "type": "electric_scooter", "bike_id": "57a41398640ce4b0be69d9a09d6e6c27", "name": "57a41398640ce4b0be69d9a09d6e6c27"}, {"lon": -77.00158866666666, "is_disabled": 0, "lat": 38.8737795, "fusion_lat": 0.0, "is_reserved": 0, "rental_uris": {"ios": "https://dc.lft.to/lastmile_qr_scan", "android": "https://dc.lft.to/lastmile_qr_scan"}, "fusion_lon": 0.0, "type": "electric_scooter", "bike_id": "198faac630e5c321d11a41db75b33fb5", "name": "198faac630e5c321d11a41db75b33fb5"}, {"lon": -76.9486235, "is_disabled": 0, "lat": 38.89481216666667, "fusion_lat": 0.0, "is_reserved": 0, "rental_uris": {"ios": "https://dc.lft.to/lastmile_qr_scan", "android": "https://dc.lft.to/lastmile_qr_scan"}, "fusion_lon": 0.0, "type": "electric_scooter", "bike_id": "d3d1cabab23f39e57fb048e113db91e7", "name": "d3d1cabab23f39e57fb048e113db91e7"}, {"lon": -77.0268585, "is_disabled": 0, "lat": 38.8995625, "fusion_lat": 0.0, "is_reserved": 0, "rental_uris": {"ios": "https://dc.lft.to/lastmile_qr_scan", "android": "https://dc.lft.to/lastmile_qr_scan"}, "fusion_lon": 0.0, "type": "electric_scooter", "bike_id": "085ab66426082ee03883ccb29650fe09", "name": "085ab66426082ee03883ccb29650fe09"}, {"lon": -76.97607333333333, "is_disabled": 0, "lat": 38.940219, "fusion_lat": 0.0, "is_reserved": 0, "rental_uris": {"ios": "https://dc.lft.to/lastmile_qr_scan", "android": "https://dc.lft.to/lastmile_qr_scan"}, "fusion_lon": 0.0, "type": "electric_scooter", "bike_id": "8904d795c5f05cadb4d8bc9c744f795c", "name": "8904d795c5f05cadb4d8bc9c744f795c"}, {"lon": -77.04333783333334, "is_disabled": 0, "lat": 38.911105166666665, "fusion_lat": 0.0, "is_reserved": 0, "rental_uris": {"ios": "https://dc.lft.to/lastmile_qr_scan", "android": "https://dc.lft.to/lastmile_qr_scan"}, "fusion_lon": 0.0, "type": "electric_scooter", "bike_id": "27160a9f7da3e6db8f453c7632421808", "name": "27160a9f7da3e6db8f453c7632421808"}, {"lon": -77.02183366666667, "is_disabled": 0, "lat": 38.909749166666664, "fusion_lat": 0.0, "is_reserved": 0, "rental_uris": {"ios": "https://dc.lft.to/lastmile_qr_scan", "android": "https://dc.lft.to/lastmile_qr_scan"}, "fusion_lon": 0.0, "type": "electric_scooter", "bike_id": "6864fb42dce8f7ec9c4a2a829c61bc06", "name": "6864fb42dce8f7ec9c4a2a829c61bc06"}, {"lon": -77.00533566666667, "is_disabled": 0, "lat": 38.877177333333336, "fusion_lat": 0.0, "is_reserved": 0, "rental_uris": {"ios": "https://dc.lft.to/lastmile_qr_scan", "android": "https://dc.lft.to/lastmile_qr_scan"}, "fusion_lon": 0.0, "type": "electric_scooter", "bike_id": "3472123e7800148a37c03cf83c2fae88", "name": "3472123e7800148a37c03cf83c2fae88"}, {"lon": -77.07744966666667, "is_disabled": 0, "lat": 38.91166716666667, "fusion_lat": 0.0, "is_reserved": 0, "rental_uris": {"ios": "https://dc.lft.to/lastmile_qr_scan", "android": "https://dc.lft.to/lastmile_qr_scan"}, "fusion_lon": 0.0, "type": "electric_scooter", "bike_id": "7fcc6cfb1090a70956a84f4ce78d74b0", "name": "7fcc6cfb1090a70956a84f4ce78d74b0"}, {"lon": -77.0322165, "is_disabled": 0, "lat": 38.917084333333335, "fusion_lat": 0.0, "is_reserved": 0, "rental_uris": {"ios": "https://dc.lft.to/lastmile_qr_scan", "android": "https://dc.lft.to/lastmile_qr_scan"}, "fusion_lon": 0.0, "type": "electric_scooter", "bike_id": "29a1bc971f4d3f2292e5dbd184226ed7", "name": "29a1bc971f4d3f2292e5dbd184226ed7"}, {"lon": -77.03346383333333, "is_disabled": 0, "lat": 38.892375666666666, "fusion_lat": 0.0, "is_reserved": 0, "rental_uris": {"ios": "https://dc.lft.to/lastmile_qr_scan", "android": "https://dc.lft.to/lastmile_qr_scan"}, "fusion_lon": 0.0, "type": "electric_scooter", "bike_id": "e830a525cc1aab93a16d4979ec161e43", "name": "e830a525cc1aab93a16d4979ec161e43"}, {"lon": -77.031859, "is_disabled": 0, "lat": 38.91616633333334, "fusion_lat": 0.0, "is_reserved": 0, "rental_uris": {"ios": "https://dc.lft.to/lastmile_qr_scan", "android": "https://dc.lft.to/lastmile_qr_scan"}, "fusion_lon": 0.0, "type": "electric_scooter", "bike_id": "d68042758707d08e64f8a9fabc37a843", "name": "d68042758707d08e64f8a9fabc37a843"}, {"lon": -77.02280466666667, "is_disabled": 0, "lat": 38.90890266666667, "fusion_lat": 0.0, "is_reserved": 0, "rental_uris": {"ios": "https://dc.lft.to/lastmile_qr_scan", "android": "https://dc.lft.to/lastmile_qr_scan"}, "fusion_lon": 0.0, "type": "electric_scooter", "bike_id": "c5d796878f4e98659f67647e29c75e73", "name": "c5d796878f4e98659f67647e29c75e73"}, {"lon": -77.03263816666667, "is_disabled": 0, "lat": 38.93069216666667, "fusion_lat": 0.0, "is_reserved": 0, "rental_uris": {"ios": "https://dc.lft.to/lastmile_qr_scan", "android": "https://dc.lft.to/lastmile_qr_scan"}, "fusion_lon": 0.0, "type": "electric_scooter", "bike_id": "dc62b2ada811b487fc89cacb26e29d73", "name": "dc62b2ada811b487fc89cacb26e29d73"}, {"lon": -76.995092, "is_disabled": 0, "lat": 38.93382116666667, "fusion_lat": 0.0, "is_reserved": 0, "rental_uris": {"ios": "https://dc.lft.to/lastmile_qr_scan", "android": "https://dc.lft.to/lastmile_qr_scan"}, "fusion_lon": 0.0, "type": "electric_bike", "bike_id": "9f07365b5676d8f26ea6a561e3dff9b1", "name": "9f07365b5676d8f26ea6a561e3dff9b1"}, {"lon": -77.02392266666666, "is_disabled": 0, "lat": 38.88118733333334, "fusion_lat": 0.0, "is_reserved": 0, "rental_uris": {"ios": "https://dc.lft.to/lastmile_qr_scan", "android": "https://dc.lft.to/lastmile_qr_scan"}, "fusion_lon": 0.0, "type": "electric_scooter", "bike_id": "8b2ff594e078f768c3677dde0420bde3", "name": "8b2ff594e078f768c3677dde0420bde3"}, {"lon": -77.025834, "is_disabled": 0, "lat": 38.91413466666667, "fusion_lat": 0.0, "is_reserved": 0, "rental_uris": {"ios": "https://dc.lft.to/lastmile_qr_scan", "android": "https://dc.lft.to/lastmile_qr_scan"}, "fusion_lon": 0.0, "type": "electric_scooter", "bike_id": "874edc0f1a50c364d3321feb2aa2adbe", "name": "874edc0f1a50c364d3321feb2aa2adbe"}, {"lon": -77.0469335, "is_disabled": 0, "lat": 38.90081583333333, "fusion_lat": 0.0, "is_reserved": 0, "rental_uris": {"ios": "https://dc.lft.to/lastmile_qr_scan", "android": "https://dc.lft.to/lastmile_qr_scan"}, "fusion_lon": 0.0, "type": "electric_scooter", "bike_id": "1542aed4f9199b02c44f0b42aab0ab27", "name": "1542aed4f9199b02c44f0b42aab0ab27"}, {"lon": -77.04227816666666, "is_disabled": 0, "lat": 38.913375333333335, "fusion_lat": 0.0, "is_reserved": 0, "rental_uris": {"ios": "https://dc.lft.to/lastmile_qr_scan", "android": "https://dc.lft.to/lastmile_qr_scan"}, "fusion_lon": 0.0, "type": "electric_scooter", "bike_id": "bf897b8404890cbd474157a7aceda5de", "name": "bf897b8404890cbd474157a7aceda5de"}, {"lon": -77.0464935, "is_disabled": 0, "lat": 38.89222916666667, "fusion_lat": 0.0, "is_reserved": 0, "rental_uris": {"ios": "https://dc.lft.to/lastmile_qr_scan", "android": "https://dc.lft.to/lastmile_qr_scan"}, "fusion_lon": 0.0, "type": "electric_scooter", "bike_id": "ad6d3fae3575125c6ee8a2c4eb1b8a88", "name": "ad6d3fae3575125c6ee8a2c4eb1b8a88"}, {"lon": -76.9073485, "is_disabled": 0, "lat": 38.896112333333335, "fusion_lat": 0.0, "is_reserved": 0, "rental_uris": {"ios": "https://dc.lft.to/lastmile_qr_scan", "android": "https://dc.lft.to/lastmile_qr_scan"}, "fusion_lon": 0.0, "type": "electric_bike", "bike_id": "c9c31ab1c12a51ba7cda4114853f0110", "name": "c9c31ab1c12a51ba7cda4114853f0110"}, {"lon": -77.03171083333334, "is_disabled": 0, "lat": 38.89723016666667, "fusion_lat": 0.0, "is_reserved": 0, "rental_uris": {"ios": "https://dc.lft.to/lastmile_qr_scan", "android": "https://dc.lft.to/lastmile_qr_scan"}, "fusion_lon": 0.0, "type": "electric_scooter", "bike_id": "2358d8e54ca82c4a716eed0603a2ac0e", "name": "2358d8e54ca82c4a716eed0603a2ac0e"}, {"lon": -77.02974466666667, "is_disabled": 0, "lat": 38.89900383333333, "fusion_lat": 0.0, "is_reserved": 0, "rental_uris": {"ios": "https://dc.lft.to/lastmile_qr_scan", "android": "https://dc.lft.to/lastmile_qr_scan"}, "fusion_lon": 0.0, "type": "electric_scooter", "bike_id": "416f14422d59095cfe423697ed5e29a7", "name": "416f14422d59095cfe423697ed5e29a7"}, {"lon": -77.03216633333334, "is_disabled": 0, "lat": 38.914680833333335, "fusion_lat": 0.0, "is_reserved": 0, "rental_uris": {"ios": "https://dc.lft.to/lastmile_qr_scan", "android": "https://dc.lft.to/lastmile_qr_scan"}, "fusion_lon": 0.0, "type": "electric_scooter", "bike_id": "debd8fe99fbcd670af193a29d0f02604", "name": "debd8fe99fbcd670af193a29d0f02604"}, {"lon": -77.03962616666666, "is_disabled": 0, "lat": 38.89586416666667, "fusion_lat": 0.0, "is_reserved": 0, "rental_uris": {"ios": "https://dc.lft.to/lastmile_qr_scan", "android": "https://dc.lft.to/lastmile_qr_scan"}, "fusion_lon": 0.0, "type": "electric_scooter", "bike_id": "4614010d04c153196838db46781c5fb6", "name": "4614010d04c153196838db46781c5fb6"}, {"lon": -77.027332, "is_disabled": 0, "lat": 38.901341, "fusion_lat": 0.0, "is_reserved": 0, "rental_uris": {"ios": "https://dc.lft.to/lastmile_qr_scan", "android": "https://dc.lft.to/lastmile_qr_scan"}, "fusion_lon": 0.0, "type": "electric_scooter", "bike_id": "fbfcf0c79cb4c932868dd972127b7c8c", "name": "fbfcf0c79cb4c932868dd972127b7c8c"}, {"lon": -77.02100616666667, "is_disabled": 0, "lat": 38.921598833333334, "fusion_lat": 0.0, "is_reserved": 0, "rental_uris": {"ios": "https://dc.lft.to/lastmile_qr_scan", "android": "https://dc.lft.to/lastmile_qr_scan"}, "fusion_lon": 0.0, "type": "electric_scooter", "bike_id": "5c36073bc144da765e3e27254fef8d29", "name": "5c36073bc144da765e3e27254fef8d29"}, {"lon": -76.99561716666666, "is_disabled": 0, "lat": 38.88600116666667, "fusion_lat": 0.0, "is_reserved": 0, "rental_uris": {"ios": "https://dc.lft.to/lastmile_qr_scan", "android": "https://dc.lft.to/lastmile_qr_scan"}, "fusion_lon": 0.0, "type": "electric_scooter", "bike_id": "71fa63c42cd029640075d698df0ac3ed", "name": "71fa63c42cd029640075d698df0ac3ed"}, {"lon": -77.02218633333334, "is_disabled": 0, "lat": 38.897400833333336, "fusion_lat": 0.0, "is_reserved": 0, "rental_uris": {"ios": "https://dc.lft.to/lastmile_qr_scan", "android": "https://dc.lft.to/lastmile_qr_scan"}, "fusion_lon": 0.0, "type": "electric_scooter", "bike_id": "14ad6b48abee8b61bd9c7a3bc37e7093", "name": "14ad6b48abee8b61bd9c7a3bc37e7093"}, {"lon": -77.03629166666667, "is_disabled": 0, "lat": 38.96549433333333, "fusion_lat": 0.0, "is_reserved": 0, "rental_uris": {"ios": "https://dc.lft.to/lastmile_qr_scan", "android": "https://dc.lft.to/lastmile_qr_scan"}, "fusion_lon": 0.0, "type": "electric_scooter", "bike_id": "ee4ac5511bfbd8167a734a3752e5e240", "name": "ee4ac5511bfbd8167a734a3752e5e240"}, {"lon": -76.9956425, "is_disabled": 0, "lat": 38.8921085, "fusion_lat": 0.0, "is_reserved": 0, "rental_uris": {"ios": "https://dc.lft.to/lastmile_qr_scan", "android": "https://dc.lft.to/lastmile_qr_scan"}, "fusion_lon": 0.0, "type": "electric_scooter", "bike_id": "267ec3d7b3ef21aa2efbabafd3a861d9", "name": "267ec3d7b3ef21aa2efbabafd3a861d9"}, {"lon": -77.04543033333333, "is_disabled": 0, "lat": 38.896104, "fusion_lat": 0.0, "is_reserved": 0, "rental_uris": {"ios": "https://dc.lft.to/lastmile_qr_scan", "android": "https://dc.lft.to/lastmile_qr_scan"}, "fusion_lon": 0.0, "type": "electric_scooter", "bike_id": "5a91f0acd2b49e875fb854c7b06f7770", "name": "5a91f0acd2b49e875fb854c7b06f7770"}, {"lon": -77.0460415, "is_disabled": 0, "lat": 38.915118666666665, "fusion_lat": 0.0, "is_reserved": 0, "rental_uris": {"ios": "https://dc.lft.to/lastmile_qr_scan", "android": "https://dc.lft.to/lastmile_qr_scan"}, "fusion_lon": 0.0, "type": "electric_scooter", "bike_id": "b5405f4074506fbf94e0d541e4cac0b1", "name": "b5405f4074506fbf94e0d541e4cac0b1"}, {"lon": -77.03017766666666, "is_disabled": 0, "lat": 38.92859116666666, "fusion_lat": 0.0, "is_reserved": 0, "rental_uris": {"ios": "https://dc.lft.to/lastmile_qr_scan", "android": "https://dc.lft.to/lastmile_qr_scan"}, "fusion_lon": 0.0, "type": "electric_scooter", "bike_id": "697336b1b7eeb3b862ad03ff78642e77", "name": "697336b1b7eeb3b862ad03ff78642e77"}, {"lon": -77.02121683333333, "is_disabled": 0, "lat": 38.923627833333335, "fusion_lat": 0.0, "is_reserved": 0, "rental_uris": {"ios": "https://dc.lft.to/lastmile_qr_scan", "android": "https://dc.lft.to/lastmile_qr_scan"}, "fusion_lon": 0.0, "type": "electric_scooter", "bike_id": "6d75d00d02a10af2828cc16dba288b32", "name": "6d75d00d02a10af2828cc16dba288b32"}, {"lon": -77.02592216666666, "is_disabled": 0, "lat": 38.892340833333336, "fusion_lat": 0.0, "is_reserved": 0, "rental_uris": {"ios": "https://dc.lft.to/lastmile_qr_scan", "android": "https://dc.lft.to/lastmile_qr_scan"}, "fusion_lon": 0.0, "type": "electric_scooter", "bike_id": "190776a5cbecca3d96ab39ee8e22e520", "name": "190776a5cbecca3d96ab39ee8e22e520"}, {"lon": -77.041828, "is_disabled": 0, "lat": 38.89960833333333, "fusion_lat": 0.0, "is_reserved": 0, "rental_uris": {"ios": "https://dc.lft.to/lastmile_qr_scan", "android": "https://dc.lft.to/lastmile_qr_scan"}, "fusion_lon": 0.0, "type": "electric_scooter", "bike_id": "9d420d972b4e56c509f6cb2350fec57e", "name": "9d420d972b4e56c509f6cb2350fec57e"}, {"lon": -77.01355166666667, "is_disabled": 0, "lat": 38.91864183333333, "fusion_lat": 0.0, "is_reserved": 0, "rental_uris": {"ios": "https://dc.lft.to/lastmile_qr_scan", "android": "https://dc.lft.to/lastmile_qr_scan"}, "fusion_lon": 0.0, "type": "electric_scooter", "bike_id": "e179814649b0ce100a323dfd40bd0c4b", "name": "e179814649b0ce100a323dfd40bd0c4b"}, {"lon": -77.02222333333333, "is_disabled": 0, "lat": 38.89218116666667, "fusion_lat": 0.0, "is_reserved": 0, "rental_uris": {"ios": "https://dc.lft.to/lastmile_qr_scan", "android": "https://dc.lft.to/lastmile_qr_scan"}, "fusion_lon": 0.0, "type": "electric_scooter", "bike_id": "3f3110d6927818f943af61429fdeb961", "name": "3f3110d6927818f943af61429fdeb961"}, {"lon": -76.995028, "is_disabled": 0, "lat": 38.862105666666665, "fusion_lat": 0.0, "is_reserved": 0, "rental_uris": {"ios": "https://dc.lft.to/lastmile_qr_scan", "android": "https://dc.lft.to/lastmile_qr_scan"}, "fusion_lon": 0.0, "type": "electric_scooter", "bike_id": "dd0600c4a1ef16d399feaa8b997f343b", "name": "dd0600c4a1ef16d399feaa8b997f343b"}, {"lon": -76.96378866666667, "is_disabled": 0, "lat": 38.948882166666664, "fusion_lat": 0.0, "is_reserved": 0, "rental_uris": {"ios": "https://dc.lft.to/lastmile_qr_scan", "android": "https://dc.lft.to/lastmile_qr_scan"}, "fusion_lon": 0.0, "type": "electric_bike", "bike_id": "6bf6886e54c465e18399729f72c5f1b7", "name": "6bf6886e54c465e18399729f72c5f1b7"}, {"lon": -77.048348, "is_disabled": 0, "lat": 38.9184065, "fusion_lat": 0.0, "is_reserved": 0, "rental_uris": {"ios": "https://dc.lft.to/lastmile_qr_scan", "android": "https://dc.lft.to/lastmile_qr_scan"}, "fusion_lon": 0.0, "type": "electric_scooter", "bike_id": "a97371fa90d23756564067149471472c", "name": "a97371fa90d23756564067149471472c"}, {"lon": -77.03295916666667, "is_disabled": 0, "lat": 38.899126, "fusion_lat": 0.0, "is_reserved": 0, "rental_uris": {"ios": "https://dc.lft.to/lastmile_qr_scan", "android": "https://dc.lft.to/lastmile_qr_scan"}, "fusion_lon": 0.0, "type": "electric_scooter", "bike_id": "9fc3ec76cf948119fcd1df9bc4f16820", "name": "9fc3ec76cf948119fcd1df9bc4f16820"}, {"lon": -77.03187383333334, "is_disabled": 0, "lat": 38.89995783333333, "fusion_lat": 0.0, "is_reserved": 0, "rental_uris": {"ios": "https://dc.lft.to/lastmile_qr_scan", "android": "https://dc.lft.to/lastmile_qr_scan"}, "fusion_lon": 0.0, "type": "electric_scooter", "bike_id": "7ef65a99ada0d20e3a46a5e7e155f475", "name": "7ef65a99ada0d20e3a46a5e7e155f475"}, {"lon": -77.00338733333334, "is_disabled": 0, "lat": 38.89353466666667, "fusion_lat": 0.0, "is_reserved": 0, "rental_uris": {"ios": "https://dc.lft.to/lastmile_qr_scan", "android": "https://dc.lft.to/lastmile_qr_scan"}, "fusion_lon": 0.0, "type": "electric_scooter", "bike_id": "cbf6f90be15e672cfc8e1d8af3a011ab", "name": "cbf6f90be15e672cfc8e1d8af3a011ab"}, {"lon": -77.02839766666666, "is_disabled": 0, "lat": 38.886570166666665, "fusion_lat": 0.0, "is_reserved": 0, "rental_uris": {"ios": "https://dc.lft.to/lastmile_qr_scan", "android": "https://dc.lft.to/lastmile_qr_scan"}, "fusion_lon": 0.0, "type": "electric_scooter", "bike_id": "db09982d036b1c0c4e0092714280780e", "name": "db09982d036b1c0c4e0092714280780e"}, {"lon": -77.0319305, "is_disabled": 0, "lat": 38.920663833333336, "fusion_lat": 0.0, "is_reserved": 0, "rental_uris": {"ios": "https://dc.lft.to/lastmile_qr_scan", "android": "https://dc.lft.to/lastmile_qr_scan"}, "fusion_lon": 0.0, "type": "electric_scooter", "bike_id": "d2ec13a6d963917a8f48cb54dd944914", "name": "d2ec13a6d963917a8f48cb54dd944914"}, {"lon": -77.0521455, "is_disabled": 0, "lat": 38.924306333333334, "fusion_lat": 0.0, "is_reserved": 0, "rental_uris": {"ios": "https://dc.lft.to/lastmile_qr_scan", "android": "https://dc.lft.to/lastmile_qr_scan"}, "fusion_lon": 0.0, "type": "electric_scooter", "bike_id": "cd829abe4adbc4734832f25361623e8c", "name": "cd829abe4adbc4734832f25361623e8c"}, {"lon": -77.0215775, "is_disabled": 0, "lat": 38.92459316666667, "fusion_lat": 0.0, "is_reserved": 0, "rental_uris": {"ios": "https://dc.lft.to/lastmile_qr_scan", "android": "https://dc.lft.to/lastmile_qr_scan"}, "fusion_lon": 0.0, "type": "electric_scooter", "bike_id": "4df5d2bce9085f6ca4ec6742ab196c8e", "name": "4df5d2bce9085f6ca4ec6742ab196c8e"}, {"lon": -77.05108516666667, "is_disabled": 0, "lat": 38.898366833333334, "fusion_lat": 0.0, "is_reserved": 0, "rental_uris": {"ios": "https://dc.lft.to/lastmile_qr_scan", "android": "https://dc.lft.to/lastmile_qr_scan"}, "fusion_lon": 0.0, "type": "electric_scooter", "bike_id": "3e83769f54854d7b5ec69f0a57947f02", "name": "3e83769f54854d7b5ec69f0a57947f02"}, {"lon": -77.01376783333333, "is_disabled": 0, "lat": 38.899131833333335, "fusion_lat": 0.0, "is_reserved": 0, "rental_uris": {"ios": "https://dc.lft.to/lastmile_qr_scan", "android": "https://dc.lft.to/lastmile_qr_scan"}, "fusion_lon": 0.0, "type": "electric_scooter", "bike_id": "43ea69bf0af9e6c34d6ea1234d9f76fd", "name": "43ea69bf0af9e6c34d6ea1234d9f76fd"}, {"lon": -77.02278516666667, "is_disabled": 0, "lat": 38.91560233333333, "fusion_lat": 0.0, "is_reserved": 0, "rental_uris": {"ios": "https://dc.lft.to/lastmile_qr_scan", "android": "https://dc.lft.to/lastmile_qr_scan"}, "fusion_lon": 0.0, "type": "electric_scooter", "bike_id": "ce4dd5cadfd131a8669ead7f02f41593", "name": "ce4dd5cadfd131a8669ead7f02f41593"}, {"lon": -77.03831866666667, "is_disabled": 0, "lat": 38.902341666666665, "fusion_lat": 0.0, "is_reserved": 0, "rental_uris": {"ios": "https://dc.lft.to/lastmile_qr_scan", "android": "https://dc.lft.to/lastmile_qr_scan"}, "fusion_lon": 0.0, "type": "electric_scooter", "bike_id": "ea82c1d489cbcd9bfc1177a9a1ac41cc", "name": "ea82c1d489cbcd9bfc1177a9a1ac41cc"}, {"lon": -77.02885016666667, "is_disabled": 0, "lat": 38.99872233333333, "fusion_lat": 0.0, "is_reserved": 0, "rental_uris": {"ios": "https://dc.lft.to/lastmile_qr_scan", "android": "https://dc.lft.to/lastmile_qr_scan"}, "fusion_lon": 0.0, "type": "electric_bike", "bike_id": "50c6d913c7b1c6445a85f13dca2d0514", "name": "50c6d913c7b1c6445a85f13dca2d0514"}, {"lon": -77.02826833333333, "is_disabled": 0, "lat": 38.92237183333334, "fusion_lat": 0.0, "is_reserved": 0, "rental_uris": {"ios": "https://dc.lft.to/lastmile_qr_scan", "android": "https://dc.lft.to/lastmile_qr_scan"}, "fusion_lon": 0.0, "type": "electric_scooter", "bike_id": "15c4a0661da1708e74d13b12dab82a5b", "name": "15c4a0661da1708e74d13b12dab82a5b"}, {"lon": -77.01853583333333, "is_disabled": 0, "lat": 38.92132183333333, "fusion_lat": 0.0, "is_reserved": 0, "rental_uris": {"ios": "https://dc.lft.to/lastmile_qr_scan", "android": "https://dc.lft.to/lastmile_qr_scan"}, "fusion_lon": 0.0, "type": "electric_scooter", "bike_id": "a8ebc6701d4b4b9010cc4b85f56ababb", "name": "a8ebc6701d4b4b9010cc4b85f56ababb"}, {"lon": -77.032994, "is_disabled": 0, "lat": 38.92457183333333, "fusion_lat": 0.0, "is_reserved": 0, "rental_uris": {"ios": "https://dc.lft.to/lastmile_qr_scan", "android": "https://dc.lft.to/lastmile_qr_scan"}, "fusion_lon": 0.0, "type": "electric_scooter", "bike_id": "e200ea4d5d555e2f1bdba25f04571077", "name": "e200ea4d5d555e2f1bdba25f04571077"}, {"lon": -77.04361433333334, "is_disabled": 0, "lat": 38.9012755, "fusion_lat": 0.0, "is_reserved": 0, "rental_uris": {"ios": "https://dc.lft.to/lastmile_qr_scan", "android": "https://dc.lft.to/lastmile_qr_scan"}, "fusion_lon": 0.0, "type": "electric_scooter", "bike_id": "44c51aa09f8d30e58d6883b6d9bb3f82", "name": "44c51aa09f8d30e58d6883b6d9bb3f82"}, {"lon": -77.01541783333333, "is_disabled": 0, "lat": 38.93011516666667, "fusion_lat": 0.0, "is_reserved": 0, "rental_uris": {"ios": "https://dc.lft.to/lastmile_qr_scan", "android": "https://dc.lft.to/lastmile_qr_scan"}, "fusion_lon": 0.0, "type": "electric_scooter", "bike_id": "f82df69a793bab1c0810cfa0ca8305c0", "name": "f82df69a793bab1c0810cfa0ca8305c0"}, {"lon": -77.00929033333334, "is_disabled": 0, "lat": 38.9180135, "fusion_lat": 0.0, "is_reserved": 0, "rental_uris": {"ios": "https://dc.lft.to/lastmile_qr_scan", "android": "https://dc.lft.to/lastmile_qr_scan"}, "fusion_lon": 0.0, "type": "electric_scooter", "bike_id": "0c55b530ad3547f0bda51a7d1a12647b", "name": "0c55b530ad3547f0bda51a7d1a12647b"}, {"lon": -77.086304, "is_disabled": 0, "lat": 38.80972666666667, "fusion_lat": 0.0, "is_reserved": 0, "rental_uris": {"ios": "https://dc.lft.to/lastmile_qr_scan", "android": "https://dc.lft.to/lastmile_qr_scan"}, "fusion_lon": 0.0, "type": "electric_bike", "bike_id": "6da0bb0aeffa1c14696ab3e11916f390", "name": "6da0bb0aeffa1c14696ab3e11916f390"}, {"lon": -77.05003333333333, "is_disabled": 0, "lat": 38.892299, "fusion_lat": 0.0, "is_reserved": 0, "rental_uris": {"ios": "https://dc.lft.to/lastmile_qr_scan", "android": "https://dc.lft.to/lastmile_qr_scan"}, "fusion_lon": 0.0, "type": "electric_scooter", "bike_id": "5d220e787fc8f70f475141091650bb4c", "name": "5d220e787fc8f70f475141091650bb4c"}, {"lon": -77.01695483333333, "is_disabled": 0, "lat": 38.97498683333333, "fusion_lat": 0.0, "is_reserved": 0, "rental_uris": {"ios": "https://dc.lft.to/lastmile_qr_scan", "android": "https://dc.lft.to/lastmile_qr_scan"}, "fusion_lon": 0.0, "type": "electric_scooter", "bike_id": "1ba971704394824f34c7f21c56917647", "name": "1ba971704394824f34c7f21c56917647"}, {"lon": -77.028292, "is_disabled": 0, "lat": 38.893441, "fusion_lat": 0.0, "is_reserved": 0, "rental_uris": {"ios": "https://dc.lft.to/lastmile_qr_scan", "android": "https://dc.lft.to/lastmile_qr_scan"}, "fusion_lon": 0.0, "type": "electric_scooter", "bike_id": "212ce27587920afc27cb792a846ee828", "name": "212ce27587920afc27cb792a846ee828"}, {"lon": -77.11790583333334, "is_disabled": 0, "lat": 39.05495633333334, "fusion_lat": 0.0, "is_reserved": 0, "rental_uris": {"ios": "https://dc.lft.to/lastmile_qr_scan", "android": "https://dc.lft.to/lastmile_qr_scan"}, "fusion_lon": 0.0, "type": "electric_bike", "bike_id": "b06c69b4e1227cd4623120a06b750715", "name": "b06c69b4e1227cd4623120a06b750715"}, {"lon": -77.0263915, "is_disabled": 0, "lat": 38.89851683333333, "fusion_lat": 0.0, "is_reserved": 0, "rental_uris": {"ios": "https://dc.lft.to/lastmile_qr_scan", "android": "https://dc.lft.to/lastmile_qr_scan"}, "fusion_lon": 0.0, "type": "electric_scooter", "bike_id": "1dfe096768a487013a484e35f7388e09", "name": "1dfe096768a487013a484e35f7388e09"}, {"lon": -77.00610633333334, "is_disabled": 0, "lat": 38.87177666666667, "fusion_lat": 0.0, "is_reserved": 0, "rental_uris": {"ios": "https://dc.lft.to/lastmile_qr_scan", "android": "https://dc.lft.to/lastmile_qr_scan"}, "fusion_lon": 0.0, "type": "electric_scooter", "bike_id": "006136e9f33d54575bd0719c587e4ebd", "name": "006136e9f33d54575bd0719c587e4ebd"}, {"lon": -77.02819866666667, "is_disabled": 0, "lat": 38.90243266666667, "fusion_lat": 0.0, "is_reserved": 0, "rental_uris": {"ios": "https://dc.lft.to/lastmile_qr_scan", "android": "https://dc.lft.to/lastmile_qr_scan"}, "fusion_lon": 0.0, "type": "electric_scooter", "bike_id": "c568ca82b3575fa6913c3167c4331f65", "name": "c568ca82b3575fa6913c3167c4331f65"}, {"lon": -76.97909133333333, "is_disabled": 0, "lat": 38.90427016666667, "fusion_lat": 0.0, "is_reserved": 0, "rental_uris": {"ios": "https://dc.lft.to/lastmile_qr_scan", "android": "https://dc.lft.to/lastmile_qr_scan"}, "fusion_lon": 0.0, "type": "electric_scooter", "bike_id": "94d4cf767380bf9190ff8328fc04d01f", "name": "94d4cf767380bf9190ff8328fc04d01f"}, {"lon": -77.02103733333334, "is_disabled": 0, "lat": 38.92175233333333, "fusion_lat": 0.0, "is_reserved": 0, "rental_uris": {"ios": "https://dc.lft.to/lastmile_qr_scan", "android": "https://dc.lft.to/lastmile_qr_scan"}, "fusion_lon": 0.0, "type": "electric_scooter", "bike_id": "31de20ed30e1aced1ba2ea126f985628", "name": "31de20ed30e1aced1ba2ea126f985628"}, {"lon": -77.0705965, "is_disabled": 0, "lat": 38.9010505, "fusion_lat": 0.0, "is_reserved": 0, "rental_uris": {"ios": "https://dc.lft.to/lastmile_qr_scan", "android": "https://dc.lft.to/lastmile_qr_scan"}, "fusion_lon": 0.0, "type": "electric_scooter", "bike_id": "2c1145f7f4fba3f813f643e4c1bbd7b7", "name": "2c1145f7f4fba3f813f643e4c1bbd7b7"}, {"lon": -77.03639866666667, "is_disabled": 0, "lat": 38.92698683333333, "fusion_lat": 0.0, "is_reserved": 0, "rental_uris": {"ios": "https://dc.lft.to/lastmile_qr_scan", "android": "https://dc.lft.to/lastmile_qr_scan"}, "fusion_lon": 0.0, "type": "electric_scooter", "bike_id": "2f393b061037c6809174ec40a74b0cd3", "name": "2f393b061037c6809174ec40a74b0cd3"}, {"lon": -77.03375933333334, "is_disabled": 0, "lat": 38.902893166666665, "fusion_lat": 0.0, "is_reserved": 0, "rental_uris": {"ios": "https://dc.lft.to/lastmile_qr_scan", "android": "https://dc.lft.to/lastmile_qr_scan"}, "fusion_lon": 0.0, "type": "electric_scooter", "bike_id": "30c99aa16ffab8ef4028b45395a23607", "name": "30c99aa16ffab8ef4028b45395a23607"}, {"lon": -76.94638533333334, "is_disabled": 0, "lat": 38.8986055, "fusion_lat": 0.0, "is_reserved": 0, "rental_uris": {"ios": "https://dc.lft.to/lastmile_qr_scan", "android": "https://dc.lft.to/lastmile_qr_scan"}, "fusion_lon": 0.0, "type": "electric_scooter", "bike_id": "677262e651091d1c0ba00a551d3c8168", "name": "677262e651091d1c0ba00a551d3c8168"}, {"lon": -77.0390765, "is_disabled": 0, "lat": 38.92363116666667, "fusion_lat": 0.0, "is_reserved": 0, "rental_uris": {"ios": "https://dc.lft.to/lastmile_qr_scan", "android": "https://dc.lft.to/lastmile_qr_scan"}, "fusion_lon": 0.0, "type": "electric_scooter", "bike_id": "83b0b7d0ab7354a34727917a353ee14e", "name": "83b0b7d0ab7354a34727917a353ee14e"}, {"lon": -77.02005083333333, "is_disabled": 0, "lat": 38.895471666666666, "fusion_lat": 0.0, "is_reserved": 0, "rental_uris": {"ios": "https://dc.lft.to/lastmile_qr_scan", "android": "https://dc.lft.to/lastmile_qr_scan"}, "fusion_lon": 0.0, "type": "electric_scooter", "bike_id": "303c4b73e26768100d1002d038fc83ac", "name": "303c4b73e26768100d1002d038fc83ac"}, {"lon": -77.0448305, "is_disabled": 0, "lat": 38.895191833333335, "fusion_lat": 0.0, "is_reserved": 0, "rental_uris": {"ios": "https://dc.lft.to/lastmile_qr_scan", "android": "https://dc.lft.to/lastmile_qr_scan"}, "fusion_lon": 0.0, "type": "electric_scooter", "bike_id": "ad37e23c22143b8a075f620282742903", "name": "ad37e23c22143b8a075f620282742903"}, {"lon": -77.05028566666667, "is_disabled": 0, "lat": 38.892461, "fusion_lat": 0.0, "is_reserved": 0, "rental_uris": {"ios": "https://dc.lft.to/lastmile_qr_scan", "android": "https://dc.lft.to/lastmile_qr_scan"}, "fusion_lon": 0.0, "type": "electric_scooter", "bike_id": "7f7ea21a8abd9413dd8fdbbaa7547f08", "name": "7f7ea21a8abd9413dd8fdbbaa7547f08"}, {"lon": -77.03985233333333, "is_disabled": 0, "lat": 38.89221966666667, "fusion_lat": 0.0, "is_reserved": 0, "rental_uris": {"ios": "https://dc.lft.to/lastmile_qr_scan", "android": "https://dc.lft.to/lastmile_qr_scan"}, "fusion_lon": 0.0, "type": "electric_scooter", "bike_id": "cd1a37138e484b036bfe19507d2706ab", "name": "cd1a37138e484b036bfe19507d2706ab"}, {"lon": -77.0033655, "is_disabled": 0, "lat": 38.8935455, "fusion_lat": 0.0, "is_reserved": 0, "rental_uris": {"ios": "https://dc.lft.to/lastmile_qr_scan", "android": "https://dc.lft.to/lastmile_qr_scan"}, "fusion_lon": 0.0, "type": "electric_scooter", "bike_id": "9f0bdba94ddc897b02f0b0fb54476b7c", "name": "9f0bdba94ddc897b02f0b0fb54476b7c"}, {"lon": -77.04366083333333, "is_disabled": 0, "lat": 38.892174833333335, "fusion_lat": 0.0, "is_reserved": 0, "rental_uris": {"ios": "https://dc.lft.to/lastmile_qr_scan", "android": "https://dc.lft.to/lastmile_qr_scan"}, "fusion_lon": 0.0, "type": "electric_scooter", "bike_id": "b30486c718742738b37c0aa546ea228e", "name": "b30486c718742738b37c0aa546ea228e"}, {"lon": -77.02199683333333, "is_disabled": 0, "lat": 38.950068333333334, "fusion_lat": 0.0, "is_reserved": 0, "rental_uris": {"ios": "https://dc.lft.to/lastmile_qr_scan", "android": "https://dc.lft.to/lastmile_qr_scan"}, "fusion_lon": 0.0, "type": "electric_scooter", "bike_id": "9c54465d1f2c3d6826738f34f65aa69a", "name": "9c54465d1f2c3d6826738f34f65aa69a"}, {"lon": -76.98237583333334, "is_disabled": 0, "lat": 38.9088845, "fusion_lat": 0.0, "is_reserved": 0, "rental_uris": {"ios": "https://dc.lft.to/lastmile_qr_scan", "android": "https://dc.lft.to/lastmile_qr_scan"}, "fusion_lon": 0.0, "type": "electric_scooter", "bike_id": "dc3ebf59467ce9f021b636b8ebf6d72b", "name": "dc3ebf59467ce9f021b636b8ebf6d72b"}, {"lon": -77.02617583333334, "is_disabled": 0, "lat": 38.907280666666665, "fusion_lat": 0.0, "is_reserved": 0, "rental_uris": {"ios": "https://dc.lft.to/lastmile_qr_scan", "android": "https://dc.lft.to/lastmile_qr_scan"}, "fusion_lon": 0.0, "type": "electric_scooter", "bike_id": "aa5568bd06d0ff434b009926aa7719ef", "name": "aa5568bd06d0ff434b009926aa7719ef"}, {"lon": -77.02761633333333, "is_disabled": 0, "lat": 38.91690033333333, "fusion_lat": 0.0, "is_reserved": 0, "rental_uris": {"ios": "https://dc.lft.to/lastmile_qr_scan", "android": "https://dc.lft.to/lastmile_qr_scan"}, "fusion_lon": 0.0, "type": "electric_scooter", "bike_id": "d99fc7295aec1bbd010acf62b1e059bb", "name": "d99fc7295aec1bbd010acf62b1e059bb"}, {"lon": -77.00711516666667, "is_disabled": 0, "lat": 38.884929166666666, "fusion_lat": 0.0, "is_reserved": 0, "rental_uris": {"ios": "https://dc.lft.to/lastmile_qr_scan", "android": "https://dc.lft.to/lastmile_qr_scan"}, "fusion_lon": 0.0, "type": "electric_scooter", "bike_id": "f43abf3503e83fa4340c74996afeaffc", "name": "f43abf3503e83fa4340c74996afeaffc"}, {"lon": -77.02952983333333, "is_disabled": 0, "lat": 38.91682016666667, "fusion_lat": 0.0, "is_reserved": 0, "rental_uris": {"ios": "https://dc.lft.to/lastmile_qr_scan", "android": "https://dc.lft.to/lastmile_qr_scan"}, "fusion_lon": 0.0, "type": "electric_scooter", "bike_id": "a701e29e5732d14b8e089a199741e79f", "name": "a701e29e5732d14b8e089a199741e79f"}, {"lon": -77.02410833333333, "is_disabled": 0, "lat": 38.913968, "fusion_lat": 0.0, "is_reserved": 0, "rental_uris": {"ios": "https://dc.lft.to/lastmile_qr_scan", "android": "https://dc.lft.to/lastmile_qr_scan"}, "fusion_lon": 0.0, "type": "electric_scooter", "bike_id": "05631be231dd53913a296fc1f2b573d7", "name": "05631be231dd53913a296fc1f2b573d7"}, {"lon": -77.006256, "is_disabled": 0, "lat": 38.87173033333333, "fusion_lat": 0.0, "is_reserved": 0, "rental_uris": {"ios": "https://dc.lft.to/lastmile_qr_scan", "android": "https://dc.lft.to/lastmile_qr_scan"}, "fusion_lon": 0.0, "type": "electric_scooter", "bike_id": "9a7d7440db3a3cdde2e3526950690a48", "name": "9a7d7440db3a3cdde2e3526950690a48"}, {"lon": -77.03172633333334, "is_disabled": 0, "lat": 38.914167, "fusion_lat": 0.0, "is_reserved": 0, "rental_uris": {"ios": "https://dc.lft.to/lastmile_qr_scan", "android": "https://dc.lft.to/lastmile_qr_scan"}, "fusion_lon": 0.0, "type": "electric_scooter", "bike_id": "ae798f0c7e6d74c32f7a91beb432eda7", "name": "ae798f0c7e6d74c32f7a91beb432eda7"}, {"lon": -76.95188016666667, "is_disabled": 0, "lat": 38.89135916666667, "fusion_lat": 0.0, "is_reserved": 0, "rental_uris": {"ios": "https://dc.lft.to/lastmile_qr_scan", "android": "https://dc.lft.to/lastmile_qr_scan"}, "fusion_lon": 0.0, "type": "electric_scooter", "bike_id": "1191ed49a0307e407d1728293bc86a9e", "name": "1191ed49a0307e407d1728293bc86a9e"}, {"lon": -77.0371885, "is_disabled": 0, "lat": 38.903622666666664, "fusion_lat": 0.0, "is_reserved": 0, "rental_uris": {"ios": "https://dc.lft.to/lastmile_qr_scan", "android": "https://dc.lft.to/lastmile_qr_scan"}, "fusion_lon": 0.0, "type": "electric_scooter", "bike_id": "099baa5ccccea398b031e819a5708f92", "name": "099baa5ccccea398b031e819a5708f92"}, {"lon": -77.00932983333334, "is_disabled": 0, "lat": 38.89645933333333, "fusion_lat": 0.0, "is_reserved": 0, "rental_uris": {"ios": "https://dc.lft.to/lastmile_qr_scan", "android": "https://dc.lft.to/lastmile_qr_scan"}, "fusion_lon": 0.0, "type": "electric_scooter", "bike_id": "879f84da4b4c0c8a5c39a58d81310cd7", "name": "879f84da4b4c0c8a5c39a58d81310cd7"}, {"lon": -77.04293683333333, "is_disabled": 0, "lat": 38.906591, "fusion_lat": 0.0, "is_reserved": 0, "rental_uris": {"ios": "https://dc.lft.to/lastmile_qr_scan", "android": "https://dc.lft.to/lastmile_qr_scan"}, "fusion_lon": 0.0, "type": "electric_scooter", "bike_id": "5ef5827907bcc9839e6cff1830d9ca16", "name": "5ef5827907bcc9839e6cff1830d9ca16"}, {"lon": -77.0394965, "is_disabled": 0, "lat": 38.90191183333334, "fusion_lat": 0.0, "is_reserved": 0, "rental_uris": {"ios": "https://dc.lft.to/lastmile_qr_scan", "android": "https://dc.lft.to/lastmile_qr_scan"}, "fusion_lon": 0.0, "type": "electric_bike", "bike_id": "4205ba06ef70c2d9bc43a12de4d72d56", "name": "4205ba06ef70c2d9bc43a12de4d72d56"}, {"lon": -77.01893766666667, "is_disabled": 0, "lat": 38.939852, "fusion_lat": 0.0, "is_reserved": 0, "rental_uris": {"ios": "https://dc.lft.to/lastmile_qr_scan", "android": "https://dc.lft.to/lastmile_qr_scan"}, "fusion_lon": 0.0, "type": "electric_scooter", "bike_id": "1846e3f06fa6c3f1d96d7a69e00c1cce", "name": "1846e3f06fa6c3f1d96d7a69e00c1cce"}, {"lon": -77.04042633333333, "is_disabled": 0, "lat": 38.905672833333334, "fusion_lat": 0.0, "is_reserved": 0, "rental_uris": {"ios": "https://dc.lft.to/lastmile_qr_scan", "android": "https://dc.lft.to/lastmile_qr_scan"}, "fusion_lon": 0.0, "type": "electric_scooter", "bike_id": "2427e2ab7861c28e26c28d29f2c2a480", "name": "2427e2ab7861c28e26c28d29f2c2a480"}, {"lon": -77.05087433333334, "is_disabled": 0, "lat": 38.923384, "fusion_lat": 0.0, "is_reserved": 0, "rental_uris": {"ios": "https://dc.lft.to/lastmile_qr_scan", "android": "https://dc.lft.to/lastmile_qr_scan"}, "fusion_lon": 0.0, "type": "electric_scooter", "bike_id": "3bef9b9b8f723eda0104f17f0d5c54f5", "name": "3bef9b9b8f723eda0104f17f0d5c54f5"}, {"lon": -77.00056116666667, "is_disabled": 0, "lat": 38.876875, "fusion_lat": 0.0, "is_reserved": 0, "rental_uris": {"ios": "https://dc.lft.to/lastmile_qr_scan", "android": "https://dc.lft.to/lastmile_qr_scan"}, "fusion_lon": 0.0, "type": "electric_scooter", "bike_id": "4e6bf6f85fe2d9f8b7da59cd0a501284", "name": "4e6bf6f85fe2d9f8b7da59cd0a501284"}, {"lon": -77.04454766666667, "is_disabled": 0, "lat": 38.89732, "fusion_lat": 0.0, "is_reserved": 0, "rental_uris": {"ios": "https://dc.lft.to/lastmile_qr_scan", "android": "https://dc.lft.to/lastmile_qr_scan"}, "fusion_lon": 0.0, "type": "electric_scooter", "bike_id": "35ef78588cec06271ca18af314de17ac", "name": "35ef78588cec06271ca18af314de17ac"}, {"lon": -77.023881, "is_disabled": 0, "lat": 38.8973325, "fusion_lat": 0.0, "is_reserved": 0, "rental_uris": {"ios": "https://dc.lft.to/lastmile_qr_scan", "android": "https://dc.lft.to/lastmile_qr_scan"}, "fusion_lon": 0.0, "type": "electric_scooter", "bike_id": "b021714912163b06a3cc117ef142b309", "name": "b021714912163b06a3cc117ef142b309"}, {"lon": -77.08704333333333, "is_disabled": 0, "lat": 38.935232, "fusion_lat": 0.0, "is_reserved": 0, "rental_uris": {"ios": "https://dc.lft.to/lastmile_qr_scan", "android": "https://dc.lft.to/lastmile_qr_scan"}, "fusion_lon": 0.0, "type": "electric_scooter", "bike_id": "db6bdd78260e948f5a115135ed491604", "name": "db6bdd78260e948f5a115135ed491604"}, {"lon": -77.0344015, "is_disabled": 0, "lat": 38.9042825, "fusion_lat": 0.0, "is_reserved": 0, "rental_uris": {"ios": "https://dc.lft.to/lastmile_qr_scan", "android": "https://dc.lft.to/lastmile_qr_scan"}, "fusion_lon": 0.0, "type": "electric_scooter", "bike_id": "7dce65ebe4756eaffd69e0fe12479767", "name": "7dce65ebe4756eaffd69e0fe12479767"}, {"lon": -77.0338205, "is_disabled": 0, "lat": 38.92148916666667, "fusion_lat": 0.0, "is_reserved": 0, "rental_uris": {"ios": "https://dc.lft.to/lastmile_qr_scan", "android": "https://dc.lft.to/lastmile_qr_scan"}, "fusion_lon": 0.0, "type": "electric_scooter", "bike_id": "48e7b11b931199079dc79810da7d73f4", "name": "48e7b11b931199079dc79810da7d73f4"}, {"lon": -77.00337416666666, "is_disabled": 0, "lat": 38.893566166666666, "fusion_lat": 0.0, "is_reserved": 0, "rental_uris": {"ios": "https://dc.lft.to/lastmile_qr_scan", "android": "https://dc.lft.to/lastmile_qr_scan"}, "fusion_lon": 0.0, "type": "electric_scooter", "bike_id": "3e7e9839cb96d5c6db9b7339f0f41481", "name": "3e7e9839cb96d5c6db9b7339f0f41481"}, {"lon": -77.06060183333334, "is_disabled": 0, "lat": 38.9433215, "fusion_lat": 0.0, "is_reserved": 0, "rental_uris": {"ios": "https://dc.lft.to/lastmile_qr_scan", "android": "https://dc.lft.to/lastmile_qr_scan"}, "fusion_lon": 0.0, "type": "electric_scooter", "bike_id": "be20674421147e419f0f94faab0aaf8d", "name": "be20674421147e419f0f94faab0aaf8d"}, {"lon": -77.03981, "is_disabled": 0, "lat": 38.90121083333333, "fusion_lat": 0.0, "is_reserved": 0, "rental_uris": {"ios": "https://dc.lft.to/lastmile_qr_scan", "android": "https://dc.lft.to/lastmile_qr_scan"}, "fusion_lon": 0.0, "type": "electric_scooter", "bike_id": "d81cc99fac89bec91db1872502d124d6", "name": "d81cc99fac89bec91db1872502d124d6"}, {"lon": -77.02417183333333, "is_disabled": 0, "lat": 38.91553433333333, "fusion_lat": 0.0, "is_reserved": 0, "rental_uris": {"ios": "https://dc.lft.to/lastmile_qr_scan", "android": "https://dc.lft.to/lastmile_qr_scan"}, "fusion_lon": 0.0, "type": "electric_scooter", "bike_id": "f12e0cdc63e6132781f790fe45da6384", "name": "f12e0cdc63e6132781f790fe45da6384"}, {"lon": -77.02153416666667, "is_disabled": 0, "lat": 38.914041, "fusion_lat": 0.0, "is_reserved": 0, "rental_uris": {"ios": "https://dc.lft.to/lastmile_qr_scan", "android": "https://dc.lft.to/lastmile_qr_scan"}, "fusion_lon": 0.0, "type": "electric_scooter", "bike_id": "47ea8ef2377e5c124a62745aeac94efd", "name": "47ea8ef2377e5c124a62745aeac94efd"}, {"lon": -77.03249916666667, "is_disabled": 0, "lat": 38.905437166666665, "fusion_lat": 0.0, "is_reserved": 0, "rental_uris": {"ios": "https://dc.lft.to/lastmile_qr_scan", "android": "https://dc.lft.to/lastmile_qr_scan"}, "fusion_lon": 0.0, "type": "electric_scooter", "bike_id": "10f29448403f5871f1ed5e2b08de0b7e", "name": "10f29448403f5871f1ed5e2b08de0b7e"}, {"lon": -77.001954, "is_disabled": 0, "lat": 38.901117, "fusion_lat": 0.0, "is_reserved": 0, "rental_uris": {"ios": "https://dc.lft.to/lastmile_qr_scan", "android": "https://dc.lft.to/lastmile_qr_scan"}, "fusion_lon": 0.0, "type": "electric_scooter", "bike_id": "bb906ea671a52489309e8c3a19f3bf1e", "name": "bb906ea671a52489309e8c3a19f3bf1e"}, {"lon": -77.023519, "is_disabled": 0, "lat": 38.90975483333333, "fusion_lat": 0.0, "is_reserved": 0, "rental_uris": {"ios": "https://dc.lft.to/lastmile_qr_scan", "android": "https://dc.lft.to/lastmile_qr_scan"}, "fusion_lon": 0.0, "type": "electric_scooter", "bike_id": "20f74ca2d4703036d220f685cbca1bd2", "name": "20f74ca2d4703036d220f685cbca1bd2"}, {"lon": -77.0245555, "is_disabled": 0, "lat": 38.90863516666667, "fusion_lat": 0.0, "is_reserved": 0, "rental_uris": {"ios": "https://dc.lft.to/lastmile_qr_scan", "android": "https://dc.lft.to/lastmile_qr_scan"}, "fusion_lon": 0.0, "type": "electric_scooter", "bike_id": "094c3533cb1a113cd2b70cdd55e971be", "name": "094c3533cb1a113cd2b70cdd55e971be"}, {"lon": -77.041989, "is_disabled": 0, "lat": 38.9209575, "fusion_lat": 0.0, "is_reserved": 0, "rental_uris": {"ios": "https://dc.lft.to/lastmile_qr_scan", "android": "https://dc.lft.to/lastmile_qr_scan"}, "fusion_lon": 0.0, "type": "electric_scooter", "bike_id": "decb4f807c506e8f2010c37362e9f26f", "name": "decb4f807c506e8f2010c37362e9f26f"}, {"lon": -77.031884, "is_disabled": 0, "lat": 38.920526333333335, "fusion_lat": 0.0, "is_reserved": 0, "rental_uris": {"ios": "https://dc.lft.to/lastmile_qr_scan", "android": "https://dc.lft.to/lastmile_qr_scan"}, "fusion_lon": 0.0, "type": "electric_scooter", "bike_id": "4ef53a6632524e9f9d94f1ad51ca2beb", "name": "4ef53a6632524e9f9d94f1ad51ca2beb"}, {"lon": -76.94639766666667, "is_disabled": 0, "lat": 38.898614333333335, "fusion_lat": 0.0, "is_reserved": 0, "rental_uris": {"ios": "https://dc.lft.to/lastmile_qr_scan", "android": "https://dc.lft.to/lastmile_qr_scan"}, "fusion_lon": 0.0, "type": "electric_scooter", "bike_id": "c163abb72a909bfab0220a6cd68e7f28", "name": "c163abb72a909bfab0220a6cd68e7f28"}, {"lon": -77.03161916666667, "is_disabled": 0, "lat": 38.89230283333333, "fusion_lat": 0.0, "is_reserved": 0, "rental_uris": {"ios": "https://dc.lft.to/lastmile_qr_scan", "android": "https://dc.lft.to/lastmile_qr_scan"}, "fusion_lon": 0.0, "type": "electric_scooter", "bike_id": "566656c4702fab3cb14be21dd1d13351", "name": "566656c4702fab3cb14be21dd1d13351"}, {"lon": -76.9717405, "is_disabled": 0, "lat": 38.8613545, "fusion_lat": 0.0, "is_reserved": 0, "rental_uris": {"ios": "https://dc.lft.to/lastmile_qr_scan", "android": "https://dc.lft.to/lastmile_qr_scan"}, "fusion_lon": 0.0, "type": "electric_scooter", "bike_id": "1423db24f1f430aeb6431182afe25700", "name": "1423db24f1f430aeb6431182afe25700"}, {"lon": -77.07166066666667, "is_disabled": 0, "lat": 38.9382175, "fusion_lat": 0.0, "is_reserved": 0, "rental_uris": {"ios": "https://dc.lft.to/lastmile_qr_scan", "android": "https://dc.lft.to/lastmile_qr_scan"}, "fusion_lon": 0.0, "type": "electric_scooter", "bike_id": "1c769f484eb25178ebc44d1c8924b1ed", "name": "1c769f484eb25178ebc44d1c8924b1ed"}, {"lon": -77.02314, "is_disabled": 0, "lat": 38.92938933333333, "fusion_lat": 0.0, "is_reserved": 0, "rental_uris": {"ios": "https://dc.lft.to/lastmile_qr_scan", "android": "https://dc.lft.to/lastmile_qr_scan"}, "fusion_lon": 0.0, "type": "electric_scooter", "bike_id": "c80bd3b3161bc81121e95d45bfacfe51", "name": "c80bd3b3161bc81121e95d45bfacfe51"}, {"lon": -77.125252, "is_disabled": 0, "lat": 39.0563165, "fusion_lat": 0.0, "is_reserved": 0, "rental_uris": {"ios": "https://dc.lft.to/lastmile_qr_scan", "android": "https://dc.lft.to/lastmile_qr_scan"}, "fusion_lon": 0.0, "type": "electric_bike", "bike_id": "a6357d5e707ad9923c9210f3e2e62b1e", "name": "a6357d5e707ad9923c9210f3e2e62b1e"}, {"lon": -77.06514216666666, "is_disabled": 0, "lat": 38.903946833333336, "fusion_lat": 0.0, "is_reserved": 0, "rental_uris": {"ios": "https://dc.lft.to/lastmile_qr_scan", "android": "https://dc.lft.to/lastmile_qr_scan"}, "fusion_lon": 0.0, "type": "electric_scooter", "bike_id": "476c6a1f176da56083251b71f3107d08", "name": "476c6a1f176da56083251b71f3107d08"}, {"lon": -77.05732883333333, "is_disabled": 0, "lat": 38.9336045, "fusion_lat": 0.0, "is_reserved": 0, "rental_uris": {"ios": "https://dc.lft.to/lastmile_qr_scan", "android": "https://dc.lft.to/lastmile_qr_scan"}, "fusion_lon": 0.0, "type": "electric_scooter", "bike_id": "ac04a8431ebfaa51e639db6e90aa983c", "name": "ac04a8431ebfaa51e639db6e90aa983c"}, {"lon": -77.0415715, "is_disabled": 0, "lat": 38.905568833333334, "fusion_lat": 0.0, "is_reserved": 0, "rental_uris": {"ios": "https://dc.lft.to/lastmile_qr_scan", "android": "https://dc.lft.to/lastmile_qr_scan"}, "fusion_lon": 0.0, "type": "electric_scooter", "bike_id": "b84874600208c48782d60a10df69fdd2", "name": "b84874600208c48782d60a10df69fdd2"}, {"lon": -77.04263633333333, "is_disabled": 0, "lat": 38.92249533333333, "fusion_lat": 0.0, "is_reserved": 0, "rental_uris": {"ios": "https://dc.lft.to/lastmile_qr_scan", "android": "https://dc.lft.to/lastmile_qr_scan"}, "fusion_lon": 0.0, "type": "electric_scooter", "bike_id": "fa585641ad9723c15e1914c5c4b1c1e6", "name": "fa585641ad9723c15e1914c5c4b1c1e6"}, {"lon": -77.02572666666667, "is_disabled": 0, "lat": 38.99710066666667, "fusion_lat": 0.0, "is_reserved": 0, "rental_uris": {"ios": "https://dc.lft.to/lastmile_qr_scan", "android": "https://dc.lft.to/lastmile_qr_scan"}, "fusion_lon": 0.0, "type": "electric_bike", "bike_id": "5d2d511712515443ae5af1a6c5e67c58", "name": "5d2d511712515443ae5af1a6c5e67c58"}, {"lon": -77.0167745, "is_disabled": 0, "lat": 38.92038816666667, "fusion_lat": 0.0, "is_reserved": 0, "rental_uris": {"ios": "https://dc.lft.to/lastmile_qr_scan", "android": "https://dc.lft.to/lastmile_qr_scan"}, "fusion_lon": 0.0, "type": "electric_scooter", "bike_id": "c383be2b9b9db9885da0ea15a3fdf8ac", "name": "c383be2b9b9db9885da0ea15a3fdf8ac"}, {"lon": -77.06127716666667, "is_disabled": 0, "lat": 38.90722916666667, "fusion_lat": 0.0, "is_reserved": 0, "rental_uris": {"ios": "https://dc.lft.to/lastmile_qr_scan", "android": "https://dc.lft.to/lastmile_qr_scan"}, "fusion_lon": 0.0, "type": "electric_scooter", "bike_id": "29d39cd42e9423abd18a86766649583a", "name": "29d39cd42e9423abd18a86766649583a"}, {"lon": -77.04337333333334, "is_disabled": 0, "lat": 38.89693183333333, "fusion_lat": 0.0, "is_reserved": 0, "rental_uris": {"ios": "https://dc.lft.to/lastmile_qr_scan", "android": "https://dc.lft.to/lastmile_qr_scan"}, "fusion_lon": 0.0, "type": "electric_scooter", "bike_id": "e2b3c6b7f71e774958c8e155aef141bc", "name": "e2b3c6b7f71e774958c8e155aef141bc"}, {"lon": -77.03519216666666, "is_disabled": 0, "lat": 38.92236483333333, "fusion_lat": 0.0, "is_reserved": 0, "rental_uris": {"ios": "https://dc.lft.to/lastmile_qr_scan", "android": "https://dc.lft.to/lastmile_qr_scan"}, "fusion_lon": 0.0, "type": "electric_scooter", "bike_id": "ad4e31fe3c17b93291f65873fef2cb7a", "name": "ad4e31fe3c17b93291f65873fef2cb7a"}, {"lon": -76.97856583333333, "is_disabled": 0, "lat": 38.86744983333333, "fusion_lat": 0.0, "is_reserved": 0, "rental_uris": {"ios": "https://dc.lft.to/lastmile_qr_scan", "android": "https://dc.lft.to/lastmile_qr_scan"}, "fusion_lon": 0.0, "type": "electric_scooter", "bike_id": "d0773e9212ab00bd408bb543027c7815", "name": "d0773e9212ab00bd408bb543027c7815"}, {"lon": -77.035646, "is_disabled": 0, "lat": 38.926910166666666, "fusion_lat": 0.0, "is_reserved": 0, "rental_uris": {"ios": "https://dc.lft.to/lastmile_qr_scan", "android": "https://dc.lft.to/lastmile_qr_scan"}, "fusion_lon": 0.0, "type": "electric_scooter", "bike_id": "82a454efa5fb38e2107b9682321f775e", "name": "82a454efa5fb38e2107b9682321f775e"}, {"lon": -77.07885866666666, "is_disabled": 0, "lat": 38.842540666666665, "fusion_lat": 0.0, "is_reserved": 0, "rental_uris": {"ios": "https://dc.lft.to/lastmile_qr_scan", "android": "https://dc.lft.to/lastmile_qr_scan"}, "fusion_lon": 0.0, "type": "electric_bike", "bike_id": "26cc985f64bd22d3860d5d66ad25b9c8", "name": "26cc985f64bd22d3860d5d66ad25b9c8"}, {"lon": -76.9808165, "is_disabled": 0, "lat": 38.926287333333335, "fusion_lat": 0.0, "is_reserved": 0, "rental_uris": {"ios": "https://dc.lft.to/lastmile_qr_scan", "android": "https://dc.lft.to/lastmile_qr_scan"}, "fusion_lon": 0.0, "type": "electric_scooter", "bike_id": "3884637dcf391c5c422949cf4f6edab9", "name": "3884637dcf391c5c422949cf4f6edab9"}, {"lon": -77.03277283333334, "is_disabled": 0, "lat": 38.928134166666666, "fusion_lat": 0.0, "is_reserved": 0, "rental_uris": {"ios": "https://dc.lft.to/lastmile_qr_scan", "android": "https://dc.lft.to/lastmile_qr_scan"}, "fusion_lon": 0.0, "type": "electric_scooter", "bike_id": "6aeb125152cad1016a62e3dd5b7b322e", "name": "6aeb125152cad1016a62e3dd5b7b322e"}, {"lon": -77.05140833333333, "is_disabled": 0, "lat": 38.905438833333335, "fusion_lat": 0.0, "is_reserved": 0, "rental_uris": {"ios": "https://dc.lft.to/lastmile_qr_scan", "android": "https://dc.lft.to/lastmile_qr_scan"}, "fusion_lon": 0.0, "type": "electric_scooter", "bike_id": "46f4ed073d25b41de2e051d9e9c25ea4", "name": "46f4ed073d25b41de2e051d9e9c25ea4"}, {"lon": -77.00112883333334, "is_disabled": 0, "lat": 38.87377633333333, "fusion_lat": 0.0, "is_reserved": 0, "rental_uris": {"ios": "https://dc.lft.to/lastmile_qr_scan", "android": "https://dc.lft.to/lastmile_qr_scan"}, "fusion_lon": 0.0, "type": "electric_scooter", "bike_id": "75b1b5b206690fcbcbd55904b9dc904d", "name": "75b1b5b206690fcbcbd55904b9dc904d"}, {"lon": -77.01222616666666, "is_disabled": 0, "lat": 38.9240185, "fusion_lat": 0.0, "is_reserved": 0, "rental_uris": {"ios": "https://dc.lft.to/lastmile_qr_scan", "android": "https://dc.lft.to/lastmile_qr_scan"}, "fusion_lon": 0.0, "type": "electric_scooter", "bike_id": "1339a84d313f6e41319bc6ae9b856a5d", "name": "1339a84d313f6e41319bc6ae9b856a5d"}, {"lon": -77.0251335, "is_disabled": 0, "lat": 38.919255666666665, "fusion_lat": 0.0, "is_reserved": 0, "rental_uris": {"ios": "https://dc.lft.to/lastmile_qr_scan", "android": "https://dc.lft.to/lastmile_qr_scan"}, "fusion_lon": 0.0, "type": "electric_scooter", "bike_id": "5c4ba87feb9cf1eb6e52db6811522e6b", "name": "5c4ba87feb9cf1eb6e52db6811522e6b"}, {"lon": -77.01103683333334, "is_disabled": 0, "lat": 38.90968516666667, "fusion_lat": 0.0, "is_reserved": 0, "rental_uris": {"ios": "https://dc.lft.to/lastmile_qr_scan", "android": "https://dc.lft.to/lastmile_qr_scan"}, "fusion_lon": 0.0, "type": "electric_scooter", "bike_id": "7dc647d523713c6f576addbb6ed0f51a", "name": "7dc647d523713c6f576addbb6ed0f51a"}, {"lon": -77.0122145, "is_disabled": 0, "lat": 38.900817833333335, "fusion_lat": 0.0, "is_reserved": 0, "rental_uris": {"ios": "https://dc.lft.to/lastmile_qr_scan", "android": "https://dc.lft.to/lastmile_qr_scan"}, "fusion_lon": 0.0, "type": "electric_scooter", "bike_id": "afc8e7842e87e8f6d986e491c8aa7ef8", "name": "afc8e7842e87e8f6d986e491c8aa7ef8"}, {"lon": -76.9999855, "is_disabled": 0, "lat": 38.875008666666666, "fusion_lat": 0.0, "is_reserved": 0, "rental_uris": {"ios": "https://dc.lft.to/lastmile_qr_scan", "android": "https://dc.lft.to/lastmile_qr_scan"}, "fusion_lon": 0.0, "type": "electric_scooter", "bike_id": "c77111d50a95100cda06f329aa277d13", "name": "c77111d50a95100cda06f329aa277d13"}, {"lon": -77.00133166666667, "is_disabled": 0, "lat": 38.892682666666666, "fusion_lat": 0.0, "is_reserved": 0, "rental_uris": {"ios": "https://dc.lft.to/lastmile_qr_scan", "android": "https://dc.lft.to/lastmile_qr_scan"}, "fusion_lon": 0.0, "type": "electric_scooter", "bike_id": "518857435964366d421d10c520414077", "name": "518857435964366d421d10c520414077"}, {"lon": -77.02981133333333, "is_disabled": 0, "lat": 38.92231116666667, "fusion_lat": 0.0, "is_reserved": 0, "rental_uris": {"ios": "https://dc.lft.to/lastmile_qr_scan", "android": "https://dc.lft.to/lastmile_qr_scan"}, "fusion_lon": 0.0, "type": "electric_scooter", "bike_id": "43253e25ea2b47685cdab2509919a29f", "name": "43253e25ea2b47685cdab2509919a29f"}, {"lon": -77.02274033333333, "is_disabled": 0, "lat": 38.925033166666665, "fusion_lat": 0.0, "is_reserved": 0, "rental_uris": {"ios": "https://dc.lft.to/lastmile_qr_scan", "android": "https://dc.lft.to/lastmile_qr_scan"}, "fusion_lon": 0.0, "type": "electric_scooter", "bike_id": "9be984f04040d7f4f3bdf99643573c32", "name": "9be984f04040d7f4f3bdf99643573c32"}, {"lon": -77.0384365, "is_disabled": 0, "lat": 38.902772666666664, "fusion_lat": 0.0, "is_reserved": 0, "rental_uris": {"ios": "https://dc.lft.to/lastmile_qr_scan", "android": "https://dc.lft.to/lastmile_qr_scan"}, "fusion_lon": 0.0, "type": "electric_scooter", "bike_id": "6d98758b5b254c3fcb34287f1d843a3b", "name": "6d98758b5b254c3fcb34287f1d843a3b"}, {"lon": -77.02874916666667, "is_disabled": 0, "lat": 38.900607666666666, "fusion_lat": 0.0, "is_reserved": 0, "rental_uris": {"ios": "https://dc.lft.to/lastmile_qr_scan", "android": "https://dc.lft.to/lastmile_qr_scan"}, "fusion_lon": 0.0, "type": "electric_scooter", "bike_id": "5eb7f5f7b07072f526272b8bff91c5f4", "name": "5eb7f5f7b07072f526272b8bff91c5f4"}, {"lon": -77.034413, "is_disabled": 0, "lat": 38.904841, "fusion_lat": 0.0, "is_reserved": 0, "rental_uris": {"ios": "https://dc.lft.to/lastmile_qr_scan", "android": "https://dc.lft.to/lastmile_qr_scan"}, "fusion_lon": 0.0, "type": "electric_scooter", "bike_id": "fa3d62804461afa6add1e616f41d76e6", "name": "fa3d62804461afa6add1e616f41d76e6"}, {"lon": -77.0229615, "is_disabled": 0, "lat": 38.9170365, "fusion_lat": 0.0, "is_reserved": 0, "rental_uris": {"ios": "https://dc.lft.to/lastmile_qr_scan", "android": "https://dc.lft.to/lastmile_qr_scan"}, "fusion_lon": 0.0, "type": "electric_scooter", "bike_id": "4d2a606139ac69586a416e2af61fa184", "name": "4d2a606139ac69586a416e2af61fa184"}, {"lon": -77.050815, "is_disabled": 0, "lat": 38.90089116666667, "fusion_lat": 0.0, "is_reserved": 0, "rental_uris": {"ios": "https://dc.lft.to/lastmile_qr_scan", "android": "https://dc.lft.to/lastmile_qr_scan"}, "fusion_lon": 0.0, "type": "electric_scooter", "bike_id": "da7f0233d3fc2edd559e3bac34e7c52c", "name": "da7f0233d3fc2edd559e3bac34e7c52c"}, {"lon": -77.00674216666667, "is_disabled": 0, "lat": 38.900083, "fusion_lat": 0.0, "is_reserved": 0, "rental_uris": {"ios": "https://dc.lft.to/lastmile_qr_scan", "android": "https://dc.lft.to/lastmile_qr_scan"}, "fusion_lon": 0.0, "type": "electric_scooter", "bike_id": "8ef1ff9e5e46b88a4c40074ccdfe2853", "name": "8ef1ff9e5e46b88a4c40074ccdfe2853"}, {"lon": -77.04361116666666, "is_disabled": 0, "lat": 38.91114366666667, "fusion_lat": 0.0, "is_reserved": 0, "rental_uris": {"ios": "https://dc.lft.to/lastmile_qr_scan", "android": "https://dc.lft.to/lastmile_qr_scan"}, "fusion_lon": 0.0, "type": "electric_scooter", "bike_id": "6f6f8981fd923dfe98646710e6abf80a", "name": "6f6f8981fd923dfe98646710e6abf80a"}, {"lon": -77.00783916666667, "is_disabled": 0, "lat": 38.90569716666667, "fusion_lat": 0.0, "is_reserved": 0, "rental_uris": {"ios": "https://dc.lft.to/lastmile_qr_scan", "android": "https://dc.lft.to/lastmile_qr_scan"}, "fusion_lon": 0.0, "type": "electric_scooter", "bike_id": "0207cb6245a6663820b6c359fa22e464", "name": "0207cb6245a6663820b6c359fa22e464"}, {"lon": -76.99062366666666, "is_disabled": 0, "lat": 38.8637145, "fusion_lat": 0.0, "is_reserved": 0, "rental_uris": {"ios": "https://dc.lft.to/lastmile_qr_scan", "android": "https://dc.lft.to/lastmile_qr_scan"}, "fusion_lon": 0.0, "type": "electric_scooter", "bike_id": "0e11fbf693d4f1bc6acb26ad883eaf72", "name": "0e11fbf693d4f1bc6acb26ad883eaf72"}, {"lon": -77.03868633333333, "is_disabled": 0, "lat": 38.90805983333333, "fusion_lat": 0.0, "is_reserved": 0, "rental_uris": {"ios": "https://dc.lft.to/lastmile_qr_scan", "android": "https://dc.lft.to/lastmile_qr_scan"}, "fusion_lon": 0.0, "type": "electric_scooter", "bike_id": "022b603b03d442372792df9975ce39d2", "name": "022b603b03d442372792df9975ce39d2"}, {"lon": -77.0238615, "is_disabled": 0, "lat": 38.916693333333335, "fusion_lat": 0.0, "is_reserved": 0, "rental_uris": {"ios": "https://dc.lft.to/lastmile_qr_scan", "android": "https://dc.lft.to/lastmile_qr_scan"}, "fusion_lon": 0.0, "type": "electric_scooter", "bike_id": "1b47005d9cae4f743faf6672e0454cfc", "name": "1b47005d9cae4f743faf6672e0454cfc"}, {"lon": -77.0263255, "is_disabled": 0, "lat": 38.929904, "fusion_lat": 0.0, "is_reserved": 0, "rental_uris": {"ios": "https://dc.lft.to/lastmile_qr_scan", "android": "https://dc.lft.to/lastmile_qr_scan"}, "fusion_lon": 0.0, "type": "electric_scooter", "bike_id": "22205fb09f4b34b2f140b125babe4cee", "name": "22205fb09f4b34b2f140b125babe4cee"}, {"lon": -77.01816533333333, "is_disabled": 0, "lat": 38.922312166666664, "fusion_lat": 0.0, "is_reserved": 0, "rental_uris": {"ios": "https://dc.lft.to/lastmile_qr_scan", "android": "https://dc.lft.to/lastmile_qr_scan"}, "fusion_lon": 0.0, "type": "electric_scooter", "bike_id": "113b8c18ea3f9144a88d1cf40d569af0", "name": "113b8c18ea3f9144a88d1cf40d569af0"}, {"lon": -77.04115716666666, "is_disabled": 0, "lat": 38.901328166666666, "fusion_lat": 0.0, "is_reserved": 0, "rental_uris": {"ios": "https://dc.lft.to/lastmile_qr_scan", "android": "https://dc.lft.to/lastmile_qr_scan"}, "fusion_lon": 0.0, "type": "electric_scooter", "bike_id": "5a5c32afff89c832c19fef7fce1e57b4", "name": "5a5c32afff89c832c19fef7fce1e57b4"}, {"lon": -77.02219066666666, "is_disabled": 0, "lat": 38.90375483333333, "fusion_lat": 0.0, "is_reserved": 0, "rental_uris": {"ios": "https://dc.lft.to/lastmile_qr_scan", "android": "https://dc.lft.to/lastmile_qr_scan"}, "fusion_lon": 0.0, "type": "electric_scooter", "bike_id": "0f4bec89d503d8cb524103ccf0675ab3", "name": "0f4bec89d503d8cb524103ccf0675ab3"}, {"lon": -77.04118283333334, "is_disabled": 0, "lat": 38.933545333333335, "fusion_lat": 0.0, "is_reserved": 0, "rental_uris": {"ios": "https://dc.lft.to/lastmile_qr_scan", "android": "https://dc.lft.to/lastmile_qr_scan"}, "fusion_lon": 0.0, "type": "electric_scooter", "bike_id": "aa43ca3cc07d64da3b06a5882f184124", "name": "aa43ca3cc07d64da3b06a5882f184124"}, {"lon": -77.02583383333334, "is_disabled": 0, "lat": 38.898397833333334, "fusion_lat": 0.0, "is_reserved": 0, "rental_uris": {"ios": "https://dc.lft.to/lastmile_qr_scan", "android": "https://dc.lft.to/lastmile_qr_scan"}, "fusion_lon": 0.0, "type": "electric_scooter", "bike_id": "c9405b854c0acf51e75b921c1fd803a1", "name": "c9405b854c0acf51e75b921c1fd803a1"}, {"lon": -77.04611116666666, "is_disabled": 0, "lat": 38.905775166666665, "fusion_lat": 0.0, "is_reserved": 0, "rental_uris": {"ios": "https://dc.lft.to/lastmile_qr_scan", "android": "https://dc.lft.to/lastmile_qr_scan"}, "fusion_lon": 0.0, "type": "electric_scooter", "bike_id": "6489b0983e79642b86ba7fc64e1c8b56", "name": "6489b0983e79642b86ba7fc64e1c8b56"}, {"lon": -77.12977666666667, "is_disabled": 0, "lat": 38.79985166666667, "fusion_lat": 0.0, "is_reserved": 0, "rental_uris": {"ios": "https://dc.lft.to/lastmile_qr_scan", "android": "https://dc.lft.to/lastmile_qr_scan"}, "fusion_lon": 0.0, "type": "electric_bike", "bike_id": "35c2363dff62f67f769afd215d971e10", "name": "35c2363dff62f67f769afd215d971e10"}, {"lon": -76.9859315, "is_disabled": 0, "lat": 38.858685666666666, "fusion_lat": 0.0, "is_reserved": 0, "rental_uris": {"ios": "https://dc.lft.to/lastmile_qr_scan", "android": "https://dc.lft.to/lastmile_qr_scan"}, "fusion_lon": 0.0, "type": "electric_scooter", "bike_id": "696c6b6c6e2561baeb31ce3c74863e56", "name": "696c6b6c6e2561baeb31ce3c74863e56"}, {"lon": -77.22897866666666, "is_disabled": 0, "lat": 38.9095865, "fusion_lat": 0.0, "is_reserved": 0, "rental_uris": {"ios": "https://dc.lft.to/lastmile_qr_scan", "android": "https://dc.lft.to/lastmile_qr_scan"}, "fusion_lon": 0.0, "type": "electric_bike", "bike_id": "1e86721b7b4fc586ff08fef8975a573f", "name": "1e86721b7b4fc586ff08fef8975a573f"}, {"lon": -76.97842466666667, "is_disabled": 0, "lat": 38.89845433333333, "fusion_lat": 0.0, "is_reserved": 0, "rental_uris": {"ios": "https://dc.lft.to/lastmile_qr_scan", "android": "https://dc.lft.to/lastmile_qr_scan"}, "fusion_lon": 0.0, "type": "electric_scooter", "bike_id": "1af627c02c14692597720487dae2c542", "name": "1af627c02c14692597720487dae2c542"}, {"lon": -77.04819133333334, "is_disabled": 0, "lat": 38.90962066666667, "fusion_lat": 0.0, "is_reserved": 0, "rental_uris": {"ios": "https://dc.lft.to/lastmile_qr_scan", "android": "https://dc.lft.to/lastmile_qr_scan"}, "fusion_lon": 0.0, "type": "electric_scooter", "bike_id": "06182ddda418d8d42eddd1b6313f4bce", "name": "06182ddda418d8d42eddd1b6313f4bce"}, {"lon": -77.01761766666667, "is_disabled": 0, "lat": 38.9025955, "fusion_lat": 0.0, "is_reserved": 0, "rental_uris": {"ios": "https://dc.lft.to/lastmile_qr_scan", "android": "https://dc.lft.to/lastmile_qr_scan"}, "fusion_lon": 0.0, "type": "electric_scooter", "bike_id": "65e70a4557264be22a6de0d1085e5b56", "name": "65e70a4557264be22a6de0d1085e5b56"}, {"lon": -77.05062833333334, "is_disabled": 0, "lat": 38.905351, "fusion_lat": 0.0, "is_reserved": 0, "rental_uris": {"ios": "https://dc.lft.to/lastmile_qr_scan", "android": "https://dc.lft.to/lastmile_qr_scan"}, "fusion_lon": 0.0, "type": "electric_scooter", "bike_id": "b05adace8eee4c018451044d83412c4f", "name": "b05adace8eee4c018451044d83412c4f"}, {"lon": -77.00711683333333, "is_disabled": 0, "lat": 38.88491366666667, "fusion_lat": 0.0, "is_reserved": 0, "rental_uris": {"ios": "https://dc.lft.to/lastmile_qr_scan", "android": "https://dc.lft.to/lastmile_qr_scan"}, "fusion_lon": 0.0, "type": "electric_scooter", "bike_id": "309228382ccbbc55b9321290280e4b0d", "name": "309228382ccbbc55b9321290280e4b0d"}, {"lon": -77.03937583333334, "is_disabled": 0, "lat": 38.89855983333333, "fusion_lat": 0.0, "is_reserved": 0, "rental_uris": {"ios": "https://dc.lft.to/lastmile_qr_scan", "android": "https://dc.lft.to/lastmile_qr_scan"}, "fusion_lon": 0.0, "type": "electric_scooter", "bike_id": "cb25fef5f07f02edd945c1ed97ebeccf", "name": "cb25fef5f07f02edd945c1ed97ebeccf"}, {"lon": -77.01848366666667, "is_disabled": 0, "lat": 38.90966866666667, "fusion_lat": 0.0, "is_reserved": 0, "rental_uris": {"ios": "https://dc.lft.to/lastmile_qr_scan", "android": "https://dc.lft.to/lastmile_qr_scan"}, "fusion_lon": 0.0, "type": "electric_scooter", "bike_id": "b40bf6ac4c33d9df52a3b5f3a1417b45", "name": "b40bf6ac4c33d9df52a3b5f3a1417b45"}, {"lon": -77.01169933333334, "is_disabled": 0, "lat": 38.89641566666667, "fusion_lat": 0.0, "is_reserved": 0, "rental_uris": {"ios": "https://dc.lft.to/lastmile_qr_scan", "android": "https://dc.lft.to/lastmile_qr_scan"}, "fusion_lon": 0.0, "type": "electric_scooter", "bike_id": "55a659af075ab7afb254fe48846c7de4", "name": "55a659af075ab7afb254fe48846c7de4"}, {"lon": -76.98879433333333, "is_disabled": 0, "lat": 38.86655066666667, "fusion_lat": 0.0, "is_reserved": 0, "rental_uris": {"ios": "https://dc.lft.to/lastmile_qr_scan", "android": "https://dc.lft.to/lastmile_qr_scan"}, "fusion_lon": 0.0, "type": "electric_scooter", "bike_id": "6ade7cffd0f098d4b6bc7492d1c93d6d", "name": "6ade7cffd0f098d4b6bc7492d1c93d6d"}, {"lon": -77.0386345, "is_disabled": 0, "lat": 38.90715383333333, "fusion_lat": 0.0, "is_reserved": 0, "rental_uris": {"ios": "https://dc.lft.to/lastmile_qr_scan", "android": "https://dc.lft.to/lastmile_qr_scan"}, "fusion_lon": 0.0, "type": "electric_scooter", "bike_id": "2e98686c72b9f27599e780173041e16f", "name": "2e98686c72b9f27599e780173041e16f"}, {"lon": -77.04281366666666, "is_disabled": 0, "lat": 38.9140505, "fusion_lat": 0.0, "is_reserved": 0, "rental_uris": {"ios": "https://dc.lft.to/lastmile_qr_scan", "android": "https://dc.lft.to/lastmile_qr_scan"}, "fusion_lon": 0.0, "type": "electric_scooter", "bike_id": "6a6dabddb4defc5627e11592c41ec8e2", "name": "6a6dabddb4defc5627e11592c41ec8e2"}, {"lon": -77.03787366666667, "is_disabled": 0, "lat": 38.930242, "fusion_lat": 0.0, "is_reserved": 0, "rental_uris": {"ios": "https://dc.lft.to/lastmile_qr_scan", "android": "https://dc.lft.to/lastmile_qr_scan"}, "fusion_lon": 0.0, "type": "electric_scooter", "bike_id": "90c2e8655226692487d672acfe6885c1", "name": "90c2e8655226692487d672acfe6885c1"}, {"lon": -77.041155, "is_disabled": 0, "lat": 38.910314166666666, "fusion_lat": 0.0, "is_reserved": 0, "rental_uris": {"ios": "https://dc.lft.to/lastmile_qr_scan", "android": "https://dc.lft.to/lastmile_qr_scan"}, "fusion_lon": 0.0, "type": "electric_scooter", "bike_id": "760eba06c1153ded358791b2584269e9", "name": "760eba06c1153ded358791b2584269e9"}, {"lon": -76.981788, "is_disabled": 0, "lat": 38.86959133333333, "fusion_lat": 0.0, "is_reserved": 0, "rental_uris": {"ios": "https://dc.lft.to/lastmile_qr_scan", "android": "https://dc.lft.to/lastmile_qr_scan"}, "fusion_lon": 0.0, "type": "electric_scooter", "bike_id": "d7abe0326c6cda75853e28e578a06697", "name": "d7abe0326c6cda75853e28e578a06697"}, {"lon": -77.0309355, "is_disabled": 0, "lat": 38.91701716666667, "fusion_lat": 0.0, "is_reserved": 0, "rental_uris": {"ios": "https://dc.lft.to/lastmile_qr_scan", "android": "https://dc.lft.to/lastmile_qr_scan"}, "fusion_lon": 0.0, "type": "electric_scooter", "bike_id": "53332eb76647e9de1899fd9007447e53", "name": "53332eb76647e9de1899fd9007447e53"}, {"lon": -77.03927133333333, "is_disabled": 0, "lat": 38.926352, "fusion_lat": 0.0, "is_reserved": 0, "rental_uris": {"ios": "https://dc.lft.to/lastmile_qr_scan", "android": "https://dc.lft.to/lastmile_qr_scan"}, "fusion_lon": 0.0, "type": "electric_scooter", "bike_id": "ab98459922f95d602414fbb74bc73510", "name": "ab98459922f95d602414fbb74bc73510"}, {"lon": -77.03333366666666, "is_disabled": 0, "lat": 38.8983625, "fusion_lat": 0.0, "is_reserved": 0, "rental_uris": {"ios": "https://dc.lft.to/lastmile_qr_scan", "android": "https://dc.lft.to/lastmile_qr_scan"}, "fusion_lon": 0.0, "type": "electric_scooter", "bike_id": "46b6a55ed4e9e91d07a403895863d432", "name": "46b6a55ed4e9e91d07a403895863d432"}, {"lon": -77.008189, "is_disabled": 0, "lat": 38.87665633333334, "fusion_lat": 0.0, "is_reserved": 0, "rental_uris": {"ios": "https://dc.lft.to/lastmile_qr_scan", "android": "https://dc.lft.to/lastmile_qr_scan"}, "fusion_lon": 0.0, "type": "electric_scooter", "bike_id": "b1540430b9da271cb4fef24430ae0c54", "name": "b1540430b9da271cb4fef24430ae0c54"}, {"lon": -77.021996, "is_disabled": 0, "lat": 38.9112195, "fusion_lat": 0.0, "is_reserved": 0, "rental_uris": {"ios": "https://dc.lft.to/lastmile_qr_scan", "android": "https://dc.lft.to/lastmile_qr_scan"}, "fusion_lon": 0.0, "type": "electric_scooter", "bike_id": "3a50d2ecb4cac6356d942a53b8618f3b", "name": "3a50d2ecb4cac6356d942a53b8618f3b"}, {"lon": -77.01917333333333, "is_disabled": 0, "lat": 38.91723016666667, "fusion_lat": 0.0, "is_reserved": 0, "rental_uris": {"ios": "https://dc.lft.to/lastmile_qr_scan", "android": "https://dc.lft.to/lastmile_qr_scan"}, "fusion_lon": 0.0, "type": "electric_scooter", "bike_id": "1141f1920068ec32c37057c44736760f", "name": "1141f1920068ec32c37057c44736760f"}, {"lon": -77.06331633333333, "is_disabled": 0, "lat": 38.92107016666667, "fusion_lat": 0.0, "is_reserved": 0, "rental_uris": {"ios": "https://dc.lft.to/lastmile_qr_scan", "android": "https://dc.lft.to/lastmile_qr_scan"}, "fusion_lon": 0.0, "type": "electric_scooter", "bike_id": "cf7d01e90e6d23fc8ef6516c38c4c379", "name": "cf7d01e90e6d23fc8ef6516c38c4c379"}, {"lon": -77.0409275, "is_disabled": 0, "lat": 38.917293666666666, "fusion_lat": 0.0, "is_reserved": 0, "rental_uris": {"ios": "https://dc.lft.to/lastmile_qr_scan", "android": "https://dc.lft.to/lastmile_qr_scan"}, "fusion_lon": 0.0, "type": "electric_scooter", "bike_id": "43dbe3b5c7f89da82cab81766349cf0a", "name": "43dbe3b5c7f89da82cab81766349cf0a"}, {"lon": -77.02827433333333, "is_disabled": 0, "lat": 38.89992, "fusion_lat": 0.0, "is_reserved": 0, "rental_uris": {"ios": "https://dc.lft.to/lastmile_qr_scan", "android": "https://dc.lft.to/lastmile_qr_scan"}, "fusion_lon": 0.0, "type": "electric_scooter", "bike_id": "7e850621675c81e8f2552477dbbb1ca1", "name": "7e850621675c81e8f2552477dbbb1ca1"}, {"lon": -76.965262, "is_disabled": 0, "lat": 38.876240833333334, "fusion_lat": 0.0, "is_reserved": 0, "rental_uris": {"ios": "https://dc.lft.to/lastmile_qr_scan", "android": "https://dc.lft.to/lastmile_qr_scan"}, "fusion_lon": 0.0, "type": "electric_scooter", "bike_id": "19e393fe694c715a59374e7d3b71e464", "name": "19e393fe694c715a59374e7d3b71e464"}, {"lon": -77.01211916666666, "is_disabled": 0, "lat": 38.874705166666665, "fusion_lat": 0.0, "is_reserved": 0, "rental_uris": {"ios": "https://dc.lft.to/lastmile_qr_scan", "android": "https://dc.lft.to/lastmile_qr_scan"}, "fusion_lon": 0.0, "type": "electric_scooter", "bike_id": "f49f0c5e21521af1739b0a26c77d7962", "name": "f49f0c5e21521af1739b0a26c77d7962"}, {"lon": -77.02047283333333, "is_disabled": 0, "lat": 38.92086066666667, "fusion_lat": 0.0, "is_reserved": 0, "rental_uris": {"ios": "https://dc.lft.to/lastmile_qr_scan", "android": "https://dc.lft.to/lastmile_qr_scan"}, "fusion_lon": 0.0, "type": "electric_scooter", "bike_id": "cdd9574e5917ea2c60f6444ac30aada1", "name": "cdd9574e5917ea2c60f6444ac30aada1"}, {"lon": -77.04160416666667, "is_disabled": 0, "lat": 38.907411833333335, "fusion_lat": 0.0, "is_reserved": 0, "rental_uris": {"ios": "https://dc.lft.to/lastmile_qr_scan", "android": "https://dc.lft.to/lastmile_qr_scan"}, "fusion_lon": 0.0, "type": "electric_scooter", "bike_id": "a5a90d78585bbf5db055192cfab56fca", "name": "a5a90d78585bbf5db055192cfab56fca"}, {"lon": -76.99702416666666, "is_disabled": 0, "lat": 38.90789633333333, "fusion_lat": 0.0, "is_reserved": 0, "rental_uris": {"ios": "https://dc.lft.to/lastmile_qr_scan", "android": "https://dc.lft.to/lastmile_qr_scan"}, "fusion_lon": 0.0, "type": "electric_scooter", "bike_id": "924131916240993a779d08700aa35c39", "name": "924131916240993a779d08700aa35c39"}, {"lon": -77.0416455, "is_disabled": 0, "lat": 38.9014565, "fusion_lat": 0.0, "is_reserved": 0, "rental_uris": {"ios": "https://dc.lft.to/lastmile_qr_scan", "android": "https://dc.lft.to/lastmile_qr_scan"}, "fusion_lon": 0.0, "type": "electric_scooter", "bike_id": "f8707616aa63bf2827e1dad7f3a8d800", "name": "f8707616aa63bf2827e1dad7f3a8d800"}, {"lon": -77.033514, "is_disabled": 0, "lat": 38.92872366666667, "fusion_lat": 0.0, "is_reserved": 0, "rental_uris": {"ios": "https://dc.lft.to/lastmile_qr_scan", "android": "https://dc.lft.to/lastmile_qr_scan"}, "fusion_lon": 0.0, "type": "electric_scooter", "bike_id": "cdfbfae8ee1154a8ded556ae34d43157", "name": "cdfbfae8ee1154a8ded556ae34d43157"}, {"lon": -77.02214883333333, "is_disabled": 0, "lat": 38.89528766666667, "fusion_lat": 0.0, "is_reserved": 0, "rental_uris": {"ios": "https://dc.lft.to/lastmile_qr_scan", "android": "https://dc.lft.to/lastmile_qr_scan"}, "fusion_lon": 0.0, "type": "electric_scooter", "bike_id": "b2930bd0e3265b4b43cec9f02652ffde", "name": "b2930bd0e3265b4b43cec9f02652ffde"}, {"lon": -77.02027066666666, "is_disabled": 0, "lat": 38.924234166666665, "fusion_lat": 0.0, "is_reserved": 0, "rental_uris": {"ios": "https://dc.lft.to/lastmile_qr_scan", "android": "https://dc.lft.to/lastmile_qr_scan"}, "fusion_lon": 0.0, "type": "electric_scooter", "bike_id": "bd43dc835c1a73b2bd6a56e1986db8d5", "name": "bd43dc835c1a73b2bd6a56e1986db8d5"}, {"lon": -77.04202816666667, "is_disabled": 0, "lat": 38.90575283333333, "fusion_lat": 0.0, "is_reserved": 0, "rental_uris": {"ios": "https://dc.lft.to/lastmile_qr_scan", "android": "https://dc.lft.to/lastmile_qr_scan"}, "fusion_lon": 0.0, "type": "electric_scooter", "bike_id": "9f611f306ef428341f45cd8059050066", "name": "9f611f306ef428341f45cd8059050066"}, {"lon": -76.9702885, "is_disabled": 0, "lat": 38.873617, "fusion_lat": 0.0, "is_reserved": 0, "rental_uris": {"ios": "https://dc.lft.to/lastmile_qr_scan", "android": "https://dc.lft.to/lastmile_qr_scan"}, "fusion_lon": 0.0, "type": "electric_scooter", "bike_id": "80ba49469b0b8d34badb794cb2d52d9c", "name": "80ba49469b0b8d34badb794cb2d52d9c"}, {"lon": -77.02718166666666, "is_disabled": 0, "lat": 38.918152, "fusion_lat": 0.0, "is_reserved": 0, "rental_uris": {"ios": "https://dc.lft.to/lastmile_qr_scan", "android": "https://dc.lft.to/lastmile_qr_scan"}, "fusion_lon": 0.0, "type": "electric_scooter", "bike_id": "03a9f844151996679d5d22876c9d7376", "name": "03a9f844151996679d5d22876c9d7376"}, {"lon": -77.04478266666666, "is_disabled": 0, "lat": 38.93130033333333, "fusion_lat": 0.0, "is_reserved": 0, "rental_uris": {"ios": "https://dc.lft.to/lastmile_qr_scan", "android": "https://dc.lft.to/lastmile_qr_scan"}, "fusion_lon": 0.0, "type": "electric_scooter", "bike_id": "b1b251d897c56b40d431d225ec973e61", "name": "b1b251d897c56b40d431d225ec973e61"}, {"lon": -76.93370383333334, "is_disabled": 0, "lat": 38.899145833333336, "fusion_lat": 0.0, "is_reserved": 0, "rental_uris": {"ios": "https://dc.lft.to/lastmile_qr_scan", "android": "https://dc.lft.to/lastmile_qr_scan"}, "fusion_lon": 0.0, "type": "electric_scooter", "bike_id": "6db4f0e899d9f8e8aea2e6a556f303b8", "name": "6db4f0e899d9f8e8aea2e6a556f303b8"}, {"lon": -76.98378766666667, "is_disabled": 0, "lat": 38.89971283333333, "fusion_lat": 0.0, "is_reserved": 0, "rental_uris": {"ios": "https://dc.lft.to/lastmile_qr_scan", "android": "https://dc.lft.to/lastmile_qr_scan"}, "fusion_lon": 0.0, "type": "electric_scooter", "bike_id": "e3ae14696ef157f743eca8f1a3df13b5", "name": "e3ae14696ef157f743eca8f1a3df13b5"}, {"lon": -77.00241983333333, "is_disabled": 0, "lat": 38.875013, "fusion_lat": 0.0, "is_reserved": 0, "rental_uris": {"ios": "https://dc.lft.to/lastmile_qr_scan", "android": "https://dc.lft.to/lastmile_qr_scan"}, "fusion_lon": 0.0, "type": "electric_scooter", "bike_id": "df9ef700582aaec932487804ab679780", "name": "df9ef700582aaec932487804ab679780"}, {"lon": -77.0154545, "is_disabled": 0, "lat": 38.88566083333333, "fusion_lat": 0.0, "is_reserved": 0, "rental_uris": {"ios": "https://dc.lft.to/lastmile_qr_scan", "android": "https://dc.lft.to/lastmile_qr_scan"}, "fusion_lon": 0.0, "type": "electric_scooter", "bike_id": "ed3208d77483a469ee5a44d496440e35", "name": "ed3208d77483a469ee5a44d496440e35"}, {"lon": -76.96058883333333, "is_disabled": 0, "lat": 38.8832025, "fusion_lat": 0.0, "is_reserved": 0, "rental_uris": {"ios": "https://dc.lft.to/lastmile_qr_scan", "android": "https://dc.lft.to/lastmile_qr_scan"}, "fusion_lon": 0.0, "type": "electric_bike", "bike_id": "4b330d1196ed1f614c0aa3b7d9886e86", "name": "4b330d1196ed1f614c0aa3b7d9886e86"}, {"lon": -77.0018255, "is_disabled": 0, "lat": 38.84459183333333, "fusion_lat": 0.0, "is_reserved": 0, "rental_uris": {"ios": "https://dc.lft.to/lastmile_qr_scan", "android": "https://dc.lft.to/lastmile_qr_scan"}, "fusion_lon": 0.0, "type": "electric_bike", "bike_id": "96bf3fcbb40d3d46ab50b732b0f36175", "name": "96bf3fcbb40d3d46ab50b732b0f36175"}, {"lon": -77.01583183333334, "is_disabled": 0, "lat": 38.915722833333334, "fusion_lat": 0.0, "is_reserved": 0, "rental_uris": {"ios": "https://dc.lft.to/lastmile_qr_scan", "android": "https://dc.lft.to/lastmile_qr_scan"}, "fusion_lon": 0.0, "type": "electric_scooter", "bike_id": "c4717e7eee78b1316cfc8c9cd758a6c0", "name": "c4717e7eee78b1316cfc8c9cd758a6c0"}, {"lon": -77.03834866666666, "is_disabled": 0, "lat": 38.921615, "fusion_lat": 0.0, "is_reserved": 0, "rental_uris": {"ios": "https://dc.lft.to/lastmile_qr_scan", "android": "https://dc.lft.to/lastmile_qr_scan"}, "fusion_lon": 0.0, "type": "electric_scooter", "bike_id": "f2dac9d67352cb21f03e605c0ff495c7", "name": "f2dac9d67352cb21f03e605c0ff495c7"}, {"lon": -77.02561516666667, "is_disabled": 0, "lat": 38.91910516666667, "fusion_lat": 0.0, "is_reserved": 0, "rental_uris": {"ios": "https://dc.lft.to/lastmile_qr_scan", "android": "https://dc.lft.to/lastmile_qr_scan"}, "fusion_lon": 0.0, "type": "electric_scooter", "bike_id": "316c2100061df74b4cd15857bbdb177e", "name": "316c2100061df74b4cd15857bbdb177e"}, {"lon": -77.0036605, "is_disabled": 0, "lat": 38.911025333333335, "fusion_lat": 0.0, "is_reserved": 0, "rental_uris": {"ios": "https://dc.lft.to/lastmile_qr_scan", "android": "https://dc.lft.to/lastmile_qr_scan"}, "fusion_lon": 0.0, "type": "electric_scooter", "bike_id": "2104c9cfbbc02343d31624dcf9f8e3e0", "name": "2104c9cfbbc02343d31624dcf9f8e3e0"}, {"lon": -77.04490883333334, "is_disabled": 0, "lat": 38.89961983333333, "fusion_lat": 0.0, "is_reserved": 0, "rental_uris": {"ios": "https://dc.lft.to/lastmile_qr_scan", "android": "https://dc.lft.to/lastmile_qr_scan"}, "fusion_lon": 0.0, "type": "electric_scooter", "bike_id": "2dfe1e9b53ea06b610efb993584b62c2", "name": "2dfe1e9b53ea06b610efb993584b62c2"}, {"lon": -77.023082, "is_disabled": 0, "lat": 38.917075833333335, "fusion_lat": 0.0, "is_reserved": 0, "rental_uris": {"ios": "https://dc.lft.to/lastmile_qr_scan", "android": "https://dc.lft.to/lastmile_qr_scan"}, "fusion_lon": 0.0, "type": "electric_scooter", "bike_id": "c26f6641e3ca3f19ba53daadbc33907a", "name": "c26f6641e3ca3f19ba53daadbc33907a"}, {"lon": -77.02449366666667, "is_disabled": 0, "lat": 38.91832516666667, "fusion_lat": 0.0, "is_reserved": 0, "rental_uris": {"ios": "https://dc.lft.to/lastmile_qr_scan", "android": "https://dc.lft.to/lastmile_qr_scan"}, "fusion_lon": 0.0, "type": "electric_scooter", "bike_id": "41981982f9abafce8fd5fe85c30f0d19", "name": "41981982f9abafce8fd5fe85c30f0d19"}, {"lon": -77.029654, "is_disabled": 0, "lat": 38.927489, "fusion_lat": 0.0, "is_reserved": 0, "rental_uris": {"ios": "https://dc.lft.to/lastmile_qr_scan", "android": "https://dc.lft.to/lastmile_qr_scan"}, "fusion_lon": 0.0, "type": "electric_scooter", "bike_id": "81b282f2238499d034531fb0773d2921", "name": "81b282f2238499d034531fb0773d2921"}, {"lon": -77.00577716666666, "is_disabled": 0, "lat": 38.90033866666667, "fusion_lat": 0.0, "is_reserved": 0, "rental_uris": {"ios": "https://dc.lft.to/lastmile_qr_scan", "android": "https://dc.lft.to/lastmile_qr_scan"}, "fusion_lon": 0.0, "type": "electric_scooter", "bike_id": "e8de90d075df1de309982432419eb6c3", "name": "e8de90d075df1de309982432419eb6c3"}, {"lon": -77.036677, "is_disabled": 0, "lat": 38.922596166666665, "fusion_lat": 0.0, "is_reserved": 0, "rental_uris": {"ios": "https://dc.lft.to/lastmile_qr_scan", "android": "https://dc.lft.to/lastmile_qr_scan"}, "fusion_lon": 0.0, "type": "electric_scooter", "bike_id": "5e780e37a6f7fb82ccde219ae6c13955", "name": "5e780e37a6f7fb82ccde219ae6c13955"}, {"lon": -77.0220135, "is_disabled": 0, "lat": 38.91125233333333, "fusion_lat": 0.0, "is_reserved": 0, "rental_uris": {"ios": "https://dc.lft.to/lastmile_qr_scan", "android": "https://dc.lft.to/lastmile_qr_scan"}, "fusion_lon": 0.0, "type": "electric_scooter", "bike_id": "06a19e27d2e1d6c6ccffea26b44ea23a", "name": "06a19e27d2e1d6c6ccffea26b44ea23a"}, {"lon": -76.99631633333334, "is_disabled": 0, "lat": 38.90056516666667, "fusion_lat": 0.0, "is_reserved": 0, "rental_uris": {"ios": "https://dc.lft.to/lastmile_qr_scan", "android": "https://dc.lft.to/lastmile_qr_scan"}, "fusion_lon": 0.0, "type": "electric_scooter", "bike_id": "95f3367897619ea8ecb30c6b3e6886cc", "name": "95f3367897619ea8ecb30c6b3e6886cc"}, {"lon": -77.03476933333333, "is_disabled": 0, "lat": 38.90877316666667, "fusion_lat": 0.0, "is_reserved": 0, "rental_uris": {"ios": "https://dc.lft.to/lastmile_qr_scan", "android": "https://dc.lft.to/lastmile_qr_scan"}, "fusion_lon": 0.0, "type": "electric_scooter", "bike_id": "a32e655572c60d518f7ae09e0f7a158e", "name": "a32e655572c60d518f7ae09e0f7a158e"}, {"lon": -77.01781233333334, "is_disabled": 0, "lat": 38.8771145, "fusion_lat": 0.0, "is_reserved": 0, "rental_uris": {"ios": "https://dc.lft.to/lastmile_qr_scan", "android": "https://dc.lft.to/lastmile_qr_scan"}, "fusion_lon": 0.0, "type": "electric_scooter", "bike_id": "c40b1f92a05312741a31aa7343a0f472", "name": "c40b1f92a05312741a31aa7343a0f472"}, {"lon": -77.03187033333333, "is_disabled": 0, "lat": 38.917407, "fusion_lat": 0.0, "is_reserved": 0, "rental_uris": {"ios": "https://dc.lft.to/lastmile_qr_scan", "android": "https://dc.lft.to/lastmile_qr_scan"}, "fusion_lon": 0.0, "type": "electric_scooter", "bike_id": "27c45dff9f8b707bb3a88a6eb2478746", "name": "27c45dff9f8b707bb3a88a6eb2478746"}, {"lon": -76.99736033333333, "is_disabled": 0, "lat": 39.0423215, "fusion_lat": 0.0, "is_reserved": 0, "rental_uris": {"ios": "https://dc.lft.to/lastmile_qr_scan", "android": "https://dc.lft.to/lastmile_qr_scan"}, "fusion_lon": 0.0, "type": "electric_bike", "bike_id": "c4fe362d009c3c784d1749263762eecc", "name": "c4fe362d009c3c784d1749263762eecc"}, {"lon": -77.04538133333334, "is_disabled": 0, "lat": 38.900672166666666, "fusion_lat": 0.0, "is_reserved": 0, "rental_uris": {"ios": "https://dc.lft.to/lastmile_qr_scan", "android": "https://dc.lft.to/lastmile_qr_scan"}, "fusion_lon": 0.0, "type": "electric_scooter", "bike_id": "90a16ff1bf2b4e3c46db85e50dd6b923", "name": "90a16ff1bf2b4e3c46db85e50dd6b923"}, {"lon": -77.01196083333333, "is_disabled": 0, "lat": 38.9156795, "fusion_lat": 0.0, "is_reserved": 0, "rental_uris": {"ios": "https://dc.lft.to/lastmile_qr_scan", "android": "https://dc.lft.to/lastmile_qr_scan"}, "fusion_lon": 0.0, "type": "electric_scooter", "bike_id": "47489848bd4800b378cad17223a62030", "name": "47489848bd4800b378cad17223a62030"}, {"lon": -77.032944, "is_disabled": 0, "lat": 38.923484, "fusion_lat": 0.0, "is_reserved": 0, "rental_uris": {"ios": "https://dc.lft.to/lastmile_qr_scan", "android": "https://dc.lft.to/lastmile_qr_scan"}, "fusion_lon": 0.0, "type": "electric_scooter", "bike_id": "2911e84ed9634678c3e295e6e6e4dc81", "name": "2911e84ed9634678c3e295e6e6e4dc81"}, {"lon": -76.95592233333333, "is_disabled": 0, "lat": 38.88766433333333, "fusion_lat": 0.0, "is_reserved": 0, "rental_uris": {"ios": "https://dc.lft.to/lastmile_qr_scan", "android": "https://dc.lft.to/lastmile_qr_scan"}, "fusion_lon": 0.0, "type": "electric_scooter", "bike_id": "016f0ec45b741ddbaa686951884b5bd2", "name": "016f0ec45b741ddbaa686951884b5bd2"}, {"lon": -77.0260675, "is_disabled": 0, "lat": 38.917158666666666, "fusion_lat": 0.0, "is_reserved": 0, "rental_uris": {"ios": "https://dc.lft.to/lastmile_qr_scan", "android": "https://dc.lft.to/lastmile_qr_scan"}, "fusion_lon": 0.0, "type": "electric_scooter", "bike_id": "c0c1c99aa9b7d753ac11e757fd8b8d3f", "name": "c0c1c99aa9b7d753ac11e757fd8b8d3f"}, {"lon": -77.03642483333333, "is_disabled": 0, "lat": 38.9174815, "fusion_lat": 0.0, "is_reserved": 0, "rental_uris": {"ios": "https://dc.lft.to/lastmile_qr_scan", "android": "https://dc.lft.to/lastmile_qr_scan"}, "fusion_lon": 0.0, "type": "electric_scooter", "bike_id": "290b74e76855666ef2d063c3d6d49716", "name": "290b74e76855666ef2d063c3d6d49716"}, {"lon": -77.00408433333334, "is_disabled": 0, "lat": 38.905735166666666, "fusion_lat": 0.0, "is_reserved": 0, "rental_uris": {"ios": "https://dc.lft.to/lastmile_qr_scan", "android": "https://dc.lft.to/lastmile_qr_scan"}, "fusion_lon": 0.0, "type": "electric_scooter", "bike_id": "f8574f2e10c6df37883ab97c7f35adbb", "name": "f8574f2e10c6df37883ab97c7f35adbb"}, {"lon": -76.98716533333334, "is_disabled": 0, "lat": 38.866271, "fusion_lat": 0.0, "is_reserved": 0, "rental_uris": {"ios": "https://dc.lft.to/lastmile_qr_scan", "android": "https://dc.lft.to/lastmile_qr_scan"}, "fusion_lon": 0.0, "type": "electric_scooter", "bike_id": "cb9910d1281577d68b0e95d1321ed47b", "name": "cb9910d1281577d68b0e95d1321ed47b"}, {"lon": -77.04897283333334, "is_disabled": 0, "lat": 38.90084516666667, "fusion_lat": 0.0, "is_reserved": 0, "rental_uris": {"ios": "https://dc.lft.to/lastmile_qr_scan", "android": "https://dc.lft.to/lastmile_qr_scan"}, "fusion_lon": 0.0, "type": "electric_scooter", "bike_id": "42a5a5bae35c006d3e7b7f8b7fa40740", "name": "42a5a5bae35c006d3e7b7f8b7fa40740"}, {"lon": -77.0328895, "is_disabled": 0, "lat": 38.91976966666667, "fusion_lat": 0.0, "is_reserved": 0, "rental_uris": {"ios": "https://dc.lft.to/lastmile_qr_scan", "android": "https://dc.lft.to/lastmile_qr_scan"}, "fusion_lon": 0.0, "type": "electric_scooter", "bike_id": "3e3e33ccab3f7ccb4337f2cedc9da922", "name": "3e3e33ccab3f7ccb4337f2cedc9da922"}, {"lon": -77.07058633333334, "is_disabled": 0, "lat": 38.89654066666667, "fusion_lat": 0.0, "is_reserved": 0, "rental_uris": {"ios": "https://dc.lft.to/lastmile_qr_scan", "android": "https://dc.lft.to/lastmile_qr_scan"}, "fusion_lon": 0.0, "type": "electric_scooter", "bike_id": "987b54d73771ff60699f44d7b7c34dc7", "name": "987b54d73771ff60699f44d7b7c34dc7"}, {"lon": -77.0255615, "is_disabled": 0, "lat": 38.99710483333333, "fusion_lat": 0.0, "is_reserved": 0, "rental_uris": {"ios": "https://dc.lft.to/lastmile_qr_scan", "android": "https://dc.lft.to/lastmile_qr_scan"}, "fusion_lon": 0.0, "type": "electric_bike", "bike_id": "ba72c196b81a5e4dc851675ea83f1035", "name": "ba72c196b81a5e4dc851675ea83f1035"}, {"lon": -77.052118, "is_disabled": 0, "lat": 38.92481033333333, "fusion_lat": 0.0, "is_reserved": 0, "rental_uris": {"ios": "https://dc.lft.to/lastmile_qr_scan", "android": "https://dc.lft.to/lastmile_qr_scan"}, "fusion_lon": 0.0, "type": "electric_scooter", "bike_id": "ff6fc3a6b64bc19fadc48f291331d265", "name": "ff6fc3a6b64bc19fadc48f291331d265"}, {"lon": -77.01138, "is_disabled": 0, "lat": 38.9117245, "fusion_lat": 0.0, "is_reserved": 0, "rental_uris": {"ios": "https://dc.lft.to/lastmile_qr_scan", "android": "https://dc.lft.to/lastmile_qr_scan"}, "fusion_lon": 0.0, "type": "electric_scooter", "bike_id": "ea6ac28ce21f14a34b384be319126a9a", "name": "ea6ac28ce21f14a34b384be319126a9a"}, {"lon": -77.00585, "is_disabled": 0, "lat": 38.8756365, "fusion_lat": 0.0, "is_reserved": 0, "rental_uris": {"ios": "https://dc.lft.to/lastmile_qr_scan", "android": "https://dc.lft.to/lastmile_qr_scan"}, "fusion_lon": 0.0, "type": "electric_scooter", "bike_id": "f3b0f67632ce812852c0a2b527bf39cb", "name": "f3b0f67632ce812852c0a2b527bf39cb"}, {"lon": -77.0273585, "is_disabled": 0, "lat": 38.897361, "fusion_lat": 0.0, "is_reserved": 0, "rental_uris": {"ios": "https://dc.lft.to/lastmile_qr_scan", "android": "https://dc.lft.to/lastmile_qr_scan"}, "fusion_lon": 0.0, "type": "electric_scooter", "bike_id": "1e94dda4c081039e42047667c93d6124", "name": "1e94dda4c081039e42047667c93d6124"}, {"lon": -77.02061683333334, "is_disabled": 0, "lat": 38.89986666666667, "fusion_lat": 0.0, "is_reserved": 0, "rental_uris": {"ios": "https://dc.lft.to/lastmile_qr_scan", "android": "https://dc.lft.to/lastmile_qr_scan"}, "fusion_lon": 0.0, "type": "electric_scooter", "bike_id": "7e037bf230614fef32e29d78bbf7fe80", "name": "7e037bf230614fef32e29d78bbf7fe80"}, {"lon": -77.03856683333333, "is_disabled": 0, "lat": 38.91280016666666, "fusion_lat": 0.0, "is_reserved": 0, "rental_uris": {"ios": "https://dc.lft.to/lastmile_qr_scan", "android": "https://dc.lft.to/lastmile_qr_scan"}, "fusion_lon": 0.0, "type": "electric_scooter", "bike_id": "dfe8aaae34d1c6cb3d76774dd4044b90", "name": "dfe8aaae34d1c6cb3d76774dd4044b90"}, {"lon": -77.05085466666667, "is_disabled": 0, "lat": 38.92336133333333, "fusion_lat": 0.0, "is_reserved": 0, "rental_uris": {"ios": "https://dc.lft.to/lastmile_qr_scan", "android": "https://dc.lft.to/lastmile_qr_scan"}, "fusion_lon": 0.0, "type": "electric_scooter", "bike_id": "de07416e226bd578d14722e2f35dd098", "name": "de07416e226bd578d14722e2f35dd098"},