{"data": {"bikes": [{"is_disabled": 0, "fusion_lon": 0.0, "fusion_lat": 0.0, "lat": 38.9143095, "type": "electric_scooter", "lon": -77.03472166666667, "bike_id": "6a0a5ca69db3e7e246ecc39fa555327d", "rental_uris": {"android": "https://dc.lft.to/lastmile_qr_scan", "ios": "https://dc.lft.to/lastmile_qr_scan"}, "name": "6a0a5ca69db3e7e246ecc39fa555327d", "is_reserved": 0}, {"is_disabled": 0, "fusion_lon": 0.0, "fusion_lat": 0.0, "lat": 38.93088516666667, "type": "electric_scooter", "lon": -77.072659, "bike_id": "1d8458c5447a502e64a48f124dd317c6", "rental_uris": {"android": "https://dc.lft.to/lastmile_qr_scan", "ios": "https://dc.lft.to/lastmile_qr_scan"}, "name": "1d8458c5447a502e64a48f124dd317c6", "is_reserved": 0}, {"is_disabled": 0, "fusion_lon": 0.0, "fusion_lat": 0.0, "lat": 38.91408966666667, "type": "electric_scooter", "lon": -77.01883483333333, "bike_id": "0147b8682df9a03012628bf419e05a54", "rental_uris": {"android": "https://dc.lft.to/lastmile_qr_scan", "ios": "https://dc.lft.to/lastmile_qr_scan"}, "name": "0147b8682df9a03012628bf419e05a54", "is_reserved": 0}, {"is_disabled": 0, "fusion_lon": 0.0, "fusion_lat": 0.0, "lat": 38.903187333333335, "type": "electric_scooter", "lon": -77.02210266666667, "bike_id": "32fc6bf04a65ebef9986e23a0ac8c152", "rental_uris": {"android": "https://dc.lft.to/lastmile_qr_scan", "ios": "https://dc.lft.to/lastmile_qr_scan"}, "name": "32fc6bf04a65ebef9986e23a0ac8c152", "is_reserved": 0}, {"is_disabled": 0, "fusion_lon": 0.0, "fusion_lat": 0.0, "lat": 38.90680316666667, "type": "electric_scooter", "lon": -77.06340433333334, "bike_id": "f098e2617ce5e734e1c551b3bd66c182", "rental_uris": {"android": "https://dc.lft.to/lastmile_qr_scan", "ios": "https://dc.lft.to/lastmile_qr_scan"}, "name": "f098e2617ce5e734e1c551b3bd66c182", "is_reserved": 0}, {"is_disabled": 0, "fusion_lon": 0.0, "fusion_lat": 0.0, "lat": 38.92404833333333, "type": "electric_scooter", "lon": -77.0354965, "bike_id": "39a0960922c50c81598594e039660c9c", "rental_uris": {"android": "https://dc.lft.to/lastmile_qr_scan", "ios": "https://dc.lft.to/lastmile_qr_scan"}, "name": "39a0960922c50c81598594e039660c9c", "is_reserved": 0}, {"is_disabled": 0, "fusion_lon": 0.0, "fusion_lat": 0.0, "lat": 38.8820805, "type": "electric_scooter", "lon": -76.9269975, "bike_id": "f80c437e301fbe638a6ae1c2222e6a82", "rental_uris": {"android": "https://dc.lft.to/lastmile_qr_scan", "ios": "https://dc.lft.to/lastmile_qr_scan"}, "name": "f80c437e301fbe638a6ae1c2222e6a82", "is_reserved": 0}, {"is_disabled": 0, "fusion_lon": 0.0, "fusion_lat": 0.0, "lat": 38.8748755, "type": "electric_scooter", "lon": -77.00114033333334, "bike_id": "30f5f64a35fd844a42d3378c95d2959d", "rental_uris": {"android": "https://dc.lft.to/lastmile_qr_scan", "ios": "https://dc.lft.to/lastmile_qr_scan"}, "name": "30f5f64a35fd844a42d3378c95d2959d", "is_reserved": 0}, {"is_disabled": 0, "fusion_lon": 0.0, "fusion_lat": 0.0, "lat": 38.88412566666667, "type": "electric_scooter", "lon": -76.95406333333334, "bike_id": "3fbf3b0f1a25f4f2a8c37e536a2f0e8d", "rental_uris": {"android": "https://dc.lft.to/lastmile_qr_scan", "ios": "https://dc.lft.to/lastmile_qr_scan"}, "name": "3fbf3b0f1a25f4f2a8c37e536a2f0e8d", "is_reserved": 0}, {"is_disabled": 0, "fusion_lon": 0.0, "fusion_lat": 0.0, "lat": 38.87797116666667, "type": "electric_scooter", "lon": -77.01741566666666, "bike_id": "c5e29f4a83b201bbe9bf72b4619bc48c", "rental_uris": {"android": "https://dc.lft.to/lastmile_qr_scan", "ios": "https://dc.lft.to/lastmile_qr_scan"}, "name": "c5e29f4a83b201bbe9bf72b4619bc48c", "is_reserved": 0}, {"is_disabled": 0, "fusion_lon": 0.0, "fusion_lat": 0.0, "lat": 39.08835033333333, "type": "electric_bike", "lon": -77.17802733333333, "bike_id": "55f049a888a5818293186b626e4ec4ec", "rental_uris": {"android": "https://dc.lft.to/lastmile_qr_scan", "ios": "https://dc.lft.to/lastmile_qr_scan"}, "name": "55f049a888a5818293186b626e4ec4ec", "is_reserved": 0}, {"is_disabled": 0, "fusion_lon": 0.0, "fusion_lat": 0.0, "lat": 38.897339, "type": "electric_scooter", "lon": -77.03195566666666, "bike_id": "ef3f70ebe589a616a1cc9b6db234ba87", "rental_uris": {"android": "https://dc.lft.to/lastmile_qr_scan", "ios": "https://dc.lft.to/lastmile_qr_scan"}, "name": "ef3f70ebe589a616a1cc9b6db234ba87", "is_reserved": 0}, {"is_disabled": 0, "fusion_lon": 0.0, "fusion_lat": 0.0, "lat": 38.90119283333333, "type": "electric_scooter", "lon": -77.039987, "bike_id": "858339c52c7e146d68a54519f735eb9a", "rental_uris": {"android": "https://dc.lft.to/lastmile_qr_scan", "ios": "https://dc.lft.to/lastmile_qr_scan"}, "name": "858339c52c7e146d68a54519f735eb9a", "is_reserved": 0}, {"is_disabled": 0, "fusion_lon": 0.0, "fusion_lat": 0.0, "lat": 38.907081833333336, "type": "electric_scooter", "lon": -77.02718883333333, "bike_id": "713e01a8bc710e3e8e9acaa1a287f349", "rental_uris": {"android": "https://dc.lft.to/lastmile_qr_scan", "ios": "https://dc.lft.to/lastmile_qr_scan"}, "name": "713e01a8bc710e3e8e9acaa1a287f349", "is_reserved": 0}, {"is_disabled": 0, "fusion_lon": 0.0, "fusion_lat": 0.0, "lat": 38.90178933333333, "type": "electric_scooter", "lon": -77.05018833333334, "bike_id": "88c1faa330e4bf8706a4563e81fd79be", "rental_uris": {"android": "https://dc.lft.to/lastmile_qr_scan", "ios": "https://dc.lft.to/lastmile_qr_scan"}, "name": "88c1faa330e4bf8706a4563e81fd79be", "is_reserved": 0}, {"is_disabled": 0, "fusion_lon": 0.0, "fusion_lat": 0.0, "lat": 38.95776633333333, "type": "electric_scooter", "lon": -77.02792266666667, "bike_id": "1f7d55e80a72a0f95949e5473fe8ca7c", "rental_uris": {"android": "https://dc.lft.to/lastmile_qr_scan", "ios": "https://dc.lft.to/lastmile_qr_scan"}, "name": "1f7d55e80a72a0f95949e5473fe8ca7c", "is_reserved": 0}, {"is_disabled": 0, "fusion_lon": 0.0, "fusion_lat": 0.0, "lat": 38.9030345, "type": "electric_scooter", "lon": -77.02896633333333, "bike_id": "d967c8220f500a32cdc1b8196612cadf", "rental_uris": {"android": "https://dc.lft.to/lastmile_qr_scan", "ios": "https://dc.lft.to/lastmile_qr_scan"}, "name": "d967c8220f500a32cdc1b8196612cadf", "is_reserved": 0}, {"is_disabled": 0, "fusion_lon": 0.0, "fusion_lat": 0.0, "lat": 38.90442866666667, "type": "electric_scooter", "lon": -77.0612065, "bike_id": "c1b535628958418285dbb5f32ba97cea", "rental_uris": {"android": "https://dc.lft.to/lastmile_qr_scan", "ios": "https://dc.lft.to/lastmile_qr_scan"}, "name": "c1b535628958418285dbb5f32ba97cea", "is_reserved": 0}, {"is_disabled": 0, "fusion_lon": 0.0, "fusion_lat": 0.0, "lat": 38.92366533333333, "type": "electric_scooter", "lon": -77.05032533333333, "bike_id": "144b1af74263203a4d8ddc11cffc2d4a", "rental_uris": {"android": "https://dc.lft.to/lastmile_qr_scan", "ios": "https://dc.lft.to/lastmile_qr_scan"}, "name": "144b1af74263203a4d8ddc11cffc2d4a", "is_reserved": 0}, {"is_disabled": 0, "fusion_lon": 0.0, "fusion_lat": 0.0, "lat": 38.929554833333334, "type": "electric_scooter", "lon": -77.023221, "bike_id": "8c9073ad2d2065584dc063dbeea84b9d", "rental_uris": {"android": "https://dc.lft.to/lastmile_qr_scan", "ios": "https://dc.lft.to/lastmile_qr_scan"}, "name": "8c9073ad2d2065584dc063dbeea84b9d", "is_reserved": 0}, {"is_disabled": 0, "fusion_lon": 0.0, "fusion_lat": 0.0, "lat": 38.965591333333336, "type": "electric_bike", "lon": -77.02302683333333, "bike_id": "33cb578b058b70630e3a89e403765a7b", "rental_uris": {"android": "https://dc.lft.to/lastmile_qr_scan", "ios": "https://dc.lft.to/lastmile_qr_scan"}, "name": "33cb578b058b70630e3a89e403765a7b", "is_reserved": 0}, {"is_disabled": 0, "fusion_lon": 0.0, "fusion_lat": 0.0, "lat": 38.894105, "type": "electric_scooter", "lon": -77.02154916666667, "bike_id": "0d98c9391def40e98881f234d81e956a", "rental_uris": {"android": "https://dc.lft.to/lastmile_qr_scan", "ios": "https://dc.lft.to/lastmile_qr_scan"}, "name": "0d98c9391def40e98881f234d81e956a", "is_reserved": 0}, {"is_disabled": 0, "fusion_lon": 0.0, "fusion_lat": 0.0, "lat": 39.0037455, "type": "electric_bike", "lon": -77.01293716666666, "bike_id": "690e6bfb658b96c546656ed8fd5ff9ef", "rental_uris": {"android": "https://dc.lft.to/lastmile_qr_scan", "ios": "https://dc.lft.to/lastmile_qr_scan"}, "name": "690e6bfb658b96c546656ed8fd5ff9ef", "is_reserved": 0}, {"is_disabled": 0, "fusion_lon": 0.0, "fusion_lat": 0.0, "lat": 38.923041833333336, "type": "electric_scooter", "lon": -77.03105316666667, "bike_id": "d2c06a461e49745a36ffbe9981911dd8", "rental_uris": {"android": "https://dc.lft.to/lastmile_qr_scan", "ios": "https://dc.lft.to/lastmile_qr_scan"}, "name": "d2c06a461e49745a36ffbe9981911dd8", "is_reserved": 0}, {"is_disabled": 0, "fusion_lon": 0.0, "fusion_lat": 0.0, "lat": 38.9180075, "type": "electric_scooter", "lon": -77.0343185, "bike_id": "30f48406352a5c31b4fdb9b09168a330", "rental_uris": {"android": "https://dc.lft.to/lastmile_qr_scan", "ios": "https://dc.lft.to/lastmile_qr_scan"}, "name": "30f48406352a5c31b4fdb9b09168a330", "is_reserved": 0}, {"is_disabled": 0, "fusion_lon": 0.0, "fusion_lat": 0.0, "lat": 38.91165683333333, "type": "electric_scooter", "lon": -77.0416255, "bike_id": "eef5a9402050441fd0be9320a067ae3c", "rental_uris": {"android": "https://dc.lft.to/lastmile_qr_scan", "ios": "https://dc.lft.to/lastmile_qr_scan"}, "name": "eef5a9402050441fd0be9320a067ae3c", "is_reserved": 0}, {"is_disabled": 0, "fusion_lon": 0.0, "fusion_lat": 0.0, "lat": 38.899966666666664, "type": "electric_scooter", "lon": -77.02672316666667, "bike_id": "ab836c19fcdcc5057c4b86898720d18c", "rental_uris": {"android": "https://dc.lft.to/lastmile_qr_scan", "ios": "https://dc.lft.to/lastmile_qr_scan"}, "name": "ab836c19fcdcc5057c4b86898720d18c", "is_reserved": 0}, {"is_disabled": 0, "fusion_lon": 0.0, "fusion_lat": 0.0, "lat": 38.921662833333336, "type": "electric_scooter", "lon": -77.03215033333333, "bike_id": "9bdb5cae9959b74058fef0acd93234f9", "rental_uris": {"android": "https://dc.lft.to/lastmile_qr_scan", "ios": "https://dc.lft.to/lastmile_qr_scan"}, "name": "9bdb5cae9959b74058fef0acd93234f9", "is_reserved": 0}, {"is_disabled": 0, "fusion_lon": 0.0, "fusion_lat": 0.0, "lat": 38.949802, "type": "electric_scooter", "lon": -77.02704516666667, "bike_id": "dae895e1612ee19ccd5ce18296b7d4f6", "rental_uris": {"android": "https://dc.lft.to/lastmile_qr_scan", "ios": "https://dc.lft.to/lastmile_qr_scan"}, "name": "dae895e1612ee19ccd5ce18296b7d4f6", "is_reserved": 0}, {"is_disabled": 0, "fusion_lon": 0.0, "fusion_lat": 0.0, "lat": 38.91642816666667, "type": "electric_scooter", "lon": -77.022826, "bike_id": "b76f9380e5cbd69b1c11dd9c4f80f349", "rental_uris": {"android": "https://dc.lft.to/lastmile_qr_scan", "ios": "https://dc.lft.to/lastmile_qr_scan"}, "name": "b76f9380e5cbd69b1c11dd9c4f80f349", "is_reserved": 0}, {"is_disabled": 0, "fusion_lon": 0.0, "fusion_lat": 0.0, "lat": 38.920573166666664, "type": "electric_scooter", "lon": -77.043587, "bike_id": "eb27ae05c8fd8a1df4bf1757c59cfc64", "rental_uris": {"android": "https://dc.lft.to/lastmile_qr_scan", "ios": "https://dc.lft.to/lastmile_qr_scan"}, "name": "eb27ae05c8fd8a1df4bf1757c59cfc64", "is_reserved": 0}, {"is_disabled": 0, "fusion_lon": 0.0, "fusion_lat": 0.0, "lat": 38.911091666666664, "type": "electric_scooter", "lon": -77.00421433333334, "bike_id": "d04daa823472b56acdadf4938fa7a66f", "rental_uris": {"android": "https://dc.lft.to/lastmile_qr_scan", "ios": "https://dc.lft.to/lastmile_qr_scan"}, "name": "d04daa823472b56acdadf4938fa7a66f", "is_reserved": 0}, {"is_disabled": 0, "fusion_lon": 0.0, "fusion_lat": 0.0, "lat": 38.949829666666666, "type": "electric_scooter", "lon": -77.02704266666667, "bike_id": "38573678ca23b3f0a9667247482a33ba", "rental_uris": {"android": "https://dc.lft.to/lastmile_qr_scan", "ios": "https://dc.lft.to/lastmile_qr_scan"}, "name": "38573678ca23b3f0a9667247482a33ba", "is_reserved": 0}, {"is_disabled": 0, "fusion_lon": 0.0, "fusion_lat": 0.0, "lat": 38.8931685, "type": "electric_scooter", "lon": -77.02131716666666, "bike_id": "b12da192df0fb0cf3fc16cb27265b919", "rental_uris": {"android": "https://dc.lft.to/lastmile_qr_scan", "ios": "https://dc.lft.to/lastmile_qr_scan"}, "name": "b12da192df0fb0cf3fc16cb27265b919", "is_reserved": 0}, {"is_disabled": 0, "fusion_lon": 0.0, "fusion_lat": 0.0, "lat": 38.895274, "type": "electric_scooter", "lon": -77.03349466666667, "bike_id": "d588a6bc06fc7b1225ff93c90c2c22d5", "rental_uris": {"android": "https://dc.lft.to/lastmile_qr_scan", "ios": "https://dc.lft.to/lastmile_qr_scan"}, "name": "d588a6bc06fc7b1225ff93c90c2c22d5", "is_reserved": 0}, {"is_disabled": 0, "fusion_lon": 0.0, "fusion_lat": 0.0, "lat": 38.962205166666664, "type": "electric_scooter", "lon": -77.02800366666666, "bike_id": "b3b53d43a9c874136e63e21791db3f2d", "rental_uris": {"android": "https://dc.lft.to/lastmile_qr_scan", "ios": "https://dc.lft.to/lastmile_qr_scan"}, "name": "b3b53d43a9c874136e63e21791db3f2d", "is_reserved": 0}, {"is_disabled": 0, "fusion_lon": 0.0, "fusion_lat": 0.0, "lat": 38.858078166666665, "type": "electric_scooter", "lon": -76.98963533333334, "bike_id": "0b8462e2ec1a988a7b8821cb294f3011", "rental_uris": {"android": "https://dc.lft.to/lastmile_qr_scan", "ios": "https://dc.lft.to/lastmile_qr_scan"}, "name": "0b8462e2ec1a988a7b8821cb294f3011", "is_reserved": 0}, {"is_disabled": 0, "fusion_lon": 0.0, "fusion_lat": 0.0, "lat": 38.86514316666667, "type": "electric_scooter", "lon": -76.9732655, "bike_id": "18dc6912755eb294a9df030016a9ae4d", "rental_uris": {"android": "https://dc.lft.to/lastmile_qr_scan", "ios": "https://dc.lft.to/lastmile_qr_scan"}, "name": "18dc6912755eb294a9df030016a9ae4d", "is_reserved": 0}, {"is_disabled": 0, "fusion_lon": 0.0, "fusion_lat": 0.0, "lat": 38.86044783333333, "type": "electric_scooter", "lon": -76.98376883333333, "bike_id": "67375892490004e0b62a5b1232c2ced7", "rental_uris": {"android": "https://dc.lft.to/lastmile_qr_scan", "ios": "https://dc.lft.to/lastmile_qr_scan"}, "name": "67375892490004e0b62a5b1232c2ced7", "is_reserved": 0}, {"is_disabled": 0, "fusion_lon": 0.0, "fusion_lat": 0.0, "lat": 38.961164, "type": "electric_scooter", "lon": -77.02818833333333, "bike_id": "a3ba431b030bc6758e8be3dd905ddf1e", "rental_uris": {"android": "https://dc.lft.to/lastmile_qr_scan", "ios": "https://dc.lft.to/lastmile_qr_scan"}, "name": "a3ba431b030bc6758e8be3dd905ddf1e", "is_reserved": 0}, {"is_disabled": 0, "fusion_lon": 0.0, "fusion_lat": 0.0, "lat": 38.92087266666667, "type": "electric_scooter", "lon": -77.01780033333333, "bike_id": "2cdf7f395bd2c756097c26fb32d0a58a", "rental_uris": {"android": "https://dc.lft.to/lastmile_qr_scan", "ios": "https://dc.lft.to/lastmile_qr_scan"}, "name": "2cdf7f395bd2c756097c26fb32d0a58a", "is_reserved": 0}, {"is_disabled": 0, "fusion_lon": 0.0, "fusion_lat": 0.0, "lat": 38.93126433333333, "type": "electric_scooter", "lon": -77.02800733333333, "bike_id": "d876e1e9747d1d3b888ddc2a3f1e0643", "rental_uris": {"android": "https://dc.lft.to/lastmile_qr_scan", "ios": "https://dc.lft.to/lastmile_qr_scan"}, "name": "d876e1e9747d1d3b888ddc2a3f1e0643", "is_reserved": 0}, {"is_disabled": 0, "fusion_lon": 0.0, "fusion_lat": 0.0, "lat": 38.776186833333334, "type": "electric_bike", "lon": -77.08353983333333, "bike_id": "dec470e98226b6a19f6e2444a4bfe367", "rental_uris": {"android": "https://dc.lft.to/lastmile_qr_scan", "ios": "https://dc.lft.to/lastmile_qr_scan"}, "name": "dec470e98226b6a19f6e2444a4bfe367", "is_reserved": 0}, {"is_disabled": 0, "fusion_lon": 0.0, "fusion_lat": 0.0, "lat": 38.893885, "type": "electric_scooter", "lon": -76.95003766666666, "bike_id": "7608b3e17cf2d5fefa6739839075dcd1", "rental_uris": {"android": "https://dc.lft.to/lastmile_qr_scan", "ios": "https://dc.lft.to/lastmile_qr_scan"}, "name": "7608b3e17cf2d5fefa6739839075dcd1", "is_reserved": 0}, {"is_disabled": 0, "fusion_lon": 0.0, "fusion_lat": 0.0, "lat": 38.887400666666665, "type": "electric_scooter", "lon": -77.01435633333334, "bike_id": "73613a690f7ae57c8400aed74f6409e5", "rental_uris": {"android": "https://dc.lft.to/lastmile_qr_scan", "ios": "https://dc.lft.to/lastmile_qr_scan"}, "name": "73613a690f7ae57c8400aed74f6409e5", "is_reserved": 0}, {"is_disabled": 0, "fusion_lon": 0.0, "fusion_lat": 0.0, "lat": 38.9345565, "type": "electric_scooter", "lon": -77.03054883333333, "bike_id": "72cdd6d592c6ff0f885d9c39aedf7792", "rental_uris": {"android": "https://dc.lft.to/lastmile_qr_scan", "ios": "https://dc.lft.to/lastmile_qr_scan"}, "name": "72cdd6d592c6ff0f885d9c39aedf7792", "is_reserved": 0}, {"is_disabled": 0, "fusion_lon": 0.0, "fusion_lat": 0.0, "lat": 38.8813675, "type": "electric_scooter", "lon": -77.027062, "bike_id": "9a5ff08387634b4e7ede0d15cde5564e", "rental_uris": {"android": "https://dc.lft.to/lastmile_qr_scan", "ios": "https://dc.lft.to/lastmile_qr_scan"}, "name": "9a5ff08387634b4e7ede0d15cde5564e", "is_reserved": 0}, {"is_disabled": 0, "fusion_lon": 0.0, "fusion_lat": 0.0, "lat": 38.94597533333334, "type": "electric_bike", "lon": -77.344083, "bike_id": "c85bdbef42ef3ec12ad6a29bffebd250", "rental_uris": {"android": "https://dc.lft.to/lastmile_qr_scan", "ios": "https://dc.lft.to/lastmile_qr_scan"}, "name": "c85bdbef42ef3ec12ad6a29bffebd250", "is_reserved": 0}, {"is_disabled": 0, "fusion_lon": 0.0, "fusion_lat": 0.0, "lat": 38.877453833333334, "type": "electric_scooter", "lon": -77.00581633333333, "bike_id": "15a601af612a14d2df5189e62fb744c8", "rental_uris": {"android": "https://dc.lft.to/lastmile_qr_scan", "ios": "https://dc.lft.to/lastmile_qr_scan"}, "name": "15a601af612a14d2df5189e62fb744c8", "is_reserved": 0}, {"is_disabled": 0, "fusion_lon": 0.0, "fusion_lat": 0.0, "lat": 39.054532, "type": "electric_bike", "lon": -77.1432195, "bike_id": "d321b72d14f22cc84d21fa7fd77e8916", "rental_uris": {"android": "https://dc.lft.to/lastmile_qr_scan", "ios": "https://dc.lft.to/lastmile_qr_scan"}, "name": "d321b72d14f22cc84d21fa7fd77e8916", "is_reserved": 0}, {"is_disabled": 0, "fusion_lon": 0.0, "fusion_lat": 0.0, "lat": 38.9122095, "type": "electric_scooter", "lon": -77.048833, "bike_id": "2b74912baf6eed9729ea34155e84daf9", "rental_uris": {"android": "https://dc.lft.to/lastmile_qr_scan", "ios": "https://dc.lft.to/lastmile_qr_scan"}, "name": "2b74912baf6eed9729ea34155e84daf9", "is_reserved": 0}, {"is_disabled": 0, "fusion_lon": 0.0, "fusion_lat": 0.0, "lat": 38.88442166666667, "type": "electric_scooter", "lon": -77.0296735, "bike_id": "7fde7dad8daed9f640532ecaf1d41deb", "rental_uris": {"android": "https://dc.lft.to/lastmile_qr_scan", "ios": "https://dc.lft.to/lastmile_qr_scan"}, "name": "7fde7dad8daed9f640532ecaf1d41deb", "is_reserved": 0}, {"is_disabled": 0, "fusion_lon": 0.0, "fusion_lat": 0.0, "lat": 38.8948615, "type": "electric_scooter", "lon": -77.009508, "bike_id": "56772859270ad7a30917999c535baf5d", "rental_uris": {"android": "https://dc.lft.to/lastmile_qr_scan", "ios": "https://dc.lft.to/lastmile_qr_scan"}, "name": "56772859270ad7a30917999c535baf5d", "is_reserved": 0}, {"is_disabled": 0, "fusion_lon": 0.0, "fusion_lat": 0.0, "lat": 38.921278, "type": "electric_scooter", "lon": -77.03523866666667, "bike_id": "5c54fa8c72dcfa3345d0e268d20110ce", "rental_uris": {"android": "https://dc.lft.to/lastmile_qr_scan", "ios": "https://dc.lft.to/lastmile_qr_scan"}, "name": "5c54fa8c72dcfa3345d0e268d20110ce", "is_reserved": 0}, {"is_disabled": 0, "fusion_lon": 0.0, "fusion_lat": 0.0, "lat": 38.9055265, "type": "electric_scooter", "lon": -76.98147, "bike_id": "efd203710f0f358f7e5ec771c094082c", "rental_uris": {"android": "https://dc.lft.to/lastmile_qr_scan", "ios": "https://dc.lft.to/lastmile_qr_scan"}, "name": "efd203710f0f358f7e5ec771c094082c", "is_reserved": 0}, {"is_disabled": 0, "fusion_lon": 0.0, "fusion_lat": 0.0, "lat": 38.90759766666667, "type": "electric_scooter", "lon": -77.03215233333333, "bike_id": "833777c44eb1e384cab21b52b15bd287", "rental_uris": {"android": "https://dc.lft.to/lastmile_qr_scan", "ios": "https://dc.lft.to/lastmile_qr_scan"}, "name": "833777c44eb1e384cab21b52b15bd287", "is_reserved": 0}, {"is_disabled": 0, "fusion_lon": 0.0, "fusion_lat": 0.0, "lat": 38.97568116666667, "type": "electric_bike", "lon": -76.96403933333333, "bike_id": "2902f925aa348c03ac3d7d804d303238", "rental_uris": {"android": "https://dc.lft.to/lastmile_qr_scan", "ios": "https://dc.lft.to/lastmile_qr_scan"}, "name": "2902f925aa348c03ac3d7d804d303238", "is_reserved": 0}, {"is_disabled": 0, "fusion_lon": 0.0, "fusion_lat": 0.0, "lat": 38.92253, "type": "electric_scooter", "lon": -77.0275725, "bike_id": "dcdba0a4cbdf7827ed8a194e01333e52", "rental_uris": {"android": "https://dc.lft.to/lastmile_qr_scan", "ios": "https://dc.lft.to/lastmile_qr_scan"}, "name": "dcdba0a4cbdf7827ed8a194e01333e52", "is_reserved": 0}, {"is_disabled": 0, "fusion_lon": 0.0, "fusion_lat": 0.0, "lat": 38.990883, "type": "electric_bike", "lon": -76.87494683333334, "bike_id": "7a21d4c37da762aeb516a52694b42c63", "rental_uris": {"android": "https://dc.lft.to/lastmile_qr_scan", "ios": "https://dc.lft.to/lastmile_qr_scan"}, "name": "7a21d4c37da762aeb516a52694b42c63", "is_reserved": 0}, {"is_disabled": 0, "fusion_lon": 0.0, "fusion_lat": 0.0, "lat": 38.907722, "type": "electric_scooter", "lon": -77.0326185, "bike_id": "5fefb9aeec43f4ad4930bba5625a38b2", "rental_uris": {"android": "https://dc.lft.to/lastmile_qr_scan", "ios": "https://dc.lft.to/lastmile_qr_scan"}, "name": "5fefb9aeec43f4ad4930bba5625a38b2", "is_reserved": 0}, {"is_disabled": 0, "fusion_lon": 0.0, "fusion_lat": 0.0, "lat": 38.903918, "type": "electric_scooter", "lon": -77.02950933333334, "bike_id": "345e1402141599e6afad077cad1a6027", "rental_uris": {"android": "https://dc.lft.to/lastmile_qr_scan", "ios": "https://dc.lft.to/lastmile_qr_scan"}, "name": "345e1402141599e6afad077cad1a6027", "is_reserved": 0}, {"is_disabled": 0, "fusion_lon": 0.0, "fusion_lat": 0.0, "lat": 38.889643, "type": "electric_bike", "lon": -76.94863766666667, "bike_id": "ba11152ed64dc698eb607a88468503dd", "rental_uris": {"android": "https://dc.lft.to/lastmile_qr_scan", "ios": "https://dc.lft.to/lastmile_qr_scan"}, "name": "ba11152ed64dc698eb607a88468503dd", "is_reserved": 0}, {"is_disabled": 0, "fusion_lon": 0.0, "fusion_lat": 0.0, "lat": 38.909573333333334, "type": "electric_scooter", "lon": -77.04860983333333, "bike_id": "8574c6ac5157d9c535e1c738f4cda892", "rental_uris": {"android": "https://dc.lft.to/lastmile_qr_scan", "ios": "https://dc.lft.to/lastmile_qr_scan"}, "name": "8574c6ac5157d9c535e1c738f4cda892", "is_reserved": 0}, {"is_disabled": 0, "fusion_lon": 0.0, "fusion_lat": 0.0, "lat": 38.8881615, "type": "electric_bike", "lon": -77.1274095, "bike_id": "8fe0e6eb361f06d5649e16faccb7209b", "rental_uris": {"android": "https://dc.lft.to/lastmile_qr_scan", "ios": "https://dc.lft.to/lastmile_qr_scan"}, "name": "8fe0e6eb361f06d5649e16faccb7209b", "is_reserved": 0}, {"is_disabled": 0, "fusion_lon": 0.0, "fusion_lat": 0.0, "lat": 38.896513, "type": "electric_scooter", "lon": -77.0516, "bike_id": "dedb5fed49d45f5022c9475aa1e55c5f", "rental_uris": {"android": "https://dc.lft.to/lastmile_qr_scan", "ios": "https://dc.lft.to/lastmile_qr_scan"}, "name": "dedb5fed49d45f5022c9475aa1e55c5f", "is_reserved": 0}, {"is_disabled": 0, "fusion_lon": 0.0, "fusion_lat": 0.0, "lat": 38.90152116666667, "type": "electric_scooter", "lon": -77.02599966666666, "bike_id": "df00770ab91b66edeca99cd158c6d43b", "rental_uris": {"android": "https://dc.lft.to/lastmile_qr_scan", "ios": "https://dc.lft.to/lastmile_qr_scan"}, "name": "df00770ab91b66edeca99cd158c6d43b", "is_reserved": 0}, {"is_disabled": 0, "fusion_lon": 0.0, "fusion_lat": 0.0, "lat": 38.990565, "type": "electric_bike", "lon": -77.10028266666667, "bike_id": "d2b8033a413b13b62a35864bc08d27e6", "rental_uris": {"android": "https://dc.lft.to/lastmile_qr_scan", "ios": "https://dc.lft.to/lastmile_qr_scan"}, "name": "d2b8033a413b13b62a35864bc08d27e6", "is_reserved": 0}, {"is_disabled": 0, "fusion_lon": 0.0, "fusion_lat": 0.0, "lat": 38.9097285, "type": "electric_scooter", "lon": -77.067725, "bike_id": "50e2cdfa739370c729ee6f5954f99d1d", "rental_uris": {"android": "https://dc.lft.to/lastmile_qr_scan", "ios": "https://dc.lft.to/lastmile_qr_scan"}, "name": "50e2cdfa739370c729ee6f5954f99d1d", "is_reserved": 0}, {"is_disabled": 0, "fusion_lon": 0.0, "fusion_lat": 0.0, "lat": 38.885882, "type": "electric_scooter", "lon": -77.01984666666667, "bike_id": "28a52d08ce33257a742d88922fe31cf7", "rental_uris": {"android": "https://dc.lft.to/lastmile_qr_scan", "ios": "https://dc.lft.to/lastmile_qr_scan"}, "name": "28a52d08ce33257a742d88922fe31cf7", "is_reserved": 0}, {"is_disabled": 0, "fusion_lon": 0.0, "fusion_lat": 0.0, "lat": 38.876173, "type": "electric_scooter", "lon": -76.96538083333333, "bike_id": "ccbe65f6228944e6cd57d0bab52d51ae", "rental_uris": {"android": "https://dc.lft.to/lastmile_qr_scan", "ios": "https://dc.lft.to/lastmile_qr_scan"}, "name": "ccbe65f6228944e6cd57d0bab52d51ae", "is_reserved": 0}, {"is_disabled": 0, "fusion_lon": 0.0, "fusion_lat": 0.0, "lat": 38.920856, "type": "electric_scooter", "lon": -77.00072366666667, "bike_id": "47f7093596d3f110064711ba6d83287e", "rental_uris": {"android": "https://dc.lft.to/lastmile_qr_scan", "ios": "https://dc.lft.to/lastmile_qr_scan"}, "name": "47f7093596d3f110064711ba6d83287e", "is_reserved": 0}, {"is_disabled": 0, "fusion_lon": 0.0, "fusion_lat": 0.0, "lat": 38.92569833333334, "type": "electric_bike", "lon": -76.99496583333334, "bike_id": "e4d82580a4aa6603dadec4cb523a857c", "rental_uris": {"android": "https://dc.lft.to/lastmile_qr_scan", "ios": "https://dc.lft.to/lastmile_qr_scan"}, "name": "e4d82580a4aa6603dadec4cb523a857c", "is_reserved": 0}, {"is_disabled": 0, "fusion_lon": 0.0, "fusion_lat": 0.0, "lat": 38.91181916666667, "type": "electric_scooter", "lon": -77.03834116666667, "bike_id": "d00682334ef2d3a14d60d807843580e0", "rental_uris": {"android": "https://dc.lft.to/lastmile_qr_scan", "ios": "https://dc.lft.to/lastmile_qr_scan"}, "name": "d00682334ef2d3a14d60d807843580e0", "is_reserved": 0}, {"is_disabled": 0, "fusion_lon": 0.0, "fusion_lat": 0.0, "lat": 38.990867333333334, "type": "electric_bike", "lon": -76.87495933333334, "bike_id": "99a118e1419cd1224986a016e40a6bb8", "rental_uris": {"android": "https://dc.lft.to/lastmile_qr_scan", "ios": "https://dc.lft.to/lastmile_qr_scan"}, "name": "99a118e1419cd1224986a016e40a6bb8", "is_reserved": 0}, {"is_disabled": 0, "fusion_lon": 0.0, "fusion_lat": 0.0, "lat": 38.909492666666665, "type": "electric_scooter", "lon": -77.04704133333334, "bike_id": "e7e50eb7fc7e562d054420217a92e939", "rental_uris": {"android": "https://dc.lft.to/lastmile_qr_scan", "ios": "https://dc.lft.to/lastmile_qr_scan"}, "name": "e7e50eb7fc7e562d054420217a92e939", "is_reserved": 0}, {"is_disabled": 0, "fusion_lon": 0.0, "fusion_lat": 0.0, "lat": 38.941938666666665, "type": "electric_scooter", "lon": -77.02590716666667, "bike_id": "f3e1435b2642234e7e5ef05d7a5db5f5", "rental_uris": {"android": "https://dc.lft.to/lastmile_qr_scan", "ios": "https://dc.lft.to/lastmile_qr_scan"}, "name": "f3e1435b2642234e7e5ef05d7a5db5f5", "is_reserved": 0}, {"is_disabled": 0, "fusion_lon": 0.0, "fusion_lat": 0.0, "lat": 38.90706483333334, "type": "electric_scooter", "lon": -77.02715166666667, "bike_id": "81db03ec3d84746e1a336c394fe426ea", "rental_uris": {"android": "https://dc.lft.to/lastmile_qr_scan", "ios": "https://dc.lft.to/lastmile_qr_scan"}, "name": "81db03ec3d84746e1a336c394fe426ea", "is_reserved": 0}, {"is_disabled": 0, "fusion_lon": 0.0, "fusion_lat": 0.0, "lat": 38.9180455, "type": "electric_scooter", "lon": -77.00101183333334, "bike_id": "e35e5a28c2734090f19f6a89e9540509", "rental_uris": {"android": "https://dc.lft.to/lastmile_qr_scan", "ios": "https://dc.lft.to/lastmile_qr_scan"}, "name": "e35e5a28c2734090f19f6a89e9540509", "is_reserved": 0}, {"is_disabled": 0, "fusion_lon": 0.0, "fusion_lat": 0.0, "lat": 38.95954533333333, "type": "electric_bike", "lon": -77.02512733333333, "bike_id": "f2059c76761ba0bb36058ee25bed38ac", "rental_uris": {"android": "https://dc.lft.to/lastmile_qr_scan", "ios": "https://dc.lft.to/lastmile_qr_scan"}, "name": "f2059c76761ba0bb36058ee25bed38ac", "is_reserved": 0}, {"is_disabled": 0, "fusion_lon": 0.0, "fusion_lat": 0.0, "lat": 38.89603783333333, "type": "electric_scooter", "lon": -77.00934283333333, "bike_id": "3dfcb86bde6d86ea2335f301a8941636", "rental_uris": {"android": "https://dc.lft.to/lastmile_qr_scan", "ios": "https://dc.lft.to/lastmile_qr_scan"}, "name": "3dfcb86bde6d86ea2335f301a8941636", "is_reserved": 0}, {"is_disabled": 0, "fusion_lon": 0.0, "fusion_lat": 0.0, "lat": 38.9182555, "type": "electric_scooter", "lon": -77.04526216666666, "bike_id": "5126b14939b771a3d141df9737af5476", "rental_uris": {"android": "https://dc.lft.to/lastmile_qr_scan", "ios": "https://dc.lft.to/lastmile_qr_scan"}, "name": "5126b14939b771a3d141df9737af5476", "is_reserved": 0}, {"is_disabled": 0, "fusion_lon": 0.0, "fusion_lat": 0.0, "lat": 38.91606, "type": "electric_scooter", "lon": -77.03089516666667, "bike_id": "5f9dd388578725b29416c841095534bf", "rental_uris": {"android": "https://dc.lft.to/lastmile_qr_scan", "ios": "https://dc.lft.to/lastmile_qr_scan"}, "name": "5f9dd388578725b29416c841095534bf", "is_reserved": 0}, {"is_disabled": 0, "fusion_lon": 0.0, "fusion_lat": 0.0, "lat": 38.92765333333333, "type": "electric_scooter", "lon": -77.02845816666667, "bike_id": "047cb9e80f010a24644ad32d660bc856", "rental_uris": {"android": "https://dc.lft.to/lastmile_qr_scan", "ios": "https://dc.lft.to/lastmile_qr_scan"}, "name": "047cb9e80f010a24644ad32d660bc856", "is_reserved": 0}, {"is_disabled": 0, "fusion_lon": 0.0, "fusion_lat": 0.0, "lat": 38.90144933333333, "type": "electric_scooter", "lon": -77.02304783333334, "bike_id": "0b97d02fb3d504cfd3c0fc97de4c818c", "rental_uris": {"android": "https://dc.lft.to/lastmile_qr_scan", "ios": "https://dc.lft.to/lastmile_qr_scan"}, "name": "0b97d02fb3d504cfd3c0fc97de4c818c", "is_reserved": 0}, {"is_disabled": 0, "fusion_lon": 0.0, "fusion_lat": 0.0, "lat": 38.85803216666667, "type": "electric_scooter", "lon": -76.986565, "bike_id": "82f3be4b22a4c32127488f12307a33f1", "rental_uris": {"android": "https://dc.lft.to/lastmile_qr_scan", "ios": "https://dc.lft.to/lastmile_qr_scan"}, "name": "82f3be4b22a4c32127488f12307a33f1", "is_reserved": 0}, {"is_disabled": 0, "fusion_lon": 0.0, "fusion_lat": 0.0, "lat": 38.895155333333335, "type": "electric_scooter", "lon": -77.01128033333333, "bike_id": "b9bd66c398701306c6af1d2c35002b6e", "rental_uris": {"android": "https://dc.lft.to/lastmile_qr_scan", "ios": "https://dc.lft.to/lastmile_qr_scan"}, "name": "b9bd66c398701306c6af1d2c35002b6e", "is_reserved": 0}, {"is_disabled": 0, "fusion_lon": 0.0, "fusion_lat": 0.0, "lat": 38.93732683333333, "type": "electric_scooter", "lon": -77.03271866666667, "bike_id": "25aec3077bca074fce2a094f1ebf3ca3", "rental_uris": {"android": "https://dc.lft.to/lastmile_qr_scan", "ios": "https://dc.lft.to/lastmile_qr_scan"}, "name": "25aec3077bca074fce2a094f1ebf3ca3", "is_reserved": 0}, {"is_disabled": 0, "fusion_lon": 0.0, "fusion_lat": 0.0, "lat": 38.865227, "type": "electric_scooter", "lon": -76.98965516666667, "bike_id": "ecf1e2befa14f977ecfc1cbd6128c5f7", "rental_uris": {"android": "https://dc.lft.to/lastmile_qr_scan", "ios": "https://dc.lft.to/lastmile_qr_scan"}, "name": "ecf1e2befa14f977ecfc1cbd6128c5f7", "is_reserved": 0}, {"is_disabled": 0, "fusion_lon": 0.0, "fusion_lat": 0.0, "lat": 38.926009, "type": "electric_scooter", "lon": -77.05709333333333, "bike_id": "9e72c9563944e6da8eb38f7e598cb1eb", "rental_uris": {"android": "https://dc.lft.to/lastmile_qr_scan", "ios": "https://dc.lft.to/lastmile_qr_scan"}, "name": "9e72c9563944e6da8eb38f7e598cb1eb", "is_reserved": 0}, {"is_disabled": 0, "fusion_lon": 0.0, "fusion_lat": 0.0, "lat": 38.9086925, "type": "electric_scooter", "lon": -77.03539533333333, "bike_id": "4ea2532ce9c4ec298bcf704e35745e3a", "rental_uris": {"android": "https://dc.lft.to/lastmile_qr_scan", "ios": "https://dc.lft.to/lastmile_qr_scan"}, "name": "4ea2532ce9c4ec298bcf704e35745e3a", "is_reserved": 0}, {"is_disabled": 0, "fusion_lon": 0.0, "fusion_lat": 0.0, "lat": 38.9068415, "type": "electric_scooter", "lon": -76.98001483333333, "bike_id": "1dc39cbee92a52603ed7ff48ae4e04c0", "rental_uris": {"android": "https://dc.lft.to/lastmile_qr_scan", "ios": "https://dc.lft.to/lastmile_qr_scan"}, "name": "1dc39cbee92a52603ed7ff48ae4e04c0", "is_reserved": 0}, {"is_disabled": 0, "fusion_lon": 0.0, "fusion_lat": 0.0, "lat": 38.91176933333333, "type": "electric_scooter", "lon": -77.03499783333334, "bike_id": "fd6c553afe82aefeb0a7aaf1a2eb5aa0", "rental_uris": {"android": "https://dc.lft.to/lastmile_qr_scan", "ios": "https://dc.lft.to/lastmile_qr_scan"}, "name": "fd6c553afe82aefeb0a7aaf1a2eb5aa0", "is_reserved": 0}, {"is_disabled": 0, "fusion_lon": 0.0, "fusion_lat": 0.0, "lat": 38.960944833333336, "type": "electric_scooter", "lon": -77.06899516666667, "bike_id": "b6ad7c2cf24199e8f8929a744018817f", "rental_uris": {"android": "https://dc.lft.to/lastmile_qr_scan", "ios": "https://dc.lft.to/lastmile_qr_scan"}, "name": "b6ad7c2cf24199e8f8929a744018817f", "is_reserved": 0}, {"is_disabled": 0, "fusion_lon": 0.0, "fusion_lat": 0.0, "lat": 38.88795366666667, "type": "electric_bike", "lon": -76.929976, "bike_id": "31e6c08ba36537bfc41c2eb57a2e7bb3", "rental_uris": {"android": "https://dc.lft.to/lastmile_qr_scan", "ios": "https://dc.lft.to/lastmile_qr_scan"}, "name": "31e6c08ba36537bfc41c2eb57a2e7bb3", "is_reserved": 0}, {"is_disabled": 0, "fusion_lon": 0.0, "fusion_lat": 0.0, "lat": 38.90575916666667, "type": "electric_scooter", "lon": -76.98755083333333, "bike_id": "7384f0a711834d3886c42ea523fdbcf5", "rental_uris": {"android": "https://dc.lft.to/lastmile_qr_scan", "ios": "https://dc.lft.to/lastmile_qr_scan"}, "name": "7384f0a711834d3886c42ea523fdbcf5", "is_reserved": 0}, {"is_disabled": 0, "fusion_lon": 0.0, "fusion_lat": 0.0, "lat": 38.922453, "type": "electric_scooter", "lon": -77.02983633333334, "bike_id": "38afe6d70805a74d3ade9fe6186f7541", "rental_uris": {"android": "https://dc.lft.to/lastmile_qr_scan", "ios": "https://dc.lft.to/lastmile_qr_scan"}, "name": "38afe6d70805a74d3ade9fe6186f7541", "is_reserved": 0}, {"is_disabled": 0, "fusion_lon": 0.0, "fusion_lat": 0.0, "lat": 38.9163155, "type": "electric_scooter", "lon": -77.04658783333333, "bike_id": "52569c0d595892b5bc253ae357f20ae7", "rental_uris": {"android": "https://dc.lft.to/lastmile_qr_scan", "ios": "https://dc.lft.to/lastmile_qr_scan"}, "name": "52569c0d595892b5bc253ae357f20ae7", "is_reserved": 0}, {"is_disabled": 0, "fusion_lon": 0.0, "fusion_lat": 0.0, "lat": 38.910197, "type": "electric_scooter", "lon": -77.04800483333334, "bike_id": "9650c49f8c55a80fd5a00823b233fb71", "rental_uris": {"android": "https://dc.lft.to/lastmile_qr_scan", "ios": "https://dc.lft.to/lastmile_qr_scan"}, "name": "9650c49f8c55a80fd5a00823b233fb71", "is_reserved": 0}, {"is_disabled": 0, "fusion_lon": 0.0, "fusion_lat": 0.0, "lat": 39.00864833333333, "type": "electric_bike", "lon": -77.07914483333333, "bike_id": "5d6f15aa00d3f522b544d317c7a3fa4d", "rental_uris": {"android": "https://dc.lft.to/lastmile_qr_scan", "ios": "https://dc.lft.to/lastmile_qr_scan"}, "name": "5d6f15aa00d3f522b544d317c7a3fa4d", "is_reserved": 0}, {"is_disabled": 0, "fusion_lon": 0.0, "fusion_lat": 0.0, "lat": 38.8273815, "type": "electric_bike", "lon": -77.00856583333334, "bike_id": "8854140de834ad6a50491f21629c6196", "rental_uris": {"android": "https://dc.lft.to/lastmile_qr_scan", "ios": "https://dc.lft.to/lastmile_qr_scan"}, "name": "8854140de834ad6a50491f21629c6196", "is_reserved": 0}, {"is_disabled": 0, "fusion_lon": 0.0, "fusion_lat": 0.0, "lat": 38.89376716666666, "type": "electric_scooter", "lon": -76.9500035, "bike_id": "cd8407d6b2c6be2a7124a4cbb1a028f5", "rental_uris": {"android": "https://dc.lft.to/lastmile_qr_scan", "ios": "https://dc.lft.to/lastmile_qr_scan"}, "name": "cd8407d6b2c6be2a7124a4cbb1a028f5", "is_reserved": 0}, {"is_disabled": 0, "fusion_lon": 0.0, "fusion_lat": 0.0, "lat": 38.89831183333333, "type": "electric_scooter", "lon": -76.980751, "bike_id": "bbe78d57d6ba4754803d227ae691021b", "rental_uris": {"android": "https://dc.lft.to/lastmile_qr_scan", "ios": "https://dc.lft.to/lastmile_qr_scan"}, "name": "bbe78d57d6ba4754803d227ae691021b", "is_reserved": 0}, {"is_disabled": 0, "fusion_lon": 0.0, "fusion_lat": 0.0, "lat": 38.94499116666667, "type": "electric_scooter", "lon": -77.06367833333333, "bike_id": "e1625fa1ce6ecb90f824fdecd22221ef", "rental_uris": {"android": "https://dc.lft.to/lastmile_qr_scan", "ios": "https://dc.lft.to/lastmile_qr_scan"}, "name": "e1625fa1ce6ecb90f824fdecd22221ef", "is_reserved": 0}, {"is_disabled": 0, "fusion_lon": 0.0, "fusion_lat": 0.0, "lat": 38.902409166666665, "type": "electric_bike", "lon": -77.01261533333333, "bike_id": "df8cde58354d12b5688e7cd1c99d41a6", "rental_uris": {"android": "https://dc.lft.to/lastmile_qr_scan", "ios": "https://dc.lft.to/lastmile_qr_scan"}, "name": "df8cde58354d12b5688e7cd1c99d41a6", "is_reserved": 0}, {"is_disabled": 0, "fusion_lon": 0.0, "fusion_lat": 0.0, "lat": 38.89313, "type": "electric_scooter", "lon": -77.02207566666667, "bike_id": "4df7940f4ef118da2f02526902b6c3b4", "rental_uris": {"android": "https://dc.lft.to/lastmile_qr_scan", "ios": "https://dc.lft.to/lastmile_qr_scan"}, "name": "4df7940f4ef118da2f02526902b6c3b4", "is_reserved": 0}, {"is_disabled": 0, "fusion_lon": 0.0, "fusion_lat": 0.0, "lat": 38.918453166666666, "type": "electric_bike", "lon": -76.960898, "bike_id": "5116841de95aba5be5e1d660e9c27d80", "rental_uris": {"android": "https://dc.lft.to/lastmile_qr_scan", "ios": "https://dc.lft.to/lastmile_qr_scan"}, "name": "5116841de95aba5be5e1d660e9c27d80", "is_reserved": 0}, {"is_disabled": 0, "fusion_lon": 0.0, "fusion_lat": 0.0, "lat": 38.918914, "type": "electric_scooter", "lon": -77.03200733333334, "bike_id": "f49de5865a11c995876969e5db45c99f", "rental_uris": {"android": "https://dc.lft.to/lastmile_qr_scan", "ios": "https://dc.lft.to/lastmile_qr_scan"}, "name": "f49de5865a11c995876969e5db45c99f", "is_reserved": 0}, {"is_disabled": 0, "fusion_lon": 0.0, "fusion_lat": 0.0, "lat": 39.06066283333333, "type": "electric_bike", "lon": -77.0646845, "bike_id": "fedf9c2b25202fe22798d08041fbabe4", "rental_uris": {"android": "https://dc.lft.to/lastmile_qr_scan", "ios": "https://dc.lft.to/lastmile_qr_scan"}, "name": "fedf9c2b25202fe22798d08041fbabe4", "is_reserved": 0}, {"is_disabled": 0, "fusion_lon": 0.0, "fusion_lat": 0.0, "lat": 38.91101483333333, "type": "electric_scooter", "lon": -77.0083415, "bike_id": "118cacf2579e3b3b4094316e049fd4ec", "rental_uris": {"android": "https://dc.lft.to/lastmile_qr_scan", "ios": "https://dc.lft.to/lastmile_qr_scan"}, "name": "118cacf2579e3b3b4094316e049fd4ec", "is_reserved": 0}, {"is_disabled": 0, "fusion_lon": 0.0, "fusion_lat": 0.0, "lat": 38.88746016666666, "type": "electric_scooter", "lon": -77.01737716666666, "bike_id": "259a2c20626077d7b833fb1ce9ba662c", "rental_uris": {"android": "https://dc.lft.to/lastmile_qr_scan", "ios": "https://dc.lft.to/lastmile_qr_scan"}, "name": "259a2c20626077d7b833fb1ce9ba662c", "is_reserved": 0}, {"is_disabled": 0, "fusion_lon": 0.0, "fusion_lat": 0.0, "lat": 38.925845833333334, "type": "electric_scooter", "lon": -77.03223966666667, "bike_id": "e75d6631ddc9812c7828bf00396abc76", "rental_uris": {"android": "https://dc.lft.to/lastmile_qr_scan", "ios": "https://dc.lft.to/lastmile_qr_scan"}, "name": "e75d6631ddc9812c7828bf00396abc76", "is_reserved": 0}, {"is_disabled": 0, "fusion_lon": 0.0, "fusion_lat": 0.0, "lat": 38.931138833333335, "type": "electric_scooter", "lon": -77.020416, "bike_id": "1e7d690b76250e32e799cd1985c97c39", "rental_uris": {"android": "https://dc.lft.to/lastmile_qr_scan", "ios": "https://dc.lft.to/lastmile_qr_scan"}, "name": "1e7d690b76250e32e799cd1985c97c39", "is_reserved": 0}, {"is_disabled": 0, "fusion_lon": 0.0, "fusion_lat": 0.0, "lat": 38.90416883333333, "type": "electric_scooter", "lon": -76.98548383333333, "bike_id": "253a3f3dba48c34a96b70c4ed18923f0", "rental_uris": {"android": "https://dc.lft.to/lastmile_qr_scan", "ios": "https://dc.lft.to/lastmile_qr_scan"}, "name": "253a3f3dba48c34a96b70c4ed18923f0", "is_reserved": 0}, {"is_disabled": 0, "fusion_lon": 0.0, "fusion_lat": 0.0, "lat": 38.966475333333335, "type": "electric_bike", "lon": -76.93021783333333, "bike_id": "98b1a152d4ae51569159a37b0319ab65", "rental_uris": {"android": "https://dc.lft.to/lastmile_qr_scan", "ios": "https://dc.lft.to/lastmile_qr_scan"}, "name": "98b1a152d4ae51569159a37b0319ab65", "is_reserved": 0}, {"is_disabled": 0, "fusion_lon": 0.0, "fusion_lat": 0.0, "lat": 38.9276355, "type": "electric_scooter", "lon": -77.029151, "bike_id": "8ae586e22f8af0c31e62b278a67de52d", "rental_uris": {"android": "https://dc.lft.to/lastmile_qr_scan", "ios": "https://dc.lft.to/lastmile_qr_scan"}, "name": "8ae586e22f8af0c31e62b278a67de52d", "is_reserved": 0}, {"is_disabled": 0, "fusion_lon": 0.0, "fusion_lat": 0.0, "lat": 38.91148233333333, "type": "electric_scooter", "lon": -77.08789716666666, "bike_id": "95c11c95f304a5cea645cd55f965ebaa", "rental_uris": {"android": "https://dc.lft.to/lastmile_qr_scan", "ios": "https://dc.lft.to/lastmile_qr_scan"}, "name": "95c11c95f304a5cea645cd55f965ebaa", "is_reserved": 0}, {"is_disabled": 0, "fusion_lon": 0.0, "fusion_lat": 0.0, "lat": 38.918985166666666, "type": "electric_scooter", "lon": -77.0240055, "bike_id": "3ee301b7818f0c89a353c08517274ab9", "rental_uris": {"android": "https://dc.lft.to/lastmile_qr_scan", "ios": "https://dc.lft.to/lastmile_qr_scan"}, "name": "3ee301b7818f0c89a353c08517274ab9", "is_reserved": 0}, {"is_disabled": 0, "fusion_lon": 0.0, "fusion_lat": 0.0, "lat": 38.938206, "type": "electric_scooter", "lon": -76.99047316666666, "bike_id": "31cf5dc092f0f5367459e524e78127c3", "rental_uris": {"android": "https://dc.lft.to/lastmile_qr_scan", "ios": "https://dc.lft.to/lastmile_qr_scan"}, "name": "31cf5dc092f0f5367459e524e78127c3", "is_reserved": 0}, {"is_disabled": 0, "fusion_lon": 0.0, "fusion_lat": 0.0, "lat": 38.91161483333333, "type": "electric_scooter", "lon": -77.04161916666666, "bike_id": "58680d134e3b447ee96f805302142124", "rental_uris": {"android": "https://dc.lft.to/lastmile_qr_scan", "ios": "https://dc.lft.to/lastmile_qr_scan"}, "name": "58680d134e3b447ee96f805302142124", "is_reserved": 0}, {"is_disabled": 0, "fusion_lon": 0.0, "fusion_lat": 0.0, "lat": 38.877508166666665, "type": "electric_scooter", "lon": -77.00564383333334, "bike_id": "b6e447fd0a9e277cfacb8886c1a02d99", "rental_uris": {"android": "https://dc.lft.to/lastmile_qr_scan", "ios": "https://dc.lft.to/lastmile_qr_scan"}, "name": "b6e447fd0a9e277cfacb8886c1a02d99", "is_reserved": 0}, {"is_disabled": 0, "fusion_lon": 0.0, "fusion_lat": 0.0, "lat": 38.877802, "type": "electric_bike", "lon": -76.98032433333333, "bike_id": "6ecb489593d47f19cf83175dc7270e32", "rental_uris": {"android": "https://dc.lft.to/lastmile_qr_scan", "ios": "https://dc.lft.to/lastmile_qr_scan"}, "name": "6ecb489593d47f19cf83175dc7270e32", "is_reserved": 0}, {"is_disabled": 0, "fusion_lon": 0.0, "fusion_lat": 0.0, "lat": 38.9161735, "type": "electric_scooter", "lon": -77.02387733333333, "bike_id": "6ece7842f7ce43cc0dfe08e183d381a3", "rental_uris": {"android": "https://dc.lft.to/lastmile_qr_scan", "ios": "https://dc.lft.to/lastmile_qr_scan"}, "name": "6ece7842f7ce43cc0dfe08e183d381a3", "is_reserved": 0}, {"is_disabled": 0, "fusion_lon": 0.0, "fusion_lat": 0.0, "lat": 38.9037, "type": "electric_scooter", "lon": -77.04353016666667, "bike_id": "66c3b1d9f50feeaac289d73487502c14", "rental_uris": {"android": "https://dc.lft.to/lastmile_qr_scan", "ios": "https://dc.lft.to/lastmile_qr_scan"}, "name": "66c3b1d9f50feeaac289d73487502c14", "is_reserved": 0}, {"is_disabled": 0, "fusion_lon": 0.0, "fusion_lat": 0.0, "lat": 38.900022166666666, "type": "electric_scooter", "lon": -77.03344366666667, "bike_id": "4aaddfb571b49a649e7981c65ebc807f", "rental_uris": {"android": "https://dc.lft.to/lastmile_qr_scan", "ios": "https://dc.lft.to/lastmile_qr_scan"}, "name": "4aaddfb571b49a649e7981c65ebc807f", "is_reserved": 0}, {"is_disabled": 0, "fusion_lon": 0.0, "fusion_lat": 0.0, "lat": 38.930089, "type": "electric_scooter", "lon": -77.078226, "bike_id": "10ba3134d475c01f8284e1f77f92fbc9", "rental_uris": {"android": "https://dc.lft.to/lastmile_qr_scan", "ios": "https://dc.lft.to/lastmile_qr_scan"}, "name": "10ba3134d475c01f8284e1f77f92fbc9", "is_reserved": 0}, {"is_disabled": 0, "fusion_lon": 0.0, "fusion_lat": 0.0, "lat": 38.884956833333334, "type": "electric_scooter", "lon": -77.0222025, "bike_id": "37f8ae03bf4d638da4e44e8d8196a8b7", "rental_uris": {"android": "https://dc.lft.to/lastmile_qr_scan", "ios": "https://dc.lft.to/lastmile_qr_scan"}, "name": "37f8ae03bf4d638da4e44e8d8196a8b7", "is_reserved": 0}, {"is_disabled": 0, "fusion_lon": 0.0, "fusion_lat": 0.0, "lat": 38.8923255, "type": "electric_scooter", "lon": -77.050006, "bike_id": "63374f1ad2936d712c8894e0d941b9c6", "rental_uris": {"android": "https://dc.lft.to/lastmile_qr_scan", "ios": "https://dc.lft.to/lastmile_qr_scan"}, "name": "63374f1ad2936d712c8894e0d941b9c6", "is_reserved": 0}, {"is_disabled": 0, "fusion_lon": 0.0, "fusion_lat": 0.0, "lat": 38.91579933333333, "type": "electric_scooter", "lon": -77.01639966666667, "bike_id": "e2293866f0c46c2510c75119a253b007", "rental_uris": {"android": "https://dc.lft.to/lastmile_qr_scan", "ios": "https://dc.lft.to/lastmile_qr_scan"}, "name": "e2293866f0c46c2510c75119a253b007", "is_reserved": 0}, {"is_disabled": 0, "fusion_lon": 0.0, "fusion_lat": 0.0, "lat": 38.87980866666667, "type": "electric_bike", "lon": -76.91596, "bike_id": "e6d583a0a9bd2f88a405884a4c9b3003", "rental_uris": {"android": "https://dc.lft.to/lastmile_qr_scan", "ios": "https://dc.lft.to/lastmile_qr_scan"}, "name": "e6d583a0a9bd2f88a405884a4c9b3003", "is_reserved": 0}, {"is_disabled": 0, "fusion_lon": 0.0, "fusion_lat": 0.0, "lat": 38.85831316666667, "type": "electric_bike", "lon": -76.99283333333334, "bike_id": "75d3e3c9a498339149877e1ec971aeb4", "rental_uris": {"android": "https://dc.lft.to/lastmile_qr_scan", "ios": "https://dc.lft.to/lastmile_qr_scan"}, "name": "75d3e3c9a498339149877e1ec971aeb4", "is_reserved": 0}, {"is_disabled": 0, "fusion_lon": 0.0, "fusion_lat": 0.0, "lat": 38.90839283333333, "type": "electric_scooter", "lon": -77.02698133333334, "bike_id": "946f6e4f61b7fc1596f5de99b54ab158", "rental_uris": {"android": "https://dc.lft.to/lastmile_qr_scan", "ios": "https://dc.lft.to/lastmile_qr_scan"}, "name": "946f6e4f61b7fc1596f5de99b54ab158", "is_reserved": 0}, {"is_disabled": 0, "fusion_lon": 0.0, "fusion_lat": 0.0, "lat": 38.9337165, "type": "electric_scooter", "lon": -77.05730666666666, "bike_id": "62441b7c60da5b12a5c292bcf1f2171d", "rental_uris": {"android": "https://dc.lft.to/lastmile_qr_scan", "ios": "https://dc.lft.to/lastmile_qr_scan"}, "name": "62441b7c60da5b12a5c292bcf1f2171d", "is_reserved": 0}, {"is_disabled": 0, "fusion_lon": 0.0, "fusion_lat": 0.0, "lat": 38.9537455, "type": "electric_scooter", "lon": -77.02560183333334, "bike_id": "3efffc5360c746ddc48e7fd52f08a6de", "rental_uris": {"android": "https://dc.lft.to/lastmile_qr_scan", "ios": "https://dc.lft.to/lastmile_qr_scan"}, "name": "3efffc5360c746ddc48e7fd52f08a6de", "is_reserved": 0}, {"is_disabled": 0, "fusion_lon": 0.0, "fusion_lat": 0.0, "lat": 38.9210405, "type": "electric_scooter", "lon": -77.04364633333333, "bike_id": "6644f926c2930bc7853bd672a14b4b22", "rental_uris": {"android": "https://dc.lft.to/lastmile_qr_scan", "ios": "https://dc.lft.to/lastmile_qr_scan"}, "name": "6644f926c2930bc7853bd672a14b4b22", "is_reserved": 0}, {"is_disabled": 0, "fusion_lon": 0.0, "fusion_lat": 0.0, "lat": 38.9736615, "type": "electric_scooter", "lon": -77.018528, "bike_id": "126842f3ce5176a27b00800f6437eded", "rental_uris": {"android": "https://dc.lft.to/lastmile_qr_scan", "ios": "https://dc.lft.to/lastmile_qr_scan"}, "name": "126842f3ce5176a27b00800f6437eded", "is_reserved": 0}, {"is_disabled": 0, "fusion_lon": 0.0, "fusion_lat": 0.0, "lat": 38.89715566666667, "type": "electric_scooter", "lon": -77.02715983333333, "bike_id": "b4cae6fdae8b0cd63e04d93a41f263af", "rental_uris": {"android": "https://dc.lft.to/lastmile_qr_scan", "ios": "https://dc.lft.to/lastmile_qr_scan"}, "name": "b4cae6fdae8b0cd63e04d93a41f263af", "is_reserved": 0}, {"is_disabled": 0, "fusion_lon": 0.0, "fusion_lat": 0.0, "lat": 38.902496666666664, "type": "electric_scooter", "lon": -77.03444016666667, "bike_id": "c139ec2461f4a3af9705ceb203567023", "rental_uris": {"android": "https://dc.lft.to/lastmile_qr_scan", "ios": "https://dc.lft.to/lastmile_qr_scan"}, "name": "c139ec2461f4a3af9705ceb203567023", "is_reserved": 0}, {"is_disabled": 0, "fusion_lon": 0.0, "fusion_lat": 0.0, "lat": 38.91107066666667, "type": "electric_scooter", "lon": -76.99770933333333, "bike_id": "9cd722c26c049138f8899f3bd52e2e17", "rental_uris": {"android": "https://dc.lft.to/lastmile_qr_scan", "ios": "https://dc.lft.to/lastmile_qr_scan"}, "name": "9cd722c26c049138f8899f3bd52e2e17", "is_reserved": 0}, {"is_disabled": 0, "fusion_lon": 0.0, "fusion_lat": 0.0, "lat": 38.91842583333333, "type": "electric_scooter", "lon": -77.02303433333333, "bike_id": "1e91fd3921471ac67e7d927d6a796c88", "rental_uris": {"android": "https://dc.lft.to/lastmile_qr_scan", "ios": "https://dc.lft.to/lastmile_qr_scan"}, "name": "1e91fd3921471ac67e7d927d6a796c88", "is_reserved": 0}, {"is_disabled": 0, "fusion_lon": 0.0, "fusion_lat": 0.0, "lat": 38.91255233333333, "type": "electric_scooter", "lon": -77.02862016666667, "bike_id": "00d4bc89c566ac20d9b4d735d222ebdc", "rental_uris": {"android": "https://dc.lft.to/lastmile_qr_scan", "ios": "https://dc.lft.to/lastmile_qr_scan"}, "name": "00d4bc89c566ac20d9b4d735d222ebdc", "is_reserved": 0}, {"is_disabled": 0, "fusion_lon": 0.0, "fusion_lat": 0.0, "lat": 39.058082166666665, "type": "electric_bike", "lon": -77.12624183333334, "bike_id": "37b17bcb9b618f51af9d1aa3494bd023", "rental_uris": {"android": "https://dc.lft.to/lastmile_qr_scan", "ios": "https://dc.lft.to/lastmile_qr_scan"}, "name": "37b17bcb9b618f51af9d1aa3494bd023", "is_reserved": 0}, {"is_disabled": 0, "fusion_lon": 0.0, "fusion_lat": 0.0, "lat": 38.908524166666666, "type": "electric_scooter", "lon": -77.02290066666667, "bike_id": "55a2ad975d679d05f8dced8b3b8705a8", "rental_uris": {"android": "https://dc.lft.to/lastmile_qr_scan", "ios": "https://dc.lft.to/lastmile_qr_scan"}, "name": "55a2ad975d679d05f8dced8b3b8705a8", "is_reserved": 0}, {"is_disabled": 0, "fusion_lon": 0.0, "fusion_lat": 0.0, "lat": 38.933776, "type": "electric_scooter", "lon": -77.02469766666667, "bike_id": "e301471c4a23943df4e512b21137d8aa", "rental_uris": {"android": "https://dc.lft.to/lastmile_qr_scan", "ios": "https://dc.lft.to/lastmile_qr_scan"}, "name": "e301471c4a23943df4e512b21137d8aa", "is_reserved": 0}, {"is_disabled": 0, "fusion_lon": 0.0, "fusion_lat": 0.0, "lat": 38.94148466666667, "type": "electric_bike", "lon": -77.00193366666667, "bike_id": "948db6f812ba7cbad30202af24c04f7d", "rental_uris": {"android": "https://dc.lft.to/lastmile_qr_scan", "ios": "https://dc.lft.to/lastmile_qr_scan"}, "name": "948db6f812ba7cbad30202af24c04f7d", "is_reserved": 0}, {"is_disabled": 0, "fusion_lon": 0.0, "fusion_lat": 0.0, "lat": 38.900363666666664, "type": "electric_scooter", "lon": -77.0448205, "bike_id": "048492f415d0fb8449091fb4be58cc63", "rental_uris": {"android": "https://dc.lft.to/lastmile_qr_scan", "ios": "https://dc.lft.to/lastmile_qr_scan"}, "name": "048492f415d0fb8449091fb4be58cc63", "is_reserved": 0}, {"is_disabled": 0, "fusion_lon": 0.0, "fusion_lat": 0.0, "lat": 38.93523866666666, "type": "electric_scooter", "lon": -77.023469, "bike_id": "ca43efc50135d592fa102a952c24ad4f", "rental_uris": {"android": "https://dc.lft.to/lastmile_qr_scan", "ios": "https://dc.lft.to/lastmile_qr_scan"}, "name": "ca43efc50135d592fa102a952c24ad4f", "is_reserved": 0}, {"is_disabled": 0, "fusion_lon": 0.0, "fusion_lat": 0.0, "lat": 38.9055935, "type": "electric_scooter", "lon": -77.0279735, "bike_id": "35373f9c3469f44d599889d3fb75671b", "rental_uris": {"android": "https://dc.lft.to/lastmile_qr_scan", "ios": "https://dc.lft.to/lastmile_qr_scan"}, "name": "35373f9c3469f44d599889d3fb75671b", "is_reserved": 0}, {"is_disabled": 0, "fusion_lon": 0.0, "fusion_lat": 0.0, "lat": 38.9094915, "type": "electric_scooter", "lon": -77.0288375, "bike_id": "e728cfd2a9cdeebee5a62542a9b391a9", "rental_uris": {"android": "https://dc.lft.to/lastmile_qr_scan", "ios": "https://dc.lft.to/lastmile_qr_scan"}, "name": "e728cfd2a9cdeebee5a62542a9b391a9", "is_reserved": 0}, {"is_disabled": 0, "fusion_lon": 0.0, "fusion_lat": 0.0, "lat": 38.935384, "type": "electric_scooter", "lon": -77.05772383333333, "bike_id": "d2bfee8171096e714e8ec476fcc70c5a", "rental_uris": {"android": "https://dc.lft.to/lastmile_qr_scan", "ios": "https://dc.lft.to/lastmile_qr_scan"}, "name": "d2bfee8171096e714e8ec476fcc70c5a", "is_reserved": 0}, {"is_disabled": 0, "fusion_lon": 0.0, "fusion_lat": 0.0, "lat": 38.867327333333336, "type": "electric_scooter", "lon": -76.988513, "bike_id": "c65c4998d1a3c2cbf7fc8bf38fcf38d8", "rental_uris": {"android": "https://dc.lft.to/lastmile_qr_scan", "ios": "https://dc.lft.to/lastmile_qr_scan"}, "name": "c65c4998d1a3c2cbf7fc8bf38fcf38d8", "is_reserved": 0}, {"is_disabled": 0, "fusion_lon": 0.0, "fusion_lat": 0.0, "lat": 38.949792, "type": "electric_scooter", "lon": -77.02704233333333, "bike_id": "149a649b19904714901d4cca0e068280", "rental_uris": {"android": "https://dc.lft.to/lastmile_qr_scan", "ios": "https://dc.lft.to/lastmile_qr_scan"}, "name": "149a649b19904714901d4cca0e068280", "is_reserved": 0}, {"is_disabled": 0, "fusion_lon": 0.0, "fusion_lat": 0.0, "lat": 38.83152716666667, "type": "electric_bike", "lon": -76.99692116666667, "bike_id": "ea6272c6b65e4a6405983d64ea1651d0", "rental_uris": {"android": "https://dc.lft.to/lastmile_qr_scan", "ios": "https://dc.lft.to/lastmile_qr_scan"}, "name": "ea6272c6b65e4a6405983d64ea1651d0", "is_reserved": 0}, {"is_disabled": 0, "fusion_lon": 0.0, "fusion_lat": 0.0, "lat": 38.870035666666666, "type": "electric_scooter", "lon": -77.0137205, "bike_id": "d982078e18f1e463eaeedc9f9a493513", "rental_uris": {"android": "https://dc.lft.to/lastmile_qr_scan", "ios": "https://dc.lft.to/lastmile_qr_scan"}, "name": "d982078e18f1e463eaeedc9f9a493513", "is_reserved": 0}, {"is_disabled": 0, "fusion_lon": 0.0, "fusion_lat": 0.0, "lat": 38.91834383333333, "type": "electric_scooter", "lon": -77.02314483333333, "bike_id": "fd6e2d97a1337905cf440b11f1e2e8ee", "rental_uris": {"android": "https://dc.lft.to/lastmile_qr_scan", "ios": "https://dc.lft.to/lastmile_qr_scan"}, "name": "fd6e2d97a1337905cf440b11f1e2e8ee", "is_reserved": 0}, {"is_disabled": 0, "fusion_lon": 0.0, "fusion_lat": 0.0, "lat": 38.8978775, "type": "electric_scooter", "lon": -76.93051583333333, "bike_id": "877aa2aaf3a3b7111fe8c383ed4b0f82", "rental_uris": {"android": "https://dc.lft.to/lastmile_qr_scan", "ios": "https://dc.lft.to/lastmile_qr_scan"}, "name": "877aa2aaf3a3b7111fe8c383ed4b0f82", "is_reserved": 0}, {"is_disabled": 0, "fusion_lon": 0.0, "fusion_lat": 0.0, "lat": 38.942441333333335, "type": "electric_scooter", "lon": -77.0217135, "bike_id": "efb459b52be4ac606ecd400c3ecb8913", "rental_uris": {"android": "https://dc.lft.to/lastmile_qr_scan", "ios": "https://dc.lft.to/lastmile_qr_scan"}, "name": "efb459b52be4ac606ecd400c3ecb8913", "is_reserved": 0}, {"is_disabled": 0, "fusion_lon": 0.0, "fusion_lat": 0.0, "lat": 38.90269333333333, "type": "electric_scooter", "lon": -77.02171866666667, "bike_id": "028d2f571aeead7b119f89e03a14087f", "rental_uris": {"android": "https://dc.lft.to/lastmile_qr_scan", "ios": "https://dc.lft.to/lastmile_qr_scan"}, "name": "028d2f571aeead7b119f89e03a14087f", "is_reserved": 0}, {"is_disabled": 0, "fusion_lon": 0.0, "fusion_lat": 0.0, "lat": 38.9246985, "type": "electric_scooter", "lon": -77.02821666666667, "bike_id": "bfb3c4d08d2a3611d4939d2ece09c6e0", "rental_uris": {"android": "https://dc.lft.to/lastmile_qr_scan", "ios": "https://dc.lft.to/lastmile_qr_scan"}, "name": "bfb3c4d08d2a3611d4939d2ece09c6e0", "is_reserved": 0}, {"is_disabled": 0, "fusion_lon": 0.0, "fusion_lat": 0.0, "lat": 38.92195916666667, "type": "electric_scooter", "lon": -77.04256716666667, "bike_id": "81fe40d1f6bba88c87758f0053f0041f", "rental_uris": {"android": "https://dc.lft.to/lastmile_qr_scan", "ios": "https://dc.lft.to/lastmile_qr_scan"}, "name": "81fe40d1f6bba88c87758f0053f0041f", "is_reserved": 0}, {"is_disabled": 0, "fusion_lon": 0.0, "fusion_lat": 0.0, "lat": 38.91795583333333, "type": "electric_scooter", "lon": -77.0415205, "bike_id": "223e75dca714f3ce62d7f92709d69fe7", "rental_uris": {"android": "https://dc.lft.to/lastmile_qr_scan", "ios": "https://dc.lft.to/lastmile_qr_scan"}, "name": "223e75dca714f3ce62d7f92709d69fe7", "is_reserved": 0}, {"is_disabled": 0, "fusion_lon": 0.0, "fusion_lat": 0.0, "lat": 38.885646666666666, "type": "electric_scooter", "lon": -77.01749616666666, "bike_id": "27db7c7b8ef02e24bbbddccba4344c77", "rental_uris": {"android": "https://dc.lft.to/lastmile_qr_scan", "ios": "https://dc.lft.to/lastmile_qr_scan"}, "name": "27db7c7b8ef02e24bbbddccba4344c77", "is_reserved": 0}, {"is_disabled": 0, "fusion_lon": 0.0, "fusion_lat": 0.0, "lat": 38.939067333333334, "type": "electric_scooter", "lon": -77.032628, "bike_id": "8c3c2e5809c9d035913645129919420a", "rental_uris": {"android": "https://dc.lft.to/lastmile_qr_scan", "ios": "https://dc.lft.to/lastmile_qr_scan"}, "name": "8c3c2e5809c9d035913645129919420a", "is_reserved": 0}, {"is_disabled": 0, "fusion_lon": 0.0, "fusion_lat": 0.0, "lat": 38.907278, "type": "electric_scooter", "lon": -77.02251916666667, "bike_id": "423391d9ff7a6635215eeb87df8c76da", "rental_uris": {"android": "https://dc.lft.to/lastmile_qr_scan", "ios": "https://dc.lft.to/lastmile_qr_scan"}, "name": "423391d9ff7a6635215eeb87df8c76da", "is_reserved": 0}, {"is_disabled": 0, "fusion_lon": 0.0, "fusion_lat": 0.0, "lat": 38.90362, "type": "electric_scooter", "lon": -77.05915966666667, "bike_id": "4e467d6c2a609e8095cf7da19121ef55", "rental_uris": {"android": "https://dc.lft.to/lastmile_qr_scan", "ios": "https://dc.lft.to/lastmile_qr_scan"}, "name": "4e467d6c2a609e8095cf7da19121ef55", "is_reserved": 0}, {"is_disabled": 0, "fusion_lon": 0.0, "fusion_lat": 0.0, "lat": 38.917041, "type": "electric_scooter", "lon": -77.02789966666667, "bike_id": "994ac0f35d4409ff55cf222c33e72da7", "rental_uris": {"android": "https://dc.lft.to/lastmile_qr_scan", "ios": "https://dc.lft.to/lastmile_qr_scan"}, "name": "994ac0f35d4409ff55cf222c33e72da7", "is_reserved": 0}, {"is_disabled": 0, "fusion_lon": 0.0, "fusion_lat": 0.0, "lat": 38.874721666666666, "type": "electric_scooter", "lon": -77.02094966666667, "bike_id": "3babaab9f9bc9c8bc105617498313df2", "rental_uris": {"android": "https://dc.lft.to/lastmile_qr_scan", "ios": "https://dc.lft.to/lastmile_qr_scan"}, "name": "3babaab9f9bc9c8bc105617498313df2", "is_reserved": 0}, {"is_disabled": 0, "fusion_lon": 0.0, "fusion_lat": 0.0, "lat": 38.90320033333333, "type": "electric_scooter", "lon": -77.02149666666666, "bike_id": "5a391910dc78e63ff625c0194dbcfee2", "rental_uris": {"android": "https://dc.lft.to/lastmile_qr_scan", "ios": "https://dc.lft.to/lastmile_qr_scan"}, "name": "5a391910dc78e63ff625c0194dbcfee2", "is_reserved": 0}, {"is_disabled": 0, "fusion_lon": 0.0, "fusion_lat": 0.0, "lat": 38.91802366666667, "type": "electric_bike", "lon": -77.101876, "bike_id": "02b6c5b01f875f81d019201fbe5f6d4d", "rental_uris": {"android": "https://dc.lft.to/lastmile_qr_scan", "ios": "https://dc.lft.to/lastmile_qr_scan"}, "name": "02b6c5b01f875f81d019201fbe5f6d4d", "is_reserved": 0}, {"is_disabled": 0, "fusion_lon": 0.0, "fusion_lat": 0.0, "lat": 38.89712733333333, "type": "electric_scooter", "lon": -77.03957783333334, "bike_id": "acfc1c7c5f0bf582f9ac7db14ab405bb", "rental_uris": {"android": "https://dc.lft.to/lastmile_qr_scan", "ios": "https://dc.lft.to/lastmile_qr_scan"}, "name": "acfc1c7c5f0bf582f9ac7db14ab405bb", "is_reserved": 0}, {"is_disabled": 0, "fusion_lon": 0.0, "fusion_lat": 0.0, "lat": 38.91143783333333, "type": "electric_scooter", "lon": -77.010844, "bike_id": "f3a0c02a45231360583844c61629d09e", "rental_uris": {"android": "https://dc.lft.to/lastmile_qr_scan", "ios": "https://dc.lft.to/lastmile_qr_scan"}, "name": "f3a0c02a45231360583844c61629d09e", "is_reserved": 0}, {"is_disabled": 0, "fusion_lon": 0.0, "fusion_lat": 0.0, "lat": 38.91004866666667, "type": "electric_scooter", "lon": -77.02093733333334, "bike_id": "0bd140742a2ba24132c3b3e26901369c", "rental_uris": {"android": "https://dc.lft.to/lastmile_qr_scan", "ios": "https://dc.lft.to/lastmile_qr_scan"}, "name": "0bd140742a2ba24132c3b3e26901369c", "is_reserved": 0}, {"is_disabled": 0, "fusion_lon": 0.0, "fusion_lat": 0.0, "lat": 38.920886, "type": "electric_scooter", "lon": -77.025916, "bike_id": "7b6617a26ea14d97cfe38f4ac7e65129", "rental_uris": {"android": "https://dc.lft.to/lastmile_qr_scan", "ios": "https://dc.lft.to/lastmile_qr_scan"}, "name": "7b6617a26ea14d97cfe38f4ac7e65129", "is_reserved": 0}, {"is_disabled": 0, "fusion_lon": 0.0, "fusion_lat": 0.0, "lat": 38.884486333333335, "type": "electric_scooter", "lon": -76.950968, "bike_id": "597db4428fb46f2d479cf0fb1c916d00", "rental_uris": {"android": "https://dc.lft.to/lastmile_qr_scan", "ios": "https://dc.lft.to/lastmile_qr_scan"}, "name": "597db4428fb46f2d479cf0fb1c916d00", "is_reserved": 0}, {"is_disabled": 0, "fusion_lon": 0.0, "fusion_lat": 0.0, "lat": 38.907368166666664, "type": "electric_scooter", "lon": -77.001016, "bike_id": "e54c8e1909750680b6817954ca6a70a2", "rental_uris": {"android": "https://dc.lft.to/lastmile_qr_scan", "ios": "https://dc.lft.to/lastmile_qr_scan"}, "name": "e54c8e1909750680b6817954ca6a70a2", "is_reserved": 0}, {"is_disabled": 0, "fusion_lon": 0.0, "fusion_lat": 0.0, "lat": 38.89789916666667, "type": "electric_scooter", "lon": -77.04720783333333, "bike_id": "d8508e41b153b29e9a427a5b4a8ab1a0", "rental_uris": {"android": "https://dc.lft.to/lastmile_qr_scan", "ios": "https://dc.lft.to/lastmile_qr_scan"}, "name": "d8508e41b153b29e9a427a5b4a8ab1a0", "is_reserved": 0}, {"is_disabled": 0, "fusion_lon": 0.0, "fusion_lat": 0.0, "lat": 38.84428283333333, "type": "electric_scooter", "lon": -76.99814833333333, "bike_id": "0e7e087c3dacd5d317b5bb14054221fe", "rental_uris": {"android": "https://dc.lft.to/lastmile_qr_scan", "ios": "https://dc.lft.to/lastmile_qr_scan"}, "name": "0e7e087c3dacd5d317b5bb14054221fe", "is_reserved": 0}, {"is_disabled": 0, "fusion_lon": 0.0, "fusion_lat": 0.0, "lat": 38.93402433333333, "type": "electric_scooter", "lon": -77.04268283333333, "bike_id": "7695ef99de14657619601a834764c30a", "rental_uris": {"android": "https://dc.lft.to/lastmile_qr_scan", "ios": "https://dc.lft.to/lastmile_qr_scan"}, "name": "7695ef99de14657619601a834764c30a", "is_reserved": 0}, {"is_disabled": 0, "fusion_lon": 0.0, "fusion_lat": 0.0, "lat": 38.900895, "type": "electric_scooter", "lon": -76.98840466666667, "bike_id": "50edbcda0a18ea7ed1f93e0641163a0b", "rental_uris": {"android": "https://dc.lft.to/lastmile_qr_scan", "ios": "https://dc.lft.to/lastmile_qr_scan"}, "name": "50edbcda0a18ea7ed1f93e0641163a0b", "is_reserved": 0}, {"is_disabled": 0, "fusion_lon": 0.0, "fusion_lat": 0.0, "lat": 38.90071116666667, "type": "electric_scooter", "lon": -77.0492055, "bike_id": "d2653715dd6d366b3af93b4ae1e9e9c5", "rental_uris": {"android": "https://dc.lft.to/lastmile_qr_scan", "ios": "https://dc.lft.to/lastmile_qr_scan"}, "name": "d2653715dd6d366b3af93b4ae1e9e9c5", "is_reserved": 0}, {"is_disabled": 0, "fusion_lon": 0.0, "fusion_lat": 0.0, "lat": 38.91838516666667, "type": "electric_scooter", "lon": -77.02454, "bike_id": "c663035d92c74c3bac854c26a736e187", "rental_uris": {"android": "https://dc.lft.to/lastmile_qr_scan", "ios": "https://dc.lft.to/lastmile_qr_scan"}, "name": "c663035d92c74c3bac854c26a736e187", "is_reserved": 0}, {"is_disabled": 0, "fusion_lon": 0.0, "fusion_lat": 0.0, "lat": 38.92048533333333, "type": "electric_scooter", "lon": -77.03393916666667, "bike_id": "6dbe19927f45a31595dc5b90bc4637c1", "rental_uris": {"android": "https://dc.lft.to/lastmile_qr_scan", "ios": "https://dc.lft.to/lastmile_qr_scan"}, "name": "6dbe19927f45a31595dc5b90bc4637c1", "is_reserved": 0}, {"is_disabled": 0, "fusion_lon": 0.0, "fusion_lat": 0.0, "lat": 38.91417083333333, "type": "electric_scooter", "lon": -77.03149683333334, "bike_id": "297267780af8f54767a4c6b0236b3617", "rental_uris": {"android": "https://dc.lft.to/lastmile_qr_scan", "ios": "https://dc.lft.to/lastmile_qr_scan"}, "name": "297267780af8f54767a4c6b0236b3617", "is_reserved": 0}, {"is_disabled": 0, "fusion_lon": 0.0, "fusion_lat": 0.0, "lat": 38.922428833333335, "type": "electric_scooter", "lon": -77.04259183333333, "bike_id": "e0f9dbca8383afe92598cd5617e415ef", "rental_uris": {"android": "https://dc.lft.to/lastmile_qr_scan", "ios": "https://dc.lft.to/lastmile_qr_scan"}, "name": "e0f9dbca8383afe92598cd5617e415ef", "is_reserved": 0}, {"is_disabled": 0, "fusion_lon": 0.0, "fusion_lat": 0.0, "lat": 38.8337395, "type": "electric_scooter", "lon": -76.993017, "bike_id": "d17850d7221d9bcec58180e36d3e3c6a", "rental_uris": {"android": "https://dc.lft.to/lastmile_qr_scan", "ios": "https://dc.lft.to/lastmile_qr_scan"}, "name": "d17850d7221d9bcec58180e36d3e3c6a", "is_reserved": 0}, {"is_disabled": 0, "fusion_lon": 0.0, "fusion_lat": 0.0, "lat": 38.92600866666667, "type": "electric_scooter", "lon": -77.02406383333333, "bike_id": "4a5350beb680ab58eba2192a202c80c9", "rental_uris": {"android": "https://dc.lft.to/lastmile_qr_scan", "ios": "https://dc.lft.to/lastmile_qr_scan"}, "name": "4a5350beb680ab58eba2192a202c80c9", "is_reserved": 0}, {"is_disabled": 0, "fusion_lon": 0.0, "fusion_lat": 0.0, "lat": 38.918861166666666, "type": "electric_scooter", "lon": -77.01772933333334, "bike_id": "cac23e0b7028fcd96483958d6de33c72", "rental_uris": {"android": "https://dc.lft.to/lastmile_qr_scan", "ios": "https://dc.lft.to/lastmile_qr_scan"}, "name": "cac23e0b7028fcd96483958d6de33c72", "is_reserved": 0}, {"is_disabled": 0, "fusion_lon": 0.0, "fusion_lat": 0.0, "lat": 38.90955266666667, "type": "electric_scooter", "lon": -77.02310516666667, "bike_id": "5946c75ffdb2fdaf3f8f34511565085c", "rental_uris": {"android": "https://dc.lft.to/lastmile_qr_scan", "ios": "https://dc.lft.to/lastmile_qr_scan"}, "name": "5946c75ffdb2fdaf3f8f34511565085c", "is_reserved": 0}, {"is_disabled": 0, "fusion_lon": 0.0, "fusion_lat": 0.0, "lat": 38.94815083333334, "type": "electric_scooter", "lon": -77.080042, "bike_id": "0d5575e49f40202ba7f70b722c2f649c", "rental_uris": {"android": "https://dc.lft.to/lastmile_qr_scan", "ios": "https://dc.lft.to/lastmile_qr_scan"}, "name": "0d5575e49f40202ba7f70b722c2f649c", "is_reserved": 0}, {"is_disabled": 0, "fusion_lon": 0.0, "fusion_lat": 0.0, "lat": 38.92557733333334, "type": "electric_scooter", "lon": -77.0514155, "bike_id": "a098e04c47404c8d8abed9b7b94af4fc", "rental_uris": {"android": "https://dc.lft.to/lastmile_qr_scan", "ios": "https://dc.lft.to/lastmile_qr_scan"}, "name": "a098e04c47404c8d8abed9b7b94af4fc", "is_reserved": 0}, {"is_disabled": 0, "fusion_lon": 0.0, "fusion_lat": 0.0, "lat": 38.928330333333335, "type": "electric_scooter", "lon": -77.01413066666667, "bike_id": "76be60b7750146aa62937f71b97aa04e", "rental_uris": {"android": "https://dc.lft.to/lastmile_qr_scan", "ios": "https://dc.lft.to/lastmile_qr_scan"}, "name": "76be60b7750146aa62937f71b97aa04e", "is_reserved": 0}, {"is_disabled": 0, "fusion_lon": 0.0, "fusion_lat": 0.0, "lat": 38.9230525, "type": "electric_scooter", "lon": -77.04741366666667, "bike_id": "8f9d0e89a11964b2692c59b186ccbc8a", "rental_uris": {"android": "https://dc.lft.to/lastmile_qr_scan", "ios": "https://dc.lft.to/lastmile_qr_scan"}, "name": "8f9d0e89a11964b2692c59b186ccbc8a", "is_reserved": 0}, {"is_disabled": 0, "fusion_lon": 0.0, "fusion_lat": 0.0, "lat": 38.908066166666664, "type": "electric_scooter", "lon": -77.034358, "bike_id": "cf124d70ee8c02a2a1f8ec696db482be", "rental_uris": {"android": "https://dc.lft.to/lastmile_qr_scan", "ios": "https://dc.lft.to/lastmile_qr_scan"}, "name": "cf124d70ee8c02a2a1f8ec696db482be", "is_reserved": 0}, {"is_disabled": 0, "fusion_lon": 0.0, "fusion_lat": 0.0, "lat": 38.84428283333333, "type": "electric_scooter", "lon": -76.9978315, "bike_id": "1e26e0465e6195453f1156a4e21d6304", "rental_uris": {"android": "https://dc.lft.to/lastmile_qr_scan", "ios": "https://dc.lft.to/lastmile_qr_scan"}, "name": "1e26e0465e6195453f1156a4e21d6304", "is_reserved": 0}, {"is_disabled": 0, "fusion_lon": 0.0, "fusion_lat": 0.0, "lat": 38.916251833333334, "type": "electric_scooter", "lon": -77.0356655, "bike_id": "fcca36b94a2dfcc7409a70ec647ef8e8", "rental_uris": {"android": "https://dc.lft.to/lastmile_qr_scan", "ios": "https://dc.lft.to/lastmile_qr_scan"}, "name": "fcca36b94a2dfcc7409a70ec647ef8e8", "is_reserved": 0}, {"is_disabled": 0, "fusion_lon": 0.0, "fusion_lat": 0.0, "lat": 38.911152333333334, "type": "electric_scooter", "lon": -77.03014166666667, "bike_id": "6b716b23f3b0301d38b8bd75c6327e1f", "rental_uris": {"android": "https://dc.lft.to/lastmile_qr_scan", "ios": "https://dc.lft.to/lastmile_qr_scan"}, "name": "6b716b23f3b0301d38b8bd75c6327e1f", "is_reserved": 0}, {"is_disabled": 0, "fusion_lon": 0.0, "fusion_lat": 0.0, "lat": 38.89187, "type": "electric_scooter", "lon": -76.98832583333333, "bike_id": "16f33409681f602ae2332276dbbcf39b", "rental_uris": {"android": "https://dc.lft.to/lastmile_qr_scan", "ios": "https://dc.lft.to/lastmile_qr_scan"}, "name": "16f33409681f602ae2332276dbbcf39b", "is_reserved": 0}, {"is_disabled": 0, "fusion_lon": 0.0, "fusion_lat": 0.0, "lat": 38.91327233333333, "type": "electric_scooter", "lon": -77.03239216666667, "bike_id": "7748ae66a5e4b80860bec0a2d42163c1", "rental_uris": {"android": "https://dc.lft.to/lastmile_qr_scan", "ios": "https://dc.lft.to/lastmile_qr_scan"}, "name": "7748ae66a5e4b80860bec0a2d42163c1", "is_reserved": 0}, {"is_disabled": 0, "fusion_lon": 0.0, "fusion_lat": 0.0, "lat": 38.933592166666664, "type": "electric_scooter", "lon": -77.05733416666666, "bike_id": "dc73b10d8b2b353a0f6e561dd4bccd55", "rental_uris": {"android": "https://dc.lft.to/lastmile_qr_scan", "ios": "https://dc.lft.to/lastmile_qr_scan"}, "name": "dc73b10d8b2b353a0f6e561dd4bccd55", "is_reserved": 0}, {"is_disabled": 0, "fusion_lon": 0.0, "fusion_lat": 0.0, "lat": 38.918176333333335, "type": "electric_scooter", "lon": -77.03189716666667, "bike_id": "4ab85ea8fba56e87bc080255b0c3f40f", "rental_uris": {"android": "https://dc.lft.to/lastmile_qr_scan", "ios": "https://dc.lft.to/lastmile_qr_scan"}, "name": "4ab85ea8fba56e87bc080255b0c3f40f", "is_reserved": 0}, {"is_disabled": 0, "fusion_lon": 0.0, "fusion_lat": 0.0, "lat": 38.92160883333333, "type": "electric_scooter", "lon": -77.03257583333334, "bike_id": "f6672e164d8c110a067c76e539097ccb", "rental_uris": {"android": "https://dc.lft.to/lastmile_qr_scan", "ios": "https://dc.lft.to/lastmile_qr_scan"}, "name": "f6672e164d8c110a067c76e539097ccb", "is_reserved": 0}, {"is_disabled": 0, "fusion_lon": 0.0, "fusion_lat": 0.0, "lat": 38.8951945, "type": "electric_scooter", "lon": -77.0091725, "bike_id": "e43fc130a8d6c37d69e64ec9d2e0270c", "rental_uris": {"android": "https://dc.lft.to/lastmile_qr_scan", "ios": "https://dc.lft.to/lastmile_qr_scan"}, "name": "e43fc130a8d6c37d69e64ec9d2e0270c", "is_reserved": 0}, {"is_disabled": 0, "fusion_lon": 0.0, "fusion_lat": 0.0, "lat": 38.911517333333336, "type": "electric_scooter", "lon": -77.02380966666666, "bike_id": "2b46a6e5b78cb44d9edf7965c0be0159", "rental_uris": {"android": "https://dc.lft.to/lastmile_qr_scan", "ios": "https://dc.lft.to/lastmile_qr_scan"}, "name": "2b46a6e5b78cb44d9edf7965c0be0159", "is_reserved": 0}, {"is_disabled": 0, "fusion_lon": 0.0, "fusion_lat": 0.0, "lat": 38.864985, "type": "electric_scooter", "lon": -76.98980933333333, "bike_id": "7542bcce0f630cea8d9db81204c9a468", "rental_uris": {"android": "https://dc.lft.to/lastmile_qr_scan", "ios": "https://dc.lft.to/lastmile_qr_scan"}, "name": "7542bcce0f630cea8d9db81204c9a468", "is_reserved": 0}, {"is_disabled": 0, "fusion_lon": 0.0, "fusion_lat": 0.0, "lat": 38.95775066666667, "type": "electric_bike", "lon": -76.97939883333333, "bike_id": "8740f4095b727be75af96a6c3fd3c00e", "rental_uris": {"android": "https://dc.lft.to/lastmile_qr_scan", "ios": "https://dc.lft.to/lastmile_qr_scan"}, "name": "8740f4095b727be75af96a6c3fd3c00e", "is_reserved": 0}, {"is_disabled": 0, "fusion_lon": 0.0, "fusion_lat": 0.0, "lat": 38.91851166666667, "type": "electric_bike", "lon": -76.96090683333334, "bike_id": "d941aff67c14d8a107ce3a21316de315", "rental_uris": {"android": "https://dc.lft.to/lastmile_qr_scan", "ios": "https://dc.lft.to/lastmile_qr_scan"}, "name": "d941aff67c14d8a107ce3a21316de315", "is_reserved": 0}, {"is_disabled": 0, "fusion_lon": 0.0, "fusion_lat": 0.0, "lat": 38.913549833333335, "type": "electric_scooter", "lon": -77.01878366666666, "bike_id": "57a56e7d0290fb8cd980835b5e20c527", "rental_uris": {"android": "https://dc.lft.to/lastmile_qr_scan", "ios": "https://dc.lft.to/lastmile_qr_scan"}, "name": "57a56e7d0290fb8cd980835b5e20c527", "is_reserved": 0}, {"is_disabled": 0, "fusion_lon": 0.0, "fusion_lat": 0.0, "lat": 38.907269166666666, "type": "electric_scooter", "lon": -77.02455283333333, "bike_id": "e980d0ae3d7e03b0990e78af93384001", "rental_uris": {"android": "https://dc.lft.to/lastmile_qr_scan", "ios": "https://dc.lft.to/lastmile_qr_scan"}, "name": "e980d0ae3d7e03b0990e78af93384001", "is_reserved": 0}, {"is_disabled": 0, "fusion_lon": 0.0, "fusion_lat": 0.0, "lat": 38.91695766666667, "type": "electric_scooter", "lon": -77.0243155, "bike_id": "659e2daee281c9ca258f83bd40ac63e8", "rental_uris": {"android": "https://dc.lft.to/lastmile_qr_scan", "ios": "https://dc.lft.to/lastmile_qr_scan"}, "name": "659e2daee281c9ca258f83bd40ac63e8", "is_reserved": 0}, {"is_disabled": 0, "fusion_lon": 0.0, "fusion_lat": 0.0, "lat": 38.90561133333333, "type": "electric_scooter", "lon": -77.0250375, "bike_id": "1bba9575ffbac7edcc4f300b57ab1679", "rental_uris": {"android": "https://dc.lft.to/lastmile_qr_scan", "ios": "https://dc.lft.to/lastmile_qr_scan"}, "name": "1bba9575ffbac7edcc4f300b57ab1679", "is_reserved": 0}, {"is_disabled": 0, "fusion_lon": 0.0, "fusion_lat": 0.0, "lat": 38.8684145, "type": "electric_bike", "lon": -77.0972845, "bike_id": "0d7b682ad91f0387b3d607f99fa22293", "rental_uris": {"android": "https://dc.lft.to/lastmile_qr_scan", "ios": "https://dc.lft.to/lastmile_qr_scan"}, "name": "0d7b682ad91f0387b3d607f99fa22293", "is_reserved": 0}, {"is_disabled": 0, "fusion_lon": 0.0, "fusion_lat": 0.0, "lat": 38.892089666666664, "type": "electric_scooter", "lon": -77.00293316666666, "bike_id": "88ed66c6ae2e32156d608c8271723f47", "rental_uris": {"android": "https://dc.lft.to/lastmile_qr_scan", "ios": "https://dc.lft.to/lastmile_qr_scan"}, "name": "88ed66c6ae2e32156d608c8271723f47", "is_reserved": 0}, {"is_disabled": 0, "fusion_lon": 0.0, "fusion_lat": 0.0, "lat": 38.90450933333334, "type": "electric_scooter", "lon": -77.03810316666667, "bike_id": "6cb94fe2b06cae43b009810553b4aac7", "rental_uris": {"android": "https://dc.lft.to/lastmile_qr_scan", "ios": "https://dc.lft.to/lastmile_qr_scan"}, "name": "6cb94fe2b06cae43b009810553b4aac7", "is_reserved": 0}, {"is_disabled": 0, "fusion_lon": 0.0, "fusion_lat": 0.0, "lat": 38.905700833333334, "type": "electric_scooter", "lon": -77.02991066666667, "bike_id": "4688bd3eda04c98a1d113a926b6f578a", "rental_uris": {"android": "https://dc.lft.to/lastmile_qr_scan", "ios": "https://dc.lft.to/lastmile_qr_scan"}, "name": "4688bd3eda04c98a1d113a926b6f578a", "is_reserved": 0}, {"is_disabled": 0, "fusion_lon": 0.0, "fusion_lat": 0.0, "lat": 38.88584216666667, "type": "electric_scooter", "lon": -77.031105, "bike_id": "80c3722afc8285d091bfefed0360172a", "rental_uris": {"android": "https://dc.lft.to/lastmile_qr_scan", "ios": "https://dc.lft.to/lastmile_qr_scan"}, "name": "80c3722afc8285d091bfefed0360172a", "is_reserved": 0}, {"is_disabled": 0, "fusion_lon": 0.0, "fusion_lat": 0.0, "lat": 38.922502333333334, "type": "electric_scooter", "lon": -77.04136983333333, "bike_id": "6efc5c3fd91c6dd8eaf8c421e6a92826", "rental_uris": {"android": "https://dc.lft.to/lastmile_qr_scan", "ios": "https://dc.lft.to/lastmile_qr_scan"}, "name": "6efc5c3fd91c6dd8eaf8c421e6a92826", "is_reserved": 0}, {"is_disabled": 0, "fusion_lon": 0.0, "fusion_lat": 0.0, "lat": 38.93022933333334, "type": "electric_scooter", "lon": -77.019504, "bike_id": "ce73fecc1e4e8c8d798e84c76c8a885d", "rental_uris": {"android": "https://dc.lft.to/lastmile_qr_scan", "ios": "https://dc.lft.to/lastmile_qr_scan"}, "name": "ce73fecc1e4e8c8d798e84c76c8a885d", "is_reserved": 0}, {"is_disabled": 0, "fusion_lon": 0.0, "fusion_lat": 0.0, "lat": 38.91940483333333, "type": "electric_scooter", "lon": -77.01661733333333, "bike_id": "1ffdd4ddbc4d80657b8a90587831899e", "rental_uris": {"android": "https://dc.lft.to/lastmile_qr_scan", "ios": "https://dc.lft.to/lastmile_qr_scan"}, "name": "1ffdd4ddbc4d80657b8a90587831899e", "is_reserved": 0}, {"is_disabled": 0, "fusion_lon": 0.0, "fusion_lat": 0.0, "lat": 38.90055816666667, "type": "electric_scooter", "lon": -77.0448465, "bike_id": "74892a50571b5d33bf7ddc9dadda42df", "rental_uris": {"android": "https://dc.lft.to/lastmile_qr_scan", "ios": "https://dc.lft.to/lastmile_qr_scan"}, "name": "74892a50571b5d33bf7ddc9dadda42df", "is_reserved": 0}, {"is_disabled": 0, "fusion_lon": 0.0, "fusion_lat": 0.0, "lat": 38.910328166666666, "type": "electric_scooter", "lon": -77.03097083333333, "bike_id": "f149baf732f4a0ea7330ca5a73c09b8e", "rental_uris": {"android": "https://dc.lft.to/lastmile_qr_scan", "ios": "https://dc.lft.to/lastmile_qr_scan"}, "name": "f149baf732f4a0ea7330ca5a73c09b8e", "is_reserved": 0}, {"is_disabled": 0, "fusion_lon": 0.0, "fusion_lat": 0.0, "lat": 38.90579866666667, "type": "electric_scooter", "lon": -77.05810733333334, "bike_id": "e80b1042f27948a55b27348d00be889f", "rental_uris": {"android": "https://dc.lft.to/lastmile_qr_scan", "ios": "https://dc.lft.to/lastmile_qr_scan"}, "name": "e80b1042f27948a55b27348d00be889f", "is_reserved": 0}, {"is_disabled": 0, "fusion_lon": 0.0, "fusion_lat": 0.0, "lat": 38.8951545, "type": "electric_bike", "lon": -76.94967433333333, "bike_id": "8b20ccb60afd239c27e0e560748a8b69", "rental_uris": {"android": "https://dc.lft.to/lastmile_qr_scan", "ios": "https://dc.lft.to/lastmile_qr_scan"}, "name": "8b20ccb60afd239c27e0e560748a8b69", "is_reserved": 0}, {"is_disabled": 0, "fusion_lon": 0.0, "fusion_lat": 0.0, "lat": 38.91477416666667, "type": "electric_scooter", "lon": -77.011925, "bike_id": "bfee4e23d014e9189062a8efd8748b17", "rental_uris": {"android": "https://dc.lft.to/lastmile_qr_scan", "ios": "https://dc.lft.to/lastmile_qr_scan"}, "name": "bfee4e23d014e9189062a8efd8748b17", "is_reserved": 0}, {"is_disabled": 0, "fusion_lon": 0.0, "fusion_lat": 0.0, "lat": 38.9363795, "type": "electric_scooter", "lon": -77.020853, "bike_id": "16f83c231be62e2c8edb2c785f857732", "rental_uris": {"android": "https://dc.lft.to/lastmile_qr_scan", "ios": "https://dc.lft.to/lastmile_qr_scan"}, "name": "16f83c231be62e2c8edb2c785f857732", "is_reserved": 0}, {"is_disabled": 0, "fusion_lon": 0.0, "fusion_lat": 0.0, "lat": 38.863342333333335, "type": "electric_bike", "lon": -76.9871245, "bike_id": "2f74be7f41db319e0604b5c6edaac317", "rental_uris": {"android": "https://dc.lft.to/lastmile_qr_scan", "ios": "https://dc.lft.to/lastmile_qr_scan"}, "name": "2f74be7f41db319e0604b5c6edaac317", "is_reserved": 0}, {"is_disabled": 0, "fusion_lon": 0.0, "fusion_lat": 0.0, "lat": 38.923779, "type": "electric_scooter", "lon": -77.04115383333334, "bike_id": "57b506ca7cb97611810524e82f3992f1", "rental_uris": {"android": "https://dc.lft.to/lastmile_qr_scan", "ios": "https://dc.lft.to/lastmile_qr_scan"}, "name": "57b506ca7cb97611810524e82f3992f1", "is_reserved": 0}, {"is_disabled": 0, "fusion_lon": 0.0, "fusion_lat": 0.0, "lat": 38.900570333333334, "type": "electric_scooter", "lon": -76.93478633333334, "bike_id": "4a454bede8831e8297517d355ea19614", "rental_uris": {"android": "https://dc.lft.to/lastmile_qr_scan", "ios": "https://dc.lft.to/lastmile_qr_scan"}, "name": "4a454bede8831e8297517d355ea19614", "is_reserved": 0}, {"is_disabled": 0, "fusion_lon": 0.0, "fusion_lat": 0.0, "lat": 38.88960983333333, "type": "electric_scooter", "lon": -76.92736133333334, "bike_id": "9c2beace1d036fbfeab98c6fa9455dd4", "rental_uris": {"android": "https://dc.lft.to/lastmile_qr_scan", "ios": "https://dc.lft.to/lastmile_qr_scan"}, "name": "9c2beace1d036fbfeab98c6fa9455dd4", "is_reserved": 0}, {"is_disabled": 0, "fusion_lon": 0.0, "fusion_lat": 0.0, "lat": 38.92664333333333, "type": "electric_bike", "lon": -76.99298966666667, "bike_id": "bcf984fbc52686acedb5b106b7d3f1dd", "rental_uris": {"android": "https://dc.lft.to/lastmile_qr_scan", "ios": "https://dc.lft.to/lastmile_qr_scan"}, "name": "bcf984fbc52686acedb5b106b7d3f1dd", "is_reserved": 0}, {"is_disabled": 0, "fusion_lon": 0.0, "fusion_lat": 0.0, "lat": 38.880925166666664, "type": "electric_scooter", "lon": -77.02592266666667, "bike_id": "7b94dd2d88cbbf301c1c1c7cc5fde977", "rental_uris": {"android": "https://dc.lft.to/lastmile_qr_scan", "ios": "https://dc.lft.to/lastmile_qr_scan"}, "name": "7b94dd2d88cbbf301c1c1c7cc5fde977", "is_reserved": 0}, {"is_disabled": 0, "fusion_lon": 0.0, "fusion_lat": 0.0, "lat": 38.84513283333333, "type": "electric_scooter", "lon": -76.98790183333334, "bike_id": "575c7105af9fa026737a42a5bedbe59e", "rental_uris": {"android": "https://dc.lft.to/lastmile_qr_scan", "ios": "https://dc.lft.to/lastmile_qr_scan"}, "name": "575c7105af9fa026737a42a5bedbe59e", "is_reserved": 0}, {"is_disabled": 0, "fusion_lon": 0.0, "fusion_lat": 0.0, "lat": 38.930895, "type": "electric_scooter", "lon": -77.02477383333333, "bike_id": "f1973ffc615faa102a1f3c74c5feeb76", "rental_uris": {"android": "https://dc.lft.to/lastmile_qr_scan", "ios": "https://dc.lft.to/lastmile_qr_scan"}, "name": "f1973ffc615faa102a1f3c74c5feeb76", "is_reserved": 0}, {"is_disabled": 0, "fusion_lon": 0.0, "fusion_lat": 0.0, "lat": 38.900537166666666, "type": "electric_scooter", "lon": -77.013056, "bike_id": "58ec9d84299c86c41d8bc51c99651668", "rental_uris": {"android": "https://dc.lft.to/lastmile_qr_scan", "ios": "https://dc.lft.to/lastmile_qr_scan"}, "name": "58ec9d84299c86c41d8bc51c99651668", "is_reserved": 0}, {"is_disabled": 0, "fusion_lon": 0.0, "fusion_lat": 0.0, "lat": 38.87133333333333, "type": "electric_scooter", "lon": -77.00754133333334, "bike_id": "92333a32ec72d55f590b5da63de4c2cb", "rental_uris": {"android": "https://dc.lft.to/lastmile_qr_scan", "ios": "https://dc.lft.to/lastmile_qr_scan"}, "name": "92333a32ec72d55f590b5da63de4c2cb", "is_reserved": 0}, {"is_disabled": 0, "fusion_lon": 0.0, "fusion_lat": 0.0, "lat": 38.887181166666664, "type": "electric_scooter", "lon": -77.02205133333334, "bike_id": "40a5427c77c2c4a29f57778d094b7d08", "rental_uris": {"android": "https://dc.lft.to/lastmile_qr_scan", "ios": "https://dc.lft.to/lastmile_qr_scan"}, "name": "40a5427c77c2c4a29f57778d094b7d08", "is_reserved": 0}, {"is_disabled": 0, "fusion_lon": 0.0, "fusion_lat": 0.0, "lat": 38.959554, "type": "electric_scooter", "lon": -77.0722905, "bike_id": "ec63f38d1f985c747b632af016a0f485", "rental_uris": {"android": "https://dc.lft.to/lastmile_qr_scan", "ios": "https://dc.lft.to/lastmile_qr_scan"}, "name": "ec63f38d1f985c747b632af016a0f485", "is_reserved": 0}, {"is_disabled": 0, "fusion_lon": 0.0, "fusion_lat": 0.0, "lat": 38.93197816666667, "type": "electric_scooter", "lon": -77.03859666666666, "bike_id": "203262abeed3ee26596b899a80dc3ab3", "rental_uris": {"android": "https://dc.lft.to/lastmile_qr_scan", "ios": "https://dc.lft.to/lastmile_qr_scan"}, "name": "203262abeed3ee26596b899a80dc3ab3", "is_reserved": 0}, {"is_disabled": 0, "fusion_lon": 0.0, "fusion_lat": 0.0, "lat": 38.91549666666667, "type": "electric_scooter", "lon": -77.01232866666666, "bike_id": "fab8b90ce891d1c6442744b50d3d791b", "rental_uris": {"android": "https://dc.lft.to/lastmile_qr_scan", "ios": "https://dc.lft.to/lastmile_qr_scan"}, "name": "fab8b90ce891d1c6442744b50d3d791b", "is_reserved": 0}, {"is_disabled": 0, "fusion_lon": 0.0, "fusion_lat": 0.0, "lat": 38.900627166666666, "type": "electric_scooter", "lon": -77.02719216666667, "bike_id": "404cd8637820a4e94d45da702f4401eb", "rental_uris": {"android": "https://dc.lft.to/lastmile_qr_scan", "ios": "https://dc.lft.to/lastmile_qr_scan"}, "name": "404cd8637820a4e94d45da702f4401eb", "is_reserved": 0}, {"is_disabled": 0, "fusion_lon": 0.0, "fusion_lat": 0.0, "lat": 38.82446216666666, "type": "electric_bike", "lon": -77.0704145, "bike_id": "f50ad71e38cddff391c48b3cc843d70f", "rental_uris": {"android": "https://dc.lft.to/lastmile_qr_scan", "ios": "https://dc.lft.to/lastmile_qr_scan"}, "name": "f50ad71e38cddff391c48b3cc843d70f", "is_reserved": 0}, {"is_disabled": 0, "fusion_lon": 0.0, "fusion_lat": 0.0, "lat": 38.875219, "type": "electric_bike", "lon": -77.00792816666667, "bike_id": "f59dca6d38b7b4888e4be15d223345b8", "rental_uris": {"android": "https://dc.lft.to/lastmile_qr_scan", "ios": "https://dc.lft.to/lastmile_qr_scan"}, "name": "f59dca6d38b7b4888e4be15d223345b8", "is_reserved": 0}, {"is_disabled": 0, "fusion_lon": 0.0, "fusion_lat": 0.0, "lat": 38.92792266666667, "type": "electric_scooter", "lon": -77.05359283333334, "bike_id": "2239a6cce8a57b5041196bbafe479edf", "rental_uris": {"android": "https://dc.lft.to/lastmile_qr_scan", "ios": "https://dc.lft.to/lastmile_qr_scan"}, "name": "2239a6cce8a57b5041196bbafe479edf", "is_reserved": 0}, {"is_disabled": 0, "fusion_lon": 0.0, "fusion_lat": 0.0, "lat": 38.90209133333333, "type": "electric_scooter", "lon": -77.0243645, "bike_id": "8520aaf4171a264deb58d5c093afd520", "rental_uris": {"android": "https://dc.lft.to/lastmile_qr_scan", "ios": "https://dc.lft.to/lastmile_qr_scan"}, "name": "8520aaf4171a264deb58d5c093afd520", "is_reserved": 0}, {"is_disabled": 0, "fusion_lon": 0.0, "fusion_lat": 0.0, "lat": 38.8973855, "type": "electric_scooter", "lon": -77.00029666666667, "bike_id": "6431a1bf92c036197e83f9e63423e23c", "rental_uris": {"android": "https://dc.lft.to/lastmile_qr_scan", "ios": "https://dc.lft.to/lastmile_qr_scan"}, "name": "6431a1bf92c036197e83f9e63423e23c", "is_reserved": 0}, {"is_disabled": 0, "fusion_lon": 0.0, "fusion_lat": 0.0, "lat": 38.93024416666667, "type": "electric_scooter", "lon": -77.03454033333334, "bike_id": "dd28b16657e1dfd2c2fc6d8b30dbacf2", "rental_uris": {"android": "https://dc.lft.to/lastmile_qr_scan", "ios": "https://dc.lft.to/lastmile_qr_scan"}, "name": "dd28b16657e1dfd2c2fc6d8b30dbacf2", "is_reserved": 0}, {"is_disabled": 0, "fusion_lon": 0.0, "fusion_lat": 0.0, "lat": 38.827805833333336, "type": "electric_bike", "lon": -77.11081283333333, "bike_id": "b0183a93d1c8c8173fcba654aaf95e35", "rental_uris": {"android": "https://dc.lft.to/lastmile_qr_scan", "ios": "https://dc.lft.to/lastmile_qr_scan"}, "name": "b0183a93d1c8c8173fcba654aaf95e35", "is_reserved": 0}, {"is_disabled": 0, "fusion_lon": 0.0, "fusion_lat": 0.0, "lat": 38.885262166666664, "type": "electric_scooter", "lon": -76.926881, "bike_id": "ceecb756e37587405d9d3369fc9e4fe2", "rental_uris": {"android": "https://dc.lft.to/lastmile_qr_scan", "ios": "https://dc.lft.to/lastmile_qr_scan"}, "name": "ceecb756e37587405d9d3369fc9e4fe2", "is_reserved": 0}, {"is_disabled": 0, "fusion_lon": 0.0, "fusion_lat": 0.0, "lat": 38.95608883333333, "type": "electric_scooter", "lon": -77.0275785, "bike_id": "e6d3c53a08680121291049880f98d740", "rental_uris": {"android": "https://dc.lft.to/lastmile_qr_scan", "ios": "https://dc.lft.to/lastmile_qr_scan"}, "name": "e6d3c53a08680121291049880f98d740", "is_reserved": 0}, {"is_disabled": 0, "fusion_lon": 0.0, "fusion_lat": 0.0, "lat": 38.93960166666667, "type": "electric_scooter", "lon": -77.03283283333333, "bike_id": "1430081a078ed74eb6da4dc7d0af06f8", "rental_uris": {"android": "https://dc.lft.to/lastmile_qr_scan", "ios": "https://dc.lft.to/lastmile_qr_scan"}, "name": "1430081a078ed74eb6da4dc7d0af06f8", "is_reserved": 0}, {"is_disabled": 0, "fusion_lon": 0.0, "fusion_lat": 0.0, "lat": 38.89832233333333, "type": "electric_scooter", "lon": -76.94633316666666, "bike_id": "db017cfcce915796d7b1d5fab0ccf7ce", "rental_uris": {"android": "https://dc.lft.to/lastmile_qr_scan", "ios": "https://dc.lft.to/lastmile_qr_scan"}, "name": "db017cfcce915796d7b1d5fab0ccf7ce", "is_reserved": 0}, {"is_disabled": 0, "fusion_lon": 0.0, "fusion_lat": 0.0, "lat": 38.92973283333333, "type": "electric_scooter", "lon": -77.03471083333334, "bike_id": "f15937df3c1ff79ae695793a7cb90ad1", "rental_uris": {"android": "https://dc.lft.to/lastmile_qr_scan", "ios": "https://dc.lft.to/lastmile_qr_scan"}, "name": "f15937df3c1ff79ae695793a7cb90ad1", "is_reserved": 0}, {"is_disabled": 0, "fusion_lon": 0.0, "fusion_lat": 0.0, "lat": 38.8972715, "type": "electric_scooter", "lon": -77.02590533333333, "bike_id": "99263f8ab60d0a9a0bce790e757ea5d1", "rental_uris": {"android": "https://dc.lft.to/lastmile_qr_scan", "ios": "https://dc.lft.to/lastmile_qr_scan"}, "name": "99263f8ab60d0a9a0bce790e757ea5d1", "is_reserved": 0}, {"is_disabled": 0, "fusion_lon": 0.0, "fusion_lat": 0.0, "lat": 38.92800583333333, "type": "electric_scooter", "lon": -77.014254, "bike_id": "f7f4baa054a0465f53733e3a145f637a", "rental_uris": {"android": "https://dc.lft.to/lastmile_qr_scan", "ios": "https://dc.lft.to/lastmile_qr_scan"}, "name": "f7f4baa054a0465f53733e3a145f637a", "is_reserved": 0}, {"is_disabled": 0, "fusion_lon": 0.0, "fusion_lat": 0.0, "lat": 38.91116816666667, "type": "electric_scooter", "lon": -77.04717816666667, "bike_id": "ea72e020bf02f1534011cbd5fc3fd80e", "rental_uris": {"android": "https://dc.lft.to/lastmile_qr_scan", "ios": "https://dc.lft.to/lastmile_qr_scan"}, "name": "ea72e020bf02f1534011cbd5fc3fd80e", "is_reserved": 0}, {"is_disabled": 0, "fusion_lon": 0.0, "fusion_lat": 0.0, "lat": 38.918180666666665, "type": "electric_scooter", "lon": -77.0253165, "bike_id": "aaae072b2832ee042dd9525830541554", "rental_uris": {"android": "https://dc.lft.to/lastmile_qr_scan", "ios": "https://dc.lft.to/lastmile_qr_scan"}, "name": "aaae072b2832ee042dd9525830541554", "is_reserved": 0}, {"is_disabled": 0, "fusion_lon": 0.0, "fusion_lat": 0.0, "lat": 38.92854883333333, "type": "electric_scooter", "lon": -77.03598683333334, "bike_id": "c193ac706cafb4728873fe4a985f48f1", "rental_uris": {"android": "https://dc.lft.to/lastmile_qr_scan", "ios": "https://dc.lft.to/lastmile_qr_scan"}, "name": "c193ac706cafb4728873fe4a985f48f1", "is_reserved": 0}, {"is_disabled": 0, "fusion_lon": 0.0, "fusion_lat": 0.0, "lat": 38.9114535, "type": "electric_scooter", "lon": -77.044863, "bike_id": "cf44913953fa11611eeb7e7dbef95132", "rental_uris": {"android": "https://dc.lft.to/lastmile_qr_scan", "ios": "https://dc.lft.to/lastmile_qr_scan"}, "name": "cf44913953fa11611eeb7e7dbef95132", "is_reserved": 0}, {"is_disabled": 0, "fusion_lon": 0.0, "fusion_lat": 0.0, "lat": 38.920343833333334, "type": "electric_scooter", "lon": -77.025868, "bike_id": "7e1a25b305fbe7b68250aa48de41d790", "rental_uris": {"android": "https://dc.lft.to/lastmile_qr_scan", "ios": "https://dc.lft.to/lastmile_qr_scan"}, "name": "7e1a25b305fbe7b68250aa48de41d790", "is_reserved": 0}, {"is_disabled": 0, "fusion_lon": 0.0, "fusion_lat": 0.0, "lat": 38.859132333333335, "type": "electric_scooter", "lon": -76.98781583333333, "bike_id": "894818f5939c663ca955a3d901d2271f", "rental_uris": {"android": "https://dc.lft.to/lastmile_qr_scan", "ios": "https://dc.lft.to/lastmile_qr_scan"}, "name": "894818f5939c663ca955a3d901d2271f", "is_reserved": 0}, {"is_disabled": 0, "fusion_lon": 0.0, "fusion_lat": 0.0, "lat": 38.926027833333336, "type": "electric_scooter", "lon": -77.0215725, "bike_id": "3964ebbb77aac509395eabc3e5e0593f", "rental_uris": {"android": "https://dc.lft.to/lastmile_qr_scan", "ios": "https://dc.lft.to/lastmile_qr_scan"}, "name": "3964ebbb77aac509395eabc3e5e0593f", "is_reserved": 0}, {"is_disabled": 0, "fusion_lon": 0.0, "fusion_lat": 0.0, "lat": 38.916675166666664, "type": "electric_scooter", "lon": -77.0278735, "bike_id": "cbf9ce43cf0e1e4fd3e681928a8ca786", "rental_uris": {"android": "https://dc.lft.to/lastmile_qr_scan", "ios": "https://dc.lft.to/lastmile_qr_scan"}, "name": "cbf9ce43cf0e1e4fd3e681928a8ca786", "is_reserved": 0}, {"is_disabled": 0, "fusion_lon": 0.0, "fusion_lat": 0.0, "lat": 38.92083383333333, "type": "electric_scooter", "lon": -77.03196866666667, "bike_id": "403202db16073befec8ad38eb6d40f98", "rental_uris": {"android": "https://dc.lft.to/lastmile_qr_scan", "ios": "https://dc.lft.to/lastmile_qr_scan"}, "name": "403202db16073befec8ad38eb6d40f98", "is_reserved": 0}, {"is_disabled": 0, "fusion_lon": 0.0, "fusion_lat": 0.0, "lat": 38.92572633333333, "type": "electric_scooter", "lon": -76.9949155, "bike_id": "3c43e8d6996b18f53ddc84c7363955fd", "rental_uris": {"android": "https://dc.lft.to/lastmile_qr_scan", "ios": "https://dc.lft.to/lastmile_qr_scan"}, "name": "3c43e8d6996b18f53ddc84c7363955fd", "is_reserved": 0}, {"is_disabled": 0, "fusion_lon": 0.0, "fusion_lat": 0.0, "lat": 38.913486, "type": "electric_scooter", "lon": -77.04159433333334, "bike_id": "5196d3c8e77ce93c187347f4bee8d246", "rental_uris": {"android": "https://dc.lft.to/lastmile_qr_scan", "ios": "https://dc.lft.to/lastmile_qr_scan"}, "name": "5196d3c8e77ce93c187347f4bee8d246", "is_reserved": 0}, {"is_disabled": 0, "fusion_lon": 0.0, "fusion_lat": 0.0, "lat": 38.92342683333333, "type": "electric_scooter", "lon": -77.05095933333334, "bike_id": "c78a84142b404f676765df80c257b64e", "rental_uris": {"android": "https://dc.lft.to/lastmile_qr_scan", "ios": "https://dc.lft.to/lastmile_qr_scan"}, "name": "c78a84142b404f676765df80c257b64e", "is_reserved": 0}, {"is_disabled": 0, "fusion_lon": 0.0, "fusion_lat": 0.0, "lat": 38.9419755, "type": "electric_scooter", "lon": -77.02577716666667, "bike_id": "2bf001c5567b7656df2a0f7b5844ab92", "rental_uris": {"android": "https://dc.lft.to/lastmile_qr_scan", "ios": "https://dc.lft.to/lastmile_qr_scan"}, "name": "2bf001c5567b7656df2a0f7b5844ab92", "is_reserved": 0}, {"is_disabled": 0, "fusion_lon": 0.0, "fusion_lat": 0.0, "lat": 38.988266, "type": "electric_bike", "lon": -76.9875025, "bike_id": "59c95166900eef9e7520196aced70656", "rental_uris": {"android": "https://dc.lft.to/lastmile_qr_scan", "ios": "https://dc.lft.to/lastmile_qr_scan"}, "name": "59c95166900eef9e7520196aced70656", "is_reserved": 0}, {"is_disabled": 0, "fusion_lon": 0.0, "fusion_lat": 0.0, "lat": 38.90447416666667, "type": "electric_scooter", "lon": -77.02980216666667, "bike_id": "28343aec3b6cd4c49a8b2668c7b8bb35", "rental_uris": {"android": "https://dc.lft.to/lastmile_qr_scan", "ios": "https://dc.lft.to/lastmile_qr_scan"}, "name": "28343aec3b6cd4c49a8b2668c7b8bb35", "is_reserved": 0}, {"is_disabled": 0, "fusion_lon": 0.0, "fusion_lat": 0.0, "lat": 38.92741133333333, "type": "electric_scooter", "lon": -77.03359166666667, "bike_id": "2b2c2486d534f4150c4816adea50afd0", "rental_uris": {"android": "https://dc.lft.to/lastmile_qr_scan", "ios": "https://dc.lft.to/lastmile_qr_scan"}, "name": "2b2c2486d534f4150c4816adea50afd0", "is_reserved": 0}, {"is_disabled": 0, "fusion_lon": 0.0, "fusion_lat": 0.0, "lat": 38.920295333333335, "type": "electric_scooter", "lon": -77.02582866666667, "bike_id": "c096bd4b6472fba0eda57aba446b52b1", "rental_uris": {"android": "https://dc.lft.to/lastmile_qr_scan", "ios": "https://dc.lft.to/lastmile_qr_scan"}, "name": "c096bd4b6472fba0eda57aba446b52b1", "is_reserved": 0}, {"is_disabled": 0, "fusion_lon": 0.0, "fusion_lat": 0.0, "lat": 38.996692833333334, "type": "electric_bike", "lon": -76.99144116666666, "bike_id": "bc0d8d06457800959f513e5764625477", "rental_uris": {"android": "https://dc.lft.to/lastmile_qr_scan", "ios": "https://dc.lft.to/lastmile_qr_scan"}, "name": "bc0d8d06457800959f513e5764625477", "is_reserved": 0}, {"is_disabled": 0, "fusion_lon": 0.0, "fusion_lat": 0.0, "lat": 38.89815433333333, "type": "electric_scooter", "lon": -77.04338616666666, "bike_id": "d29cf0268560d6eb3fad2d5da3899c38", "rental_uris": {"android": "https://dc.lft.to/lastmile_qr_scan", "ios": "https://dc.lft.to/lastmile_qr_scan"}, "name": "d29cf0268560d6eb3fad2d5da3899c38", "is_reserved": 0}, {"is_disabled": 0, "fusion_lon": 0.0, "fusion_lat": 0.0, "lat": 38.917651, "type": "electric_scooter", "lon": -77.040572, "bike_id": "20ede2ebee459219d09990f7d3adea15", "rental_uris": {"android": "https://dc.lft.to/lastmile_qr_scan", "ios": "https://dc.lft.to/lastmile_qr_scan"}, "name": "20ede2ebee459219d09990f7d3adea15", "is_reserved": 0}, {"is_disabled": 0, "fusion_lon": 0.0, "fusion_lat": 0.0, "lat": 38.92619166666667, "type": "electric_scooter", "lon": -77.04196233333333, "bike_id": "d552d1606980979a26f7ef57efcbb1fc", "rental_uris": {"android": "https://dc.lft.to/lastmile_qr_scan", "ios": "https://dc.lft.to/lastmile_qr_scan"}, "name": "d552d1606980979a26f7ef57efcbb1fc", "is_reserved": 0}, {"is_disabled": 0, "fusion_lon": 0.0, "fusion_lat": 0.0, "lat": 38.91647416666667, "type": "electric_scooter", "lon": -77.02798983333334, "bike_id": "22e488a05ec7370363758b1bbd245199", "rental_uris": {"android": "https://dc.lft.to/lastmile_qr_scan", "ios": "https://dc.lft.to/lastmile_qr_scan"}, "name": "22e488a05ec7370363758b1bbd245199", "is_reserved": 0}, {"is_disabled": 0, "fusion_lon": 0.0, "fusion_lat": 0.0, "lat": 38.9445075, "type": "electric_scooter", "lon": -77.060327, "bike_id": "32d0323b99e1847e2f419fcd0bfd3e1a", "rental_uris": {"android": "https://dc.lft.to/lastmile_qr_scan", "ios": "https://dc.lft.to/lastmile_qr_scan"}, "name": "32d0323b99e1847e2f419fcd0bfd3e1a", "is_reserved": 0}, {"is_disabled": 0, "fusion_lon": 0.0, "fusion_lat": 0.0, "lat": 38.87184283333333, "type": "electric_bike", "lon": -77.005986, "bike_id": "793101aad2e0a9e634daf89145579ede", "rental_uris": {"android": "https://dc.lft.to/lastmile_qr_scan", "ios": "https://dc.lft.to/lastmile_qr_scan"}, "name": "793101aad2e0a9e634daf89145579ede", "is_reserved": 0}, {"is_disabled": 0, "fusion_lon": 0.0, "fusion_lat": 0.0, "lat": 38.87754066666667, "type": "electric_bike", "lon": -76.99525316666667, "bike_id": "deff2c6de3f593bf8cf190c47715b1c7", "rental_uris": {"android": "https://dc.lft.to/lastmile_qr_scan", "ios": "https://dc.lft.to/lastmile_qr_scan"}, "name": "deff2c6de3f593bf8cf190c47715b1c7", "is_reserved": 0}, {"is_disabled": 0, "fusion_lon": 0.0, "fusion_lat": 0.0, "lat": 38.92261466666667, "type": "electric_scooter", "lon": -77.041227, "bike_id": "4a514b1b363c4fa939dcca63c95e6052", "rental_uris": {"android": "https://dc.lft.to/lastmile_qr_scan", "ios": "https://dc.lft.to/lastmile_qr_scan"}, "name": "4a514b1b363c4fa939dcca63c95e6052", "is_reserved": 0}, {"is_disabled": 0, "fusion_lon": 0.0, "fusion_lat": 0.0, "lat": 38.961173333333335, "type": "electric_scooter", "lon": -77.0852425, "bike_id": "892e7631430a2d64e7c5361c35aef9b5", "rental_uris": {"android": "https://dc.lft.to/lastmile_qr_scan", "ios": "https://dc.lft.to/lastmile_qr_scan"}, "name": "892e7631430a2d64e7c5361c35aef9b5", "is_reserved": 0}, {"is_disabled": 0, "fusion_lon": 0.0, "fusion_lat": 0.0, "lat": 38.8865715, "type": "electric_bike", "lon": -77.1623425, "bike_id": "e419f2a0aae17b194551d6f64418d687", "rental_uris": {"android": "https://dc.lft.to/lastmile_qr_scan", "ios": "https://dc.lft.to/lastmile_qr_scan"}, "name": "e419f2a0aae17b194551d6f64418d687", "is_reserved": 0}, {"is_disabled": 0, "fusion_lon": 0.0, "fusion_lat": 0.0, "lat": 38.937838166666666, "type": "electric_scooter", "lon": -77.0187995, "bike_id": "a4c0088f223baf6c0142e59ad4c63def", "rental_uris": {"android": "https://dc.lft.to/lastmile_qr_scan", "ios": "https://dc.lft.to/lastmile_qr_scan"}, "name": "a4c0088f223baf6c0142e59ad4c63def", "is_reserved": 0}, {"is_disabled": 0, "fusion_lon": 0.0, "fusion_lat": 0.0, "lat": 38.8874785, "type": "electric_scooter", "lon": -77.01543016666666, "bike_id": "5af5cf3b6faf2a1665655013bf9579c2", "rental_uris": {"android": "https://dc.lft.to/lastmile_qr_scan", "ios": "https://dc.lft.to/lastmile_qr_scan"}, "name": "5af5cf3b6faf2a1665655013bf9579c2", "is_reserved": 0},