{"data": {"bikes": [{"lon": -77.027214, "name": "a2e25f5dd5b523f2126a6cf6cb65f23e", "is_disabled": 0, "type": "electric_scooter", "is_reserved": 0, "fusion_lon": 0.0, "lat": 38.92481333333333, "rental_uris": {"ios": "https://dc.lft.to/lastmile_qr_scan", "android": "https://dc.lft.to/lastmile_qr_scan"}, "bike_id": "a2e25f5dd5b523f2126a6cf6cb65f23e", "fusion_lat": 0.0}, {"lon": -77.04137633333333, "name": "1b70fb6d95e9797213558f020ce3b52d", "is_disabled": 0, "type": "electric_scooter", "is_reserved": 0, "fusion_lon": 0.0, "lat": 38.9346885, "rental_uris": {"ios": "https://dc.lft.to/lastmile_qr_scan", "android": "https://dc.lft.to/lastmile_qr_scan"}, "bike_id": "1b70fb6d95e9797213558f020ce3b52d", "fusion_lat": 0.0}, {"lon": -77.028051, "name": "bda9114e4877cfa14ab250c92967c5e2", "is_disabled": 0, "type": "electric_scooter", "is_reserved": 0, "fusion_lon": 0.0, "lat": 38.92474883333333, "rental_uris": {"ios": "https://dc.lft.to/lastmile_qr_scan", "android": "https://dc.lft.to/lastmile_qr_scan"}, "bike_id": "bda9114e4877cfa14ab250c92967c5e2", "fusion_lat": 0.0}, {"lon": -77.0232015, "name": "cf44d635bf41d530958bc718546a7e22", "is_disabled": 0, "type": "electric_scooter", "is_reserved": 0, "fusion_lon": 0.0, "lat": 38.920755, "rental_uris": {"ios": "https://dc.lft.to/lastmile_qr_scan", "android": "https://dc.lft.to/lastmile_qr_scan"}, "bike_id": "cf44d635bf41d530958bc718546a7e22", "fusion_lat": 0.0}, {"lon": -77.02300616666666, "name": "0287d145ba655e513df15573436825cb", "is_disabled": 0, "type": "electric_bike", "is_reserved": 0, "fusion_lon": 0.0, "lat": 38.966706, "rental_uris": {"ios": "https://dc.lft.to/lastmile_qr_scan", "android": "https://dc.lft.to/lastmile_qr_scan"}, "bike_id": "0287d145ba655e513df15573436825cb", "fusion_lat": 0.0}, {"lon": -77.02209616666667, "name": "28615608c6db32307b283536ab5da1b2", "is_disabled": 0, "type": "electric_scooter", "is_reserved": 0, "fusion_lon": 0.0, "lat": 38.89948283333333, "rental_uris": {"ios": "https://dc.lft.to/lastmile_qr_scan", "android": "https://dc.lft.to/lastmile_qr_scan"}, "bike_id": "28615608c6db32307b283536ab5da1b2", "fusion_lat": 0.0}, {"lon": -76.98547333333333, "name": "4bf3da2946acab5a8ccf6767029e3043", "is_disabled": 0, "type": "electric_scooter", "is_reserved": 0, "fusion_lon": 0.0, "lat": 38.886076, "rental_uris": {"ios": "https://dc.lft.to/lastmile_qr_scan", "android": "https://dc.lft.to/lastmile_qr_scan"}, "bike_id": "4bf3da2946acab5a8ccf6767029e3043", "fusion_lat": 0.0}, {"lon": -77.02162616666666, "name": "f453d187d1395b00e874c6a20ea813ed", "is_disabled": 0, "type": "electric_scooter", "is_reserved": 0, "fusion_lon": 0.0, "lat": 38.89379816666667, "rental_uris": {"ios": "https://dc.lft.to/lastmile_qr_scan", "android": "https://dc.lft.to/lastmile_qr_scan"}, "bike_id": "f453d187d1395b00e874c6a20ea813ed", "fusion_lat": 0.0}, {"lon": -77.04081033333334, "name": "9662712a00ff6bf0c0424b0eb84d39ab", "is_disabled": 0, "type": "electric_bike", "is_reserved": 0, "fusion_lon": 0.0, "lat": 38.83061583333333, "rental_uris": {"ios": "https://dc.lft.to/lastmile_qr_scan", "android": "https://dc.lft.to/lastmile_qr_scan"}, "bike_id": "9662712a00ff6bf0c0424b0eb84d39ab", "fusion_lat": 0.0}, {"lon": -76.972071, "name": "43a32c148647b5c24ab6f3fffa41830d", "is_disabled": 0, "type": "electric_scooter", "is_reserved": 0, "fusion_lon": 0.0, "lat": 38.9255185, "rental_uris": {"ios": "https://dc.lft.to/lastmile_qr_scan", "android": "https://dc.lft.to/lastmile_qr_scan"}, "bike_id": "43a32c148647b5c24ab6f3fffa41830d", "fusion_lat": 0.0}, {"lon": -76.98545933333334, "name": "c708babb44428a40bad37d2ac13027ab", "is_disabled": 0, "type": "electric_scooter", "is_reserved": 0, "fusion_lon": 0.0, "lat": 38.88353216666667, "rental_uris": {"ios": "https://dc.lft.to/lastmile_qr_scan", "android": "https://dc.lft.to/lastmile_qr_scan"}, "bike_id": "c708babb44428a40bad37d2ac13027ab", "fusion_lat": 0.0}, {"lon": -76.996987, "name": "c043a1d7c06bb1d5fc404b1e3daece03", "is_disabled": 0, "type": "electric_scooter", "is_reserved": 0, "fusion_lon": 0.0, "lat": 38.9079915, "rental_uris": {"ios": "https://dc.lft.to/lastmile_qr_scan", "android": "https://dc.lft.to/lastmile_qr_scan"}, "bike_id": "c043a1d7c06bb1d5fc404b1e3daece03", "fusion_lat": 0.0}, {"lon": -76.98238116666667, "name": "a327acacec85fd1c069a953b8e2b6324", "is_disabled": 0, "type": "electric_scooter", "is_reserved": 0, "fusion_lon": 0.0, "lat": 38.90474833333333, "rental_uris": {"ios": "https://dc.lft.to/lastmile_qr_scan", "android": "https://dc.lft.to/lastmile_qr_scan"}, "bike_id": "a327acacec85fd1c069a953b8e2b6324", "fusion_lat": 0.0}, {"lon": -77.02386666666666, "name": "f92e2457defee35d1ef16b59c0ac408c", "is_disabled": 0, "type": "electric_scooter", "is_reserved": 0, "fusion_lon": 0.0, "lat": 38.8986445, "rental_uris": {"ios": "https://dc.lft.to/lastmile_qr_scan", "android": "https://dc.lft.to/lastmile_qr_scan"}, "bike_id": "f92e2457defee35d1ef16b59c0ac408c", "fusion_lat": 0.0}, {"lon": -77.01993533333334, "name": "855461af5bb75250c0265a57a07b40ce", "is_disabled": 0, "type": "electric_scooter", "is_reserved": 0, "fusion_lon": 0.0, "lat": 38.93779116666666, "rental_uris": {"ios": "https://dc.lft.to/lastmile_qr_scan", "android": "https://dc.lft.to/lastmile_qr_scan"}, "bike_id": "855461af5bb75250c0265a57a07b40ce", "fusion_lat": 0.0}, {"lon": -77.02319166666666, "name": "2c77b38880557ae3bbc5035533c184e9", "is_disabled": 0, "type": "electric_scooter", "is_reserved": 0, "fusion_lon": 0.0, "lat": 38.92072316666667, "rental_uris": {"ios": "https://dc.lft.to/lastmile_qr_scan", "android": "https://dc.lft.to/lastmile_qr_scan"}, "bike_id": "2c77b38880557ae3bbc5035533c184e9", "fusion_lat": 0.0}, {"lon": -77.07241583333334, "name": "088064e2cf31eb950df0c4241e567cb4", "is_disabled": 0, "type": "electric_scooter", "is_reserved": 0, "fusion_lon": 0.0, "lat": 38.9410905, "rental_uris": {"ios": "https://dc.lft.to/lastmile_qr_scan", "android": "https://dc.lft.to/lastmile_qr_scan"}, "bike_id": "088064e2cf31eb950df0c4241e567cb4", "fusion_lat": 0.0}, {"lon": -77.00038183333334, "name": "21f03182142b42b1ca0988c141eda3e2", "is_disabled": 0, "type": "electric_scooter", "is_reserved": 0, "fusion_lon": 0.0, "lat": 38.90797966666667, "rental_uris": {"ios": "https://dc.lft.to/lastmile_qr_scan", "android": "https://dc.lft.to/lastmile_qr_scan"}, "bike_id": "21f03182142b42b1ca0988c141eda3e2", "fusion_lat": 0.0}, {"lon": -77.02183066666667, "name": "7ff557968a692bfdbe3f37222abd01e3", "is_disabled": 0, "type": "electric_scooter", "is_reserved": 0, "fusion_lon": 0.0, "lat": 38.901902166666666, "rental_uris": {"ios": "https://dc.lft.to/lastmile_qr_scan", "android": "https://dc.lft.to/lastmile_qr_scan"}, "bike_id": "7ff557968a692bfdbe3f37222abd01e3", "fusion_lat": 0.0}, {"lon": -76.97331016666666, "name": "1842962eefaf2daf05bbaaa59d5713a6", "is_disabled": 0, "type": "electric_scooter", "is_reserved": 0, "fusion_lon": 0.0, "lat": 38.90411533333334, "rental_uris": {"ios": "https://dc.lft.to/lastmile_qr_scan", "android": "https://dc.lft.to/lastmile_qr_scan"}, "bike_id": "1842962eefaf2daf05bbaaa59d5713a6", "fusion_lat": 0.0}, {"lon": -76.98375066666667, "name": "3fbe033a0976640cdf9ebcf45f67005d", "is_disabled": 0, "type": "electric_scooter", "is_reserved": 0, "fusion_lon": 0.0, "lat": 38.860325333333336, "rental_uris": {"ios": "https://dc.lft.to/lastmile_qr_scan", "android": "https://dc.lft.to/lastmile_qr_scan"}, "bike_id": "3fbe033a0976640cdf9ebcf45f67005d", "fusion_lat": 0.0}, {"lon": -77.021516, "name": "e7fec4d7703daae69eaf3016b61e88de", "is_disabled": 0, "type": "electric_scooter", "is_reserved": 0, "fusion_lon": 0.0, "lat": 38.925973166666665, "rental_uris": {"ios": "https://dc.lft.to/lastmile_qr_scan", "android": "https://dc.lft.to/lastmile_qr_scan"}, "bike_id": "e7fec4d7703daae69eaf3016b61e88de", "fusion_lat": 0.0}, {"lon": -77.00536766666667, "name": "e8833e8e75dc898260c27dbd250decae", "is_disabled": 0, "type": "electric_scooter", "is_reserved": 0, "fusion_lon": 0.0, "lat": 38.87547516666667, "rental_uris": {"ios": "https://dc.lft.to/lastmile_qr_scan", "android": "https://dc.lft.to/lastmile_qr_scan"}, "bike_id": "e8833e8e75dc898260c27dbd250decae", "fusion_lat": 0.0}, {"lon": -77.0320795, "name": "de593d8baf98df78157e60d6c786e862", "is_disabled": 0, "type": "electric_scooter", "is_reserved": 0, "fusion_lon": 0.0, "lat": 38.91909316666667, "rental_uris": {"ios": "https://dc.lft.to/lastmile_qr_scan", "android": "https://dc.lft.to/lastmile_qr_scan"}, "bike_id": "de593d8baf98df78157e60d6c786e862", "fusion_lat": 0.0}, {"lon": -77.00606366666666, "name": "6f6bc4d37584369902e4edabbc1481e3", "is_disabled": 0, "type": "electric_scooter", "is_reserved": 0, "fusion_lon": 0.0, "lat": 38.90558633333333, "rental_uris": {"ios": "https://dc.lft.to/lastmile_qr_scan", "android": "https://dc.lft.to/lastmile_qr_scan"}, "bike_id": "6f6bc4d37584369902e4edabbc1481e3", "fusion_lat": 0.0}, {"lon": -77.00579233333333, "name": "03bf2829c0e3b508ccd47085b1434aa7", "is_disabled": 0, "type": "electric_scooter", "is_reserved": 0, "fusion_lon": 0.0, "lat": 38.87217583333333, "rental_uris": {"ios": "https://dc.lft.to/lastmile_qr_scan", "android": "https://dc.lft.to/lastmile_qr_scan"}, "bike_id": "03bf2829c0e3b508ccd47085b1434aa7", "fusion_lat": 0.0}, {"lon": -77.01219166666667, "name": "c9f17a8a81a278496328edafcfc57601", "is_disabled": 0, "type": "electric_scooter", "is_reserved": 0, "fusion_lon": 0.0, "lat": 38.91516583333333, "rental_uris": {"ios": "https://dc.lft.to/lastmile_qr_scan", "android": "https://dc.lft.to/lastmile_qr_scan"}, "bike_id": "c9f17a8a81a278496328edafcfc57601", "fusion_lat": 0.0}, {"lon": -77.03559833333334, "name": "aa0d0488fe2251e48c4b74111c4c2323", "is_disabled": 0, "type": "electric_scooter", "is_reserved": 0, "fusion_lon": 0.0, "lat": 38.90461066666667, "rental_uris": {"ios": "https://dc.lft.to/lastmile_qr_scan", "android": "https://dc.lft.to/lastmile_qr_scan"}, "bike_id": "aa0d0488fe2251e48c4b74111c4c2323", "fusion_lat": 0.0}, {"lon": -77.078007, "name": "3a3b344768e5a195bdfa97998514016d", "is_disabled": 0, "type": "electric_scooter", "is_reserved": 0, "fusion_lon": 0.0, "lat": 38.93845433333333, "rental_uris": {"ios": "https://dc.lft.to/lastmile_qr_scan", "android": "https://dc.lft.to/lastmile_qr_scan"}, "bike_id": "3a3b344768e5a195bdfa97998514016d", "fusion_lat": 0.0}, {"lon": -76.93008083333334, "name": "c07e2d04a05b76cbcde06629e096e907", "is_disabled": 0, "type": "electric_scooter", "is_reserved": 0, "fusion_lon": 0.0, "lat": 38.90717166666667, "rental_uris": {"ios": "https://dc.lft.to/lastmile_qr_scan", "android": "https://dc.lft.to/lastmile_qr_scan"}, "bike_id": "c07e2d04a05b76cbcde06629e096e907", "fusion_lat": 0.0}, {"lon": -77.04997183333333, "name": "18a1453249aaa6f3e9e68f48008d3132", "is_disabled": 0, "type": "electric_scooter", "is_reserved": 0, "fusion_lon": 0.0, "lat": 38.892280166666666, "rental_uris": {"ios": "https://dc.lft.to/lastmile_qr_scan", "android": "https://dc.lft.to/lastmile_qr_scan"}, "bike_id": "18a1453249aaa6f3e9e68f48008d3132", "fusion_lat": 0.0}, {"lon": -77.03660216666667, "name": "517c8cab173e60da716030ee34618877", "is_disabled": 0, "type": "electric_scooter", "is_reserved": 0, "fusion_lon": 0.0, "lat": 38.92337033333333, "rental_uris": {"ios": "https://dc.lft.to/lastmile_qr_scan", "android": "https://dc.lft.to/lastmile_qr_scan"}, "bike_id": "517c8cab173e60da716030ee34618877", "fusion_lat": 0.0}, {"lon": -77.0203, "name": "8b3c40629a260cbf807dbfeb9be23019", "is_disabled": 0, "type": "electric_scooter", "is_reserved": 0, "fusion_lon": 0.0, "lat": 38.898726333333336, "rental_uris": {"ios": "https://dc.lft.to/lastmile_qr_scan", "android": "https://dc.lft.to/lastmile_qr_scan"}, "bike_id": "8b3c40629a260cbf807dbfeb9be23019", "fusion_lat": 0.0}, {"lon": -77.01955166666667, "name": "104d2949a6e4a0ede9ef75e022d189a6", "is_disabled": 0, "type": "electric_scooter", "is_reserved": 0, "fusion_lon": 0.0, "lat": 38.922475666666664, "rental_uris": {"ios": "https://dc.lft.to/lastmile_qr_scan", "android": "https://dc.lft.to/lastmile_qr_scan"}, "bike_id": "104d2949a6e4a0ede9ef75e022d189a6", "fusion_lat": 0.0}, {"lon": -77.04362483333334, "name": "e200f998a8fa21f52dec9e8916f0b1ab", "is_disabled": 0, "type": "electric_scooter", "is_reserved": 0, "fusion_lon": 0.0, "lat": 38.9206695, "rental_uris": {"ios": "https://dc.lft.to/lastmile_qr_scan", "android": "https://dc.lft.to/lastmile_qr_scan"}, "bike_id": "e200f998a8fa21f52dec9e8916f0b1ab", "fusion_lat": 0.0}, {"lon": -77.02504116666667, "name": "4cf0ccc4deaae63c339a54c3a56b1161", "is_disabled": 0, "type": "electric_scooter", "is_reserved": 0, "fusion_lon": 0.0, "lat": 38.9039605, "rental_uris": {"ios": "https://dc.lft.to/lastmile_qr_scan", "android": "https://dc.lft.to/lastmile_qr_scan"}, "bike_id": "4cf0ccc4deaae63c339a54c3a56b1161", "fusion_lat": 0.0}, {"lon": -77.05000416666667, "name": "40bae218883b891516983c5d0400dfcd", "is_disabled": 0, "type": "electric_scooter", "is_reserved": 0, "fusion_lon": 0.0, "lat": 38.892305666666665, "rental_uris": {"ios": "https://dc.lft.to/lastmile_qr_scan", "android": "https://dc.lft.to/lastmile_qr_scan"}, "bike_id": "40bae218883b891516983c5d0400dfcd", "fusion_lat": 0.0}, {"lon": -77.022175, "name": "90d3b820b243f86600b9fe8e096d1e73", "is_disabled": 0, "type": "electric_scooter", "is_reserved": 0, "fusion_lon": 0.0, "lat": 38.924712666666665, "rental_uris": {"ios": "https://dc.lft.to/lastmile_qr_scan", "android": "https://dc.lft.to/lastmile_qr_scan"}, "bike_id": "90d3b820b243f86600b9fe8e096d1e73", "fusion_lat": 0.0}, {"lon": -76.9795765, "name": "c1979fe3433d84924b7ae2bcb2dfa333", "is_disabled": 0, "type": "electric_bike", "is_reserved": 0, "fusion_lon": 0.0, "lat": 38.920385333333336, "rental_uris": {"ios": "https://dc.lft.to/lastmile_qr_scan", "android": "https://dc.lft.to/lastmile_qr_scan"}, "bike_id": "c1979fe3433d84924b7ae2bcb2dfa333", "fusion_lat": 0.0}, {"lon": -77.0338735, "name": "7a8cad8ca3534509c65a1906e941dfcb", "is_disabled": 0, "type": "electric_scooter", "is_reserved": 0, "fusion_lon": 0.0, "lat": 38.900014666666664, "rental_uris": {"ios": "https://dc.lft.to/lastmile_qr_scan", "android": "https://dc.lft.to/lastmile_qr_scan"}, "bike_id": "7a8cad8ca3534509c65a1906e941dfcb", "fusion_lat": 0.0}, {"lon": -77.0220415, "name": "34fa6ac81bdccae1908962ee09096275", "is_disabled": 0, "type": "electric_scooter", "is_reserved": 0, "fusion_lon": 0.0, "lat": 38.920983666666665, "rental_uris": {"ios": "https://dc.lft.to/lastmile_qr_scan", "android": "https://dc.lft.to/lastmile_qr_scan"}, "bike_id": "34fa6ac81bdccae1908962ee09096275", "fusion_lat": 0.0}, {"lon": -77.03443933333334, "name": "340acebd9d50692f929d35c8b460fba5", "is_disabled": 0, "type": "electric_scooter", "is_reserved": 0, "fusion_lon": 0.0, "lat": 38.90362066666667, "rental_uris": {"ios": "https://dc.lft.to/lastmile_qr_scan", "android": "https://dc.lft.to/lastmile_qr_scan"}, "bike_id": "340acebd9d50692f929d35c8b460fba5", "fusion_lat": 0.0}, {"lon": -76.984568, "name": "d50a80f96492cda0920f9b70e650af08", "is_disabled": 0, "type": "electric_scooter", "is_reserved": 0, "fusion_lon": 0.0, "lat": 38.892362166666665, "rental_uris": {"ios": "https://dc.lft.to/lastmile_qr_scan", "android": "https://dc.lft.to/lastmile_qr_scan"}, "bike_id": "d50a80f96492cda0920f9b70e650af08", "fusion_lat": 0.0}, {"lon": -77.02075566666667, "name": "113da30709a7d8e4704934bf72284b17", "is_disabled": 0, "type": "electric_scooter", "is_reserved": 0, "fusion_lon": 0.0, "lat": 38.9228365, "rental_uris": {"ios": "https://dc.lft.to/lastmile_qr_scan", "android": "https://dc.lft.to/lastmile_qr_scan"}, "bike_id": "113da30709a7d8e4704934bf72284b17", "fusion_lat": 0.0}, {"lon": -76.99814183333334, "name": "a844e480bdaa5d546acfb26b82e98185", "is_disabled": 0, "type": "electric_scooter", "is_reserved": 0, "fusion_lon": 0.0, "lat": 38.906037833333336, "rental_uris": {"ios": "https://dc.lft.to/lastmile_qr_scan", "android": "https://dc.lft.to/lastmile_qr_scan"}, "bike_id": "a844e480bdaa5d546acfb26b82e98185", "fusion_lat": 0.0}, {"lon": -77.009824, "name": "fec8fdd5b1aab4eddfc609e9b08a9a00", "is_disabled": 0, "type": "electric_scooter", "is_reserved": 0, "fusion_lon": 0.0, "lat": 38.91401783333333, "rental_uris": {"ios": "https://dc.lft.to/lastmile_qr_scan", "android": "https://dc.lft.to/lastmile_qr_scan"}, "bike_id": "fec8fdd5b1aab4eddfc609e9b08a9a00", "fusion_lat": 0.0}, {"lon": -77.03173866666667, "name": "b36b3cee1f75a841c1f0f4d6a2248a77", "is_disabled": 0, "type": "electric_scooter", "is_reserved": 0, "fusion_lon": 0.0, "lat": 38.883888, "rental_uris": {"ios": "https://dc.lft.to/lastmile_qr_scan", "android": "https://dc.lft.to/lastmile_qr_scan"}, "bike_id": "b36b3cee1f75a841c1f0f4d6a2248a77", "fusion_lat": 0.0}, {"lon": -77.02321916666666, "name": "3e7a981fdbe5a8f64edc14e4daa6c3d7", "is_disabled": 0, "type": "electric_scooter", "is_reserved": 0, "fusion_lon": 0.0, "lat": 38.939902333333336, "rental_uris": {"ios": "https://dc.lft.to/lastmile_qr_scan", "android": "https://dc.lft.to/lastmile_qr_scan"}, "bike_id": "3e7a981fdbe5a8f64edc14e4daa6c3d7", "fusion_lat": 0.0}, {"lon": -77.03801733333333, "name": "2a8ccfb3870b5c2d4de18a51ac2fe406", "is_disabled": 0, "type": "electric_scooter", "is_reserved": 0, "fusion_lon": 0.0, "lat": 38.92543283333333, "rental_uris": {"ios": "https://dc.lft.to/lastmile_qr_scan", "android": "https://dc.lft.to/lastmile_qr_scan"}, "bike_id": "2a8ccfb3870b5c2d4de18a51ac2fe406", "fusion_lat": 0.0}, {"lon": -76.99851116666666, "name": "2986465d47feccc3a6dbbb907a8b27fb", "is_disabled": 0, "type": "electric_scooter", "is_reserved": 0, "fusion_lon": 0.0, "lat": 38.9011995, "rental_uris": {"ios": "https://dc.lft.to/lastmile_qr_scan", "android": "https://dc.lft.to/lastmile_qr_scan"}, "bike_id": "2986465d47feccc3a6dbbb907a8b27fb", "fusion_lat": 0.0}, {"lon": -77.02513683333333, "name": "9a4910342300cbc7924607ab23d60b3c", "is_disabled": 0, "type": "electric_scooter", "is_reserved": 0, "fusion_lon": 0.0, "lat": 38.917110666666666, "rental_uris": {"ios": "https://dc.lft.to/lastmile_qr_scan", "android": "https://dc.lft.to/lastmile_qr_scan"}, "bike_id": "9a4910342300cbc7924607ab23d60b3c", "fusion_lat": 0.0}, {"lon": -76.99561983333334, "name": "9695f601787ecc5fbdd03a3cf696a748", "is_disabled": 0, "type": "electric_scooter", "is_reserved": 0, "fusion_lon": 0.0, "lat": 38.9506485, "rental_uris": {"ios": "https://dc.lft.to/lastmile_qr_scan", "android": "https://dc.lft.to/lastmile_qr_scan"}, "bike_id": "9695f601787ecc5fbdd03a3cf696a748", "fusion_lat": 0.0}, {"lon": -77.0325275, "name": "62b453ad9499a7470987e80fb30e5ada", "is_disabled": 0, "type": "electric_scooter", "is_reserved": 0, "fusion_lon": 0.0, "lat": 38.90273783333333, "rental_uris": {"ios": "https://dc.lft.to/lastmile_qr_scan", "android": "https://dc.lft.to/lastmile_qr_scan"}, "bike_id": "62b453ad9499a7470987e80fb30e5ada", "fusion_lat": 0.0}, {"lon": -77.05077533333333, "name": "100fbfc354313f4935d483dd691bfa9e", "is_disabled": 0, "type": "electric_scooter", "is_reserved": 0, "fusion_lon": 0.0, "lat": 38.9005085, "rental_uris": {"ios": "https://dc.lft.to/lastmile_qr_scan", "android": "https://dc.lft.to/lastmile_qr_scan"}, "bike_id": "100fbfc354313f4935d483dd691bfa9e", "fusion_lat": 0.0}, {"lon": -76.92633566666666, "name": "5af6d6c4f039f975941d3c25a73d55b3", "is_disabled": 0, "type": "electric_scooter", "is_reserved": 0, "fusion_lon": 0.0, "lat": 38.8861535, "rental_uris": {"ios": "https://dc.lft.to/lastmile_qr_scan", "android": "https://dc.lft.to/lastmile_qr_scan"}, "bike_id": "5af6d6c4f039f975941d3c25a73d55b3", "fusion_lat": 0.0}, {"lon": -77.008949, "name": "2f7c2ab76130eb472faa9064c1be5f55", "is_disabled": 0, "type": "electric_scooter", "is_reserved": 0, "fusion_lon": 0.0, "lat": 38.90978633333334, "rental_uris": {"ios": "https://dc.lft.to/lastmile_qr_scan", "android": "https://dc.lft.to/lastmile_qr_scan"}, "bike_id": "2f7c2ab76130eb472faa9064c1be5f55", "fusion_lat": 0.0}, {"lon": -77.02593816666666, "name": "6064b441d68a31aa3e1435393e204a0b", "is_disabled": 0, "type": "electric_scooter", "is_reserved": 0, "fusion_lon": 0.0, "lat": 38.918751, "rental_uris": {"ios": "https://dc.lft.to/lastmile_qr_scan", "android": "https://dc.lft.to/lastmile_qr_scan"}, "bike_id": "6064b441d68a31aa3e1435393e204a0b", "fusion_lat": 0.0}, {"lon": -77.01983716666666, "name": "3ac116278bf2722a71437aaf440d757f", "is_disabled": 0, "type": "electric_scooter", "is_reserved": 0, "fusion_lon": 0.0, "lat": 38.96743166666667, "rental_uris": {"ios": "https://dc.lft.to/lastmile_qr_scan", "android": "https://dc.lft.to/lastmile_qr_scan"}, "bike_id": "3ac116278bf2722a71437aaf440d757f", "fusion_lat": 0.0}, {"lon": -77.03779783333333, "name": "77c49409a5042270cc75f945a1100b3a", "is_disabled": 0, "type": "electric_scooter", "is_reserved": 0, "fusion_lon": 0.0, "lat": 38.927784833333334, "rental_uris": {"ios": "https://dc.lft.to/lastmile_qr_scan", "android": "https://dc.lft.to/lastmile_qr_scan"}, "bike_id": "77c49409a5042270cc75f945a1100b3a", "fusion_lat": 0.0}, {"lon": -76.98237916666666, "name": "5e8e28407740e6721917c404beef40e8", "is_disabled": 0, "type": "electric_scooter", "is_reserved": 0, "fusion_lon": 0.0, "lat": 38.90891883333333, "rental_uris": {"ios": "https://dc.lft.to/lastmile_qr_scan", "android": "https://dc.lft.to/lastmile_qr_scan"}, "bike_id": "5e8e28407740e6721917c404beef40e8", "fusion_lat": 0.0}, {"lon": -77.03921466666667, "name": "ea2552adda77ba88bb28922cf44a4ed8", "is_disabled": 0, "type": "electric_scooter", "is_reserved": 0, "fusion_lon": 0.0, "lat": 38.924847666666665, "rental_uris": {"ios": "https://dc.lft.to/lastmile_qr_scan", "android": "https://dc.lft.to/lastmile_qr_scan"}, "bike_id": "ea2552adda77ba88bb28922cf44a4ed8", "fusion_lat": 0.0}, {"lon": -77.04975766666666, "name": "3347055dbd79d84c48825407553d815a", "is_disabled": 0, "type": "electric_scooter", "is_reserved": 0, "fusion_lon": 0.0, "lat": 38.89789316666667, "rental_uris": {"ios": "https://dc.lft.to/lastmile_qr_scan", "android": "https://dc.lft.to/lastmile_qr_scan"}, "bike_id": "3347055dbd79d84c48825407553d815a", "fusion_lat": 0.0}, {"lon": -77.02096633333333, "name": "82e50ed09be95cf4e12c318ba3cb5e37", "is_disabled": 0, "type": "electric_scooter", "is_reserved": 0, "fusion_lon": 0.0, "lat": 38.9311385, "rental_uris": {"ios": "https://dc.lft.to/lastmile_qr_scan", "android": "https://dc.lft.to/lastmile_qr_scan"}, "bike_id": "82e50ed09be95cf4e12c318ba3cb5e37", "fusion_lat": 0.0}, {"lon": -77.021308, "name": "b2327eb8855ebb490338fc15b35f26ba", "is_disabled": 0, "type": "electric_scooter", "is_reserved": 0, "fusion_lon": 0.0, "lat": 38.924175166666664, "rental_uris": {"ios": "https://dc.lft.to/lastmile_qr_scan", "android": "https://dc.lft.to/lastmile_qr_scan"}, "bike_id": "b2327eb8855ebb490338fc15b35f26ba", "fusion_lat": 0.0}, {"lon": -77.06002816666667, "name": "a54fafd4f5ba4bf9a0952c9d5b1f82bd", "is_disabled": 0, "type": "electric_scooter", "is_reserved": 0, "fusion_lon": 0.0, "lat": 38.927097333333336, "rental_uris": {"ios": "https://dc.lft.to/lastmile_qr_scan", "android": "https://dc.lft.to/lastmile_qr_scan"}, "bike_id": "a54fafd4f5ba4bf9a0952c9d5b1f82bd", "fusion_lat": 0.0}, {"lon": -76.93217033333333, "name": "bb1eaf1fffec60e6e5286d8b1ffd36c8", "is_disabled": 0, "type": "electric_scooter", "is_reserved": 0, "fusion_lon": 0.0, "lat": 38.880494, "rental_uris": {"ios": "https://dc.lft.to/lastmile_qr_scan", "android": "https://dc.lft.to/lastmile_qr_scan"}, "bike_id": "bb1eaf1fffec60e6e5286d8b1ffd36c8", "fusion_lat": 0.0}, {"lon": -77.04196266666666, "name": "fef1872fd985b06a680c7ffe155e03b1", "is_disabled": 0, "type": "electric_scooter", "is_reserved": 0, "fusion_lon": 0.0, "lat": 38.92060216666667, "rental_uris": {"ios": "https://dc.lft.to/lastmile_qr_scan", "android": "https://dc.lft.to/lastmile_qr_scan"}, "bike_id": "fef1872fd985b06a680c7ffe155e03b1", "fusion_lat": 0.0}, {"lon": -77.01034383333334, "name": "c4536206e409f38754c866863238a252", "is_disabled": 0, "type": "electric_bike", "is_reserved": 0, "fusion_lon": 0.0, "lat": 38.958831333333336, "rental_uris": {"ios": "https://dc.lft.to/lastmile_qr_scan", "android": "https://dc.lft.to/lastmile_qr_scan"}, "bike_id": "c4536206e409f38754c866863238a252", "fusion_lat": 0.0}, {"lon": -77.054201, "name": "090f7c2982af9fb00b7f8c36fa35024b", "is_disabled": 0, "type": "electric_scooter", "is_reserved": 0, "fusion_lon": 0.0, "lat": 38.985227333333334, "rental_uris": {"ios": "https://dc.lft.to/lastmile_qr_scan", "android": "https://dc.lft.to/lastmile_qr_scan"}, "bike_id": "090f7c2982af9fb00b7f8c36fa35024b", "fusion_lat": 0.0}, {"lon": -76.98624783333334, "name": "ebdb867c6ebc9e6680944192b1fe64bd", "is_disabled": 0, "type": "electric_scooter", "is_reserved": 0, "fusion_lon": 0.0, "lat": 38.905827333333335, "rental_uris": {"ios": "https://dc.lft.to/lastmile_qr_scan", "android": "https://dc.lft.to/lastmile_qr_scan"}, "bike_id": "ebdb867c6ebc9e6680944192b1fe64bd", "fusion_lat": 0.0}, {"lon": -76.9320885, "name": "b050829ae2b036d271fb20fd93fb6823", "is_disabled": 0, "type": "electric_scooter", "is_reserved": 0, "fusion_lon": 0.0, "lat": 38.8985415, "rental_uris": {"ios": "https://dc.lft.to/lastmile_qr_scan", "android": "https://dc.lft.to/lastmile_qr_scan"}, "bike_id": "b050829ae2b036d271fb20fd93fb6823", "fusion_lat": 0.0}, {"lon": -76.95360833333334, "name": "7a372576d577e0fca086863e37103037", "is_disabled": 0, "type": "electric_scooter", "is_reserved": 0, "fusion_lon": 0.0, "lat": 38.88952466666667, "rental_uris": {"ios": "https://dc.lft.to/lastmile_qr_scan", "android": "https://dc.lft.to/lastmile_qr_scan"}, "bike_id": "7a372576d577e0fca086863e37103037", "fusion_lat": 0.0}, {"lon": -76.99036016666666, "name": "3404034a4aecda67379ae6deb50e137f", "is_disabled": 0, "type": "electric_scooter", "is_reserved": 0, "fusion_lon": 0.0, "lat": 38.865076, "rental_uris": {"ios": "https://dc.lft.to/lastmile_qr_scan", "android": "https://dc.lft.to/lastmile_qr_scan"}, "bike_id": "3404034a4aecda67379ae6deb50e137f", "fusion_lat": 0.0}, {"lon": -77.0318705, "name": "2afcea2f914b6270272dccf0f1e5f0ee", "is_disabled": 0, "type": "electric_scooter", "is_reserved": 0, "fusion_lon": 0.0, "lat": 38.914271, "rental_uris": {"ios": "https://dc.lft.to/lastmile_qr_scan", "android": "https://dc.lft.to/lastmile_qr_scan"}, "bike_id": "2afcea2f914b6270272dccf0f1e5f0ee", "fusion_lat": 0.0}, {"lon": -76.9314135, "name": "3a49314b1860b2b94cf82b5af7411175", "is_disabled": 0, "type": "electric_scooter", "is_reserved": 0, "fusion_lon": 0.0, "lat": 38.883320499999996, "rental_uris": {"ios": "https://dc.lft.to/lastmile_qr_scan", "android": "https://dc.lft.to/lastmile_qr_scan"}, "bike_id": "3a49314b1860b2b94cf82b5af7411175", "fusion_lat": 0.0}, {"lon": -77.05947466666667, "name": "25adc117e09ce63aaa9e2d7d76206364", "is_disabled": 0, "type": "electric_scooter", "is_reserved": 0, "fusion_lon": 0.0, "lat": 38.94301383333333, "rental_uris": {"ios": "https://dc.lft.to/lastmile_qr_scan", "android": "https://dc.lft.to/lastmile_qr_scan"}, "bike_id": "25adc117e09ce63aaa9e2d7d76206364", "fusion_lat": 0.0}, {"lon": -77.0365985, "name": "2cbbb4b718b7ccb01c2d2f489754922d", "is_disabled": 0, "type": "electric_scooter", "is_reserved": 0, "fusion_lon": 0.0, "lat": 38.92339483333333, "rental_uris": {"ios": "https://dc.lft.to/lastmile_qr_scan", "android": "https://dc.lft.to/lastmile_qr_scan"}, "bike_id": "2cbbb4b718b7ccb01c2d2f489754922d", "fusion_lat": 0.0}, {"lon": -77.03207083333334, "name": "368b3c8df8b6193b0a126e78d466341b", "is_disabled": 0, "type": "electric_scooter", "is_reserved": 0, "fusion_lon": 0.0, "lat": 38.917267, "rental_uris": {"ios": "https://dc.lft.to/lastmile_qr_scan", "android": "https://dc.lft.to/lastmile_qr_scan"}, "bike_id": "368b3c8df8b6193b0a126e78d466341b", "fusion_lat": 0.0}, {"lon": -76.99822633333333, "name": "9efa25de17d92a798f57379939b355f9", "is_disabled": 0, "type": "electric_scooter", "is_reserved": 0, "fusion_lon": 0.0, "lat": 38.90719716666667, "rental_uris": {"ios": "https://dc.lft.to/lastmile_qr_scan", "android": "https://dc.lft.to/lastmile_qr_scan"}, "bike_id": "9efa25de17d92a798f57379939b355f9", "fusion_lat": 0.0}, {"lon": -77.03210033333333, "name": "7490521fdfaf3d2f2930083c12724ad6", "is_disabled": 0, "type": "electric_scooter", "is_reserved": 0, "fusion_lon": 0.0, "lat": 38.9183365, "rental_uris": {"ios": "https://dc.lft.to/lastmile_qr_scan", "android": "https://dc.lft.to/lastmile_qr_scan"}, "bike_id": "7490521fdfaf3d2f2930083c12724ad6", "fusion_lat": 0.0}, {"lon": -77.01210383333333, "name": "664a932b914789b6e77d5dca46c76e8b", "is_disabled": 0, "type": "electric_scooter", "is_reserved": 0, "fusion_lon": 0.0, "lat": 38.918214, "rental_uris": {"ios": "https://dc.lft.to/lastmile_qr_scan", "android": "https://dc.lft.to/lastmile_qr_scan"}, "bike_id": "664a932b914789b6e77d5dca46c76e8b", "fusion_lat": 0.0}, {"lon": -77.0412185, "name": "e335edfdf6d6135722dc7b5718289fff", "is_disabled": 0, "type": "electric_scooter", "is_reserved": 0, "fusion_lon": 0.0, "lat": 38.93224083333333, "rental_uris": {"ios": "https://dc.lft.to/lastmile_qr_scan", "android": "https://dc.lft.to/lastmile_qr_scan"}, "bike_id": "e335edfdf6d6135722dc7b5718289fff", "fusion_lat": 0.0}, {"lon": -77.03194383333333, "name": "66212d13a253268461fcc6bd4d5f3bbe", "is_disabled": 0, "type": "electric_scooter", "is_reserved": 0, "fusion_lon": 0.0, "lat": 38.908008, "rental_uris": {"ios": "https://dc.lft.to/lastmile_qr_scan", "android": "https://dc.lft.to/lastmile_qr_scan"}, "bike_id": "66212d13a253268461fcc6bd4d5f3bbe", "fusion_lat": 0.0}, {"lon": -77.0743605, "name": "015b757b4ea40d0fa6228086e228c7d6", "is_disabled": 0, "type": "electric_scooter", "is_reserved": 0, "fusion_lon": 0.0, "lat": 38.93586466666667, "rental_uris": {"ios": "https://dc.lft.to/lastmile_qr_scan", "android": "https://dc.lft.to/lastmile_qr_scan"}, "bike_id": "015b757b4ea40d0fa6228086e228c7d6", "fusion_lat": 0.0}, {"lon": -77.02194033333333, "name": "0f712efc25625b7b331f25a797011e51", "is_disabled": 0, "type": "electric_scooter", "is_reserved": 0, "fusion_lon": 0.0, "lat": 38.911152666666666, "rental_uris": {"ios": "https://dc.lft.to/lastmile_qr_scan", "android": "https://dc.lft.to/lastmile_qr_scan"}, "bike_id": "0f712efc25625b7b331f25a797011e51", "fusion_lat": 0.0}, {"lon": -76.99863866666666, "name": "868d05ee8005db8c430f1ddc6f2eaac0", "is_disabled": 0, "type": "electric_scooter", "is_reserved": 0, "fusion_lon": 0.0, "lat": 38.90258383333333, "rental_uris": {"ios": "https://dc.lft.to/lastmile_qr_scan", "android": "https://dc.lft.to/lastmile_qr_scan"}, "bike_id": "868d05ee8005db8c430f1ddc6f2eaac0", "fusion_lat": 0.0}, {"lon": -77.0225915, "name": "91d5c5fda57f628435e6a41b1b7ac294", "is_disabled": 0, "type": "electric_scooter", "is_reserved": 0, "fusion_lon": 0.0, "lat": 38.91635766666667, "rental_uris": {"ios": "https://dc.lft.to/lastmile_qr_scan", "android": "https://dc.lft.to/lastmile_qr_scan"}, "bike_id": "91d5c5fda57f628435e6a41b1b7ac294", "fusion_lat": 0.0}, {"lon": -77.01811083333334, "name": "49721a52eea9e635fe2b008bce80bd78", "is_disabled": 0, "type": "electric_scooter", "is_reserved": 0, "fusion_lon": 0.0, "lat": 38.9212705, "rental_uris": {"ios": "https://dc.lft.to/lastmile_qr_scan", "android": "https://dc.lft.to/lastmile_qr_scan"}, "bike_id": "49721a52eea9e635fe2b008bce80bd78", "fusion_lat": 0.0}, {"lon": -77.00172616666667, "name": "7f2f91467535f899154bf33e1f030837", "is_disabled": 0, "type": "electric_scooter", "is_reserved": 0, "fusion_lon": 0.0, "lat": 38.940731166666666, "rental_uris": {"ios": "https://dc.lft.to/lastmile_qr_scan", "android": "https://dc.lft.to/lastmile_qr_scan"}, "bike_id": "7f2f91467535f899154bf33e1f030837", "fusion_lat": 0.0}, {"lon": -77.00067366666667, "name": "4c0b6e0416fc6cc24d86334054ba2beb", "is_disabled": 0, "type": "electric_scooter", "is_reserved": 0, "fusion_lon": 0.0, "lat": 38.8877595, "rental_uris": {"ios": "https://dc.lft.to/lastmile_qr_scan", "android": "https://dc.lft.to/lastmile_qr_scan"}, "bike_id": "4c0b6e0416fc6cc24d86334054ba2beb", "fusion_lat": 0.0}, {"lon": -77.030463, "name": "9dc22da7487ce1af5c2d8877f13af5fa", "is_disabled": 0, "type": "electric_scooter", "is_reserved": 0, "fusion_lon": 0.0, "lat": 38.884305499999996, "rental_uris": {"ios": "https://dc.lft.to/lastmile_qr_scan", "android": "https://dc.lft.to/lastmile_qr_scan"}, "bike_id": "9dc22da7487ce1af5c2d8877f13af5fa", "fusion_lat": 0.0}, {"lon": -76.98420116666667, "name": "d03e123588a41a7102efa5410e5ea445", "is_disabled": 0, "type": "electric_bike", "is_reserved": 0, "fusion_lon": 0.0, "lat": 38.9099915, "rental_uris": {"ios": "https://dc.lft.to/lastmile_qr_scan", "android": "https://dc.lft.to/lastmile_qr_scan"}, "bike_id": "d03e123588a41a7102efa5410e5ea445", "fusion_lat": 0.0}, {"lon": -77.02158516666667, "name": "971a3ab8c9d1f96d58a8c636b0eb3b88", "is_disabled": 0, "type": "electric_scooter", "is_reserved": 0, "fusion_lon": 0.0, "lat": 38.926080166666665, "rental_uris": {"ios": "https://dc.lft.to/lastmile_qr_scan", "android": "https://dc.lft.to/lastmile_qr_scan"}, "bike_id": "971a3ab8c9d1f96d58a8c636b0eb3b88", "fusion_lat": 0.0}, {"lon": -77.01235483333333, "name": "e8f8fd023d41c77b1d6e4980487841de", "is_disabled": 0, "type": "electric_scooter", "is_reserved": 0, "fusion_lon": 0.0, "lat": 38.9000865, "rental_uris": {"ios": "https://dc.lft.to/lastmile_qr_scan", "android": "https://dc.lft.to/lastmile_qr_scan"}, "bike_id": "e8f8fd023d41c77b1d6e4980487841de", "fusion_lat": 0.0}, {"lon": -77.02129883333333, "name": "a88b5fe63e1d880e74c9fe51f5d0c7c7", "is_disabled": 0, "type": "electric_scooter", "is_reserved": 0, "fusion_lon": 0.0, "lat": 38.92397233333333, "rental_uris": {"ios": "https://dc.lft.to/lastmile_qr_scan", "android": "https://dc.lft.to/lastmile_qr_scan"}, "bike_id": "a88b5fe63e1d880e74c9fe51f5d0c7c7", "fusion_lat": 0.0}, {"lon": -76.98211066666667, "name": "afba38c45775996566e017e0b9b9ab01", "is_disabled": 0, "type": "electric_bike", "is_reserved": 0, "fusion_lon": 0.0, "lat": 38.985097, "rental_uris": {"ios": "https://dc.lft.to/lastmile_qr_scan", "android": "https://dc.lft.to/lastmile_qr_scan"}, "bike_id": "afba38c45775996566e017e0b9b9ab01", "fusion_lat": 0.0}, {"lon": -77.02039516666666, "name": "cda2899a02ca952a06183e231731f287", "is_disabled": 0, "type": "electric_scooter", "is_reserved": 0, "fusion_lon": 0.0, "lat": 38.924279166666665, "rental_uris": {"ios": "https://dc.lft.to/lastmile_qr_scan", "android": "https://dc.lft.to/lastmile_qr_scan"}, "bike_id": "cda2899a02ca952a06183e231731f287", "fusion_lat": 0.0}, {"lon": -77.03523316666667, "name": "3cf75b5a425d49e339b152c6c2566ff0", "is_disabled": 0, "type": "electric_scooter", "is_reserved": 0, "fusion_lon": 0.0, "lat": 38.922429666666666, "rental_uris": {"ios": "https://dc.lft.to/lastmile_qr_scan", "android": "https://dc.lft.to/lastmile_qr_scan"}, "bike_id": "3cf75b5a425d49e339b152c6c2566ff0", "fusion_lat": 0.0}, {"lon": -77.02477583333334, "name": "8dea752d7036ab22981a7e70d48f4ddb", "is_disabled": 0, "type": "electric_scooter", "is_reserved": 0, "fusion_lon": 0.0, "lat": 38.93623066666667, "rental_uris": {"ios": "https://dc.lft.to/lastmile_qr_scan", "android": "https://dc.lft.to/lastmile_qr_scan"}, "bike_id": "8dea752d7036ab22981a7e70d48f4ddb", "fusion_lat": 0.0}, {"lon": -77.02702816666667, "name": "37b3ad730a850e00cd5fa14b119564ec", "is_disabled": 0, "type": "electric_scooter", "is_reserved": 0, "fusion_lon": 0.0, "lat": 38.928763000000004, "rental_uris": {"ios": "https://dc.lft.to/lastmile_qr_scan", "android": "https://dc.lft.to/lastmile_qr_scan"}, "bike_id": "37b3ad730a850e00cd5fa14b119564ec", "fusion_lat": 0.0}, {"lon": -77.02605283333334, "name": "b1529541c7627266c3324f74c5a6d637", "is_disabled": 0, "type": "electric_scooter", "is_reserved": 0, "fusion_lon": 0.0, "lat": 38.89733183333333, "rental_uris": {"ios": "https://dc.lft.to/lastmile_qr_scan", "android": "https://dc.lft.to/lastmile_qr_scan"}, "bike_id": "b1529541c7627266c3324f74c5a6d637", "fusion_lat": 0.0}, {"lon": -76.98025733333333, "name": "67c47b844a5fa2304480158cc44027e7", "is_disabled": 0, "type": "electric_bike", "is_reserved": 0, "fusion_lon": 0.0, "lat": 38.868183333333334, "rental_uris": {"ios": "https://dc.lft.to/lastmile_qr_scan", "android": "https://dc.lft.to/lastmile_qr_scan"}, "bike_id": "67c47b844a5fa2304480158cc44027e7", "fusion_lat": 0.0}, {"lon": -77.02000483333333, "name": "66d583c4d64f445572b00ae2d5d7951f", "is_disabled": 0, "type": "electric_scooter", "is_reserved": 0, "fusion_lon": 0.0, "lat": 38.8859605, "rental_uris": {"ios": "https://dc.lft.to/lastmile_qr_scan", "android": "https://dc.lft.to/lastmile_qr_scan"}, "bike_id": "66d583c4d64f445572b00ae2d5d7951f", "fusion_lat": 0.0}, {"lon": -76.94468983333333, "name": "999d7d7258c8dce4f20754d08cfa3470", "is_disabled": 0, "type": "electric_scooter", "is_reserved": 0, "fusion_lon": 0.0, "lat": 38.890252333333336, "rental_uris": {"ios": "https://dc.lft.to/lastmile_qr_scan", "android": "https://dc.lft.to/lastmile_qr_scan"}, "bike_id": "999d7d7258c8dce4f20754d08cfa3470", "fusion_lat": 0.0}, {"lon": -77.03182833333334, "name": "a41ae69f5a6196ac7d87165e0ecb6fe2", "is_disabled": 0, "type": "electric_scooter", "is_reserved": 0, "fusion_lon": 0.0, "lat": 38.90737583333333, "rental_uris": {"ios": "https://dc.lft.to/lastmile_qr_scan", "android": "https://dc.lft.to/lastmile_qr_scan"}, "bike_id": "a41ae69f5a6196ac7d87165e0ecb6fe2", "fusion_lat": 0.0}, {"lon": -77.02160383333333, "name": "3520e01a96096e00556767d4248866c9", "is_disabled": 0, "type": "electric_scooter", "is_reserved": 0, "fusion_lon": 0.0, "lat": 38.92607266666667, "rental_uris": {"ios": "https://dc.lft.to/lastmile_qr_scan", "android": "https://dc.lft.to/lastmile_qr_scan"}, "bike_id": "3520e01a96096e00556767d4248866c9", "fusion_lat": 0.0}, {"lon": -77.03399616666667, "name": "9c6ec1a245b298dd6cf4b5a0de163510", "is_disabled": 0, "type": "electric_scooter", "is_reserved": 0, "fusion_lon": 0.0, "lat": 38.923974666666666, "rental_uris": {"ios": "https://dc.lft.to/lastmile_qr_scan", "android": "https://dc.lft.to/lastmile_qr_scan"}, "bike_id": "9c6ec1a245b298dd6cf4b5a0de163510", "fusion_lat": 0.0}, {"lon": -77.003383, "name": "a1bf764bfb57316f3be612f7c9556716", "is_disabled": 0, "type": "electric_scooter", "is_reserved": 0, "fusion_lon": 0.0, "lat": 38.92264633333333, "rental_uris": {"ios": "https://dc.lft.to/lastmile_qr_scan", "android": "https://dc.lft.to/lastmile_qr_scan"}, "bike_id": "a1bf764bfb57316f3be612f7c9556716", "fusion_lat": 0.0}, {"lon": -77.0481365, "name": "ac486ccfeab037e286fc1268eb3789a7", "is_disabled": 0, "type": "electric_scooter", "is_reserved": 0, "fusion_lon": 0.0, "lat": 38.90206216666667, "rental_uris": {"ios": "https://dc.lft.to/lastmile_qr_scan", "android": "https://dc.lft.to/lastmile_qr_scan"}, "bike_id": "ac486ccfeab037e286fc1268eb3789a7", "fusion_lat": 0.0}, {"lon": -77.01557183333334, "name": "a174302109b4d2fee67e3e3ae23ddbc1", "is_disabled": 0, "type": "electric_scooter", "is_reserved": 0, "fusion_lon": 0.0, "lat": 38.89222016666667, "rental_uris": {"ios": "https://dc.lft.to/lastmile_qr_scan", "android": "https://dc.lft.to/lastmile_qr_scan"}, "bike_id": "a174302109b4d2fee67e3e3ae23ddbc1", "fusion_lat": 0.0}, {"lon": -77.01876733333333, "name": "687e1ffaed4e6c52f52f651d2feace67", "is_disabled": 0, "type": "electric_scooter", "is_reserved": 0, "fusion_lon": 0.0, "lat": 38.932006, "rental_uris": {"ios": "https://dc.lft.to/lastmile_qr_scan", "android": "https://dc.lft.to/lastmile_qr_scan"}, "bike_id": "687e1ffaed4e6c52f52f651d2feace67", "fusion_lat": 0.0}, {"lon": -77.02711666666667, "name": "9f91bd04e18dbe503c43311fa525383e", "is_disabled": 0, "type": "electric_scooter", "is_reserved": 0, "fusion_lon": 0.0, "lat": 38.916866666666664, "rental_uris": {"ios": "https://dc.lft.to/lastmile_qr_scan", "android": "https://dc.lft.to/lastmile_qr_scan"}, "bike_id": "9f91bd04e18dbe503c43311fa525383e", "fusion_lat": 0.0}, {"lon": -77.01818666666667, "name": "bb56049bd00b4cfc4878f77125962bcb", "is_disabled": 0, "type": "electric_scooter", "is_reserved": 0, "fusion_lon": 0.0, "lat": 38.920626, "rental_uris": {"ios": "https://dc.lft.to/lastmile_qr_scan", "android": "https://dc.lft.to/lastmile_qr_scan"}, "bike_id": "bb56049bd00b4cfc4878f77125962bcb", "fusion_lat": 0.0}, {"lon": -77.0253085, "name": "6473aa6570c64ed3d1f2c386c36b0686", "is_disabled": 0, "type": "electric_scooter", "is_reserved": 0, "fusion_lon": 0.0, "lat": 38.920776833333335, "rental_uris": {"ios": "https://dc.lft.to/lastmile_qr_scan", "android": "https://dc.lft.to/lastmile_qr_scan"}, "bike_id": "6473aa6570c64ed3d1f2c386c36b0686", "fusion_lat": 0.0}, {"lon": -77.05459183333333, "name": "a2c782142d0df31b924bfc59a8047ee6", "is_disabled": 0, "type": "electric_scooter", "is_reserved": 0, "fusion_lon": 0.0, "lat": 38.929041166666664, "rental_uris": {"ios": "https://dc.lft.to/lastmile_qr_scan", "android": "https://dc.lft.to/lastmile_qr_scan"}, "bike_id": "a2c782142d0df31b924bfc59a8047ee6", "fusion_lat": 0.0}, {"lon": -77.038265, "name": "6fdf1542ce01efb6687b5ecbe7fe095f", "is_disabled": 0, "type": "electric_scooter", "is_reserved": 0, "fusion_lon": 0.0, "lat": 38.91107316666667, "rental_uris": {"ios": "https://dc.lft.to/lastmile_qr_scan", "android": "https://dc.lft.to/lastmile_qr_scan"}, "bike_id": "6fdf1542ce01efb6687b5ecbe7fe095f", "fusion_lat": 0.0}, {"lon": -77.007424, "name": "40707c0ef3095ded7954d95ffb49b834", "is_disabled": 0, "type": "electric_scooter", "is_reserved": 0, "fusion_lon": 0.0, "lat": 38.878703, "rental_uris": {"ios": "https://dc.lft.to/lastmile_qr_scan", "android": "https://dc.lft.to/lastmile_qr_scan"}, "bike_id": "40707c0ef3095ded7954d95ffb49b834", "fusion_lat": 0.0}, {"lon": -77.03262116666667, "name": "a9aeafc2ca3f19a693c0284bb08e56bb", "is_disabled": 0, "type": "electric_scooter", "is_reserved": 0, "fusion_lon": 0.0, "lat": 38.93787583333334, "rental_uris": {"ios": "https://dc.lft.to/lastmile_qr_scan", "android": "https://dc.lft.to/lastmile_qr_scan"}, "bike_id": "a9aeafc2ca3f19a693c0284bb08e56bb", "fusion_lat": 0.0}, {"lon": -77.03208833333333, "name": "ff472bbe77d4360097fb231090b3d96c", "is_disabled": 0, "type": "electric_scooter", "is_reserved": 0, "fusion_lon": 0.0, "lat": 38.91908883333333, "rental_uris": {"ios": "https://dc.lft.to/lastmile_qr_scan", "android": "https://dc.lft.to/lastmile_qr_scan"}, "bike_id": "ff472bbe77d4360097fb231090b3d96c", "fusion_lat": 0.0}, {"lon": -76.989594, "name": "c097964fd41678599845fe148b9c69a3", "is_disabled": 0, "type": "electric_scooter", "is_reserved": 0, "fusion_lon": 0.0, "lat": 38.901344333333334, "rental_uris": {"ios": "https://dc.lft.to/lastmile_qr_scan", "android": "https://dc.lft.to/lastmile_qr_scan"}, "bike_id": "c097964fd41678599845fe148b9c69a3", "fusion_lat": 0.0}, {"lon": -77.02581433333333, "name": "71b544cb95165c86a61f830f646805fb", "is_disabled": 0, "type": "electric_scooter", "is_reserved": 0, "fusion_lon": 0.0, "lat": 38.909600166666664, "rental_uris": {"ios": "https://dc.lft.to/lastmile_qr_scan", "android": "https://dc.lft.to/lastmile_qr_scan"}, "bike_id": "71b544cb95165c86a61f830f646805fb", "fusion_lat": 0.0}, {"lon": -76.951993, "name": "a11b5b62daac062379c6e7ccc44bbd47", "is_disabled": 0, "type": "electric_bike", "is_reserved": 0, "fusion_lon": 0.0, "lat": 38.891141166666664, "rental_uris": {"ios": "https://dc.lft.to/lastmile_qr_scan", "android": "https://dc.lft.to/lastmile_qr_scan"}, "bike_id": "a11b5b62daac062379c6e7ccc44bbd47", "fusion_lat": 0.0}, {"lon": -77.0359395, "name": "008acd78b52da04b43732cf3554060cb", "is_disabled": 0, "type": "electric_scooter", "is_reserved": 0, "fusion_lon": 0.0, "lat": 38.927882833333335, "rental_uris": {"ios": "https://dc.lft.to/lastmile_qr_scan", "android": "https://dc.lft.to/lastmile_qr_scan"}, "bike_id": "008acd78b52da04b43732cf3554060cb", "fusion_lat": 0.0}, {"lon": -77.02598466666667, "name": "d72a43b4d0b770452beb15d0419063bc", "is_disabled": 0, "type": "electric_scooter", "is_reserved": 0, "fusion_lon": 0.0, "lat": 38.920916, "rental_uris": {"ios": "https://dc.lft.to/lastmile_qr_scan", "android": "https://dc.lft.to/lastmile_qr_scan"}, "bike_id": "d72a43b4d0b770452beb15d0419063bc", "fusion_lat": 0.0}, {"lon": -77.06461233333333, "name": "7a2a86c8e37b570f909ed0bab6c63479", "is_disabled": 0, "type": "electric_scooter", "is_reserved": 0, "fusion_lon": 0.0, "lat": 38.91045666666667, "rental_uris": {"ios": "https://dc.lft.to/lastmile_qr_scan", "android": "https://dc.lft.to/lastmile_qr_scan"}, "bike_id": "7a2a86c8e37b570f909ed0bab6c63479", "fusion_lat": 0.0}, {"lon": -77.02374933333333, "name": "fd4030c93af8b49e89f09edf6f9d903e", "is_disabled": 0, "type": "electric_scooter", "is_reserved": 0, "fusion_lon": 0.0, "lat": 38.90202933333333, "rental_uris": {"ios": "https://dc.lft.to/lastmile_qr_scan", "android": "https://dc.lft.to/lastmile_qr_scan"}, "bike_id": "fd4030c93af8b49e89f09edf6f9d903e", "fusion_lat": 0.0}, {"lon": -77.02076583333333, "name": "b773c8732fce8497c2cba875112e45a0", "is_disabled": 0, "type": "electric_scooter", "is_reserved": 0, "fusion_lon": 0.0, "lat": 38.95255383333333, "rental_uris": {"ios": "https://dc.lft.to/lastmile_qr_scan", "android": "https://dc.lft.to/lastmile_qr_scan"}, "bike_id": "b773c8732fce8497c2cba875112e45a0", "fusion_lat": 0.0}, {"lon": -77.04174033333334, "name": "6a93b5d0f0b4c0ce21c618ba9b0567c9", "is_disabled": 0, "type": "electric_scooter", "is_reserved": 0, "fusion_lon": 0.0, "lat": 38.917022333333335, "rental_uris": {"ios": "https://dc.lft.to/lastmile_qr_scan", "android": "https://dc.lft.to/lastmile_qr_scan"}, "bike_id": "6a93b5d0f0b4c0ce21c618ba9b0567c9", "fusion_lat": 0.0}, {"lon": -77.01440966666667, "name": "5eb9b9e7b879f569695feeb204c9ba7c", "is_disabled": 0, "type": "electric_scooter", "is_reserved": 0, "fusion_lon": 0.0, "lat": 38.9131365, "rental_uris": {"ios": "https://dc.lft.to/lastmile_qr_scan", "android": "https://dc.lft.to/lastmile_qr_scan"}, "bike_id": "5eb9b9e7b879f569695feeb204c9ba7c", "fusion_lat": 0.0}, {"lon": -77.0319905, "name": "0a152e03958c5b24c5d3dd32b2c6fa2b", "is_disabled": 0, "type": "electric_scooter", "is_reserved": 0, "fusion_lon": 0.0, "lat": 38.91612833333333, "rental_uris": {"ios": "https://dc.lft.to/lastmile_qr_scan", "android": "https://dc.lft.to/lastmile_qr_scan"}, "bike_id": "0a152e03958c5b24c5d3dd32b2c6fa2b", "fusion_lat": 0.0}, {"lon": -76.99864233333334, "name": "6f06f7ccfb0bd9b252c9dc0ceadd51a4", "is_disabled": 0, "type": "electric_scooter", "is_reserved": 0, "fusion_lon": 0.0, "lat": 38.90256866666667, "rental_uris": {"ios": "https://dc.lft.to/lastmile_qr_scan", "android": "https://dc.lft.to/lastmile_qr_scan"}, "bike_id": "6f06f7ccfb0bd9b252c9dc0ceadd51a4", "fusion_lat": 0.0}, {"lon": -77.03657233333334, "name": "c7cf456cc509da32ea870cd47a42aacf", "is_disabled": 0, "type": "electric_scooter", "is_reserved": 0, "fusion_lon": 0.0, "lat": 38.922809666666666, "rental_uris": {"ios": "https://dc.lft.to/lastmile_qr_scan", "android": "https://dc.lft.to/lastmile_qr_scan"}, "bike_id": "c7cf456cc509da32ea870cd47a42aacf", "fusion_lat": 0.0}, {"lon": -77.02326433333333, "name": "70d2a2fc9d224dcf12a4715b37972410", "is_disabled": 0, "type": "electric_scooter", "is_reserved": 0, "fusion_lon": 0.0, "lat": 38.920706833333334, "rental_uris": {"ios": "https://dc.lft.to/lastmile_qr_scan", "android": "https://dc.lft.to/lastmile_qr_scan"}, "bike_id": "70d2a2fc9d224dcf12a4715b37972410", "fusion_lat": 0.0}, {"lon": -77.03112133333333, "name": "00bdb2a354c9075ba70ae026edd8784e", "is_disabled": 0, "type": "electric_scooter", "is_reserved": 0, "fusion_lon": 0.0, "lat": 38.886087833333335, "rental_uris": {"ios": "https://dc.lft.to/lastmile_qr_scan", "android": "https://dc.lft.to/lastmile_qr_scan"}, "bike_id": "00bdb2a354c9075ba70ae026edd8784e", "fusion_lat": 0.0}, {"lon": -77.00739566666667, "name": "5eab481dbffceb88242327774fdf83f0", "is_disabled": 0, "type": "electric_scooter", "is_reserved": 0, "fusion_lon": 0.0, "lat": 38.90355183333333, "rental_uris": {"ios": "https://dc.lft.to/lastmile_qr_scan", "android": "https://dc.lft.to/lastmile_qr_scan"}, "bike_id": "5eab481dbffceb88242327774fdf83f0", "fusion_lat": 0.0}, {"lon": -77.024349, "name": "41f864c3e5fe18d9ef42a9272b69bd56", "is_disabled": 0, "type": "electric_scooter", "is_reserved": 0, "fusion_lon": 0.0, "lat": 38.9309435, "rental_uris": {"ios": "https://dc.lft.to/lastmile_qr_scan", "android": "https://dc.lft.to/lastmile_qr_scan"}, "bike_id": "41f864c3e5fe18d9ef42a9272b69bd56", "fusion_lat": 0.0}, {"lon": -77.0011745, "name": "7eaae194386604642f2ec989d3325af4", "is_disabled": 0, "type": "electric_scooter", "is_reserved": 0, "fusion_lon": 0.0, "lat": 38.88652316666666, "rental_uris": {"ios": "https://dc.lft.to/lastmile_qr_scan", "android": "https://dc.lft.to/lastmile_qr_scan"}, "bike_id": "7eaae194386604642f2ec989d3325af4", "fusion_lat": 0.0}, {"lon": -77.028236, "name": "327666df70e56a27f84dcf8680c0e41c", "is_disabled": 0, "type": "electric_scooter", "is_reserved": 0, "fusion_lon": 0.0, "lat": 38.8873615, "rental_uris": {"ios": "https://dc.lft.to/lastmile_qr_scan", "android": "https://dc.lft.to/lastmile_qr_scan"}, "bike_id": "327666df70e56a27f84dcf8680c0e41c", "fusion_lat": 0.0}, {"lon": -77.0325235, "name": "aee734c8cd85bf9f31fdd2044c28974d", "is_disabled": 0, "type": "electric_scooter", "is_reserved": 0, "fusion_lon": 0.0, "lat": 38.93964116666667, "rental_uris": {"ios": "https://dc.lft.to/lastmile_qr_scan", "android": "https://dc.lft.to/lastmile_qr_scan"}, "bike_id": "aee734c8cd85bf9f31fdd2044c28974d", "fusion_lat": 0.0}, {"lon": -77.03184383333334, "name": "6dfa9ecc41b385388ba0663dbf79d4e7", "is_disabled": 0, "type": "electric_scooter", "is_reserved": 0, "fusion_lon": 0.0, "lat": 38.89238683333333, "rental_uris": {"ios": "https://dc.lft.to/lastmile_qr_scan", "android": "https://dc.lft.to/lastmile_qr_scan"}, "bike_id": "6dfa9ecc41b385388ba0663dbf79d4e7", "fusion_lat": 0.0}, {"lon": -76.99761333333333, "name": "c1b9b2233b8c791c109cf1b5b02bcf34", "is_disabled": 0, "type": "electric_scooter", "is_reserved": 0, "fusion_lon": 0.0, "lat": 38.91065316666667, "rental_uris": {"ios": "https://dc.lft.to/lastmile_qr_scan", "android": "https://dc.lft.to/lastmile_qr_scan"}, "bike_id": "c1b9b2233b8c791c109cf1b5b02bcf34", "fusion_lat": 0.0}, {"lon": -77.03532333333334, "name": "b4bb5bd8d56968c0c9a625e5b2446eac", "is_disabled": 0, "type": "electric_scooter", "is_reserved": 0, "fusion_lon": 0.0, "lat": 38.91827983333334, "rental_uris": {"ios": "https://dc.lft.to/lastmile_qr_scan", "android": "https://dc.lft.to/lastmile_qr_scan"}, "bike_id": "b4bb5bd8d56968c0c9a625e5b2446eac", "fusion_lat": 0.0}, {"lon": -77.02151983333333, "name": "872e59c073372f75622597d32d5bbc0c", "is_disabled": 0, "type": "electric_scooter", "is_reserved": 0, "fusion_lon": 0.0, "lat": 38.92457483333333, "rental_uris": {"ios": "https://dc.lft.to/lastmile_qr_scan", "android": "https://dc.lft.to/lastmile_qr_scan"}, "bike_id": "872e59c073372f75622597d32d5bbc0c", "fusion_lat": 0.0}, {"lon": -77.03929733333334, "name": "d4e44fea3ba2a1019792c26d583f398c", "is_disabled": 0, "type": "electric_scooter", "is_reserved": 0, "fusion_lon": 0.0, "lat": 38.92479466666666, "rental_uris": {"ios": "https://dc.lft.to/lastmile_qr_scan", "android": "https://dc.lft.to/lastmile_qr_scan"}, "bike_id": "d4e44fea3ba2a1019792c26d583f398c", "fusion_lat": 0.0}, {"lon": -76.99840383333333, "name": "af3a93c74c392d8c556459d9d1b59ecd", "is_disabled": 0, "type": "electric_scooter", "is_reserved": 0, "fusion_lon": 0.0, "lat": 38.925492, "rental_uris": {"ios": "https://dc.lft.to/lastmile_qr_scan", "android": "https://dc.lft.to/lastmile_qr_scan"}, "bike_id": "af3a93c74c392d8c556459d9d1b59ecd", "fusion_lat": 0.0}, {"lon": -77.064335, "name": "e64ea7df2d130b52b6551488013f293f", "is_disabled": 0, "type": "electric_scooter", "is_reserved": 0, "fusion_lon": 0.0, "lat": 38.905317833333335, "rental_uris": {"ios": "https://dc.lft.to/lastmile_qr_scan", "android": "https://dc.lft.to/lastmile_qr_scan"}, "bike_id": "e64ea7df2d130b52b6551488013f293f", "fusion_lat": 0.0}, {"lon": -77.02129833333333, "name": "319fed533a3ad34c5a6be1e32f110f42", "is_disabled": 0, "type": "electric_scooter", "is_reserved": 0, "fusion_lon": 0.0, "lat": 38.924089333333335, "rental_uris": {"ios": "https://dc.lft.to/lastmile_qr_scan", "android": "https://dc.lft.to/lastmile_qr_scan"}, "bike_id": "319fed533a3ad34c5a6be1e32f110f42", "fusion_lat": 0.0}, {"lon": -77.04568566666667, "name": "b8d258573f774050627ded6d4b317367", "is_disabled": 0, "type": "electric_scooter", "is_reserved": 0, "fusion_lon": 0.0, "lat": 38.9105925, "rental_uris": {"ios": "https://dc.lft.to/lastmile_qr_scan", "android": "https://dc.lft.to/lastmile_qr_scan"}, "bike_id": "b8d258573f774050627ded6d4b317367", "fusion_lat": 0.0}, {"lon": -77.0317925, "name": "015afa4d5b03d2a958ba24611cd1639d", "is_disabled": 0, "type": "electric_scooter", "is_reserved": 0, "fusion_lon": 0.0, "lat": 38.893375666666664, "rental_uris": {"ios": "https://dc.lft.to/lastmile_qr_scan", "android": "https://dc.lft.to/lastmile_qr_scan"}, "bike_id": "015afa4d5b03d2a958ba24611cd1639d", "fusion_lat": 0.0}, {"lon": -77.02619266666666, "name": "a545993b7e469fbfebe6dea01b90362d", "is_disabled": 0, "type": "electric_scooter", "is_reserved": 0, "fusion_lon": 0.0, "lat": 38.90052566666667, "rental_uris": {"ios": "https://dc.lft.to/lastmile_qr_scan", "android": "https://dc.lft.to/lastmile_qr_scan"}, "bike_id": "a545993b7e469fbfebe6dea01b90362d", "fusion_lat": 0.0}, {"lon": -77.00337666666667, "name": "3bded261c8924d0fd5366533c71e5fb8", "is_disabled": 0, "type": "electric_bike", "is_reserved": 0, "fusion_lon": 0.0, "lat": 38.92015583333333, "rental_uris": {"ios": "https://dc.lft.to/lastmile_qr_scan", "android": "https://dc.lft.to/lastmile_qr_scan"}, "bike_id": "3bded261c8924d0fd5366533c71e5fb8", "fusion_lat": 0.0}, {"lon": -77.04471383333333, "name": "1731d78a618a2f06fad7291c0404a1b5", "is_disabled": 0, "type": "electric_scooter", "is_reserved": 0, "fusion_lon": 0.0, "lat": 38.915367333333336, "rental_uris": {"ios": "https://dc.lft.to/lastmile_qr_scan", "android": "https://dc.lft.to/lastmile_qr_scan"}, "bike_id": "1731d78a618a2f06fad7291c0404a1b5", "fusion_lat": 0.0}, {"lon": -77.0419425, "name": "86f98fe7dfeebaa28b9a57054f98cb8a", "is_disabled": 0, "type": "electric_scooter", "is_reserved": 0, "fusion_lon": 0.0, "lat": 38.920494833333336, "rental_uris": {"ios": "https://dc.lft.to/lastmile_qr_scan", "android": "https://dc.lft.to/lastmile_qr_scan"}, "bike_id": "86f98fe7dfeebaa28b9a57054f98cb8a", "fusion_lat": 0.0}, {"lon": -77.05765533333333, "name": "887184e159a8c0d32a7fc9b7b901bc55", "is_disabled": 0, "type": "electric_scooter", "is_reserved": 0, "fusion_lon": 0.0, "lat": 38.92488, "rental_uris": {"ios": "https://dc.lft.to/lastmile_qr_scan", "android": "https://dc.lft.to/lastmile_qr_scan"}, "bike_id": "887184e159a8c0d32a7fc9b7b901bc55", "fusion_lat": 0.0}, {"lon": -77.05710983333333, "name": "38035d79fa5c7b6f1200fcbbf011ff74", "is_disabled": 0, "type": "electric_scooter", "is_reserved": 0, "fusion_lon": 0.0, "lat": 38.9260465, "rental_uris": {"ios": "https://dc.lft.to/lastmile_qr_scan", "android": "https://dc.lft.to/lastmile_qr_scan"}, "bike_id": "38035d79fa5c7b6f1200fcbbf011ff74", "fusion_lat": 0.0}, {"lon": -77.0161685, "name": "e22a67b9c59765d2d4fe7c29ae9ceadd", "is_disabled": 0, "type": "electric_scooter", "is_reserved": 0, "fusion_lon": 0.0, "lat": 38.903405666666664, "rental_uris": {"ios": "https://dc.lft.to/lastmile_qr_scan", "android": "https://dc.lft.to/lastmile_qr_scan"}, "bike_id": "e22a67b9c59765d2d4fe7c29ae9ceadd", "fusion_lat": 0.0}, {"lon": -77.02400633333333, "name": "1a767dd3c9c2c6389862fa238c7d33a7", "is_disabled": 0, "type": "electric_scooter", "is_reserved": 0, "fusion_lon": 0.0, "lat": 38.91609733333333, "rental_uris": {"ios": "https://dc.lft.to/lastmile_qr_scan", "android": "https://dc.lft.to/lastmile_qr_scan"}, "bike_id": "1a767dd3c9c2c6389862fa238c7d33a7", "fusion_lat": 0.0}, {"lon": -77.0415805, "name": "dfcbc432a921cb897478bd1c7bbe60d8", "is_disabled": 0, "type": "electric_scooter", "is_reserved": 0, "fusion_lon": 0.0, "lat": 38.90727316666667, "rental_uris": {"ios": "https://dc.lft.to/lastmile_qr_scan", "android": "https://dc.lft.to/lastmile_qr_scan"}, "bike_id": "dfcbc432a921cb897478bd1c7bbe60d8", "fusion_lat": 0.0}, {"lon": -77.035761, "name": "ec2935472264d66300fd72849cec9539", "is_disabled": 0, "type": "electric_scooter", "is_reserved": 0, "fusion_lon": 0.0, "lat": 38.926835833333335, "rental_uris": {"ios": "https://dc.lft.to/lastmile_qr_scan", "android": "https://dc.lft.to/lastmile_qr_scan"}, "bike_id": "ec2935472264d66300fd72849cec9539", "fusion_lat": 0.0}, {"lon": -77.05001533333333, "name": "6c13ac364ab0f619078c9aef1428aee3", "is_disabled": 0, "type": "electric_scooter", "is_reserved": 0, "fusion_lon": 0.0, "lat": 38.89230516666667, "rental_uris": {"ios": "https://dc.lft.to/lastmile_qr_scan", "android": "https://dc.lft.to/lastmile_qr_scan"}, "bike_id": "6c13ac364ab0f619078c9aef1428aee3", "fusion_lat": 0.0}, {"lon": -76.9907045, "name": "f27a352cdcd38fc4e6c0ef997f8a2650", "is_disabled": 0, "type": "electric_bike", "is_reserved": 0, "fusion_lon": 0.0, "lat": 38.89811233333333, "rental_uris": {"ios": "https://dc.lft.to/lastmile_qr_scan", "android": "https://dc.lft.to/lastmile_qr_scan"}, "bike_id": "f27a352cdcd38fc4e6c0ef997f8a2650", "fusion_lat": 0.0}, {"lon": -77.02150683333333, "name": "7440e4736fcbf006490e366ddf42e60a", "is_disabled": 0, "type": "electric_scooter", "is_reserved": 0, "fusion_lon": 0.0, "lat": 38.92607366666667, "rental_uris": {"ios": "https://dc.lft.to/lastmile_qr_scan", "android": "https://dc.lft.to/lastmile_qr_scan"}, "bike_id": "7440e4736fcbf006490e366ddf42e60a", "fusion_lat": 0.0}, {"lon": -77.031795, "name": "8c0d9e6d79b311b7b0a46ce2091eea93", "is_disabled": 0, "type": "electric_scooter", "is_reserved": 0, "fusion_lon": 0.0, "lat": 38.919472999999996, "rental_uris": {"ios": "https://dc.lft.to/lastmile_qr_scan", "android": "https://dc.lft.to/lastmile_qr_scan"}, "bike_id": "8c0d9e6d79b311b7b0a46ce2091eea93", "fusion_lat": 0.0}, {"lon": -77.01951533333333, "name": "dde98d93a5493fef90b97c8a7894bdd9", "is_disabled": 0, "type": "electric_scooter", "is_reserved": 0, "fusion_lon": 0.0, "lat": 38.924226833333336, "rental_uris": {"ios": "https://dc.lft.to/lastmile_qr_scan", "android": "https://dc.lft.to/lastmile_qr_scan"}, "bike_id": "dde98d93a5493fef90b97c8a7894bdd9", "fusion_lat": 0.0}, {"lon": -77.01215916666666, "name": "0d809397849fd4cc1942d8521856a46d", "is_disabled": 0, "type": "electric_scooter", "is_reserved": 0, "fusion_lon": 0.0, "lat": 38.914378166666665, "rental_uris": {"ios": "https://dc.lft.to/lastmile_qr_scan", "android": "https://dc.lft.to/lastmile_qr_scan"}, "bike_id": "0d809397849fd4cc1942d8521856a46d", "fusion_lat": 0.0}, {"lon": -77.01764466666667, "name": "06b332ef182e115f2eb2f432cf530e95", "is_disabled": 0, "type": "electric_scooter", "is_reserved": 0, "fusion_lon": 0.0, "lat": 38.88466783333333, "rental_uris": {"ios": "https://dc.lft.to/lastmile_qr_scan", "android": "https://dc.lft.to/lastmile_qr_scan"}, "bike_id": "06b332ef182e115f2eb2f432cf530e95", "fusion_lat": 0.0}, {"lon": -76.901918, "name": "7b9bd053afa91db68f724ec37ffb5282", "is_disabled": 0, "type": "electric_bike", "is_reserved": 0, "fusion_lon": 0.0, "lat": 39.001921333333335, "rental_uris": {"ios": "https://dc.lft.to/lastmile_qr_scan", "android": "https://dc.lft.to/lastmile_qr_scan"}, "bike_id": "7b9bd053afa91db68f724ec37ffb5282", "fusion_lat": 0.0}, {"lon": -77.02518933333333, "name": "bb80028d1669d2cea1d4f54419bf65ab", "is_disabled": 0, "type": "electric_scooter", "is_reserved": 0, "fusion_lon": 0.0, "lat": 38.920779, "rental_uris": {"ios": "https://dc.lft.to/lastmile_qr_scan", "android": "https://dc.lft.to/lastmile_qr_scan"}, "bike_id": "bb80028d1669d2cea1d4f54419bf65ab", "fusion_lat": 0.0}, {"lon": -77.009215, "name": "05bd954cecbdfdb2c22ee8750a2e1cf8", "is_disabled": 0, "type": "electric_scooter", "is_reserved": 0, "fusion_lon": 0.0, "lat": 38.91341233333333, "rental_uris": {"ios": "https://dc.lft.to/lastmile_qr_scan", "android": "https://dc.lft.to/lastmile_qr_scan"}, "bike_id": "05bd954cecbdfdb2c22ee8750a2e1cf8", "fusion_lat": 0.0}, {"lon": -76.98055733333334, "name": "4a52f7e7d327428ac9ff65fed5388e23", "is_disabled": 0, "type": "electric_scooter", "is_reserved": 0, "fusion_lon": 0.0, "lat": 38.885311, "rental_uris": {"ios": "https://dc.lft.to/lastmile_qr_scan", "android": "https://dc.lft.to/lastmile_qr_scan"}, "bike_id": "4a52f7e7d327428ac9ff65fed5388e23", "fusion_lat": 0.0}, {"lon": -77.04751233333333, "name": "4342cc2d5da87670add5b8641bb8208c", "is_disabled": 0, "type": "electric_scooter", "is_reserved": 0, "fusion_lon": 0.0, "lat": 38.920092, "rental_uris": {"ios": "https://dc.lft.to/lastmile_qr_scan", "android": "https://dc.lft.to/lastmile_qr_scan"}, "bike_id": "4342cc2d5da87670add5b8641bb8208c", "fusion_lat": 0.0}, {"lon": -77.02246216666667, "name": "f844b9ae10f03ffc4644b976fd53c9bd", "is_disabled": 0, "type": "electric_scooter", "is_reserved": 0, "fusion_lon": 0.0, "lat": 38.924587333333335, "rental_uris": {"ios": "https://dc.lft.to/lastmile_qr_scan", "android": "https://dc.lft.to/lastmile_qr_scan"}, "bike_id": "f844b9ae10f03ffc4644b976fd53c9bd", "fusion_lat": 0.0}, {"lon": -76.933887, "name": "6f30792dfefd2a42e4776d161ec6eba7", "is_disabled": 0, "type": "electric_scooter", "is_reserved": 0, "fusion_lon": 0.0, "lat": 38.8991145, "rental_uris": {"ios": "https://dc.lft.to/lastmile_qr_scan", "android": "https://dc.lft.to/lastmile_qr_scan"}, "bike_id": "6f30792dfefd2a42e4776d161ec6eba7", "fusion_lat": 0.0}, {"lon": -76.99498483333333, "name": "756c84414f350bdc991f61914032b93a", "is_disabled": 0, "type": "electric_scooter", "is_reserved": 0, "fusion_lon": 0.0, "lat": 38.887432833333335, "rental_uris": {"ios": "https://dc.lft.to/lastmile_qr_scan", "android": "https://dc.lft.to/lastmile_qr_scan"}, "bike_id": "756c84414f350bdc991f61914032b93a", "fusion_lat": 0.0}, {"lon": -77.0295755, "name": "d66ceca52ced67a93804adcb36e7413e", "is_disabled": 0, "type": "electric_scooter", "is_reserved": 0, "fusion_lon": 0.0, "lat": 38.9049725, "rental_uris": {"ios": "https://dc.lft.to/lastmile_qr_scan", "android": "https://dc.lft.to/lastmile_qr_scan"}, "bike_id": "d66ceca52ced67a93804adcb36e7413e", "fusion_lat": 0.0}, {"lon": -77.00189866666666, "name": "c694b50a3115dc1701d7b875dda403d9", "is_disabled": 0, "type": "electric_scooter", "is_reserved": 0, "fusion_lon": 0.0, "lat": 38.87639766666667, "rental_uris": {"ios": "https://dc.lft.to/lastmile_qr_scan", "android": "https://dc.lft.to/lastmile_qr_scan"}, "bike_id": "c694b50a3115dc1701d7b875dda403d9", "fusion_lat": 0.0}, {"lon": -77.02508316666666, "name": "363fc5bc3ef27cbb00fe5ddc8de1c14a", "is_disabled": 0, "type": "electric_scooter", "is_reserved": 0, "fusion_lon": 0.0, "lat": 38.92093933333334, "rental_uris": {"ios": "https://dc.lft.to/lastmile_qr_scan", "android": "https://dc.lft.to/lastmile_qr_scan"}, "bike_id": "363fc5bc3ef27cbb00fe5ddc8de1c14a", "fusion_lat": 0.0}, {"lon": -77.042439, "name": "ef3d227e3efcecf7daa9a5ea7feadc66", "is_disabled": 0, "type": "electric_scooter", "is_reserved": 0, "fusion_lon": 0.0, "lat": 38.924253666666665, "rental_uris": {"ios": "https://dc.lft.to/lastmile_qr_scan", "android": "https://dc.lft.to/lastmile_qr_scan"}, "bike_id": "ef3d227e3efcecf7daa9a5ea7feadc66", "fusion_lat": 0.0}, {"lon": -77.0364955, "name": "fdaa702d748752e6c1d3e9bcc4e71ad4", "is_disabled": 0, "type": "electric_scooter", "is_reserved": 0, "fusion_lon": 0.0, "lat": 38.903037166666664, "rental_uris": {"ios": "https://dc.lft.to/lastmile_qr_scan", "android": "https://dc.lft.to/lastmile_qr_scan"}, "bike_id": "fdaa702d748752e6c1d3e9bcc4e71ad4", "fusion_lat": 0.0}, {"lon": -77.001912, "name": "6cbf292e276f317e827dd8cbec986c3c", "is_disabled": 0, "type": "electric_scooter", "is_reserved": 0, "fusion_lon": 0.0, "lat": 38.906313, "rental_uris": {"ios": "https://dc.lft.to/lastmile_qr_scan", "android": "https://dc.lft.to/lastmile_qr_scan"}, "bike_id": "6cbf292e276f317e827dd8cbec986c3c", "fusion_lat": 0.0}, {"lon": -76.97740333333333, "name": "3f82bd0266329d698e4a90138756984a", "is_disabled": 0, "type": "electric_scooter", "is_reserved": 0, "fusion_lon": 0.0, "lat": 38.871415666666664, "rental_uris": {"ios": "https://dc.lft.to/lastmile_qr_scan", "android": "https://dc.lft.to/lastmile_qr_scan"}, "bike_id": "3f82bd0266329d698e4a90138756984a", "fusion_lat": 0.0}, {"lon": -77.0352705, "name": "5fd9ffc5e1f491bd8627e0b051d0880b", "is_disabled": 0, "type": "electric_scooter", "is_reserved": 0, "fusion_lon": 0.0, "lat": 38.908588, "rental_uris": {"ios": "https://dc.lft.to/lastmile_qr_scan", "android": "https://dc.lft.to/lastmile_qr_scan"}, "bike_id": "5fd9ffc5e1f491bd8627e0b051d0880b", "fusion_lat": 0.0}, {"lon": -77.028142, "name": "f02d37951a3f0d3bcf6686a110ff2a45", "is_disabled": 0, "type": "electric_scooter", "is_reserved": 0, "fusion_lon": 0.0, "lat": 38.90708516666667, "rental_uris": {"ios": "https://dc.lft.to/lastmile_qr_scan", "android": "https://dc.lft.to/lastmile_qr_scan"}, "bike_id": "f02d37951a3f0d3bcf6686a110ff2a45", "fusion_lat": 0.0}, {"lon": -77.11479666666666, "name": "98e2cdac7cb59d3639f9edd72daea364", "is_disabled": 0, "type": "electric_bike", "is_reserved": 0, "fusion_lon": 0.0, "lat": 38.8583105, "rental_uris": {"ios": "https://dc.lft.to/lastmile_qr_scan", "android": "https://dc.lft.to/lastmile_qr_scan"}, "bike_id": "98e2cdac7cb59d3639f9edd72daea364", "fusion_lat": 0.0}, {"lon": -77.0281855, "name": "9255befb01b730d4dd3fa73cd79c566c", "is_disabled": 0, "type": "electric_scooter", "is_reserved": 0, "fusion_lon": 0.0, "lat": 38.907062, "rental_uris": {"ios": "https://dc.lft.to/lastmile_qr_scan", "android": "https://dc.lft.to/lastmile_qr_scan"}, "bike_id": "9255befb01b730d4dd3fa73cd79c566c", "fusion_lat": 0.0}, {"lon": -77.020481, "name": "e2c959a8ee2652c0df708b13f7e0eb93", "is_disabled": 0, "type": "electric_scooter", "is_reserved": 0, "fusion_lon": 0.0, "lat": 38.9277325, "rental_uris": {"ios": "https://dc.lft.to/lastmile_qr_scan", "android": "https://dc.lft.to/lastmile_qr_scan"}, "bike_id": "e2c959a8ee2652c0df708b13f7e0eb93", "fusion_lat": 0.0}, {"lon": -77.01912616666667, "name": "0f700b57519f44d41de97c215191b233", "is_disabled": 0, "type": "electric_scooter", "is_reserved": 0, "fusion_lon": 0.0, "lat": 38.923655333333336, "rental_uris": {"ios": "https://dc.lft.to/lastmile_qr_scan", "android": "https://dc.lft.to/lastmile_qr_scan"}, "bike_id": "0f700b57519f44d41de97c215191b233", "fusion_lat": 0.0}, {"lon": -77.06271633333333, "name": "ff93d6557fd3aff7f4da7033d2bd82b9", "is_disabled": 0, "type": "electric_scooter", "is_reserved": 0, "fusion_lon": 0.0, "lat": 38.905952166666665, "rental_uris": {"ios": "https://dc.lft.to/lastmile_qr_scan", "android": "https://dc.lft.to/lastmile_qr_scan"}, "bike_id": "ff93d6557fd3aff7f4da7033d2bd82b9", "fusion_lat": 0.0}, {"lon": -77.03918333333333, "name": "f1a9fd13a5bca5ae2ccb53df06c03a7d", "is_disabled": 0, "type": "electric_scooter", "is_reserved": 0, "fusion_lon": 0.0, "lat": 38.9248055, "rental_uris": {"ios": "https://dc.lft.to/lastmile_qr_scan", "android": "https://dc.lft.to/lastmile_qr_scan"}, "bike_id": "f1a9fd13a5bca5ae2ccb53df06c03a7d", "fusion_lat": 0.0}, {"lon": -77.01608816666666, "name": "02c59b3517026c82965a97d9bf18bde5", "is_disabled": 0, "type": "electric_bike", "is_reserved": 0, "fusion_lon": 0.0, "lat": 38.94938633333334, "rental_uris": {"ios": "https://dc.lft.to/lastmile_qr_scan", "android": "https://dc.lft.to/lastmile_qr_scan"}, "bike_id": "02c59b3517026c82965a97d9bf18bde5", "fusion_lat": 0.0}, {"lon": -77.034468, "name": "d7b82cbb3ab1668e718d6807754943c1", "is_disabled": 0, "type": "electric_scooter", "is_reserved": 0, "fusion_lon": 0.0, "lat": 38.90648366666667, "rental_uris": {"ios": "https://dc.lft.to/lastmile_qr_scan", "android": "https://dc.lft.to/lastmile_qr_scan"}, "bike_id": "d7b82cbb3ab1668e718d6807754943c1", "fusion_lat": 0.0}, {"lon": -77.04773533333334, "name": "6782e8a8ef95926aeb68685db6d75015", "is_disabled": 0, "type": "electric_scooter", "is_reserved": 0, "fusion_lon": 0.0, "lat": 38.911226666666664, "rental_uris": {"ios": "https://dc.lft.to/lastmile_qr_scan", "android": "https://dc.lft.to/lastmile_qr_scan"}, "bike_id": "6782e8a8ef95926aeb68685db6d75015", "fusion_lat": 0.0}, {"lon": -77.05605916666667, "name": "41d0f074480d626470eebbaff6a3c188", "is_disabled": 0, "type": "electric_scooter", "is_reserved": 0, "fusion_lon": 0.0, "lat": 38.9369705, "rental_uris": {"ios": "https://dc.lft.to/lastmile_qr_scan", "android": "https://dc.lft.to/lastmile_qr_scan"}, "bike_id": "41d0f074480d626470eebbaff6a3c188", "fusion_lat": 0.0}, {"lon": -77.00918966666667, "name": "a733e7d9cf6a30f678dac7fd56d0e6d9", "is_disabled": 0, "type": "electric_scooter", "is_reserved": 0, "fusion_lon": 0.0, "lat": 38.92340433333333, "rental_uris": {"ios": "https://dc.lft.to/lastmile_qr_scan", "android": "https://dc.lft.to/lastmile_qr_scan"}, "bike_id": "a733e7d9cf6a30f678dac7fd56d0e6d9", "fusion_lat": 0.0}, {"lon": -77.02959566666667, "name": "37882539ddeaf7f6964254a092f924da", "is_disabled": 0, "type": "electric_scooter", "is_reserved": 0, "fusion_lon": 0.0, "lat": 38.904951833333335, "rental_uris": {"ios": "https://dc.lft.to/lastmile_qr_scan", "android": "https://dc.lft.to/lastmile_qr_scan"}, "bike_id": "37882539ddeaf7f6964254a092f924da", "fusion_lat": 0.0}, {"lon": -77.02441283333333, "name": "14e355ae72ebc7c489c7efaacc081787", "is_disabled": 0, "type": "electric_scooter", "is_reserved": 0, "fusion_lon": 0.0, "lat": 38.93350016666667, "rental_uris": {"ios": "https://dc.lft.to/lastmile_qr_scan", "android": "https://dc.lft.to/lastmile_qr_scan"}, "bike_id": "14e355ae72ebc7c489c7efaacc081787", "fusion_lat": 0.0}, {"lon": -77.0569225, "name": "32318db68b0dd8f705c1a15da7e43ecd", "is_disabled": 0, "type": "electric_scooter", "is_reserved": 0, "fusion_lon": 0.0, "lat": 38.9060255, "rental_uris": {"ios": "https://dc.lft.to/lastmile_qr_scan", "android": "https://dc.lft.to/lastmile_qr_scan"}, "bike_id": "32318db68b0dd8f705c1a15da7e43ecd", "fusion_lat": 0.0}, {"lon": -77.03454633333334, "name": "b8333964a52cd04363253b0a4b3b9caa", "is_disabled": 0, "type": "electric_scooter", "is_reserved": 0, "fusion_lon": 0.0, "lat": 38.916628833333334, "rental_uris": {"ios": "https://dc.lft.to/lastmile_qr_scan", "android": "https://dc.lft.to/lastmile_qr_scan"}, "bike_id": "b8333964a52cd04363253b0a4b3b9caa", "fusion_lat": 0.0}, {"lon": -77.040074, "name": "5580a3737ba2fd2f5079d2043fe12b19", "is_disabled": 0, "type": "electric_scooter", "is_reserved": 0, "fusion_lon": 0.0, "lat": 38.90259133333333, "rental_uris": {"ios": "https://dc.lft.to/lastmile_qr_scan", "android": "https://dc.lft.to/lastmile_qr_scan"}, "bike_id": "5580a3737ba2fd2f5079d2043fe12b19", "fusion_lat": 0.0}, {"lon": -77.031311, "name": "cbc196a53a7b40dcfd9200a8ff6a03f1", "is_disabled": 0, "type": "electric_scooter", "is_reserved": 0, "fusion_lon": 0.0, "lat": 38.91800716666667, "rental_uris": {"ios": "https://dc.lft.to/lastmile_qr_scan", "android": "https://dc.lft.to/lastmile_qr_scan"}, "bike_id": "cbc196a53a7b40dcfd9200a8ff6a03f1", "fusion_lat": 0.0}, {"lon": -77.01901966666667, "name": "0600819032463914cff0dc694b33bd58", "is_disabled": 0, "type": "electric_scooter", "is_reserved": 0, "fusion_lon": 0.0, "lat": 38.923346333333335, "rental_uris": {"ios": "https://dc.lft.to/lastmile_qr_scan", "android": "https://dc.lft.to/lastmile_qr_scan"}, "bike_id": "0600819032463914cff0dc694b33bd58", "fusion_lat": 0.0}, {"lon": -76.99840566666667, "name": "d69c3c501cbf4eed2f0f9351a8f71f1c", "is_disabled": 0, "type": "electric_bike", "is_reserved": 0, "fusion_lon": 0.0, "lat": 38.839159333333335, "rental_uris": {"ios": "https://dc.lft.to/lastmile_qr_scan", "android": "https://dc.lft.to/lastmile_qr_scan"}, "bike_id": "d69c3c501cbf4eed2f0f9351a8f71f1c", "fusion_lat": 0.0}, {"lon": -77.05932716666666, "name": "a8e096a617f4637a7489a6de40c83a77", "is_disabled": 0, "type": "electric_scooter", "is_reserved": 0, "fusion_lon": 0.0, "lat": 38.94305383333333, "rental_uris": {"ios": "https://dc.lft.to/lastmile_qr_scan", "android": "https://dc.lft.to/lastmile_qr_scan"}, "bike_id": "a8e096a617f4637a7489a6de40c83a77", "fusion_lat": 0.0}, {"lon": -77.03164533333333, "name": "745d4e9fa392ff39cd129ccbef3d530d", "is_disabled": 0, "type": "electric_scooter", "is_reserved": 0, "fusion_lon": 0.0, "lat": 38.89218966666667, "rental_uris": {"ios": "https://dc.lft.to/lastmile_qr_scan", "android": "https://dc.lft.to/lastmile_qr_scan"}, "bike_id": "745d4e9fa392ff39cd129ccbef3d530d", "fusion_lat": 0.0}, {"lon": -77.04321433333334, "name": "d51c7b8c9a8f3af5f1ff5f55d2eda3fe", "is_disabled": 0, "type": "electric_scooter", "is_reserved": 0, "fusion_lon": 0.0, "lat": 38.91874216666667, "rental_uris": {"ios": "https://dc.lft.to/lastmile_qr_scan", "android": "https://dc.lft.to/lastmile_qr_scan"}, "bike_id": "d51c7b8c9a8f3af5f1ff5f55d2eda3fe", "fusion_lat": 0.0}, {"lon": -77.02051483333334, "name": "52b03ce75040643e41c2ffc55c178ac8", "is_disabled": 0, "type": "electric_scooter", "is_reserved": 0, "fusion_lon": 0.0, "lat": 38.92172333333333, "rental_uris": {"ios": "https://dc.lft.to/lastmile_qr_scan", "android": "https://dc.lft.to/lastmile_qr_scan"}, "bike_id": "52b03ce75040643e41c2ffc55c178ac8", "fusion_lat": 0.0}, {"lon": -77.08486666666667, "name": "361b4a9b1fa68af4c147cfee824a379b", "is_disabled": 0, "type": "electric_scooter", "is_reserved": 0, "fusion_lon": 0.0, "lat": 38.95894933333334, "rental_uris": {"ios": "https://dc.lft.to/lastmile_qr_scan", "android": "https://dc.lft.to/lastmile_qr_scan"}, "bike_id": "361b4a9b1fa68af4c147cfee824a379b", "fusion_lat": 0.0}, {"lon": -77.04317683333333, "name": "6b26f82fa53908a69d83355f17302c48", "is_disabled": 0, "type": "electric_scooter", "is_reserved": 0, "fusion_lon": 0.0, "lat": 38.922109166666665, "rental_uris": {"ios": "https://dc.lft.to/lastmile_qr_scan", "android": "https://dc.lft.to/lastmile_qr_scan"}, "bike_id": "6b26f82fa53908a69d83355f17302c48", "fusion_lat": 0.0}, {"lon": -77.03831866666667, "name": "c683af68a6a367bfce700c71df332db3", "is_disabled": 0, "type": "electric_scooter", "is_reserved": 0, "fusion_lon": 0.0, "lat": 38.91108833333333, "rental_uris": {"ios": "https://dc.lft.to/lastmile_qr_scan", "android": "https://dc.lft.to/lastmile_qr_scan"}, "bike_id": "c683af68a6a367bfce700c71df332db3", "fusion_lat": 0.0}, {"lon": -77.02691966666667, "name": "876a608a80ad9fb6984fdd91e6ea71bf", "is_disabled": 0, "type": "electric_scooter", "is_reserved": 0, "fusion_lon": 0.0, "lat": 38.916922166666666, "rental_uris": {"ios": "https://dc.lft.to/lastmile_qr_scan", "android": "https://dc.lft.to/lastmile_qr_scan"}, "bike_id": "876a608a80ad9fb6984fdd91e6ea71bf", "fusion_lat": 0.0}, {"lon": -77.02158133333333, "name": "4aef44eb4bf356307c51eac18810c835", "is_disabled": 0, "type": "electric_scooter", "is_reserved": 0, "fusion_lon": 0.0, "lat": 38.926066, "rental_uris": {"ios": "https://dc.lft.to/lastmile_qr_scan", "android": "https://dc.lft.to/lastmile_qr_scan"}, "bike_id": "4aef44eb4bf356307c51eac18810c835", "fusion_lat": 0.0}, {"lon": -77.03192633333333, "name": "a09b5eaf50ee9724c7e2d3d80faaaee4", "is_disabled": 0, "type": "electric_scooter", "is_reserved": 0, "fusion_lon": 0.0, "lat": 38.920608333333334, "rental_uris": {"ios": "https://dc.lft.to/lastmile_qr_scan", "android": "https://dc.lft.to/lastmile_qr_scan"}, "bike_id": "a09b5eaf50ee9724c7e2d3d80faaaee4", "fusion_lat": 0.0}, {"lon": -77.0296795, "name": "a5f467a6f68b70b8290c649c1cc6868d", "is_disabled": 0, "type": "electric_scooter", "is_reserved": 0, "fusion_lon": 0.0, "lat": 38.925918, "rental_uris": {"ios": "https://dc.lft.to/lastmile_qr_scan", "android": "https://dc.lft.to/lastmile_qr_scan"}, "bike_id": "a5f467a6f68b70b8290c649c1cc6868d", "fusion_lat": 0.0}, {"lon": -76.941543, "name": "a78772c2dc1265431e03036312a332d1", "is_disabled": 0, "type": "electric_bike", "is_reserved": 0, "fusion_lon": 0.0, "lat": 38.865509833333334, "rental_uris": {"ios": "https://dc.lft.to/lastmile_qr_scan", "android": "https://dc.lft.to/lastmile_qr_scan"}, "bike_id": "a78772c2dc1265431e03036312a332d1", "fusion_lat": 0.0}, {"lon": -77.02846683333334, "name": "4cd9390966f9f9d630078ad5b4d31549", "is_disabled": 0, "type": "electric_scooter", "is_reserved": 0, "fusion_lon": 0.0, "lat": 38.9352875, "rental_uris": {"ios": "https://dc.lft.to/lastmile_qr_scan", "android": "https://dc.lft.to/lastmile_qr_scan"}, "bike_id": "4cd9390966f9f9d630078ad5b4d31549", "fusion_lat": 0.0}, {"lon": -77.041268, "name": "0d9463a50eac17251936801f5ab19ca8", "is_disabled": 0, "type": "electric_scooter", "is_reserved": 0, "fusion_lon": 0.0, "lat": 38.918919333333335, "rental_uris": {"ios": "https://dc.lft.to/lastmile_qr_scan", "android": "https://dc.lft.to/lastmile_qr_scan"}, "bike_id": "0d9463a50eac17251936801f5ab19ca8", "fusion_lat": 0.0}, {"lon": -77.0294885, "name": "3803514109dc334fb1f5e7f017a53c09", "is_disabled": 0, "type": "electric_scooter", "is_reserved": 0, "fusion_lon": 0.0, "lat": 38.90494566666667, "rental_uris": {"ios": "https://dc.lft.to/lastmile_qr_scan", "android": "https://dc.lft.to/lastmile_qr_scan"}, "bike_id": "3803514109dc334fb1f5e7f017a53c09", "fusion_lat": 0.0}, {"lon": -77.02178566666667, "name": "39affc2e92793094707c425d7c506b2a", "is_disabled": 0, "type": "electric_scooter", "is_reserved": 0, "fusion_lon": 0.0, "lat": 38.91019166666667, "rental_uris": {"ios": "https://dc.lft.to/lastmile_qr_scan", "android": "https://dc.lft.to/lastmile_qr_scan"}, "bike_id": "39affc2e92793094707c425d7c506b2a", "fusion_lat": 0.0}, {"lon": -77.01614933333333, "name": "c4b80daf1609d025268592ed2fad1b43", "is_disabled": 0, "type": "electric_scooter", "is_reserved": 0, "fusion_lon": 0.0, "lat": 38.910726833333335, "rental_uris": {"ios": "https://dc.lft.to/lastmile_qr_scan", "android": "https://dc.lft.to/lastmile_qr_scan"}, "bike_id": "c4b80daf1609d025268592ed2fad1b43", "fusion_lat": 0.0}, {"lon": -77.025423, "name": "e2d6654ea98df89bb82adba979f4a537", "is_disabled": 0, "type": "electric_scooter", "is_reserved": 0, "fusion_lon": 0.0, "lat": 38.90714933333334, "rental_uris": {"ios": "https://dc.lft.to/lastmile_qr_scan", "android": "https://dc.lft.to/lastmile_qr_scan"}, "bike_id": "e2d6654ea98df89bb82adba979f4a537", "fusion_lat": 0.0}, {"lon": -77.05089016666666, "name": "326e89c00b46f521c40982e83df0eb5c", "is_disabled": 0, "type": "electric_bike", "is_reserved": 0, "fusion_lon": 0.0, "lat": 38.813315833333334, "rental_uris": {"ios": "https://dc.lft.to/lastmile_qr_scan", "android": "https://dc.lft.to/lastmile_qr_scan"}, "bike_id": "326e89c00b46f521c40982e83df0eb5c", "fusion_lat": 0.0}, {"lon": -77.03657366666667, "name": "493521914339a2a0c647039a4c0d3417", "is_disabled": 0, "type": "electric_scooter", "is_reserved": 0, "fusion_lon": 0.0, "lat": 38.92285666666667, "rental_uris": {"ios": "https://dc.lft.to/lastmile_qr_scan", "android": "https://dc.lft.to/lastmile_qr_scan"}, "bike_id": "493521914339a2a0c647039a4c0d3417", "fusion_lat": 0.0}, {"lon": -77.04810883333333, "name": "c8d6e6a53ce2f8b5ba0d310c0b9c181b", "is_disabled": 0, "type": "electric_scooter", "is_reserved": 0, "fusion_lon": 0.0, "lat": 38.89713616666667, "rental_uris": {"ios": "https://dc.lft.to/lastmile_qr_scan", "android": "https://dc.lft.to/lastmile_qr_scan"}, "bike_id": "c8d6e6a53ce2f8b5ba0d310c0b9c181b", "fusion_lat": 0.0}, {"lon": -76.93594283333333, "name": "dd7f0e20d3a9e8c734a5cdbb71cf18d6", "is_disabled": 0, "type": "electric_scooter", "is_reserved": 0, "fusion_lon": 0.0, "lat": 38.909452, "rental_uris": {"ios": "https://dc.lft.to/lastmile_qr_scan", "android": "https://dc.lft.to/lastmile_qr_scan"}, "bike_id": "dd7f0e20d3a9e8c734a5cdbb71cf18d6", "fusion_lat": 0.0}, {"lon": -77.01296766666667, "name": "c0b2bc4d7d30e44ca139fade271e5024", "is_disabled": 0, "type": "electric_bike", "is_reserved": 0, "fusion_lon": 0.0, "lat": 38.8815285, "rental_uris": {"ios": "https://dc.lft.to/lastmile_qr_scan", "android": "https://dc.lft.to/lastmile_qr_scan"}, "bike_id": "c0b2bc4d7d30e44ca139fade271e5024", "fusion_lat": 0.0}, {"lon": -77.0366485, "name": "2ad9a5219ef5438f32c5db3d8a51f021", "is_disabled": 0, "type": "electric_scooter", "is_reserved": 0, "fusion_lon": 0.0, "lat": 38.9238695, "rental_uris": {"ios": "https://dc.lft.to/lastmile_qr_scan", "android": "https://dc.lft.to/lastmile_qr_scan"}, "bike_id": "2ad9a5219ef5438f32c5db3d8a51f021", "fusion_lat": 0.0}, {"lon": -76.9516155, "name": "68ce5217ded66d3bc317b1a9f34da698", "is_disabled": 0, "type": "electric_bike", "is_reserved": 0, "fusion_lon": 0.0, "lat": 39.0843525, "rental_uris": {"ios": "https://dc.lft.to/lastmile_qr_scan", "android": "https://dc.lft.to/lastmile_qr_scan"}, "bike_id": "68ce5217ded66d3bc317b1a9f34da698", "fusion_lat": 0.0}, {"lon": -77.019551, "name": "b94045946d302edc66eeef5088a8c948", "is_disabled": 0, "type": "electric_scooter", "is_reserved": 0, "fusion_lon": 0.0, "lat": 38.92254533333333, "rental_uris": {"ios": "https://dc.lft.to/lastmile_qr_scan", "android": "https://dc.lft.to/lastmile_qr_scan"}, "bike_id": "b94045946d302edc66eeef5088a8c948", "fusion_lat": 0.0}, {"lon": -77.03533533333334, "name": "8231b2ca02539b0e87abf786c3977ee1", "is_disabled": 0, "type": "electric_scooter", "is_reserved": 0, "fusion_lon": 0.0, "lat": 38.91823516666667, "rental_uris": {"ios": "https://dc.lft.to/lastmile_qr_scan", "android": "https://dc.lft.to/lastmile_qr_scan"}, "bike_id": "8231b2ca02539b0e87abf786c3977ee1", "fusion_lat": 0.0}, {"lon": -77.043062, "name": "ecd8954b148726b4a7dc8bce1b0801b3", "is_disabled": 0, "type": "electric_scooter", "is_reserved": 0, "fusion_lon": 0.0, "lat": 38.92267366666667, "rental_uris": {"ios": "https://dc.lft.to/lastmile_qr_scan", "android": "https://dc.lft.to/lastmile_qr_scan"}, "bike_id": "ecd8954b148726b4a7dc8bce1b0801b3", "fusion_lat": 0.0}, {"lon": -77.02403816666667, "name": "01cd84ff578808c099fe01c9104fa67d", "is_disabled": 0, "type": "electric_scooter", "is_reserved": 0, "fusion_lon": 0.0, "lat": 38.920927666666664, "rental_uris": {"ios": "https://dc.lft.to/lastmile_qr_scan", "android": "https://dc.lft.to/lastmile_qr_scan"}, "bike_id": "01cd84ff578808c099fe01c9104fa67d", "fusion_lat": 0.0}, {"lon": -77.0281685, "name": "7320e79e89c50fd95cdaab8ea61051cd", "is_disabled": 0, "type": "electric_scooter", "is_reserved": 0, "fusion_lon": 0.0, "lat": 38.92236116666667, "rental_uris": {"ios": "https://dc.lft.to/lastmile_qr_scan", "android": "https://dc.lft.to/lastmile_qr_scan"}, "bike_id": "7320e79e89c50fd95cdaab8ea61051cd", "fusion_lat": 0.0}, {"lon": -77.0272575, "name": "63c9a2a8bcd198bc24ae897a2f816f5c", "is_disabled": 0, "type": "electric_scooter", "is_reserved": 0, "fusion_lon": 0.0, "lat": 38.89884216666667, "rental_uris": {"ios": "https://dc.lft.to/lastmile_qr_scan", "android": "https://dc.lft.to/lastmile_qr_scan"}, "bike_id": "63c9a2a8bcd198bc24ae897a2f816f5c", "fusion_lat": 0.0}, {"lon": -77.03183366666667, "name": "f621ee65d9b6f621eff7d5a3a424d27b", "is_disabled": 0, "type": "electric_scooter", "is_reserved": 0, "fusion_lon": 0.0, "lat": 38.89239083333333, "rental_uris": {"ios": "https://dc.lft.to/lastmile_qr_scan", "android": "https://dc.lft.to/lastmile_qr_scan"}, "bike_id": "f621ee65d9b6f621eff7d5a3a424d27b", "fusion_lat": 0.0}, {"lon": -76.99609966666667, "name": "85920399d51a672c71b96dae4b0708fb", "is_disabled": 0, "type": "electric_scooter", "is_reserved": 0, "fusion_lon": 0.0, "lat": 38.90141883333333, "rental_uris": {"ios": "https://dc.lft.to/lastmile_qr_scan", "android": "https://dc.lft.to/lastmile_qr_scan"}, "bike_id": "85920399d51a672c71b96dae4b0708fb", "fusion_lat": 0.0}, {"lon": -77.039846, "name": "147d283ef130d0b25c854ee96c7f6d8b", "is_disabled": 0, "type": "electric_bike", "is_reserved": 0, "fusion_lon": 0.0, "lat": 38.933314333333335, "rental_uris": {"ios": "https://dc.lft.to/lastmile_qr_scan", "android": "https://dc.lft.to/lastmile_qr_scan"}, "bike_id": "147d283ef130d0b25c854ee96c7f6d8b", "fusion_lat": 0.0}, {"lon": -77.02695383333334, "name": "2862fc3e51eef47b126cd269298bc9f8", "is_disabled": 0, "type": "electric_scooter", "is_reserved": 0, "fusion_lon": 0.0, "lat": 38.90591833333333, "rental_uris": {"ios": "https://dc.lft.to/lastmile_qr_scan", "android": "https://dc.lft.to/lastmile_qr_scan"}, "bike_id": "2862fc3e51eef47b126cd269298bc9f8", "fusion_lat": 0.0}, {"lon": -77.03190833333333, "name": "f8f56830835ed21c141dc301094e5e73", "is_disabled": 0, "type": "electric_scooter", "is_reserved": 0, "fusion_lon": 0.0, "lat": 38.91005833333333, "rental_uris": {"ios": "https://dc.lft.to/lastmile_qr_scan", "android": "https://dc.lft.to/lastmile_qr_scan"}, "bike_id": "f8f56830835ed21c141dc301094e5e73", "fusion_lat": 0.0}, {"lon": -77.0358785, "name": "2783e96460b9d6c2491148e2fe9cb1c9", "is_disabled": 0, "type": "electric_scooter", "is_reserved": 0, "fusion_lon": 0.0, "lat": 38.91910683333333, "rental_uris": {"ios": "https://dc.lft.to/lastmile_qr_scan", "android": "https://dc.lft.to/lastmile_qr_scan"}, "bike_id": "2783e96460b9d6c2491148e2fe9cb1c9", "fusion_lat": 0.0}, {"lon": -77.02200733333333, "name": "8e75583135c1499cf153c5ee21b1306b", "is_disabled": 0, "type": "electric_scooter", "is_reserved": 0, "fusion_lon": 0.0, "lat": 38.89944283333333, "rental_uris": {"ios": "https://dc.lft.to/lastmile_qr_scan", "android": "https://dc.lft.to/lastmile_qr_scan"}, "bike_id": "8e75583135c1499cf153c5ee21b1306b", "fusion_lat": 0.0}, {"lon": -77.02165766666667, "name": "4409e2c4405913993ec5ad2cb850b53e", "is_disabled": 0, "type": "electric_scooter", "is_reserved": 0, "fusion_lon": 0.0, "lat": 38.9307405, "rental_uris": {"ios": "https://dc.lft.to/lastmile_qr_scan", "android": "https://dc.lft.to/lastmile_qr_scan"}, "bike_id": "4409e2c4405913993ec5ad2cb850b53e", "fusion_lat": 0.0}, {"lon": -77.0174695, "name": "7ce312bacb9fe43a53681ef5bdc1f9aa", "is_disabled": 0, "type": "electric_scooter", "is_reserved": 0, "fusion_lon": 0.0, "lat": 38.882039666666664, "rental_uris": {"ios": "https://dc.lft.to/lastmile_qr_scan", "android": "https://dc.lft.to/lastmile_qr_scan"}, "bike_id": "7ce312bacb9fe43a53681ef5bdc1f9aa", "fusion_lat": 0.0}, {"lon": -77.04998816666667, "name": "fab4f49fdd41e575475c6c12efe2dbaa", "is_disabled": 0, "type": "electric_scooter", "is_reserved": 0, "fusion_lon": 0.0, "lat": 38.89229733333333, "rental_uris": {"ios": "https://dc.lft.to/lastmile_qr_scan", "android": "https://dc.lft.to/lastmile_qr_scan"}, "bike_id": "fab4f49fdd41e575475c6c12efe2dbaa", "fusion_lat": 0.0}, {"lon": -76.95564316666666, "name": "bcc478edbe9d6a029fdd08387b24c4c5", "is_disabled": 0, "type": "electric_bike", "is_reserved": 0, "fusion_lon": 0.0, "lat": 38.98502033333333, "rental_uris": {"ios": "https://dc.lft.to/lastmile_qr_scan", "android": "https://dc.lft.to/lastmile_qr_scan"}, "bike_id": "bcc478edbe9d6a029fdd08387b24c4c5", "fusion_lat": 0.0}, {"lon": -77.03444583333334, "name": "62a85cdb0f702f631038d5bb984e53a9", "is_disabled": 0, "type": "electric_scooter", "is_reserved": 0, "fusion_lon": 0.0, "lat": 38.917837, "rental_uris": {"ios": "https://dc.lft.to/lastmile_qr_scan", "android": "https://dc.lft.to/lastmile_qr_scan"}, "bike_id": "62a85cdb0f702f631038d5bb984e53a9", "fusion_lat": 0.0}, {"lon": -77.022289, "name": "828e919110792700df25263006a62118", "is_disabled": 0, "type": "electric_scooter", "is_reserved": 0, "fusion_lon": 0.0, "lat": 38.92092366666667, "rental_uris": {"ios": "https://dc.lft.to/lastmile_qr_scan", "android": "https://dc.lft.to/lastmile_qr_scan"}, "bike_id": "828e919110792700df25263006a62118", "fusion_lat": 0.0}, {"lon": -77.02213616666667, "name": "eda6761e15702e51c6e4af8cd38d4218", "is_disabled": 0, "type": "electric_scooter", "is_reserved": 0, "fusion_lon": 0.0, "lat": 38.91269533333333, "rental_uris": {"ios": "https://dc.lft.to/lastmile_qr_scan", "android": "https://dc.lft.to/lastmile_qr_scan"}, "bike_id": "eda6761e15702e51c6e4af8cd38d4218", "fusion_lat": 0.0}, {"lon": -77.01596466666666, "name": "61f74e515a047878d5dc207fe3043fbe", "is_disabled": 0, "type": "electric_scooter", "is_reserved": 0, "fusion_lon": 0.0, "lat": 38.874621833333336, "rental_uris": {"ios": "https://dc.lft.to/lastmile_qr_scan", "android": "https://dc.lft.to/lastmile_qr_scan"}, "bike_id": "61f74e515a047878d5dc207fe3043fbe", "fusion_lat": 0.0}, {"lon": -77.0260145, "name": "13711e47ad3d2aee7d13faf40003c540", "is_disabled": 0, "type": "electric_scooter", "is_reserved": 0, "fusion_lon": 0.0, "lat": 38.89626416666667, "rental_uris": {"ios": "https://dc.lft.to/lastmile_qr_scan", "android": "https://dc.lft.to/lastmile_qr_scan"}, "bike_id": "13711e47ad3d2aee7d13faf40003c540", "fusion_lat": 0.0}, {"lon": -77.083379, "name": "a7fe84770e5185aa10dfb86c64b5c69d", "is_disabled": 0, "type": "electric_scooter", "is_reserved": 0, "fusion_lon": 0.0, "lat": 38.929892833333334, "rental_uris": {"ios": "https://dc.lft.to/lastmile_qr_scan", "android": "https://dc.lft.to/lastmile_qr_scan"}, "bike_id": "a7fe84770e5185aa10dfb86c64b5c69d", "fusion_lat": 0.0}, {"lon": -77.02985683333333, "name": "4b2077818b16a804b7bfacb1188df154", "is_disabled": 0, "type": "electric_scooter", "is_reserved": 0, "fusion_lon": 0.0, "lat": 38.94260966666667, "rental_uris": {"ios": "https://dc.lft.to/lastmile_qr_scan", "android": "https://dc.lft.to/lastmile_qr_scan"}, "bike_id": "4b2077818b16a804b7bfacb1188df154", "fusion_lat": 0.0}, {"lon": -77.04035516666667, "name": "70931821db0c3502da967186c0c8f5c8", "is_disabled": 0, "type": "electric_scooter", "is_reserved": 0, "fusion_lon": 0.0, "lat": 38.9036085, "rental_uris": {"ios": "https://dc.lft.to/lastmile_qr_scan", "android": "https://dc.lft.to/lastmile_qr_scan"}, "bike_id": "70931821db0c3502da967186c0c8f5c8", "fusion_lat": 0.0}, {"lon": -77.09050466666666, "name": "0974e21aee04cb31f2ee7a9de135ce72", "is_disabled": 0, "type": "electric_scooter", "is_reserved": 0, "fusion_lon": 0.0, "lat": 38.91757466666667, "rental_uris": {"ios": "https://dc.lft.to/lastmile_qr_scan", "android": "https://dc.lft.to/lastmile_qr_scan"}, "bike_id": "0974e21aee04cb31f2ee7a9de135ce72", "fusion_lat": 0.0}, {"lon": -77.0220345, "name": "5ac8f8236a4bcad1ee8b02fd1659169d", "is_disabled": 0, "type": "electric_scooter", "is_reserved": 0, "fusion_lon": 0.0, "lat": 38.905651166666665, "rental_uris": {"ios": "https://dc.lft.to/lastmile_qr_scan", "android": "https://dc.lft.to/lastmile_qr_scan"}, "bike_id": "5ac8f8236a4bcad1ee8b02fd1659169d", "fusion_lat": 0.0}, {"lon": -77.01832083333333, "name": "d20af7878cf1298c4410e35a8a08ea74", "is_disabled": 0, "type": "electric_scooter", "is_reserved": 0, "fusion_lon": 0.0, "lat": 38.90858883333333, "rental_uris": {"ios": "https://dc.lft.to/lastmile_qr_scan", "android": "https://dc.lft.to/lastmile_qr_scan"}, "bike_id": "d20af7878cf1298c4410e35a8a08ea74", "fusion_lat": 0.0}, {"lon": -76.991489, "name": "ee7c1b4326daec4a89b69f30a7c60bcf", "is_disabled": 0, "type": "electric_scooter", "is_reserved": 0, "fusion_lon": 0.0, "lat": 38.891623833333334, "rental_uris": {"ios": "https://dc.lft.to/lastmile_qr_scan", "android": "https://dc.lft.to/lastmile_qr_scan"}, "bike_id": "ee7c1b4326daec4a89b69f30a7c60bcf", "fusion_lat": 0.0}, {"lon": -77.04622483333333, "name": "4498e14ee07ccd9fef504cd5880a3905", "is_disabled": 0, "type": "electric_scooter", "is_reserved": 0, "fusion_lon": 0.0, "lat": 38.9161725, "rental_uris": {"ios": "https://dc.lft.to/lastmile_qr_scan", "android": "https://dc.lft.to/lastmile_qr_scan"}, "bike_id": "4498e14ee07ccd9fef504cd5880a3905", "fusion_lat": 0.0}, {"lon": -76.97746816666667, "name": "c60de262ad122fd90283de1ee1149c89", "is_disabled": 0, "type": "electric_bike", "is_reserved": 0, "fusion_lon": 0.0, "lat": 38.864883, "rental_uris": {"ios": "https://dc.lft.to/lastmile_qr_scan", "android": "https://dc.lft.to/lastmile_qr_scan"}, "bike_id": "c60de262ad122fd90283de1ee1149c89", "fusion_lat": 0.0}, {"lon": -76.9809905, "name": "5fe06efd02602c013a1ff690fa972fd3", "is_disabled": 0, "type": "electric_bike", "is_reserved": 0, "fusion_lon": 0.0, "lat": 38.9535785, "rental_uris": {"ios": "https://dc.lft.to/lastmile_qr_scan", "android": "https://dc.lft.to/lastmile_qr_scan"}, "bike_id": "5fe06efd02602c013a1ff690fa972fd3", "fusion_lat": 0.0}, {"lon": -77.00135166666666, "name": "e70932353b66c34a779fd43b3dc7ae62", "is_disabled": 0, "type": "electric_scooter", "is_reserved": 0, "fusion_lon": 0.0, "lat": 38.88428733333333, "rental_uris": {"ios": "https://dc.lft.to/lastmile_qr_scan", "android": "https://dc.lft.to/lastmile_qr_scan"}, "bike_id": "e70932353b66c34a779fd43b3dc7ae62", "fusion_lat": 0.0}, {"lon": -77.057466, "name": "99485259a8f64c55dd9ebcfcca99b2b0", "is_disabled": 0, "type": "electric_scooter", "is_reserved": 0, "fusion_lon": 0.0, "lat": 38.933426, "rental_uris": {"ios": "https://dc.lft.to/lastmile_qr_scan", "android": "https://dc.lft.to/lastmile_qr_scan"}, "bike_id": "99485259a8f64c55dd9ebcfcca99b2b0", "fusion_lat": 0.0}, {"lon": -77.01852916666667, "name": "994fa2d46a4fb5a56ea96011203e93cf", "is_disabled": 0, "type": "electric_scooter", "is_reserved": 0, "fusion_lon": 0.0, "lat": 38.8745025, "rental_uris": {"ios": "https://dc.lft.to/lastmile_qr_scan", "android": "https://dc.lft.to/lastmile_qr_scan"}, "bike_id": "994fa2d46a4fb5a56ea96011203e93cf", "fusion_lat": 0.0}, {"lon": -77.03924433333333, "name": "008942ddc7425f9ca4ad3f8b3730fd58", "is_disabled": 0, "type": "electric_scooter", "is_reserved": 0, "fusion_lon": 0.0, "lat": 38.898452166666665, "rental_uris": {"ios": "https://dc.lft.to/lastmile_qr_scan", "android": "https://dc.lft.to/lastmile_qr_scan"}, "bike_id": "008942ddc7425f9ca4ad3f8b3730fd58", "fusion_lat": 0.0}, {"lon": -77.040094, "name": "ccc68d34678a7736ec0506d9b62ca8b8", "is_disabled": 0, "type": "electric_scooter", "is_reserved": 0, "fusion_lon": 0.0, "lat": 38.910053166666664, "rental_uris": {"ios": "https://dc.lft.to/lastmile_qr_scan", "android": "https://dc.lft.to/lastmile_qr_scan"}, "bike_id": "ccc68d34678a7736ec0506d9b62ca8b8", "fusion_lat": 0.0}, {"lon": -77.03657733333333, "name": "f580936c4ad8dc03db0831104c5c37b3", "is_disabled": 0, "type": "electric_scooter", "is_reserved": 0, "fusion_lon": 0.0, "lat": 38.9321495, "rental_uris": {"ios": "https://dc.lft.to/lastmile_qr_scan", "android": "https://dc.lft.to/lastmile_qr_scan"}, "bike_id": "f580936c4ad8dc03db0831104c5c37b3", "fusion_lat": 0.0}, {"lon": -77.03192966666667, "name": "67f5967f112752f9b69c664517be77bd", "is_disabled": 0, "type": "electric_scooter", "is_reserved": 0, "fusion_lon": 0.0, "lat": 38.892407666666664, "rental_uris": {"ios": "https://dc.lft.to/lastmile_qr_scan", "android": "https://dc.lft.to/lastmile_qr_scan"}, "bike_id": "67f5967f112752f9b69c664517be77bd", "fusion_lat": 0.0}, {"lon": -77.22981266666666, "name": "71388e7de2875e012039ef979b9ff325", "is_disabled": 0, "type": "electric_bike", "is_reserved": 0, "fusion_lon": 0.0, "lat": 38.871466, "rental_uris": {"ios": "https://dc.lft.to/lastmile_qr_scan", "android": "https://dc.lft.to/lastmile_qr_scan"}, "bike_id": "71388e7de2875e012039ef979b9ff325", "fusion_lat": 0.0}, {"lon": -77.01875266666667, "name": "5ec47ebfdcdf91470a35e26441aeb77c", "is_disabled": 0, "type": "electric_scooter", "is_reserved": 0, "fusion_lon": 0.0, "lat": 38.881229, "rental_uris": {"ios": "https://dc.lft.to/lastmile_qr_scan", "android": "https://dc.lft.to/lastmile_qr_scan"}, "bike_id": "5ec47ebfdcdf91470a35e26441aeb77c", "fusion_lat": 0.0}, {"lon": -76.9726535, "name": "258dca714ace8cfcce30c7e22353e06f", "is_disabled": 0, "type": "electric_bike", "is_reserved": 0, "fusion_lon": 0.0, "lat": 38.85598733333333, "rental_uris": {"ios": "https://dc.lft.to/lastmile_qr_scan", "android": "https://dc.lft.to/lastmile_qr_scan"}, "bike_id": "258dca714ace8cfcce30c7e22353e06f", "fusion_lat": 0.0}, {"lon": -77.0183855, "name": "b03905f351ddc35fb5baca461d07752e", "is_disabled": 0, "type": "electric_scooter", "is_reserved": 0, "fusion_lon": 0.0, "lat": 38.90732533333333, "rental_uris": {"ios": "https://dc.lft.to/lastmile_qr_scan", "android": "https://dc.lft.to/lastmile_qr_scan"}, "bike_id": "b03905f351ddc35fb5baca461d07752e", "fusion_lat": 0.0}, {"lon": -77.04483166666667, "name": "c7794a53ae548ae0594196542ed170ed", "is_disabled": 0, "type": "electric_scooter", "is_reserved": 0, "fusion_lon": 0.0, "lat": 38.8936095, "rental_uris": {"ios": "https://dc.lft.to/lastmile_qr_scan", "android": "https://dc.lft.to/lastmile_qr_scan"}, "bike_id": "c7794a53ae548ae0594196542ed170ed", "fusion_lat": 0.0}, {"lon": -77.02194716666666, "name": "6a8fd1f411220a7e8d3952bab43fc4aa", "is_disabled": 0, "type": "electric_scooter", "is_reserved": 0, "fusion_lon": 0.0, "lat": 38.91117033333333, "rental_uris": {"ios": "https://dc.lft.to/lastmile_qr_scan", "android": "https://dc.lft.to/lastmile_qr_scan"}, "bike_id": "6a8fd1f411220a7e8d3952bab43fc4aa", "fusion_lat": 0.0}, {"lon": -77.05046483333334, "name": "9f816bd20ae2dec78ef7456e5e7465e1", "is_disabled": 0, "type": "electric_scooter", "is_reserved": 0, "fusion_lon": 0.0, "lat": 38.892802, "rental_uris": {"ios": "https://dc.lft.to/lastmile_qr_scan", "android": "https://dc.lft.to/lastmile_qr_scan"}, "bike_id": "9f816bd20ae2dec78ef7456e5e7465e1", "fusion_lat": 0.0}, {"lon": -77.0098235, "name": "a8b2841c7beb2fcb9838397c92bf8eca", "is_disabled": 0, "type": "electric_scooter", "is_reserved": 0, "fusion_lon": 0.0, "lat": 38.903639, "rental_uris": {"ios": "https://dc.lft.to/lastmile_qr_scan", "android": "https://dc.lft.to/lastmile_qr_scan"}, "bike_id": "a8b2841c7beb2fcb9838397c92bf8eca", "fusion_lat": 0.0}, {"lon": -77.0167075, "name": "88333346e2a65e836682ff8dfd062870", "is_disabled": 0, "type": "electric_scooter", "is_reserved": 0, "fusion_lon": 0.0, "lat": 38.920489, "rental_uris": {"ios": "https://dc.lft.to/lastmile_qr_scan", "android": "https://dc.lft.to/lastmile_qr_scan"}, "bike_id": "88333346e2a65e836682ff8dfd062870", "fusion_lat": 0.0}, {"lon": -77.00397566666666, "name": "4ca648e7bdc489aa8c0c09f67192c1d0", "is_disabled": 0, "type": "electric_bike", "is_reserved": 0, "fusion_lon": 0.0, "lat": 38.985584, "rental_uris": {"ios": "https://dc.lft.to/lastmile_qr_scan", "android": "https://dc.lft.to/lastmile_qr_scan"}, "bike_id": "4ca648e7bdc489aa8c0c09f67192c1d0", "fusion_lat": 0.0}, {"lon": -77.03932183333333, "name": "e5161fcc135355382293086807f6e521", "is_disabled": 0, "type": "electric_scooter", "is_reserved": 0, "fusion_lon": 0.0, "lat": 38.92481633333333, "rental_uris": {"ios": "https://dc.lft.to/lastmile_qr_scan", "android": "https://dc.lft.to/lastmile_qr_scan"}, "bike_id": "e5161fcc135355382293086807f6e521", "fusion_lat": 0.0}, {"lon": -76.98836933333334, "name": "a566f272f7e0208f8a28c16f2738bcc0", "is_disabled": 0, "type": "electric_scooter", "is_reserved": 0, "fusion_lon": 0.0, "lat": 38.934635166666666, "rental_uris": {"ios": "https://dc.lft.to/lastmile_qr_scan", "android": "https://dc.lft.to/lastmile_qr_scan"}, "bike_id": "a566f272f7e0208f8a28c16f2738bcc0", "fusion_lat": 0.0}, {"lon": -77.00207983333334, "name": "402fb7ce3e50780459ffbcc460f1a5f8", "is_disabled": 0, "type": "electric_scooter", "is_reserved": 0, "fusion_lon": 0.0, "lat": 38.900229833333334, "rental_uris": {"ios": "https://dc.lft.to/lastmile_qr_scan", "android": "https://dc.lft.to/lastmile_qr_scan"}, "bike_id": "402fb7ce3e50780459ffbcc460f1a5f8", "fusion_lat": 0.0}, {"lon": -77.02668983333334, "name": "7b0fca0ff01898bd447e223b1518e715", "is_disabled": 0, "type": "electric_scooter", "is_reserved": 0, "fusion_lon": 0.0, "lat": 38.921676166666664, "rental_uris": {"ios": "https://dc.lft.to/lastmile_qr_scan", "android": "https://dc.lft.to/lastmile_qr_scan"}, "bike_id": "7b0fca0ff01898bd447e223b1518e715", "fusion_lat": 0.0}, {"lon": -77.0253425, "name": "cdd38e525804bab1219fd322338570f7", "is_disabled": 0, "type": "electric_scooter", "is_reserved": 0, "fusion_lon": 0.0, "lat": 38.892161333333334, "rental_uris": {"ios": "https://dc.lft.to/lastmile_qr_scan", "android": "https://dc.lft.to/lastmile_qr_scan"}, "bike_id": "cdd38e525804bab1219fd322338570f7", "fusion_lat": 0.0}, {"lon": -77.03342216666667, "name": "0a7fc85857f0c1a6476582e371514b99", "is_disabled": 0, "type": "electric_scooter", "is_reserved": 0, "fusion_lon": 0.0, "lat": 38.928703166666665, "rental_uris": {"ios": "https://dc.lft.to/lastmile_qr_scan", "android": "https://dc.lft.to/lastmile_qr_scan"},