{"data": {"bikes": [{"bike_id": "0982e0eecddb22fa763e581041751407", "is_reserved": 0, "fusion_lon": 0.0, "lat": 38.898481833333335, "is_disabled": 0, "name": "0982e0eecddb22fa763e581041751407", "fusion_lat": 0.0, "rental_uris": {"ios": "https://dc.lft.to/lastmile_qr_scan", "android": "https://dc.lft.to/lastmile_qr_scan"}, "lon": -77.0327135, "type": "electric_scooter"}, {"bike_id": "3e7ac83d3b34cc1da543dd83a9025f41", "is_reserved": 0, "fusion_lon": 0.0, "lat": 38.903597, "is_disabled": 0, "name": "3e7ac83d3b34cc1da543dd83a9025f41", "fusion_lat": 0.0, "rental_uris": {"ios": "https://dc.lft.to/lastmile_qr_scan", "android": "https://dc.lft.to/lastmile_qr_scan"}, "lon": -77.04339766666666, "type": "electric_scooter"}, {"bike_id": "dfa1fa3b5b2d3c0b0d46df613f73ce89", "is_reserved": 0, "fusion_lon": 0.0, "lat": 38.902295333333335, "is_disabled": 0, "name": "dfa1fa3b5b2d3c0b0d46df613f73ce89", "fusion_lat": 0.0, "rental_uris": {"ios": "https://dc.lft.to/lastmile_qr_scan", "android": "https://dc.lft.to/lastmile_qr_scan"}, "lon": -77.06063316666666, "type": "electric_scooter"}, {"bike_id": "1cec5282837d263c5c89254f8f7ca288", "is_reserved": 0, "fusion_lon": 0.0, "lat": 38.90026783333333, "is_disabled": 0, "name": "1cec5282837d263c5c89254f8f7ca288", "fusion_lat": 0.0, "rental_uris": {"ios": "https://dc.lft.to/lastmile_qr_scan", "android": "https://dc.lft.to/lastmile_qr_scan"}, "lon": -76.98792066666667, "type": "electric_scooter"}, {"bike_id": "6ee6780fcf616c6c499847fd943ca628", "is_reserved": 0, "fusion_lon": 0.0, "lat": 38.93361216666667, "is_disabled": 0, "name": "6ee6780fcf616c6c499847fd943ca628", "fusion_lat": 0.0, "rental_uris": {"ios": "https://dc.lft.to/lastmile_qr_scan", "android": "https://dc.lft.to/lastmile_qr_scan"}, "lon": -77.05718516666667, "type": "electric_scooter"}, {"bike_id": "a7578944d4f7b09e88a442ccb806f9c5", "is_reserved": 0, "fusion_lon": 0.0, "lat": 38.9209255, "is_disabled": 0, "name": "a7578944d4f7b09e88a442ccb806f9c5", "fusion_lat": 0.0, "rental_uris": {"ios": "https://dc.lft.to/lastmile_qr_scan", "android": "https://dc.lft.to/lastmile_qr_scan"}, "lon": -77.02526033333334, "type": "electric_scooter"}, {"bike_id": "fbf0efcc501cc2a7609043465502a92c", "is_reserved": 0, "fusion_lon": 0.0, "lat": 38.903758333333336, "is_disabled": 0, "name": "fbf0efcc501cc2a7609043465502a92c", "fusion_lat": 0.0, "rental_uris": {"ios": "https://dc.lft.to/lastmile_qr_scan", "android": "https://dc.lft.to/lastmile_qr_scan"}, "lon": -77.05409633333333, "type": "electric_scooter"}, {"bike_id": "741b097ddc9224f01fd4225e1223c386", "is_reserved": 0, "fusion_lon": 0.0, "lat": 38.9084635, "is_disabled": 0, "name": "741b097ddc9224f01fd4225e1223c386", "fusion_lat": 0.0, "rental_uris": {"ios": "https://dc.lft.to/lastmile_qr_scan", "android": "https://dc.lft.to/lastmile_qr_scan"}, "lon": -77.08531466666666, "type": "electric_scooter"}, {"bike_id": "239b53327021f27865397b2fd1e7f6b8", "is_reserved": 0, "fusion_lon": 0.0, "lat": 38.91249033333333, "is_disabled": 0, "name": "239b53327021f27865397b2fd1e7f6b8", "fusion_lat": 0.0, "rental_uris": {"ios": "https://dc.lft.to/lastmile_qr_scan", "android": "https://dc.lft.to/lastmile_qr_scan"}, "lon": -77.02695016666667, "type": "electric_scooter"}, {"bike_id": "7526afd5e1142511d9da73f4bbaa6bfa", "is_reserved": 0, "fusion_lon": 0.0, "lat": 38.91917466666666, "is_disabled": 0, "name": "7526afd5e1142511d9da73f4bbaa6bfa", "fusion_lat": 0.0, "rental_uris": {"ios": "https://dc.lft.to/lastmile_qr_scan", "android": "https://dc.lft.to/lastmile_qr_scan"}, "lon": -77.0317625, "type": "electric_scooter"}, {"bike_id": "b259d6d932812dbf5a09fa1884441a75", "is_reserved": 0, "fusion_lon": 0.0, "lat": 38.866186166666665, "is_disabled": 0, "name": "b259d6d932812dbf5a09fa1884441a75", "fusion_lat": 0.0, "rental_uris": {"ios": "https://dc.lft.to/lastmile_qr_scan", "android": "https://dc.lft.to/lastmile_qr_scan"}, "lon": -76.94567733333334, "type": "electric_bike"}, {"bike_id": "f49d16a89e78dd4798d308b11dcd736f", "is_reserved": 0, "fusion_lon": 0.0, "lat": 38.90289883333333, "is_disabled": 0, "name": "f49d16a89e78dd4798d308b11dcd736f", "fusion_lat": 0.0, "rental_uris": {"ios": "https://dc.lft.to/lastmile_qr_scan", "android": "https://dc.lft.to/lastmile_qr_scan"}, "lon": -76.99036733333334, "type": "electric_scooter"}, {"bike_id": "6a93bbd8844aac9068fff3e4d14a6714", "is_reserved": 0, "fusion_lon": 0.0, "lat": 38.949706, "is_disabled": 0, "name": "6a93bbd8844aac9068fff3e4d14a6714", "fusion_lat": 0.0, "rental_uris": {"ios": "https://dc.lft.to/lastmile_qr_scan", "android": "https://dc.lft.to/lastmile_qr_scan"}, "lon": -76.97284033333334, "type": "electric_bike"}, {"bike_id": "707485e1bc3c7b1d5e1024df30ab9fb0", "is_reserved": 0, "fusion_lon": 0.0, "lat": 38.90386983333333, "is_disabled": 0, "name": "707485e1bc3c7b1d5e1024df30ab9fb0", "fusion_lat": 0.0, "rental_uris": {"ios": "https://dc.lft.to/lastmile_qr_scan", "android": "https://dc.lft.to/lastmile_qr_scan"}, "lon": -77.04479716666667, "type": "electric_scooter"}, {"bike_id": "a37e6690d6385311d35da613111a301f", "is_reserved": 0, "fusion_lon": 0.0, "lat": 38.8973035, "is_disabled": 0, "name": "a37e6690d6385311d35da613111a301f", "fusion_lat": 0.0, "rental_uris": {"ios": "https://dc.lft.to/lastmile_qr_scan", "android": "https://dc.lft.to/lastmile_qr_scan"}, "lon": -77.055703, "type": "electric_scooter"}, {"bike_id": "3eb34b2db9a3ac9b9da84502d94c1e0d", "is_reserved": 0, "fusion_lon": 0.0, "lat": 38.88846, "is_disabled": 0, "name": "3eb34b2db9a3ac9b9da84502d94c1e0d", "fusion_lat": 0.0, "rental_uris": {"ios": "https://dc.lft.to/lastmile_qr_scan", "android": "https://dc.lft.to/lastmile_qr_scan"}, "lon": -76.92681733333333, "type": "electric_scooter"}, {"bike_id": "3fa03a2607d54c9bdb69b40f74427f50", "is_reserved": 0, "fusion_lon": 0.0, "lat": 38.90509216666667, "is_disabled": 0, "name": "3fa03a2607d54c9bdb69b40f74427f50", "fusion_lat": 0.0, "rental_uris": {"ios": "https://dc.lft.to/lastmile_qr_scan", "android": "https://dc.lft.to/lastmile_qr_scan"}, "lon": -77.05686983333334, "type": "electric_bike"}, {"bike_id": "73339df3724d59b14eb6608502ba7232", "is_reserved": 0, "fusion_lon": 0.0, "lat": 38.88749983333334, "is_disabled": 0, "name": "73339df3724d59b14eb6608502ba7232", "fusion_lat": 0.0, "rental_uris": {"ios": "https://dc.lft.to/lastmile_qr_scan", "android": "https://dc.lft.to/lastmile_qr_scan"}, "lon": -77.0314945, "type": "electric_scooter"}, {"bike_id": "147728029f9f0a657f2d2468bd9c22d2", "is_reserved": 0, "fusion_lon": 0.0, "lat": 38.948043166666665, "is_disabled": 0, "name": "147728029f9f0a657f2d2468bd9c22d2", "fusion_lat": 0.0, "rental_uris": {"ios": "https://dc.lft.to/lastmile_qr_scan", "android": "https://dc.lft.to/lastmile_qr_scan"}, "lon": -77.07908983333333, "type": "electric_scooter"}, {"bike_id": "5602432747df9125dce026a313bc4c63", "is_reserved": 0, "fusion_lon": 0.0, "lat": 38.89373833333333, "is_disabled": 0, "name": "5602432747df9125dce026a313bc4c63", "fusion_lat": 0.0, "rental_uris": {"ios": "https://dc.lft.to/lastmile_qr_scan", "android": "https://dc.lft.to/lastmile_qr_scan"}, "lon": -77.04783133333333, "type": "electric_scooter"}, {"bike_id": "ced623390d626be7114f18678ab8e44e", "is_reserved": 0, "fusion_lon": 0.0, "lat": 38.860119833333336, "is_disabled": 0, "name": "ced623390d626be7114f18678ab8e44e", "fusion_lat": 0.0, "rental_uris": {"ios": "https://dc.lft.to/lastmile_qr_scan", "android": "https://dc.lft.to/lastmile_qr_scan"}, "lon": -77.05771916666667, "type": "electric_bike"}, {"bike_id": "54dc0dc43b07b44e87d7a1818a5526e4", "is_reserved": 0, "fusion_lon": 0.0, "lat": 38.93073066666667, "is_disabled": 0, "name": "54dc0dc43b07b44e87d7a1818a5526e4", "fusion_lat": 0.0, "rental_uris": {"ios": "https://dc.lft.to/lastmile_qr_scan", "android": "https://dc.lft.to/lastmile_qr_scan"}, "lon": -77.03131983333333, "type": "electric_scooter"}, {"bike_id": "009c5781e1f75d57c2dca3cdfe1991c8", "is_reserved": 0, "fusion_lon": 0.0, "lat": 38.90383216666667, "is_disabled": 0, "name": "009c5781e1f75d57c2dca3cdfe1991c8", "fusion_lat": 0.0, "rental_uris": {"ios": "https://dc.lft.to/lastmile_qr_scan", "android": "https://dc.lft.to/lastmile_qr_scan"}, "lon": -77.04510216666667, "type": "electric_scooter"}, {"bike_id": "431e184cf04d8d3c91f00e89cc2a9d8e", "is_reserved": 0, "fusion_lon": 0.0, "lat": 38.90080533333333, "is_disabled": 0, "name": "431e184cf04d8d3c91f00e89cc2a9d8e", "fusion_lat": 0.0, "rental_uris": {"ios": "https://dc.lft.to/lastmile_qr_scan", "android": "https://dc.lft.to/lastmile_qr_scan"}, "lon": -76.93863833333333, "type": "electric_scooter"}, {"bike_id": "3c27c51885bdd23227abba11b946324f", "is_reserved": 0, "fusion_lon": 0.0, "lat": 38.90170366666667, "is_disabled": 0, "name": "3c27c51885bdd23227abba11b946324f", "fusion_lat": 0.0, "rental_uris": {"ios": "https://dc.lft.to/lastmile_qr_scan", "android": "https://dc.lft.to/lastmile_qr_scan"}, "lon": -77.00004683333333, "type": "electric_scooter"}, {"bike_id": "f0a915412c30d2c8b0021279f0fcaeca", "is_reserved": 0, "fusion_lon": 0.0, "lat": 38.902416333333335, "is_disabled": 0, "name": "f0a915412c30d2c8b0021279f0fcaeca", "fusion_lat": 0.0, "rental_uris": {"ios": "https://dc.lft.to/lastmile_qr_scan", "android": "https://dc.lft.to/lastmile_qr_scan"}, "lon": -77.00198066666667, "type": "electric_scooter"}, {"bike_id": "3f1d5b991373c794fed42356833c035c", "is_reserved": 0, "fusion_lon": 0.0, "lat": 38.9205835, "is_disabled": 0, "name": "3f1d5b991373c794fed42356833c035c", "fusion_lat": 0.0, "rental_uris": {"ios": "https://dc.lft.to/lastmile_qr_scan", "android": "https://dc.lft.to/lastmile_qr_scan"}, "lon": -77.02433066666667, "type": "electric_scooter"}, {"bike_id": "535a87ee91b4599e740f5b79c6632f28", "is_reserved": 0, "fusion_lon": 0.0, "lat": 38.9334085, "is_disabled": 0, "name": "535a87ee91b4599e740f5b79c6632f28", "fusion_lat": 0.0, "rental_uris": {"ios": "https://dc.lft.to/lastmile_qr_scan", "android": "https://dc.lft.to/lastmile_qr_scan"}, "lon": -77.03263583333333, "type": "electric_scooter"}, {"bike_id": "1d0e9b88057f4281561619d5e24f3e30", "is_reserved": 0, "fusion_lon": 0.0, "lat": 38.9042715, "is_disabled": 0, "name": "1d0e9b88057f4281561619d5e24f3e30", "fusion_lat": 0.0, "rental_uris": {"ios": "https://dc.lft.to/lastmile_qr_scan", "android": "https://dc.lft.to/lastmile_qr_scan"}, "lon": -77.04346866666667, "type": "electric_scooter"}, {"bike_id": "3271fb4948715bd40099c2e8147cf165", "is_reserved": 0, "fusion_lon": 0.0, "lat": 38.8840665, "is_disabled": 0, "name": "3271fb4948715bd40099c2e8147cf165", "fusion_lat": 0.0, "rental_uris": {"ios": "https://dc.lft.to/lastmile_qr_scan", "android": "https://dc.lft.to/lastmile_qr_scan"}, "lon": -77.03026816666667, "type": "electric_scooter"}, {"bike_id": "6d4a011448d461dd99dcb7951f962cd5", "is_reserved": 0, "fusion_lon": 0.0, "lat": 38.8922185, "is_disabled": 0, "name": "6d4a011448d461dd99dcb7951f962cd5", "fusion_lat": 0.0, "rental_uris": {"ios": "https://dc.lft.to/lastmile_qr_scan", "android": "https://dc.lft.to/lastmile_qr_scan"}, "lon": -77.04648683333333, "type": "electric_scooter"}, {"bike_id": "e7efc7cb1a663c9a43043e97cb8db64a", "is_reserved": 0, "fusion_lon": 0.0, "lat": 38.864146166666664, "is_disabled": 0, "name": "e7efc7cb1a663c9a43043e97cb8db64a", "fusion_lat": 0.0, "rental_uris": {"ios": "https://dc.lft.to/lastmile_qr_scan", "android": "https://dc.lft.to/lastmile_qr_scan"}, "lon": -77.01352566666667, "type": "electric_scooter"}, {"bike_id": "0622f98312fa4efdc8f66176650a9891", "is_reserved": 0, "fusion_lon": 0.0, "lat": 38.90451766666666, "is_disabled": 0, "name": "0622f98312fa4efdc8f66176650a9891", "fusion_lat": 0.0, "rental_uris": {"ios": "https://dc.lft.to/lastmile_qr_scan", "android": "https://dc.lft.to/lastmile_qr_scan"}, "lon": -77.0592415, "type": "electric_scooter"}, {"bike_id": "f9950c639332cbf1b32816e41639fd7b", "is_reserved": 0, "fusion_lon": 0.0, "lat": 38.898324333333335, "is_disabled": 0, "name": "f9950c639332cbf1b32816e41639fd7b", "fusion_lat": 0.0, "rental_uris": {"ios": "https://dc.lft.to/lastmile_qr_scan", "android": "https://dc.lft.to/lastmile_qr_scan"}, "lon": -77.00740016666667, "type": "electric_scooter"}, {"bike_id": "3bb807386efe973a0efee45c7d5feb5f", "is_reserved": 0, "fusion_lon": 0.0, "lat": 38.937114666666666, "is_disabled": 0, "name": "3bb807386efe973a0efee45c7d5feb5f", "fusion_lat": 0.0, "rental_uris": {"ios": "https://dc.lft.to/lastmile_qr_scan", "android": "https://dc.lft.to/lastmile_qr_scan"}, "lon": -77.029325, "type": "electric_scooter"}, {"bike_id": "1269ff9fd39ae60f5908f154854b5199", "is_reserved": 0, "fusion_lon": 0.0, "lat": 38.91924383333333, "is_disabled": 0, "name": "1269ff9fd39ae60f5908f154854b5199", "fusion_lat": 0.0, "rental_uris": {"ios": "https://dc.lft.to/lastmile_qr_scan", "android": "https://dc.lft.to/lastmile_qr_scan"}, "lon": -77.03175066666667, "type": "electric_scooter"}, {"bike_id": "51cbea08783c079fef43d59a0d15b6ba", "is_reserved": 0, "fusion_lon": 0.0, "lat": 38.904684333333336, "is_disabled": 0, "name": "51cbea08783c079fef43d59a0d15b6ba", "fusion_lat": 0.0, "rental_uris": {"ios": "https://dc.lft.to/lastmile_qr_scan", "android": "https://dc.lft.to/lastmile_qr_scan"}, "lon": -77.04066816666666, "type": "electric_scooter"}, {"bike_id": "782a15f6cba16e02579a2bcbb029859e", "is_reserved": 0, "fusion_lon": 0.0, "lat": 38.902465166666666, "is_disabled": 0, "name": "782a15f6cba16e02579a2bcbb029859e", "fusion_lat": 0.0, "rental_uris": {"ios": "https://dc.lft.to/lastmile_qr_scan", "android": "https://dc.lft.to/lastmile_qr_scan"}, "lon": -77.00714366666666, "type": "electric_scooter"}, {"bike_id": "b62194ed5fcd1d1d31ed14af48c4ba32", "is_reserved": 0, "fusion_lon": 0.0, "lat": 38.92814216666667, "is_disabled": 0, "name": "b62194ed5fcd1d1d31ed14af48c4ba32", "fusion_lat": 0.0, "rental_uris": {"ios": "https://dc.lft.to/lastmile_qr_scan", "android": "https://dc.lft.to/lastmile_qr_scan"}, "lon": -77.01353366666666, "type": "electric_scooter"}, {"bike_id": "13ed5e3c29f737fce6b3160725bc05a5", "is_reserved": 0, "fusion_lon": 0.0, "lat": 38.93968783333333, "is_disabled": 0, "name": "13ed5e3c29f737fce6b3160725bc05a5", "fusion_lat": 0.0, "rental_uris": {"ios": "https://dc.lft.to/lastmile_qr_scan", "android": "https://dc.lft.to/lastmile_qr_scan"}, "lon": -77.03261233333333, "type": "electric_scooter"}, {"bike_id": "06fc45405bb4aa8e0b739ce7a952ebcb", "is_reserved": 0, "fusion_lon": 0.0, "lat": 38.92478083333334, "is_disabled": 0, "name": "06fc45405bb4aa8e0b739ce7a952ebcb", "fusion_lat": 0.0, "rental_uris": {"ios": "https://dc.lft.to/lastmile_qr_scan", "android": "https://dc.lft.to/lastmile_qr_scan"}, "lon": -77.0265105, "type": "electric_scooter"}, {"bike_id": "963f349737283f8d51f155ddd2353d35", "is_reserved": 0, "fusion_lon": 0.0, "lat": 38.83723283333333, "is_disabled": 0, "name": "963f349737283f8d51f155ddd2353d35", "fusion_lat": 0.0, "rental_uris": {"ios": "https://dc.lft.to/lastmile_qr_scan", "android": "https://dc.lft.to/lastmile_qr_scan"}, "lon": -76.99757516666666, "type": "electric_bike"}, {"bike_id": "f6cf15a1db4edb3f64b27072734b7eb8", "is_reserved": 0, "fusion_lon": 0.0, "lat": 38.855306166666665, "is_disabled": 0, "name": "f6cf15a1db4edb3f64b27072734b7eb8", "fusion_lat": 0.0, "rental_uris": {"ios": "https://dc.lft.to/lastmile_qr_scan", "android": "https://dc.lft.to/lastmile_qr_scan"}, "lon": -76.984296, "type": "electric_bike"}, {"bike_id": "f2c3e1647bf44a4f7692bab40292e7a6", "is_reserved": 0, "fusion_lon": 0.0, "lat": 38.88511533333333, "is_disabled": 0, "name": "f2c3e1647bf44a4f7692bab40292e7a6", "fusion_lat": 0.0, "rental_uris": {"ios": "https://dc.lft.to/lastmile_qr_scan", "android": "https://dc.lft.to/lastmile_qr_scan"}, "lon": -77.00571716666667, "type": "electric_scooter"}, {"bike_id": "63e5c10b22c9f0d90cf47cebc5d77016", "is_reserved": 0, "fusion_lon": 0.0, "lat": 38.889960333333335, "is_disabled": 0, "name": "63e5c10b22c9f0d90cf47cebc5d77016", "fusion_lat": 0.0, "rental_uris": {"ios": "https://dc.lft.to/lastmile_qr_scan", "android": "https://dc.lft.to/lastmile_qr_scan"}, "lon": -76.93843966666667, "type": "electric_scooter"}, {"bike_id": "c292238fd626ac62598acfb46f761393", "is_reserved": 0, "fusion_lon": 0.0, "lat": 38.93432933333333, "is_disabled": 0, "name": "c292238fd626ac62598acfb46f761393", "fusion_lat": 0.0, "rental_uris": {"ios": "https://dc.lft.to/lastmile_qr_scan", "android": "https://dc.lft.to/lastmile_qr_scan"}, "lon": -77.040018, "type": "electric_scooter"}, {"bike_id": "15c6930f18fd983466493966efabcf97", "is_reserved": 0, "fusion_lon": 0.0, "lat": 38.950767166666665, "is_disabled": 0, "name": "15c6930f18fd983466493966efabcf97", "fusion_lat": 0.0, "rental_uris": {"ios": "https://dc.lft.to/lastmile_qr_scan", "android": "https://dc.lft.to/lastmile_qr_scan"}, "lon": -77.0123125, "type": "electric_bike"}, {"bike_id": "392980925658a97002e6a233c86f2ee0", "is_reserved": 0, "fusion_lon": 0.0, "lat": 38.9138125, "is_disabled": 0, "name": "392980925658a97002e6a233c86f2ee0", "fusion_lat": 0.0, "rental_uris": {"ios": "https://dc.lft.to/lastmile_qr_scan", "android": "https://dc.lft.to/lastmile_qr_scan"}, "lon": -77.017012, "type": "electric_scooter"}, {"bike_id": "84d85f479626ee7b5393ffbf4526be33", "is_reserved": 0, "fusion_lon": 0.0, "lat": 38.88492883333333, "is_disabled": 0, "name": "84d85f479626ee7b5393ffbf4526be33", "fusion_lat": 0.0, "rental_uris": {"ios": "https://dc.lft.to/lastmile_qr_scan", "android": "https://dc.lft.to/lastmile_qr_scan"}, "lon": -77.0034655, "type": "electric_scooter"}, {"bike_id": "ae35a4e3e2d94472b42b0fa5fe1dbc62", "is_reserved": 0, "fusion_lon": 0.0, "lat": 38.872142833333335, "is_disabled": 0, "name": "ae35a4e3e2d94472b42b0fa5fe1dbc62", "fusion_lat": 0.0, "rental_uris": {"ios": "https://dc.lft.to/lastmile_qr_scan", "android": "https://dc.lft.to/lastmile_qr_scan"}, "lon": -77.00572966666667, "type": "electric_scooter"}, {"bike_id": "9a26c2743dd0c3cfd75773824354e4d2", "is_reserved": 0, "fusion_lon": 0.0, "lat": 38.8442375, "is_disabled": 0, "name": "9a26c2743dd0c3cfd75773824354e4d2", "fusion_lat": 0.0, "rental_uris": {"ios": "https://dc.lft.to/lastmile_qr_scan", "android": "https://dc.lft.to/lastmile_qr_scan"}, "lon": -76.99773516666667, "type": "electric_scooter"}, {"bike_id": "e9ceb0b4b618953c3d0a463ee066b7e9", "is_reserved": 0, "fusion_lon": 0.0, "lat": 38.909749, "is_disabled": 0, "name": "e9ceb0b4b618953c3d0a463ee066b7e9", "fusion_lat": 0.0, "rental_uris": {"ios": "https://dc.lft.to/lastmile_qr_scan", "android": "https://dc.lft.to/lastmile_qr_scan"}, "lon": -77.0326115, "type": "electric_scooter"}, {"bike_id": "ea471c00c0824c6250783cf338579c53", "is_reserved": 0, "fusion_lon": 0.0, "lat": 38.89489566666666, "is_disabled": 0, "name": "ea471c00c0824c6250783cf338579c53", "fusion_lat": 0.0, "rental_uris": {"ios": "https://dc.lft.to/lastmile_qr_scan", "android": "https://dc.lft.to/lastmile_qr_scan"}, "lon": -77.002266, "type": "electric_scooter"}, {"bike_id": "64fca5e1070e30557713f0611967c2e7", "is_reserved": 0, "fusion_lon": 0.0, "lat": 38.920381, "is_disabled": 0, "name": "64fca5e1070e30557713f0611967c2e7", "fusion_lat": 0.0, "rental_uris": {"ios": "https://dc.lft.to/lastmile_qr_scan", "android": "https://dc.lft.to/lastmile_qr_scan"}, "lon": -77.0370585, "type": "electric_bike"}, {"bike_id": "31dc33408d3e2798d4049850a4cd761d", "is_reserved": 0, "fusion_lon": 0.0, "lat": 38.88506433333333, "is_disabled": 0, "name": "31dc33408d3e2798d4049850a4cd761d", "fusion_lat": 0.0, "rental_uris": {"ios": "https://dc.lft.to/lastmile_qr_scan", "android": "https://dc.lft.to/lastmile_qr_scan"}, "lon": -77.00567083333334, "type": "electric_scooter"}, {"bike_id": "418faa9bb6291a19bc15fdc00a1c9e03", "is_reserved": 0, "fusion_lon": 0.0, "lat": 38.866598333333336, "is_disabled": 0, "name": "418faa9bb6291a19bc15fdc00a1c9e03", "fusion_lat": 0.0, "rental_uris": {"ios": "https://dc.lft.to/lastmile_qr_scan", "android": "https://dc.lft.to/lastmile_qr_scan"}, "lon": -76.98883383333333, "type": "electric_scooter"}, {"bike_id": "bbc09d237ce5241f1675ef8ac459ddf2", "is_reserved": 0, "fusion_lon": 0.0, "lat": 38.9033525, "is_disabled": 0, "name": "bbc09d237ce5241f1675ef8ac459ddf2", "fusion_lat": 0.0, "rental_uris": {"ios": "https://dc.lft.to/lastmile_qr_scan", "android": "https://dc.lft.to/lastmile_qr_scan"}, "lon": -77.04346766666667, "type": "electric_scooter"}, {"bike_id": "2162c86cf9b3890f1621b2b992fdd63a", "is_reserved": 0, "fusion_lon": 0.0, "lat": 38.86921683333333, "is_disabled": 0, "name": "2162c86cf9b3890f1621b2b992fdd63a", "fusion_lat": 0.0, "rental_uris": {"ios": "https://dc.lft.to/lastmile_qr_scan", "android": "https://dc.lft.to/lastmile_qr_scan"}, "lon": -76.983052, "type": "electric_scooter"}, {"bike_id": "c2c3d1695f5529d221b9c34abaf9884b", "is_reserved": 0, "fusion_lon": 0.0, "lat": 38.921118166666666, "is_disabled": 0, "name": "c2c3d1695f5529d221b9c34abaf9884b", "fusion_lat": 0.0, "rental_uris": {"ios": "https://dc.lft.to/lastmile_qr_scan", "android": "https://dc.lft.to/lastmile_qr_scan"}, "lon": -77.04587266666667, "type": "electric_scooter"}, {"bike_id": "526fd0baec4325308ad76825a2135e7c", "is_reserved": 0, "fusion_lon": 0.0, "lat": 38.90581666666667, "is_disabled": 0, "name": "526fd0baec4325308ad76825a2135e7c", "fusion_lat": 0.0, "rental_uris": {"ios": "https://dc.lft.to/lastmile_qr_scan", "android": "https://dc.lft.to/lastmile_qr_scan"}, "lon": -77.04344183333333, "type": "electric_scooter"}, {"bike_id": "ce80cceb82d4ee2d30d4d4bd18e347ba", "is_reserved": 0, "fusion_lon": 0.0, "lat": 38.90360616666667, "is_disabled": 0, "name": "ce80cceb82d4ee2d30d4d4bd18e347ba", "fusion_lat": 0.0, "rental_uris": {"ios": "https://dc.lft.to/lastmile_qr_scan", "android": "https://dc.lft.to/lastmile_qr_scan"}, "lon": -77.030066, "type": "electric_scooter"}, {"bike_id": "880bd499360c0490cce3d0380a86d3ef", "is_reserved": 0, "fusion_lon": 0.0, "lat": 38.924701666666664, "is_disabled": 0, "name": "880bd499360c0490cce3d0380a86d3ef", "fusion_lat": 0.0, "rental_uris": {"ios": "https://dc.lft.to/lastmile_qr_scan", "android": "https://dc.lft.to/lastmile_qr_scan"}, "lon": -77.052064, "type": "electric_scooter"}, {"bike_id": "cb5169e8116c3e5517d4cbbab3560191", "is_reserved": 0, "fusion_lon": 0.0, "lat": 38.88036783333333, "is_disabled": 0, "name": "cb5169e8116c3e5517d4cbbab3560191", "fusion_lat": 0.0, "rental_uris": {"ios": "https://dc.lft.to/lastmile_qr_scan", "android": "https://dc.lft.to/lastmile_qr_scan"}, "lon": -77.0251165, "type": "electric_scooter"}, {"bike_id": "caa16fe273b567501fb40a5d871cb8cb", "is_reserved": 0, "fusion_lon": 0.0, "lat": 38.874032166666666, "is_disabled": 0, "name": "caa16fe273b567501fb40a5d871cb8cb", "fusion_lat": 0.0, "rental_uris": {"ios": "https://dc.lft.to/lastmile_qr_scan", "android": "https://dc.lft.to/lastmile_qr_scan"}, "lon": -77.000689, "type": "electric_scooter"}, {"bike_id": "4674393790cfa974ce76526fe2202b85", "is_reserved": 0, "fusion_lon": 0.0, "lat": 38.934468333333335, "is_disabled": 0, "name": "4674393790cfa974ce76526fe2202b85", "fusion_lat": 0.0, "rental_uris": {"ios": "https://dc.lft.to/lastmile_qr_scan", "android": "https://dc.lft.to/lastmile_qr_scan"}, "lon": -77.02844516666667, "type": "electric_scooter"}, {"bike_id": "dec175244303cd48920a5e96be0b0cae", "is_reserved": 0, "fusion_lon": 0.0, "lat": 38.897743166666665, "is_disabled": 0, "name": "dec175244303cd48920a5e96be0b0cae", "fusion_lat": 0.0, "rental_uris": {"ios": "https://dc.lft.to/lastmile_qr_scan", "android": "https://dc.lft.to/lastmile_qr_scan"}, "lon": -77.02701816666666, "type": "electric_scooter"}, {"bike_id": "d47b24604647072b0b876bf81378614f", "is_reserved": 0, "fusion_lon": 0.0, "lat": 38.89774, "is_disabled": 0, "name": "d47b24604647072b0b876bf81378614f", "fusion_lat": 0.0, "rental_uris": {"ios": "https://dc.lft.to/lastmile_qr_scan", "android": "https://dc.lft.to/lastmile_qr_scan"}, "lon": -76.904378, "type": "electric_bike"}, {"bike_id": "6f994e751ea71baf863d2fa30311d1b3", "is_reserved": 0, "fusion_lon": 0.0, "lat": 38.9094895, "is_disabled": 0, "name": "6f994e751ea71baf863d2fa30311d1b3", "fusion_lat": 0.0, "rental_uris": {"ios": "https://dc.lft.to/lastmile_qr_scan", "android": "https://dc.lft.to/lastmile_qr_scan"}, "lon": -77.04463416666667, "type": "electric_scooter"}, {"bike_id": "92d2f6bcfc6e10cd4df02148ddd4563f", "is_reserved": 0, "fusion_lon": 0.0, "lat": 38.918446833333334, "is_disabled": 0, "name": "92d2f6bcfc6e10cd4df02148ddd4563f", "fusion_lat": 0.0, "rental_uris": {"ios": "https://dc.lft.to/lastmile_qr_scan", "android": "https://dc.lft.to/lastmile_qr_scan"}, "lon": -77.03898783333334, "type": "electric_scooter"}, {"bike_id": "171c9742dcb0a5ccf631f3859ebd29df", "is_reserved": 0, "fusion_lon": 0.0, "lat": 38.927715, "is_disabled": 0, "name": "171c9742dcb0a5ccf631f3859ebd29df", "fusion_lat": 0.0, "rental_uris": {"ios": "https://dc.lft.to/lastmile_qr_scan", "android": "https://dc.lft.to/lastmile_qr_scan"}, "lon": -77.02706466666666, "type": "electric_scooter"}, {"bike_id": "e18ef4aa506fb60e9f92ac4a3e295eb5", "is_reserved": 0, "fusion_lon": 0.0, "lat": 38.92102333333333, "is_disabled": 0, "name": "e18ef4aa506fb60e9f92ac4a3e295eb5", "fusion_lat": 0.0, "rental_uris": {"ios": "https://dc.lft.to/lastmile_qr_scan", "android": "https://dc.lft.to/lastmile_qr_scan"}, "lon": -77.02967266666667, "type": "electric_scooter"}, {"bike_id": "5548bb11a2ffc5e2f1e16cdb905e776d", "is_reserved": 0, "fusion_lon": 0.0, "lat": 38.95635583333333, "is_disabled": 0, "name": "5548bb11a2ffc5e2f1e16cdb905e776d", "fusion_lat": 0.0, "rental_uris": {"ios": "https://dc.lft.to/lastmile_qr_scan", "android": "https://dc.lft.to/lastmile_qr_scan"}, "lon": -76.93887216666667, "type": "electric_bike"}, {"bike_id": "d8789c9a5038d8c96138c5020fabf79f", "is_reserved": 0, "fusion_lon": 0.0, "lat": 38.86726083333333, "is_disabled": 0, "name": "d8789c9a5038d8c96138c5020fabf79f", "fusion_lat": 0.0, "rental_uris": {"ios": "https://dc.lft.to/lastmile_qr_scan", "android": "https://dc.lft.to/lastmile_qr_scan"}, "lon": -76.98783533333334, "type": "electric_scooter"}, {"bike_id": "2ca6053d74df2f6c7b569fa505a4e51b", "is_reserved": 0, "fusion_lon": 0.0, "lat": 38.883327666666666, "is_disabled": 0, "name": "2ca6053d74df2f6c7b569fa505a4e51b", "fusion_lat": 0.0, "rental_uris": {"ios": "https://dc.lft.to/lastmile_qr_scan", "android": "https://dc.lft.to/lastmile_qr_scan"}, "lon": -77.01777283333334, "type": "electric_scooter"}, {"bike_id": "fd3de28b70e0a07ceddcd7445a73011d", "is_reserved": 0, "fusion_lon": 0.0, "lat": 38.86631783333333, "is_disabled": 0, "name": "fd3de28b70e0a07ceddcd7445a73011d", "fusion_lat": 0.0, "rental_uris": {"ios": "https://dc.lft.to/lastmile_qr_scan", "android": "https://dc.lft.to/lastmile_qr_scan"}, "lon": -76.98716066666667, "type": "electric_scooter"}, {"bike_id": "e8de93105e34f1289a9cd50ff6e7bb16", "is_reserved": 0, "fusion_lon": 0.0, "lat": 38.8850275, "is_disabled": 0, "name": "e8de93105e34f1289a9cd50ff6e7bb16", "fusion_lat": 0.0, "rental_uris": {"ios": "https://dc.lft.to/lastmile_qr_scan", "android": "https://dc.lft.to/lastmile_qr_scan"}, "lon": -77.00568516666667, "type": "electric_scooter"}, {"bike_id": "bc4a66679994ebd5b22b830d2e286a0b", "is_reserved": 0, "fusion_lon": 0.0, "lat": 38.890091166666664, "is_disabled": 0, "name": "bc4a66679994ebd5b22b830d2e286a0b", "fusion_lat": 0.0, "rental_uris": {"ios": "https://dc.lft.to/lastmile_qr_scan", "android": "https://dc.lft.to/lastmile_qr_scan"}, "lon": -76.937456, "type": "electric_scooter"}, {"bike_id": "2e75068e2e9f7f53ae2d4948b6639aae", "is_reserved": 0, "fusion_lon": 0.0, "lat": 38.896308, "is_disabled": 0, "name": "2e75068e2e9f7f53ae2d4948b6639aae", "fusion_lat": 0.0, "rental_uris": {"ios": "https://dc.lft.to/lastmile_qr_scan", "android": "https://dc.lft.to/lastmile_qr_scan"}, "lon": -77.00896, "type": "electric_scooter"}, {"bike_id": "a7c4f5c996b5a6b27f897812e1232440", "is_reserved": 0, "fusion_lon": 0.0, "lat": 38.92341416666667, "is_disabled": 0, "name": "a7c4f5c996b5a6b27f897812e1232440", "fusion_lat": 0.0, "rental_uris": {"ios": "https://dc.lft.to/lastmile_qr_scan", "android": "https://dc.lft.to/lastmile_qr_scan"}, "lon": -77.03495083333334, "type": "electric_scooter"}, {"bike_id": "28325a62299557745e4efac3dfbd79c8", "is_reserved": 0, "fusion_lon": 0.0, "lat": 38.919329833333336, "is_disabled": 0, "name": "28325a62299557745e4efac3dfbd79c8", "fusion_lat": 0.0, "rental_uris": {"ios": "https://dc.lft.to/lastmile_qr_scan", "android": "https://dc.lft.to/lastmile_qr_scan"}, "lon": -77.04497983333333, "type": "electric_scooter"}, {"bike_id": "220c2c61fd3b187a0d7cd43432a75b06", "is_reserved": 0, "fusion_lon": 0.0, "lat": 38.89993783333333, "is_disabled": 0, "name": "220c2c61fd3b187a0d7cd43432a75b06", "fusion_lat": 0.0, "rental_uris": {"ios": "https://dc.lft.to/lastmile_qr_scan", "android": "https://dc.lft.to/lastmile_qr_scan"}, "lon": -77.02709183333333, "type": "electric_scooter"}, {"bike_id": "97e7afe5ddd1786338693ae463cdf7af", "is_reserved": 0, "fusion_lon": 0.0, "lat": 38.899973333333335, "is_disabled": 0, "name": "97e7afe5ddd1786338693ae463cdf7af", "fusion_lat": 0.0, "rental_uris": {"ios": "https://dc.lft.to/lastmile_qr_scan", "android": "https://dc.lft.to/lastmile_qr_scan"}, "lon": -77.04043683333333, "type": "electric_scooter"}, {"bike_id": "9c5a27278a29a26e9a3513cb0e7c372c", "is_reserved": 0, "fusion_lon": 0.0, "lat": 38.90267266666667, "is_disabled": 0, "name": "9c5a27278a29a26e9a3513cb0e7c372c", "fusion_lat": 0.0, "rental_uris": {"ios": "https://dc.lft.to/lastmile_qr_scan", "android": "https://dc.lft.to/lastmile_qr_scan"}, "lon": -77.04022883333333, "type": "electric_scooter"}, {"bike_id": "ef2f4551121494169ec7ff6cd2379014", "is_reserved": 0, "fusion_lon": 0.0, "lat": 38.8442475, "is_disabled": 0, "name": "ef2f4551121494169ec7ff6cd2379014", "fusion_lat": 0.0, "rental_uris": {"ios": "https://dc.lft.to/lastmile_qr_scan", "android": "https://dc.lft.to/lastmile_qr_scan"}, "lon": -76.99779933333333, "type": "electric_scooter"}, {"bike_id": "1fe0be233fb79726290bde821bb1230f", "is_reserved": 0, "fusion_lon": 0.0, "lat": 38.921114, "is_disabled": 0, "name": "1fe0be233fb79726290bde821bb1230f", "fusion_lat": 0.0, "rental_uris": {"ios": "https://dc.lft.to/lastmile_qr_scan", "android": "https://dc.lft.to/lastmile_qr_scan"}, "lon": -77.01767016666666, "type": "electric_scooter"}, {"bike_id": "ecb3e9b67740bc49de8acec0118723e4", "is_reserved": 0, "fusion_lon": 0.0, "lat": 38.902382333333335, "is_disabled": 0, "name": "ecb3e9b67740bc49de8acec0118723e4", "fusion_lat": 0.0, "rental_uris": {"ios": "https://dc.lft.to/lastmile_qr_scan", "android": "https://dc.lft.to/lastmile_qr_scan"}, "lon": -77.0269235, "type": "electric_scooter"}, {"bike_id": "4f4f8aa1c86aab2e6a6a22d32389b3f3", "is_reserved": 0, "fusion_lon": 0.0, "lat": 38.90537883333333, "is_disabled": 0, "name": "4f4f8aa1c86aab2e6a6a22d32389b3f3", "fusion_lat": 0.0, "rental_uris": {"ios": "https://dc.lft.to/lastmile_qr_scan", "android": "https://dc.lft.to/lastmile_qr_scan"}, "lon": -77.0570455, "type": "electric_bike"}, {"bike_id": "50c3463a3a0b020cd56efdd29debe7c7", "is_reserved": 0, "fusion_lon": 0.0, "lat": 38.929397, "is_disabled": 0, "name": "50c3463a3a0b020cd56efdd29debe7c7", "fusion_lat": 0.0, "rental_uris": {"ios": "https://dc.lft.to/lastmile_qr_scan", "android": "https://dc.lft.to/lastmile_qr_scan"}, "lon": -77.03279216666667, "type": "electric_scooter"}, {"bike_id": "319011bb0bdece8eb28936b859eff2eb", "is_reserved": 0, "fusion_lon": 0.0, "lat": 38.900610666666665, "is_disabled": 0, "name": "319011bb0bdece8eb28936b859eff2eb", "fusion_lat": 0.0, "rental_uris": {"ios": "https://dc.lft.to/lastmile_qr_scan", "android": "https://dc.lft.to/lastmile_qr_scan"}, "lon": -77.05067883333334, "type": "electric_scooter"}, {"bike_id": "de6efc2bb67d3d4aafa82b594411a95f", "is_reserved": 0, "fusion_lon": 0.0, "lat": 38.901424666666664, "is_disabled": 0, "name": "de6efc2bb67d3d4aafa82b594411a95f", "fusion_lat": 0.0, "rental_uris": {"ios": "https://dc.lft.to/lastmile_qr_scan", "android": "https://dc.lft.to/lastmile_qr_scan"}, "lon": -77.041842, "type": "electric_scooter"}, {"bike_id": "175e0f69b1c72751490b5ad048251f0a", "is_reserved": 0, "fusion_lon": 0.0, "lat": 38.92159983333333, "is_disabled": 0, "name": "175e0f69b1c72751490b5ad048251f0a", "fusion_lat": 0.0, "rental_uris": {"ios": "https://dc.lft.to/lastmile_qr_scan", "android": "https://dc.lft.to/lastmile_qr_scan"}, "lon": -77.04693966666666, "type": "electric_scooter"}, {"bike_id": "82fc299283a8896393f7a4b4472fc950", "is_reserved": 0, "fusion_lon": 0.0, "lat": 38.90861733333333, "is_disabled": 0, "name": "82fc299283a8896393f7a4b4472fc950", "fusion_lat": 0.0, "rental_uris": {"ios": "https://dc.lft.to/lastmile_qr_scan", "android": "https://dc.lft.to/lastmile_qr_scan"}, "lon": -77.0327985, "type": "electric_scooter"}, {"bike_id": "6cfd6b523ff2facba419aa1eb49eefa3", "is_reserved": 0, "fusion_lon": 0.0, "lat": 38.90448883333333, "is_disabled": 0, "name": "6cfd6b523ff2facba419aa1eb49eefa3", "fusion_lat": 0.0, "rental_uris": {"ios": "https://dc.lft.to/lastmile_qr_scan", "android": "https://dc.lft.to/lastmile_qr_scan"}, "lon": -77.061345, "type": "electric_scooter"}, {"bike_id": "580958ccc4130587cd16a27de9b56203", "is_reserved": 0, "fusion_lon": 0.0, "lat": 38.92685983333333, "is_disabled": 0, "name": "580958ccc4130587cd16a27de9b56203", "fusion_lat": 0.0, "rental_uris": {"ios": "https://dc.lft.to/lastmile_qr_scan", "android": "https://dc.lft.to/lastmile_qr_scan"}, "lon": -77.01568633333333, "type": "electric_scooter"}, {"bike_id": "58a2bf5c8f5c76c468cfa92e84eda2da", "is_reserved": 0, "fusion_lon": 0.0, "lat": 38.845723166666666, "is_disabled": 0, "name": "58a2bf5c8f5c76c468cfa92e84eda2da", "fusion_lat": 0.0, "rental_uris": {"ios": "https://dc.lft.to/lastmile_qr_scan", "android": "https://dc.lft.to/lastmile_qr_scan"}, "lon": -77.09623916666666, "type": "electric_bike"}, {"bike_id": "11410272f5fa279fafff6f9252143e34", "is_reserved": 0, "fusion_lon": 0.0, "lat": 38.905194333333334, "is_disabled": 0, "name": "11410272f5fa279fafff6f9252143e34", "fusion_lat": 0.0, "rental_uris": {"ios": "https://dc.lft.to/lastmile_qr_scan", "android": "https://dc.lft.to/lastmile_qr_scan"}, "lon": -77.06531766666667, "type": "electric_scooter"}, {"bike_id": "9cf71a0fb90e31f3d0c50cde8278c617", "is_reserved": 0, "fusion_lon": 0.0, "lat": 38.909593666666666, "is_disabled": 0, "name": "9cf71a0fb90e31f3d0c50cde8278c617", "fusion_lat": 0.0, "rental_uris": {"ios": "https://dc.lft.to/lastmile_qr_scan", "android": "https://dc.lft.to/lastmile_qr_scan"}, "lon": -77.03467016666667, "type": "electric_scooter"}, {"bike_id": "1979ca08369e314ce955560fb91ff1f9", "is_reserved": 0, "fusion_lon": 0.0, "lat": 38.903787333333334, "is_disabled": 0, "name": "1979ca08369e314ce955560fb91ff1f9", "fusion_lat": 0.0, "rental_uris": {"ios": "https://dc.lft.to/lastmile_qr_scan", "android": "https://dc.lft.to/lastmile_qr_scan"}, "lon": -77.029813, "type": "electric_scooter"}, {"bike_id": "e7f62e07e9caf26453186120ed7d5a32", "is_reserved": 0, "fusion_lon": 0.0, "lat": 38.938548833333336, "is_disabled": 0, "name": "e7f62e07e9caf26453186120ed7d5a32", "fusion_lat": 0.0, "rental_uris": {"ios": "https://dc.lft.to/lastmile_qr_scan", "android": "https://dc.lft.to/lastmile_qr_scan"}, "lon": -77.02458766666666, "type": "electric_scooter"}, {"bike_id": "ad0bea9e53a200f3dbfabd1b4fbde173", "is_reserved": 0, "fusion_lon": 0.0, "lat": 38.907983, "is_disabled": 0, "name": "ad0bea9e53a200f3dbfabd1b4fbde173", "fusion_lat": 0.0, "rental_uris": {"ios": "https://dc.lft.to/lastmile_qr_scan", "android": "https://dc.lft.to/lastmile_qr_scan"}, "lon": -77.00018, "type": "electric_scooter"}, {"bike_id": "42fc4fed8416bce91f05bba56df065ce", "is_reserved": 0, "fusion_lon": 0.0, "lat": 38.90658233333333, "is_disabled": 0, "name": "42fc4fed8416bce91f05bba56df065ce", "fusion_lat": 0.0, "rental_uris": {"ios": "https://dc.lft.to/lastmile_qr_scan", "android": "https://dc.lft.to/lastmile_qr_scan"}, "lon": -77.03902016666666, "type": "electric_scooter"}, {"bike_id": "31f99d588ca6f086b9a2d216fcf71fbf", "is_reserved": 0, "fusion_lon": 0.0, "lat": 38.906733833333334, "is_disabled": 0, "name": "31f99d588ca6f086b9a2d216fcf71fbf", "fusion_lat": 0.0, "rental_uris": {"ios": "https://dc.lft.to/lastmile_qr_scan", "android": "https://dc.lft.to/lastmile_qr_scan"}, "lon": -77.05017133333334, "type": "electric_scooter"}, {"bike_id": "4f55caf0c222c4b137280bcc9e375ef3", "is_reserved": 0, "fusion_lon": 0.0, "lat": 38.92656566666667, "is_disabled": 0, "name": "4f55caf0c222c4b137280bcc9e375ef3", "fusion_lat": 0.0, "rental_uris": {"ios": "https://dc.lft.to/lastmile_qr_scan", "android": "https://dc.lft.to/lastmile_qr_scan"}, "lon": -77.037231, "type": "electric_scooter"}, {"bike_id": "756bfedb4863caf3228922ed1d794c72", "is_reserved": 0, "fusion_lon": 0.0, "lat": 38.904773666666664, "is_disabled": 0, "name": "756bfedb4863caf3228922ed1d794c72", "fusion_lat": 0.0, "rental_uris": {"ios": "https://dc.lft.to/lastmile_qr_scan", "android": "https://dc.lft.to/lastmile_qr_scan"}, "lon": -77.04658433333333, "type": "electric_scooter"}, {"bike_id": "ade1f9fb9f0d069d3147dfec4ba6c1b5", "is_reserved": 0, "fusion_lon": 0.0, "lat": 38.851774, "is_disabled": 0, "name": "ade1f9fb9f0d069d3147dfec4ba6c1b5", "fusion_lat": 0.0, "rental_uris": {"ios": "https://dc.lft.to/lastmile_qr_scan", "android": "https://dc.lft.to/lastmile_qr_scan"}, "lon": -76.99577333333333, "type": "electric_scooter"}, {"bike_id": "02af3be0eae114e198ce5cdfb2c030b6", "is_reserved": 0, "fusion_lon": 0.0, "lat": 38.86528533333333, "is_disabled": 0, "name": "02af3be0eae114e198ce5cdfb2c030b6", "fusion_lat": 0.0, "rental_uris": {"ios": "https://dc.lft.to/lastmile_qr_scan", "android": "https://dc.lft.to/lastmile_qr_scan"}, "lon": -76.9903905, "type": "electric_scooter"}, {"bike_id": "d7871fbc8bbcdde425704b5d4e69f5d5", "is_reserved": 0, "fusion_lon": 0.0, "lat": 38.897208166666665, "is_disabled": 0, "name": "d7871fbc8bbcdde425704b5d4e69f5d5", "fusion_lat": 0.0, "rental_uris": {"ios": "https://dc.lft.to/lastmile_qr_scan", "android": "https://dc.lft.to/lastmile_qr_scan"}, "lon": -77.04615016666666, "type": "electric_scooter"}, {"bike_id": "367758a850660ed11904c7d63af63b98", "is_reserved": 0, "fusion_lon": 0.0, "lat": 38.91606616666667, "is_disabled": 0, "name": "367758a850660ed11904c7d63af63b98", "fusion_lat": 0.0, "rental_uris": {"ios": "https://dc.lft.to/lastmile_qr_scan", "android": "https://dc.lft.to/lastmile_qr_scan"}, "lon": -77.04572583333334, "type": "electric_scooter"}, {"bike_id": "35cc675ff452dc571ebe477bfce5119d", "is_reserved": 0, "fusion_lon": 0.0, "lat": 38.8928335, "is_disabled": 0, "name": "35cc675ff452dc571ebe477bfce5119d", "fusion_lat": 0.0, "rental_uris": {"ios": "https://dc.lft.to/lastmile_qr_scan", "android": "https://dc.lft.to/lastmile_qr_scan"}, "lon": -77.026151, "type": "electric_scooter"}, {"bike_id": "0e3a0e1d4fab1c88385e9e6467f07ecd", "is_reserved": 0, "fusion_lon": 0.0, "lat": 38.940809, "is_disabled": 0, "name": "0e3a0e1d4fab1c88385e9e6467f07ecd", "fusion_lat": 0.0, "rental_uris": {"ios": "https://dc.lft.to/lastmile_qr_scan", "android": "https://dc.lft.to/lastmile_qr_scan"}, "lon": -77.0618995, "type": "electric_scooter"}, {"bike_id": "670b933118454cbd0792d329623169dd", "is_reserved": 0, "fusion_lon": 0.0, "lat": 38.892232166666666, "is_disabled": 0, "name": "670b933118454cbd0792d329623169dd", "fusion_lat": 0.0, "rental_uris": {"ios": "https://dc.lft.to/lastmile_qr_scan", "android": "https://dc.lft.to/lastmile_qr_scan"}, "lon": -77.04866616666666, "type": "electric_scooter"}, {"bike_id": "e7be67ddb387b3af9807e7cdd60215bc", "is_reserved": 0, "fusion_lon": 0.0, "lat": 38.879203, "is_disabled": 0, "name": "e7be67ddb387b3af9807e7cdd60215bc", "fusion_lat": 0.0, "rental_uris": {"ios": "https://dc.lft.to/lastmile_qr_scan", "android": "https://dc.lft.to/lastmile_qr_scan"}, "lon": -77.00603866666667, "type": "electric_scooter"}, {"bike_id": "13cc9a472ffaba82a58364417d0437bd", "is_reserved": 0, "fusion_lon": 0.0, "lat": 38.92362283333333, "is_disabled": 0, "name": "13cc9a472ffaba82a58364417d0437bd", "fusion_lat": 0.0, "rental_uris": {"ios": "https://dc.lft.to/lastmile_qr_scan", "android": "https://dc.lft.to/lastmile_qr_scan"}, "lon": -77.05031416666667, "type": "electric_scooter"}, {"bike_id": "105eb88c59445694703dd683d7cb608b", "is_reserved": 0, "fusion_lon": 0.0, "lat": 38.89007433333333, "is_disabled": 0, "name": "105eb88c59445694703dd683d7cb608b", "fusion_lat": 0.0, "rental_uris": {"ios": "https://dc.lft.to/lastmile_qr_scan", "android": "https://dc.lft.to/lastmile_qr_scan"}, "lon": -76.9374205, "type": "electric_scooter"}, {"bike_id": "f5debc90a871ebadff1994762f257a10", "is_reserved": 0, "fusion_lon": 0.0, "lat": 38.905922333333336, "is_disabled": 0, "name": "f5debc90a871ebadff1994762f257a10", "fusion_lat": 0.0, "rental_uris": {"ios": "https://dc.lft.to/lastmile_qr_scan", "android": "https://dc.lft.to/lastmile_qr_scan"}, "lon": -77.0027895, "type": "electric_scooter"}, {"bike_id": "5b783a40ab3de6bca3065fe9f6c21971", "is_reserved": 0, "fusion_lon": 0.0, "lat": 38.90034333333333, "is_disabled": 0, "name": "5b783a40ab3de6bca3065fe9f6c21971", "fusion_lat": 0.0, "rental_uris": {"ios": "https://dc.lft.to/lastmile_qr_scan", "android": "https://dc.lft.to/lastmile_qr_scan"}, "lon": -77.04672833333333, "type": "electric_scooter"}, {"bike_id": "ef5c7ef6d8b45cfc4b1a641dd0ce3340", "is_reserved": 0, "fusion_lon": 0.0, "lat": 38.9236195, "is_disabled": 0, "name": "ef5c7ef6d8b45cfc4b1a641dd0ce3340", "fusion_lat": 0.0, "rental_uris": {"ios": "https://dc.lft.to/lastmile_qr_scan", "android": "https://dc.lft.to/lastmile_qr_scan"}, "lon": -77.0296425, "type": "electric_scooter"}, {"bike_id": "e660f94fc57433731991b116eb2f2722", "is_reserved": 0, "fusion_lon": 0.0, "lat": 38.894654333333335, "is_disabled": 0, "name": "e660f94fc57433731991b116eb2f2722", "fusion_lat": 0.0, "rental_uris": {"ios": "https://dc.lft.to/lastmile_qr_scan", "android": "https://dc.lft.to/lastmile_qr_scan"}, "lon": -77.02172533333334, "type": "electric_scooter"}, {"bike_id": "dedcb172b1be88e5b4e7f953764281e8", "is_reserved": 0, "fusion_lon": 0.0, "lat": 38.8964285, "is_disabled": 0, "name": "dedcb172b1be88e5b4e7f953764281e8", "fusion_lat": 0.0, "rental_uris": {"ios": "https://dc.lft.to/lastmile_qr_scan", "android": "https://dc.lft.to/lastmile_qr_scan"}, "lon": -77.0322965, "type": "electric_scooter"}, {"bike_id": "c6b4c28fc633084c5f80cc15ea2b0099", "is_reserved": 0, "fusion_lon": 0.0, "lat": 38.9040165, "is_disabled": 0, "name": "c6b4c28fc633084c5f80cc15ea2b0099", "fusion_lat": 0.0, "rental_uris": {"ios": "https://dc.lft.to/lastmile_qr_scan", "android": "https://dc.lft.to/lastmile_qr_scan"}, "lon": -77.04372616666667, "type": "electric_scooter"}, {"bike_id": "9b610580ca8196cf319a65e615ccff4a", "is_reserved": 0, "fusion_lon": 0.0, "lat": 38.93085683333334, "is_disabled": 0, "name": "9b610580ca8196cf319a65e615ccff4a", "fusion_lat": 0.0, "rental_uris": {"ios": "https://dc.lft.to/lastmile_qr_scan", "android": "https://dc.lft.to/lastmile_qr_scan"}, "lon": -77.03408466666667, "type": "electric_scooter"}, {"bike_id": "6c03c9d90337a03c766c285b994af377", "is_reserved": 0, "fusion_lon": 0.0, "lat": 38.892196166666665, "is_disabled": 0, "name": "6c03c9d90337a03c766c285b994af377", "fusion_lat": 0.0, "rental_uris": {"ios": "https://dc.lft.to/lastmile_qr_scan", "android": "https://dc.lft.to/lastmile_qr_scan"}, "lon": -77.03165183333333, "type": "electric_scooter"}, {"bike_id": "5057b023a3f65b57fe659067ae8bc1b0", "is_reserved": 0, "fusion_lon": 0.0, "lat": 38.86655566666667, "is_disabled": 0, "name": "5057b023a3f65b57fe659067ae8bc1b0", "fusion_lat": 0.0, "rental_uris": {"ios": "https://dc.lft.to/lastmile_qr_scan", "android": "https://dc.lft.to/lastmile_qr_scan"}, "lon": -76.98884583333333, "type": "electric_scooter"}, {"bike_id": "1432aca780fc9f96f88956d638f17933", "is_reserved": 0, "fusion_lon": 0.0, "lat": 38.86535383333333, "is_disabled": 0, "name": "1432aca780fc9f96f88956d638f17933", "fusion_lat": 0.0, "rental_uris": {"ios": "https://dc.lft.to/lastmile_qr_scan", "android": "https://dc.lft.to/lastmile_qr_scan"}, "lon": -76.9870605, "type": "electric_scooter"}, {"bike_id": "727353d97bea03148af999dbb3739fe4", "is_reserved": 0, "fusion_lon": 0.0, "lat": 38.92407516666667, "is_disabled": 0, "name": "727353d97bea03148af999dbb3739fe4", "fusion_lat": 0.0, "rental_uris": {"ios": "https://dc.lft.to/lastmile_qr_scan", "android": "https://dc.lft.to/lastmile_qr_scan"}, "lon": -77.0254415, "type": "electric_scooter"}, {"bike_id": "08940b9c14c9c9277637f999edc5e152", "is_reserved": 0, "fusion_lon": 0.0, "lat": 38.916698, "is_disabled": 0, "name": "08940b9c14c9c9277637f999edc5e152", "fusion_lat": 0.0, "rental_uris": {"ios": "https://dc.lft.to/lastmile_qr_scan", "android": "https://dc.lft.to/lastmile_qr_scan"}, "lon": -77.02275083333333, "type": "electric_scooter"}, {"bike_id": "bad62c715409d3ab6bd3aa70a190a103", "is_reserved": 0, "fusion_lon": 0.0, "lat": 38.9297155, "is_disabled": 0, "name": "bad62c715409d3ab6bd3aa70a190a103", "fusion_lat": 0.0, "rental_uris": {"ios": "https://dc.lft.to/lastmile_qr_scan", "android": "https://dc.lft.to/lastmile_qr_scan"}, "lon": -77.055036, "type": "electric_scooter"}, {"bike_id": "b2750bed9de3538197a1743f9d585c51", "is_reserved": 0, "fusion_lon": 0.0, "lat": 38.883338333333334, "is_disabled": 0, "name": "b2750bed9de3538197a1743f9d585c51", "fusion_lat": 0.0, "rental_uris": {"ios": "https://dc.lft.to/lastmile_qr_scan", "android": "https://dc.lft.to/lastmile_qr_scan"}, "lon": -77.00521633333334, "type": "electric_scooter"}, {"bike_id": "bf0a3359c6bc35df911c610a6af86f1f", "is_reserved": 0, "fusion_lon": 0.0, "lat": 38.88492166666666, "is_disabled": 0, "name": "bf0a3359c6bc35df911c610a6af86f1f", "fusion_lat": 0.0, "rental_uris": {"ios": "https://dc.lft.to/lastmile_qr_scan", "android": "https://dc.lft.to/lastmile_qr_scan"}, "lon": -77.007267, "type": "electric_scooter"}, {"bike_id": "a7bdaccb8d2b7e35b779750b56ef8e80", "is_reserved": 0, "fusion_lon": 0.0, "lat": 38.93401016666667, "is_disabled": 0, "name": "a7bdaccb8d2b7e35b779750b56ef8e80", "fusion_lat": 0.0, "rental_uris": {"ios": "https://dc.lft.to/lastmile_qr_scan", "android": "https://dc.lft.to/lastmile_qr_scan"}, "lon": -77.038853, "type": "electric_scooter"}, {"bike_id": "d77b5d520f32eb049644693801ac3945", "is_reserved": 0, "fusion_lon": 0.0, "lat": 38.930848833333336, "is_disabled": 0, "name": "d77b5d520f32eb049644693801ac3945", "fusion_lat": 0.0, "rental_uris": {"ios": "https://dc.lft.to/lastmile_qr_scan", "android": "https://dc.lft.to/lastmile_qr_scan"}, "lon": -77.02662883333333, "type": "electric_scooter"}, {"bike_id": "d4231616a221a27bc07a714746d79f4c", "is_reserved": 0, "fusion_lon": 0.0, "lat": 38.9148405, "is_disabled": 0, "name": "d4231616a221a27bc07a714746d79f4c", "fusion_lat": 0.0, "rental_uris": {"ios": "https://dc.lft.to/lastmile_qr_scan", "android": "https://dc.lft.to/lastmile_qr_scan"}, "lon": -77.0217525, "type": "electric_scooter"}, {"bike_id": "24f13616dbb301d09ed2ae81b022adfc", "is_reserved": 0, "fusion_lon": 0.0, "lat": 38.861907333333335, "is_disabled": 0, "name": "24f13616dbb301d09ed2ae81b022adfc", "fusion_lat": 0.0, "rental_uris": {"ios": "https://dc.lft.to/lastmile_qr_scan", "android": "https://dc.lft.to/lastmile_qr_scan"}, "lon": -76.99450833333333, "type": "electric_scooter"}, {"bike_id": "9d8a1993ec02941c72a905a34013833b", "is_reserved": 0, "fusion_lon": 0.0, "lat": 38.89826266666667, "is_disabled": 0, "name": "9d8a1993ec02941c72a905a34013833b", "fusion_lat": 0.0, "rental_uris": {"ios": "https://dc.lft.to/lastmile_qr_scan", "android": "https://dc.lft.to/lastmile_qr_scan"}, "lon": -77.00905133333333, "type": "electric_scooter"}, {"bike_id": "404f85f5c3f0125c7046cf008d51ca0d", "is_reserved": 0, "fusion_lon": 0.0, "lat": 38.9180335, "is_disabled": 0, "name": "404f85f5c3f0125c7046cf008d51ca0d", "fusion_lat": 0.0, "rental_uris": {"ios": "https://dc.lft.to/lastmile_qr_scan", "android": "https://dc.lft.to/lastmile_qr_scan"}, "lon": -77.03438466666667, "type": "electric_scooter"}, {"bike_id": "451459af6cdbca7e325cc45eae7e0cd5", "is_reserved": 0, "fusion_lon": 0.0, "lat": 38.896134333333336, "is_disabled": 0, "name": "451459af6cdbca7e325cc45eae7e0cd5", "fusion_lat": 0.0, "rental_uris": {"ios": "https://dc.lft.to/lastmile_qr_scan", "android": "https://dc.lft.to/lastmile_qr_scan"}, "lon": -77.04594616666667, "type": "electric_scooter"}, {"bike_id": "5257a6837346f7593a07030364c424c0", "is_reserved": 0, "fusion_lon": 0.0, "lat": 38.92317116666667, "is_disabled": 0, "name": "5257a6837346f7593a07030364c424c0", "fusion_lat": 0.0, "rental_uris": {"ios": "https://dc.lft.to/lastmile_qr_scan", "android": "https://dc.lft.to/lastmile_qr_scan"}, "lon": -77.0448765, "type": "electric_scooter"}, {"bike_id": "01d72d6456eacd15c2ea2063bdf1f882", "is_reserved": 0, "fusion_lon": 0.0, "lat": 38.923411, "is_disabled": 0, "name": "01d72d6456eacd15c2ea2063bdf1f882", "fusion_lat": 0.0, "rental_uris": {"ios": "https://dc.lft.to/lastmile_qr_scan", "android": "https://dc.lft.to/lastmile_qr_scan"}, "lon": -77.03888666666667, "type": "electric_scooter"}, {"bike_id": "9dd35dd35d695234e855e2759868bff8", "is_reserved": 0, "fusion_lon": 0.0, "lat": 38.903077833333334, "is_disabled": 0, "name": "9dd35dd35d695234e855e2759868bff8", "fusion_lat": 0.0, "rental_uris": {"ios": "https://dc.lft.to/lastmile_qr_scan", "android": "https://dc.lft.to/lastmile_qr_scan"}, "lon": -77.04356383333334, "type": "electric_scooter"}, {"bike_id": "2c57c927add24d1e362bd7b1bde1826d", "is_reserved": 0, "fusion_lon": 0.0, "lat": 38.861671, "is_disabled": 0, "name": "2c57c927add24d1e362bd7b1bde1826d", "fusion_lat": 0.0, "rental_uris": {"ios": "https://dc.lft.to/lastmile_qr_scan", "android": "https://dc.lft.to/lastmile_qr_scan"}, "lon": -76.95064483333333, "type": "electric_bike"}, {"bike_id": "f181a1d23bda7c24c1ad50f152afcc9e", "is_reserved": 0, "fusion_lon": 0.0, "lat": 38.895602333333336, "is_disabled": 0, "name": "f181a1d23bda7c24c1ad50f152afcc9e", "fusion_lat": 0.0, "rental_uris": {"ios": "https://dc.lft.to/lastmile_qr_scan", "android": "https://dc.lft.to/lastmile_qr_scan"}, "lon": -77.04674766666666, "type": "electric_scooter"}, {"bike_id": "1034a18acd82829969026d38b83ec61e", "is_reserved": 0, "fusion_lon": 0.0, "lat": 38.919932, "is_disabled": 0, "name": "1034a18acd82829969026d38b83ec61e", "fusion_lat": 0.0, "rental_uris": {"ios": "https://dc.lft.to/lastmile_qr_scan", "android": "https://dc.lft.to/lastmile_qr_scan"}, "lon": -77.0322755, "type": "electric_scooter"}, {"bike_id": "6d3d1879be79aa20180fc370e36771f5", "is_reserved": 0, "fusion_lon": 0.0, "lat": 38.928521, "is_disabled": 0, "name": "6d3d1879be79aa20180fc370e36771f5", "fusion_lat": 0.0, "rental_uris": {"ios": "https://dc.lft.to/lastmile_qr_scan", "android": "https://dc.lft.to/lastmile_qr_scan"}, "lon": -77.05426633333333, "type": "electric_scooter"}, {"bike_id": "e4f984cce19a1160c72fd43d7b3a2862", "is_reserved": 0, "fusion_lon": 0.0, "lat": 38.904576, "is_disabled": 0, "name": "e4f984cce19a1160c72fd43d7b3a2862", "fusion_lat": 0.0, "rental_uris": {"ios": "https://dc.lft.to/lastmile_qr_scan", "android": "https://dc.lft.to/lastmile_qr_scan"}, "lon": -77.0532715, "type": "electric_scooter"}, {"bike_id": "188112e95a5751f0e377994cba1bdc20", "is_reserved": 0, "fusion_lon": 0.0, "lat": 38.92339233333333, "is_disabled": 0, "name": "188112e95a5751f0e377994cba1bdc20", "fusion_lat": 0.0, "rental_uris": {"ios": "https://dc.lft.to/lastmile_qr_scan", "android": "https://dc.lft.to/lastmile_qr_scan"}, "lon": -77.04134216666667, "type": "electric_scooter"}, {"bike_id": "29282cdb6ba7cd9e9e11b8394b4c6054", "is_reserved": 0, "fusion_lon": 0.0, "lat": 38.901596, "is_disabled": 0, "name": "29282cdb6ba7cd9e9e11b8394b4c6054", "fusion_lat": 0.0, "rental_uris": {"ios": "https://dc.lft.to/lastmile_qr_scan", "android": "https://dc.lft.to/lastmile_qr_scan"}, "lon": -77.04462533333333, "type": "electric_scooter"}, {"bike_id": "6a62d4807d35c871fb61b356cad0633f", "is_reserved": 0, "fusion_lon": 0.0, "lat": 38.905593, "is_disabled": 0, "name": "6a62d4807d35c871fb61b356cad0633f", "fusion_lat": 0.0, "rental_uris": {"ios": "https://dc.lft.to/lastmile_qr_scan", "android": "https://dc.lft.to/lastmile_qr_scan"}, "lon": -77.038136, "type": "electric_scooter"}, {"bike_id": "bfb67727e7b330406619b48ca2a493fe", "is_reserved": 0, "fusion_lon": 0.0, "lat": 38.928497166666666, "is_disabled": 0, "name": "bfb67727e7b330406619b48ca2a493fe", "fusion_lat": 0.0, "rental_uris": {"ios": "https://dc.lft.to/lastmile_qr_scan", "android": "https://dc.lft.to/lastmile_qr_scan"}, "lon": -77.05425016666666, "type": "electric_scooter"}, {"bike_id": "0f234bfc7f20fba3d9476490683e17a3", "is_reserved": 0, "fusion_lon": 0.0, "lat": 38.910513, "is_disabled": 0, "name": "0f234bfc7f20fba3d9476490683e17a3", "fusion_lat": 0.0, "rental_uris": {"ios": "https://dc.lft.to/lastmile_qr_scan", "android": "https://dc.lft.to/lastmile_qr_scan"}, "lon": -77.05400833333333, "type": "electric_scooter"}, {"bike_id": "f4a8855bba26561ffc6e5cde8daa7e69", "is_reserved": 0, "fusion_lon": 0.0, "lat": 38.9027385, "is_disabled": 0, "name": "f4a8855bba26561ffc6e5cde8daa7e69", "fusion_lat": 0.0, "rental_uris": {"ios": "https://dc.lft.to/lastmile_qr_scan", "android": "https://dc.lft.to/lastmile_qr_scan"}, "lon": -77.05915716666667, "type": "electric_scooter"}, {"bike_id": "214055a26b7f09e519161ad33296af96", "is_reserved": 0, "fusion_lon": 0.0, "lat": 38.92781083333333, "is_disabled": 0, "name": "214055a26b7f09e519161ad33296af96", "fusion_lat": 0.0, "rental_uris": {"ios": "https://dc.lft.to/lastmile_qr_scan", "android": "https://dc.lft.to/lastmile_qr_scan"}, "lon": -77.03199716666667, "type": "electric_scooter"}, {"bike_id": "3ff951f86b73e92cdf8d85770905eb73", "is_reserved": 0, "fusion_lon": 0.0, "lat": 38.918403166666664, "is_disabled": 0, "name": "3ff951f86b73e92cdf8d85770905eb73", "fusion_lat": 0.0, "rental_uris": {"ios": "https://dc.lft.to/lastmile_qr_scan", "android": "https://dc.lft.to/lastmile_qr_scan"}, "lon": -77.04171466666666, "type": "electric_scooter"}, {"bike_id": "fcdaec69e6e7a70240b65d6404384b18", "is_reserved": 0, "fusion_lon": 0.0, "lat": 38.92906416666667, "is_disabled": 0, "name": "fcdaec69e6e7a70240b65d6404384b18", "fusion_lat": 0.0, "rental_uris": {"ios": "https://dc.lft.to/lastmile_qr_scan", "android": "https://dc.lft.to/lastmile_qr_scan"}, "lon": -77.03180183333333, "type": "electric_scooter"}, {"bike_id": "bce4575a984b99103854bd7029a2accc", "is_reserved": 0, "fusion_lon": 0.0, "lat": 38.89562933333333, "is_disabled": 0, "name": "bce4575a984b99103854bd7029a2accc", "fusion_lat": 0.0, "rental_uris": {"ios": "https://dc.lft.to/lastmile_qr_scan", "android": "https://dc.lft.to/lastmile_qr_scan"}, "lon": -77.04676, "type": "electric_scooter"}, {"bike_id": "e28f075f91a144270bdc7b4a89b2651e", "is_reserved": 0, "fusion_lon": 0.0, "lat": 38.89217033333333, "is_disabled": 0, "name": "e28f075f91a144270bdc7b4a89b2651e", "fusion_lat": 0.0, "rental_uris": {"ios": "https://dc.lft.to/lastmile_qr_scan", "android": "https://dc.lft.to/lastmile_qr_scan"}, "lon": -77.04369283333334, "type": "electric_scooter"}, {"bike_id": "380d16c25dc719e1d9d35e0fc260d760", "is_reserved": 0, "fusion_lon": 0.0, "lat": 38.89380716666667, "is_disabled": 0, "name": "380d16c25dc719e1d9d35e0fc260d760", "fusion_lat": 0.0, "rental_uris": {"ios": "https://dc.lft.to/lastmile_qr_scan", "android": "https://dc.lft.to/lastmile_qr_scan"}, "lon": -76.94960783333333, "type": "electric_scooter"}, {"bike_id": "90df6253ef9bf5f8c2c7c3a52b2c1db1", "is_reserved": 0, "fusion_lon": 0.0, "lat": 38.892222333333336, "is_disabled": 0, "name": "90df6253ef9bf5f8c2c7c3a52b2c1db1", "fusion_lat": 0.0, "rental_uris": {"ios": "https://dc.lft.to/lastmile_qr_scan", "android": "https://dc.lft.to/lastmile_qr_scan"}, "lon": -77.041937, "type": "electric_scooter"}, {"bike_id": "a92c8f792fe1f1301a56078487664876", "is_reserved": 0, "fusion_lon": 0.0, "lat": 38.9342245, "is_disabled": 0, "name": "a92c8f792fe1f1301a56078487664876", "fusion_lat": 0.0, "rental_uris": {"ios": "https://dc.lft.to/lastmile_qr_scan", "android": "https://dc.lft.to/lastmile_qr_scan"}, "lon": -77.04311466666667, "type": "electric_scooter"}, {"bike_id": "672d100c33ae80da4d629d9a7a00e120", "is_reserved": 0, "fusion_lon": 0.0, "lat": 38.898161333333334, "is_disabled": 0, "name": "672d100c33ae80da4d629d9a7a00e120", "fusion_lat": 0.0, "rental_uris": {"ios": "https://dc.lft.to/lastmile_qr_scan", "android": "https://dc.lft.to/lastmile_qr_scan"}, "lon": -77.03310183333333, "type": "electric_scooter"}, {"bike_id": "57ff6cfcd733cf151d7d95770b2e3e93", "is_reserved": 0, "fusion_lon": 0.0, "lat": 38.89624083333333, "is_disabled": 0, "name": "57ff6cfcd733cf151d7d95770b2e3e93", "fusion_lat": 0.0, "rental_uris": {"ios": "https://dc.lft.to/lastmile_qr_scan", "android": "https://dc.lft.to/lastmile_qr_scan"}, "lon": -76.9985155, "type": "electric_scooter"}, {"bike_id": "2e197fe7ead13bd1177e97bb08bb734d", "is_reserved": 0, "fusion_lon": 0.0, "lat": 38.912562666666666, "is_disabled": 0, "name": "2e197fe7ead13bd1177e97bb08bb734d", "fusion_lat": 0.0, "rental_uris": {"ios": "https://dc.lft.to/lastmile_qr_scan", "android": "https://dc.lft.to/lastmile_qr_scan"}, "lon": -77.032313, "type": "electric_scooter"}, {"bike_id": "0d5821b8ad4cde3e9772b38924aca380", "is_reserved": 0, "fusion_lon": 0.0, "lat": 38.8974365, "is_disabled": 0, "name": "0d5821b8ad4cde3e9772b38924aca380", "fusion_lat": 0.0, "rental_uris": {"ios": "https://dc.lft.to/lastmile_qr_scan", "android": "https://dc.lft.to/lastmile_qr_scan"}, "lon": -77.008677, "type": "electric_scooter"}, {"bike_id": "3d6314b3e54326a8e5dd3aed9f346a28", "is_reserved": 0, "fusion_lon": 0.0, "lat": 38.91898233333333, "is_disabled": 0, "name": "3d6314b3e54326a8e5dd3aed9f346a28", "fusion_lat": 0.0, "rental_uris": {"ios": "https://dc.lft.to/lastmile_qr_scan", "android": "https://dc.lft.to/lastmile_qr_scan"}, "lon": -77.0196805, "type": "electric_scooter"}, {"bike_id": "f509112ef7a958cfeb88dd1e83ce4e4f", "is_reserved": 0, "fusion_lon": 0.0, "lat": 38.89194, "is_disabled": 0, "name": "f509112ef7a958cfeb88dd1e83ce4e4f", "fusion_lat": 0.0, "rental_uris": {"ios": "https://dc.lft.to/lastmile_qr_scan", "android": "https://dc.lft.to/lastmile_qr_scan"}, "lon": -77.02982016666667, "type": "electric_scooter"}, {"bike_id": "8dfa48caaa12239d1992e3329f23bfb6", "is_reserved": 0, "fusion_lon": 0.0, "lat": 38.894944, "is_disabled": 0, "name": "8dfa48caaa12239d1992e3329f23bfb6", "fusion_lat": 0.0, "rental_uris": {"ios": "https://dc.lft.to/lastmile_qr_scan", "android": "https://dc.lft.to/lastmile_qr_scan"}, "lon": -77.0229935, "type": "electric_scooter"}, {"bike_id": "90e3a2d8b070a720bf48098ad5c4625c", "is_reserved": 0, "fusion_lon": 0.0, "lat": 38.869093, "is_disabled": 0, "name": "90e3a2d8b070a720bf48098ad5c4625c", "fusion_lat": 0.0, "rental_uris": {"ios": "https://dc.lft.to/lastmile_qr_scan", "android": "https://dc.lft.to/lastmile_qr_scan"}, "lon": -77.13177766666666, "type": "electric_bike"}, {"bike_id": "4541e59ecc4c79374ac7e64095a646c9", "is_reserved": 0, "fusion_lon": 0.0, "lat": 38.878947, "is_disabled": 0, "name": "4541e59ecc4c79374ac7e64095a646c9", "fusion_lat": 0.0, "rental_uris": {"ios": "https://dc.lft.to/lastmile_qr_scan", "android": "https://dc.lft.to/lastmile_qr_scan"}, "lon": -76.99158183333333, "type": "electric_scooter"}, {"bike_id": "8812c386663c7ddeda109c91c6d56e58", "is_reserved": 0, "fusion_lon": 0.0, "lat": 38.903368, "is_disabled": 0, "name": "8812c386663c7ddeda109c91c6d56e58", "fusion_lat": 0.0, "rental_uris": {"ios": "https://dc.lft.to/lastmile_qr_scan", "android": "https://dc.lft.to/lastmile_qr_scan"}, "lon": -77.03433566666666, "type": "electric_scooter"}, {"bike_id": "3f83a5eb573da65e5eb4cc071a904afb", "is_reserved": 0, "fusion_lon": 0.0, "lat": 38.88223166666667, "is_disabled": 0, "name": "3f83a5eb573da65e5eb4cc071a904afb", "fusion_lat": 0.0, "rental_uris": {"ios": "https://dc.lft.to/lastmile_qr_scan", "android": "https://dc.lft.to/lastmile_qr_scan"}, "lon": -76.9417755, "type": "electric_scooter"}, {"bike_id": "4a130274a8884dfac3c99160e1434483", "is_reserved": 0, "fusion_lon": 0.0, "lat": 38.9026285, "is_disabled": 0, "name": "4a130274a8884dfac3c99160e1434483", "fusion_lat": 0.0, "rental_uris": {"ios": "https://dc.lft.to/lastmile_qr_scan", "android": "https://dc.lft.to/lastmile_qr_scan"}, "lon": -77.01544666666666, "type": "electric_scooter"}, {"bike_id": "e141c08b2f9af9410550056509b6faa9", "is_reserved": 0, "fusion_lon": 0.0, "lat": 38.902355166666666, "is_disabled": 0, "name": "e141c08b2f9af9410550056509b6faa9", "fusion_lat": 0.0, "rental_uris": {"ios": "https://dc.lft.to/lastmile_qr_scan", "android": "https://dc.lft.to/lastmile_qr_scan"}, "lon": -77.034151, "type": "electric_scooter"}, {"bike_id": "ef1253745d47715b0f596a38e9a2f82e", "is_reserved": 0, "fusion_lon": 0.0, "lat": 38.920333, "is_disabled": 0, "name": "ef1253745d47715b0f596a38e9a2f82e", "fusion_lat": 0.0, "rental_uris": {"ios": "https://dc.lft.to/lastmile_qr_scan", "android": "https://dc.lft.to/lastmile_qr_scan"}, "lon": -76.99940716666667, "type": "electric_scooter"}, {"bike_id": "85ae90f11a12bb2de8ec673804fb0c3f", "is_reserved": 0, "fusion_lon": 0.0, "lat": 38.9197055, "is_disabled": 0, "name": "85ae90f11a12bb2de8ec673804fb0c3f", "fusion_lat": 0.0, "rental_uris": {"ios": "https://dc.lft.to/lastmile_qr_scan", "android": "https://dc.lft.to/lastmile_qr_scan"}, "lon": -77.04140683333334, "type": "electric_scooter"}, {"bike_id": "a3a83ce45ccabe00bb4389e69869640d", "is_reserved": 0, "fusion_lon": 0.0, "lat": 38.90375383333333, "is_disabled": 0, "name": "a3a83ce45ccabe00bb4389e69869640d", "fusion_lat": 0.0, "rental_uris": {"ios": "https://dc.lft.to/lastmile_qr_scan", "android": "https://dc.lft.to/lastmile_qr_scan"}, "lon": -77.04504916666667, "type": "electric_scooter"}, {"bike_id": "20daf088e38885db7a3f4d1f2daeba9f", "is_reserved": 0, "fusion_lon": 0.0, "lat": 38.862411333333334, "is_disabled": 0, "name": "20daf088e38885db7a3f4d1f2daeba9f", "fusion_lat": 0.0, "rental_uris": {"ios": "https://dc.lft.to/lastmile_qr_scan", "android": "https://dc.lft.to/lastmile_qr_scan"}, "lon": -76.99493933333333, "type": "electric_scooter"}, {"bike_id": "364939debbb5569bf75c794f6a794307", "is_reserved": 0, "fusion_lon": 0.0, "lat": 38.902822, "is_disabled": 0, "name": "364939debbb5569bf75c794f6a794307", "fusion_lat": 0.0, "rental_uris": {"ios": "https://dc.lft.to/lastmile_qr_scan", "android": "https://dc.lft.to/lastmile_qr_scan"}, "lon": -77.03647583333333, "type": "electric_scooter"}, {"bike_id": "72f036faca8ade6d39eb6d8aee5e6c24", "is_reserved": 0, "fusion_lon": 0.0, "lat": 38.923637, "is_disabled": 0, "name": "72f036faca8ade6d39eb6d8aee5e6c24", "fusion_lat": 0.0, "rental_uris": {"ios": "https://dc.lft.to/lastmile_qr_scan", "android": "https://dc.lft.to/lastmile_qr_scan"}, "lon": -77.05130716666666, "type": "electric_scooter"}, {"bike_id": "d07199b2001e1bf786a922ab693cb95f", "is_reserved": 0, "fusion_lon": 0.0, "lat": 38.9236685, "is_disabled": 0, "name": "d07199b2001e1bf786a922ab693cb95f", "fusion_lat": 0.0, "rental_uris": {"ios": "https://dc.lft.to/lastmile_qr_scan", "android": "https://dc.lft.to/lastmile_qr_scan"}, "lon": -77.01913466666667, "type": "electric_scooter"}, {"bike_id": "59c463611eb9a8eecb676627b337ecc3", "is_reserved": 0, "fusion_lon": 0.0, "lat": 38.89195616666667, "is_disabled": 0, "name": "59c463611eb9a8eecb676627b337ecc3", "fusion_lat": 0.0, "rental_uris": {"ios": "https://dc.lft.to/lastmile_qr_scan", "android": "https://dc.lft.to/lastmile_qr_scan"}, "lon": -77.0221825, "type": "electric_scooter"}, {"bike_id": "82fd7934b40265d53f0806cdeb8a7bd5", "is_reserved": 0, "fusion_lon": 0.0, "lat": 38.907272166666665, "is_disabled": 0, "name": "82fd7934b40265d53f0806cdeb8a7bd5", "fusion_lat": 0.0, "rental_uris": {"ios": "https://dc.lft.to/lastmile_qr_scan", "android": "https://dc.lft.to/lastmile_qr_scan"}, "lon": -77.04374016666667, "type": "electric_scooter"}, {"bike_id": "50f6e1ff51a07db0c5f2c7273bea514c", "is_reserved": 0, "fusion_lon": 0.0, "lat": 38.8226275, "is_disabled": 0, "name": "50f6e1ff51a07db0c5f2c7273bea514c", "fusion_lat": 0.0, "rental_uris": {"ios": "https://dc.lft.to/lastmile_qr_scan", "android": "https://dc.lft.to/lastmile_qr_scan"}, "lon": -77.05807466666667, "type": "electric_bike"}, {"bike_id": "c2eceb95c8fff388a38759e6bfd2b7bf", "is_reserved": 0, "fusion_lon": 0.0, "lat": 38.877021166666665, "is_disabled": 0, "name": "c2eceb95c8fff388a38759e6bfd2b7bf", "fusion_lat": 0.0, "rental_uris": {"ios": "https://dc.lft.to/lastmile_qr_scan", "android": "https://dc.lft.to/lastmile_qr_scan"}, "lon": -77.0044685, "type": "electric_scooter"}, {"bike_id": "502bc19592613fae5a82597c5f9d9321", "is_reserved": 0, "fusion_lon": 0.0, "lat": 38.89386966666667, "is_disabled": 0, "name": "502bc19592613fae5a82597c5f9d9321", "fusion_lat": 0.0, "rental_uris": {"ios": "https://dc.lft.to/lastmile_qr_scan", "android": "https://dc.lft.to/lastmile_qr_scan"}, "lon": -77.005986, "type": "electric_scooter"}, {"bike_id": "f6185a8224a8620aae35354a9cc5c92d", "is_reserved": 0, "fusion_lon": 0.0, "lat": 38.91663333333333, "is_disabled": 0, "name": "f6185a8224a8620aae35354a9cc5c92d", "fusion_lat": 0.0, "rental_uris": {"ios": "https://dc.lft.to/lastmile_qr_scan", "android": "https://dc.lft.to/lastmile_qr_scan"}, "lon": -77.02710083333334, "type": "electric_scooter"}, {"bike_id": "8428c275be278d8561198382b6727d1d", "is_reserved": 0, "fusion_lon": 0.0, "lat": 38.8624815, "is_disabled": 0, "name": "8428c275be278d8561198382b6727d1d", "fusion_lat": 0.0, "rental_uris": {"ios": "https://dc.lft.to/lastmile_qr_scan", "android": "https://dc.lft.to/lastmile_qr_scan"}, "lon": -76.994792, "type": "electric_scooter"}, {"bike_id": "ba1c4e949d719f3d34d31fcfd35354db", "is_reserved": 0, "fusion_lon": 0.0, "lat": 38.917772, "is_disabled": 0, "name": "ba1c4e949d719f3d34d31fcfd35354db", "fusion_lat": 0.0, "rental_uris": {"ios": "https://dc.lft.to/lastmile_qr_scan", "android": "https://dc.lft.to/lastmile_qr_scan"}, "lon": -77.02309433333333, "type": "electric_scooter"}, {"bike_id": "8ff9521e57f9ff512930aa119bca64bf", "is_reserved": 0, "fusion_lon": 0.0, "lat": 38.892246, "is_disabled": 0, "name": "8ff9521e57f9ff512930aa119bca64bf", "fusion_lat": 0.0, "rental_uris": {"ios": "https://dc.lft.to/lastmile_qr_scan", "android": "https://dc.lft.to/lastmile_qr_scan"}, "lon": -77.04868016666667, "type": "electric_scooter"}, {"bike_id": "0f2b0fc633997e76df5963f540a045ea", "is_reserved": 0, "fusion_lon": 0.0, "lat": 38.806198333333334, "is_disabled": 0, "name": "0f2b0fc633997e76df5963f540a045ea", "fusion_lat": 0.0, "rental_uris": {"ios": "https://dc.lft.to/lastmile_qr_scan", "android": "https://dc.lft.to/lastmile_qr_scan"}, "lon": -77.06346316666666, "type": "electric_bike"}, {"bike_id": "6666ec6dded9a81150643d658a6cb912", "is_reserved": 0, "fusion_lon": 0.0, "lat": 38.89745816666667, "is_disabled": 0, "name": "6666ec6dded9a81150643d658a6cb912", "fusion_lat": 0.0, "rental_uris": {"ios": "https://dc.lft.to/lastmile_qr_scan", "android": "https://dc.lft.to/lastmile_qr_scan"}, "lon": -77.017497, "type": "electric_scooter"}, {"bike_id": "1467df7cd51ca97c6eff48de11d50692", "is_reserved": 0, "fusion_lon": 0.0, "lat": 38.911076333333334, "is_disabled": 0, "name": "1467df7cd51ca97c6eff48de11d50692", "fusion_lat": 0.0, "rental_uris": {"ios": "https://dc.lft.to/lastmile_qr_scan", "android": "https://dc.lft.to/lastmile_qr_scan"}, "lon": -77.03721866666666, "type": "electric_scooter"}, {"bike_id": "8df13094457359e22b6661464a847f8b", "is_reserved": 0, "fusion_lon": 0.0, "lat": 38.89694566666667, "is_disabled": 0, "name": "8df13094457359e22b6661464a847f8b", "fusion_lat": 0.0, "rental_uris": {"ios": "https://dc.lft.to/lastmile_qr_scan", "android": "https://dc.lft.to/lastmile_qr_scan"}, "lon": -77.02696366666666, "type": "electric_scooter"}, {"bike_id": "96d2bad29c8c6614a87326009a645770", "is_reserved": 0, "fusion_lon": 0.0, "lat": 38.86991366666667, "is_disabled": 0, "name": "96d2bad29c8c6614a87326009a645770", "fusion_lat": 0.0, "rental_uris": {"ios": "https://dc.lft.to/lastmile_qr_scan", "android": "https://dc.lft.to/lastmile_qr_scan"}, "lon": -76.95984533333333, "type": "electric_bike"}, {"bike_id": "c825d01119520c2adc0b332acfed42d6", "is_reserved": 0, "fusion_lon": 0.0, "lat": 38.89220266666667, "is_disabled": 0, "name": "c825d01119520c2adc0b332acfed42d6", "fusion_lat": 0.0, "rental_uris": {"ios": "https://dc.lft.to/lastmile_qr_scan", "android": "https://dc.lft.to/lastmile_qr_scan"}, "lon": -77.04647183333333, "type": "electric_scooter"}, {"bike_id": "abd947d639c0fb4643c044cf59fcd38e", "is_reserved": 0, "fusion_lon": 0.0, "lat": 38.98505883333333, "is_disabled": 0, "name": "abd947d639c0fb4643c044cf59fcd38e", "fusion_lat": 0.0, "rental_uris": {"ios": "https://dc.lft.to/lastmile_qr_scan", "android": "https://dc.lft.to/lastmile_qr_scan"}, "lon": -76.98218416666667, "type": "electric_bike"}, {"bike_id": "ecba6c3dcf626ce8899bca2a6055f2ce", "is_reserved": 0, "fusion_lon": 0.0, "lat": 38.901575333333334, "is_disabled": 0, "name": "ecba6c3dcf626ce8899bca2a6055f2ce", "fusion_lat": 0.0, "rental_uris": {"ios": "https://dc.lft.to/lastmile_qr_scan", "android": "https://dc.lft.to/lastmile_qr_scan"}, "lon": -77.05917166666667, "type": "electric_bike"}, {"bike_id": "a9fab3b57ebb8a311b501520c6bb8d29", "is_reserved": 0, "fusion_lon": 0.0, "lat": 38.9233615, "is_disabled": 0, "name": "a9fab3b57ebb8a311b501520c6bb8d29", "fusion_lat": 0.0, "rental_uris": {"ios": "https://dc.lft.to/lastmile_qr_scan", "android": "https://dc.lft.to/lastmile_qr_scan"}, "lon": -77.04191816666666, "type": "electric_scooter"}, {"bike_id": "3980d14d750e55d900679d9a0da5c528", "is_reserved": 0, "fusion_lon": 0.0, "lat": 38.908013833333335, "is_disabled": 0, "name": "3980d14d750e55d900679d9a0da5c528", "fusion_lat": 0.0, "rental_uris": {"ios": "https://dc.lft.to/lastmile_qr_scan", "android": "https://dc.lft.to/lastmile_qr_scan"}, "lon": -77.03668583333334, "type": "electric_scooter"}, {"bike_id": "ddd1ac391e668b39e92558fc309cb867", "is_reserved": 0, "fusion_lon": 0.0, "lat": 38.91567416666667, "is_disabled": 0, "name": "ddd1ac391e668b39e92558fc309cb867", "fusion_lat": 0.0, "rental_uris": {"ios": "https://dc.lft.to/lastmile_qr_scan", "android": "https://dc.lft.to/lastmile_qr_scan"}, "lon": -77.03181216666667, "type": "electric_scooter"}, {"bike_id": "de317480ab3af9188b90c17a7bf649a7", "is_reserved": 0, "fusion_lon": 0.0, "lat": 38.8786235, "is_disabled": 0, "name": "de317480ab3af9188b90c17a7bf649a7", "fusion_lat": 0.0, "rental_uris": {"ios": "https://dc.lft.to/lastmile_qr_scan", "android": "https://dc.lft.to/lastmile_qr_scan"}, "lon": -76.98985883333333, "type": "electric_scooter"}, {"bike_id": "2193464ec0b4bb6dc5ef30f4979f72d9", "is_reserved": 0, "fusion_lon": 0.0, "lat": 38.929676, "is_disabled": 0, "name": "2193464ec0b4bb6dc5ef30f4979f72d9", "fusion_lat": 0.0, "rental_uris": {"ios": "https://dc.lft.to/lastmile_qr_scan", "android": "https://dc.lft.to/lastmile_qr_scan"}, "lon": -77.01118766666667, "type": "electric_scooter"}, {"bike_id": "03ac93c58f8e91d423d242f7bc2d7bd3", "is_reserved": 0, "fusion_lon": 0.0, "lat": 38.93277, "is_disabled": 0, "name": "03ac93c58f8e91d423d242f7bc2d7bd3", "fusion_lat": 0.0, "rental_uris": {"ios": "https://dc.lft.to/lastmile_qr_scan", "android": "https://dc.lft.to/lastmile_qr_scan"}, "lon": -77.03638616666667, "type": "electric_scooter"}, {"bike_id": "bf3c20fc00149df4df5e5feeb070fb63", "is_reserved": 0, "fusion_lon": 0.0, "lat": 38.9059905, "is_disabled": 0, "name": "bf3c20fc00149df4df5e5feeb070fb63", "fusion_lat": 0.0, "rental_uris": {"ios": "https://dc.lft.to/lastmile_qr_scan", "android": "https://dc.lft.to/lastmile_qr_scan"}, "lon": -77.041259, "type": "electric_scooter"}, {"bike_id": "c77e978fbcd821a86451af8a2c53cae6", "is_reserved": 0, "fusion_lon": 0.0, "lat": 38.90309416666667, "is_disabled": 0, "name": "c77e978fbcd821a86451af8a2c53cae6", "fusion_lat": 0.0, "rental_uris": {"ios": "https://dc.lft.to/lastmile_qr_scan", "android": "https://dc.lft.to/lastmile_qr_scan"}, "lon": -77.03446433333333, "type": "electric_scooter"}, {"bike_id": "11356142012ccbde8c06ec231926a35f", "is_reserved": 0, "fusion_lon": 0.0, "lat": 38.928147333333335, "is_disabled": 0, "name": "11356142012ccbde8c06ec231926a35f", "fusion_lat": 0.0, "rental_uris": {"ios": "https://dc.lft.to/lastmile_qr_scan", "android": "https://dc.lft.to/lastmile_qr_scan"}, "lon": -77.03702716666666, "type": "electric_scooter"}, {"bike_id": "bf075117d06d9269a7a9f3e3831d3bd7", "is_reserved": 0, "fusion_lon": 0.0, "lat": 38.900605, "is_disabled": 0, "name": "bf075117d06d9269a7a9f3e3831d3bd7", "fusion_lat": 0.0, "rental_uris": {"ios": "https://dc.lft.to/lastmile_qr_scan", "android": "https://dc.lft.to/lastmile_qr_scan"}, "lon": -77.04348666666667, "type": "electric_scooter"}, {"bike_id": "34da9511dd0c5298b3b24c53f0f5013b", "is_reserved": 0, "fusion_lon": 0.0, "lat": 38.8799645, "is_disabled": 0, "name": "34da9511dd0c5298b3b24c53f0f5013b", "fusion_lat": 0.0, "rental_uris": {"ios": "https://dc.lft.to/lastmile_qr_scan", "android": "https://dc.lft.to/lastmile_qr_scan"}, "lon": -76.98540866666667, "type": "electric_scooter"}, {"bike_id": "444ce390fa1ad998b68db86176ecc432", "is_reserved": 0, "fusion_lon": 0.0, "lat": 38.9173075, "is_disabled": 0, "name": "444ce390fa1ad998b68db86176ecc432", "fusion_lat": 0.0, "rental_uris": {"ios": "https://dc.lft.to/lastmile_qr_scan", "android": "https://dc.lft.to/lastmile_qr_scan"}, "lon": -77.00790616666667, "type": "electric_scooter"}, {"bike_id": "6a8b37b71b4cc0a669eca2668b0d5dfe", "is_reserved": 0, "fusion_lon": 0.0, "lat": 38.87734016666667, "is_disabled": 0, "name": "6a8b37b71b4cc0a669eca2668b0d5dfe", "fusion_lat": 0.0, "rental_uris": {"ios": "https://dc.lft.to/lastmile_qr_scan", "android": "https://dc.lft.to/lastmile_qr_scan"}, "lon": -77.11847566666667, "type": "electric_bike"}, {"bike_id": "a6a3fd28a516e4645420bf0d98e25ed8", "is_reserved": 0, "fusion_lon": 0.0, "lat": 38.921304166666665, "is_disabled": 0, "name": "a6a3fd28a516e4645420bf0d98e25ed8", "fusion_lat": 0.0, "rental_uris": {"ios": "https://dc.lft.to/lastmile_qr_scan", "android": "https://dc.lft.to/lastmile_qr_scan"}, "lon": -77.041324, "type": "electric_scooter"}, {"bike_id": "b64672f11c1beec990993c9c82f4705d", "is_reserved": 0, "fusion_lon": 0.0, "lat": 38.8934555, "is_disabled": 0, "name": "b64672f11c1beec990993c9c82f4705d", "fusion_lat": 0.0, "rental_uris": {"ios": "https://dc.lft.to/lastmile_qr_scan", "android": "https://dc.lft.to/lastmile_qr_scan"}, "lon": -76.94936466666667, "type": "electric_scooter"}, {"bike_id": "47e88c7c1599509ff6e7ca3e8f878cb9", "is_reserved": 0, "fusion_lon": 0.0, "lat": 38.8840265, "is_disabled": 0, "name": "47e88c7c1599509ff6e7ca3e8f878cb9", "fusion_lat": 0.0, "rental_uris": {"ios": "https://dc.lft.to/lastmile_qr_scan", "android": "https://dc.lft.to/lastmile_qr_scan"}, "lon": -77.01783633333334, "type": "electric_scooter"}, {"bike_id": "06b147fb7b09f0db3092b601998c271e", "is_reserved": 0, "fusion_lon": 0.0, "lat": 38.88505266666667, "is_disabled": 0, "name": "06b147fb7b09f0db3092b601998c271e", "fusion_lat": 0.0, "rental_uris": {"ios": "https://dc.lft.to/lastmile_qr_scan", "android": "https://dc.lft.to/lastmile_qr_scan"}, "lon": -77.00568833333334, "type": "electric_scooter"}, {"bike_id": "f73f0731af89b606b33a39f9f5dd0839", "is_reserved": 0, "fusion_lon": 0.0, "lat": 38.912513, "is_disabled": 0, "name": "f73f0731af89b606b33a39f9f5dd0839", "fusion_lat": 0.0, "rental_uris": {"ios": "https://dc.lft.to/lastmile_qr_scan", "android": "https://dc.lft.to/lastmile_qr_scan"}, "lon": -77.03626583333333, "type": "electric_scooter"}, {"bike_id": "ec571ba553d0d938547f87344b6d6d07", "is_reserved": 0, "fusion_lon": 0.0, "lat": 38.90289, "is_disabled": 0, "name": "ec571ba553d0d938547f87344b6d6d07", "fusion_lat": 0.0, "rental_uris": {"ios": "https://dc.lft.to/lastmile_qr_scan", "android": "https://dc.lft.to/lastmile_qr_scan"}, "lon": -77.03862666666667, "type": "electric_scooter"}, {"bike_id": "2e86a475dc15fff69547aad84ea146c6", "is_reserved": 0, "fusion_lon": 0.0, "lat": 38.92075483333333, "is_disabled": 0, "name": "2e86a475dc15fff69547aad84ea146c6", "fusion_lat": 0.0, "rental_uris": {"ios": "https://dc.lft.to/lastmile_qr_scan", "android": "https://dc.lft.to/lastmile_qr_scan"}, "lon": -77.03996233333334, "type": "electric_scooter"}, {"bike_id": "46e6530002702c89a28a7e1b5fd819d0", "is_reserved": 0, "fusion_lon": 0.0, "lat": 38.9007525, "is_disabled": 0, "name": "46e6530002702c89a28a7e1b5fd819d0", "fusion_lat": 0.0, "rental_uris": {"ios": "https://dc.lft.to/lastmile_qr_scan", "android": "https://dc.lft.to/lastmile_qr_scan"}, "lon": -77.05010483333334, "type": "electric_scooter"}, {"bike_id": "e46035374e379cac46741ac0681231fc", "is_reserved": 0, "fusion_lon": 0.0, "lat": 38.8665865, "is_disabled": 0, "name": "e46035374e379cac46741ac0681231fc", "fusion_lat": 0.0, "rental_uris": {"ios": "https://dc.lft.to/lastmile_qr_scan", "android": "https://dc.lft.to/lastmile_qr_scan"}, "lon": -76.99016416666667, "type": "electric_scooter"}, {"bike_id": "f2ed8e1bce0963634e40e16c1ad36b08", "is_reserved": 0, "fusion_lon": 0.0, "lat": 38.901084833333336, "is_disabled": 0, "name": "f2ed8e1bce0963634e40e16c1ad36b08", "fusion_lat": 0.0, "rental_uris": {"ios": "https://dc.lft.to/lastmile_qr_scan", "android": "https://dc.lft.to/lastmile_qr_scan"}, "lon": -77.05144366666667, "type": "electric_scooter"}, {"bike_id": "d80e6705e0c426902c84e7efdefa5a55", "is_reserved": 0, "fusion_lon": 0.0, "lat": 38.907924333333334, "is_disabled": 0, "name": "d80e6705e0c426902c84e7efdefa5a55", "fusion_lat": 0.0, "rental_uris": {"ios": "https://dc.lft.to/lastmile_qr_scan", "android": "https://dc.lft.to/lastmile_qr_scan"}, "lon": -77.02945533333333, "type": "electric_scooter"}, {"bike_id": "68aaba05a35eac894c131d617178273b", "is_reserved": 0, "fusion_lon": 0.0, "lat": 38.930811166666665, "is_disabled": 0, "name": "68aaba05a35eac894c131d617178273b", "fusion_lat": 0.0, "rental_uris": {"ios": "https://dc.lft.to/lastmile_qr_scan", "android": "https://dc.lft.to/lastmile_qr_scan"}, "lon": -77.0279495, "type": "electric_scooter"}, {"bike_id": "03210ac8ae7ca22468c6397225d03081", "is_reserved": 0, "fusion_lon": 0.0, "lat": 38.8982095, "is_disabled": 0, "name": "03210ac8ae7ca22468c6397225d03081", "fusion_lat": 0.0, "rental_uris": {"ios": "https://dc.lft.to/lastmile_qr_scan", "android": "https://dc.lft.to/lastmile_qr_scan"}, "lon": -76.94653583333333, "type": "electric_scooter"}, {"bike_id": "7c4d02b32606e62a56e53d97cf292e5f", "is_reserved": 0, "fusion_lon": 0.0, "lat": 38.917065, "is_disabled": 0, "name": "7c4d02b32606e62a56e53d97cf292e5f", "fusion_lat": 0.0, "rental_uris": {"ios": "https://dc.lft.to/lastmile_qr_scan", "android": "https://dc.lft.to/lastmile_qr_scan"}, "lon": -77.033448, "type": "electric_scooter"}, {"bike_id": "9a94ecd16c7edb2a7eda35c14961c07f", "is_reserved": 0, "fusion_lon": 0.0, "lat": 38.93862, "is_disabled": 0, "name": "9a94ecd16c7edb2a7eda35c14961c07f", "fusion_lat": 0.0, "rental_uris": {"ios": "https://dc.lft.to/lastmile_qr_scan", "android": "https://dc.lft.to/lastmile_qr_scan"}, "lon": -77.02459383333333, "type": "electric_scooter"}, {"bike_id": "0b34da8611b5e28d4c13ba4820c343eb", "is_reserved": 0, "fusion_lon": 0.0, "lat": 38.9036265, "is_disabled": 0, "name": "0b34da8611b5e28d4c13ba4820c343eb", "fusion_lat": 0.0, "rental_uris": {"ios": "https://dc.lft.to/lastmile_qr_scan", "android": "https://dc.lft.to/lastmile_qr_scan"}, "lon": -77.02952083333334, "type": "electric_scooter"}, {"bike_id": "6639bddc12a4a3cb805b3b61f2dcdc54", "is_reserved": 0, "fusion_lon": 0.0, "lat": 38.839869166666666, "is_disabled": 0, "name": "6639bddc12a4a3cb805b3b61f2dcdc54", "fusion_lat": 0.0, "rental_uris": {"ios": "https://dc.lft.to/lastmile_qr_scan", "android": "https://dc.lft.to/lastmile_qr_scan"}, "lon": -77.005654, "type": "electric_bike"}, {"bike_id": "f01877cc10927d3a2579b45451331d8e", "is_reserved": 0, "fusion_lon": 0.0, "lat": 38.88133, "is_disabled": 0, "name": "f01877cc10927d3a2579b45451331d8e", "fusion_lat": 0.0, "rental_uris": {"ios": "https://dc.lft.to/lastmile_qr_scan", "android": "https://dc.lft.to/lastmile_qr_scan"}, "lon": -76.9809205, "type": "electric_bike"}, {"bike_id": "1243a7ee3c3a95a4b378a097be85e6c8", "is_reserved": 0, "fusion_lon": 0.0, "lat": 38.894906666666664, "is_disabled": 0, "name": "1243a7ee3c3a95a4b378a097be85e6c8", "fusion_lat": 0.0, "rental_uris": {"ios": "https://dc.lft.to/lastmile_qr_scan", "android": "https://dc.lft.to/lastmile_qr_scan"}, "lon": -77.02298283333333, "type": "electric_scooter"}, {"bike_id": "03212aff31ba08d98bed51b1be7af8c1", "is_reserved": 0, "fusion_lon": 0.0, "lat": 38.93861833333333, "is_disabled": 0, "name": "03212aff31ba08d98bed51b1be7af8c1", "fusion_lat": 0.0, "rental_uris": {"ios": "https://dc.lft.to/lastmile_qr_scan", "android": "https://dc.lft.to/lastmile_qr_scan"}, "lon": -77.02645416666667, "type": "electric_scooter"}, {"bike_id": "325a2854994ccea9efba2b8ace031f7f", "is_reserved": 0, "fusion_lon": 0.0, "lat": 38.89253516666667, "is_disabled": 0, "name": "325a2854994ccea9efba2b8ace031f7f", "fusion_lat": 0.0, "rental_uris": {"ios": "https://dc.lft.to/lastmile_qr_scan", "android": "https://dc.lft.to/lastmile_qr_scan"}, "lon": -76.9433785, "type": "electric_scooter"}, {"bike_id": "f4b8956904b7a4ac16f61cfc4d5a55aa", "is_reserved": 0, "fusion_lon": 0.0, "lat": 38.884538666666664, "is_disabled": 0, "name": "f4b8956904b7a4ac16f61cfc4d5a55aa", "fusion_lat": 0.0, "rental_uris": {"ios": "https://dc.lft.to/lastmile_qr_scan", "android": "https://dc.lft.to/lastmile_qr_scan"}, "lon": -77.005793, "type": "electric_scooter"}, {"bike_id": "d63d08b29db0fb48a9c4c529b245c32c", "is_reserved": 0, "fusion_lon": 0.0, "lat": 38.966173166666664, "is_disabled": 0, "name": "d63d08b29db0fb48a9c4c529b245c32c", "fusion_lat": 0.0, "rental_uris": {"ios": "https://dc.lft.to/lastmile_qr_scan", "android": "https://dc.lft.to/lastmile_qr_scan"}, "lon": -76.9442305, "type": "electric_bike"}, {"bike_id": "4bb9c6de9de1abb6e333888f10a118f5", "is_reserved": 0, "fusion_lon": 0.0, "lat": 38.90370766666667, "is_disabled": 0, "name": "4bb9c6de9de1abb6e333888f10a118f5", "fusion_lat": 0.0, "rental_uris": {"ios": "https://dc.lft.to/lastmile_qr_scan", "android": "https://dc.lft.to/lastmile_qr_scan"}, "lon": -76.980897, "type": "electric_bike"}, {"bike_id": "93351b0b04b39d006e1322ab7da413ce", "is_reserved": 0, "fusion_lon": 0.0, "lat": 38.8899405, "is_disabled": 0, "name": "93351b0b04b39d006e1322ab7da413ce", "fusion_lat": 0.0, "rental_uris": {"ios": "https://dc.lft.to/lastmile_qr_scan", "android": "https://dc.lft.to/lastmile_qr_scan"}, "lon": -77.003485, "type": "electric_scooter"}, {"bike_id": "e9e51a9fca36dde363a73b3f8b13daf0", "is_reserved": 0, "fusion_lon": 0.0, "lat": 38.90392116666666, "is_disabled": 0, "name": "e9e51a9fca36dde363a73b3f8b13daf0", "fusion_lat": 0.0, "rental_uris": {"ios": "https://dc.lft.to/lastmile_qr_scan", "android": "https://dc.lft.to/lastmile_qr_scan"}, "lon": -77.03854683333333, "type": "electric_scooter"}, {"bike_id": "a0f27dd84b4042fdeeb0151050dbdeeb", "is_reserved": 0, "fusion_lon": 0.0, "lat": 38.902683333333336, "is_disabled": 0, "name": "a0f27dd84b4042fdeeb0151050dbdeeb", "fusion_lat": 0.0, "rental_uris": {"ios": "https://dc.lft.to/lastmile_qr_scan", "android": "https://dc.lft.to/lastmile_qr_scan"}, "lon": -77.0394115, "type": "electric_scooter"}, {"bike_id": "f70c28100ee262af49d4cc23f153ebb6", "is_reserved": 0, "fusion_lon": 0.0, "lat": 38.91925633333334, "is_disabled": 0, "name": "f70c28100ee262af49d4cc23f153ebb6", "fusion_lat": 0.0, "rental_uris": {"ios": "https://dc.lft.to/lastmile_qr_scan", "android": "https://dc.lft.to/lastmile_qr_scan"}, "lon": -77.03170033333333, "type": "electric_scooter"}, {"bike_id": "faa6175e02348d0624383568be7502ad", "is_reserved": 0, "fusion_lon": 0.0, "lat": 38.905355, "is_disabled": 0, "name": "faa6175e02348d0624383568be7502ad", "fusion_lat": 0.0, "rental_uris": {"ios": "https://dc.lft.to/lastmile_qr_scan", "android": "https://dc.lft.to/lastmile_qr_scan"}, "lon": -77.05972416666667, "type": "electric_scooter"}, {"bike_id": "66ff50367d0131a70b7db9202dce6b1e", "is_reserved": 0, "fusion_lon": 0.0, "lat": 38.95357466666667, "is_disabled": 0, "name": "66ff50367d0131a70b7db9202dce6b1e", "fusion_lat": 0.0, "rental_uris": {"ios": "https://dc.lft.to/lastmile_qr_scan", "android": "https://dc.lft.to/lastmile_qr_scan"}, "lon": -76.98093883333334, "type": "electric_bike"}, {"bike_id": "fec2844b4e67cf8ff999c6b451373fc1", "is_reserved": 0, "fusion_lon": 0.0, "lat": 38.897642833333336, "is_disabled": 0, "name": "fec2844b4e67cf8ff999c6b451373fc1", "fusion_lat": 0.0, "rental_uris": {"ios": "https://dc.lft.to/lastmile_qr_scan", "android": "https://dc.lft.to/lastmile_qr_scan"}, "lon": -77.0336615, "type": "electric_scooter"}, {"bike_id": "68f0d5cd9ecafeab59fa1d4f427b41ac", "is_reserved": 0, "fusion_lon": 0.0, "lat": 38.87147566666667, "is_disabled": 0, "name": "68f0d5cd9ecafeab59fa1d4f427b41ac", "fusion_lat": 0.0, "rental_uris": {"ios": "https://dc.lft.to/lastmile_qr_scan", "android": "https://dc.lft.to/lastmile_qr_scan"}, "lon": -76.93668683333334, "type": "electric_bike"}, {"bike_id": "4d982506ed9f919c860b502092e760ca", "is_reserved": 0, "fusion_lon": 0.0, "lat": 38.90739083333333, "is_disabled": 0, "name": "4d982506ed9f919c860b502092e760ca", "fusion_lat": 0.0, "rental_uris": {"ios": "https://dc.lft.to/lastmile_qr_scan", "android": "https://dc.lft.to/lastmile_qr_scan"}, "lon": -77.00754366666666, "type": "electric_scooter"}, {"bike_id": "82a911d2b78987c23626abb2f6ed2454", "is_reserved": 0, "fusion_lon": 0.0, "lat": 38.8766075, "is_disabled": 0, "name": "82a911d2b78987c23626abb2f6ed2454", "fusion_lat": 0.0, "rental_uris": {"ios": "https://dc.lft.to/lastmile_qr_scan", "android": "https://dc.lft.to/lastmile_qr_scan"}, "lon": -77.00070916666667, "type": "electric_scooter"}, {"bike_id": "1c5f3c09bb20cdf762a42767c69f77e1", "is_reserved": 0, "fusion_lon": 0.0, "lat": 38.9042185, "is_disabled": 0, "name": "1c5f3c09bb20cdf762a42767c69f77e1", "fusion_lat": 0.0, "rental_uris": {"ios": "https://dc.lft.to/lastmile_qr_scan", "android": "https://dc.lft.to/lastmile_qr_scan"}, "lon": -77.03858766666667, "type": "electric_scooter"}, {"bike_id": "ce706ae4482455c69adbf9f9ccca7e07", "is_reserved": 0, "fusion_lon": 0.0, "lat": 38.94269116666667, "is_disabled": 0, "name": "ce706ae4482455c69adbf9f9ccca7e07", "fusion_lat": 0.0, "rental_uris": {"ios": "https://dc.lft.to/lastmile_qr_scan", "android": "https://dc.lft.to/lastmile_qr_scan"}, "lon": -76.98070083333333, "type": "electric_bike"}, {"bike_id": "58f883926cef7475d589f80298a3d074", "is_reserved": 0, "fusion_lon": 0.0, "lat": 38.90316033333333, "is_disabled": 0, "name": "58f883926cef7475d589f80298a3d074", "fusion_lat": 0.0, "rental_uris": {"ios": "https://dc.lft.to/lastmile_qr_scan", "android": "https://dc.lft.to/lastmile_qr_scan"}, "lon": -77.03452533333333, "type": "electric_scooter"}, {"bike_id": "9e95ca470fa476b9644b38e1ecb29211", "is_reserved": 0, "fusion_lon": 0.0, "lat": 38.8921955, "is_disabled": 0, "name": "9e95ca470fa476b9644b38e1ecb29211", "fusion_lat": 0.0, "rental_uris": {"ios": "https://dc.lft.to/lastmile_qr_scan", "android": "https://dc.lft.to/lastmile_qr_scan"}, "lon": -77.02628283333334, "type": "electric_scooter"}, {"bike_id": "b1780e519946037887d1d01615c629b7", "is_reserved": 0, "fusion_lon": 0.0, "lat": 38.88313133333333, "is_disabled": 0, "name": "b1780e519946037887d1d01615c629b7", "fusion_lat": 0.0, "rental_uris": {"ios": "https://dc.lft.to/lastmile_qr_scan", "android": "https://dc.lft.to/lastmile_qr_scan"}, "lon": -77.00936483333334, "type": "electric_scooter"}, {"bike_id": "34b8547a9271b2ae788ff0df3eea8755", "is_reserved": 0, "fusion_lon": 0.0, "lat": 38.93450566666667, "is_disabled": 0, "name": "34b8547a9271b2ae788ff0df3eea8755", "fusion_lat": 0.0, "rental_uris": {"ios": "https://dc.lft.to/lastmile_qr_scan", "android": "https://dc.lft.to/lastmile_qr_scan"}, "lon": -77.07233533333333, "type": "electric_scooter"}, {"bike_id": "91fd2c2171247b97955382ebf0e74265", "is_reserved": 0, "fusion_lon": 0.0, "lat": 38.894702333333335, "is_disabled": 0, "name": "91fd2c2171247b97955382ebf0e74265", "fusion_lat": 0.0, "rental_uris": {"ios": "https://dc.lft.to/lastmile_qr_scan", "android": "https://dc.lft.to/lastmile_qr_scan"}, "lon": -77.01753666666667, "type": "electric_scooter"}, {"bike_id": "a288702a175ac43bac21ac0461c0e227", "is_reserved": 0, "fusion_lon": 0.0, "lat": 38.90567633333333, "is_disabled": 0, "name": "a288702a175ac43bac21ac0461c0e227", "fusion_lat": 0.0, "rental_uris": {"ios": "https://dc.lft.to/lastmile_qr_scan", "android": "https://dc.lft.to/lastmile_qr_scan"}, "lon": -77.03829266666666, "type": "electric_scooter"}, {"bike_id": "12a63aaf08d0ddef9bff32bdbd42ec67", "is_reserved": 0, "fusion_lon": 0.0, "lat": 38.89896783333333, "is_disabled": 0, "name": "12a63aaf08d0ddef9bff32bdbd42ec67", "fusion_lat": 0.0, "rental_uris": {"ios": "https://dc.lft.to/lastmile_qr_scan", "android": "https://dc.lft.to/lastmile_qr_scan"}, "lon": -77.03285316666667, "type": "electric_scooter"}, {"bike_id": "55a9a0e8038a30b5a801d2dc370255cd", "is_reserved": 0, "fusion_lon": 0.0, "lat": 38.8935525, "is_disabled": 0, "name": "55a9a0e8038a30b5a801d2dc370255cd", "fusion_lat": 0.0, "rental_uris": {"ios": "https://dc.lft.to/lastmile_qr_scan", "android": "https://dc.lft.to/lastmile_qr_scan"}, "lon": -77.00330716666667, "type": "electric_scooter"}, {"bike_id": "113666ea67c80de5b7eaa431b9c45113", "is_reserved": 0, "fusion_lon": 0.0, "lat": 38.909673833333336, "is_disabled": 0, "name": "113666ea67c80de5b7eaa431b9c45113", "fusion_lat": 0.0, "rental_uris": {"ios": "https://dc.lft.to/lastmile_qr_scan", "android": "https://dc.lft.to/lastmile_qr_scan"}, "lon": -77.02274616666666, "type": "electric_scooter"}, {"bike_id": "a645cf918c1640d1c0381fc69fd0e469", "is_reserved": 0, "fusion_lon": 0.0, "lat": 38.8952925, "is_disabled": 0, "name": "a645cf918c1640d1c0381fc69fd0e469", "fusion_lat": 0.0, "rental_uris": {"ios": "https://dc.lft.to/lastmile_qr_scan", "android": "https://dc.lft.to/lastmile_qr_scan"}, "lon": -76.94890583333333, "type": "electric_scooter"}, {"bike_id": "daf2403a18c6c903fcdc0feb6c5f235a", "is_reserved": 0, "fusion_lon": 0.0, "lat": 38.92850166666667, "is_disabled": 0, "name": "daf2403a18c6c903fcdc0feb6c5f235a", "fusion_lat": 0.0, "rental_uris": {"ios": "https://dc.lft.to/lastmile_qr_scan", "android": "https://dc.lft.to/lastmile_qr_scan"}, "lon": -77.10675433333333, "type": "electric_bike"}, {"bike_id": "b5a8ce185459b6983599968fb793f845", "is_reserved": 0, "fusion_lon": 0.0, "lat": 38.923552666666666, "is_disabled": 0, "name": "b5a8ce185459b6983599968fb793f845", "fusion_lat": 0.0, "rental_uris": {"ios": "https://dc.lft.to/lastmile_qr_scan", "android": "https://dc.lft.to/lastmile_qr_scan"}, "lon": -77.0523055, "type": "electric_scooter"}, {"bike_id": "c0044e90dd584a1f63fa0c4a4f641fd1", "is_reserved": 0, "fusion_lon": 0.0, "lat": 38.924085833333336, "is_disabled": 0, "name": "c0044e90dd584a1f63fa0c4a4f641fd1", "fusion_lat": 0.0, "rental_uris": {"ios": "https://dc.lft.to/lastmile_qr_scan", "android": "https://dc.lft.to/lastmile_qr_scan"}, "lon": -77.05265133333333, "type": "electric_scooter"}, {"bike_id": "1a8888a4cf4b30dfd3584df2fc0af7ab", "is_reserved": 0, "fusion_lon": 0.0, "lat": 38.90614383333333, "is_disabled": 0, "name": "1a8888a4cf4b30dfd3584df2fc0af7ab", "fusion_lat": 0.0, "rental_uris": {"ios": "https://dc.lft.to/lastmile_qr_scan", "android": "https://dc.lft.to/lastmile_qr_scan"}, "lon": -77.0651385, "type": "electric_scooter"}, {"bike_id": "7da74923dede70cfa6c79dd0f9618bc2", "is_reserved": 0, "fusion_lon": 0.0, "lat": 38.884048166666666, "is_disabled": 0, "name": "7da74923dede70cfa6c79dd0f9618bc2", "fusion_lat": 0.0, "rental_uris": {"ios": "https://dc.lft.to/lastmile_qr_scan", "android": "https://dc.lft.to/lastmile_qr_scan"}, "lon": -77.02386933333334, "type": "electric_scooter"}, {"bike_id": "f846477a78f2b115adc6bb8c7d139a93", "is_reserved": 0, "fusion_lon": 0.0, "lat": 38.925607666666664, "is_disabled": 0, "name": "f846477a78f2b115adc6bb8c7d139a93", "fusion_lat": 0.0, "rental_uris": {"ios": "https://dc.lft.to/lastmile_qr_scan", "android": "https://dc.lft.to/lastmile_qr_scan"}, "lon": -77.04042166666666, "type": "electric_scooter"}, {"bike_id": "764998e72efbe3da7bc84a14e4d966b0", "is_reserved": 0, "fusion_lon": 0.0, "lat": 38.91533283333333, "is_disabled": 0, "name": "764998e72efbe3da7bc84a14e4d966b0", "fusion_lat": 0.0, "rental_uris": {"ios": "https://dc.lft.to/lastmile_qr_scan", "android": "https://dc.lft.to/lastmile_qr_scan"}, "lon": -77.04473833333333, "type": "electric_scooter"}, {"bike_id": "36bb9a5296b9cd26032277f0c2ebd353", "is_reserved": 0, "fusion_lon": 0.0, "lat": 38.88769166666667, "is_disabled": 0, "name": "36bb9a5296b9cd26032277f0c2ebd353", "fusion_lat": 0.0, "rental_uris": {"ios": "https://dc.lft.to/lastmile_qr_scan", "android": "https://dc.lft.to/lastmile_qr_scan"}, "lon": -77.03014483333334, "type": "electric_scooter"}, {"bike_id": "871fb240595824408660e0e2d1fedd97", "is_reserved": 0, "fusion_lon": 0.0, "lat": 38.90263866666667, "is_disabled": 0, "name": "871fb240595824408660e0e2d1fedd97", "fusion_lat": 0.0, "rental_uris": {"ios": "https://dc.lft.to/lastmile_qr_scan", "android": "https://dc.lft.to/lastmile_qr_scan"}, "lon": -77.02997566666667, "type": "electric_scooter"}, {"bike_id": "0e34ff44d2b04c9994c1aaf85f287d7a", "is_reserved": 0, "fusion_lon": 0.0, "lat": 38.909509666666665, "is_disabled": 0, "name": "0e34ff44d2b04c9994c1aaf85f287d7a", "fusion_lat": 0.0, "rental_uris": {"ios": "https://dc.lft.to/lastmile_qr_scan", "android": "https://dc.lft.to/lastmile_qr_scan"}, "lon": -77.04654616666667, "type": "electric_scooter"}, {"bike_id": "e5f4727a0dc35141c05a28253b72ff36", "is_reserved": 0, "fusion_lon": 0.0, "lat": 38.948242666666665, "is_disabled": 0, "name": "e5f4727a0dc35141c05a28253b72ff36", "fusion_lat": 0.0, "rental_uris": {"ios": "https://dc.lft.to/lastmile_qr_scan", "android": "https://dc.lft.to/lastmile_qr_scan"}, "lon": -77.0243325, "type": "electric_scooter"}, {"bike_id": "ba3e8752bfbfd8d3022ba0a5e2d6c973", "is_reserved": 0, "fusion_lon": 0.0, "lat": 38.907194833333335, "is_disabled": 0, "name": "ba3e8752bfbfd8d3022ba0a5e2d6c973", "fusion_lat": 0.0, "rental_uris": {"ios": "https://dc.lft.to/lastmile_qr_scan", "android": "https://dc.lft.to/lastmile_qr_scan"}, "lon": -77.039216, "type": "electric_scooter"}, {"bike_id": "cfef591f80787497efee02bc900c1d37", "is_reserved": 0, "fusion_lon": 0.0, "lat": 38.89893816666667, "is_disabled": 0, "name": "cfef591f80787497efee02bc900c1d37", "fusion_lat": 0.0, "rental_uris": {"ios": "https://dc.lft.to/lastmile_qr_scan", "android": "https://dc.lft.to/lastmile_qr_scan"}, "lon": -77.03960583333334, "type": "electric_scooter"}, {"bike_id": "e3cba50333e4cca62fee8147d2d28bbe", "is_reserved": 0, "fusion_lon": 0.0, "lat": 38.915705833333334, "is_disabled": 0, "name": "e3cba50333e4cca62fee8147d2d28bbe", "fusion_lat": 0.0, "rental_uris": {"ios": "https://dc.lft.to/lastmile_qr_scan", "android": "https://dc.lft.to/lastmile_qr_scan"}, "lon": -77.03847433333334, "type": "electric_scooter"}, {"bike_id": "05bbfac4a48681879571f7d68c1c8ade", "is_reserved": 0, "fusion_lon": 0.0, "lat": 38.908613333333335, "is_disabled": 0, "name": "05bbfac4a48681879571f7d68c1c8ade", "fusion_lat": 0.0, "rental_uris": {"ios": "https://dc.lft.to/lastmile_qr_scan", "android": "https://dc.lft.to/lastmile_qr_scan"}, "lon": -76.94005483333333, "type": "electric_bike"}, {"bike_id": "afec679ec66433a2129a443b192b6f14", "is_reserved": 0, "fusion_lon": 0.0, "lat": 38.891946, "is_disabled": 0, "name": "afec679ec66433a2129a443b192b6f14", "fusion_lat": 0.0, "rental_uris": {"ios": "https://dc.lft.to/lastmile_qr_scan", "android": "https://dc.lft.to/lastmile_qr_scan"}, "lon": -77.02218566666667, "type": "electric_scooter"}, {"bike_id": "4713b12509ba0e4cee10b647f57af5ed", "is_reserved": 0, "fusion_lon": 0.0, "lat": 38.9267775, "is_disabled": 0, "name": "4713b12509ba0e4cee10b647f57af5ed", "fusion_lat": 0.0, "rental_uris": {"ios": "https://dc.lft.to/lastmile_qr_scan", "android": "https://dc.lft.to/lastmile_qr_scan"}, "lon": -77.095588, "type": "electric_scooter"}, {"bike_id": "c772c1c886503a5c0dbffd810077b55e", "is_reserved": 0, "fusion_lon": 0.0, "lat": 38.93595666666667, "is_disabled": 0, "name": "c772c1c886503a5c0dbffd810077b55e", "fusion_lat": 0.0, "rental_uris": {"ios": "https://dc.lft.to/lastmile_qr_scan", "android": "https://dc.lft.to/lastmile_qr_scan"}, "lon": -77.0559355, "type": "electric_scooter"}, {"bike_id": "458ea0db89acc8b6c19e674502f5a931", "is_reserved": 0, "fusion_lon": 0.0, "lat": 38.891948, "is_disabled": 0, "name": "458ea0db89acc8b6c19e674502f5a931", "fusion_lat": 0.0, "rental_uris": {"ios": "https://dc.lft.to/lastmile_qr_scan", "android": "https://dc.lft.to/lastmile_qr_scan"}, "lon": -77.0238275, "type": "electric_scooter"}, {"bike_id": "c8a895a6e9d278256f7a7ba42e29fa01", "is_reserved": 0, "fusion_lon": 0.0, "lat": 38.89845283333333, "is_disabled": 0, "name": "c8a895a6e9d278256f7a7ba42e29fa01", "fusion_lat": 0.0, "rental_uris": {"ios": "https://dc.lft.to/lastmile_qr_scan", "android": "https://dc.lft.to/lastmile_qr_scan"}, "lon": -77.04326266666666, "type": "electric_scooter"}, {"bike_id": "a2654b0f99af1b04ea5bfb780264146e", "is_reserved": 0, "fusion_lon": 0.0, "lat": 38.87705483333333, "is_disabled": 0, "name": "a2654b0f99af1b04ea5bfb780264146e", "fusion_lat": 0.0, "rental_uris": {"ios": "https://dc.lft.to/lastmile_qr_scan", "android": "https://dc.lft.to/lastmile_qr_scan"}, "lon": -77.01730316666666, "type": "electric_scooter"}, {"bike_id": "9d3faff18d978fe068a419e3b9b3d83d", "is_reserved": 0, "fusion_lon": 0.0, "lat": 38.940653833333336, "is_disabled": 0, "name": "9d3faff18d978fe068a419e3b9b3d83d", "fusion_lat": 0.0, "rental_uris": {"ios": "https://dc.lft.to/lastmile_qr_scan", "android": "https://dc.lft.to/lastmile_qr_scan"}, "lon": -76.99462966666667, "type": "electric_scooter"}, {"bike_id": "0625da9d4ea1f1b906445fd91796fb77", "is_reserved": 0, "fusion_lon": 0.0, "lat": 38.92230766666667, "is_disabled": 0, "name": "0625da9d4ea1f1b906445fd91796fb77", "fusion_lat": 0.0, "rental_uris": {"ios": "https://dc.lft.to/lastmile_qr_scan", "android": "https://dc.lft.to/lastmile_qr_scan"}, "lon": -77.03356916666667, "type": "electric_scooter"}, {"bike_id": "b317b5d07998e1a1915e6d9b68f7fea9", "is_reserved": 0, "fusion_lon": 0.0, "lat": 38.90342166666667, "is_disabled": 0, "name": "b317b5d07998e1a1915e6d9b68f7fea9", "fusion_lat": 0.0, "rental_uris": {"ios": "https://dc.lft.to/lastmile_qr_scan", "android": "https://dc.lft.to/lastmile_qr_scan"}, "lon": -77.037853, "type": "electric_scooter"}, {"bike_id": "c07aa149b959d4434c341330f2912aff", "is_reserved": 0, "fusion_lon": 0.0, "lat": 38.909588666666664, "is_disabled": 0, "name": "c07aa149b959d4434c341330f2912aff", "fusion_lat": 0.0, "rental_uris": {"ios": "https://dc.lft.to/lastmile_qr_scan", "android": "https://dc.lft.to/lastmile_qr_scan"}, "lon": -77.03166166666666, "type": "electric_scooter"}, {"bike_id": "b06c17ef42bfef563ef6c9ac29a8d6d9", "is_reserved": 0, "fusion_lon": 0.0, "lat": 38.9018015, "is_disabled": 0, "name": "b06c17ef42bfef563ef6c9ac29a8d6d9", "fusion_lat": 0.0, "rental_uris": {"ios": "https://dc.lft.to/lastmile_qr_scan", "android": "https://dc.lft.to/lastmile_qr_scan"}, "lon": -77.02081483333333, "type": "electric_scooter"}, {"bike_id": "a76dde344b722d0d84888ab05d2f2a3c", "is_reserved": 0, "fusion_lon": 0.0, "lat": 38.892223, "is_disabled": 0, "name": "a76dde344b722d0d84888ab05d2f2a3c", "fusion_lat": 0.0, "rental_uris": {"ios": "https://dc.lft.to/lastmile_qr_scan", "android": "https://dc.lft.to/lastmile_qr_scan"}, "lon": -77.039801, "type": "electric_scooter"}, {"bike_id": "e0a9d546428eabdc180ab183fe7f945c", "is_reserved": 0, "fusion_lon": 0.0, "lat": 38.91872633333333, "is_disabled": 0, "name": "e0a9d546428eabdc180ab183fe7f945c", "fusion_lat": 0.0, "rental_uris": {"ios": "https://dc.lft.to/lastmile_qr_scan", "android": "https://dc.lft.to/lastmile_qr_scan"}, "lon": -77.04371233333333, "type": "electric_scooter"},