{"data": {"bikes": [{"is_reserved": 0, "fusion_lon": 0.0, "fusion_lat": 0.0, "name": "c1dabed3ceda3ddcbfba058e3889675a", "type": "electric_scooter", "is_disabled": 0, "lat": 38.90413383333333, "rental_uris": {"android": "https://dc.lft.to/lastmile_qr_scan", "ios": "https://dc.lft.to/lastmile_qr_scan"}, "bike_id": "c1dabed3ceda3ddcbfba058e3889675a", "lon": -76.97330066666666}, {"is_reserved": 0, "fusion_lon": 0.0, "fusion_lat": 0.0, "name": "45ba2b08f77088f4425ed0ec76e25db3", "type": "electric_bike", "is_disabled": 0, "lat": 38.88249033333334, "rental_uris": {"android": "https://dc.lft.to/lastmile_qr_scan", "ios": "https://dc.lft.to/lastmile_qr_scan"}, "bike_id": "45ba2b08f77088f4425ed0ec76e25db3", "lon": -76.962609}, {"is_reserved": 0, "fusion_lon": 0.0, "fusion_lat": 0.0, "name": "1be39f2ee6eb1d984b13eaaf1b57b31f", "type": "electric_bike", "is_disabled": 0, "lat": 38.96144683333333, "rental_uris": {"android": "https://dc.lft.to/lastmile_qr_scan", "ios": "https://dc.lft.to/lastmile_qr_scan"}, "bike_id": "1be39f2ee6eb1d984b13eaaf1b57b31f", "lon": -77.02369783333333}, {"is_reserved": 0, "fusion_lon": 0.0, "fusion_lat": 0.0, "name": "499e510ef533533d9aa6d39825f1c9a0", "type": "electric_scooter", "is_disabled": 0, "lat": 38.9152915, "rental_uris": {"android": "https://dc.lft.to/lastmile_qr_scan", "ios": "https://dc.lft.to/lastmile_qr_scan"}, "bike_id": "499e510ef533533d9aa6d39825f1c9a0", "lon": -77.0447405}, {"is_reserved": 0, "fusion_lon": 0.0, "fusion_lat": 0.0, "name": "6e751a4def1616a2819b62ba046e04e4", "type": "electric_scooter", "is_disabled": 0, "lat": 38.88399366666667, "rental_uris": {"android": "https://dc.lft.to/lastmile_qr_scan", "ios": "https://dc.lft.to/lastmile_qr_scan"}, "bike_id": "6e751a4def1616a2819b62ba046e04e4", "lon": -77.02589033333334}, {"is_reserved": 0, "fusion_lon": 0.0, "fusion_lat": 0.0, "name": "cac3e6a3325e3317e6d8c4edf3ba5e9a", "type": "electric_scooter", "is_disabled": 0, "lat": 38.90684516666666, "rental_uris": {"android": "https://dc.lft.to/lastmile_qr_scan", "ios": "https://dc.lft.to/lastmile_qr_scan"}, "bike_id": "cac3e6a3325e3317e6d8c4edf3ba5e9a", "lon": -77.043327}, {"is_reserved": 0, "fusion_lon": 0.0, "fusion_lat": 0.0, "name": "d9b7665f76e476c58d979c68896dd5bd", "type": "electric_bike", "is_disabled": 0, "lat": 38.959639333333335, "rental_uris": {"android": "https://dc.lft.to/lastmile_qr_scan", "ios": "https://dc.lft.to/lastmile_qr_scan"}, "bike_id": "d9b7665f76e476c58d979c68896dd5bd", "lon": -77.03056583333333}, {"is_reserved": 0, "fusion_lon": 0.0, "fusion_lat": 0.0, "name": "98c2b2f9afa056c8b8812ea3b2774f04", "type": "electric_scooter", "is_disabled": 0, "lat": 38.91845683333333, "rental_uris": {"android": "https://dc.lft.to/lastmile_qr_scan", "ios": "https://dc.lft.to/lastmile_qr_scan"}, "bike_id": "98c2b2f9afa056c8b8812ea3b2774f04", "lon": -77.05949483333333}, {"is_reserved": 0, "fusion_lon": 0.0, "fusion_lat": 0.0, "name": "1728b5df05b055248afe1d395403f62f", "type": "electric_scooter", "is_disabled": 0, "lat": 38.971873333333335, "rental_uris": {"android": "https://dc.lft.to/lastmile_qr_scan", "ios": "https://dc.lft.to/lastmile_qr_scan"}, "bike_id": "1728b5df05b055248afe1d395403f62f", "lon": -77.02678366666666}, {"is_reserved": 0, "fusion_lon": 0.0, "fusion_lat": 0.0, "name": "f28b2694ad31c0adec44d8322fb7a927", "type": "electric_scooter", "is_disabled": 0, "lat": 38.9157115, "rental_uris": {"android": "https://dc.lft.to/lastmile_qr_scan", "ios": "https://dc.lft.to/lastmile_qr_scan"}, "bike_id": "f28b2694ad31c0adec44d8322fb7a927", "lon": -77.03180533333334}, {"is_reserved": 0, "fusion_lon": 0.0, "fusion_lat": 0.0, "name": "1057fd4ac7c6c904b6f7495d103d8b58", "type": "electric_scooter", "is_disabled": 0, "lat": 38.892233, "rental_uris": {"android": "https://dc.lft.to/lastmile_qr_scan", "ios": "https://dc.lft.to/lastmile_qr_scan"}, "bike_id": "1057fd4ac7c6c904b6f7495d103d8b58", "lon": -77.0316425}, {"is_reserved": 0, "fusion_lon": 0.0, "fusion_lat": 0.0, "name": "f96f67e2ba0b9d7a4beccca061b946d8", "type": "electric_scooter", "is_disabled": 0, "lat": 38.894872, "rental_uris": {"android": "https://dc.lft.to/lastmile_qr_scan", "ios": "https://dc.lft.to/lastmile_qr_scan"}, "bike_id": "f96f67e2ba0b9d7a4beccca061b946d8", "lon": -77.02301616666666}, {"is_reserved": 0, "fusion_lon": 0.0, "fusion_lat": 0.0, "name": "406ddc126f28b32364273bf27d9e3526", "type": "electric_scooter", "is_disabled": 0, "lat": 38.905390833333335, "rental_uris": {"android": "https://dc.lft.to/lastmile_qr_scan", "ios": "https://dc.lft.to/lastmile_qr_scan"}, "bike_id": "406ddc126f28b32364273bf27d9e3526", "lon": -77.050217}, {"is_reserved": 0, "fusion_lon": 0.0, "fusion_lat": 0.0, "name": "8264f389af9153bb11e4afcd84f98089", "type": "electric_scooter", "is_disabled": 0, "lat": 38.8896405, "rental_uris": {"android": "https://dc.lft.to/lastmile_qr_scan", "ios": "https://dc.lft.to/lastmile_qr_scan"}, "bike_id": "8264f389af9153bb11e4afcd84f98089", "lon": -76.93705616666666}, {"is_reserved": 0, "fusion_lon": 0.0, "fusion_lat": 0.0, "name": "c26681f29713a0989ac78ce14df3fd89", "type": "electric_scooter", "is_disabled": 0, "lat": 38.92444016666666, "rental_uris": {"android": "https://dc.lft.to/lastmile_qr_scan", "ios": "https://dc.lft.to/lastmile_qr_scan"}, "bike_id": "c26681f29713a0989ac78ce14df3fd89", "lon": -77.02149233333333}, {"is_reserved": 0, "fusion_lon": 0.0, "fusion_lat": 0.0, "name": "e6c67bab6536e1169b61dda2b6ccc213", "type": "electric_scooter", "is_disabled": 0, "lat": 38.9217355, "rental_uris": {"android": "https://dc.lft.to/lastmile_qr_scan", "ios": "https://dc.lft.to/lastmile_qr_scan"}, "bike_id": "e6c67bab6536e1169b61dda2b6ccc213", "lon": -77.02092033333334}, {"is_reserved": 0, "fusion_lon": 0.0, "fusion_lat": 0.0, "name": "f0255cff40deaa0837d3c1a93aebba91", "type": "electric_scooter", "is_disabled": 0, "lat": 38.92752733333333, "rental_uris": {"android": "https://dc.lft.to/lastmile_qr_scan", "ios": "https://dc.lft.to/lastmile_qr_scan"}, "bike_id": "f0255cff40deaa0837d3c1a93aebba91", "lon": -77.02150666666667}, {"is_reserved": 0, "fusion_lon": 0.0, "fusion_lat": 0.0, "name": "6a631a66793e064953f8510c7e9b3b50", "type": "electric_scooter", "is_disabled": 0, "lat": 38.90876266666667, "rental_uris": {"android": "https://dc.lft.to/lastmile_qr_scan", "ios": "https://dc.lft.to/lastmile_qr_scan"}, "bike_id": "6a631a66793e064953f8510c7e9b3b50", "lon": -77.07163766666666}, {"is_reserved": 0, "fusion_lon": 0.0, "fusion_lat": 0.0, "name": "fd16eec209dfc82c4d6b252fa989b732", "type": "electric_scooter", "is_disabled": 0, "lat": 38.9182475, "rental_uris": {"android": "https://dc.lft.to/lastmile_qr_scan", "ios": "https://dc.lft.to/lastmile_qr_scan"}, "bike_id": "fd16eec209dfc82c4d6b252fa989b732", "lon": -77.03456916666667}, {"is_reserved": 0, "fusion_lon": 0.0, "fusion_lat": 0.0, "name": "f756ba248cf4a3a4cd2df087a13375fb", "type": "electric_scooter", "is_disabled": 0, "lat": 38.91700083333333, "rental_uris": {"android": "https://dc.lft.to/lastmile_qr_scan", "ios": "https://dc.lft.to/lastmile_qr_scan"}, "bike_id": "f756ba248cf4a3a4cd2df087a13375fb", "lon": -77.04605733333334}, {"is_reserved": 0, "fusion_lon": 0.0, "fusion_lat": 0.0, "name": "fd6fd18c8fbeb0b8b2e8eb1d07e2409a", "type": "electric_scooter", "is_disabled": 0, "lat": 38.851760166666665, "rental_uris": {"android": "https://dc.lft.to/lastmile_qr_scan", "ios": "https://dc.lft.to/lastmile_qr_scan"}, "bike_id": "fd6fd18c8fbeb0b8b2e8eb1d07e2409a", "lon": -76.99586016666666}, {"is_reserved": 0, "fusion_lon": 0.0, "fusion_lat": 0.0, "name": "11206eb8590b4eb38c7c2647596052bf", "type": "electric_scooter", "is_disabled": 0, "lat": 38.90098866666666, "rental_uris": {"android": "https://dc.lft.to/lastmile_qr_scan", "ios": "https://dc.lft.to/lastmile_qr_scan"}, "bike_id": "11206eb8590b4eb38c7c2647596052bf", "lon": -77.02094216666667}, {"is_reserved": 0, "fusion_lon": 0.0, "fusion_lat": 0.0, "name": "a8c32d921ad4cba606c363cd24ae05df", "type": "electric_scooter", "is_disabled": 0, "lat": 38.936151, "rental_uris": {"android": "https://dc.lft.to/lastmile_qr_scan", "ios": "https://dc.lft.to/lastmile_qr_scan"}, "bike_id": "a8c32d921ad4cba606c363cd24ae05df", "lon": -77.03794233333333}, {"is_reserved": 0, "fusion_lon": 0.0, "fusion_lat": 0.0, "name": "0babe78f3e5ff56e5cf9d0a168896a8a", "type": "electric_scooter", "is_disabled": 0, "lat": 38.9205065, "rental_uris": {"android": "https://dc.lft.to/lastmile_qr_scan", "ios": "https://dc.lft.to/lastmile_qr_scan"}, "bike_id": "0babe78f3e5ff56e5cf9d0a168896a8a", "lon": -76.989516}, {"is_reserved": 0, "fusion_lon": 0.0, "fusion_lat": 0.0, "name": "966461c748463de6423ed6358e6c69d9", "type": "electric_scooter", "is_disabled": 0, "lat": 38.917058, "rental_uris": {"android": "https://dc.lft.to/lastmile_qr_scan", "ios": "https://dc.lft.to/lastmile_qr_scan"}, "bike_id": "966461c748463de6423ed6358e6c69d9", "lon": -77.03207933333333}, {"is_reserved": 0, "fusion_lon": 0.0, "fusion_lat": 0.0, "name": "1adbb89427129e0568e6f8dd1090a31e", "type": "electric_bike", "is_disabled": 0, "lat": 38.82950733333333, "rental_uris": {"android": "https://dc.lft.to/lastmile_qr_scan", "ios": "https://dc.lft.to/lastmile_qr_scan"}, "bike_id": "1adbb89427129e0568e6f8dd1090a31e", "lon": -77.12359666666667}, {"is_reserved": 0, "fusion_lon": 0.0, "fusion_lat": 0.0, "name": "731d4b788dbd965c68bf90ac84509103", "type": "electric_scooter", "is_disabled": 0, "lat": 38.9004385, "rental_uris": {"android": "https://dc.lft.to/lastmile_qr_scan", "ios": "https://dc.lft.to/lastmile_qr_scan"}, "bike_id": "731d4b788dbd965c68bf90ac84509103", "lon": -77.039742}, {"is_reserved": 0, "fusion_lon": 0.0, "fusion_lat": 0.0, "name": "04155cc9f8e375cccf73386cf144205c", "type": "electric_scooter", "is_disabled": 0, "lat": 38.9027565, "rental_uris": {"android": "https://dc.lft.to/lastmile_qr_scan", "ios": "https://dc.lft.to/lastmile_qr_scan"}, "bike_id": "04155cc9f8e375cccf73386cf144205c", "lon": -77.0591785}, {"is_reserved": 0, "fusion_lon": 0.0, "fusion_lat": 0.0, "name": "5268f6757a6f8c58193d0d043dbff63d", "type": "electric_scooter", "is_disabled": 0, "lat": 38.9063795, "rental_uris": {"android": "https://dc.lft.to/lastmile_qr_scan", "ios": "https://dc.lft.to/lastmile_qr_scan"}, "bike_id": "5268f6757a6f8c58193d0d043dbff63d", "lon": -77.06917833333333}, {"is_reserved": 0, "fusion_lon": 0.0, "fusion_lat": 0.0, "name": "4573cb683a7771d67e12ec3cc90cbf2f", "type": "electric_scooter", "is_disabled": 0, "lat": 38.905909333333334, "rental_uris": {"android": "https://dc.lft.to/lastmile_qr_scan", "ios": "https://dc.lft.to/lastmile_qr_scan"}, "bike_id": "4573cb683a7771d67e12ec3cc90cbf2f", "lon": -76.993036}, {"is_reserved": 0, "fusion_lon": 0.0, "fusion_lat": 0.0, "name": "b0181f99b5d09d30f1ca346087f33410", "type": "electric_scooter", "is_disabled": 0, "lat": 38.90974683333334, "rental_uris": {"android": "https://dc.lft.to/lastmile_qr_scan", "ios": "https://dc.lft.to/lastmile_qr_scan"}, "bike_id": "b0181f99b5d09d30f1ca346087f33410", "lon": -77.03859266666667}, {"is_reserved": 0, "fusion_lon": 0.0, "fusion_lat": 0.0, "name": "9ac6d34bdc9cb37154aa8d67fc67eff8", "type": "electric_bike", "is_disabled": 0, "lat": 38.87276766666667, "rental_uris": {"android": "https://dc.lft.to/lastmile_qr_scan", "ios": "https://dc.lft.to/lastmile_qr_scan"}, "bike_id": "9ac6d34bdc9cb37154aa8d67fc67eff8", "lon": -77.23333583333333}, {"is_reserved": 0, "fusion_lon": 0.0, "fusion_lat": 0.0, "name": "c9f2575ba3612ddac5d72a62de252fc4", "type": "electric_scooter", "is_disabled": 0, "lat": 38.90575716666667, "rental_uris": {"android": "https://dc.lft.to/lastmile_qr_scan", "ios": "https://dc.lft.to/lastmile_qr_scan"}, "bike_id": "c9f2575ba3612ddac5d72a62de252fc4", "lon": -77.00315516666667}, {"is_reserved": 0, "fusion_lon": 0.0, "fusion_lat": 0.0, "name": "f476ca0cdddd21ff4eb555e82b8a6f22", "type": "electric_scooter", "is_disabled": 0, "lat": 38.92982683333334, "rental_uris": {"android": "https://dc.lft.to/lastmile_qr_scan", "ios": "https://dc.lft.to/lastmile_qr_scan"}, "bike_id": "f476ca0cdddd21ff4eb555e82b8a6f22", "lon": -77.05523516666666}, {"is_reserved": 0, "fusion_lon": 0.0, "fusion_lat": 0.0, "name": "289161bfaf81bbd93ddcd7c8ff6ad401", "type": "electric_scooter", "is_disabled": 0, "lat": 38.90167016666667, "rental_uris": {"android": "https://dc.lft.to/lastmile_qr_scan", "ios": "https://dc.lft.to/lastmile_qr_scan"}, "bike_id": "289161bfaf81bbd93ddcd7c8ff6ad401", "lon": -77.060088}, {"is_reserved": 0, "fusion_lon": 0.0, "fusion_lat": 0.0, "name": "3ae9863f199612ea3676dc7bda5ebb98", "type": "electric_scooter", "is_disabled": 0, "lat": 38.89550366666667, "rental_uris": {"android": "https://dc.lft.to/lastmile_qr_scan", "ios": "https://dc.lft.to/lastmile_qr_scan"}, "bike_id": "3ae9863f199612ea3676dc7bda5ebb98", "lon": -76.948763}, {"is_reserved": 0, "fusion_lon": 0.0, "fusion_lat": 0.0, "name": "c25e2302d4527d9f790375b87ea8eab6", "type": "electric_scooter", "is_disabled": 0, "lat": 38.917837, "rental_uris": {"android": "https://dc.lft.to/lastmile_qr_scan", "ios": "https://dc.lft.to/lastmile_qr_scan"}, "bike_id": "c25e2302d4527d9f790375b87ea8eab6", "lon": -77.0321395}, {"is_reserved": 0, "fusion_lon": 0.0, "fusion_lat": 0.0, "name": "dc4842e7f69cd6febdb2bb14eec1c3d7", "type": "electric_scooter", "is_disabled": 0, "lat": 38.92339033333333, "rental_uris": {"android": "https://dc.lft.to/lastmile_qr_scan", "ios": "https://dc.lft.to/lastmile_qr_scan"}, "bike_id": "dc4842e7f69cd6febdb2bb14eec1c3d7", "lon": -77.04192483333334}, {"is_reserved": 0, "fusion_lon": 0.0, "fusion_lat": 0.0, "name": "bbb4f8029c48a58e16d00b502538b6a0", "type": "electric_scooter", "is_disabled": 0, "lat": 38.905120833333335, "rental_uris": {"android": "https://dc.lft.to/lastmile_qr_scan", "ios": "https://dc.lft.to/lastmile_qr_scan"}, "bike_id": "bbb4f8029c48a58e16d00b502538b6a0", "lon": -77.0344225}, {"is_reserved": 0, "fusion_lon": 0.0, "fusion_lat": 0.0, "name": "73a129f706ebafc926b4f3f860a67885", "type": "electric_scooter", "is_disabled": 0, "lat": 38.91387666666667, "rental_uris": {"android": "https://dc.lft.to/lastmile_qr_scan", "ios": "https://dc.lft.to/lastmile_qr_scan"}, "bike_id": "73a129f706ebafc926b4f3f860a67885", "lon": -77.0413495}, {"is_reserved": 0, "fusion_lon": 0.0, "fusion_lat": 0.0, "name": "06725ac3fe6a270115ae6bf4ab76fdf0", "type": "electric_scooter", "is_disabled": 0, "lat": 38.908316166666665, "rental_uris": {"android": "https://dc.lft.to/lastmile_qr_scan", "ios": "https://dc.lft.to/lastmile_qr_scan"}, "bike_id": "06725ac3fe6a270115ae6bf4ab76fdf0", "lon": -76.94158583333333}, {"is_reserved": 0, "fusion_lon": 0.0, "fusion_lat": 0.0, "name": "8745148b5c419c93b67268cca7346ab4", "type": "electric_scooter", "is_disabled": 0, "lat": 38.9169475, "rental_uris": {"android": "https://dc.lft.to/lastmile_qr_scan", "ios": "https://dc.lft.to/lastmile_qr_scan"}, "bike_id": "8745148b5c419c93b67268cca7346ab4", "lon": -77.02598933333333}, {"is_reserved": 0, "fusion_lon": 0.0, "fusion_lat": 0.0, "name": "d291d057da0a06706ac2495bf7e93704", "type": "electric_scooter", "is_disabled": 0, "lat": 38.92729116666667, "rental_uris": {"android": "https://dc.lft.to/lastmile_qr_scan", "ios": "https://dc.lft.to/lastmile_qr_scan"}, "bike_id": "d291d057da0a06706ac2495bf7e93704", "lon": -77.0399545}, {"is_reserved": 0, "fusion_lon": 0.0, "fusion_lat": 0.0, "name": "15d838eccc0f3b347f2b46a5f5f9ed85", "type": "electric_scooter", "is_disabled": 0, "lat": 38.89751416666667, "rental_uris": {"android": "https://dc.lft.to/lastmile_qr_scan", "ios": "https://dc.lft.to/lastmile_qr_scan"}, "bike_id": "15d838eccc0f3b347f2b46a5f5f9ed85", "lon": -77.04819216666667}, {"is_reserved": 0, "fusion_lon": 0.0, "fusion_lat": 0.0, "name": "8ef7af3b4bf5905a4c3d1c83dbef64ee", "type": "electric_scooter", "is_disabled": 0, "lat": 38.90128, "rental_uris": {"android": "https://dc.lft.to/lastmile_qr_scan", "ios": "https://dc.lft.to/lastmile_qr_scan"}, "bike_id": "8ef7af3b4bf5905a4c3d1c83dbef64ee", "lon": -77.040216}, {"is_reserved": 0, "fusion_lon": 0.0, "fusion_lat": 0.0, "name": "16a88c508f0b7c288a86c9ac3cc08d59", "type": "electric_scooter", "is_disabled": 0, "lat": 38.902899166666664, "rental_uris": {"android": "https://dc.lft.to/lastmile_qr_scan", "ios": "https://dc.lft.to/lastmile_qr_scan"}, "bike_id": "16a88c508f0b7c288a86c9ac3cc08d59", "lon": -77.03448283333333}, {"is_reserved": 0, "fusion_lon": 0.0, "fusion_lat": 0.0, "name": "ce4d4c65715e8b124439ff43d86970e0", "type": "electric_scooter", "is_disabled": 0, "lat": 38.89225966666667, "rental_uris": {"android": "https://dc.lft.to/lastmile_qr_scan", "ios": "https://dc.lft.to/lastmile_qr_scan"}, "bike_id": "ce4d4c65715e8b124439ff43d86970e0", "lon": -77.02637183333333}, {"is_reserved": 0, "fusion_lon": 0.0, "fusion_lat": 0.0, "name": "cc117ff756c29df3893679442acfcbad", "type": "electric_bike", "is_disabled": 0, "lat": 38.96281183333333, "rental_uris": {"android": "https://dc.lft.to/lastmile_qr_scan", "ios": "https://dc.lft.to/lastmile_qr_scan"}, "bike_id": "cc117ff756c29df3893679442acfcbad", "lon": -77.0146}, {"is_reserved": 0, "fusion_lon": 0.0, "fusion_lat": 0.0, "name": "fe6b3d5cf00613169fcf490e27532ea0", "type": "electric_scooter", "is_disabled": 0, "lat": 38.92275, "rental_uris": {"android": "https://dc.lft.to/lastmile_qr_scan", "ios": "https://dc.lft.to/lastmile_qr_scan"}, "bike_id": "fe6b3d5cf00613169fcf490e27532ea0", "lon": -77.04253016666667}, {"is_reserved": 0, "fusion_lon": 0.0, "fusion_lat": 0.0, "name": "13e76ee9129a4dd14299a1764b729b87", "type": "electric_bike", "is_disabled": 0, "lat": 38.951788666666666, "rental_uris": {"android": "https://dc.lft.to/lastmile_qr_scan", "ios": "https://dc.lft.to/lastmile_qr_scan"}, "bike_id": "13e76ee9129a4dd14299a1764b729b87", "lon": -76.97729533333333}, {"is_reserved": 0, "fusion_lon": 0.0, "fusion_lat": 0.0, "name": "7a7f4fb3d15d4ba2f13af6213d6eee9d", "type": "electric_scooter", "is_disabled": 0, "lat": 38.900664166666665, "rental_uris": {"android": "https://dc.lft.to/lastmile_qr_scan", "ios": "https://dc.lft.to/lastmile_qr_scan"}, "bike_id": "7a7f4fb3d15d4ba2f13af6213d6eee9d", "lon": -76.946927}, {"is_reserved": 0, "fusion_lon": 0.0, "fusion_lat": 0.0, "name": "caf1cb84c18a32acdca781a3542a612e", "type": "electric_scooter", "is_disabled": 0, "lat": 38.9344545, "rental_uris": {"android": "https://dc.lft.to/lastmile_qr_scan", "ios": "https://dc.lft.to/lastmile_qr_scan"}, "bike_id": "caf1cb84c18a32acdca781a3542a612e", "lon": -76.99880933333333}, {"is_reserved": 0, "fusion_lon": 0.0, "fusion_lat": 0.0, "name": "b7e366fc0e7bf41bd24d84952ca85c06", "type": "electric_scooter", "is_disabled": 0, "lat": 38.89535516666667, "rental_uris": {"android": "https://dc.lft.to/lastmile_qr_scan", "ios": "https://dc.lft.to/lastmile_qr_scan"}, "bike_id": "b7e366fc0e7bf41bd24d84952ca85c06", "lon": -77.00344783333334}, {"is_reserved": 0, "fusion_lon": 0.0, "fusion_lat": 0.0, "name": "f991d0202e8103b20d35fea00469bbe7", "type": "electric_scooter", "is_disabled": 0, "lat": 38.899923333333334, "rental_uris": {"android": "https://dc.lft.to/lastmile_qr_scan", "ios": "https://dc.lft.to/lastmile_qr_scan"}, "bike_id": "f991d0202e8103b20d35fea00469bbe7", "lon": -77.04809966666667}, {"is_reserved": 0, "fusion_lon": 0.0, "fusion_lat": 0.0, "name": "0c22712b690eea421c130fd431519105", "type": "electric_scooter", "is_disabled": 0, "lat": 38.900769333333336, "rental_uris": {"android": "https://dc.lft.to/lastmile_qr_scan", "ios": "https://dc.lft.to/lastmile_qr_scan"}, "bike_id": "0c22712b690eea421c130fd431519105", "lon": -77.04890266666666}, {"is_reserved": 0, "fusion_lon": 0.0, "fusion_lat": 0.0, "name": "85ae8b8e5d01d0db796a2888fc43f661", "type": "electric_scooter", "is_disabled": 0, "lat": 38.915571166666666, "rental_uris": {"android": "https://dc.lft.to/lastmile_qr_scan", "ios": "https://dc.lft.to/lastmile_qr_scan"}, "bike_id": "85ae8b8e5d01d0db796a2888fc43f661", "lon": -77.02549983333333}, {"is_reserved": 0, "fusion_lon": 0.0, "fusion_lat": 0.0, "name": "baafd406be4030904a8fa6310e2e952f", "type": "electric_scooter", "is_disabled": 0, "lat": 38.891776, "rental_uris": {"android": "https://dc.lft.to/lastmile_qr_scan", "ios": "https://dc.lft.to/lastmile_qr_scan"}, "bike_id": "baafd406be4030904a8fa6310e2e952f", "lon": -77.01552116666667}, {"is_reserved": 0, "fusion_lon": 0.0, "fusion_lat": 0.0, "name": "1f10925e471aaeae99025119d88f9d89", "type": "electric_scooter", "is_disabled": 0, "lat": 38.93791, "rental_uris": {"android": "https://dc.lft.to/lastmile_qr_scan", "ios": "https://dc.lft.to/lastmile_qr_scan"}, "bike_id": "1f10925e471aaeae99025119d88f9d89", "lon": -77.03290416666667}, {"is_reserved": 0, "fusion_lon": 0.0, "fusion_lat": 0.0, "name": "254a3104204fdd420a2396b0412a80a8", "type": "electric_scooter", "is_disabled": 0, "lat": 38.91110416666667, "rental_uris": {"android": "https://dc.lft.to/lastmile_qr_scan", "ios": "https://dc.lft.to/lastmile_qr_scan"}, "bike_id": "254a3104204fdd420a2396b0412a80a8", "lon": -77.04458133333333}, {"is_reserved": 0, "fusion_lon": 0.0, "fusion_lat": 0.0, "name": "5b85609c91c7ca62a5b42728f1c442ad", "type": "electric_scooter", "is_disabled": 0, "lat": 38.8357855, "rental_uris": {"android": "https://dc.lft.to/lastmile_qr_scan", "ios": "https://dc.lft.to/lastmile_qr_scan"}, "bike_id": "5b85609c91c7ca62a5b42728f1c442ad", "lon": -76.9948375}, {"is_reserved": 0, "fusion_lon": 0.0, "fusion_lat": 0.0, "name": "3f12e6aed14ad6637978c0ae83d1312c", "type": "electric_scooter", "is_disabled": 0, "lat": 38.9073465, "rental_uris": {"android": "https://dc.lft.to/lastmile_qr_scan", "ios": "https://dc.lft.to/lastmile_qr_scan"}, "bike_id": "3f12e6aed14ad6637978c0ae83d1312c", "lon": -77.04290383333333}, {"is_reserved": 0, "fusion_lon": 0.0, "fusion_lat": 0.0, "name": "9ee3f855cb4ef9c0b4559167b5dc3bd2", "type": "electric_scooter", "is_disabled": 0, "lat": 38.900916333333335, "rental_uris": {"android": "https://dc.lft.to/lastmile_qr_scan", "ios": "https://dc.lft.to/lastmile_qr_scan"}, "bike_id": "9ee3f855cb4ef9c0b4559167b5dc3bd2", "lon": -77.04743683333334}, {"is_reserved": 0, "fusion_lon": 0.0, "fusion_lat": 0.0, "name": "b9cc162187d83f09e3f157c3822aaccb", "type": "electric_scooter", "is_disabled": 0, "lat": 38.92401983333333, "rental_uris": {"android": "https://dc.lft.to/lastmile_qr_scan", "ios": "https://dc.lft.to/lastmile_qr_scan"}, "bike_id": "b9cc162187d83f09e3f157c3822aaccb", "lon": -77.02433416666666}, {"is_reserved": 0, "fusion_lon": 0.0, "fusion_lat": 0.0, "name": "18a090aaf6602c194f052d7a0f4a2b52", "type": "electric_scooter", "is_disabled": 0, "lat": 38.959384, "rental_uris": {"android": "https://dc.lft.to/lastmile_qr_scan", "ios": "https://dc.lft.to/lastmile_qr_scan"}, "bike_id": "18a090aaf6602c194f052d7a0f4a2b52", "lon": -77.03126066666667}, {"is_reserved": 0, "fusion_lon": 0.0, "fusion_lat": 0.0, "name": "d8c972ffe57cdcd19d34524b981b2415", "type": "electric_scooter", "is_disabled": 0, "lat": 38.907855166666664, "rental_uris": {"android": "https://dc.lft.to/lastmile_qr_scan", "ios": "https://dc.lft.to/lastmile_qr_scan"}, "bike_id": "d8c972ffe57cdcd19d34524b981b2415", "lon": -77.03823683333333}, {"is_reserved": 0, "fusion_lon": 0.0, "fusion_lat": 0.0, "name": "e5f7c2e9718589613bad18fd344c8271", "type": "electric_scooter", "is_disabled": 0, "lat": 38.8737075, "rental_uris": {"android": "https://dc.lft.to/lastmile_qr_scan", "ios": "https://dc.lft.to/lastmile_qr_scan"}, "bike_id": "e5f7c2e9718589613bad18fd344c8271", "lon": -76.9701645}, {"is_reserved": 0, "fusion_lon": 0.0, "fusion_lat": 0.0, "name": "48cb55223cf279fefbc98d70e885839b", "type": "electric_scooter", "is_disabled": 0, "lat": 38.909413666666666, "rental_uris": {"android": "https://dc.lft.to/lastmile_qr_scan", "ios": "https://dc.lft.to/lastmile_qr_scan"}, "bike_id": "48cb55223cf279fefbc98d70e885839b", "lon": -77.03071116666666}, {"is_reserved": 0, "fusion_lon": 0.0, "fusion_lat": 0.0, "name": "617ebf453af76be40c50ce2ebc8c2512", "type": "electric_scooter", "is_disabled": 0, "lat": 38.92399866666667, "rental_uris": {"android": "https://dc.lft.to/lastmile_qr_scan", "ios": "https://dc.lft.to/lastmile_qr_scan"}, "bike_id": "617ebf453af76be40c50ce2ebc8c2512", "lon": -77.02457216666667}, {"is_reserved": 0, "fusion_lon": 0.0, "fusion_lat": 0.0, "name": "d0806630d651770dac2daa53b87f633c", "type": "electric_scooter", "is_disabled": 0, "lat": 38.90038466666667, "rental_uris": {"android": "https://dc.lft.to/lastmile_qr_scan", "ios": "https://dc.lft.to/lastmile_qr_scan"}, "bike_id": "d0806630d651770dac2daa53b87f633c", "lon": -77.0239185}, {"is_reserved": 0, "fusion_lon": 0.0, "fusion_lat": 0.0, "name": "36973936697f3572cc537908cc0556ec", "type": "electric_scooter", "is_disabled": 0, "lat": 38.94294333333333, "rental_uris": {"android": "https://dc.lft.to/lastmile_qr_scan", "ios": "https://dc.lft.to/lastmile_qr_scan"}, "bike_id": "36973936697f3572cc537908cc0556ec", "lon": -77.02171066666666}, {"is_reserved": 0, "fusion_lon": 0.0, "fusion_lat": 0.0, "name": "4a5186e947121918a48c560969627389", "type": "electric_scooter", "is_disabled": 0, "lat": 38.916599833333336, "rental_uris": {"android": "https://dc.lft.to/lastmile_qr_scan", "ios": "https://dc.lft.to/lastmile_qr_scan"}, "bike_id": "4a5186e947121918a48c560969627389", "lon": -77.02968616666666}, {"is_reserved": 0, "fusion_lon": 0.0, "fusion_lat": 0.0, "name": "a7664028812c05c250f7e4aee07f810a", "type": "electric_bike", "is_disabled": 0, "lat": 38.800206333333335, "rental_uris": {"android": "https://dc.lft.to/lastmile_qr_scan", "ios": "https://dc.lft.to/lastmile_qr_scan"}, "bike_id": "a7664028812c05c250f7e4aee07f810a", "lon": -77.05485583333333}, {"is_reserved": 0, "fusion_lon": 0.0, "fusion_lat": 0.0, "name": "3f599c48f078f1dc88fec8f4602359de", "type": "electric_scooter", "is_disabled": 0, "lat": 38.9236745, "rental_uris": {"android": "https://dc.lft.to/lastmile_qr_scan", "ios": "https://dc.lft.to/lastmile_qr_scan"}, "bike_id": "3f599c48f078f1dc88fec8f4602359de", "lon": -77.04234933333333}, {"is_reserved": 0, "fusion_lon": 0.0, "fusion_lat": 0.0, "name": "05af1ccfe3a4276c6f947cde4e265a13", "type": "electric_scooter", "is_disabled": 0, "lat": 38.920134, "rental_uris": {"android": "https://dc.lft.to/lastmile_qr_scan", "ios": "https://dc.lft.to/lastmile_qr_scan"}, "bike_id": "05af1ccfe3a4276c6f947cde4e265a13", "lon": -77.03895983333334}, {"is_reserved": 0, "fusion_lon": 0.0, "fusion_lat": 0.0, "name": "0ba6cb7bcca8cdace9d21655388acf40", "type": "electric_scooter", "is_disabled": 0, "lat": 38.95733833333333, "rental_uris": {"android": "https://dc.lft.to/lastmile_qr_scan", "ios": "https://dc.lft.to/lastmile_qr_scan"}, "bike_id": "0ba6cb7bcca8cdace9d21655388acf40", "lon": -77.024015}, {"is_reserved": 0, "fusion_lon": 0.0, "fusion_lat": 0.0, "name": "108c021238a91272b50684fe26b9725d", "type": "electric_scooter", "is_disabled": 0, "lat": 38.90375216666666, "rental_uris": {"android": "https://dc.lft.to/lastmile_qr_scan", "ios": "https://dc.lft.to/lastmile_qr_scan"}, "bike_id": "108c021238a91272b50684fe26b9725d", "lon": -77.04215733333334}, {"is_reserved": 0, "fusion_lon": 0.0, "fusion_lat": 0.0, "name": "e4027af91771716068da203f521594bb", "type": "electric_scooter", "is_disabled": 0, "lat": 38.8872405, "rental_uris": {"android": "https://dc.lft.to/lastmile_qr_scan", "ios": "https://dc.lft.to/lastmile_qr_scan"}, "bike_id": "e4027af91771716068da203f521594bb", "lon": -77.02176016666667}, {"is_reserved": 0, "fusion_lon": 0.0, "fusion_lat": 0.0, "name": "78bc772980684728abc51af456264656", "type": "electric_scooter", "is_disabled": 0, "lat": 38.896508833333336, "rental_uris": {"android": "https://dc.lft.to/lastmile_qr_scan", "ios": "https://dc.lft.to/lastmile_qr_scan"}, "bike_id": "78bc772980684728abc51af456264656", "lon": -77.03305466666667}, {"is_reserved": 0, "fusion_lon": 0.0, "fusion_lat": 0.0, "name": "fbefe6ff66b7be1b48abda67d4a6f4fc", "type": "electric_scooter", "is_disabled": 0, "lat": 38.90377566666667, "rental_uris": {"android": "https://dc.lft.to/lastmile_qr_scan", "ios": "https://dc.lft.to/lastmile_qr_scan"}, "bike_id": "fbefe6ff66b7be1b48abda67d4a6f4fc", "lon": -77.0423285}, {"is_reserved": 0, "fusion_lon": 0.0, "fusion_lat": 0.0, "name": "130f750fa72cc2d8aa635d85201c2a2b", "type": "electric_scooter", "is_disabled": 0, "lat": 38.90306966666667, "rental_uris": {"android": "https://dc.lft.to/lastmile_qr_scan", "ios": "https://dc.lft.to/lastmile_qr_scan"}, "bike_id": "130f750fa72cc2d8aa635d85201c2a2b", "lon": -77.05059016666667}, {"is_reserved": 0, "fusion_lon": 0.0, "fusion_lat": 0.0, "name": "01ae7bd4649f78287e48337e58bf4129", "type": "electric_scooter", "is_disabled": 0, "lat": 38.911809, "rental_uris": {"android": "https://dc.lft.to/lastmile_qr_scan", "ios": "https://dc.lft.to/lastmile_qr_scan"}, "bike_id": "01ae7bd4649f78287e48337e58bf4129", "lon": -77.0295185}, {"is_reserved": 0, "fusion_lon": 0.0, "fusion_lat": 0.0, "name": "d121b5278e61e70587a30085293f946e", "type": "electric_scooter", "is_disabled": 0, "lat": 38.931234833333335, "rental_uris": {"android": "https://dc.lft.to/lastmile_qr_scan", "ios": "https://dc.lft.to/lastmile_qr_scan"}, "bike_id": "d121b5278e61e70587a30085293f946e", "lon": -77.0303505}, {"is_reserved": 0, "fusion_lon": 0.0, "fusion_lat": 0.0, "name": "30f5a3e10e5780efbdbcef46e7b2c1ae", "type": "electric_scooter", "is_disabled": 0, "lat": 38.9034735, "rental_uris": {"android": "https://dc.lft.to/lastmile_qr_scan", "ios": "https://dc.lft.to/lastmile_qr_scan"}, "bike_id": "30f5a3e10e5780efbdbcef46e7b2c1ae", "lon": -76.98273433333334}, {"is_reserved": 0, "fusion_lon": 0.0, "fusion_lat": 0.0, "name": "9b4e125cff98a12a1b7d3774bdcc6987", "type": "electric_scooter", "is_disabled": 0, "lat": 38.87691933333333, "rental_uris": {"android": "https://dc.lft.to/lastmile_qr_scan", "ios": "https://dc.lft.to/lastmile_qr_scan"}, "bike_id": "9b4e125cff98a12a1b7d3774bdcc6987", "lon": -77.00421283333333}, {"is_reserved": 0, "fusion_lon": 0.0, "fusion_lat": 0.0, "name": "5a180643ddb9a796379d8cdd8380c394", "type": "electric_scooter", "is_disabled": 0, "lat": 38.907380833333335, "rental_uris": {"android": "https://dc.lft.to/lastmile_qr_scan", "ios": "https://dc.lft.to/lastmile_qr_scan"}, "bike_id": "5a180643ddb9a796379d8cdd8380c394", "lon": -76.9863015}, {"is_reserved": 0, "fusion_lon": 0.0, "fusion_lat": 0.0, "name": "b64b991cd9e94a59d402687605782ce4", "type": "electric_scooter", "is_disabled": 0, "lat": 38.91505733333334, "rental_uris": {"android": "https://dc.lft.to/lastmile_qr_scan", "ios": "https://dc.lft.to/lastmile_qr_scan"}, "bike_id": "b64b991cd9e94a59d402687605782ce4", "lon": -77.01991466666666}, {"is_reserved": 0, "fusion_lon": 0.0, "fusion_lat": 0.0, "name": "3f0e772cdd97487dcd2e6fa99d5f877d", "type": "electric_scooter", "is_disabled": 0, "lat": 38.92444616666667, "rental_uris": {"android": "https://dc.lft.to/lastmile_qr_scan", "ios": "https://dc.lft.to/lastmile_qr_scan"}, "bike_id": "3f0e772cdd97487dcd2e6fa99d5f877d", "lon": -77.00068733333333}, {"is_reserved": 0, "fusion_lon": 0.0, "fusion_lat": 0.0, "name": "76d21b9a01d9662ee99c7591e72c75ba", "type": "electric_bike", "is_disabled": 0, "lat": 38.89814883333333, "rental_uris": {"android": "https://dc.lft.to/lastmile_qr_scan", "ios": "https://dc.lft.to/lastmile_qr_scan"}, "bike_id": "76d21b9a01d9662ee99c7591e72c75ba", "lon": -76.99068916666667}, {"is_reserved": 0, "fusion_lon": 0.0, "fusion_lat": 0.0, "name": "d37cd482a855f007e1e7b6b7240269e7", "type": "electric_scooter", "is_disabled": 0, "lat": 38.93710933333333, "rental_uris": {"android": "https://dc.lft.to/lastmile_qr_scan", "ios": "https://dc.lft.to/lastmile_qr_scan"}, "bike_id": "d37cd482a855f007e1e7b6b7240269e7", "lon": -77.023983}, {"is_reserved": 0, "fusion_lon": 0.0, "fusion_lat": 0.0, "name": "ba79aef331292f168876cfa618a9a354", "type": "electric_scooter", "is_disabled": 0, "lat": 38.902982, "rental_uris": {"android": "https://dc.lft.to/lastmile_qr_scan", "ios": "https://dc.lft.to/lastmile_qr_scan"}, "bike_id": "ba79aef331292f168876cfa618a9a354", "lon": -77.04318216666667}, {"is_reserved": 0, "fusion_lon": 0.0, "fusion_lat": 0.0, "name": "703e6b489e1931129139b79b443cfb4c", "type": "electric_scooter", "is_disabled": 0, "lat": 38.8851225, "rental_uris": {"android": "https://dc.lft.to/lastmile_qr_scan", "ios": "https://dc.lft.to/lastmile_qr_scan"}, "bike_id": "703e6b489e1931129139b79b443cfb4c", "lon": -76.99757816666667}, {"is_reserved": 0, "fusion_lon": 0.0, "fusion_lat": 0.0, "name": "fb47d3a8a6e55943faf2a1b96902ce6c", "type": "electric_scooter", "is_disabled": 0, "lat": 38.9315045, "rental_uris": {"android": "https://dc.lft.to/lastmile_qr_scan", "ios": "https://dc.lft.to/lastmile_qr_scan"}, "bike_id": "fb47d3a8a6e55943faf2a1b96902ce6c", "lon": -77.04397316666666}, {"is_reserved": 0, "fusion_lon": 0.0, "fusion_lat": 0.0, "name": "2af703613b072945b9d71a70d014c61f", "type": "electric_scooter", "is_disabled": 0, "lat": 38.88494333333333, "rental_uris": {"android": "https://dc.lft.to/lastmile_qr_scan", "ios": "https://dc.lft.to/lastmile_qr_scan"}, "bike_id": "2af703613b072945b9d71a70d014c61f", "lon": -77.0071145}, {"is_reserved": 0, "fusion_lon": 0.0, "fusion_lat": 0.0, "name": "e07fb0dc59d760edf138d28a336cadc6", "type": "electric_bike", "is_disabled": 0, "lat": 38.908367, "rental_uris": {"android": "https://dc.lft.to/lastmile_qr_scan", "ios": "https://dc.lft.to/lastmile_qr_scan"}, "bike_id": "e07fb0dc59d760edf138d28a336cadc6", "lon": -76.93306266666667}, {"is_reserved": 0, "fusion_lon": 0.0, "fusion_lat": 0.0, "name": "5738a6e3f67e6078f0e51993511bb1f2", "type": "electric_scooter", "is_disabled": 0, "lat": 38.90114766666667, "rental_uris": {"android": "https://dc.lft.to/lastmile_qr_scan", "ios": "https://dc.lft.to/lastmile_qr_scan"}, "bike_id": "5738a6e3f67e6078f0e51993511bb1f2", "lon": -77.04999716666667}, {"is_reserved": 0, "fusion_lon": 0.0, "fusion_lat": 0.0, "name": "20006e0aa254815ca5b6d48be40cfa81", "type": "electric_scooter", "is_disabled": 0, "lat": 38.88407183333333, "rental_uris": {"android": "https://dc.lft.to/lastmile_qr_scan", "ios": "https://dc.lft.to/lastmile_qr_scan"}, "bike_id": "20006e0aa254815ca5b6d48be40cfa81", "lon": -76.95397966666667}, {"is_reserved": 0, "fusion_lon": 0.0, "fusion_lat": 0.0, "name": "0488c74f484ff533eacef09b3a44958b", "type": "electric_scooter", "is_disabled": 0, "lat": 38.900823833333334, "rental_uris": {"android": "https://dc.lft.to/lastmile_qr_scan", "ios": "https://dc.lft.to/lastmile_qr_scan"}, "bike_id": "0488c74f484ff533eacef09b3a44958b", "lon": -77.00211083333333}, {"is_reserved": 0, "fusion_lon": 0.0, "fusion_lat": 0.0, "name": "a1b7dc845e0d53755110a6c1aff8880d", "type": "electric_bike", "is_disabled": 0, "lat": 38.90319783333333, "rental_uris": {"android": "https://dc.lft.to/lastmile_qr_scan", "ios": "https://dc.lft.to/lastmile_qr_scan"}, "bike_id": "a1b7dc845e0d53755110a6c1aff8880d", "lon": -76.91212533333334}, {"is_reserved": 0, "fusion_lon": 0.0, "fusion_lat": 0.0, "name": "0ae0e5df89a353663383e9094c929944", "type": "electric_scooter", "is_disabled": 0, "lat": 38.94045066666666, "rental_uris": {"android": "https://dc.lft.to/lastmile_qr_scan", "ios": "https://dc.lft.to/lastmile_qr_scan"}, "bike_id": "0ae0e5df89a353663383e9094c929944", "lon": -77.02897266666666}, {"is_reserved": 0, "fusion_lon": 0.0, "fusion_lat": 0.0, "name": "b6a8559b79d94ecc9c1c939f8106c7bf", "type": "electric_scooter", "is_disabled": 0, "lat": 38.89273683333333, "rental_uris": {"android": "https://dc.lft.to/lastmile_qr_scan", "ios": "https://dc.lft.to/lastmile_qr_scan"}, "bike_id": "b6a8559b79d94ecc9c1c939f8106c7bf", "lon": -77.00346383333333}, {"is_reserved": 0, "fusion_lon": 0.0, "fusion_lat": 0.0, "name": "b1685f2f3d6e597c9361ce347f464a50", "type": "electric_scooter", "is_disabled": 0, "lat": 38.86473433333333, "rental_uris": {"android": "https://dc.lft.to/lastmile_qr_scan", "ios": "https://dc.lft.to/lastmile_qr_scan"}, "bike_id": "b1685f2f3d6e597c9361ce347f464a50", "lon": -76.97740583333334}, {"is_reserved": 0, "fusion_lon": 0.0, "fusion_lat": 0.0, "name": "63cdb910a46cd4535cbdc4fb6b3bab9b", "type": "electric_scooter", "is_disabled": 0, "lat": 38.8852425, "rental_uris": {"android": "https://dc.lft.to/lastmile_qr_scan", "ios": "https://dc.lft.to/lastmile_qr_scan"}, "bike_id": "63cdb910a46cd4535cbdc4fb6b3bab9b", "lon": -77.00577216666667}, {"is_reserved": 0, "fusion_lon": 0.0, "fusion_lat": 0.0, "name": "2759de3ee69d54a088315102f9531c47", "type": "electric_scooter", "is_disabled": 0, "lat": 38.917119166666666, "rental_uris": {"android": "https://dc.lft.to/lastmile_qr_scan", "ios": "https://dc.lft.to/lastmile_qr_scan"}, "bike_id": "2759de3ee69d54a088315102f9531c47", "lon": -77.03866366666666}, {"is_reserved": 0, "fusion_lon": 0.0, "fusion_lat": 0.0, "name": "036901f9239c2cbdb39d597589087dae", "type": "electric_scooter", "is_disabled": 0, "lat": 38.916846166666666, "rental_uris": {"android": "https://dc.lft.to/lastmile_qr_scan", "ios": "https://dc.lft.to/lastmile_qr_scan"}, "bike_id": "036901f9239c2cbdb39d597589087dae", "lon": -77.02975033333334}, {"is_reserved": 0, "fusion_lon": 0.0, "fusion_lat": 0.0, "name": "bf70f7a1585db17a85223189042de12c", "type": "electric_scooter", "is_disabled": 0, "lat": 38.8975145, "rental_uris": {"android": "https://dc.lft.to/lastmile_qr_scan", "ios": "https://dc.lft.to/lastmile_qr_scan"}, "bike_id": "bf70f7a1585db17a85223189042de12c", "lon": -77.02004966666667}, {"is_reserved": 0, "fusion_lon": 0.0, "fusion_lat": 0.0, "name": "711aea5e427a3aa06f2e3b19516de23c", "type": "electric_scooter", "is_disabled": 0, "lat": 38.90008733333333, "rental_uris": {"android": "https://dc.lft.to/lastmile_qr_scan", "ios": "https://dc.lft.to/lastmile_qr_scan"}, "bike_id": "711aea5e427a3aa06f2e3b19516de23c", "lon": -77.033378}, {"is_reserved": 0, "fusion_lon": 0.0, "fusion_lat": 0.0, "name": "bb365c793342c2917ed024f09ac64c9a", "type": "electric_scooter", "is_disabled": 0, "lat": 38.90453216666667, "rental_uris": {"android": "https://dc.lft.to/lastmile_qr_scan", "ios": "https://dc.lft.to/lastmile_qr_scan"}, "bike_id": "bb365c793342c2917ed024f09ac64c9a", "lon": -77.00697366666667}, {"is_reserved": 0, "fusion_lon": 0.0, "fusion_lat": 0.0, "name": "69ccadad2c477e0bd5b0415971ded277", "type": "electric_scooter", "is_disabled": 0, "lat": 38.89224166666666, "rental_uris": {"android": "https://dc.lft.to/lastmile_qr_scan", "ios": "https://dc.lft.to/lastmile_qr_scan"}, "bike_id": "69ccadad2c477e0bd5b0415971ded277", "lon": -77.0222865}, {"is_reserved": 0, "fusion_lon": 0.0, "fusion_lat": 0.0, "name": "9fde0d5e61e3502d065992950c930889", "type": "electric_scooter", "is_disabled": 0, "lat": 38.905462166666666, "rental_uris": {"android": "https://dc.lft.to/lastmile_qr_scan", "ios": "https://dc.lft.to/lastmile_qr_scan"}, "bike_id": "9fde0d5e61e3502d065992950c930889", "lon": -77.0296735}, {"is_reserved": 0, "fusion_lon": 0.0, "fusion_lat": 0.0, "name": "fe4fd36d2830b02bfa90cd7e84df1cce", "type": "electric_scooter", "is_disabled": 0, "lat": 38.9028075, "rental_uris": {"android": "https://dc.lft.to/lastmile_qr_scan", "ios": "https://dc.lft.to/lastmile_qr_scan"}, "bike_id": "fe4fd36d2830b02bfa90cd7e84df1cce", "lon": -77.03885283333334}, {"is_reserved": 0, "fusion_lon": 0.0, "fusion_lat": 0.0, "name": "9fe92a5bb205cd88ae63274ac16dab59", "type": "electric_scooter", "is_disabled": 0, "lat": 38.915421333333335, "rental_uris": {"android": "https://dc.lft.to/lastmile_qr_scan", "ios": "https://dc.lft.to/lastmile_qr_scan"}, "bike_id": "9fe92a5bb205cd88ae63274ac16dab59", "lon": -77.03640333333334}, {"is_reserved": 0, "fusion_lon": 0.0, "fusion_lat": 0.0, "name": "ae78fb2745e844740ee0d98a42b37034", "type": "electric_scooter", "is_disabled": 0, "lat": 38.91711516666667, "rental_uris": {"android": "https://dc.lft.to/lastmile_qr_scan", "ios": "https://dc.lft.to/lastmile_qr_scan"}, "bike_id": "ae78fb2745e844740ee0d98a42b37034", "lon": -77.03495966666667}, {"is_reserved": 0, "fusion_lon": 0.0, "fusion_lat": 0.0, "name": "5a7ac1fdaf4665824ca82e5c4676a993", "type": "electric_scooter", "is_disabled": 0, "lat": 38.914585, "rental_uris": {"android": "https://dc.lft.to/lastmile_qr_scan", "ios": "https://dc.lft.to/lastmile_qr_scan"}, "bike_id": "5a7ac1fdaf4665824ca82e5c4676a993", "lon": -77.021765}, {"is_reserved": 0, "fusion_lon": 0.0, "fusion_lat": 0.0, "name": "0090829a951530330b4c09abd59b4ce0", "type": "electric_scooter", "is_disabled": 0, "lat": 38.93432516666667, "rental_uris": {"android": "https://dc.lft.to/lastmile_qr_scan", "ios": "https://dc.lft.to/lastmile_qr_scan"}, "bike_id": "0090829a951530330b4c09abd59b4ce0", "lon": -77.03999916666666}, {"is_reserved": 0, "fusion_lon": 0.0, "fusion_lat": 0.0, "name": "e53da6f54abc9793c32b92fde3200c35", "type": "electric_scooter", "is_disabled": 0, "lat": 38.9552835, "rental_uris": {"android": "https://dc.lft.to/lastmile_qr_scan", "ios": "https://dc.lft.to/lastmile_qr_scan"}, "bike_id": "e53da6f54abc9793c32b92fde3200c35", "lon": -77.0222045}, {"is_reserved": 0, "fusion_lon": 0.0, "fusion_lat": 0.0, "name": "ff7d3c92d66d3a54782fb64d77d5cfa9", "type": "electric_scooter", "is_disabled": 0, "lat": 38.89230383333334, "rental_uris": {"android": "https://dc.lft.to/lastmile_qr_scan", "ios": "https://dc.lft.to/lastmile_qr_scan"}, "bike_id": "ff7d3c92d66d3a54782fb64d77d5cfa9", "lon": -77.04506116666667}, {"is_reserved": 0, "fusion_lon": 0.0, "fusion_lat": 0.0, "name": "cbcc00ce35601f12834db089503d25be", "type": "electric_scooter", "is_disabled": 0, "lat": 38.898657166666666, "rental_uris": {"android": "https://dc.lft.to/lastmile_qr_scan", "ios": "https://dc.lft.to/lastmile_qr_scan"}, "bike_id": "cbcc00ce35601f12834db089503d25be", "lon": -76.99018016666666}, {"is_reserved": 0, "fusion_lon": 0.0, "fusion_lat": 0.0, "name": "920ae91a4eeb97a456472f117270eac6", "type": "electric_scooter", "is_disabled": 0, "lat": 38.89227266666666, "rental_uris": {"android": "https://dc.lft.to/lastmile_qr_scan", "ios": "https://dc.lft.to/lastmile_qr_scan"}, "bike_id": "920ae91a4eeb97a456472f117270eac6", "lon": -77.0431065}, {"is_reserved": 0, "fusion_lon": 0.0, "fusion_lat": 0.0, "name": "52ed7906fe488e9f42b19775ffa4278c", "type": "electric_scooter", "is_disabled": 0, "lat": 38.884911833333334, "rental_uris": {"android": "https://dc.lft.to/lastmile_qr_scan", "ios": "https://dc.lft.to/lastmile_qr_scan"}, "bike_id": "52ed7906fe488e9f42b19775ffa4278c", "lon": -77.007085}, {"is_reserved": 0, "fusion_lon": 0.0, "fusion_lat": 0.0, "name": "b6bee652260cac84b19090408ebc5cd9", "type": "electric_scooter", "is_disabled": 0, "lat": 38.90758483333333, "rental_uris": {"android": "https://dc.lft.to/lastmile_qr_scan", "ios": "https://dc.lft.to/lastmile_qr_scan"}, "bike_id": "b6bee652260cac84b19090408ebc5cd9", "lon": -77.04561083333333}, {"is_reserved": 0, "fusion_lon": 0.0, "fusion_lat": 0.0, "name": "0bfa4078d738dc5f57a0424ade5c1ce9", "type": "electric_scooter", "is_disabled": 0, "lat": 38.90254016666667, "rental_uris": {"android": "https://dc.lft.to/lastmile_qr_scan", "ios": "https://dc.lft.to/lastmile_qr_scan"}, "bike_id": "0bfa4078d738dc5f57a0424ade5c1ce9", "lon": -76.989177}, {"is_reserved": 0, "fusion_lon": 0.0, "fusion_lat": 0.0, "name": "c9f5ea0c4b6e2b9436930710e0d705b0", "type": "electric_scooter", "is_disabled": 0, "lat": 38.904781, "rental_uris": {"android": "https://dc.lft.to/lastmile_qr_scan", "ios": "https://dc.lft.to/lastmile_qr_scan"}, "bike_id": "c9f5ea0c4b6e2b9436930710e0d705b0", "lon": -77.03549933333333}, {"is_reserved": 0, "fusion_lon": 0.0, "fusion_lat": 0.0, "name": "f0218f4acb9f84cc1cc9be19b40fed59", "type": "electric_scooter", "is_disabled": 0, "lat": 38.90394966666667, "rental_uris": {"android": "https://dc.lft.to/lastmile_qr_scan", "ios": "https://dc.lft.to/lastmile_qr_scan"}, "bike_id": "f0218f4acb9f84cc1cc9be19b40fed59", "lon": -77.03832016666667}, {"is_reserved": 0, "fusion_lon": 0.0, "fusion_lat": 0.0, "name": "591d28479fdaf83658871f9cff072728", "type": "electric_scooter", "is_disabled": 0, "lat": 38.90047466666667, "rental_uris": {"android": "https://dc.lft.to/lastmile_qr_scan", "ios": "https://dc.lft.to/lastmile_qr_scan"}, "bike_id": "591d28479fdaf83658871f9cff072728", "lon": -77.00299916666667}, {"is_reserved": 0, "fusion_lon": 0.0, "fusion_lat": 0.0, "name": "cd41f60b5cfce5b8c54ba552daec7918", "type": "electric_scooter", "is_disabled": 0, "lat": 38.85071116666667, "rental_uris": {"android": "https://dc.lft.to/lastmile_qr_scan", "ios": "https://dc.lft.to/lastmile_qr_scan"}, "bike_id": "cd41f60b5cfce5b8c54ba552daec7918", "lon": -76.9700435}, {"is_reserved": 0, "fusion_lon": 0.0, "fusion_lat": 0.0, "name": "a6d6eeea49888150c96bfba7e05cc48b", "type": "electric_scooter", "is_disabled": 0, "lat": 38.950730166666666, "rental_uris": {"android": "https://dc.lft.to/lastmile_qr_scan", "ios": "https://dc.lft.to/lastmile_qr_scan"}, "bike_id": "a6d6eeea49888150c96bfba7e05cc48b", "lon": -77.0653865}, {"is_reserved": 0, "fusion_lon": 0.0, "fusion_lat": 0.0, "name": "dd3ca24d0a396b03c2f57965602f2594", "type": "electric_scooter", "is_disabled": 0, "lat": 38.922123166666665, "rental_uris": {"android": "https://dc.lft.to/lastmile_qr_scan", "ios": "https://dc.lft.to/lastmile_qr_scan"}, "bike_id": "dd3ca24d0a396b03c2f57965602f2594", "lon": -77.029616}, {"is_reserved": 0, "fusion_lon": 0.0, "fusion_lat": 0.0, "name": "a31d2d09a18030b936f084377383e600", "type": "electric_scooter", "is_disabled": 0, "lat": 38.91736816666667, "rental_uris": {"android": "https://dc.lft.to/lastmile_qr_scan", "ios": "https://dc.lft.to/lastmile_qr_scan"}, "bike_id": "a31d2d09a18030b936f084377383e600", "lon": -77.04099166666667}, {"is_reserved": 0, "fusion_lon": 0.0, "fusion_lat": 0.0, "name": "44c4b626410d170f0ac0ca8978153c06", "type": "electric_scooter", "is_disabled": 0, "lat": 38.906529, "rental_uris": {"android": "https://dc.lft.to/lastmile_qr_scan", "ios": "https://dc.lft.to/lastmile_qr_scan"}, "bike_id": "44c4b626410d170f0ac0ca8978153c06", "lon": -77.03458833333333}, {"is_reserved": 0, "fusion_lon": 0.0, "fusion_lat": 0.0, "name": "f82a56523d46dcd42d91b0649d8b9813", "type": "electric_scooter", "is_disabled": 0, "lat": 38.8998755, "rental_uris": {"android": "https://dc.lft.to/lastmile_qr_scan", "ios": "https://dc.lft.to/lastmile_qr_scan"}, "bike_id": "f82a56523d46dcd42d91b0649d8b9813", "lon": -77.00935916666667}, {"is_reserved": 0, "fusion_lon": 0.0, "fusion_lat": 0.0, "name": "c6acb7b386e96c206260118485a24e6d", "type": "electric_scooter", "is_disabled": 0, "lat": 38.9200125, "rental_uris": {"android": "https://dc.lft.to/lastmile_qr_scan", "ios": "https://dc.lft.to/lastmile_qr_scan"}, "bike_id": "c6acb7b386e96c206260118485a24e6d", "lon": -77.02138533333333}, {"is_reserved": 0, "fusion_lon": 0.0, "fusion_lat": 0.0, "name": "c523fa428d9b23caa2e969822d3d0614", "type": "electric_scooter", "is_disabled": 0, "lat": 38.922559, "rental_uris": {"android": "https://dc.lft.to/lastmile_qr_scan", "ios": "https://dc.lft.to/lastmile_qr_scan"}, "bike_id": "c523fa428d9b23caa2e969822d3d0614", "lon": -77.0306495}, {"is_reserved": 0, "fusion_lon": 0.0, "fusion_lat": 0.0, "name": "9e9b98e2d69207208340a83ede0154e1", "type": "electric_scooter", "is_disabled": 0, "lat": 38.90921, "rental_uris": {"android": "https://dc.lft.to/lastmile_qr_scan", "ios": "https://dc.lft.to/lastmile_qr_scan"}, "bike_id": "9e9b98e2d69207208340a83ede0154e1", "lon": -77.07271966666667}, {"is_reserved": 0, "fusion_lon": 0.0, "fusion_lat": 0.0, "name": "cae5a93d6e52d16315dd8f01a2f1d999", "type": "electric_scooter", "is_disabled": 0, "lat": 38.893295333333334, "rental_uris": {"android": "https://dc.lft.to/lastmile_qr_scan", "ios": "https://dc.lft.to/lastmile_qr_scan"}, "bike_id": "cae5a93d6e52d16315dd8f01a2f1d999", "lon": -76.93970116666667}, {"is_reserved": 0, "fusion_lon": 0.0, "fusion_lat": 0.0, "name": "3ed45fd684e28a192fa247754aaf2bf3", "type": "electric_scooter", "is_disabled": 0, "lat": 38.928566000000004, "rental_uris": {"android": "https://dc.lft.to/lastmile_qr_scan", "ios": "https://dc.lft.to/lastmile_qr_scan"}, "bike_id": "3ed45fd684e28a192fa247754aaf2bf3", "lon": -77.02733116666667}, {"is_reserved": 0, "fusion_lon": 0.0, "fusion_lat": 0.0, "name": "fb380536ae645985d2987f6d292145da", "type": "electric_scooter", "is_disabled": 0, "lat": 38.901456333333336, "rental_uris": {"android": "https://dc.lft.to/lastmile_qr_scan", "ios": "https://dc.lft.to/lastmile_qr_scan"}, "bike_id": "fb380536ae645985d2987f6d292145da", "lon": -77.01304883333333}, {"is_reserved": 0, "fusion_lon": 0.0, "fusion_lat": 0.0, "name": "191654cb6cbc743139acfd990cf0e13b", "type": "electric_scooter", "is_disabled": 0, "lat": 38.87943716666667, "rental_uris": {"android": "https://dc.lft.to/lastmile_qr_scan", "ios": "https://dc.lft.to/lastmile_qr_scan"}, "bike_id": "191654cb6cbc743139acfd990cf0e13b", "lon": -77.0146405}, {"is_reserved": 0, "fusion_lon": 0.0, "fusion_lat": 0.0, "name": "0ba403797993f803dd7c283c528bbf49", "type": "electric_scooter", "is_disabled": 0, "lat": 38.926631666666665, "rental_uris": {"android": "https://dc.lft.to/lastmile_qr_scan", "ios": "https://dc.lft.to/lastmile_qr_scan"}, "bike_id": "0ba403797993f803dd7c283c528bbf49", "lon": -77.0373035}, {"is_reserved": 0, "fusion_lon": 0.0, "fusion_lat": 0.0, "name": "7d0a9ce6f0956aca4372c9533d23e614", "type": "electric_scooter", "is_disabled": 0, "lat": 38.871683, "rental_uris": {"android": "https://dc.lft.to/lastmile_qr_scan", "ios": "https://dc.lft.to/lastmile_qr_scan"}, "bike_id": "7d0a9ce6f0956aca4372c9533d23e614", "lon": -76.977497}, {"is_reserved": 0, "fusion_lon": 0.0, "fusion_lat": 0.0, "name": "e641db781884ce46bb83ff5f0cad3cb2", "type": "electric_scooter", "is_disabled": 0, "lat": 38.90088766666667, "rental_uris": {"android": "https://dc.lft.to/lastmile_qr_scan", "ios": "https://dc.lft.to/lastmile_qr_scan"}, "bike_id": "e641db781884ce46bb83ff5f0cad3cb2", "lon": -77.04877766666667}, {"is_reserved": 0, "fusion_lon": 0.0, "fusion_lat": 0.0, "name": "55ff3d34e0b34eaa89c6005cea855126", "type": "electric_scooter", "is_disabled": 0, "lat": 38.918092333333334, "rental_uris": {"android": "https://dc.lft.to/lastmile_qr_scan", "ios": "https://dc.lft.to/lastmile_qr_scan"}, "bike_id": "55ff3d34e0b34eaa89c6005cea855126", "lon": -77.02493833333334}, {"is_reserved": 0, "fusion_lon": 0.0, "fusion_lat": 0.0, "name": "ba74a96b5213e4200625143ea171574e", "type": "electric_scooter", "is_disabled": 0, "lat": 38.924176333333335, "rental_uris": {"android": "https://dc.lft.to/lastmile_qr_scan", "ios": "https://dc.lft.to/lastmile_qr_scan"}, "bike_id": "ba74a96b5213e4200625143ea171574e", "lon": -77.020103}, {"is_reserved": 0, "fusion_lon": 0.0, "fusion_lat": 0.0, "name": "2402a0b2c91709461256508223425106", "type": "electric_scooter", "is_disabled": 0, "lat": 38.909780166666664, "rental_uris": {"android": "https://dc.lft.to/lastmile_qr_scan", "ios": "https://dc.lft.to/lastmile_qr_scan"}, "bike_id": "2402a0b2c91709461256508223425106", "lon": -77.0341705}, {"is_reserved": 0, "fusion_lon": 0.0, "fusion_lat": 0.0, "name": "d7ec40c5779d4e0ada3639fda2d29cac", "type": "electric_scooter", "is_disabled": 0, "lat": 38.91285666666667, "rental_uris": {"android": "https://dc.lft.to/lastmile_qr_scan", "ios": "https://dc.lft.to/lastmile_qr_scan"}, "bike_id": "d7ec40c5779d4e0ada3639fda2d29cac", "lon": -77.04507866666667}, {"is_reserved": 0, "fusion_lon": 0.0, "fusion_lat": 0.0, "name": "f061423d483338b992eaebe696d1073b", "type": "electric_scooter", "is_disabled": 0, "lat": 38.89008316666666, "rental_uris": {"android": "https://dc.lft.to/lastmile_qr_scan", "ios": "https://dc.lft.to/lastmile_qr_scan"}, "bike_id": "f061423d483338b992eaebe696d1073b", "lon": -77.0489065}, {"is_reserved": 0, "fusion_lon": 0.0, "fusion_lat": 0.0, "name": "6bf0726e7065aaecdb4901f69be5a275", "type": "electric_scooter", "is_disabled": 0, "lat": 38.89183166666667, "rental_uris": {"android": "https://dc.lft.to/lastmile_qr_scan", "ios": "https://dc.lft.to/lastmile_qr_scan"}, "bike_id": "6bf0726e7065aaecdb4901f69be5a275", "lon": -76.91194683333333}, {"is_reserved": 0, "fusion_lon": 0.0, "fusion_lat": 0.0, "name": "12ceb9d3fdcf09a0eb7084ab0e3e3874", "type": "electric_scooter", "is_disabled": 0, "lat": 38.91130316666667, "rental_uris": {"android": "https://dc.lft.to/lastmile_qr_scan", "ios": "https://dc.lft.to/lastmile_qr_scan"}, "bike_id": "12ceb9d3fdcf09a0eb7084ab0e3e3874", "lon": -77.04354283333333}, {"is_reserved": 0, "fusion_lon": 0.0, "fusion_lat": 0.0, "name": "0d88345bc8f4d4a5d38e8aaeaa2b1e2a", "type": "electric_scooter", "is_disabled": 0, "lat": 38.91473033333333, "rental_uris": {"android": "https://dc.lft.to/lastmile_qr_scan", "ios": "https://dc.lft.to/lastmile_qr_scan"}, "bike_id": "0d88345bc8f4d4a5d38e8aaeaa2b1e2a", "lon": -77.02094383333333}, {"is_reserved": 0, "fusion_lon": 0.0, "fusion_lat": 0.0, "name": "270fb31c3edf7b4116c7ea2a172a1a63", "type": "electric_scooter", "is_disabled": 0, "lat": 38.898323833333336, "rental_uris": {"android": "https://dc.lft.to/lastmile_qr_scan", "ios": "https://dc.lft.to/lastmile_qr_scan"}, "bike_id": "270fb31c3edf7b4116c7ea2a172a1a63", "lon": -77.02866633333333}, {"is_reserved": 0, "fusion_lon": 0.0, "fusion_lat": 0.0, "name": "f30e59915cfb11884b5ca24c1a2f4b19", "type": "electric_scooter", "is_disabled": 0, "lat": 38.8750175, "rental_uris": {"android": "https://dc.lft.to/lastmile_qr_scan", "ios": "https://dc.lft.to/lastmile_qr_scan"}, "bike_id": "f30e59915cfb11884b5ca24c1a2f4b19", "lon": -77.00175483333334}, {"is_reserved": 0, "fusion_lon": 0.0, "fusion_lat": 0.0, "name": "4627e4b9327d3cf327d29c6676dacf39", "type": "electric_scooter", "is_disabled": 0, "lat": 38.886162, "rental_uris": {"android": "https://dc.lft.to/lastmile_qr_scan", "ios": "https://dc.lft.to/lastmile_qr_scan"}, "bike_id": "4627e4b9327d3cf327d29c6676dacf39", "lon": -77.00140716666667}, {"is_reserved": 0, "fusion_lon": 0.0, "fusion_lat": 0.0, "name": "da1daf0389d5d1f1e3b12cf77224f15f", "type": "electric_scooter", "is_disabled": 0, "lat": 38.86479, "rental_uris": {"android": "https://dc.lft.to/lastmile_qr_scan", "ios": "https://dc.lft.to/lastmile_qr_scan"}, "bike_id": "da1daf0389d5d1f1e3b12cf77224f15f", "lon": -76.98230533333333}, {"is_reserved": 0, "fusion_lon": 0.0, "fusion_lat": 0.0, "name": "dfd69ecec80db27a5a847816eabf89d2", "type": "electric_bike", "is_disabled": 0, "lat": 38.85940183333334, "rental_uris": {"android": "https://dc.lft.to/lastmile_qr_scan", "ios": "https://dc.lft.to/lastmile_qr_scan"}, "bike_id": "dfd69ecec80db27a5a847816eabf89d2", "lon": -77.11829366666667}, {"is_reserved": 0, "fusion_lon": 0.0, "fusion_lat": 0.0, "name": "320e17e9f1b41c444bb5bd6776a906c8", "type": "electric_scooter", "is_disabled": 0, "lat": 38.95617816666667, "rental_uris": {"android": "https://dc.lft.to/lastmile_qr_scan", "ios": "https://dc.lft.to/lastmile_qr_scan"}, "bike_id": "320e17e9f1b41c444bb5bd6776a906c8", "lon": -77.0277945}, {"is_reserved": 0, "fusion_lon": 0.0, "fusion_lat": 0.0, "name": "f6e11ed486723bc1b609d10fc9f0580a", "type": "electric_scooter", "is_disabled": 0, "lat": 38.9085445, "rental_uris": {"android": "https://dc.lft.to/lastmile_qr_scan", "ios": "https://dc.lft.to/lastmile_qr_scan"}, "bike_id": "f6e11ed486723bc1b609d10fc9f0580a", "lon": -77.03827933333334}, {"is_reserved": 0, "fusion_lon": 0.0, "fusion_lat": 0.0, "name": "358c64139f3f43eca639553990686af9", "type": "electric_scooter", "is_disabled": 0, "lat": 38.909876833333335, "rental_uris": {"android": "https://dc.lft.to/lastmile_qr_scan", "ios": "https://dc.lft.to/lastmile_qr_scan"}, "bike_id": "358c64139f3f43eca639553990686af9", "lon": -77.04871483333334}, {"is_reserved": 0, "fusion_lon": 0.0, "fusion_lat": 0.0, "name": "392a2bb625589db41a12ecf94d4f88b4", "type": "electric_scooter", "is_disabled": 0, "lat": 38.91372166666667, "rental_uris": {"android": "https://dc.lft.to/lastmile_qr_scan", "ios": "https://dc.lft.to/lastmile_qr_scan"}, "bike_id": "392a2bb625589db41a12ecf94d4f88b4", "lon": -77.04563133333333}, {"is_reserved": 0, "fusion_lon": 0.0, "fusion_lat": 0.0, "name": "f60f0730e931d0682ebc27aae19d93cf", "type": "electric_bike", "is_disabled": 0, "lat": 38.82367633333333, "rental_uris": {"android": "https://dc.lft.to/lastmile_qr_scan", "ios": "https://dc.lft.to/lastmile_qr_scan"}, "bike_id": "f60f0730e931d0682ebc27aae19d93cf", "lon": -77.00217433333333}, {"is_reserved": 0, "fusion_lon": 0.0, "fusion_lat": 0.0, "name": "05cf98c4198a7e427a6b1e209aa863c2", "type": "electric_scooter", "is_disabled": 0, "lat": 38.949861, "rental_uris": {"android": "https://dc.lft.to/lastmile_qr_scan", "ios": "https://dc.lft.to/lastmile_qr_scan"}, "bike_id": "05cf98c4198a7e427a6b1e209aa863c2", "lon": -77.02658966666667}, {"is_reserved": 0, "fusion_lon": 0.0, "fusion_lat": 0.0, "name": "5e0278b55c7bf7793e49d230babddc4f", "type": "electric_scooter", "is_disabled": 0, "lat": 38.906473, "rental_uris": {"android": "https://dc.lft.to/lastmile_qr_scan", "ios": "https://dc.lft.to/lastmile_qr_scan"}, "bike_id": "5e0278b55c7bf7793e49d230babddc4f", "lon": -77.06910183333333}, {"is_reserved": 0, "fusion_lon": 0.0, "fusion_lat": 0.0, "name": "483be53c4f6612ff02721670061936d7", "type": "electric_bike", "is_disabled": 0, "lat": 38.8920315, "rental_uris": {"android": "https://dc.lft.to/lastmile_qr_scan", "ios": "https://dc.lft.to/lastmile_qr_scan"}, "bike_id": "483be53c4f6612ff02721670061936d7", "lon": -77.00298183333334}, {"is_reserved": 0, "fusion_lon": 0.0, "fusion_lat": 0.0, "name": "45094c88378ab2d3b460e82a8c213a41", "type": "electric_scooter", "is_disabled": 0, "lat": 38.90073016666667, "rental_uris": {"android": "https://dc.lft.to/lastmile_qr_scan", "ios": "https://dc.lft.to/lastmile_qr_scan"}, "bike_id": "45094c88378ab2d3b460e82a8c213a41", "lon": -77.04534983333333}, {"is_reserved": 0, "fusion_lon": 0.0, "fusion_lat": 0.0, "name": "0f35fc4b2226c8d0695950325da888b7", "type": "electric_bike", "is_disabled": 0, "lat": 38.9350665, "rental_uris": {"android": "https://dc.lft.to/lastmile_qr_scan", "ios": "https://dc.lft.to/lastmile_qr_scan"}, "bike_id": "0f35fc4b2226c8d0695950325da888b7", "lon": -76.99812216666666}, {"is_reserved": 0, "fusion_lon": 0.0, "fusion_lat": 0.0, "name": "0cfd01007193683b08271954296f2398", "type": "electric_scooter", "is_disabled": 0, "lat": 38.904435166666666, "rental_uris": {"android": "https://dc.lft.to/lastmile_qr_scan", "ios": "https://dc.lft.to/lastmile_qr_scan"}, "bike_id": "0cfd01007193683b08271954296f2398", "lon": -77.04327816666667}, {"is_reserved": 0, "fusion_lon": 0.0, "fusion_lat": 0.0, "name": "d6000d07319623bec9cbd04e62aedea5", "type": "electric_scooter", "is_disabled": 0, "lat": 38.902423166666665, "rental_uris": {"android": "https://dc.lft.to/lastmile_qr_scan", "ios": "https://dc.lft.to/lastmile_qr_scan"}, "bike_id": "d6000d07319623bec9cbd04e62aedea5", "lon": -77.00199916666666}, {"is_reserved": 0, "fusion_lon": 0.0, "fusion_lat": 0.0, "name": "f27fdad113f4f32de32c9f5793ad7448", "type": "electric_scooter", "is_disabled": 0, "lat": 38.930966166666664, "rental_uris": {"android": "https://dc.lft.to/lastmile_qr_scan", "ios": "https://dc.lft.to/lastmile_qr_scan"}, "bike_id": "f27fdad113f4f32de32c9f5793ad7448", "lon": -77.02793283333334}, {"is_reserved": 0, "fusion_lon": 0.0, "fusion_lat": 0.0, "name": "3e5a6a1d0aa82dab0bacacabcf39c386", "type": "electric_scooter", "is_disabled": 0, "lat": 38.917111166666665, "rental_uris": {"android": "https://dc.lft.to/lastmile_qr_scan", "ios": "https://dc.lft.to/lastmile_qr_scan"}, "bike_id": "3e5a6a1d0aa82dab0bacacabcf39c386", "lon": -77.033054}, {"is_reserved": 0, "fusion_lon": 0.0, "fusion_lat": 0.0, "name": "d273f1f06fd289795bbbdf3ff7201a7f", "type": "electric_scooter", "is_disabled": 0, "lat": 38.91727566666667, "rental_uris": {"android": "https://dc.lft.to/lastmile_qr_scan", "ios": "https://dc.lft.to/lastmile_qr_scan"}, "bike_id": "d273f1f06fd289795bbbdf3ff7201a7f", "lon": -77.03664466666666}, {"is_reserved": 0, "fusion_lon": 0.0, "fusion_lat": 0.0, "name": "5c73f023fe084f1e15947a480b98b64e", "type": "electric_scooter", "is_disabled": 0, "lat": 38.908611, "rental_uris": {"android": "https://dc.lft.to/lastmile_qr_scan", "ios": "https://dc.lft.to/lastmile_qr_scan"}, "bike_id": "5c73f023fe084f1e15947a480b98b64e", "lon": -77.03443016666667}, {"is_reserved": 0, "fusion_lon": 0.0, "fusion_lat": 0.0, "name": "156689d7f57391f804a981cd21f3efcc", "type": "electric_scooter", "is_disabled": 0, "lat": 38.95504366666667, "rental_uris": {"android": "https://dc.lft.to/lastmile_qr_scan", "ios": "https://dc.lft.to/lastmile_qr_scan"}, "bike_id": "156689d7f57391f804a981cd21f3efcc", "lon": -77.02958216666667}, {"is_reserved": 0, "fusion_lon": 0.0, "fusion_lat": 0.0, "name": "09a2c67941515b16808d413e495056f3", "type": "electric_scooter", "is_disabled": 0, "lat": 38.887413333333335, "rental_uris": {"android": "https://dc.lft.to/lastmile_qr_scan", "ios": "https://dc.lft.to/lastmile_qr_scan"}, "bike_id": "09a2c67941515b16808d413e495056f3", "lon": -77.02213466666667}, {"is_reserved": 0, "fusion_lon": 0.0, "fusion_lat": 0.0, "name": "5ece57f5d1decfe84c0b54e15dc544a9", "type": "electric_scooter", "is_disabled": 0, "lat": 38.915562666666666, "rental_uris": {"android": "https://dc.lft.to/lastmile_qr_scan", "ios": "https://dc.lft.to/lastmile_qr_scan"}, "bike_id": "5ece57f5d1decfe84c0b54e15dc544a9", "lon": -77.0220875}, {"is_reserved": 0, "fusion_lon": 0.0, "fusion_lat": 0.0, "name": "d75b35e7f58c317f3b8935f9ebc00568", "type": "electric_scooter", "is_disabled": 0, "lat": 38.8951315, "rental_uris": {"android": "https://dc.lft.to/lastmile_qr_scan", "ios": "https://dc.lft.to/lastmile_qr_scan"}, "bike_id": "d75b35e7f58c317f3b8935f9ebc00568", "lon": -77.04678166666666}, {"is_reserved": 0, "fusion_lon": 0.0, "fusion_lat": 0.0, "name": "0332bbb41e50e095144aa45742f21ad5", "type": "electric_scooter", "is_disabled": 0, "lat": 38.9045405, "rental_uris": {"android": "https://dc.lft.to/lastmile_qr_scan", "ios": "https://dc.lft.to/lastmile_qr_scan"}, "bike_id": "0332bbb41e50e095144aa45742f21ad5", "lon": -77.04480816666667}, {"is_reserved": 0, "fusion_lon": 0.0, "fusion_lat": 0.0, "name": "94f28b81d2b8c3ceb0c01067bec33e7f", "type": "electric_scooter", "is_disabled": 0, "lat": 38.9027865, "rental_uris": {"android": "https://dc.lft.to/lastmile_qr_scan", "ios": "https://dc.lft.to/lastmile_qr_scan"}, "bike_id": "94f28b81d2b8c3ceb0c01067bec33e7f", "lon": -77.04185116666666}, {"is_reserved": 0, "fusion_lon": 0.0, "fusion_lat": 0.0, "name": "5c0f10152aac125a3a23fd65e2e2bafd", "type": "electric_scooter", "is_disabled": 0, "lat": 38.90693066666667, "rental_uris": {"android": "https://dc.lft.to/lastmile_qr_scan", "ios": "https://dc.lft.to/lastmile_qr_scan"}, "bike_id": "5c0f10152aac125a3a23fd65e2e2bafd", "lon": -77.03848433333333}, {"is_reserved": 0, "fusion_lon": 0.0, "fusion_lat": 0.0, "name": "0ff4ca6fd760bdee188f6ad91bc24ccf", "type": "electric_scooter", "is_disabled": 0, "lat": 38.88132316666667, "rental_uris": {"android": "https://dc.lft.to/lastmile_qr_scan", "ios": "https://dc.lft.to/lastmile_qr_scan"}, "bike_id": "0ff4ca6fd760bdee188f6ad91bc24ccf", "lon": -77.01663733333334}, {"is_reserved": 0, "fusion_lon": 0.0, "fusion_lat": 0.0, "name": "319b51bd3720f165dc8f651bcff6ae62", "type": "electric_scooter", "is_disabled": 0, "lat": 38.88608266666667, "rental_uris": {"android": "https://dc.lft.to/lastmile_qr_scan", "ios": "https://dc.lft.to/lastmile_qr_scan"}, "bike_id": "319b51bd3720f165dc8f651bcff6ae62", "lon": -76.991004}, {"is_reserved": 0, "fusion_lon": 0.0, "fusion_lat": 0.0, "name": "ebdb6943a655a9beeb997ae89f288685", "type": "electric_scooter", "is_disabled": 0, "lat": 38.9043395, "rental_uris": {"android": "https://dc.lft.to/lastmile_qr_scan", "ios": "https://dc.lft.to/lastmile_qr_scan"}, "bike_id": "ebdb6943a655a9beeb997ae89f288685", "lon": -77.0531745}, {"is_reserved": 0, "fusion_lon": 0.0, "fusion_lat": 0.0, "name": "2356bd8e740b7f2e40f1364796da6a38", "type": "electric_scooter", "is_disabled": 0, "lat": 38.91620416666667, "rental_uris": {"android": "https://dc.lft.to/lastmile_qr_scan", "ios": "https://dc.lft.to/lastmile_qr_scan"}, "bike_id": "2356bd8e740b7f2e40f1364796da6a38", "lon": -77.02203233333333}, {"is_reserved": 0, "fusion_lon": 0.0, "fusion_lat": 0.0, "name": "c85a4eb5f72d18d1f08428bd0ee064f4", "type": "electric_scooter", "is_disabled": 0, "lat": 38.90833116666667, "rental_uris": {"android": "https://dc.lft.to/lastmile_qr_scan", "ios": "https://dc.lft.to/lastmile_qr_scan"}, "bike_id": "c85a4eb5f72d18d1f08428bd0ee064f4", "lon": -77.03835366666667}, {"is_reserved": 0, "fusion_lon": 0.0, "fusion_lat": 0.0, "name": "430bdd3d9a9017b26ae3bdbd389d8cd6", "type": "electric_scooter", "is_disabled": 0, "lat": 38.86259183333333, "rental_uris": {"android": "https://dc.lft.to/lastmile_qr_scan", "ios": "https://dc.lft.to/lastmile_qr_scan"}, "bike_id": "430bdd3d9a9017b26ae3bdbd389d8cd6", "lon": -76.99515783333334}, {"is_reserved": 0, "fusion_lon": 0.0, "fusion_lat": 0.0, "name": "f8f68813e653451304164a84155adcf7", "type": "electric_scooter", "is_disabled": 0, "lat": 38.900544, "rental_uris": {"android": "https://dc.lft.to/lastmile_qr_scan", "ios": "https://dc.lft.to/lastmile_qr_scan"}, "bike_id": "f8f68813e653451304164a84155adcf7", "lon": -77.0432895}, {"is_reserved": 0, "fusion_lon": 0.0, "fusion_lat": 0.0, "name": "0fe985554f52b4e4c3e18c40fada7d50", "type": "electric_bike", "is_disabled": 0, "lat": 38.995401666666666, "rental_uris": {"android": "https://dc.lft.to/lastmile_qr_scan", "ios": "https://dc.lft.to/lastmile_qr_scan"}, "bike_id": "0fe985554f52b4e4c3e18c40fada7d50", "lon": -77.06941416666666}, {"is_reserved": 0, "fusion_lon": 0.0, "fusion_lat": 0.0, "name": "d09f211da960d4757645a947a2dd552e", "type": "electric_scooter", "is_disabled": 0, "lat": 38.926233333333336, "rental_uris": {"android": "https://dc.lft.to/lastmile_qr_scan", "ios": "https://dc.lft.to/lastmile_qr_scan"}, "bike_id": "d09f211da960d4757645a947a2dd552e", "lon": -77.04321083333333}, {"is_reserved": 0, "fusion_lon": 0.0, "fusion_lat": 0.0, "name": "c4fc4e8b74d6af4a5745907c3fd7e8f3", "type": "electric_bike", "is_disabled": 0, "lat": 38.83784083333333, "rental_uris": {"android": "https://dc.lft.to/lastmile_qr_scan", "ios": "https://dc.lft.to/lastmile_qr_scan"}, "bike_id": "c4fc4e8b74d6af4a5745907c3fd7e8f3", "lon": -76.99755383333333}, {"is_reserved": 0, "fusion_lon": 0.0, "fusion_lat": 0.0, "name": "b4aebaa56d08343b754a2e634e938cdc", "type": "electric_scooter", "is_disabled": 0, "lat": 38.892007166666666, "rental_uris": {"android": "https://dc.lft.to/lastmile_qr_scan", "ios": "https://dc.lft.to/lastmile_qr_scan"}, "bike_id": "b4aebaa56d08343b754a2e634e938cdc", "lon": -77.03722933333333}, {"is_reserved": 0, "fusion_lon": 0.0, "fusion_lat": 0.0, "name": "6d7f2b57b8624434e3ba03756c7f912d", "type": "electric_scooter", "is_disabled": 0, "lat": 38.90980916666667, "rental_uris": {"android": "https://dc.lft.to/lastmile_qr_scan", "ios": "https://dc.lft.to/lastmile_qr_scan"}, "bike_id": "6d7f2b57b8624434e3ba03756c7f912d", "lon": -77.0385915}, {"is_reserved": 0, "fusion_lon": 0.0, "fusion_lat": 0.0, "name": "21ad92195512d34390bd24415a1f8640", "type": "electric_scooter", "is_disabled": 0, "lat": 38.895094, "rental_uris": {"android": "https://dc.lft.to/lastmile_qr_scan", "ios": "https://dc.lft.to/lastmile_qr_scan"}, "bike_id": "21ad92195512d34390bd24415a1f8640", "lon": -76.934734}, {"is_reserved": 0, "fusion_lon": 0.0, "fusion_lat": 0.0, "name": "0ff7a2ebf0280056548b73962d089533", "type": "electric_scooter", "is_disabled": 0, "lat": 38.93246033333333, "rental_uris": {"android": "https://dc.lft.to/lastmile_qr_scan", "ios": "https://dc.lft.to/lastmile_qr_scan"}, "bike_id": "0ff7a2ebf0280056548b73962d089533", "lon": -77.02382233333333}, {"is_reserved": 0, "fusion_lon": 0.0, "fusion_lat": 0.0, "name": "a35869c93d9aea8802c9becb54760239", "type": "electric_bike", "is_disabled": 0, "lat": 38.963259666666666, "rental_uris": {"android": "https://dc.lft.to/lastmile_qr_scan", "ios": "https://dc.lft.to/lastmile_qr_scan"}, "bike_id": "a35869c93d9aea8802c9becb54760239", "lon": -76.97363566666667}, {"is_reserved": 0, "fusion_lon": 0.0, "fusion_lat": 0.0, "name": "aab88a975a97a5b74a4ab4842a2fd184", "type": "electric_scooter", "is_disabled": 0, "lat": 38.90795683333333, "rental_uris": {"android": "https://dc.lft.to/lastmile_qr_scan", "ios": "https://dc.lft.to/lastmile_qr_scan"}, "bike_id": "aab88a975a97a5b74a4ab4842a2fd184", "lon": -77.04243266666667}, {"is_reserved": 0, "fusion_lon": 0.0, "fusion_lat": 0.0, "name": "a77179faac31bd7686bd2ede8687bd41", "type": "electric_scooter", "is_disabled": 0, "lat": 38.918177, "rental_uris": {"android": "https://dc.lft.to/lastmile_qr_scan", "ios": "https://dc.lft.to/lastmile_qr_scan"}, "bike_id": "a77179faac31bd7686bd2ede8687bd41", "lon": -77.0895705}, {"is_reserved": 0, "fusion_lon": 0.0, "fusion_lat": 0.0, "name": "03b9640590b3f710cbb1b0551a0ac21d", "type": "electric_scooter", "is_disabled": 0, "lat": 38.90872683333333, "rental_uris": {"android": "https://dc.lft.to/lastmile_qr_scan", "ios": "https://dc.lft.to/lastmile_qr_scan"}, "bike_id": "03b9640590b3f710cbb1b0551a0ac21d", "lon": -77.08592316666666}, {"is_reserved": 0, "fusion_lon": 0.0, "fusion_lat": 0.0, "name": "aa68ceecd5d923d006aeff51e0aff50c", "type": "electric_scooter", "is_disabled": 0, "lat": 38.896096166666666, "rental_uris": {"android": "https://dc.lft.to/lastmile_qr_scan", "ios": "https://dc.lft.to/lastmile_qr_scan"}, "bike_id": "aa68ceecd5d923d006aeff51e0aff50c", "lon": -77.023807}, {"is_reserved": 0, "fusion_lon": 0.0, "fusion_lat": 0.0, "name": "31e192915f3553099574663d97516eb0", "type": "electric_bike", "is_disabled": 0, "lat": 38.963068666666665, "rental_uris": {"android": "https://dc.lft.to/lastmile_qr_scan", "ios": "https://dc.lft.to/lastmile_qr_scan"}, "bike_id": "31e192915f3553099574663d97516eb0", "lon": -77.011059}, {"is_reserved": 0, "fusion_lon": 0.0, "fusion_lat": 0.0, "name": "92915ae28d1947ed9f1fb1c12b03df5a", "type": "electric_scooter", "is_disabled": 0, "lat": 38.90277183333333, "rental_uris": {"android": "https://dc.lft.to/lastmile_qr_scan", "ios": "https://dc.lft.to/lastmile_qr_scan"}, "bike_id": "92915ae28d1947ed9f1fb1c12b03df5a", "lon": -77.0397325}, {"is_reserved": 0, "fusion_lon": 0.0, "fusion_lat": 0.0, "name": "142761fcd8eda27076143ba2d7a3678f", "type": "electric_scooter", "is_disabled": 0, "lat": 38.9014845, "rental_uris": {"android": "https://dc.lft.to/lastmile_qr_scan", "ios": "https://dc.lft.to/lastmile_qr_scan"}, "bike_id": "142761fcd8eda27076143ba2d7a3678f", "lon": -77.02820133333333}, {"is_reserved": 0, "fusion_lon": 0.0, "fusion_lat": 0.0, "name": "022472a91ae4bd891c550c18a82bd369", "type": "electric_scooter", "is_disabled": 0, "lat": 38.904025833333336, "rental_uris": {"android": "https://dc.lft.to/lastmile_qr_scan", "ios": "https://dc.lft.to/lastmile_qr_scan"}, "bike_id": "022472a91ae4bd891c550c18a82bd369", "lon": -77.03452733333333}, {"is_reserved": 0, "fusion_lon": 0.0, "fusion_lat": 0.0, "name": "ba1406420e5b92c91383206dc37decde", "type": "electric_scooter", "is_disabled": 0, "lat": 38.936116166666665, "rental_uris": {"android": "https://dc.lft.to/lastmile_qr_scan", "ios": "https://dc.lft.to/lastmile_qr_scan"}, "bike_id": "ba1406420e5b92c91383206dc37decde", "lon": -77.03772133333334}, {"is_reserved": 0, "fusion_lon": 0.0, "fusion_lat": 0.0, "name": "eba2060b55d61941b9c25e6ee2cfd30e", "type": "electric_scooter", "is_disabled": 0, "lat": 38.93049533333333, "rental_uris": {"android": "https://dc.lft.to/lastmile_qr_scan", "ios": "https://dc.lft.to/lastmile_qr_scan"}, "bike_id": "eba2060b55d61941b9c25e6ee2cfd30e", "lon": -77.01230116666666}, {"is_reserved": 0, "fusion_lon": 0.0, "fusion_lat": 0.0, "name": "9a93472a01c7f6421ffa224aa9129370", "type": "electric_bike", "is_disabled": 0, "lat": 38.902057, "rental_uris": {"android": "https://dc.lft.to/lastmile_qr_scan", "ios": "https://dc.lft.to/lastmile_qr_scan"}, "bike_id": "9a93472a01c7f6421ffa224aa9129370", "lon": -77.0238245}, {"is_reserved": 0, "fusion_lon": 0.0, "fusion_lat": 0.0, "name": "5e9f30adae7d42804758441bf1066c8b", "type": "electric_scooter", "is_disabled": 0, "lat": 38.907391833333335, "rental_uris": {"android": "https://dc.lft.to/lastmile_qr_scan", "ios": "https://dc.lft.to/lastmile_qr_scan"}, "bike_id": "5e9f30adae7d42804758441bf1066c8b", "lon": -77.0435655}, {"is_reserved": 0, "fusion_lon": 0.0, "fusion_lat": 0.0, "name": "59e2ab02d47c2a27d729d5234e0a5396", "type": "electric_scooter", "is_disabled": 0, "lat": 38.855425833333335, "rental_uris": {"android": "https://dc.lft.to/lastmile_qr_scan", "ios": "https://dc.lft.to/lastmile_qr_scan"}, "bike_id": "59e2ab02d47c2a27d729d5234e0a5396", "lon": -76.98417266666667}, {"is_reserved": 0, "fusion_lon": 0.0, "fusion_lat": 0.0, "name": "075760ab99340e70c40ed19cb12d73a5", "type": "electric_scooter", "is_disabled": 0, "lat": 38.9298515, "rental_uris": {"android": "https://dc.lft.to/lastmile_qr_scan", "ios": "https://dc.lft.to/lastmile_qr_scan"}, "bike_id": "075760ab99340e70c40ed19cb12d73a5", "lon": -77.01324416666667}, {"is_reserved": 0, "fusion_lon": 0.0, "fusion_lat": 0.0, "name": "51c2c225c985c5d672f87c780d6a5fbd", "type": "electric_scooter", "is_disabled": 0, "lat": 38.884121, "rental_uris": {"android": "https://dc.lft.to/lastmile_qr_scan", "ios": "https://dc.lft.to/lastmile_qr_scan"}, "bike_id": "51c2c225c985c5d672f87c780d6a5fbd", "lon": -77.01785616666666}, {"is_reserved": 0, "fusion_lon": 0.0, "fusion_lat": 0.0, "name": "1b158e342116a222e06c3f9d6fd9ab7c", "type": "electric_scooter", "is_disabled": 0, "lat": 38.900854833333334, "rental_uris": {"android": "https://dc.lft.to/lastmile_qr_scan", "ios": "https://dc.lft.to/lastmile_qr_scan"}, "bike_id": "1b158e342116a222e06c3f9d6fd9ab7c", "lon": -76.930234}, {"is_reserved": 0, "fusion_lon": 0.0, "fusion_lat": 0.0, "name": "8a6eb9f669b9892a2c82a040a2c79e10", "type": "electric_scooter", "is_disabled": 0, "lat": 38.917726, "rental_uris": {"android": "https://dc.lft.to/lastmile_qr_scan", "ios": "https://dc.lft.to/lastmile_qr_scan"}, "bike_id": "8a6eb9f669b9892a2c82a040a2c79e10", "lon": -77.040628}, {"is_reserved": 0, "fusion_lon": 0.0, "fusion_lat": 0.0, "name": "9ed24ffcb3fb279f2e2111316f9d471f", "type": "electric_scooter", "is_disabled": 0, "lat": 38.89866333333333, "rental_uris": {"android": "https://dc.lft.to/lastmile_qr_scan", "ios": "https://dc.lft.to/lastmile_qr_scan"}, "bike_id": "9ed24ffcb3fb279f2e2111316f9d471f", "lon": -76.92757916666666}, {"is_reserved": 0, "fusion_lon": 0.0, "fusion_lat": 0.0, "name": "ead9cf39981d3f709ba742a56281e843", "type": "electric_scooter", "is_disabled": 0, "lat": 38.9194035, "rental_uris": {"android": "https://dc.lft.to/lastmile_qr_scan", "ios": "https://dc.lft.to/lastmile_qr_scan"}, "bike_id": "ead9cf39981d3f709ba742a56281e843", "lon": -77.02504733333333}, {"is_reserved": 0, "fusion_lon": 0.0, "fusion_lat": 0.0, "name": "5ed4312b0e66db1676de77213209ca07", "type": "electric_bike", "is_disabled": 0, "lat": 38.9565785, "rental_uris": {"android": "https://dc.lft.to/lastmile_qr_scan", "ios": "https://dc.lft.to/lastmile_qr_scan"}, "bike_id": "5ed4312b0e66db1676de77213209ca07", "lon": -77.01279716666667}, {"is_reserved": 0, "fusion_lon": 0.0, "fusion_lat": 0.0, "name": "f14ebb024202ffca224f93665034fa16", "type": "electric_scooter", "is_disabled": 0, "lat": 38.88489283333333, "rental_uris": {"android": "https://dc.lft.to/lastmile_qr_scan", "ios": "https://dc.lft.to/lastmile_qr_scan"}, "bike_id": "f14ebb024202ffca224f93665034fa16", "lon": -76.92623933333333}, {"is_reserved": 0, "fusion_lon": 0.0, "fusion_lat": 0.0, "name": "87685c0cdf14933a498ef045bceae2e5", "type": "electric_scooter", "is_disabled": 0, "lat": 38.898114, "rental_uris": {"android": "https://dc.lft.to/lastmile_qr_scan", "ios": "https://dc.lft.to/lastmile_qr_scan"}, "bike_id": "87685c0cdf14933a498ef045bceae2e5", "lon": -77.02957483333333}, {"is_reserved": 0, "fusion_lon": 0.0, "fusion_lat": 0.0, "name": "3ae8d7f594109ee4a2f5fb7fbae279f4", "type": "electric_scooter", "is_disabled": 0, "lat": 38.9207615, "rental_uris": {"android": "https://dc.lft.to/lastmile_qr_scan", "ios": "https://dc.lft.to/lastmile_qr_scan"}, "bike_id": "3ae8d7f594109ee4a2f5fb7fbae279f4", "lon": -77.01444083333334}, {"is_reserved": 0, "fusion_lon": 0.0, "fusion_lat": 0.0, "name": "29bd9f3ff89c4d2a3d7c43e76d53d1bc", "type": "electric_scooter", "is_disabled": 0, "lat": 38.9014575, "rental_uris": {"android": "https://dc.lft.to/lastmile_qr_scan", "ios": "https://dc.lft.to/lastmile_qr_scan"}, "bike_id": "29bd9f3ff89c4d2a3d7c43e76d53d1bc", "lon": -77.03970333333334}, {"is_reserved": 0, "fusion_lon": 0.0, "fusion_lat": 0.0, "name": "eff196b504b9f6f8bcf1a780b7f701f8", "type": "electric_scooter", "is_disabled": 0, "lat": 38.86660933333334, "rental_uris": {"android": "https://dc.lft.to/lastmile_qr_scan", "ios": "https://dc.lft.to/lastmile_qr_scan"}, "bike_id": "eff196b504b9f6f8bcf1a780b7f701f8", "lon": -76.985301}, {"is_reserved": 0, "fusion_lon": 0.0, "fusion_lat": 0.0, "name": "e4715662b4d08504870830989ab4d08a", "type": "electric_scooter", "is_disabled": 0, "lat": 38.899082166666666, "rental_uris": {"android": "https://dc.lft.to/lastmile_qr_scan", "ios": "https://dc.lft.to/lastmile_qr_scan"}, "bike_id": "e4715662b4d08504870830989ab4d08a", "lon": -77.040437}, {"is_reserved": 0, "fusion_lon": 0.0, "fusion_lat": 0.0, "name": "b93991abebb36dad1171e0bff7c46761", "type": "electric_scooter", "is_disabled": 0, "lat": 38.8952835, "rental_uris": {"android": "https://dc.lft.to/lastmile_qr_scan", "ios": "https://dc.lft.to/lastmile_qr_scan"}, "bike_id": "b93991abebb36dad1171e0bff7c46761", "lon": -77.00342166666667}, {"is_reserved": 0, "fusion_lon": 0.0, "fusion_lat": 0.0, "name": "9c82ad3c6a48a6ae2597f0c1754cae5f", "type": "electric_scooter", "is_disabled": 0, "lat": 38.89226, "rental_uris": {"android": "https://dc.lft.to/lastmile_qr_scan", "ios": "https://dc.lft.to/lastmile_qr_scan"}, "bike_id": "9c82ad3c6a48a6ae2597f0c1754cae5f", "lon": -77.04374533333333}, {"is_reserved": 0, "fusion_lon": 0.0, "fusion_lat": 0.0, "name": "fd3371d19e12761cc3f72b06d69986c2", "type": "electric_scooter", "is_disabled": 0, "lat": 38.923328166666664, "rental_uris": {"android": "https://dc.lft.to/lastmile_qr_scan", "ios": "https://dc.lft.to/lastmile_qr_scan"}, "bike_id": "fd3371d19e12761cc3f72b06d69986c2", "lon": -77.04324066666666}, {"is_reserved": 0, "fusion_lon": 0.0, "fusion_lat": 0.0, "name": "06269b131e709cb33c96e66a96f85f2a", "type": "electric_scooter", "is_disabled": 0, "lat": 38.90780983333333, "rental_uris": {"android": "https://dc.lft.to/lastmile_qr_scan", "ios": "https://dc.lft.to/lastmile_qr_scan"}, "bike_id": "06269b131e709cb33c96e66a96f85f2a", "lon": -77.0382045}, {"is_reserved": 0, "fusion_lon": 0.0, "fusion_lat": 0.0, "name": "2f505d23b50b703a7fd87ae7b1c11c32", "type": "electric_scooter", "is_disabled": 0, "lat": 38.916721, "rental_uris": {"android": "https://dc.lft.to/lastmile_qr_scan", "ios": "https://dc.lft.to/lastmile_qr_scan"}, "bike_id": "2f505d23b50b703a7fd87ae7b1c11c32", "lon": -77.019159}, {"is_reserved": 0, "fusion_lon": 0.0, "fusion_lat": 0.0, "name": "c925c93edec12e8819ecf27c6803a0a4", "type": "electric_scooter", "is_disabled": 0, "lat": 38.874606666666665, "rental_uris": {"android": "https://dc.lft.to/lastmile_qr_scan", "ios": "https://dc.lft.to/lastmile_qr_scan"}, "bike_id": "c925c93edec12e8819ecf27c6803a0a4", "lon": -77.00546783333333}, {"is_reserved": 0, "fusion_lon": 0.0, "fusion_lat": 0.0, "name": "46b8bbdd77b5c519c47bc5cdf182b8ef", "type": "electric_scooter", "is_disabled": 0, "lat": 38.866629833333334, "rental_uris": {"android": "https://dc.lft.to/lastmile_qr_scan", "ios": "https://dc.lft.to/lastmile_qr_scan"}, "bike_id": "46b8bbdd77b5c519c47bc5cdf182b8ef", "lon": -76.98886366666666}, {"is_reserved": 0, "fusion_lon": 0.0, "fusion_lat": 0.0, "name": "dc9427438aae22df386196fc7b78c1d8", "type": "electric_scooter", "is_disabled": 0, "lat": 38.917910666666664, "rental_uris": {"android": "https://dc.lft.to/lastmile_qr_scan", "ios": "https://dc.lft.to/lastmile_qr_scan"}, "bike_id": "dc9427438aae22df386196fc7b78c1d8", "lon": -77.03200666666666}, {"is_reserved": 0, "fusion_lon": 0.0, "fusion_lat": 0.0, "name": "5b35cea1661fbbb77a479010d69cb635", "type": "electric_scooter", "is_disabled": 0, "lat": 38.92110266666667, "rental_uris": {"android": "https://dc.lft.to/lastmile_qr_scan", "ios": "https://dc.lft.to/lastmile_qr_scan"}, "bike_id": "5b35cea1661fbbb77a479010d69cb635", "lon": -77.03344016666667}, {"is_reserved": 0, "fusion_lon": 0.0, "fusion_lat": 0.0, "name": "80f1a31e9a2ae431e8b984e014786bcf", "type": "electric_scooter", "is_disabled": 0, "lat": 38.903848833333335, "rental_uris": {"android": "https://dc.lft.to/lastmile_qr_scan", "ios": "https://dc.lft.to/lastmile_qr_scan"}, "bike_id": "80f1a31e9a2ae431e8b984e014786bcf", "lon": -77.04026216666666}, {"is_reserved": 0, "fusion_lon": 0.0, "fusion_lat": 0.0, "name": "67024d41a6c17889a804bb3d9e511151", "type": "electric_scooter", "is_disabled": 0, "lat": 38.930042, "rental_uris": {"android": "https://dc.lft.to/lastmile_qr_scan", "ios": "https://dc.lft.to/lastmile_qr_scan"}, "bike_id": "67024d41a6c17889a804bb3d9e511151", "lon": -77.01302416666667}, {"is_reserved": 0, "fusion_lon": 0.0, "fusion_lat": 0.0, "name": "92a58a3a6c1c5872f47e85e27ab6911a", "type": "electric_scooter", "is_disabled": 0, "lat": 38.90881016666667, "rental_uris": {"android": "https://dc.lft.to/lastmile_qr_scan", "ios": "https://dc.lft.to/lastmile_qr_scan"}, "bike_id": "92a58a3a6c1c5872f47e85e27ab6911a", "lon": -77.03755933333333}, {"is_reserved": 0, "fusion_lon": 0.0, "fusion_lat": 0.0, "name": "e568995059c76266f66a913badbb3d21", "type": "electric_scooter", "is_disabled": 0, "lat": 38.89869683333333, "rental_uris": {"android": "https://dc.lft.to/lastmile_qr_scan", "ios": "https://dc.lft.to/lastmile_qr_scan"}, "bike_id": "e568995059c76266f66a913badbb3d21", "lon": -76.94660966666666}, {"is_reserved": 0, "fusion_lon": 0.0, "fusion_lat": 0.0, "name": "29d4061fbb288f028b36001d20689e22", "type": "electric_scooter", "is_disabled": 0, "lat": 38.92371466666667, "rental_uris": {"android": "https://dc.lft.to/lastmile_qr_scan", "ios": "https://dc.lft.to/lastmile_qr_scan"}, "bike_id": "29d4061fbb288f028b36001d20689e22", "lon": -77.01953116666667}, {"is_reserved": 0, "fusion_lon": 0.0, "fusion_lat": 0.0, "name": "8a2450d06036e96e78ffceb20cc24cb2", "type": "electric_scooter", "is_disabled": 0, "lat": 38.885116333333336, "rental_uris": {"android": "https://dc.lft.to/lastmile_qr_scan", "ios": "https://dc.lft.to/lastmile_qr_scan"}, "bike_id": "8a2450d06036e96e78ffceb20cc24cb2", "lon": -76.99842283333334}, {"is_reserved": 0, "fusion_lon": 0.0, "fusion_lat": 0.0, "name": "e488294ef764e9ecfe8b9221ba2c69f5", "type": "electric_scooter", "is_disabled": 0, "lat": 38.906544333333336, "rental_uris": {"android": "https://dc.lft.to/lastmile_qr_scan", "ios": "https://dc.lft.to/lastmile_qr_scan"}, "bike_id": "e488294ef764e9ecfe8b9221ba2c69f5", "lon": -77.04875766666666}, {"is_reserved": 0, "fusion_lon": 0.0, "fusion_lat": 0.0, "name": "9f9b96eecc5ed5f438f1ee99cc7eeb91", "type": "electric_scooter", "is_disabled": 0, "lat": 38.892441, "rental_uris": {"android": "https://dc.lft.to/lastmile_qr_scan", "ios": "https://dc.lft.to/lastmile_qr_scan"}, "bike_id": "9f9b96eecc5ed5f438f1ee99cc7eeb91", "lon": -77.0416385}, {"is_reserved": 0, "fusion_lon": 0.0, "fusion_lat": 0.0, "name": "c4987346c797a60ebf13208944687087", "type": "electric_scooter", "is_disabled": 0, "lat": 38.9252845, "rental_uris": {"android": "https://dc.lft.to/lastmile_qr_scan", "ios": "https://dc.lft.to/lastmile_qr_scan"}, "bike_id": "c4987346c797a60ebf13208944687087", "lon": -77.0504695}, {"is_reserved": 0, "fusion_lon": 0.0, "fusion_lat": 0.0, "name": "7bdec79244237bf00b3980a82da25566", "type": "electric_scooter", "is_disabled": 0, "lat": 38.912725, "rental_uris": {"android": "https://dc.lft.to/lastmile_qr_scan", "ios": "https://dc.lft.to/lastmile_qr_scan"}, "bike_id": "7bdec79244237bf00b3980a82da25566", "lon": -77.0314805}, {"is_reserved": 0, "fusion_lon": 0.0, "fusion_lat": 0.0, "name": "3f2bc44713ff18fa583c03b16b96705d", "type": "electric_scooter", "is_disabled": 0, "lat": 38.92755533333333, "rental_uris": {"android": "https://dc.lft.to/lastmile_qr_scan", "ios": "https://dc.lft.to/lastmile_qr_scan"}, "bike_id": "3f2bc44713ff18fa583c03b16b96705d", "lon": -77.02423066666667}, {"is_reserved": 0, "fusion_lon": 0.0, "fusion_lat": 0.0, "name": "9ce136e86795c57f5335ede8aa423204", "type": "electric_scooter", "is_disabled": 0, "lat": 38.880848666666665, "rental_uris": {"android": "https://dc.lft.to/lastmile_qr_scan", "ios": "https://dc.lft.to/lastmile_qr_scan"}, "bike_id": "9ce136e86795c57f5335ede8aa423204", "lon": -76.98512466666666}, {"is_reserved": 0, "fusion_lon": 0.0, "fusion_lat": 0.0, "name": "ccb445700749684b30f0c1048ad0d7b9", "type": "electric_scooter", "is_disabled": 0, "lat": 38.89917, "rental_uris": {"android": "https://dc.lft.to/lastmile_qr_scan", "ios": "https://dc.lft.to/lastmile_qr_scan"}, "bike_id": "ccb445700749684b30f0c1048ad0d7b9", "lon": -77.01375366666667}, {"is_reserved": 0, "fusion_lon": 0.0, "fusion_lat": 0.0, "name": "9378154f568861584d431a981dce8edd", "type": "electric_scooter", "is_disabled": 0, "lat": 38.8955325, "rental_uris": {"android": "https://dc.lft.to/lastmile_qr_scan", "ios": "https://dc.lft.to/lastmile_qr_scan"}, "bike_id": "9378154f568861584d431a981dce8edd", "lon": -76.94878216666666}, {"is_reserved": 0, "fusion_lon": 0.0, "fusion_lat": 0.0, "name": "f212460cd773a1a766348c369f0b0dd6", "type": "electric_scooter", "is_disabled": 0, "lat": 38.90246166666667, "rental_uris": {"android": "https://dc.lft.to/lastmile_qr_scan", "ios": "https://dc.lft.to/lastmile_qr_scan"}, "bike_id": "f212460cd773a1a766348c369f0b0dd6", "lon": -77.002029}, {"is_reserved": 0, "fusion_lon": 0.0, "fusion_lat": 0.0, "name": "af1d70fdf912fda97d45cde2ba7e2b16", "type": "electric_scooter", "is_disabled": 0, "lat": 38.90505266666667, "rental_uris": {"android": "https://dc.lft.to/lastmile_qr_scan", "ios": "https://dc.lft.to/lastmile_qr_scan"}, "bike_id": "af1d70fdf912fda97d45cde2ba7e2b16", "lon": -77.03494933333333}, {"is_reserved": 0, "fusion_lon": 0.0, "fusion_lat": 0.0, "name": "af6d9e992e4c88b2b5b77096bbf353bb", "type": "electric_scooter", "is_disabled": 0, "lat": 38.918025166666666, "rental_uris": {"android": "https://dc.lft.to/lastmile_qr_scan", "ios": "https://dc.lft.to/lastmile_qr_scan"}, "bike_id": "af6d9e992e4c88b2b5b77096bbf353bb", "lon": -77.0402235}, {"is_reserved": 0, "fusion_lon": 0.0, "fusion_lat": 0.0, "name": "4c601be4b437e840919ccc8244214689", "type": "electric_scooter", "is_disabled": 0, "lat": 38.907364666666666, "rental_uris": {"android": "https://dc.lft.to/lastmile_qr_scan", "ios": "https://dc.lft.to/lastmile_qr_scan"}, "bike_id": "4c601be4b437e840919ccc8244214689", "lon": -77.00259966666667}, {"is_reserved": 0, "fusion_lon": 0.0, "fusion_lat": 0.0, "name": "d9ca7e01a1ca77943f4c01256fe43d9a", "type": "electric_scooter", "is_disabled": 0, "lat": 38.8768275, "rental_uris": {"android": "https://dc.lft.to/lastmile_qr_scan", "ios": "https://dc.lft.to/lastmile_qr_scan"}, "bike_id": "d9ca7e01a1ca77943f4c01256fe43d9a", "lon": -76.99829033333333}, {"is_reserved": 0, "fusion_lon": 0.0, "fusion_lat": 0.0, "name": "e9714de4f6a2abca8267eb7906b34b82", "type": "electric_scooter", "is_disabled": 0, "lat": 38.89429583333333, "rental_uris": {"android": "https://dc.lft.to/lastmile_qr_scan", "ios": "https://dc.lft.to/lastmile_qr_scan"}, "bike_id": "e9714de4f6a2abca8267eb7906b34b82", "lon": -76.91120816666667}, {"is_reserved": 0, "fusion_lon": 0.0, "fusion_lat": 0.0, "name": "a09ea18dc7060be800fa5af17fc33b90", "type": "electric_bike", "is_disabled": 0, "lat": 38.902750833333336, "rental_uris": {"android": "https://dc.lft.to/lastmile_qr_scan", "ios": "https://dc.lft.to/lastmile_qr_scan"}, "bike_id": "a09ea18dc7060be800fa5af17fc33b90", "lon": -76.92925366666667}, {"is_reserved": 0, "fusion_lon": 0.0, "fusion_lat": 0.0, "name": "1c050f72e9b6c4057dc3c04963d5c6e9", "type": "electric_scooter", "is_disabled": 0, "lat": 38.892218166666666, "rental_uris": {"android": "https://dc.lft.to/lastmile_qr_scan", "ios": "https://dc.lft.to/lastmile_qr_scan"}, "bike_id": "1c050f72e9b6c4057dc3c04963d5c6e9", "lon": -77.04374516666667}, {"is_reserved": 0, "fusion_lon": 0.0, "fusion_lat": 0.0, "name": "5b7cfc6912ba16b0bc2e66f7feff79ca", "type": "electric_scooter", "is_disabled": 0, "lat": 38.898771333333336, "rental_uris": {"android": "https://dc.lft.to/lastmile_qr_scan", "ios": "https://dc.lft.to/lastmile_qr_scan"}, "bike_id": "5b7cfc6912ba16b0bc2e66f7feff79ca", "lon": -77.0328045}, {"is_reserved": 0, "fusion_lon": 0.0, "fusion_lat": 0.0, "name": "0de938938949784cdf60dc9da005d4a6", "type": "electric_scooter", "is_disabled": 0, "lat": 38.89677183333333, "rental_uris": {"android": "https://dc.lft.to/lastmile_qr_scan", "ios": "https://dc.lft.to/lastmile_qr_scan"}, "bike_id": "0de938938949784cdf60dc9da005d4a6", "lon": -77.05029966666666}, {"is_reserved": 0, "fusion_lon": 0.0, "fusion_lat": 0.0, "name": "68a100ea50b642394244927dd4de12a2", "type": "electric_scooter", "is_disabled": 0, "lat": 38.90519316666666, "rental_uris": {"android": "https://dc.lft.to/lastmile_qr_scan", "ios": "https://dc.lft.to/lastmile_qr_scan"}, "bike_id": "68a100ea50b642394244927dd4de12a2", "lon": -77.001418}, {"is_reserved": 0, "fusion_lon": 0.0, "fusion_lat": 0.0, "name": "65b94cfbc88ac1516afcccf53bb6f75b", "type": "electric_scooter", "is_disabled": 0, "lat": 38.905495, "rental_uris": {"android": "https://dc.lft.to/lastmile_qr_scan", "ios": "https://dc.lft.to/lastmile_qr_scan"}, "bike_id": "65b94cfbc88ac1516afcccf53bb6f75b", "lon": -77.04105833333334}, {"is_reserved": 0, "fusion_lon": 0.0, "fusion_lat": 0.0, "name": "587a50657ec91b8091f688962c16f471", "type": "electric_bike", "is_disabled": 0, "lat": 39.039810833333334, "rental_uris": {"android": "https://dc.lft.to/lastmile_qr_scan", "ios": "https://dc.lft.to/lastmile_qr_scan"}, "bike_id": "587a50657ec91b8091f688962c16f471", "lon": -76.9988645}, {"is_reserved": 0, "fusion_lon": 0.0, "fusion_lat": 0.0, "name": "0b3c8ea904478bcfd287e4c293517f60", "type": "electric_scooter", "is_disabled": 0, "lat": 38.896013333333336, "rental_uris": {"android": "https://dc.lft.to/lastmile_qr_scan", "ios": "https://dc.lft.to/lastmile_qr_scan"}, "bike_id": "0b3c8ea904478bcfd287e4c293517f60", "lon": -77.00765266666667}, {"is_reserved": 0, "fusion_lon": 0.0, "fusion_lat": 0.0, "name": "2ded1a21018e21cd2b1dcb861a4fb492", "type": "electric_scooter", "is_disabled": 0, "lat": 38.951832833333334, "rental_uris": {"android": "https://dc.lft.to/lastmile_qr_scan", "ios": "https://dc.lft.to/lastmile_qr_scan"}, "bike_id": "2ded1a21018e21cd2b1dcb861a4fb492", "lon": -77.0272665}, {"is_reserved": 0, "fusion_lon": 0.0, "fusion_lat": 0.0, "name": "32b6d6ef13edce55f10abc685fa36dda", "type": "electric_bike", "is_disabled": 0, "lat": 38.8651755, "rental_uris": {"android": "https://dc.lft.to/lastmile_qr_scan", "ios": "https://dc.lft.to/lastmile_qr_scan"}, "bike_id": "32b6d6ef13edce55f10abc685fa36dda", "lon": -76.97342833333333}, {"is_reserved": 0, "fusion_lon": 0.0, "fusion_lat": 0.0, "name": "a5ee73f41f348bb30c822be430bb8e96", "type": "electric_scooter", "is_disabled": 0, "lat": 38.9014815, "rental_uris": {"android": "https://dc.lft.to/lastmile_qr_scan", "ios": "https://dc.lft.to/lastmile_qr_scan"}, "bike_id": "a5ee73f41f348bb30c822be430bb8e96", "lon": -77.01910933333333}, {"is_reserved": 0, "fusion_lon": 0.0, "fusion_lat": 0.0, "name": "8eaf861b8e75c9d03f32d390fc363eb6", "type": "electric_bike", "is_disabled": 0, "lat": 38.85446483333333, "rental_uris": {"android": "https://dc.lft.to/lastmile_qr_scan", "ios": "https://dc.lft.to/lastmile_qr_scan"}, "bike_id": "8eaf861b8e75c9d03f32d390fc363eb6", "lon": -77.08326233333334}, {"is_reserved": 0, "fusion_lon": 0.0, "fusion_lat": 0.0, "name": "3099ef613c26748737ddca168a580fe3", "type": "electric_scooter", "is_disabled": 0, "lat": 38.91476733333333, "rental_uris": {"android": "https://dc.lft.to/lastmile_qr_scan", "ios": "https://dc.lft.to/lastmile_qr_scan"}, "bike_id": "3099ef613c26748737ddca168a580fe3", "lon": -77.02179966666667}, {"is_reserved": 0, "fusion_lon": 0.0, "fusion_lat": 0.0, "name": "26a2adfeae65206ea61bf3f3bc627e22", "type": "electric_scooter", "is_disabled": 0, "lat": 38.88299383333333, "rental_uris": {"android": "https://dc.lft.to/lastmile_qr_scan", "ios": "https://dc.lft.to/lastmile_qr_scan"}, "bike_id": "26a2adfeae65206ea61bf3f3bc627e22", "lon": -76.99351983333334}, {"is_reserved": 0, "fusion_lon": 0.0, "fusion_lat": 0.0, "name": "b79655592d1d3cdf21ebb25787c463d2", "type": "electric_scooter", "is_disabled": 0, "lat": 38.91715533333333, "rental_uris": {"android": "https://dc.lft.to/lastmile_qr_scan", "ios": "https://dc.lft.to/lastmile_qr_scan"}, "bike_id": "b79655592d1d3cdf21ebb25787c463d2", "lon": -77.0309775}, {"is_reserved": 0, "fusion_lon": 0.0, "fusion_lat": 0.0, "name": "870818d34788ecb6981aae7c69f3d429", "type": "electric_scooter", "is_disabled": 0, "lat": 38.930722, "rental_uris": {"android": "https://dc.lft.to/lastmile_qr_scan", "ios": "https://dc.lft.to/lastmile_qr_scan"}, "bike_id": "870818d34788ecb6981aae7c69f3d429", "lon": -77.03940466666667}, {"is_reserved": 0, "fusion_lon": 0.0, "fusion_lat": 0.0, "name": "2416fa899dbfafcea8025f2453dbdc0d", "type": "electric_scooter", "is_disabled": 0, "lat": 38.88746033333334, "rental_uris": {"android": "https://dc.lft.to/lastmile_qr_scan", "ios": "https://dc.lft.to/lastmile_qr_scan"}, "bike_id": "2416fa899dbfafcea8025f2453dbdc0d", "lon": -77.023805}, {"is_reserved": 0, "fusion_lon": 0.0, "fusion_lat": 0.0, "name": "12658e97b1e0c5b565f14042f54654c0", "type": "electric_scooter", "is_disabled": 0, "lat": 38.928582666666664, "rental_uris": {"android": "https://dc.lft.to/lastmile_qr_scan", "ios": "https://dc.lft.to/lastmile_qr_scan"}, "bike_id": "12658e97b1e0c5b565f14042f54654c0", "lon": -77.02176383333334}, {"is_reserved": 0, "fusion_lon": 0.0, "fusion_lat": 0.0, "name": "80e05ea5bbf3184b95649129e1f08f55", "type": "electric_scooter", "is_disabled": 0, "lat": 38.90619233333334, "rental_uris": {"android": "https://dc.lft.to/lastmile_qr_scan", "ios": "https://dc.lft.to/lastmile_qr_scan"}, "bike_id": "80e05ea5bbf3184b95649129e1f08f55", "lon": -77.039858}, {"is_reserved": 0, "fusion_lon": 0.0, "fusion_lat": 0.0, "name": "3e439b97e3211d535309b03e6076f74c", "type": "electric_scooter", "is_disabled": 0, "lat": 38.93772166666667, "rental_uris": {"android": "https://dc.lft.to/lastmile_qr_scan", "ios": "https://dc.lft.to/lastmile_qr_scan"}, "bike_id": "3e439b97e3211d535309b03e6076f74c", "lon": -77.019705}, {"is_reserved": 0, "fusion_lon": 0.0, "fusion_lat": 0.0, "name": "8625e0f8200b7044239568c088267639", "type": "electric_scooter", "is_disabled": 0, "lat": 38.89230533333333, "rental_uris": {"android": "https://dc.lft.to/lastmile_qr_scan", "ios": "https://dc.lft.to/lastmile_qr_scan"}, "bike_id": "8625e0f8200b7044239568c088267639", "lon": -77.00303333333333}, {"is_reserved": 0, "fusion_lon": 0.0, "fusion_lat": 0.0, "name": "cfb58e45c18d6967ef072bd9f8137a87", "type": "electric_scooter", "is_disabled": 0, "lat": 38.915531333333334, "rental_uris": {"android": "https://dc.lft.to/lastmile_qr_scan", "ios": "https://dc.lft.to/lastmile_qr_scan"}, "bike_id": "cfb58e45c18d6967ef072bd9f8137a87", "lon": -77.02371783333334}, {"is_reserved": 0, "fusion_lon": 0.0, "fusion_lat": 0.0, "name": "52437d4bce1d2e029b23dd4dbc526270", "type": "electric_scooter", "is_disabled": 0, "lat": 38.90007633333333, "rental_uris": {"android": "https://dc.lft.to/lastmile_qr_scan", "ios": "https://dc.lft.to/lastmile_qr_scan"}, "bike_id": "52437d4bce1d2e029b23dd4dbc526270", "lon": -76.99834083333333}, {"is_reserved": 0, "fusion_lon": 0.0, "fusion_lat": 0.0, "name": "02ec9ef0eaf2796dc5dc919d6189fe62", "type": "electric_scooter", "is_disabled": 0, "lat": 38.87945883333333, "rental_uris": {"android": "https://dc.lft.to/lastmile_qr_scan", "ios": "https://dc.lft.to/lastmile_qr_scan"}, "bike_id": "02ec9ef0eaf2796dc5dc919d6189fe62", "lon": -77.00666333333334}, {"is_reserved": 0, "fusion_lon": 0.0, "fusion_lat": 0.0, "name": "7a650e770ca5518b71c0e827d362f935", "type": "electric_scooter", "is_disabled": 0, "lat": 38.905581166666664, "rental_uris": {"android": "https://dc.lft.to/lastmile_qr_scan", "ios": "https://dc.lft.to/lastmile_qr_scan"}, "bike_id": "7a650e770ca5518b71c0e827d362f935", "lon": -77.04184466666666}, {"is_reserved": 0, "fusion_lon": 0.0, "fusion_lat": 0.0, "name": "406e93920d26d1667ef6f0fa22e3bfe4", "type": "electric_scooter", "is_disabled": 0, "lat": 38.905645166666666, "rental_uris": {"android": "https://dc.lft.to/lastmile_qr_scan", "ios": "https://dc.lft.to/lastmile_qr_scan"}, "bike_id": "406e93920d26d1667ef6f0fa22e3bfe4", "lon": -77.0060845}, {"is_reserved": 0, "fusion_lon": 0.0, "fusion_lat": 0.0, "name": "f7d70468c4c6361bc8f1418d98cbef40", "type": "electric_scooter", "is_disabled": 0, "lat": 38.902431666666665, "rental_uris": {"android": "https://dc.lft.to/lastmile_qr_scan", "ios": "https://dc.lft.to/lastmile_qr_scan"}, "bike_id": "f7d70468c4c6361bc8f1418d98cbef40", "lon": -77.02692533333334}, {"is_reserved": 0, "fusion_lon": 0.0, "fusion_lat": 0.0, "name": "9132ae33459c5c661d622c300bec6ce9", "type": "electric_scooter", "is_disabled": 0, "lat": 38.91041116666667, "rental_uris": {"android": "https://dc.lft.to/lastmile_qr_scan", "ios": "https://dc.lft.to/lastmile_qr_scan"}, "bike_id": "9132ae33459c5c661d622c300bec6ce9", "lon": -76.99342183333333}, {"is_reserved": 0, "fusion_lon": 0.0, "fusion_lat": 0.0, "name": "b2c6c9975567f92c4b009ef1d3307e29", "type": "electric_scooter", "is_disabled": 0, "lat": 38.901127333333335, "rental_uris": {"android": "https://dc.lft.to/lastmile_qr_scan", "ios": "https://dc.lft.to/lastmile_qr_scan"}, "bike_id": "b2c6c9975567f92c4b009ef1d3307e29", "lon": -77.04010666666667}, {"is_reserved": 0, "fusion_lon": 0.0, "fusion_lat": 0.0, "name": "57ef9539fb4598838241fda2df4127de", "type": "electric_bike", "is_disabled": 0, "lat": 38.837940833333334, "rental_uris": {"android": "https://dc.lft.to/lastmile_qr_scan", "ios": "https://dc.lft.to/lastmile_qr_scan"}, "bike_id": "57ef9539fb4598838241fda2df4127de", "lon": -76.99753333333334}, {"is_reserved": 0, "fusion_lon": 0.0, "fusion_lat": 0.0, "name": "3938ed760cc862d3fbb2e9bae848903e", "type": "electric_scooter", "is_disabled": 0, "lat": 38.86697783333334, "rental_uris": {"android": "https://dc.lft.to/lastmile_qr_scan", "ios": "https://dc.lft.to/lastmile_qr_scan"}, "bike_id": "3938ed760cc862d3fbb2e9bae848903e", "lon": -76.98610183333334}, {"is_reserved": 0, "fusion_lon": 0.0, "fusion_lat": 0.0, "name": "e950cd66b152f843c13964e7ff734718", "type": "electric_scooter", "is_disabled": 0, "lat": 38.894893833333334, "rental_uris": {"android": "https://dc.lft.to/lastmile_qr_scan", "ios": "https://dc.lft.to/lastmile_qr_scan"}, "bike_id": "e950cd66b152f843c13964e7ff734718", "lon": -77.02311816666666}, {"is_reserved": 0, "fusion_lon": 0.0, "fusion_lat": 0.0, "name": "7796ec243906f76ad60fb7da57dbfc85", "type": "electric_scooter", "is_disabled": 0, "lat": 38.9096105, "rental_uris": {"android": "https://dc.lft.to/lastmile_qr_scan", "ios": "https://dc.lft.to/lastmile_qr_scan"}, "bike_id": "7796ec243906f76ad60fb7da57dbfc85", "lon": -77.04577566666667}, {"is_reserved": 0, "fusion_lon": 0.0, "fusion_lat": 0.0, "name": "765d60ae731e9257d42232ae1e893375", "type": "electric_scooter", "is_disabled": 0, "lat": 38.9051325, "rental_uris": {"android": "https://dc.lft.to/lastmile_qr_scan", "ios": "https://dc.lft.to/lastmile_qr_scan"}, "bike_id": "765d60ae731e9257d42232ae1e893375", "lon": -76.98489683333334}, {"is_reserved": 0, "fusion_lon": 0.0, "fusion_lat": 0.0, "name": "a0f2bfe85102c86d18aee2752c5bd55b", "type": "electric_scooter", "is_disabled": 0, "lat": 38.880535, "rental_uris": {"android": "https://dc.lft.to/lastmile_qr_scan", "ios": "https://dc.lft.to/lastmile_qr_scan"}, "bike_id": "a0f2bfe85102c86d18aee2752c5bd55b", "lon": -77.0249045}, {"is_reserved": 0, "fusion_lon": 0.0, "fusion_lat": 0.0, "name": "61ce202ad388fcb3e178aada10a662ed", "type": "electric_scooter", "is_disabled": 0, "lat": 38.90731483333333, "rental_uris": {"android": "https://dc.lft.to/lastmile_qr_scan", "ios": "https://dc.lft.to/lastmile_qr_scan"}, "bike_id": "61ce202ad388fcb3e178aada10a662ed", "lon": -77.04218483333334},