{"data": {"bikes": [{"fusion_lon": 0.0, "bike_id": "237de783eeeeecc50c5b102559075d8b", "name": "237de783eeeeecc50c5b102559075d8b", "type": "electric_scooter", "lon": -77.03149833333333, "rental_uris": {"android": "https://dc.lft.to/lastmile_qr_scan", "ios": "https://dc.lft.to/lastmile_qr_scan"}, "lat": 38.887409166666664, "is_reserved": 0, "is_disabled": 0, "fusion_lat": 0.0}, {"fusion_lon": 0.0, "bike_id": "1146714b0dced1ab7fed7a613be5da36", "name": "1146714b0dced1ab7fed7a613be5da36", "type": "electric_bike", "lon": -77.02625383333333, "rental_uris": {"android": "https://dc.lft.to/lastmile_qr_scan", "ios": "https://dc.lft.to/lastmile_qr_scan"}, "lat": 38.96223, "is_reserved": 0, "is_disabled": 0, "fusion_lat": 0.0}, {"fusion_lon": 0.0, "bike_id": "6a097e2dedb86f5e395569e8aa4f8ab6", "name": "6a097e2dedb86f5e395569e8aa4f8ab6", "type": "electric_bike", "lon": -77.0852515, "rental_uris": {"android": "https://dc.lft.to/lastmile_qr_scan", "ios": "https://dc.lft.to/lastmile_qr_scan"}, "lat": 38.856494833333336, "is_reserved": 0, "is_disabled": 0, "fusion_lat": 0.0}, {"fusion_lon": 0.0, "bike_id": "e3a714a1902276c3cba9e4ff20dba670", "name": "e3a714a1902276c3cba9e4ff20dba670", "type": "electric_scooter", "lon": -77.04326616666667, "rental_uris": {"android": "https://dc.lft.to/lastmile_qr_scan", "ios": "https://dc.lft.to/lastmile_qr_scan"}, "lat": 38.904624, "is_reserved": 0, "is_disabled": 0, "fusion_lat": 0.0}, {"fusion_lon": 0.0, "bike_id": "199535c0354f8532d105a481d190f416", "name": "199535c0354f8532d105a481d190f416", "type": "electric_scooter", "lon": -77.04335233333333, "rental_uris": {"android": "https://dc.lft.to/lastmile_qr_scan", "ios": "https://dc.lft.to/lastmile_qr_scan"}, "lat": 38.922231, "is_reserved": 0, "is_disabled": 0, "fusion_lat": 0.0}, {"fusion_lon": 0.0, "bike_id": "097cc6aab7d3b74d1783f72d2d9feaec", "name": "097cc6aab7d3b74d1783f72d2d9feaec", "type": "electric_scooter", "lon": -77.03221516666666, "rental_uris": {"android": "https://dc.lft.to/lastmile_qr_scan", "ios": "https://dc.lft.to/lastmile_qr_scan"}, "lat": 38.91132233333333, "is_reserved": 0, "is_disabled": 0, "fusion_lat": 0.0}, {"fusion_lon": 0.0, "bike_id": "a882bbe23809cec711873a4e6997f8a1", "name": "a882bbe23809cec711873a4e6997f8a1", "type": "electric_scooter", "lon": -77.01107233333333, "rental_uris": {"android": "https://dc.lft.to/lastmile_qr_scan", "ios": "https://dc.lft.to/lastmile_qr_scan"}, "lat": 38.903667666666664, "is_reserved": 0, "is_disabled": 0, "fusion_lat": 0.0}, {"fusion_lon": 0.0, "bike_id": "eef3822ffd5b5d976d852185671caa20", "name": "eef3822ffd5b5d976d852185671caa20", "type": "electric_scooter", "lon": -76.985443, "rental_uris": {"android": "https://dc.lft.to/lastmile_qr_scan", "ios": "https://dc.lft.to/lastmile_qr_scan"}, "lat": 38.87863566666667, "is_reserved": 0, "is_disabled": 0, "fusion_lat": 0.0}, {"fusion_lon": 0.0, "bike_id": "a36bdcec8b0ddd9cb4e66cb361bdbc33", "name": "a36bdcec8b0ddd9cb4e66cb361bdbc33", "type": "electric_scooter", "lon": -76.93755233333333, "rental_uris": {"android": "https://dc.lft.to/lastmile_qr_scan", "ios": "https://dc.lft.to/lastmile_qr_scan"}, "lat": 38.90375, "is_reserved": 0, "is_disabled": 0, "fusion_lat": 0.0}, {"fusion_lon": 0.0, "bike_id": "01995fa3b0ba106c84519ef19880b883", "name": "01995fa3b0ba106c84519ef19880b883", "type": "electric_scooter", "lon": -77.0258965, "rental_uris": {"android": "https://dc.lft.to/lastmile_qr_scan", "ios": "https://dc.lft.to/lastmile_qr_scan"}, "lat": 38.89983266666667, "is_reserved": 0, "is_disabled": 0, "fusion_lat": 0.0}, {"fusion_lon": 0.0, "bike_id": "7948a4c8d69932b36c889cb556ccc31a", "name": "7948a4c8d69932b36c889cb556ccc31a", "type": "electric_scooter", "lon": -76.93358033333334, "rental_uris": {"android": "https://dc.lft.to/lastmile_qr_scan", "ios": "https://dc.lft.to/lastmile_qr_scan"}, "lat": 38.88798833333333, "is_reserved": 0, "is_disabled": 0, "fusion_lat": 0.0}, {"fusion_lon": 0.0, "bike_id": "151543e2b86b1b171fef77527431b88b", "name": "151543e2b86b1b171fef77527431b88b", "type": "electric_scooter", "lon": -76.98846333333333, "rental_uris": {"android": "https://dc.lft.to/lastmile_qr_scan", "ios": "https://dc.lft.to/lastmile_qr_scan"}, "lat": 38.900459166666664, "is_reserved": 0, "is_disabled": 0, "fusion_lat": 0.0}, {"fusion_lon": 0.0, "bike_id": "0104999cb5ff33798f7416aa3b2e6a46", "name": "0104999cb5ff33798f7416aa3b2e6a46", "type": "electric_scooter", "lon": -77.05070333333333, "rental_uris": {"android": "https://dc.lft.to/lastmile_qr_scan", "ios": "https://dc.lft.to/lastmile_qr_scan"}, "lat": 38.9007885, "is_reserved": 0, "is_disabled": 0, "fusion_lat": 0.0}, {"fusion_lon": 0.0, "bike_id": "b0199674a18e1e0af6e3a088f5e2ebcc", "name": "b0199674a18e1e0af6e3a088f5e2ebcc", "type": "electric_scooter", "lon": -77.02653316666667, "rental_uris": {"android": "https://dc.lft.to/lastmile_qr_scan", "ios": "https://dc.lft.to/lastmile_qr_scan"}, "lat": 38.89215316666667, "is_reserved": 0, "is_disabled": 0, "fusion_lat": 0.0}, {"fusion_lon": 0.0, "bike_id": "954daa8feac5584c074c17cfa7ae805b", "name": "954daa8feac5584c074c17cfa7ae805b", "type": "electric_scooter", "lon": -77.0061495, "rental_uris": {"android": "https://dc.lft.to/lastmile_qr_scan", "ios": "https://dc.lft.to/lastmile_qr_scan"}, "lat": 38.87486583333333, "is_reserved": 0, "is_disabled": 0, "fusion_lat": 0.0}, {"fusion_lon": 0.0, "bike_id": "5403d8c48ceea72e054437379cdbca1f", "name": "5403d8c48ceea72e054437379cdbca1f", "type": "electric_bike", "lon": -76.92886783333333, "rental_uris": {"android": "https://dc.lft.to/lastmile_qr_scan", "ios": "https://dc.lft.to/lastmile_qr_scan"}, "lat": 38.978471666666664, "is_reserved": 0, "is_disabled": 0, "fusion_lat": 0.0}, {"fusion_lon": 0.0, "bike_id": "a834cc65e34b1507059d52fba96a7512", "name": "a834cc65e34b1507059d52fba96a7512", "type": "electric_scooter", "lon": -77.01757283333333, "rental_uris": {"android": "https://dc.lft.to/lastmile_qr_scan", "ios": "https://dc.lft.to/lastmile_qr_scan"}, "lat": 38.8768495, "is_reserved": 0, "is_disabled": 0, "fusion_lat": 0.0}, {"fusion_lon": 0.0, "bike_id": "86483480130cb7cf7ca5bc99cf6131b8", "name": "86483480130cb7cf7ca5bc99cf6131b8", "type": "electric_scooter", "lon": -77.0363015, "rental_uris": {"android": "https://dc.lft.to/lastmile_qr_scan", "ios": "https://dc.lft.to/lastmile_qr_scan"}, "lat": 38.93050066666667, "is_reserved": 0, "is_disabled": 0, "fusion_lat": 0.0}, {"fusion_lon": 0.0, "bike_id": "a81be6a488a8b612c30118f86ebab4a2", "name": "a81be6a488a8b612c30118f86ebab4a2", "type": "electric_scooter", "lon": -77.0176795, "rental_uris": {"android": "https://dc.lft.to/lastmile_qr_scan", "ios": "https://dc.lft.to/lastmile_qr_scan"}, "lat": 38.921285833333336, "is_reserved": 0, "is_disabled": 0, "fusion_lat": 0.0}, {"fusion_lon": 0.0, "bike_id": "849b0b131a5476781b796bb797bad0ad", "name": "849b0b131a5476781b796bb797bad0ad", "type": "electric_scooter", "lon": -76.99634766666667, "rental_uris": {"android": "https://dc.lft.to/lastmile_qr_scan", "ios": "https://dc.lft.to/lastmile_qr_scan"}, "lat": 38.846196, "is_reserved": 0, "is_disabled": 0, "fusion_lat": 0.0}, {"fusion_lon": 0.0, "bike_id": "dff51ac7a8e2944f71cef1ebd3adaaa0", "name": "dff51ac7a8e2944f71cef1ebd3adaaa0", "type": "electric_scooter", "lon": -77.0610235, "rental_uris": {"android": "https://dc.lft.to/lastmile_qr_scan", "ios": "https://dc.lft.to/lastmile_qr_scan"}, "lat": 38.90532616666667, "is_reserved": 0, "is_disabled": 0, "fusion_lat": 0.0}, {"fusion_lon": 0.0, "bike_id": "0e1f537167cbfd3ec59e54986a52b292", "name": "0e1f537167cbfd3ec59e54986a52b292", "type": "electric_scooter", "lon": -77.01199716666666, "rental_uris": {"android": "https://dc.lft.to/lastmile_qr_scan", "ios": "https://dc.lft.to/lastmile_qr_scan"}, "lat": 38.895186, "is_reserved": 0, "is_disabled": 0, "fusion_lat": 0.0}, {"fusion_lon": 0.0, "bike_id": "11b6c79d324a6ab8ef7818f3ba9c1695", "name": "11b6c79d324a6ab8ef7818f3ba9c1695", "type": "electric_scooter", "lon": -77.03153133333333, "rental_uris": {"android": "https://dc.lft.to/lastmile_qr_scan", "ios": "https://dc.lft.to/lastmile_qr_scan"}, "lat": 38.928065, "is_reserved": 0, "is_disabled": 0, "fusion_lat": 0.0}, {"fusion_lon": 0.0, "bike_id": "ed8f7ece1f8ee0ce5910340ef8c03ccd", "name": "ed8f7ece1f8ee0ce5910340ef8c03ccd", "type": "electric_bike", "lon": -76.98745966666667, "rental_uris": {"android": "https://dc.lft.to/lastmile_qr_scan", "ios": "https://dc.lft.to/lastmile_qr_scan"}, "lat": 38.9882655, "is_reserved": 0, "is_disabled": 0, "fusion_lat": 0.0}, {"fusion_lon": 0.0, "bike_id": "4b5a0a33234eab1805581e3bf9203311", "name": "4b5a0a33234eab1805581e3bf9203311", "type": "electric_scooter", "lon": -77.03228016666667, "rental_uris": {"android": "https://dc.lft.to/lastmile_qr_scan", "ios": "https://dc.lft.to/lastmile_qr_scan"}, "lat": 38.908888, "is_reserved": 0, "is_disabled": 0, "fusion_lat": 0.0}, {"fusion_lon": 0.0, "bike_id": "646abf3232e10cc26786da8a06c58709", "name": "646abf3232e10cc26786da8a06c58709", "type": "electric_scooter", "lon": -77.02943433333333, "rental_uris": {"android": "https://dc.lft.to/lastmile_qr_scan", "ios": "https://dc.lft.to/lastmile_qr_scan"}, "lat": 38.902709, "is_reserved": 0, "is_disabled": 0, "fusion_lat": 0.0}, {"fusion_lon": 0.0, "bike_id": "701818bcf2e9bf974f34edede5057858", "name": "701818bcf2e9bf974f34edede5057858", "type": "electric_scooter", "lon": -77.036384, "rental_uris": {"android": "https://dc.lft.to/lastmile_qr_scan", "ios": "https://dc.lft.to/lastmile_qr_scan"}, "lat": 38.90477083333333, "is_reserved": 0, "is_disabled": 0, "fusion_lat": 0.0}, {"fusion_lon": 0.0, "bike_id": "f52049ecb76bd462eb461baf4a5dee90", "name": "f52049ecb76bd462eb461baf4a5dee90", "type": "electric_bike", "lon": -77.10653283333333, "rental_uris": {"android": "https://dc.lft.to/lastmile_qr_scan", "ios": "https://dc.lft.to/lastmile_qr_scan"}, "lat": 39.03000016666667, "is_reserved": 0, "is_disabled": 0, "fusion_lat": 0.0}, {"fusion_lon": 0.0, "bike_id": "7b02f8afbb0e13d41f8eabe1483288c1", "name": "7b02f8afbb0e13d41f8eabe1483288c1", "type": "electric_scooter", "lon": -77.03078933333333, "rental_uris": {"android": "https://dc.lft.to/lastmile_qr_scan", "ios": "https://dc.lft.to/lastmile_qr_scan"}, "lat": 38.90757466666667, "is_reserved": 0, "is_disabled": 0, "fusion_lat": 0.0}, {"fusion_lon": 0.0, "bike_id": "6c86db66250ed23c34c441fbd3fb0a15", "name": "6c86db66250ed23c34c441fbd3fb0a15", "type": "electric_scooter", "lon": -77.02047766666666, "rental_uris": {"android": "https://dc.lft.to/lastmile_qr_scan", "ios": "https://dc.lft.to/lastmile_qr_scan"}, "lat": 38.9412405, "is_reserved": 0, "is_disabled": 0, "fusion_lat": 0.0}, {"fusion_lon": 0.0, "bike_id": "daded1d99d8a234e0d169c3e0210c45d", "name": "daded1d99d8a234e0d169c3e0210c45d", "type": "electric_scooter", "lon": -77.03149916666666, "rental_uris": {"android": "https://dc.lft.to/lastmile_qr_scan", "ios": "https://dc.lft.to/lastmile_qr_scan"}, "lat": 38.920185000000004, "is_reserved": 0, "is_disabled": 0, "fusion_lat": 0.0}, {"fusion_lon": 0.0, "bike_id": "e4cb3f084b6ba6f6521021a3876875b6", "name": "e4cb3f084b6ba6f6521021a3876875b6", "type": "electric_scooter", "lon": -77.012436, "rental_uris": {"android": "https://dc.lft.to/lastmile_qr_scan", "ios": "https://dc.lft.to/lastmile_qr_scan"}, "lat": 38.93107116666667, "is_reserved": 0, "is_disabled": 0, "fusion_lat": 0.0}, {"fusion_lon": 0.0, "bike_id": "07ea1cd210dba8e7a3948d9ecbfb3a64", "name": "07ea1cd210dba8e7a3948d9ecbfb3a64", "type": "electric_scooter", "lon": -77.019572, "rental_uris": {"android": "https://dc.lft.to/lastmile_qr_scan", "ios": "https://dc.lft.to/lastmile_qr_scan"}, "lat": 38.9055545, "is_reserved": 0, "is_disabled": 0, "fusion_lat": 0.0}, {"fusion_lon": 0.0, "bike_id": "1d790ba74063c5f6c0b8c2baa318c279", "name": "1d790ba74063c5f6c0b8c2baa318c279", "type": "electric_scooter", "lon": -77.03954366666666, "rental_uris": {"android": "https://dc.lft.to/lastmile_qr_scan", "ios": "https://dc.lft.to/lastmile_qr_scan"}, "lat": 38.8924295, "is_reserved": 0, "is_disabled": 0, "fusion_lat": 0.0}, {"fusion_lon": 0.0, "bike_id": "c70d2502d4e5c7ef22753f2c74a6d670", "name": "c70d2502d4e5c7ef22753f2c74a6d670", "type": "electric_scooter", "lon": -77.02473266666667, "rental_uris": {"android": "https://dc.lft.to/lastmile_qr_scan", "ios": "https://dc.lft.to/lastmile_qr_scan"}, "lat": 38.937612666666666, "is_reserved": 0, "is_disabled": 0, "fusion_lat": 0.0}, {"fusion_lon": 0.0, "bike_id": "67a9d770d71e0d68a082b8ceca9deddf", "name": "67a9d770d71e0d68a082b8ceca9deddf", "type": "electric_scooter", "lon": -77.02049766666667, "rental_uris": {"android": "https://dc.lft.to/lastmile_qr_scan", "ios": "https://dc.lft.to/lastmile_qr_scan"}, "lat": 38.95872383333333, "is_reserved": 0, "is_disabled": 0, "fusion_lat": 0.0}, {"fusion_lon": 0.0, "bike_id": "9b6f27e058fb7a3fba79637b11d0d846", "name": "9b6f27e058fb7a3fba79637b11d0d846", "type": "electric_scooter", "lon": -77.02721616666666, "rental_uris": {"android": "https://dc.lft.to/lastmile_qr_scan", "ios": "https://dc.lft.to/lastmile_qr_scan"}, "lat": 38.92485383333333, "is_reserved": 0, "is_disabled": 0, "fusion_lat": 0.0}, {"fusion_lon": 0.0, "bike_id": "d8667e86ecd992111fcc1318441e5282", "name": "d8667e86ecd992111fcc1318441e5282", "type": "electric_bike", "lon": -77.02750083333333, "rental_uris": {"android": "https://dc.lft.to/lastmile_qr_scan", "ios": "https://dc.lft.to/lastmile_qr_scan"}, "lat": 38.92109816666667, "is_reserved": 0, "is_disabled": 0, "fusion_lat": 0.0}, {"fusion_lon": 0.0, "bike_id": "0c4259b25da402ce28489a398e8383cd", "name": "0c4259b25da402ce28489a398e8383cd", "type": "electric_scooter", "lon": -77.0440565, "rental_uris": {"android": "https://dc.lft.to/lastmile_qr_scan", "ios": "https://dc.lft.to/lastmile_qr_scan"}, "lat": 38.92951683333333, "is_reserved": 0, "is_disabled": 0, "fusion_lat": 0.0}, {"fusion_lon": 0.0, "bike_id": "515e8ed3bae77f49223805bf755fcac0", "name": "515e8ed3bae77f49223805bf755fcac0", "type": "electric_scooter", "lon": -76.99054216666667, "rental_uris": {"android": "https://dc.lft.to/lastmile_qr_scan", "ios": "https://dc.lft.to/lastmile_qr_scan"}, "lat": 38.863704, "is_reserved": 0, "is_disabled": 0, "fusion_lat": 0.0}, {"fusion_lon": 0.0, "bike_id": "36e89c9053ea45bcba69686fb903ef19", "name": "36e89c9053ea45bcba69686fb903ef19", "type": "electric_scooter", "lon": -77.04106266666666, "rental_uris": {"android": "https://dc.lft.to/lastmile_qr_scan", "ios": "https://dc.lft.to/lastmile_qr_scan"}, "lat": 38.92370016666667, "is_reserved": 0, "is_disabled": 0, "fusion_lat": 0.0}, {"fusion_lon": 0.0, "bike_id": "c4555c5b7f1e276c1ae88107efc6d962", "name": "c4555c5b7f1e276c1ae88107efc6d962", "type": "electric_scooter", "lon": -77.021523, "rental_uris": {"android": "https://dc.lft.to/lastmile_qr_scan", "ios": "https://dc.lft.to/lastmile_qr_scan"}, "lat": 38.926034, "is_reserved": 0, "is_disabled": 0, "fusion_lat": 0.0}, {"fusion_lon": 0.0, "bike_id": "012f68e1245ed89dc56bebfa2dc3c168", "name": "012f68e1245ed89dc56bebfa2dc3c168", "type": "electric_scooter", "lon": -77.04172833333334, "rental_uris": {"android": "https://dc.lft.to/lastmile_qr_scan", "ios": "https://dc.lft.to/lastmile_qr_scan"}, "lat": 38.91551233333333, "is_reserved": 0, "is_disabled": 0, "fusion_lat": 0.0}, {"fusion_lon": 0.0, "bike_id": "4e0298cc3f1dfc52bc85d92d250a9583", "name": "4e0298cc3f1dfc52bc85d92d250a9583", "type": "electric_scooter", "lon": -77.058285, "rental_uris": {"android": "https://dc.lft.to/lastmile_qr_scan", "ios": "https://dc.lft.to/lastmile_qr_scan"}, "lat": 38.935360833333334, "is_reserved": 0, "is_disabled": 0, "fusion_lat": 0.0}, {"fusion_lon": 0.0, "bike_id": "13a066d045b447b9a7ece1321f7bbffb", "name": "13a066d045b447b9a7ece1321f7bbffb", "type": "electric_scooter", "lon": -77.067729, "rental_uris": {"android": "https://dc.lft.to/lastmile_qr_scan", "ios": "https://dc.lft.to/lastmile_qr_scan"}, "lat": 38.94972383333333, "is_reserved": 0, "is_disabled": 0, "fusion_lat": 0.0}, {"fusion_lon": 0.0, "bike_id": "490c22c9c6fffae8d85e26716795938c", "name": "490c22c9c6fffae8d85e26716795938c", "type": "electric_bike", "lon": -77.02901116666666, "rental_uris": {"android": "https://dc.lft.to/lastmile_qr_scan", "ios": "https://dc.lft.to/lastmile_qr_scan"}, "lat": 38.998551166666665, "is_reserved": 0, "is_disabled": 0, "fusion_lat": 0.0}, {"fusion_lon": 0.0, "bike_id": "fbbc8a4b3025c72d766ce9597e20e917", "name": "fbbc8a4b3025c72d766ce9597e20e917", "type": "electric_scooter", "lon": -76.9733905, "rental_uris": {"android": "https://dc.lft.to/lastmile_qr_scan", "ios": "https://dc.lft.to/lastmile_qr_scan"}, "lat": 38.8651755, "is_reserved": 0, "is_disabled": 0, "fusion_lat": 0.0}, {"fusion_lon": 0.0, "bike_id": "177e197855bdc4ccf426a22cd1f9dd85", "name": "177e197855bdc4ccf426a22cd1f9dd85", "type": "electric_scooter", "lon": -77.02690983333333, "rental_uris": {"android": "https://dc.lft.to/lastmile_qr_scan", "ios": "https://dc.lft.to/lastmile_qr_scan"}, "lat": 38.908694, "is_reserved": 0, "is_disabled": 0, "fusion_lat": 0.0}, {"fusion_lon": 0.0, "bike_id": "f359ec37d1363cfc39442bfedbdbce19", "name": "f359ec37d1363cfc39442bfedbdbce19", "type": "electric_bike", "lon": -77.06760916666667, "rental_uris": {"android": "https://dc.lft.to/lastmile_qr_scan", "ios": "https://dc.lft.to/lastmile_qr_scan"}, "lat": 38.95342183333333, "is_reserved": 0, "is_disabled": 0, "fusion_lat": 0.0}, {"fusion_lon": 0.0, "bike_id": "9fa10fa89090743a5cb18883f39421f1", "name": "9fa10fa89090743a5cb18883f39421f1", "type": "electric_bike", "lon": -76.97216733333333, "rental_uris": {"android": "https://dc.lft.to/lastmile_qr_scan", "ios": "https://dc.lft.to/lastmile_qr_scan"}, "lat": 38.844843, "is_reserved": 0, "is_disabled": 0, "fusion_lat": 0.0}, {"fusion_lon": 0.0, "bike_id": "d0b34138d2ad1dbfb9c42b8830afaf6c", "name": "d0b34138d2ad1dbfb9c42b8830afaf6c", "type": "electric_scooter", "lon": -77.04097783333333, "rental_uris": {"android": "https://dc.lft.to/lastmile_qr_scan", "ios": "https://dc.lft.to/lastmile_qr_scan"}, "lat": 38.9080045, "is_reserved": 0, "is_disabled": 0, "fusion_lat": 0.0}, {"fusion_lon": 0.0, "bike_id": "cf3a8edf9ba8fd6b458be29b8fddbd35", "name": "cf3a8edf9ba8fd6b458be29b8fddbd35", "type": "electric_bike", "lon": -76.96559366666666, "rental_uris": {"android": "https://dc.lft.to/lastmile_qr_scan", "ios": "https://dc.lft.to/lastmile_qr_scan"}, "lat": 38.950890333333334, "is_reserved": 0, "is_disabled": 0, "fusion_lat": 0.0}, {"fusion_lon": 0.0, "bike_id": "33a3dbd367cd8ae363c2408da90584c6", "name": "33a3dbd367cd8ae363c2408da90584c6", "type": "electric_scooter", "lon": -77.04181183333333, "rental_uris": {"android": "https://dc.lft.to/lastmile_qr_scan", "ios": "https://dc.lft.to/lastmile_qr_scan"}, "lat": 38.91891866666667, "is_reserved": 0, "is_disabled": 0, "fusion_lat": 0.0}, {"fusion_lon": 0.0, "bike_id": "0002b18ce72c4a3c3a64063a5cade409", "name": "0002b18ce72c4a3c3a64063a5cade409", "type": "electric_scooter", "lon": -77.0349635, "rental_uris": {"android": "https://dc.lft.to/lastmile_qr_scan", "ios": "https://dc.lft.to/lastmile_qr_scan"}, "lat": 38.91709433333333, "is_reserved": 0, "is_disabled": 0, "fusion_lat": 0.0}, {"fusion_lon": 0.0, "bike_id": "8e6723cd0b976756706dacbb57ac8d7b", "name": "8e6723cd0b976756706dacbb57ac8d7b", "type": "electric_scooter", "lon": -76.96527533333334, "rental_uris": {"android": "https://dc.lft.to/lastmile_qr_scan", "ios": "https://dc.lft.to/lastmile_qr_scan"}, "lat": 38.8762735, "is_reserved": 0, "is_disabled": 0, "fusion_lat": 0.0}, {"fusion_lon": 0.0, "bike_id": "4de40d14b6a79af566e97d8b3eccb45d", "name": "4de40d14b6a79af566e97d8b3eccb45d", "type": "electric_scooter", "lon": -77.04481416666667, "rental_uris": {"android": "https://dc.lft.to/lastmile_qr_scan", "ios": "https://dc.lft.to/lastmile_qr_scan"}, "lat": 38.900367, "is_reserved": 0, "is_disabled": 0, "fusion_lat": 0.0}, {"fusion_lon": 0.0, "bike_id": "49346a591cdf7d338e43f5796d64f81c", "name": "49346a591cdf7d338e43f5796d64f81c", "type": "electric_scooter", "lon": -77.0448445, "rental_uris": {"android": "https://dc.lft.to/lastmile_qr_scan", "ios": "https://dc.lft.to/lastmile_qr_scan"}, "lat": 38.91570316666667, "is_reserved": 0, "is_disabled": 0, "fusion_lat": 0.0}, {"fusion_lon": 0.0, "bike_id": "185d76e297df2434a7d3716c96b00c07", "name": "185d76e297df2434a7d3716c96b00c07", "type": "electric_scooter", "lon": -77.03356, "rental_uris": {"android": "https://dc.lft.to/lastmile_qr_scan", "ios": "https://dc.lft.to/lastmile_qr_scan"}, "lat": 38.900308, "is_reserved": 0, "is_disabled": 0, "fusion_lat": 0.0}, {"fusion_lon": 0.0, "bike_id": "f6c2e25272cd3bf464aa779f387a078c", "name": "f6c2e25272cd3bf464aa779f387a078c", "type": "electric_scooter", "lon": -77.0169695, "rental_uris": {"android": "https://dc.lft.to/lastmile_qr_scan", "ios": "https://dc.lft.to/lastmile_qr_scan"}, "lat": 38.90263683333333, "is_reserved": 0, "is_disabled": 0, "fusion_lat": 0.0}, {"fusion_lon": 0.0, "bike_id": "f0b8e0216908814d137ad60ab59b7343", "name": "f0b8e0216908814d137ad60ab59b7343", "type": "electric_scooter", "lon": -77.03256433333334, "rental_uris": {"android": "https://dc.lft.to/lastmile_qr_scan", "ios": "https://dc.lft.to/lastmile_qr_scan"}, "lat": 38.918144, "is_reserved": 0, "is_disabled": 0, "fusion_lat": 0.0}, {"fusion_lon": 0.0, "bike_id": "6c1932de01076d251ca4860bb36dff0b", "name": "6c1932de01076d251ca4860bb36dff0b", "type": "electric_scooter", "lon": -77.02289083333334, "rental_uris": {"android": "https://dc.lft.to/lastmile_qr_scan", "ios": "https://dc.lft.to/lastmile_qr_scan"}, "lat": 38.91188616666667, "is_reserved": 0, "is_disabled": 0, "fusion_lat": 0.0}, {"fusion_lon": 0.0, "bike_id": "7ef214c948d7f4fd7d9e149cac762125", "name": "7ef214c948d7f4fd7d9e149cac762125", "type": "electric_bike", "lon": -77.028025, "rental_uris": {"android": "https://dc.lft.to/lastmile_qr_scan", "ios": "https://dc.lft.to/lastmile_qr_scan"}, "lat": 38.94289083333334, "is_reserved": 0, "is_disabled": 0, "fusion_lat": 0.0}, {"fusion_lon": 0.0, "bike_id": "40a1a8814b46e65b1a75460e49e8b857", "name": "40a1a8814b46e65b1a75460e49e8b857", "type": "electric_scooter", "lon": -77.00611466666666, "rental_uris": {"android": "https://dc.lft.to/lastmile_qr_scan", "ios": "https://dc.lft.to/lastmile_qr_scan"}, "lat": 38.8748205, "is_reserved": 0, "is_disabled": 0, "fusion_lat": 0.0}, {"fusion_lon": 0.0, "bike_id": "d43ca680cd2618af2f784176e69dccb9", "name": "d43ca680cd2618af2f784176e69dccb9", "type": "electric_scooter", "lon": -77.00280133333334, "rental_uris": {"android": "https://dc.lft.to/lastmile_qr_scan", "ios": "https://dc.lft.to/lastmile_qr_scan"}, "lat": 38.93919983333333, "is_reserved": 0, "is_disabled": 0, "fusion_lat": 0.0}, {"fusion_lon": 0.0, "bike_id": "17a2a79818ea9de8f3ef2531e8d2204d", "name": "17a2a79818ea9de8f3ef2531e8d2204d", "type": "electric_scooter", "lon": -76.948851, "rental_uris": {"android": "https://dc.lft.to/lastmile_qr_scan", "ios": "https://dc.lft.to/lastmile_qr_scan"}, "lat": 38.895128166666666, "is_reserved": 0, "is_disabled": 0, "fusion_lat": 0.0}, {"fusion_lon": 0.0, "bike_id": "421aca23819755e38ed0487a0e5182f9", "name": "421aca23819755e38ed0487a0e5182f9", "type": "electric_scooter", "lon": -77.03489733333333, "rental_uris": {"android": "https://dc.lft.to/lastmile_qr_scan", "ios": "https://dc.lft.to/lastmile_qr_scan"}, "lat": 38.917011, "is_reserved": 0, "is_disabled": 0, "fusion_lat": 0.0}, {"fusion_lon": 0.0, "bike_id": "1f131c8d0804569dd45aca141a879dc0", "name": "1f131c8d0804569dd45aca141a879dc0", "type": "electric_scooter", "lon": -76.9804945, "rental_uris": {"android": "https://dc.lft.to/lastmile_qr_scan", "ios": "https://dc.lft.to/lastmile_qr_scan"}, "lat": 38.920390833333336, "is_reserved": 0, "is_disabled": 0, "fusion_lat": 0.0}, {"fusion_lon": 0.0, "bike_id": "db0141865e7fcdbbaa3cc0482aa1af38", "name": "db0141865e7fcdbbaa3cc0482aa1af38", "type": "electric_scooter", "lon": -77.019732, "rental_uris": {"android": "https://dc.lft.to/lastmile_qr_scan", "ios": "https://dc.lft.to/lastmile_qr_scan"}, "lat": 38.895062, "is_reserved": 0, "is_disabled": 0, "fusion_lat": 0.0}, {"fusion_lon": 0.0, "bike_id": "cd6a7780b63b7f69ca7ec8105a5d60ef", "name": "cd6a7780b63b7f69ca7ec8105a5d60ef", "type": "electric_scooter", "lon": -76.98558716666666, "rental_uris": {"android": "https://dc.lft.to/lastmile_qr_scan", "ios": "https://dc.lft.to/lastmile_qr_scan"}, "lat": 38.900439166666665, "is_reserved": 0, "is_disabled": 0, "fusion_lat": 0.0}, {"fusion_lon": 0.0, "bike_id": "eefa78040cece06175f7e915a2c82a93", "name": "eefa78040cece06175f7e915a2c82a93", "type": "electric_scooter", "lon": -77.04234216666667, "rental_uris": {"android": "https://dc.lft.to/lastmile_qr_scan", "ios": "https://dc.lft.to/lastmile_qr_scan"}, "lat": 38.921734, "is_reserved": 0, "is_disabled": 0, "fusion_lat": 0.0}, {"fusion_lon": 0.0, "bike_id": "cbba5ec21f19d619adb00beec4a59288", "name": "cbba5ec21f19d619adb00beec4a59288", "type": "electric_scooter", "lon": -77.039627, "rental_uris": {"android": "https://dc.lft.to/lastmile_qr_scan", "ios": "https://dc.lft.to/lastmile_qr_scan"}, "lat": 38.90727166666667, "is_reserved": 0, "is_disabled": 0, "fusion_lat": 0.0}, {"fusion_lon": 0.0, "bike_id": "c161c511243e2e953b7d44655ee6449f", "name": "c161c511243e2e953b7d44655ee6449f", "type": "electric_scooter", "lon": -77.01764683333333, "rental_uris": {"android": "https://dc.lft.to/lastmile_qr_scan", "ios": "https://dc.lft.to/lastmile_qr_scan"}, "lat": 38.9039225, "is_reserved": 0, "is_disabled": 0, "fusion_lat": 0.0}, {"fusion_lon": 0.0, "bike_id": "b46af1e76a59c10b39cd4d9c547ff019", "name": "b46af1e76a59c10b39cd4d9c547ff019", "type": "electric_scooter", "lon": -77.06021783333334, "rental_uris": {"android": "https://dc.lft.to/lastmile_qr_scan", "ios": "https://dc.lft.to/lastmile_qr_scan"}, "lat": 38.90272216666666, "is_reserved": 0, "is_disabled": 0, "fusion_lat": 0.0}, {"fusion_lon": 0.0, "bike_id": "0098c57c9574e6778114ed08f1f8126d", "name": "0098c57c9574e6778114ed08f1f8126d", "type": "electric_scooter", "lon": -77.03834633333334, "rental_uris": {"android": "https://dc.lft.to/lastmile_qr_scan", "ios": "https://dc.lft.to/lastmile_qr_scan"}, "lat": 38.9098125, "is_reserved": 0, "is_disabled": 0, "fusion_lat": 0.0}, {"fusion_lon": 0.0, "bike_id": "a271980b4ea97ba6752e94dfb9fcec00", "name": "a271980b4ea97ba6752e94dfb9fcec00", "type": "electric_scooter", "lon": -77.0425665, "rental_uris": {"android": "https://dc.lft.to/lastmile_qr_scan", "ios": "https://dc.lft.to/lastmile_qr_scan"}, "lat": 38.91422433333334, "is_reserved": 0, "is_disabled": 0, "fusion_lat": 0.0}, {"fusion_lon": 0.0, "bike_id": "8a62ad6c3271ca5ed543201b2cc1775b", "name": "8a62ad6c3271ca5ed543201b2cc1775b", "type": "electric_scooter", "lon": -77.01373866666667, "rental_uris": {"android": "https://dc.lft.to/lastmile_qr_scan", "ios": "https://dc.lft.to/lastmile_qr_scan"}, "lat": 38.89223066666667, "is_reserved": 0, "is_disabled": 0, "fusion_lat": 0.0}, {"fusion_lon": 0.0, "bike_id": "5287b4266b45fc4ea65bd7c2e7a2a255", "name": "5287b4266b45fc4ea65bd7c2e7a2a255", "type": "electric_scooter", "lon": -77.04223516666667, "rental_uris": {"android": "https://dc.lft.to/lastmile_qr_scan", "ios": "https://dc.lft.to/lastmile_qr_scan"}, "lat": 38.921047333333334, "is_reserved": 0, "is_disabled": 0, "fusion_lat": 0.0}, {"fusion_lon": 0.0, "bike_id": "28e5c3aacf9ec84ff693931436bf5274", "name": "28e5c3aacf9ec84ff693931436bf5274", "type": "electric_scooter", "lon": -77.01506583333334, "rental_uris": {"android": "https://dc.lft.to/lastmile_qr_scan", "ios": "https://dc.lft.to/lastmile_qr_scan"}, "lat": 38.901444166666664, "is_reserved": 0, "is_disabled": 0, "fusion_lat": 0.0}, {"fusion_lon": 0.0, "bike_id": "89db9f145bc9995787965a6e48ed2386", "name": "89db9f145bc9995787965a6e48ed2386", "type": "electric_scooter", "lon": -77.01375133333333, "rental_uris": {"android": "https://dc.lft.to/lastmile_qr_scan", "ios": "https://dc.lft.to/lastmile_qr_scan"}, "lat": 38.886422333333336, "is_reserved": 0, "is_disabled": 0, "fusion_lat": 0.0}, {"fusion_lon": 0.0, "bike_id": "eff6f1051ebd968070fed232f2dec5e8", "name": "eff6f1051ebd968070fed232f2dec5e8", "type": "electric_scooter", "lon": -77.066949, "rental_uris": {"android": "https://dc.lft.to/lastmile_qr_scan", "ios": "https://dc.lft.to/lastmile_qr_scan"}, "lat": 38.94982183333333, "is_reserved": 0, "is_disabled": 0, "fusion_lat": 0.0}, {"fusion_lon": 0.0, "bike_id": "530b467de4d70414d5f103a553367340", "name": "530b467de4d70414d5f103a553367340", "type": "electric_scooter", "lon": -77.03851183333333, "rental_uris": {"android": "https://dc.lft.to/lastmile_qr_scan", "ios": "https://dc.lft.to/lastmile_qr_scan"}, "lat": 38.91624516666667, "is_reserved": 0, "is_disabled": 0, "fusion_lat": 0.0}, {"fusion_lon": 0.0, "bike_id": "a9580a2ea1d2e3156e76eb6c7a82a1ec", "name": "a9580a2ea1d2e3156e76eb6c7a82a1ec", "type": "electric_scooter", "lon": -77.04426466666666, "rental_uris": {"android": "https://dc.lft.to/lastmile_qr_scan", "ios": "https://dc.lft.to/lastmile_qr_scan"}, "lat": 38.912616666666665, "is_reserved": 0, "is_disabled": 0, "fusion_lat": 0.0}, {"fusion_lon": 0.0, "bike_id": "2393f1906de89f25fd147492693216b6", "name": "2393f1906de89f25fd147492693216b6", "type": "electric_scooter", "lon": -77.0136905, "rental_uris": {"android": "https://dc.lft.to/lastmile_qr_scan", "ios": "https://dc.lft.to/lastmile_qr_scan"}, "lat": 38.92885733333333, "is_reserved": 0, "is_disabled": 0, "fusion_lat": 0.0}, {"fusion_lon": 0.0, "bike_id": "8259f2d085558d4708291c77da69f2c4", "name": "8259f2d085558d4708291c77da69f2c4", "type": "electric_scooter", "lon": -77.03437316666667, "rental_uris": {"android": "https://dc.lft.to/lastmile_qr_scan", "ios": "https://dc.lft.to/lastmile_qr_scan"}, "lat": 38.909745666666666, "is_reserved": 0, "is_disabled": 0, "fusion_lat": 0.0}, {"fusion_lon": 0.0, "bike_id": "e15ce8a84624cab715abaa4da6c3bb49", "name": "e15ce8a84624cab715abaa4da6c3bb49", "type": "electric_scooter", "lon": -77.03413833333333, "rental_uris": {"android": "https://dc.lft.to/lastmile_qr_scan", "ios": "https://dc.lft.to/lastmile_qr_scan"}, "lat": 38.91924566666667, "is_reserved": 0, "is_disabled": 0, "fusion_lat": 0.0}, {"fusion_lon": 0.0, "bike_id": "db9f2eb81e16a0293d50debef7ad79fa", "name": "db9f2eb81e16a0293d50debef7ad79fa", "type": "electric_bike", "lon": -76.905419, "rental_uris": {"android": "https://dc.lft.to/lastmile_qr_scan", "ios": "https://dc.lft.to/lastmile_qr_scan"}, "lat": 38.8973575, "is_reserved": 0, "is_disabled": 0, "fusion_lat": 0.0}, {"fusion_lon": 0.0, "bike_id": "e21047a9b23f6fc8501244c92047aca4", "name": "e21047a9b23f6fc8501244c92047aca4", "type": "electric_bike", "lon": -77.0287615, "rental_uris": {"android": "https://dc.lft.to/lastmile_qr_scan", "ios": "https://dc.lft.to/lastmile_qr_scan"}, "lat": 38.99821, "is_reserved": 0, "is_disabled": 0, "fusion_lat": 0.0}, {"fusion_lon": 0.0, "bike_id": "a52f89d1237668f1c70088a244baa63a", "name": "a52f89d1237668f1c70088a244baa63a", "type": "electric_bike", "lon": -77.02295666666667, "rental_uris": {"android": "https://dc.lft.to/lastmile_qr_scan", "ios": "https://dc.lft.to/lastmile_qr_scan"}, "lat": 38.96565716666667, "is_reserved": 0, "is_disabled": 0, "fusion_lat": 0.0}, {"fusion_lon": 0.0, "bike_id": "db0eb0c972089aa8250388c1eea2eb44", "name": "db0eb0c972089aa8250388c1eea2eb44", "type": "electric_scooter", "lon": -77.03655516666667, "rental_uris": {"android": "https://dc.lft.to/lastmile_qr_scan", "ios": "https://dc.lft.to/lastmile_qr_scan"}, "lat": 38.91221133333333, "is_reserved": 0, "is_disabled": 0, "fusion_lat": 0.0}, {"fusion_lon": 0.0, "bike_id": "1fb028830c4bce57ae820c7e670c1238", "name": "1fb028830c4bce57ae820c7e670c1238", "type": "electric_bike", "lon": -77.12268266666666, "rental_uris": {"android": "https://dc.lft.to/lastmile_qr_scan", "ios": "https://dc.lft.to/lastmile_qr_scan"}, "lat": 38.897376, "is_reserved": 0, "is_disabled": 0, "fusion_lat": 0.0}, {"fusion_lon": 0.0, "bike_id": "ad6223869378819e29c9ac4b8076de21", "name": "ad6223869378819e29c9ac4b8076de21", "type": "electric_scooter", "lon": -77.00568566666666, "rental_uris": {"android": "https://dc.lft.to/lastmile_qr_scan", "ios": "https://dc.lft.to/lastmile_qr_scan"}, "lat": 38.88497533333334, "is_reserved": 0, "is_disabled": 0, "fusion_lat": 0.0}, {"fusion_lon": 0.0, "bike_id": "acb1d5ed58471779820be1d095a53802", "name": "acb1d5ed58471779820be1d095a53802", "type": "electric_scooter", "lon": -77.04177216666666, "rental_uris": {"android": "https://dc.lft.to/lastmile_qr_scan", "ios": "https://dc.lft.to/lastmile_qr_scan"}, "lat": 38.916567, "is_reserved": 0, "is_disabled": 0, "fusion_lat": 0.0}, {"fusion_lon": 0.0, "bike_id": "9931892c30cf4d1fd35e0288c288258f", "name": "9931892c30cf4d1fd35e0288c288258f", "type": "electric_bike", "lon": -76.9165595, "rental_uris": {"android": "https://dc.lft.to/lastmile_qr_scan", "ios": "https://dc.lft.to/lastmile_qr_scan"}, "lat": 38.868598, "is_reserved": 0, "is_disabled": 0, "fusion_lat": 0.0}, {"fusion_lon": 0.0, "bike_id": "678648de1a1812598f471cbda51c749a", "name": "678648de1a1812598f471cbda51c749a", "type": "electric_scooter", "lon": -77.04047683333333, "rental_uris": {"android": "https://dc.lft.to/lastmile_qr_scan", "ios": "https://dc.lft.to/lastmile_qr_scan"}, "lat": 38.91296716666667, "is_reserved": 0, "is_disabled": 0, "fusion_lat": 0.0}, {"fusion_lon": 0.0, "bike_id": "b2b06cad54a92b6d1da4d051ed514172", "name": "b2b06cad54a92b6d1da4d051ed514172", "type": "electric_scooter", "lon": -77.00720183333334, "rental_uris": {"android": "https://dc.lft.to/lastmile_qr_scan", "ios": "https://dc.lft.to/lastmile_qr_scan"}, "lat": 38.9004305, "is_reserved": 0, "is_disabled": 0, "fusion_lat": 0.0}, {"fusion_lon": 0.0, "bike_id": "5fa1bb44b33eaa7994c962782fde9a00", "name": "5fa1bb44b33eaa7994c962782fde9a00", "type": "electric_scooter", "lon": -77.02582766666667, "rental_uris": {"android": "https://dc.lft.to/lastmile_qr_scan", "ios": "https://dc.lft.to/lastmile_qr_scan"}, "lat": 38.895275166666664, "is_reserved": 0, "is_disabled": 0, "fusion_lat": 0.0}, {"fusion_lon": 0.0, "bike_id": "2f8223e391fa6825252a5b6a2d178f4e", "name": "2f8223e391fa6825252a5b6a2d178f4e", "type": "electric_scooter", "lon": -76.94254383333333, "rental_uris": {"android": "https://dc.lft.to/lastmile_qr_scan", "ios": "https://dc.lft.to/lastmile_qr_scan"}, "lat": 38.89681816666667, "is_reserved": 0, "is_disabled": 0, "fusion_lat": 0.0}, {"fusion_lon": 0.0, "bike_id": "576a60aa3d7d947cc3aabfab908b0b79", "name": "576a60aa3d7d947cc3aabfab908b0b79", "type": "electric_scooter", "lon": -77.03613633333333, "rental_uris": {"android": "https://dc.lft.to/lastmile_qr_scan", "ios": "https://dc.lft.to/lastmile_qr_scan"}, "lat": 38.934756166666666, "is_reserved": 0, "is_disabled": 0, "fusion_lat": 0.0}, {"fusion_lon": 0.0, "bike_id": "d4fcbc3a39e5e581be2c5f286c649d12", "name": "d4fcbc3a39e5e581be2c5f286c649d12", "type": "electric_scooter", "lon": -77.0622325, "rental_uris": {"android": "https://dc.lft.to/lastmile_qr_scan", "ios": "https://dc.lft.to/lastmile_qr_scan"}, "lat": 38.905144666666665, "is_reserved": 0, "is_disabled": 0, "fusion_lat": 0.0}, {"fusion_lon": 0.0, "bike_id": "69aa585851bab3b990e8e79c05ab5ab9", "name": "69aa585851bab3b990e8e79c05ab5ab9", "type": "electric_scooter", "lon": -76.992296, "rental_uris": {"android": "https://dc.lft.to/lastmile_qr_scan", "ios": "https://dc.lft.to/lastmile_qr_scan"}, "lat": 38.898863166666665, "is_reserved": 0, "is_disabled": 0, "fusion_lat": 0.0}, {"fusion_lon": 0.0, "bike_id": "5179c703892c1a2d0109d87c2c89b63f", "name": "5179c703892c1a2d0109d87c2c89b63f", "type": "electric_scooter", "lon": -77.025816, "rental_uris": {"android": "https://dc.lft.to/lastmile_qr_scan", "ios": "https://dc.lft.to/lastmile_qr_scan"}, "lat": 38.899452, "is_reserved": 0, "is_disabled": 0, "fusion_lat": 0.0}, {"fusion_lon": 0.0, "bike_id": "a88c83cb83b351e13c49e87156e627bb", "name": "a88c83cb83b351e13c49e87156e627bb", "type": "electric_scooter", "lon": -76.99695083333333, "rental_uris": {"android": "https://dc.lft.to/lastmile_qr_scan", "ios": "https://dc.lft.to/lastmile_qr_scan"}, "lat": 38.860351333333334, "is_reserved": 0, "is_disabled": 0, "fusion_lat": 0.0}, {"fusion_lon": 0.0, "bike_id": "140a08497b19c64e03f2999e9053d145", "name": "140a08497b19c64e03f2999e9053d145", "type": "electric_bike", "lon": -77.1477655, "rental_uris": {"android": "https://dc.lft.to/lastmile_qr_scan", "ios": "https://dc.lft.to/lastmile_qr_scan"}, "lat": 39.095985666666664, "is_reserved": 0, "is_disabled": 0, "fusion_lat": 0.0}, {"fusion_lon": 0.0, "bike_id": "ae326ab66dc0f7cb8fe26fa2de8060b1", "name": "ae326ab66dc0f7cb8fe26fa2de8060b1", "type": "electric_scooter", "lon": -77.05004516666666, "rental_uris": {"android": "https://dc.lft.to/lastmile_qr_scan", "ios": "https://dc.lft.to/lastmile_qr_scan"}, "lat": 38.892284833333335, "is_reserved": 0, "is_disabled": 0, "fusion_lat": 0.0}, {"fusion_lon": 0.0, "bike_id": "4113c86cac029e95e6d7355d8f556bc1", "name": "4113c86cac029e95e6d7355d8f556bc1", "type": "electric_scooter", "lon": -77.0349445, "rental_uris": {"android": "https://dc.lft.to/lastmile_qr_scan", "ios": "https://dc.lft.to/lastmile_qr_scan"}, "lat": 38.916979, "is_reserved": 0, "is_disabled": 0, "fusion_lat": 0.0}, {"fusion_lon": 0.0, "bike_id": "5c5e6a9c2bd9987bc3b2e9513a781dd6", "name": "5c5e6a9c2bd9987bc3b2e9513a781dd6", "type": "electric_scooter", "lon": -76.948859, "rental_uris": {"android": "https://dc.lft.to/lastmile_qr_scan", "ios": "https://dc.lft.to/lastmile_qr_scan"}, "lat": 38.89511683333333, "is_reserved": 0, "is_disabled": 0, "fusion_lat": 0.0}, {"fusion_lon": 0.0, "bike_id": "0e5167789ca403a3873723aae351545d", "name": "0e5167789ca403a3873723aae351545d", "type": "electric_bike", "lon": -77.09584266666667, "rental_uris": {"android": "https://dc.lft.to/lastmile_qr_scan", "ios": "https://dc.lft.to/lastmile_qr_scan"}, "lat": 38.837839833333334, "is_reserved": 0, "is_disabled": 0, "fusion_lat": 0.0}, {"fusion_lon": 0.0, "bike_id": "418a389f100aaf4734e0275b0876124f", "name": "418a389f100aaf4734e0275b0876124f", "type": "electric_scooter", "lon": -77.0094505, "rental_uris": {"android": "https://dc.lft.to/lastmile_qr_scan", "ios": "https://dc.lft.to/lastmile_qr_scan"}, "lat": 38.894956666666666, "is_reserved": 0, "is_disabled": 0, "fusion_lat": 0.0}, {"fusion_lon": 0.0, "bike_id": "ebd4eaa81a071c063d46579377b6f84a", "name": "ebd4eaa81a071c063d46579377b6f84a", "type": "electric_scooter", "lon": -76.97468183333334, "rental_uris": {"android": "https://dc.lft.to/lastmile_qr_scan", "ios": "https://dc.lft.to/lastmile_qr_scan"}, "lat": 38.89560766666666, "is_reserved": 0, "is_disabled": 0, "fusion_lat": 0.0}, {"fusion_lon": 0.0, "bike_id": "574a237e41953bcd3ace53e33a8756d1", "name": "574a237e41953bcd3ace53e33a8756d1", "type": "electric_scooter", "lon": -77.00223533333333, "rental_uris": {"android": "https://dc.lft.to/lastmile_qr_scan", "ios": "https://dc.lft.to/lastmile_qr_scan"}, "lat": 38.91343066666667, "is_reserved": 0, "is_disabled": 0, "fusion_lat": 0.0}, {"fusion_lon": 0.0, "bike_id": "a9e57b10c8087f414f905958d70094b5", "name": "a9e57b10c8087f414f905958d70094b5", "type": "electric_scooter", "lon": -77.0351105, "rental_uris": {"android": "https://dc.lft.to/lastmile_qr_scan", "ios": "https://dc.lft.to/lastmile_qr_scan"}, "lat": 38.91706516666667, "is_reserved": 0, "is_disabled": 0, "fusion_lat": 0.0}, {"fusion_lon": 0.0, "bike_id": "d7739a74b31278aff60861ffd479a080", "name": "d7739a74b31278aff60861ffd479a080", "type": "electric_scooter", "lon": -77.02338066666667, "rental_uris": {"android": "https://dc.lft.to/lastmile_qr_scan", "ios": "https://dc.lft.to/lastmile_qr_scan"}, "lat": 38.922312833333336, "is_reserved": 0, "is_disabled": 0, "fusion_lat": 0.0}, {"fusion_lon": 0.0, "bike_id": "3a887b22120577f900761be864164162", "name": "3a887b22120577f900761be864164162", "type": "electric_bike", "lon": -77.08437466666666, "rental_uris": {"android": "https://dc.lft.to/lastmile_qr_scan", "ios": "https://dc.lft.to/lastmile_qr_scan"}, "lat": 38.81025233333333, "is_reserved": 0, "is_disabled": 0, "fusion_lat": 0.0}, {"fusion_lon": 0.0, "bike_id": "b28db84c8ec56f24841f1de79acfc41f", "name": "b28db84c8ec56f24841f1de79acfc41f", "type": "electric_scooter", "lon": -76.99932566666666, "rental_uris": {"android": "https://dc.lft.to/lastmile_qr_scan", "ios": "https://dc.lft.to/lastmile_qr_scan"}, "lat": 38.881328, "is_reserved": 0, "is_disabled": 0, "fusion_lat": 0.0}, {"fusion_lon": 0.0, "bike_id": "8a769744d008c647d6e376d669ff8886", "name": "8a769744d008c647d6e376d669ff8886", "type": "electric_scooter", "lon": -77.0276605, "rental_uris": {"android": "https://dc.lft.to/lastmile_qr_scan", "ios": "https://dc.lft.to/lastmile_qr_scan"}, "lat": 38.94299083333333, "is_reserved": 0, "is_disabled": 0, "fusion_lat": 0.0}, {"fusion_lon": 0.0, "bike_id": "f99fcc6968dbb9c951c60a5465b34a54", "name": "f99fcc6968dbb9c951c60a5465b34a54", "type": "electric_scooter", "lon": -77.00883, "rental_uris": {"android": "https://dc.lft.to/lastmile_qr_scan", "ios": "https://dc.lft.to/lastmile_qr_scan"}, "lat": 38.90580166666667, "is_reserved": 0, "is_disabled": 0, "fusion_lat": 0.0}, {"fusion_lon": 0.0, "bike_id": "4492398cf0f5a972375fe8bf6440e622", "name": "4492398cf0f5a972375fe8bf6440e622", "type": "electric_scooter", "lon": -76.94943783333333, "rental_uris": {"android": "https://dc.lft.to/lastmile_qr_scan", "ios": "https://dc.lft.to/lastmile_qr_scan"}, "lat": 38.893666, "is_reserved": 0, "is_disabled": 0, "fusion_lat": 0.0}, {"fusion_lon": 0.0, "bike_id": "95962cecee1834b1afb90ab7b4d05076", "name": "95962cecee1834b1afb90ab7b4d05076", "type": "electric_scooter", "lon": -77.02607766666667, "rental_uris": {"android": "https://dc.lft.to/lastmile_qr_scan", "ios": "https://dc.lft.to/lastmile_qr_scan"}, "lat": 38.918584333333335, "is_reserved": 0, "is_disabled": 0, "fusion_lat": 0.0}, {"fusion_lon": 0.0, "bike_id": "172fdd89b7c3a4ddf8cb4f089ee4da11", "name": "172fdd89b7c3a4ddf8cb4f089ee4da11", "type": "electric_scooter", "lon": -76.99033916666667, "rental_uris": {"android": "https://dc.lft.to/lastmile_qr_scan", "ios": "https://dc.lft.to/lastmile_qr_scan"}, "lat": 38.898781166666666, "is_reserved": 0, "is_disabled": 0, "fusion_lat": 0.0}, {"fusion_lon": 0.0, "bike_id": "9100d3c06cbd5d575e6f69b510d7c033", "name": "9100d3c06cbd5d575e6f69b510d7c033", "type": "electric_scooter", "lon": -77.0447685, "rental_uris": {"android": "https://dc.lft.to/lastmile_qr_scan", "ios": "https://dc.lft.to/lastmile_qr_scan"}, "lat": 38.91082316666667, "is_reserved": 0, "is_disabled": 0, "fusion_lat": 0.0}, {"fusion_lon": 0.0, "bike_id": "acf3038a5db1a93690b978a072fcd0d8", "name": "acf3038a5db1a93690b978a072fcd0d8", "type": "electric_bike", "lon": -76.97501983333333, "rental_uris": {"android": "https://dc.lft.to/lastmile_qr_scan", "ios": "https://dc.lft.to/lastmile_qr_scan"}, "lat": 38.91941383333333, "is_reserved": 0, "is_disabled": 0, "fusion_lat": 0.0}, {"fusion_lon": 0.0, "bike_id": "723eff8c8d8cffec5ff5f57f3cb7ae45", "name": "723eff8c8d8cffec5ff5f57f3cb7ae45", "type": "electric_bike", "lon": -77.000575, "rental_uris": {"android": "https://dc.lft.to/lastmile_qr_scan", "ios": "https://dc.lft.to/lastmile_qr_scan"}, "lat": 38.876307833333335, "is_reserved": 0, "is_disabled": 0, "fusion_lat": 0.0}, {"fusion_lon": 0.0, "bike_id": "21b518d797a79b5024cc7abd0c5568ad", "name": "21b518d797a79b5024cc7abd0c5568ad", "type": "electric_scooter", "lon": -76.94156683333334, "rental_uris": {"android": "https://dc.lft.to/lastmile_qr_scan", "ios": "https://dc.lft.to/lastmile_qr_scan"}, "lat": 38.883652833333336, "is_reserved": 0, "is_disabled": 0, "fusion_lat": 0.0}, {"fusion_lon": 0.0, "bike_id": "90dd8d07d373d6f7b71459ecda3f3ec2", "name": "90dd8d07d373d6f7b71459ecda3f3ec2", "type": "electric_bike", "lon": -77.03839966666666, "rental_uris": {"android": "https://dc.lft.to/lastmile_qr_scan", "ios": "https://dc.lft.to/lastmile_qr_scan"}, "lat": 38.8881475, "is_reserved": 0, "is_disabled": 0, "fusion_lat": 0.0}, {"fusion_lon": 0.0, "bike_id": "8737bb68642052f177a5de166e51061f", "name": "8737bb68642052f177a5de166e51061f", "type": "electric_scooter", "lon": -77.033098, "rental_uris": {"android": "https://dc.lft.to/lastmile_qr_scan", "ios": "https://dc.lft.to/lastmile_qr_scan"}, "lat": 38.95616116666667, "is_reserved": 0, "is_disabled": 0, "fusion_lat": 0.0}, {"fusion_lon": 0.0, "bike_id": "97100f1a5d6d3dede0f858a9d2f25fcd", "name": "97100f1a5d6d3dede0f858a9d2f25fcd", "type": "electric_scooter", "lon": -77.04487566666667, "rental_uris": {"android": "https://dc.lft.to/lastmile_qr_scan", "ios": "https://dc.lft.to/lastmile_qr_scan"}, "lat": 38.896241, "is_reserved": 0, "is_disabled": 0, "fusion_lat": 0.0}, {"fusion_lon": 0.0, "bike_id": "50ac85c4fc7f1dcf817695de1127af7b", "name": "50ac85c4fc7f1dcf817695de1127af7b", "type": "electric_scooter", "lon": -76.99016466666667, "rental_uris": {"android": "https://dc.lft.to/lastmile_qr_scan", "ios": "https://dc.lft.to/lastmile_qr_scan"}, "lat": 38.900367, "is_reserved": 0, "is_disabled": 0, "fusion_lat": 0.0}, {"fusion_lon": 0.0, "bike_id": "0d7f7cb6cb7c5d56b3ae65ae221dd367", "name": "0d7f7cb6cb7c5d56b3ae65ae221dd367", "type": "electric_scooter", "lon": -77.054208, "rental_uris": {"android": "https://dc.lft.to/lastmile_qr_scan", "ios": "https://dc.lft.to/lastmile_qr_scan"}, "lat": 38.928216166666665, "is_reserved": 0, "is_disabled": 0, "fusion_lat": 0.0}, {"fusion_lon": 0.0, "bike_id": "0ce7b14edbdc8ece25800c584b2ba634", "name": "0ce7b14edbdc8ece25800c584b2ba634", "type": "electric_scooter", "lon": -77.00709116666667, "rental_uris": {"android": "https://dc.lft.to/lastmile_qr_scan", "ios": "https://dc.lft.to/lastmile_qr_scan"}, "lat": 38.90568733333333, "is_reserved": 0, "is_disabled": 0, "fusion_lat": 0.0}, {"fusion_lon": 0.0, "bike_id": "3cb3b6fa3e986068c4af258a6058be96", "name": "3cb3b6fa3e986068c4af258a6058be96", "type": "electric_scooter", "lon": -77.04150933333334, "rental_uris": {"android": "https://dc.lft.to/lastmile_qr_scan", "ios": "https://dc.lft.to/lastmile_qr_scan"}, "lat": 38.8984905, "is_reserved": 0, "is_disabled": 0, "fusion_lat": 0.0}, {"fusion_lon": 0.0, "bike_id": "92faf7e1a402674e5300fdaaf1ff402f", "name": "92faf7e1a402674e5300fdaaf1ff402f", "type": "electric_scooter", "lon": -77.04474216666667, "rental_uris": {"android": "https://dc.lft.to/lastmile_qr_scan", "ios": "https://dc.lft.to/lastmile_qr_scan"}, "lat": 38.90210833333333, "is_reserved": 0, "is_disabled": 0, "fusion_lat": 0.0}, {"fusion_lon": 0.0, "bike_id": "3a721aefe05261abce58a05cd1853f98", "name": "3a721aefe05261abce58a05cd1853f98", "type": "electric_scooter", "lon": -77.04123016666667, "rental_uris": {"android": "https://dc.lft.to/lastmile_qr_scan", "ios": "https://dc.lft.to/lastmile_qr_scan"}, "lat": 38.90964, "is_reserved": 0, "is_disabled": 0, "fusion_lat": 0.0}, {"fusion_lon": 0.0, "bike_id": "5a015eb6504cf928be77090807080f82", "name": "5a015eb6504cf928be77090807080f82", "type": "electric_scooter", "lon": -77.05281583333333, "rental_uris": {"android": "https://dc.lft.to/lastmile_qr_scan", "ios": "https://dc.lft.to/lastmile_qr_scan"}, "lat": 38.922526166666664, "is_reserved": 0, "is_disabled": 0, "fusion_lat": 0.0}, {"fusion_lon": 0.0, "bike_id": "a87fd8c472bcd849459bb393f4521f38", "name": "a87fd8c472bcd849459bb393f4521f38", "type": "electric_scooter", "lon": -77.03446616666666, "rental_uris": {"android": "https://dc.lft.to/lastmile_qr_scan", "ios": "https://dc.lft.to/lastmile_qr_scan"}, "lat": 38.9021935, "is_reserved": 0, "is_disabled": 0, "fusion_lat": 0.0}, {"fusion_lon": 0.0, "bike_id": "f06d18326c704c0b86c77ab4df75ec0d", "name": "f06d18326c704c0b86c77ab4df75ec0d", "type": "electric_scooter", "lon": -77.036367, "rental_uris": {"android": "https://dc.lft.to/lastmile_qr_scan", "ios": "https://dc.lft.to/lastmile_qr_scan"}, "lat": 38.924166, "is_reserved": 0, "is_disabled": 0, "fusion_lat": 0.0}, {"fusion_lon": 0.0, "bike_id": "5c030e97de8d47528ebf18a947b9ce35", "name": "5c030e97de8d47528ebf18a947b9ce35", "type": "electric_scooter", "lon": -76.98733466666667, "rental_uris": {"android": "https://dc.lft.to/lastmile_qr_scan", "ios": "https://dc.lft.to/lastmile_qr_scan"}, "lat": 38.86712883333333, "is_reserved": 0, "is_disabled": 0, "fusion_lat": 0.0}, {"fusion_lon": 0.0, "bike_id": "040bad2d40da1b05b9f16575b2f98d1e", "name": "040bad2d40da1b05b9f16575b2f98d1e", "type": "electric_scooter", "lon": -76.99392, "rental_uris": {"android": "https://dc.lft.to/lastmile_qr_scan", "ios": "https://dc.lft.to/lastmile_qr_scan"}, "lat": 38.92174516666667, "is_reserved": 0, "is_disabled": 0, "fusion_lat": 0.0}, {"fusion_lon": 0.0, "bike_id": "c932e1137d1d222387626bde679861ac", "name": "c932e1137d1d222387626bde679861ac", "type": "electric_scooter", "lon": -77.04023266666667, "rental_uris": {"android": "https://dc.lft.to/lastmile_qr_scan", "ios": "https://dc.lft.to/lastmile_qr_scan"}, "lat": 38.917623, "is_reserved": 0, "is_disabled": 0, "fusion_lat": 0.0}, {"fusion_lon": 0.0, "bike_id": "4f3c5c56def402a99bd9d2d43986d014", "name": "4f3c5c56def402a99bd9d2d43986d014", "type": "electric_bike", "lon": -77.00603066666666, "rental_uris": {"android": "https://dc.lft.to/lastmile_qr_scan", "ios": "https://dc.lft.to/lastmile_qr_scan"}, "lat": 38.898045833333335, "is_reserved": 0, "is_disabled": 0, "fusion_lat": 0.0}, {"fusion_lon": 0.0, "bike_id": "def3522cd2eefa997ecbac33053aeccf", "name": "def3522cd2eefa997ecbac33053aeccf", "type": "electric_scooter", "lon": -77.03134116666666, "rental_uris": {"android": "https://dc.lft.to/lastmile_qr_scan", "ios": "https://dc.lft.to/lastmile_qr_scan"}, "lat": 38.92023483333333, "is_reserved": 0, "is_disabled": 0, "fusion_lat": 0.0}, {"fusion_lon": 0.0, "bike_id": "cb45359d4538a8825758e136ea27fd10", "name": "cb45359d4538a8825758e136ea27fd10", "type": "electric_scooter", "lon": -77.05005566666667, "rental_uris": {"android": "https://dc.lft.to/lastmile_qr_scan", "ios": "https://dc.lft.to/lastmile_qr_scan"}, "lat": 38.893662, "is_reserved": 0, "is_disabled": 0, "fusion_lat": 0.0}, {"fusion_lon": 0.0, "bike_id": "da2506610da5056624aba961b6084b34", "name": "da2506610da5056624aba961b6084b34", "type": "electric_scooter", "lon": -77.03948533333333, "rental_uris": {"android": "https://dc.lft.to/lastmile_qr_scan", "ios": "https://dc.lft.to/lastmile_qr_scan"}, "lat": 38.909568166666666, "is_reserved": 0, "is_disabled": 0, "fusion_lat": 0.0}, {"fusion_lon": 0.0, "bike_id": "2675163ab47c23583afcd1aedf23de56", "name": "2675163ab47c23583afcd1aedf23de56", "type": "electric_scooter", "lon": -77.041517, "rental_uris": {"android": "https://dc.lft.to/lastmile_qr_scan", "ios": "https://dc.lft.to/lastmile_qr_scan"}, "lat": 38.91751933333333, "is_reserved": 0, "is_disabled": 0, "fusion_lat": 0.0}, {"fusion_lon": 0.0, "bike_id": "a6396f5d1c494f95e0337cb638435cb4", "name": "a6396f5d1c494f95e0337cb638435cb4", "type": "electric_scooter", "lon": -77.03194116666667, "rental_uris": {"android": "https://dc.lft.to/lastmile_qr_scan", "ios": "https://dc.lft.to/lastmile_qr_scan"}, "lat": 38.89969633333333, "is_reserved": 0, "is_disabled": 0, "fusion_lat": 0.0}, {"fusion_lon": 0.0, "bike_id": "a0bbcd6584b20faaae9989a01a36c534", "name": "a0bbcd6584b20faaae9989a01a36c534", "type": "electric_scooter", "lon": -77.03739016666667, "rental_uris": {"android": "https://dc.lft.to/lastmile_qr_scan", "ios": "https://dc.lft.to/lastmile_qr_scan"}, "lat": 38.9285255, "is_reserved": 0, "is_disabled": 0, "fusion_lat": 0.0}, {"fusion_lon": 0.0, "bike_id": "e5aaca02d0234676a3a380d7f57069fc", "name": "e5aaca02d0234676a3a380d7f57069fc", "type": "electric_scooter", "lon": -77.03667916666667, "rental_uris": {"android": "https://dc.lft.to/lastmile_qr_scan", "ios": "https://dc.lft.to/lastmile_qr_scan"}, "lat": 38.91718383333333, "is_reserved": 0, "is_disabled": 0, "fusion_lat": 0.0}, {"fusion_lon": 0.0, "bike_id": "4806af575ab6d6310492e1a5adaf3b62", "name": "4806af575ab6d6310492e1a5adaf3b62", "type": "electric_scooter", "lon": -76.9899275, "rental_uris": {"android": "https://dc.lft.to/lastmile_qr_scan", "ios": "https://dc.lft.to/lastmile_qr_scan"}, "lat": 38.8643595, "is_reserved": 0, "is_disabled": 0, "fusion_lat": 0.0}, {"fusion_lon": 0.0, "bike_id": "c3dcd417258ed0e080bec30d0c7dc219", "name": "c3dcd417258ed0e080bec30d0c7dc219", "type": "electric_scooter", "lon": -77.0238375, "rental_uris": {"android": "https://dc.lft.to/lastmile_qr_scan", "ios": "https://dc.lft.to/lastmile_qr_scan"}, "lat": 38.88724116666667, "is_reserved": 0, "is_disabled": 0, "fusion_lat": 0.0}, {"fusion_lon": 0.0, "bike_id": "e1dc6f77424e2a9b34f15df9fe6983aa", "name": "e1dc6f77424e2a9b34f15df9fe6983aa", "type": "electric_scooter", "lon": -77.03833866666666, "rental_uris": {"android": "https://dc.lft.to/lastmile_qr_scan", "ios": "https://dc.lft.to/lastmile_qr_scan"}, "lat": 38.91115716666667, "is_reserved": 0, "is_disabled": 0, "fusion_lat": 0.0}, {"fusion_lon": 0.0, "bike_id": "c8ab5d89f9dd1a3a58cc9ab6965b856e", "name": "c8ab5d89f9dd1a3a58cc9ab6965b856e", "type": "electric_scooter", "lon": -77.0269795, "rental_uris": {"android": "https://dc.lft.to/lastmile_qr_scan", "ios": "https://dc.lft.to/lastmile_qr_scan"}, "lat": 38.936389, "is_reserved": 0, "is_disabled": 0, "fusion_lat": 0.0}, {"fusion_lon": 0.0, "bike_id": "b40b173235ee97961bf315a47d4714c1", "name": "b40b173235ee97961bf315a47d4714c1", "type": "electric_scooter", "lon": -76.94632316666667, "rental_uris": {"android": "https://dc.lft.to/lastmile_qr_scan", "ios": "https://dc.lft.to/lastmile_qr_scan"}, "lat": 38.898457666666665, "is_reserved": 0, "is_disabled": 0, "fusion_lat": 0.0}, {"fusion_lon": 0.0, "bike_id": "a8e74b415aa6c20363346ceb425d1179", "name": "a8e74b415aa6c20363346ceb425d1179", "type": "electric_scooter", "lon": -77.02294566666667, "rental_uris": {"android": "https://dc.lft.to/lastmile_qr_scan", "ios": "https://dc.lft.to/lastmile_qr_scan"}, "lat": 38.92084966666667, "is_reserved": 0, "is_disabled": 0, "fusion_lat": 0.0}, {"fusion_lon": 0.0, "bike_id": "eb5c82905a73f5458bee258f8e765e8b", "name": "eb5c82905a73f5458bee258f8e765e8b", "type": "electric_bike", "lon": -76.9543795, "rental_uris": {"android": "https://dc.lft.to/lastmile_qr_scan", "ios": "https://dc.lft.to/lastmile_qr_scan"}, "lat": 38.890374666666666, "is_reserved": 0, "is_disabled": 0, "fusion_lat": 0.0}, {"fusion_lon": 0.0, "bike_id": "b0b259927e627c9ce22c844ee9d40b5a", "name": "b0b259927e627c9ce22c844ee9d40b5a", "type": "electric_scooter", "lon": -77.02589433333333, "rental_uris": {"android": "https://dc.lft.to/lastmile_qr_scan", "ios": "https://dc.lft.to/lastmile_qr_scan"}, "lat": 38.94215066666667, "is_reserved": 0, "is_disabled": 0, "fusion_lat": 0.0}, {"fusion_lon": 0.0, "bike_id": "8b98b61a84ef282c91998779200f97cd", "name": "8b98b61a84ef282c91998779200f97cd", "type": "electric_scooter", "lon": -77.04407883333333, "rental_uris": {"android": "https://dc.lft.to/lastmile_qr_scan", "ios": "https://dc.lft.to/lastmile_qr_scan"}, "lat": 38.89411716666667, "is_reserved": 0, "is_disabled": 0, "fusion_lat": 0.0}, {"fusion_lon": 0.0, "bike_id": "48fb92f3dea28e4db46c052fa9b86368", "name": "48fb92f3dea28e4db46c052fa9b86368", "type": "electric_scooter", "lon": -76.99309016666666, "rental_uris": {"android": "https://dc.lft.to/lastmile_qr_scan", "ios": "https://dc.lft.to/lastmile_qr_scan"}, "lat": 38.924047, "is_reserved": 0, "is_disabled": 0, "fusion_lat": 0.0}, {"fusion_lon": 0.0, "bike_id": "afcbb8a021dcad9658326c051cba6f92", "name": "afcbb8a021dcad9658326c051cba6f92", "type": "electric_scooter", "lon": -77.02409316666666, "rental_uris": {"android": "https://dc.lft.to/lastmile_qr_scan", "ios": "https://dc.lft.to/lastmile_qr_scan"}, "lat": 38.912551666666666, "is_reserved": 0, "is_disabled": 0, "fusion_lat": 0.0}, {"fusion_lon": 0.0, "bike_id": "cf519b8138669425ebdf24010693cc80", "name": "cf519b8138669425ebdf24010693cc80", "type": "electric_bike", "lon": -76.98375283333333, "rental_uris": {"android": "https://dc.lft.to/lastmile_qr_scan", "ios": "https://dc.lft.to/lastmile_qr_scan"}, "lat": 38.9146375, "is_reserved": 0, "is_disabled": 0, "fusion_lat": 0.0}, {"fusion_lon": 0.0, "bike_id": "3d56d4a22cdc1132dd6afbe1838d0836", "name": "3d56d4a22cdc1132dd6afbe1838d0836", "type": "electric_scooter", "lon": -77.03966383333334, "rental_uris": {"android": "https://dc.lft.to/lastmile_qr_scan", "ios": "https://dc.lft.to/lastmile_qr_scan"}, "lat": 38.902539, "is_reserved": 0, "is_disabled": 0, "fusion_lat": 0.0}, {"fusion_lon": 0.0, "bike_id": "70d8485332b98a50c69d9ff41f5bd334", "name": "70d8485332b98a50c69d9ff41f5bd334", "type": "electric_scooter", "lon": -76.93187133333333, "rental_uris": {"android": "https://dc.lft.to/lastmile_qr_scan", "ios": "https://dc.lft.to/lastmile_qr_scan"}, "lat": 38.898782833333335, "is_reserved": 0, "is_disabled": 0, "fusion_lat": 0.0}, {"fusion_lon": 0.0, "bike_id": "45e2147ef8776b12e5128be3e0baa0db", "name": "45e2147ef8776b12e5128be3e0baa0db", "type": "electric_scooter", "lon": -77.011907, "rental_uris": {"android": "https://dc.lft.to/lastmile_qr_scan", "ios": "https://dc.lft.to/lastmile_qr_scan"}, "lat": 38.88769383333333, "is_reserved": 0, "is_disabled": 0, "fusion_lat": 0.0}, {"fusion_lon": 0.0, "bike_id": "a296e0f467872772e3947085468abb19", "name": "a296e0f467872772e3947085468abb19", "type": "electric_scooter", "lon": -77.03468883333333, "rental_uris": {"android": "https://dc.lft.to/lastmile_qr_scan", "ios": "https://dc.lft.to/lastmile_qr_scan"}, "lat": 38.9087095, "is_reserved": 0, "is_disabled": 0, "fusion_lat": 0.0}, {"fusion_lon": 0.0, "bike_id": "533a3b7df8d9e41b817c65930d69dc2e", "name": "533a3b7df8d9e41b817c65930d69dc2e", "type": "electric_scooter", "lon": -77.04675216666666, "rental_uris": {"android": "https://dc.lft.to/lastmile_qr_scan", "ios": "https://dc.lft.to/lastmile_qr_scan"}, "lat": 38.906555166666664, "is_reserved": 0, "is_disabled": 0, "fusion_lat": 0.0}, {"fusion_lon": 0.0, "bike_id": "b92cc032f7ba9554b236f2e2c5d297b3", "name": "b92cc032f7ba9554b236f2e2c5d297b3", "type": "electric_scooter", "lon": -76.98930583333333, "rental_uris": {"android": "https://dc.lft.to/lastmile_qr_scan", "ios": "https://dc.lft.to/lastmile_qr_scan"}, "lat": 38.90232183333333, "is_reserved": 0, "is_disabled": 0, "fusion_lat": 0.0}, {"fusion_lon": 0.0, "bike_id": "cad4dc9e6ddb51125bda64011d6ba16a", "name": "cad4dc9e6ddb51125bda64011d6ba16a", "type": "electric_bike", "lon": -77.02449766666666, "rental_uris": {"android": "https://dc.lft.to/lastmile_qr_scan", "ios": "https://dc.lft.to/lastmile_qr_scan"}, "lat": 38.90994883333333, "is_reserved": 0, "is_disabled": 0, "fusion_lat": 0.0}, {"fusion_lon": 0.0, "bike_id": "a13a5ec0f91fe3a5eb80b7f9fadc57ab", "name": "a13a5ec0f91fe3a5eb80b7f9fadc57ab", "type": "electric_scooter", "lon": -77.04165766666667, "rental_uris": {"android": "https://dc.lft.to/lastmile_qr_scan", "ios": "https://dc.lft.to/lastmile_qr_scan"}, "lat": 38.90512, "is_reserved": 0, "is_disabled": 0, "fusion_lat": 0.0}, {"fusion_lon": 0.0, "bike_id": "9b742ed48108bf749298e22a61016e4a", "name": "9b742ed48108bf749298e22a61016e4a", "type": "electric_scooter", "lon": -77.0245265, "rental_uris": {"android": "https://dc.lft.to/lastmile_qr_scan", "ios": "https://dc.lft.to/lastmile_qr_scan"}, "lat": 38.92894366666667, "is_reserved": 0, "is_disabled": 0, "fusion_lat": 0.0}, {"fusion_lon": 0.0, "bike_id": "a3281085b7fe56dc2b80910897a8dfe4", "name": "a3281085b7fe56dc2b80910897a8dfe4", "type": "electric_scooter", "lon": -77.04375833333333, "rental_uris": {"android": "https://dc.lft.to/lastmile_qr_scan", "ios": "https://dc.lft.to/lastmile_qr_scan"}, "lat": 38.910538333333335, "is_reserved": 0, "is_disabled": 0, "fusion_lat": 0.0}, {"fusion_lon": 0.0, "bike_id": "595db52f00572a68fddbd1b10b22df0e", "name": "595db52f00572a68fddbd1b10b22df0e", "type": "electric_scooter", "lon": -77.0328945, "rental_uris": {"android": "https://dc.lft.to/lastmile_qr_scan", "ios": "https://dc.lft.to/lastmile_qr_scan"}, "lat": 38.9287905, "is_reserved": 0, "is_disabled": 0, "fusion_lat": 0.0}, {"fusion_lon": 0.0, "bike_id": "f4f0e5591fdcf1033dfb79c4cb9f78f0", "name": "f4f0e5591fdcf1033dfb79c4cb9f78f0", "type": "electric_scooter", "lon": -77.05728366666666, "rental_uris": {"android": "https://dc.lft.to/lastmile_qr_scan", "ios": "https://dc.lft.to/lastmile_qr_scan"}, "lat": 38.933714333333334, "is_reserved": 0, "is_disabled": 0, "fusion_lat": 0.0}, {"fusion_lon": 0.0, "bike_id": "11aad769cabf2cc3617d6496a8f22e69", "name": "11aad769cabf2cc3617d6496a8f22e69", "type": "electric_scooter", "lon": -77.03152516666667, "rental_uris": {"android": "https://dc.lft.to/lastmile_qr_scan", "ios": "https://dc.lft.to/lastmile_qr_scan"}, "lat": 38.88747866666667, "is_reserved": 0, "is_disabled": 0, "fusion_lat": 0.0}, {"fusion_lon": 0.0, "bike_id": "f9685a541eb8c8d067e5b71b4e2e9f1b", "name": "f9685a541eb8c8d067e5b71b4e2e9f1b", "type": "electric_scooter", "lon": -77.04384983333334, "rental_uris": {"android": "https://dc.lft.to/lastmile_qr_scan", "ios": "https://dc.lft.to/lastmile_qr_scan"}, "lat": 38.900668, "is_reserved": 0, "is_disabled": 0, "fusion_lat": 0.0}, {"fusion_lon": 0.0, "bike_id": "dfbdc2299f0c2a5208b0649bd8abbc98", "name": "dfbdc2299f0c2a5208b0649bd8abbc98", "type": "electric_scooter", "lon": -77.05185083333333, "rental_uris": {"android": "https://dc.lft.to/lastmile_qr_scan", "ios": "https://dc.lft.to/lastmile_qr_scan"}, "lat": 38.924217166666665, "is_reserved": 0, "is_disabled": 0, "fusion_lat": 0.0}, {"fusion_lon": 0.0, "bike_id": "6ba4984989f34cf6e4f77da1aa42e31f", "name": "6ba4984989f34cf6e4f77da1aa42e31f", "type": "electric_scooter", "lon": -77.05523183333334, "rental_uris": {"android": "https://dc.lft.to/lastmile_qr_scan", "ios": "https://dc.lft.to/lastmile_qr_scan"}, "lat": 38.94414316666666, "is_reserved": 0, "is_disabled": 0, "fusion_lat": 0.0}, {"fusion_lon": 0.0, "bike_id": "988ff8a0aaac765ee17486f80d75052f", "name": "988ff8a0aaac765ee17486f80d75052f", "type": "electric_bike", "lon": -76.9815875, "rental_uris": {"android": "https://dc.lft.to/lastmile_qr_scan", "ios": "https://dc.lft.to/lastmile_qr_scan"}, "lat": 38.959642, "is_reserved": 0, "is_disabled": 0, "fusion_lat": 0.0}, {"fusion_lon": 0.0, "bike_id": "db25d18e6d3f4c76fa246d23252b1819", "name": "db25d18e6d3f4c76fa246d23252b1819", "type": "electric_scooter", "lon": -77.04226266666667, "rental_uris": {"android": "https://dc.lft.to/lastmile_qr_scan", "ios": "https://dc.lft.to/lastmile_qr_scan"}, "lat": 38.931531666666665, "is_reserved": 0, "is_disabled": 0, "fusion_lat": 0.0}, {"fusion_lon": 0.0, "bike_id": "d0679e963153d379eae8a6908113cd0b", "name": "d0679e963153d379eae8a6908113cd0b", "type": "electric_scooter", "lon": -77.0450185, "rental_uris": {"android": "https://dc.lft.to/lastmile_qr_scan", "ios": "https://dc.lft.to/lastmile_qr_scan"}, "lat": 38.91113416666666, "is_reserved": 0, "is_disabled": 0, "fusion_lat": 0.0}, {"fusion_lon": 0.0, "bike_id": "b3531fa4fdd473f747431eada0ee1214", "name": "b3531fa4fdd473f747431eada0ee1214", "type": "electric_scooter", "lon": -76.99185416666667, "rental_uris": {"android": "https://dc.lft.to/lastmile_qr_scan", "ios": "https://dc.lft.to/lastmile_qr_scan"}, "lat": 38.9259645, "is_reserved": 0, "is_disabled": 0, "fusion_lat": 0.0}, {"fusion_lon": 0.0, "bike_id": "928847e4b6dba1f9ae1f413d87bfea0a", "name": "928847e4b6dba1f9ae1f413d87bfea0a", "type": "electric_scooter", "lon": -77.00197166666666, "rental_uris": {"android": "https://dc.lft.to/lastmile_qr_scan", "ios": "https://dc.lft.to/lastmile_qr_scan"}, "lat": 38.9028745, "is_reserved": 0, "is_disabled": 0, "fusion_lat": 0.0}, {"fusion_lon": 0.0, "bike_id": "8b1f0b4239c33cd457a31531cce8b314", "name": "8b1f0b4239c33cd457a31531cce8b314", "type": "electric_scooter", "lon": -76.933688, "rental_uris": {"android": "https://dc.lft.to/lastmile_qr_scan", "ios": "https://dc.lft.to/lastmile_qr_scan"}, "lat": 38.898974333333335, "is_reserved": 0, "is_disabled": 0, "fusion_lat": 0.0}, {"fusion_lon": 0.0, "bike_id": "d1d87b1279856b58fe2b498d47f9124c", "name": "d1d87b1279856b58fe2b498d47f9124c", "type": "electric_scooter", "lon": -77.0271575, "rental_uris": {"android": "https://dc.lft.to/lastmile_qr_scan", "ios": "https://dc.lft.to/lastmile_qr_scan"}, "lat": 38.916733, "is_reserved": 0, "is_disabled": 0, "fusion_lat": 0.0}, {"fusion_lon": 0.0, "bike_id": "3da94195cd43cc4a87f4c9cd33a898f6", "name": "3da94195cd43cc4a87f4c9cd33a898f6", "type": "electric_scooter", "lon": -76.95673183333334, "rental_uris": {"android": "https://dc.lft.to/lastmile_qr_scan", "ios": "https://dc.lft.to/lastmile_qr_scan"}, "lat": 38.8876485, "is_reserved": 0, "is_disabled": 0, "fusion_lat": 0.0}, {"fusion_lon": 0.0, "bike_id": "b9581a1ae1e5fa56dd0f868e680ba9d3", "name": "b9581a1ae1e5fa56dd0f868e680ba9d3", "type": "electric_scooter", "lon": -77.01894683333333, "rental_uris": {"android": "https://dc.lft.to/lastmile_qr_scan", "ios": "https://dc.lft.to/lastmile_qr_scan"}, "lat": 38.94928983333333, "is_reserved": 0, "is_disabled": 0, "fusion_lat": 0.0}, {"fusion_lon": 0.0, "bike_id": "1a7f91d9b275f896b07e6b0cac829b1d", "name": "1a7f91d9b275f896b07e6b0cac829b1d", "type": "electric_scooter", "lon": -76.990332, "rental_uris": {"android": "https://dc.lft.to/lastmile_qr_scan", "ios": "https://dc.lft.to/lastmile_qr_scan"}, "lat": 38.89852716666667, "is_reserved": 0, "is_disabled": 0, "fusion_lat": 0.0}, {"fusion_lon": 0.0, "bike_id": "617952099b9ce4fb0c4b9f39ba629030", "name": "617952099b9ce4fb0c4b9f39ba629030", "type": "electric_scooter", "lon": -77.01191583333333, "rental_uris": {"android": "https://dc.lft.to/lastmile_qr_scan", "ios": "https://dc.lft.to/lastmile_qr_scan"}, "lat": 38.906506, "is_reserved": 0, "is_disabled": 0, "fusion_lat": 0.0}, {"fusion_lon": 0.0, "bike_id": "d86e3d27632ecb7c20c5aa8fdb03ab2e", "name": "d86e3d27632ecb7c20c5aa8fdb03ab2e", "type": "electric_scooter", "lon": -77.003335, "rental_uris": {"android": "https://dc.lft.to/lastmile_qr_scan", "ios": "https://dc.lft.to/lastmile_qr_scan"}, "lat": 38.893558, "is_reserved": 0, "is_disabled": 0, "fusion_lat": 0.0}, {"fusion_lon": 0.0, "bike_id": "05bcfa3fdedad8111496c503751f809d", "name": "05bcfa3fdedad8111496c503751f809d", "type": "electric_scooter", "lon": -77.05419566666667, "rental_uris": {"android": "https://dc.lft.to/lastmile_qr_scan", "ios": "https://dc.lft.to/lastmile_qr_scan"}, "lat": 38.89921833333333, "is_reserved": 0, "is_disabled": 0, "fusion_lat": 0.0}, {"fusion_lon": 0.0, "bike_id": "b51b4614175bd45ff67f37c301b15fd5", "name": "b51b4614175bd45ff67f37c301b15fd5", "type": "electric_scooter", "lon": -77.04270783333334, "rental_uris": {"android": "https://dc.lft.to/lastmile_qr_scan", "ios": "https://dc.lft.to/lastmile_qr_scan"}, "lat": 38.91429083333333, "is_reserved": 0, "is_disabled": 0, "fusion_lat": 0.0}, {"fusion_lon": 0.0, "bike_id": "470bddf0c46a43132d4c4d581993e02f", "name": "470bddf0c46a43132d4c4d581993e02f", "type": "electric_scooter", "lon": -77.00831983333333, "rental_uris": {"android": "https://dc.lft.to/lastmile_qr_scan", "ios": "https://dc.lft.to/lastmile_qr_scan"}, "lat": 38.91263633333333, "is_reserved": 0, "is_disabled": 0, "fusion_lat": 0.0}, {"fusion_lon": 0.0, "bike_id": "caffafae9e70984dcf9eac2d4a89421e", "name": "caffafae9e70984dcf9eac2d4a89421e", "type": "electric_bike", "lon": -77.060198, "rental_uris": {"android": "https://dc.lft.to/lastmile_qr_scan", "ios": "https://dc.lft.to/lastmile_qr_scan"}, "lat": 38.902731833333334, "is_reserved": 0, "is_disabled": 0, "fusion_lat": 0.0}, {"fusion_lon": 0.0, "bike_id": "aa788f98a57f6f5c6399e473d8ce7971", "name": "aa788f98a57f6f5c6399e473d8ce7971", "type": "electric_bike", "lon": -76.889074, "rental_uris": {"android": "https://dc.lft.to/lastmile_qr_scan", "ios": "https://dc.lft.to/lastmile_qr_scan"}, "lat": 38.925898833333335, "is_reserved": 0, "is_disabled": 0, "fusion_lat": 0.0}, {"fusion_lon": 0.0, "bike_id": "d0c5b4701b6ed8d68c9c73a65f857560", "name": "d0c5b4701b6ed8d68c9c73a65f857560", "type": "electric_scooter", "lon": -77.05168333333333, "rental_uris": {"android": "https://dc.lft.to/lastmile_qr_scan", "ios": "https://dc.lft.to/lastmile_qr_scan"}, "lat": 38.905779833333334, "is_reserved": 0, "is_disabled": 0, "fusion_lat": 0.0}, {"fusion_lon": 0.0, "bike_id": "b3b5e0292f7a053ee4138714e0da047c", "name": "b3b5e0292f7a053ee4138714e0da047c", "type": "electric_scooter", "lon": -77.0323265, "rental_uris": {"android": "https://dc.lft.to/lastmile_qr_scan", "ios": "https://dc.lft.to/lastmile_qr_scan"}, "lat": 38.929924, "is_reserved": 0, "is_disabled": 0, "fusion_lat": 0.0}, {"fusion_lon": 0.0, "bike_id": "6723346b78cfb82fc9038802f4a0b1d5", "name": "6723346b78cfb82fc9038802f4a0b1d5", "type": "electric_scooter", "lon": -77.013993, "rental_uris": {"android": "https://dc.lft.to/lastmile_qr_scan", "ios": "https://dc.lft.to/lastmile_qr_scan"}, "lat": 38.92835566666667, "is_reserved": 0, "is_disabled": 0, "fusion_lat": 0.0}, {"fusion_lon": 0.0, "bike_id": "c252c81f5f6b747a03139f57195ebbce", "name": "c252c81f5f6b747a03139f57195ebbce", "type": "electric_bike", "lon": -76.95226166666667, "rental_uris": {"android": "https://dc.lft.to/lastmile_qr_scan", "ios": "https://dc.lft.to/lastmile_qr_scan"}, "lat": 38.892363833333334, "is_reserved": 0, "is_disabled": 0, "fusion_lat": 0.0}, {"fusion_lon": 0.0, "bike_id": "ca78b392a2ed26b92adcab008ae45fd9", "name": "ca78b392a2ed26b92adcab008ae45fd9", "type": "electric_scooter", "lon": -77.0403855, "rental_uris": {"android": "https://dc.lft.to/lastmile_qr_scan", "ios": "https://dc.lft.to/lastmile_qr_scan"}, "lat": 38.91775333333333, "is_reserved": 0, "is_disabled": 0, "fusion_lat": 0.0}, {"fusion_lon": 0.0, "bike_id": "9f770b27e538a237131c4323b2600a1f", "name": "9f770b27e538a237131c4323b2600a1f", "type": "electric_scooter", "lon": -76.99032966666667, "rental_uris": {"android": "https://dc.lft.to/lastmile_qr_scan", "ios": "https://dc.lft.to/lastmile_qr_scan"}, "lat": 38.89138066666667, "is_reserved": 0, "is_disabled": 0, "fusion_lat": 0.0}, {"fusion_lon": 0.0, "bike_id": "d6e58f97bb7309de26a0fcf9a51df59d", "name": "d6e58f97bb7309de26a0fcf9a51df59d", "type": "electric_scooter", "lon": -77.07342333333334, "rental_uris": {"android": "https://dc.lft.to/lastmile_qr_scan", "ios": "https://dc.lft.to/lastmile_qr_scan"}, "lat": 38.93483533333333, "is_reserved": 0, "is_disabled": 0, "fusion_lat": 0.0}, {"fusion_lon": 0.0, "bike_id": "47808daabe5d84aec1f8813889f22372", "name": "47808daabe5d84aec1f8813889f22372", "type": "electric_scooter", "lon": -77.04863383333333, "rental_uris": {"android": "https://dc.lft.to/lastmile_qr_scan", "ios": "https://dc.lft.to/lastmile_qr_scan"}, "lat": 38.91338533333333, "is_reserved": 0, "is_disabled": 0, "fusion_lat": 0.0}, {"fusion_lon": 0.0, "bike_id": "bd72128f31e54d2263a012b9d27f7763", "name": "bd72128f31e54d2263a012b9d27f7763", "type": "electric_scooter", "lon": -77.0120415, "rental_uris": {"android": "https://dc.lft.to/lastmile_qr_scan", "ios": "https://dc.lft.to/lastmile_qr_scan"}, "lat": 38.896148333333336, "is_reserved": 0, "is_disabled": 0, "fusion_lat": 0.0}, {"fusion_lon": 0.0, "bike_id": "824cfa93310a284ad801392142c2a614", "name": "824cfa93310a284ad801392142c2a614", "type": "electric_scooter", "lon": -77.01092, "rental_uris": {"android": "https://dc.lft.to/lastmile_qr_scan", "ios": "https://dc.lft.to/lastmile_qr_scan"}, "lat": 38.90565733333333, "is_reserved": 0, "is_disabled": 0, "fusion_lat": 0.0}, {"fusion_lon": 0.0, "bike_id": "b794d24ee9b3b7cbe2b77cc918ace96b", "name": "b794d24ee9b3b7cbe2b77cc918ace96b", "type": "electric_scooter", "lon": -77.04147316666666, "rental_uris": {"android": "https://dc.lft.to/lastmile_qr_scan", "ios": "https://dc.lft.to/lastmile_qr_scan"}, "lat": 38.917095333333336, "is_reserved": 0, "is_disabled": 0, "fusion_lat": 0.0}, {"fusion_lon": 0.0, "bike_id": "9b58f6087909b0574cd1f35ff757a4bd", "name": "9b58f6087909b0574cd1f35ff757a4bd", "type": "electric_scooter", "lon": -77.047626, "rental_uris": {"android": "https://dc.lft.to/lastmile_qr_scan", "ios": "https://dc.lft.to/lastmile_qr_scan"}, "lat": 38.90245616666667, "is_reserved": 0, "is_disabled": 0, "fusion_lat": 0.0}, {"fusion_lon": 0.0, "bike_id": "82fc2d7436a2a97dd8cd5716a11ae5a8", "name": "82fc2d7436a2a97dd8cd5716a11ae5a8", "type": "electric_bike", "lon": -76.93538783333334, "rental_uris": {"android": "https://dc.lft.to/lastmile_qr_scan", "ios": "https://dc.lft.to/lastmile_qr_scan"}, "lat": 38.9555815, "is_reserved": 0, "is_disabled": 0, "fusion_lat": 0.0}, {"fusion_lon": 0.0, "bike_id": "02399a60b635060399cb07416c37c74e", "name": "02399a60b635060399cb07416c37c74e", "type": "electric_bike", "lon": -77.12258666666666, "rental_uris": {"android": "https://dc.lft.to/lastmile_qr_scan", "ios": "https://dc.lft.to/lastmile_qr_scan"}, "lat": 38.88768066666667, "is_reserved": 0, "is_disabled": 0, "fusion_lat": 0.0}, {"fusion_lon": 0.0, "bike_id": "95ceff3aa793c503e8449624ccd058f4", "name": "95ceff3aa793c503e8449624ccd058f4", "type": "electric_scooter", "lon": -77.0322055, "rental_uris": {"android": "https://dc.lft.to/lastmile_qr_scan", "ios": "https://dc.lft.to/lastmile_qr_scan"}, "lat": 38.892238666666664, "is_reserved": 0, "is_disabled": 0, "fusion_lat": 0.0}, {"fusion_lon": 0.0, "bike_id": "a983abd4173dc3cba9c2dd8fd1645227", "name": "a983abd4173dc3cba9c2dd8fd1645227", "type": "electric_bike", "lon": -77.11228483333333, "rental_uris": {"android": "https://dc.lft.to/lastmile_qr_scan", "ios": "https://dc.lft.to/lastmile_qr_scan"}, "lat": 38.828708666666664, "is_reserved": 0, "is_disabled": 0, "fusion_lat": 0.0}, {"fusion_lon": 0.0, "bike_id": "9e28134ff996a93899fe4d25b3a20280", "name": "9e28134ff996a93899fe4d25b3a20280", "type": "electric_bike", "lon": -77.0768345, "rental_uris": {"android": "https://dc.lft.to/lastmile_qr_scan", "ios": "https://dc.lft.to/lastmile_qr_scan"}, "lat": 38.831906833333335, "is_reserved": 0, "is_disabled": 0, "fusion_lat": 0.0}, {"fusion_lon": 0.0, "bike_id": "08491504bec346dd5f4ccef12af2e198", "name": "08491504bec346dd5f4ccef12af2e198", "type": "electric_scooter", "lon": -77.04009266666667, "rental_uris": {"android": "https://dc.lft.to/lastmile_qr_scan", "ios": "https://dc.lft.to/lastmile_qr_scan"}, "lat": 38.91558166666667, "is_reserved": 0, "is_disabled": 0, "fusion_lat": 0.0}, {"fusion_lon": 0.0, "bike_id": "9c86d7bebb54adb337deadd5f881d121", "name": "9c86d7bebb54adb337deadd5f881d121", "type": "electric_scooter", "lon": -77.02486583333334, "rental_uris": {"android": "https://dc.lft.to/lastmile_qr_scan", "ios": "https://dc.lft.to/lastmile_qr_scan"}, "lat": 38.939106833333334, "is_reserved": 0, "is_disabled": 0, "fusion_lat": 0.0}, {"fusion_lon": 0.0, "bike_id": "73413be204775c02b92742b38571ab72", "name": "73413be204775c02b92742b38571ab72", "type": "electric_scooter", "lon": -77.0451445, "rental_uris": {"android": "https://dc.lft.to/lastmile_qr_scan", "ios": "https://dc.lft.to/lastmile_qr_scan"}, "lat": 38.906681, "is_reserved": 0, "is_disabled": 0, "fusion_lat": 0.0}, {"fusion_lon": 0.0, "bike_id": "4b0756915510a87312e9149e6502189b", "name": "4b0756915510a87312e9149e6502189b", "type": "electric_scooter", "lon": -77.02710883333333, "rental_uris": {"android": "https://dc.lft.to/lastmile_qr_scan", "ios": "https://dc.lft.to/lastmile_qr_scan"}, "lat": 38.918009833333336, "is_reserved": 0, "is_disabled": 0, "fusion_lat": 0.0}, {"fusion_lon": 0.0, "bike_id": "9a1d9fad140b7bb5f43b0f724ef7383b", "name": "9a1d9fad140b7bb5f43b0f724ef7383b", "type": "electric_scooter", "lon": -77.02980583333333, "rental_uris": {"android": "https://dc.lft.to/lastmile_qr_scan", "ios": "https://dc.lft.to/lastmile_qr_scan"}, "lat": 38.907828, "is_reserved": 0, "is_disabled": 0, "fusion_lat": 0.0}, {"fusion_lon": 0.0, "bike_id": "e7e0d2768489b7e30143fa356ba0db87", "name": "e7e0d2768489b7e30143fa356ba0db87", "type": "electric_scooter", "lon": -77.06347816666667, "rental_uris": {"android": "https://dc.lft.to/lastmile_qr_scan", "ios": "https://dc.lft.to/lastmile_qr_scan"}, "lat": 38.913335333333336, "is_reserved": 0, "is_disabled": 0, "fusion_lat": 0.0}, {"fusion_lon": 0.0, "bike_id": "e74f849daa4f41bc7a33f1ea2a8ce316", "name": "e74f849daa4f41bc7a33f1ea2a8ce316", "type": "electric_bike", "lon": -77.35312766666667, "rental_uris": {"android": "https://dc.lft.to/lastmile_qr_scan", "ios": "https://dc.lft.to/lastmile_qr_scan"}, "lat": 38.949968, "is_reserved": 0, "is_disabled": 0, "fusion_lat": 0.0}, {"fusion_lon": 0.0, "bike_id": "c1412ea9a5e31fa7ea9028ec4d2213f7", "name": "c1412ea9a5e31fa7ea9028ec4d2213f7", "type": "electric_scooter", "lon": -77.0093815, "rental_uris": {"android": "https://dc.lft.to/lastmile_qr_scan", "ios": "https://dc.lft.to/lastmile_qr_scan"}, "lat": 38.87489633333333, "is_reserved": 0, "is_disabled": 0, "fusion_lat": 0.0}, {"fusion_lon": 0.0, "bike_id": "97e3789dc8b0a92bd38fcc6a41935836", "name": "97e3789dc8b0a92bd38fcc6a41935836", "type": "electric_scooter", "lon": -76.93188533333333, "rental_uris": {"android": "https://dc.lft.to/lastmile_qr_scan", "ios": "https://dc.lft.to/lastmile_qr_scan"}, "lat": 38.89875116666666, "is_reserved": 0, "is_disabled": 0, "fusion_lat": 0.0}, {"fusion_lon": 0.0, "bike_id": "e9208bd9f891ed5c84a44b6261b5603d", "name": "e9208bd9f891ed5c84a44b6261b5603d", "type": "electric_scooter", "lon": -76.98654816666667, "rental_uris": {"android": "https://dc.lft.to/lastmile_qr_scan", "ios": "https://dc.lft.to/lastmile_qr_scan"}, "lat": 38.90136866666667, "is_reserved": 0, "is_disabled": 0, "fusion_lat": 0.0}, {"fusion_lon": 0.0, "bike_id": "435905b26b145d6b9d31f946525913e8", "name": "435905b26b145d6b9d31f946525913e8", "type": "electric_scooter", "lon": -77.018236, "rental_uris": {"android": "https://dc.lft.to/lastmile_qr_scan", "ios": "https://dc.lft.to/lastmile_qr_scan"}, "lat": 38.921997166666664, "is_reserved": 0, "is_disabled": 0, "fusion_lat": 0.0}, {"fusion_lon": 0.0, "bike_id": "03d75f9c33c8ccf16cc091b4e50202c2", "name": "03d75f9c33c8ccf16cc091b4e50202c2", "type": "electric_scooter", "lon": -77.04176866666667, "rental_uris": {"android": "https://dc.lft.to/lastmile_qr_scan", "ios": "https://dc.lft.to/lastmile_qr_scan"}, "lat": 38.907718, "is_reserved": 0, "is_disabled": 0, "fusion_lat": 0.0}, {"fusion_lon": 0.0, "bike_id": "496d40af46cf7f5843fbe9b30e5691dc", "name": "496d40af46cf7f5843fbe9b30e5691dc", "type": "electric_bike", "lon": -77.01576666666666, "rental_uris": {"android": "https://dc.lft.to/lastmile_qr_scan", "ios": "https://dc.lft.to/lastmile_qr_scan"}, "lat": 38.916789333333334, "is_reserved": 0, "is_disabled": 0, "fusion_lat": 0.0}, {"fusion_lon": 0.0, "bike_id": "5c2ef944c6a5565462fad0a6d0d69a6a", "name": "5c2ef944c6a5565462fad0a6d0d69a6a", "type": "electric_scooter", "lon": -76.99828066666667, "rental_uris": {"android": "https://dc.lft.to/lastmile_qr_scan", "ios": "https://dc.lft.to/lastmile_qr_scan"}, "lat": 38.900401333333335, "is_reserved": 0, "is_disabled": 0, "fusion_lat": 0.0}, {"fusion_lon": 0.0, "bike_id": "180cb8048b8dc6bf37b8bedc91c0e61c", "name": "180cb8048b8dc6bf37b8bedc91c0e61c", "type": "electric_bike", "lon": -77.05478966666666, "rental_uris": {"android": "https://dc.lft.to/lastmile_qr_scan", "ios": "https://dc.lft.to/lastmile_qr_scan"}, "lat": 38.908662666666665, "is_reserved": 0, "is_disabled": 0, "fusion_lat": 0.0}, {"fusion_lon": 0.0, "bike_id": "76532a8f4786a48990faa5857a225115", "name": "76532a8f4786a48990faa5857a225115", "type": "electric_scooter", "lon": -77.056633, "rental_uris": {"android": "https://dc.lft.to/lastmile_qr_scan", "ios": "https://dc.lft.to/lastmile_qr_scan"}, "lat": 38.905325, "is_reserved": 0, "is_disabled": 0, "fusion_lat": 0.0}, {"fusion_lon": 0.0, "bike_id": "2158dffb0b73313a7fb2dbb984946cdd", "name": "2158dffb0b73313a7fb2dbb984946cdd", "type": "electric_bike", "lon": -77.04308766666666, "rental_uris": {"android": "https://dc.lft.to/lastmile_qr_scan", "ios": "https://dc.lft.to/lastmile_qr_scan"}, "lat": 39.0544875, "is_reserved": 0, "is_disabled": 0, "fusion_lat": 0.0}, {"fusion_lon": 0.0, "bike_id": "7be515a6f31873355074f175344abbb2", "name": "7be515a6f31873355074f175344abbb2", "type": "electric_scooter", "lon": -77.05120216666667, "rental_uris": {"android": "https://dc.lft.to/lastmile_qr_scan", "ios": "https://dc.lft.to/lastmile_qr_scan"}, "lat": 38.92343666666667, "is_reserved": 0, "is_disabled": 0, "fusion_lat": 0.0}, {"fusion_lon": 0.0, "bike_id": "fbcdfbe2a2df13b191d12d05208c8c66", "name": "fbcdfbe2a2df13b191d12d05208c8c66", "type": "electric_scooter", "lon": -77.00689466666667, "rental_uris": {"android": "https://dc.lft.to/lastmile_qr_scan", "ios": "https://dc.lft.to/lastmile_qr_scan"}, "lat": 38.876603, "is_reserved": 0, "is_disabled": 0, "fusion_lat": 0.0}, {"fusion_lon": 0.0, "bike_id": "2177e86a8e50f5026dd78949aa5ebe34", "name": "2177e86a8e50f5026dd78949aa5ebe34", "type": "electric_scooter", "lon": -76.99055216666666, "rental_uris": {"android": "https://dc.lft.to/lastmile_qr_scan", "ios": "https://dc.lft.to/lastmile_qr_scan"}, "lat": 38.86349366666666, "is_reserved": 0, "is_disabled": 0, "fusion_lat": 0.0}, {"fusion_lon": 0.0, "bike_id": "b65b1456b6138ba49b141fdb964f2375", "name": "b65b1456b6138ba49b141fdb964f2375", "type": "electric_scooter", "lon": -76.99655433333334, "rental_uris": {"android": "https://dc.lft.to/lastmile_qr_scan", "ios": "https://dc.lft.to/lastmile_qr_scan"}, "lat": 38.932466833333336, "is_reserved": 0, "is_disabled": 0, "fusion_lat": 0.0}, {"fusion_lon": 0.0, "bike_id": "3ba50619d56b37004694253d7aed1922", "name": "3ba50619d56b37004694253d7aed1922", "type": "electric_scooter", "lon": -77.0281575, "rental_uris": {"android": "https://dc.lft.to/lastmile_qr_scan", "ios": "https://dc.lft.to/lastmile_qr_scan"}, "lat": 38.916307833333335, "is_reserved": 0, "is_disabled": 0, "fusion_lat": 0.0}, {"fusion_lon": 0.0, "bike_id": "a972bf4b6cf5c5116e1199c1bbb89e28", "name": "a972bf4b6cf5c5116e1199c1bbb89e28", "type": "electric_scooter", "lon": -77.01010616666667, "rental_uris": {"android": "https://dc.lft.to/lastmile_qr_scan", "ios": "https://dc.lft.to/lastmile_qr_scan"}, "lat": 38.8796595, "is_reserved": 0, "is_disabled": 0, "fusion_lat": 0.0}, {"fusion_lon": 0.0, "bike_id": "64189c2e52457b88188c8694c159b48e", "name": "64189c2e52457b88188c8694c159b48e", "type": "electric_scooter", "lon": -77.0364295, "rental_uris": {"android": "https://dc.lft.to/lastmile_qr_scan", "ios": "https://dc.lft.to/lastmile_qr_scan"}, "lat": 38.912220833333336, "is_reserved": 0, "is_disabled": 0, "fusion_lat": 0.0}, {"fusion_lon": 0.0, "bike_id": "82b49e31b0aff36465f7d9cf2561a21d", "name": "82b49e31b0aff36465f7d9cf2561a21d", "type": "electric_scooter", "lon": -77.01755633333333, "rental_uris": {"android": "https://dc.lft.to/lastmile_qr_scan", "ios": "https://dc.lft.to/lastmile_qr_scan"}, "lat": 38.87688133333333, "is_reserved": 0, "is_disabled": 0, "fusion_lat": 0.0}, {"fusion_lon": 0.0, "bike_id": "95353449fe996d2d38e0fb74a99013aa", "name": "95353449fe996d2d38e0fb74a99013aa", "type": "electric_scooter", "lon": -77.046755, "rental_uris": {"android": "https://dc.lft.to/lastmile_qr_scan", "ios": "https://dc.lft.to/lastmile_qr_scan"}, "lat": 38.90345466666667, "is_reserved": 0, "is_disabled": 0, "fusion_lat": 0.0}, {"fusion_lon": 0.0, "bike_id": "e7a96133c7bb543daeb6135df20388ea", "name": "e7a96133c7bb543daeb6135df20388ea", "type": "electric_scooter", "lon": -77.02595966666667, "rental_uris": {"android": "https://dc.lft.to/lastmile_qr_scan", "ios": "https://dc.lft.to/lastmile_qr_scan"}, "lat": 38.901494166666666, "is_reserved": 0, "is_disabled": 0, "fusion_lat": 0.0}, {"fusion_lon": 0.0, "bike_id": "b782198ee62dc54d39afc375488bab28", "name": "b782198ee62dc54d39afc375488bab28", "type": "electric_bike", "lon": -77.09565266666667, "rental_uris": {"android": "https://dc.lft.to/lastmile_qr_scan", "ios": "https://dc.lft.to/lastmile_qr_scan"}, "lat": 38.917029666666664, "is_reserved": 0, "is_disabled": 0, "fusion_lat": 0.0}, {"fusion_lon": 0.0, "bike_id": "cbfcdff67c41116fc62e5d18bd564b43", "name": "cbfcdff67c41116fc62e5d18bd564b43", "type": "electric_scooter", "lon": -77.02682383333334, "rental_uris": {"android": "https://dc.lft.to/lastmile_qr_scan", "ios": "https://dc.lft.to/lastmile_qr_scan"}, "lat": 38.896230833333334, "is_reserved": 0, "is_disabled": 0, "fusion_lat": 0.0}, {"fusion_lon": 0.0, "bike_id": "c466af6acee4ea3449a9997ca93b558e", "name": "c466af6acee4ea3449a9997ca93b558e", "type": "electric_scooter", "lon": -77.04675483333334, "rental_uris": {"android": "https://dc.lft.to/lastmile_qr_scan", "ios": "https://dc.lft.to/lastmile_qr_scan"}, "lat": 38.91018283333333, "is_reserved": 0, "is_disabled": 0, "fusion_lat": 0.0}, {"fusion_lon": 0.0, "bike_id": "9a694bf95436f58158ff12beb7697b44", "name": "9a694bf95436f58158ff12beb7697b44", "type": "electric_scooter", "lon": -76.98210833333333, "rental_uris": {"android": "https://dc.lft.to/lastmile_qr_scan", "ios": "https://dc.lft.to/lastmile_qr_scan"}, "lat": 38.88641166666667, "is_reserved": 0, "is_disabled": 0, "fusion_lat": 0.0}, {"fusion_lon": 0.0, "bike_id": "a1d56bf2cd0c597c3625a29911eb1f6a", "name": "a1d56bf2cd0c597c3625a29911eb1f6a", "type": "electric_scooter", "lon": -77.0169645, "rental_uris": {"android": "https://dc.lft.to/lastmile_qr_scan", "ios": "https://dc.lft.to/lastmile_qr_scan"}, "lat": 38.9050605, "is_reserved": 0, "is_disabled": 0, "fusion_lat": 0.0}, {"fusion_lon": 0.0, "bike_id": "4fc70879e8fcc4b520f592602de4251d", "name": "4fc70879e8fcc4b520f592602de4251d", "type": "electric_bike", "lon": -77.125037, "rental_uris": {"android": "https://dc.lft.to/lastmile_qr_scan", "ios": "https://dc.lft.to/lastmile_qr_scan"}, "lat": 39.024239, "is_reserved": 0, "is_disabled": 0, "fusion_lat": 0.0}, {"fusion_lon": 0.0, "bike_id": "7a9b46f4d9af93eea2f64b51a263fd8c", "name": "7a9b46f4d9af93eea2f64b51a263fd8c", "type": "electric_scooter", "lon": -77.00623416666667, "rental_uris": {"android": "https://dc.lft.to/lastmile_qr_scan", "ios": "https://dc.lft.to/lastmile_qr_scan"}, "lat": 38.87195033333333, "is_reserved": 0, "is_disabled": 0, "fusion_lat": 0.0}, {"fusion_lon": 0.0, "bike_id": "c33d7a585f2825baf5b9170aed6f8ecc", "name": "c33d7a585f2825baf5b9170aed6f8ecc", "type": "electric_scooter", "lon": -77.032115, "rental_uris": {"android": "https://dc.lft.to/lastmile_qr_scan", "ios": "https://dc.lft.to/lastmile_qr_scan"}, "lat": 38.925808833333335, "is_reserved": 0, "is_disabled": 0, "fusion_lat": 0.0}, {"fusion_lon": 0.0, "bike_id": "ef6f552eb474fdcbd89d660eaf8d58ea", "name": "ef6f552eb474fdcbd89d660eaf8d58ea", "type": "electric_bike", "lon": -76.99569083333333, "rental_uris": {"android": "https://dc.lft.to/lastmile_qr_scan", "ios": "https://dc.lft.to/lastmile_qr_scan"}, "lat": 39.0078785, "is_reserved": 0, "is_disabled": 0, "fusion_lat": 0.0}, {"fusion_lon": 0.0, "bike_id": "6d57c4b77ea2c21c88f5d3dc9ba7d584", "name": "6d57c4b77ea2c21c88f5d3dc9ba7d584", "type": "electric_scooter", "lon": -77.0215465, "rental_uris": {"android": "https://dc.lft.to/lastmile_qr_scan", "ios": "https://dc.lft.to/lastmile_qr_scan"}, "lat": 38.926023666666666, "is_reserved": 0, "is_disabled": 0, "fusion_lat": 0.0}, {"fusion_lon": 0.0, "bike_id": "697f886cd053b77d579c9a00d386c272", "name": "697f886cd053b77d579c9a00d386c272", "type": "electric_scooter", "lon": -76.98712566666667, "rental_uris": {"android": "https://dc.lft.to/lastmile_qr_scan", "ios": "https://dc.lft.to/lastmile_qr_scan"}, "lat": 38.86704016666667, "is_reserved": 0, "is_disabled": 0, "fusion_lat": 0.0}, {"fusion_lon": 0.0, "bike_id": "add046193b07f683d93f5157e58fe24d", "name": "add046193b07f683d93f5157e58fe24d", "type": "electric_scooter", "lon": -77.046833, "rental_uris": {"android": "https://dc.lft.to/lastmile_qr_scan", "ios": "https://dc.lft.to/lastmile_qr_scan"}, "lat": 38.89224216666667, "is_reserved": 0, "is_disabled": 0, "fusion_lat": 0.0}, {"fusion_lon": 0.0, "bike_id": "bf842bdce8b6e7a38e85352a6f5366ae", "name": "bf842bdce8b6e7a38e85352a6f5366ae", "type": "electric_scooter", "lon": -77.0237445, "rental_uris": {"android": "https://dc.lft.to/lastmile_qr_scan", "ios": "https://dc.lft.to/lastmile_qr_scan"}, "lat": 38.8991775, "is_reserved": 0, "is_disabled": 0, "fusion_lat": 0.0}, {"fusion_lon": 0.0, "bike_id": "87864a3bec36025006555618ec163fbc", "name": "87864a3bec36025006555618ec163fbc", "type": "electric_scooter", "lon": -77.000866, "rental_uris": {"android": "https://dc.lft.to/lastmile_qr_scan", "ios": "https://dc.lft.to/lastmile_qr_scan"}, "lat": 38.894143166666666, "is_reserved": 0, "is_disabled": 0, "fusion_lat": 0.0}, {"fusion_lon": 0.0, "bike_id": "17b71cec35fce496ac5416385f2013d8", "name": "17b71cec35fce496ac5416385f2013d8", "type": "electric_scooter", "lon": -77.0725455, "rental_uris": {"android": "https://dc.lft.to/lastmile_qr_scan", "ios": "https://dc.lft.to/lastmile_qr_scan"}, "lat": 38.907833833333335, "is_reserved": 0, "is_disabled": 0, "fusion_lat": 0.0}, {"fusion_lon": 0.0, "bike_id": "6ed5d8d36f832c09e31437350b0cc331", "name": "6ed5d8d36f832c09e31437350b0cc331", "type": "electric_scooter", "lon": -77.01383, "rental_uris": {"android": "https://dc.lft.to/lastmile_qr_scan", "ios": "https://dc.lft.to/lastmile_qr_scan"}, "lat": 38.91008216666667, "is_reserved": 0, "is_disabled": 0, "fusion_lat": 0.0}, {"fusion_lon": 0.0, "bike_id": "b3354bf302923edc6c5cdfd0eae2c50f", "name": "b3354bf302923edc6c5cdfd0eae2c50f", "type": "electric_scooter", "lon": -77.0335985, "rental_uris": {"android": "https://dc.lft.to/lastmile_qr_scan", "ios": "https://dc.lft.to/lastmile_qr_scan"}, "lat": 38.90132083333334, "is_reserved": 0, "is_disabled": 0, "fusion_lat": 0.0}, {"fusion_lon": 0.0, "bike_id": "ca0768e499dc3456d42c5fff4a91e047", "name": "ca0768e499dc3456d42c5fff4a91e047", "type": "electric_scooter", "lon": -77.03631283333333, "rental_uris": {"android": "https://dc.lft.to/lastmile_qr_scan", "ios": "https://dc.lft.to/lastmile_qr_scan"}, "lat": 38.956045, "is_reserved": 0, "is_disabled": 0, "fusion_lat": 0.0}, {"fusion_lon": 0.0, "bike_id": "22a9cfa6dc9cc88248a770dd2050c206", "name": "22a9cfa6dc9cc88248a770dd2050c206", "type": "electric_scooter", "lon": -77.023198, "rental_uris": {"android": "https://dc.lft.to/lastmile_qr_scan", "ios": "https://dc.lft.to/lastmile_qr_scan"}, "lat": 38.87880283333333, "is_reserved": 0, "is_disabled": 0, "fusion_lat": 0.0}, {"fusion_lon": 0.0, "bike_id": "82f47769fa81cae56ce2325eaa7896e2", "name": "82f47769fa81cae56ce2325eaa7896e2", "type": "electric_scooter", "lon": -77.02242183333334, "rental_uris": {"android": "https://dc.lft.to/lastmile_qr_scan", "ios": "https://dc.lft.to/lastmile_qr_scan"}, "lat": 38.892213, "is_reserved": 0, "is_disabled": 0, "fusion_lat": 0.0}, {"fusion_lon": 0.0, "bike_id": "ceea3f4164453b2f5593b24ed2900fff", "name": "ceea3f4164453b2f5593b24ed2900fff", "type": "electric_scooter", "lon": -77.02157133333333, "rental_uris": {"android": "https://dc.lft.to/lastmile_qr_scan", "ios": "https://dc.lft.to/lastmile_qr_scan"}, "lat": 38.926055166666664, "is_reserved": 0, "is_disabled": 0, "fusion_lat": 0.0}, {"fusion_lon": 0.0, "bike_id": "da431f809cd6a7b198563e21c6742b07", "name": "da431f809cd6a7b198563e21c6742b07", "type": "electric_scooter", "lon": -77.04796483333334, "rental_uris": {"android": "https://dc.lft.to/lastmile_qr_scan", "ios": "https://dc.lft.to/lastmile_qr_scan"}, "lat": 38.90722616666667, "is_reserved": 0, "is_disabled": 0, "fusion_lat": 0.0}, {"fusion_lon": 0.0, "bike_id": "3ccbcfeb7e685b8b33eee1c2f08fa97c", "name": "3ccbcfeb7e685b8b33eee1c2f08fa97c", "type": "electric_scooter", "lon": -77.020409, "rental_uris": {"android": "https://dc.lft.to/lastmile_qr_scan", "ios": "https://dc.lft.to/lastmile_qr_scan"}, "lat": 38.88351183333333, "is_reserved": 0, "is_disabled": 0, "fusion_lat": 0.0}, {"fusion_lon": 0.0, "bike_id": "02d7527136e621f91c4d86e06ed38328", "name": "02d7527136e621f91c4d86e06ed38328", "type": "electric_scooter", "lon": -76.967144, "rental_uris": {"android": "https://dc.lft.to/lastmile_qr_scan", "ios": "https://dc.lft.to/lastmile_qr_scan"}, "lat": 38.84798033333333, "is_reserved": 0, "is_disabled": 0, "fusion_lat": 0.0}, {"fusion_lon": 0.0, "bike_id": "1868eb56f555a6000230ffea39c68cdd", "name": "1868eb56f555a6000230ffea39c68cdd", "type": "electric_scooter", "lon": -77.02982066666667, "rental_uris": {"android": "https://dc.lft.to/lastmile_qr_scan", "ios": "https://dc.lft.to/lastmile_qr_scan"}, "lat": 38.89610883333334, "is_reserved": 0, "is_disabled": 0, "fusion_lat": 0.0}, {"fusion_lon": 0.0, "bike_id": "e5cc5057a7565c482ba892084825f307", "name": "e5cc5057a7565c482ba892084825f307", "type": "electric_scooter", "lon": -77.04864733333334, "rental_uris": {"android": "https://dc.lft.to/lastmile_qr_scan", "ios": "https://dc.lft.to/lastmile_qr_scan"}, "lat": 38.89222483333333, "is_reserved": 0, "is_disabled": 0, "fusion_lat": 0.0}, {"fusion_lon": 0.0, "bike_id": "cb039d56b007452c004e86763971f835", "name": "cb039d56b007452c004e86763971f835", "type": "electric_scooter", "lon": -77.00000583333333, "rental_uris": {"android": "https://dc.lft.to/lastmile_qr_scan", "ios": "https://dc.lft.to/lastmile_qr_scan"}, "lat": 38.908072833333335, "is_reserved": 0, "is_disabled": 0, "fusion_lat": 0.0}, {"fusion_lon": 0.0, "bike_id": "de5979176c0b57c54d8f4d2e8707b664", "name": "de5979176c0b57c54d8f4d2e8707b664", "type": "electric_bike", "lon": -77.03035183333333, "rental_uris": {"android": "https://dc.lft.to/lastmile_qr_scan", "ios": "https://dc.lft.to/lastmile_qr_scan"}, "lat": 38.884094833333336, "is_reserved": 0, "is_disabled": 0, "fusion_lat": 0.0}, {"fusion_lon": 0.0, "bike_id": "d30ed8c9a491e14044d5f876b31809f4", "name": "d30ed8c9a491e14044d5f876b31809f4", "type": "electric_scooter", "lon": -77.0351045, "rental_uris": {"android": "https://dc.lft.to/lastmile_qr_scan", "ios": "https://dc.lft.to/lastmile_qr_scan"}, "lat": 38.92153616666667, "is_reserved": 0, "is_disabled": 0, "fusion_lat": 0.0}, {"fusion_lon": 0.0, "bike_id": "cdf884ef3e61f992c3e6db72bce98035", "name": "cdf884ef3e61f992c3e6db72bce98035", "type": "electric_scooter", "lon": -77.021979, "rental_uris": {"android": "https://dc.lft.to/lastmile_qr_scan", "ios": "https://dc.lft.to/lastmile_qr_scan"}, "lat": 38.9113755, "is_reserved": 0, "is_disabled": 0, "fusion_lat": 0.0}, {"fusion_lon": 0.0, "bike_id": "a0823eceba7cc5274df89ebbdc4c4366", "name": "a0823eceba7cc5274df89ebbdc4c4366", "type": "electric_scooter", "lon": -77.02591316666667, "rental_uris": {"android": "https://dc.lft.to/lastmile_qr_scan", "ios": "https://dc.lft.to/lastmile_qr_scan"}, "lat": 38.880839, "is_reserved": 0, "is_disabled": 0, "fusion_lat": 0.0}, {"fusion_lon": 0.0, "bike_id": "b941dbb3f1d09d15c9699bbf6eaad4f3", "name": "b941dbb3f1d09d15c9699bbf6eaad4f3", "type": "electric_scooter", "lon": -76.986995, "rental_uris": {"android": "https://dc.lft.to/lastmile_qr_scan", "ios": "https://dc.lft.to/lastmile_qr_scan"}, "lat": 38.907051, "is_reserved": 0, "is_disabled": 0, "fusion_lat": 0.0}, {"fusion_lon": 0.0, "bike_id": "cce488500ab06ffa111cc710093eb404", "name": "cce488500ab06ffa111cc710093eb404", "type": "electric_scooter", "lon": -76.9821415, "rental_uris": {"android": "https://dc.lft.to/lastmile_qr_scan", "ios": "https://dc.lft.to/lastmile_qr_scan"}, "lat": 38.899399, "is_reserved": 0, "is_disabled": 0, "fusion_lat": 0.0}, {"fusion_lon": 0.0, "bike_id": "a65fbe5b2694cfa143b676b455f42d60", "name": "a65fbe5b2694cfa143b676b455f42d60", "type": "electric_scooter", "lon": -77.05020216666666, "rental_uris": {"android": "https://dc.lft.to/lastmile_qr_scan", "ios": "https://dc.lft.to/lastmile_qr_scan"}, "lat": 38.8970195, "is_reserved": 0, "is_disabled": 0, "fusion_lat": 0.0}, {"fusion_lon": 0.0, "bike_id": "7b9166a949a072c9dd6ef9ba87b8c8a3", "name": "7b9166a949a072c9dd6ef9ba87b8c8a3", "type": "electric_scooter", "lon": -77.04007566666667, "rental_uris": {"android": "https://dc.lft.to/lastmile_qr_scan", "ios": "https://dc.lft.to/lastmile_qr_scan"}, "lat": 38.903636, "is_reserved": 0, "is_disabled": 0, "fusion_lat": 0.0}, {"fusion_lon": 0.0, "bike_id": "ab0f06d6a081ef9f5460fc593c9818f4", "name": "ab0f06d6a081ef9f5460fc593c9818f4", "type": "electric_scooter", "lon": -77.01054616666667, "rental_uris": {"android": "https://dc.lft.to/lastmile_qr_scan", "ios": "https://dc.lft.to/lastmile_qr_scan"}, "lat": 38.929897833333335, "is_reserved": 0, "is_disabled": 0, "fusion_lat": 0.0}, {"fusion_lon": 0.0, "bike_id": "4d75ea48e512a73d21990b7591cf151a", "name": "4d75ea48e512a73d21990b7591cf151a", "type": "electric_bike", "lon": -77.0305015, "rental_uris": {"android": "https://dc.lft.to/lastmile_qr_scan", "ios": "https://dc.lft.to/lastmile_qr_scan"}, "lat": 38.9940975, "is_reserved": 0, "is_disabled": 0, "fusion_lat": 0.0}, {"fusion_lon": 0.0, "bike_id": "c157964a6dc3280fb1ebe234a139a10a", "name": "c157964a6dc3280fb1ebe234a139a10a", "type": "electric_bike", "lon": -76.94535566666667, "rental_uris": {"android": "https://dc.lft.to/lastmile_qr_scan", "ios": "https://dc.lft.to/lastmile_qr_scan"}, "lat": 38.86751916666667, "is_reserved": 0, "is_disabled": 0, "fusion_lat": 0.0}, {"fusion_lon": 0.0, "bike_id": "1bb6180dd8ae8db614abb3e85b45f70f", "name": "1bb6180dd8ae8db614abb3e85b45f70f", "type": "electric_scooter", "lon": -77.01067416666666, "rental_uris": {"android": "https://dc.lft.to/lastmile_qr_scan", "ios": "https://dc.lft.to/lastmile_qr_scan"}, "lat": 38.87149316666667, "is_reserved": 0, "is_disabled": 0, "fusion_lat": 0.0}, {"fusion_lon": 0.0, "bike_id": "6f6121b839d5d3817443e3d9979a8d54", "name": "6f6121b839d5d3817443e3d9979a8d54", "type": "electric_scooter", "lon": -77.07293216666666, "rental_uris": {"android": "https://dc.lft.to/lastmile_qr_scan", "ios": "https://dc.lft.to/lastmile_qr_scan"}, "lat": 38.922847, "is_reserved": 0, "is_disabled": 0, "fusion_lat": 0.0}, {"fusion_lon": 0.0, "bike_id": "0b6e9cd130ed8a6c7aca193f001323eb", "name": "0b6e9cd130ed8a6c7aca193f001323eb", "type": "electric_scooter", "lon": -76.9807875, "rental_uris": {"android": "https://dc.lft.to/lastmile_qr_scan", "ios": "https://dc.lft.to/lastmile_qr_scan"}, "lat": 38.936484666666665, "is_reserved": 0, "is_disabled": 0, "fusion_lat": 0.0}, {"fusion_lon": 0.0, "bike_id": "5b45fc3e734a749c7a4a3755597a7f42", "name": "5b45fc3e734a749c7a4a3755597a7f42", "type": "electric_scooter", "lon": -77.0343525, "rental_uris": {"android": "https://dc.lft.to/lastmile_qr_scan", "ios": "https://dc.lft.to/lastmile_qr_scan"}, "lat": 38.91014366666667, "is_reserved": 0, "is_disabled": 0, "fusion_lat": 0.0}, {"fusion_lon": 0.0, "bike_id": "7180e2fc8af08ee4c147235fa0aff0c2", "name": "7180e2fc8af08ee4c147235fa0aff0c2", "type": "electric_scooter", "lon": -77.02005066666666, "rental_uris": {"android": "https://dc.lft.to/lastmile_qr_scan", "ios": "https://dc.lft.to/lastmile_qr_scan"}, "lat": 38.898743333333336, "is_reserved": 0, "is_disabled": 0, "fusion_lat": 0.0}, {"fusion_lon": 0.0, "bike_id": "c95ead0327c32daadb2969d909f1d855", "name": "c95ead0327c32daadb2969d909f1d855", "type": "electric_scooter", "lon": -77.03867283333334, "rental_uris": {"android": "https://dc.lft.to/lastmile_qr_scan", "ios": "https://dc.lft.to/lastmile_qr_scan"}, "lat": 38.91043616666666, "is_reserved": 0, "is_disabled": 0, "fusion_lat": 0.0}, {"fusion_lon": 0.0, "bike_id": "199b5201d3dbcfd98912199f14a03325", "name": "199b5201d3dbcfd98912199f14a03325", "type": "electric_scooter", "lon": -76.99604216666667, "rental_uris": {"android": "https://dc.lft.to/lastmile_qr_scan", "ios": "https://dc.lft.to/lastmile_qr_scan"}, "lat": 38.926200333333334, "is_reserved": 0, "is_disabled": 0, "fusion_lat": 0.0}, {"fusion_lon": 0.0, "bike_id": "0792fcdd13763d0876a089d6c9de6e49", "name": "0792fcdd13763d0876a089d6c9de6e49", "type": "electric_scooter", "lon": -76.99063866666667, "rental_uris": {"android": "https://dc.lft.to/lastmile_qr_scan", "ios": "https://dc.lft.to/lastmile_qr_scan"}, "lat": 38.863599, "is_reserved": 0, "is_disabled": 0, "fusion_lat": 0.0}, {"fusion_lon": 0.0, "bike_id": "6c66df7f890e3f0c116ee19ec0ffd3d7", "name": "6c66df7f890e3f0c116ee19ec0ffd3d7", "type": "electric_scooter", "lon": -77.01656683333333, "rental_uris": {"android": "https://dc.lft.to/lastmile_qr_scan", "ios": "https://dc.lft.to/lastmile_qr_scan"}, "lat": 38.88746366666667, "is_reserved": 0, "is_disabled": 0, "fusion_lat": 0.0},