{"data": {"bikes": [{"lon": -77.032628, "bike_id": "10fe3130fb41c4e7262a8df3bc78fd85", "lat": 38.90962283333333, "fusion_lon": 0.0, "fusion_lat": 0.0, "type": "electric_scooter", "name": "10fe3130fb41c4e7262a8df3bc78fd85", "is_disabled": 0, "rental_uris": {"ios": "https://dc.lft.to/lastmile_qr_scan", "android": "https://dc.lft.to/lastmile_qr_scan"}, "is_reserved": 0}, {"lon": -77.0409595, "bike_id": "ce23d3d594b59f31a81c7e5ffb7bebd6", "lat": 38.9087135, "fusion_lon": 0.0, "fusion_lat": 0.0, "type": "electric_scooter", "name": "ce23d3d594b59f31a81c7e5ffb7bebd6", "is_disabled": 0, "rental_uris": {"ios": "https://dc.lft.to/lastmile_qr_scan", "android": "https://dc.lft.to/lastmile_qr_scan"}, "is_reserved": 0}, {"lon": -77.0366655, "bike_id": "6ad6098f95ae9108962e5199daf8dc8b", "lat": 38.93206716666667, "fusion_lon": 0.0, "fusion_lat": 0.0, "type": "electric_scooter", "name": "6ad6098f95ae9108962e5199daf8dc8b", "is_disabled": 0, "rental_uris": {"ios": "https://dc.lft.to/lastmile_qr_scan", "android": "https://dc.lft.to/lastmile_qr_scan"}, "is_reserved": 0}, {"lon": -77.03256916666666, "bike_id": "5a0093efd9b21dec707bc41780a956b5", "lat": 38.92908633333333, "fusion_lon": 0.0, "fusion_lat": 0.0, "type": "electric_scooter", "name": "5a0093efd9b21dec707bc41780a956b5", "is_disabled": 0, "rental_uris": {"ios": "https://dc.lft.to/lastmile_qr_scan", "android": "https://dc.lft.to/lastmile_qr_scan"}, "is_reserved": 0}, {"lon": -77.01499683333333, "bike_id": "4ce890b0bdaf7cb624f81e9fb1a2d165", "lat": 38.90022416666667, "fusion_lon": 0.0, "fusion_lat": 0.0, "type": "electric_scooter", "name": "4ce890b0bdaf7cb624f81e9fb1a2d165", "is_disabled": 0, "rental_uris": {"ios": "https://dc.lft.to/lastmile_qr_scan", "android": "https://dc.lft.to/lastmile_qr_scan"}, "is_reserved": 0}, {"lon": -76.9985515, "bike_id": "7771f778d40322498501e46fc555a4f5", "lat": 38.90027583333333, "fusion_lon": 0.0, "fusion_lat": 0.0, "type": "electric_scooter", "name": "7771f778d40322498501e46fc555a4f5", "is_disabled": 0, "rental_uris": {"ios": "https://dc.lft.to/lastmile_qr_scan", "android": "https://dc.lft.to/lastmile_qr_scan"}, "is_reserved": 0}, {"lon": -76.9553765, "bike_id": "f07cc152a40a12154baf2ad9641a9924", "lat": 38.888749833333335, "fusion_lon": 0.0, "fusion_lat": 0.0, "type": "electric_scooter", "name": "f07cc152a40a12154baf2ad9641a9924", "is_disabled": 0, "rental_uris": {"ios": "https://dc.lft.to/lastmile_qr_scan", "android": "https://dc.lft.to/lastmile_qr_scan"}, "is_reserved": 0}, {"lon": -76.978322, "bike_id": "d24f5aa4d92435d63caa9cae6d959bfe", "lat": 38.899087333333334, "fusion_lon": 0.0, "fusion_lat": 0.0, "type": "electric_scooter", "name": "d24f5aa4d92435d63caa9cae6d959bfe", "is_disabled": 0, "rental_uris": {"ios": "https://dc.lft.to/lastmile_qr_scan", "android": "https://dc.lft.to/lastmile_qr_scan"}, "is_reserved": 0}, {"lon": -77.02407616666666, "bike_id": "aef207905c8ca3b4ab852078f5157626", "lat": 38.91253116666667, "fusion_lon": 0.0, "fusion_lat": 0.0, "type": "electric_scooter", "name": "aef207905c8ca3b4ab852078f5157626", "is_disabled": 0, "rental_uris": {"ios": "https://dc.lft.to/lastmile_qr_scan", "android": "https://dc.lft.to/lastmile_qr_scan"}, "is_reserved": 0}, {"lon": -77.04185616666666, "bike_id": "b5e3f53ff7fd59134c188a4aa214ed7f", "lat": 38.89978266666667, "fusion_lon": 0.0, "fusion_lat": 0.0, "type": "electric_scooter", "name": "b5e3f53ff7fd59134c188a4aa214ed7f", "is_disabled": 0, "rental_uris": {"ios": "https://dc.lft.to/lastmile_qr_scan", "android": "https://dc.lft.to/lastmile_qr_scan"}, "is_reserved": 0}, {"lon": -77.00218966666667, "bike_id": "9ce3869f5ab0954d2171c615c1bc3bd2", "lat": 38.900122333333336, "fusion_lon": 0.0, "fusion_lat": 0.0, "type": "electric_scooter", "name": "9ce3869f5ab0954d2171c615c1bc3bd2", "is_disabled": 0, "rental_uris": {"ios": "https://dc.lft.to/lastmile_qr_scan", "android": "https://dc.lft.to/lastmile_qr_scan"}, "is_reserved": 0}, {"lon": -76.95477833333334, "bike_id": "9190e724052c1e4cafdc28e4f17c54a5", "lat": 38.884682, "fusion_lon": 0.0, "fusion_lat": 0.0, "type": "electric_scooter", "name": "9190e724052c1e4cafdc28e4f17c54a5", "is_disabled": 0, "rental_uris": {"ios": "https://dc.lft.to/lastmile_qr_scan", "android": "https://dc.lft.to/lastmile_qr_scan"}, "is_reserved": 0}, {"lon": -76.9336775, "bike_id": "1130cda9050883dead20f82bfc9271c9", "lat": 38.899125, "fusion_lon": 0.0, "fusion_lat": 0.0, "type": "electric_scooter", "name": "1130cda9050883dead20f82bfc9271c9", "is_disabled": 0, "rental_uris": {"ios": "https://dc.lft.to/lastmile_qr_scan", "android": "https://dc.lft.to/lastmile_qr_scan"}, "is_reserved": 0}, {"lon": -77.01168283333334, "bike_id": "6d44103417de358cf76346e2923e4b29", "lat": 38.87226183333333, "fusion_lon": 0.0, "fusion_lat": 0.0, "type": "electric_bike", "name": "6d44103417de358cf76346e2923e4b29", "is_disabled": 0, "rental_uris": {"ios": "https://dc.lft.to/lastmile_qr_scan", "android": "https://dc.lft.to/lastmile_qr_scan"}, "is_reserved": 0}, {"lon": -77.10087233333333, "bike_id": "5686cbb87c39919b8feb639ea8a5a063", "lat": 38.9595765, "fusion_lon": 0.0, "fusion_lat": 0.0, "type": "electric_bike", "name": "5686cbb87c39919b8feb639ea8a5a063", "is_disabled": 0, "rental_uris": {"ios": "https://dc.lft.to/lastmile_qr_scan", "android": "https://dc.lft.to/lastmile_qr_scan"}, "is_reserved": 0}, {"lon": -77.03190966666666, "bike_id": "bf74d3511804fa11307951bd5883c981", "lat": 38.91821433333333, "fusion_lon": 0.0, "fusion_lat": 0.0, "type": "electric_scooter", "name": "bf74d3511804fa11307951bd5883c981", "is_disabled": 0, "rental_uris": {"ios": "https://dc.lft.to/lastmile_qr_scan", "android": "https://dc.lft.to/lastmile_qr_scan"}, "is_reserved": 0}, {"lon": -76.942908, "bike_id": "cef82f9c66dae95a1ace68e7900e89ab", "lat": 38.9386995, "fusion_lon": 0.0, "fusion_lat": 0.0, "type": "electric_bike", "name": "cef82f9c66dae95a1ace68e7900e89ab", "is_disabled": 0, "rental_uris": {"ios": "https://dc.lft.to/lastmile_qr_scan", "android": "https://dc.lft.to/lastmile_qr_scan"}, "is_reserved": 0}, {"lon": -77.0262655, "bike_id": "ec026cfeeccf7b34b4a5434c966b48d7", "lat": 38.9621935, "fusion_lon": 0.0, "fusion_lat": 0.0, "type": "electric_bike", "name": "ec026cfeeccf7b34b4a5434c966b48d7", "is_disabled": 0, "rental_uris": {"ios": "https://dc.lft.to/lastmile_qr_scan", "android": "https://dc.lft.to/lastmile_qr_scan"}, "is_reserved": 0}, {"lon": -77.0352975, "bike_id": "bed2bb72c9f687799d4d2f71d7acc622", "lat": 38.926322, "fusion_lon": 0.0, "fusion_lat": 0.0, "type": "electric_scooter", "name": "bed2bb72c9f687799d4d2f71d7acc622", "is_disabled": 0, "rental_uris": {"ios": "https://dc.lft.to/lastmile_qr_scan", "android": "https://dc.lft.to/lastmile_qr_scan"}, "is_reserved": 0}, {"lon": -76.99182016666667, "bike_id": "d24984db7b3f47d7584b59eb7e1b2e82", "lat": 38.88974233333333, "fusion_lon": 0.0, "fusion_lat": 0.0, "type": "electric_scooter", "name": "d24984db7b3f47d7584b59eb7e1b2e82", "is_disabled": 0, "rental_uris": {"ios": "https://dc.lft.to/lastmile_qr_scan", "android": "https://dc.lft.to/lastmile_qr_scan"}, "is_reserved": 0}, {"lon": -76.98882666666667, "bike_id": "035836526df9369cf44c28c194beca50", "lat": 38.86655583333334, "fusion_lon": 0.0, "fusion_lat": 0.0, "type": "electric_scooter", "name": "035836526df9369cf44c28c194beca50", "is_disabled": 0, "rental_uris": {"ios": "https://dc.lft.to/lastmile_qr_scan", "android": "https://dc.lft.to/lastmile_qr_scan"}, "is_reserved": 0}, {"lon": -77.06251083333333, "bike_id": "f374ca9f1a823239f1a79e6da0468eed", "lat": 38.944138833333334, "fusion_lon": 0.0, "fusion_lat": 0.0, "type": "electric_scooter", "name": "f374ca9f1a823239f1a79e6da0468eed", "is_disabled": 0, "rental_uris": {"ios": "https://dc.lft.to/lastmile_qr_scan", "android": "https://dc.lft.to/lastmile_qr_scan"}, "is_reserved": 0}, {"lon": -76.98697783333333, "bike_id": "ac32ef46c2abcb74932e6ba7febb5734", "lat": 38.907058166666665, "fusion_lon": 0.0, "fusion_lat": 0.0, "type": "electric_scooter", "name": "ac32ef46c2abcb74932e6ba7febb5734", "is_disabled": 0, "rental_uris": {"ios": "https://dc.lft.to/lastmile_qr_scan", "android": "https://dc.lft.to/lastmile_qr_scan"}, "is_reserved": 0}, {"lon": -77.03287, "bike_id": "1a70ebfaa0c643b3857ea18db7e3f29f", "lat": 38.937258666666665, "fusion_lon": 0.0, "fusion_lat": 0.0, "type": "electric_scooter", "name": "1a70ebfaa0c643b3857ea18db7e3f29f", "is_disabled": 0, "rental_uris": {"ios": "https://dc.lft.to/lastmile_qr_scan", "android": "https://dc.lft.to/lastmile_qr_scan"}, "is_reserved": 0}, {"lon": -77.02306433333334, "bike_id": "fb3cce9983598f56a474c5c84b5c8ce3", "lat": 38.91780983333334, "fusion_lon": 0.0, "fusion_lat": 0.0, "type": "electric_scooter", "name": "fb3cce9983598f56a474c5c84b5c8ce3", "is_disabled": 0, "rental_uris": {"ios": "https://dc.lft.to/lastmile_qr_scan", "android": "https://dc.lft.to/lastmile_qr_scan"}, "is_reserved": 0}, {"lon": -76.982636, "bike_id": "4710c286690c67f0b52d9629d9315006", "lat": 38.908515333333334, "fusion_lon": 0.0, "fusion_lat": 0.0, "type": "electric_scooter", "name": "4710c286690c67f0b52d9629d9315006", "is_disabled": 0, "rental_uris": {"ios": "https://dc.lft.to/lastmile_qr_scan", "android": "https://dc.lft.to/lastmile_qr_scan"}, "is_reserved": 0}, {"lon": -76.99484666666666, "bike_id": "f078141e4b61687565539bad728df93b", "lat": 38.91570933333333, "fusion_lon": 0.0, "fusion_lat": 0.0, "type": "electric_scooter", "name": "f078141e4b61687565539bad728df93b", "is_disabled": 0, "rental_uris": {"ios": "https://dc.lft.to/lastmile_qr_scan", "android": "https://dc.lft.to/lastmile_qr_scan"}, "is_reserved": 0}, {"lon": -76.98892733333334, "bike_id": "fea6f4d7e6200ce957ba707b69323b05", "lat": 38.91346433333333, "fusion_lon": 0.0, "fusion_lat": 0.0, "type": "electric_scooter", "name": "fea6f4d7e6200ce957ba707b69323b05", "is_disabled": 0, "rental_uris": {"ios": "https://dc.lft.to/lastmile_qr_scan", "android": "https://dc.lft.to/lastmile_qr_scan"}, "is_reserved": 0}, {"lon": -77.0276125, "bike_id": "bb95f5ed5101f06e0613dfc197c94d61", "lat": 38.944018666666665, "fusion_lon": 0.0, "fusion_lat": 0.0, "type": "electric_scooter", "name": "bb95f5ed5101f06e0613dfc197c94d61", "is_disabled": 0, "rental_uris": {"ios": "https://dc.lft.to/lastmile_qr_scan", "android": "https://dc.lft.to/lastmile_qr_scan"}, "is_reserved": 0}, {"lon": -77.0211585, "bike_id": "1787e16bcb71e97da63a798a77816b81", "lat": 38.90972333333333, "fusion_lon": 0.0, "fusion_lat": 0.0, "type": "electric_scooter", "name": "1787e16bcb71e97da63a798a77816b81", "is_disabled": 0, "rental_uris": {"ios": "https://dc.lft.to/lastmile_qr_scan", "android": "https://dc.lft.to/lastmile_qr_scan"}, "is_reserved": 0}, {"lon": -77.05858066666667, "bike_id": "5e7f573690efa534af0d366a6eb49690", "lat": 38.93608066666667, "fusion_lon": 0.0, "fusion_lat": 0.0, "type": "electric_scooter", "name": "5e7f573690efa534af0d366a6eb49690", "is_disabled": 0, "rental_uris": {"ios": "https://dc.lft.to/lastmile_qr_scan", "android": "https://dc.lft.to/lastmile_qr_scan"}, "is_reserved": 0}, {"lon": -77.02458283333333, "bike_id": "606924b1acb27757af8eb815e2efb122", "lat": 38.900912166666664, "fusion_lon": 0.0, "fusion_lat": 0.0, "type": "electric_scooter", "name": "606924b1acb27757af8eb815e2efb122", "is_disabled": 0, "rental_uris": {"ios": "https://dc.lft.to/lastmile_qr_scan", "android": "https://dc.lft.to/lastmile_qr_scan"}, "is_reserved": 0}, {"lon": -77.03382466666666, "bike_id": "3901b53ca613436cc07537f76dfd9f4b", "lat": 38.9098545, "fusion_lon": 0.0, "fusion_lat": 0.0, "type": "electric_scooter", "name": "3901b53ca613436cc07537f76dfd9f4b", "is_disabled": 0, "rental_uris": {"ios": "https://dc.lft.to/lastmile_qr_scan", "android": "https://dc.lft.to/lastmile_qr_scan"}, "is_reserved": 0}, {"lon": -77.052607, "bike_id": "08ad23c8cfc97a6409e576ce39c5a27e", "lat": 38.9277275, "fusion_lon": 0.0, "fusion_lat": 0.0, "type": "electric_scooter", "name": "08ad23c8cfc97a6409e576ce39c5a27e", "is_disabled": 0, "rental_uris": {"ios": "https://dc.lft.to/lastmile_qr_scan", "android": "https://dc.lft.to/lastmile_qr_scan"}, "is_reserved": 0}, {"lon": -77.038241, "bike_id": "e13f0dcb105041c71a254447886c2588", "lat": 38.906802666666664, "fusion_lon": 0.0, "fusion_lat": 0.0, "type": "electric_scooter", "name": "e13f0dcb105041c71a254447886c2588", "is_disabled": 0, "rental_uris": {"ios": "https://dc.lft.to/lastmile_qr_scan", "android": "https://dc.lft.to/lastmile_qr_scan"}, "is_reserved": 0}, {"lon": -77.01768966666667, "bike_id": "a56c8684c8c18e66c094fb17da1f92aa", "lat": 38.902766166666666, "fusion_lon": 0.0, "fusion_lat": 0.0, "type": "electric_scooter", "name": "a56c8684c8c18e66c094fb17da1f92aa", "is_disabled": 0, "rental_uris": {"ios": "https://dc.lft.to/lastmile_qr_scan", "android": "https://dc.lft.to/lastmile_qr_scan"}, "is_reserved": 0}, {"lon": -77.030673, "bike_id": "2ef29b87c844b5e4a52636e33a79f384", "lat": 38.9027415, "fusion_lon": 0.0, "fusion_lat": 0.0, "type": "electric_scooter", "name": "2ef29b87c844b5e4a52636e33a79f384", "is_disabled": 0, "rental_uris": {"ios": "https://dc.lft.to/lastmile_qr_scan", "android": "https://dc.lft.to/lastmile_qr_scan"}, "is_reserved": 0}, {"lon": -77.0455145, "bike_id": "36a0dc10826e3e38ce73054f4cd1313e", "lat": 38.9159155, "fusion_lon": 0.0, "fusion_lat": 0.0, "type": "electric_scooter", "name": "36a0dc10826e3e38ce73054f4cd1313e", "is_disabled": 0, "rental_uris": {"ios": "https://dc.lft.to/lastmile_qr_scan", "android": "https://dc.lft.to/lastmile_qr_scan"}, "is_reserved": 0}, {"lon": -77.0340165, "bike_id": "48c60885bca4f07c25b341c97ee49422", "lat": 38.9231775, "fusion_lon": 0.0, "fusion_lat": 0.0, "type": "electric_scooter", "name": "48c60885bca4f07c25b341c97ee49422", "is_disabled": 0, "rental_uris": {"ios": "https://dc.lft.to/lastmile_qr_scan", "android": "https://dc.lft.to/lastmile_qr_scan"}, "is_reserved": 0}, {"lon": -77.05060266666666, "bike_id": "6e96719102004925de9e2df6ce218992", "lat": 38.92585533333333, "fusion_lon": 0.0, "fusion_lat": 0.0, "type": "electric_scooter", "name": "6e96719102004925de9e2df6ce218992", "is_disabled": 0, "rental_uris": {"ios": "https://dc.lft.to/lastmile_qr_scan", "android": "https://dc.lft.to/lastmile_qr_scan"}, "is_reserved": 0}, {"lon": -77.037637, "bike_id": "08c835b019f0d763eb7f66e73dd49994", "lat": 38.92887066666667, "fusion_lon": 0.0, "fusion_lat": 0.0, "type": "electric_scooter", "name": "08c835b019f0d763eb7f66e73dd49994", "is_disabled": 0, "rental_uris": {"ios": "https://dc.lft.to/lastmile_qr_scan", "android": "https://dc.lft.to/lastmile_qr_scan"}, "is_reserved": 0}, {"lon": -76.9917455, "bike_id": "d57656709e8bd6fc6ef73da8375c37d5", "lat": 38.889881833333334, "fusion_lon": 0.0, "fusion_lat": 0.0, "type": "electric_scooter", "name": "d57656709e8bd6fc6ef73da8375c37d5", "is_disabled": 0, "rental_uris": {"ios": "https://dc.lft.to/lastmile_qr_scan", "android": "https://dc.lft.to/lastmile_qr_scan"}, "is_reserved": 0}, {"lon": -77.03203583333334, "bike_id": "54cf0b45a6485cae2491f33af0603f35", "lat": 38.919586, "fusion_lon": 0.0, "fusion_lat": 0.0, "type": "electric_scooter", "name": "54cf0b45a6485cae2491f33af0603f35", "is_disabled": 0, "rental_uris": {"ios": "https://dc.lft.to/lastmile_qr_scan", "android": "https://dc.lft.to/lastmile_qr_scan"}, "is_reserved": 0}, {"lon": -76.98458233333334, "bike_id": "541bb7211741a508eee8568ac5313635", "lat": 38.90555533333333, "fusion_lon": 0.0, "fusion_lat": 0.0, "type": "electric_scooter", "name": "541bb7211741a508eee8568ac5313635", "is_disabled": 0, "rental_uris": {"ios": "https://dc.lft.to/lastmile_qr_scan", "android": "https://dc.lft.to/lastmile_qr_scan"}, "is_reserved": 0}, {"lon": -77.03641, "bike_id": "064387bfa2a37cf8c3d47073edc6be34", "lat": 38.91757716666667, "fusion_lon": 0.0, "fusion_lat": 0.0, "type": "electric_scooter", "name": "064387bfa2a37cf8c3d47073edc6be34", "is_disabled": 0, "rental_uris": {"ios": "https://dc.lft.to/lastmile_qr_scan", "android": "https://dc.lft.to/lastmile_qr_scan"}, "is_reserved": 0}, {"lon": -77.00345666666666, "bike_id": "bc91977e7dadd5da7494e92eb2132909", "lat": 38.916239166666664, "fusion_lon": 0.0, "fusion_lat": 0.0, "type": "electric_scooter", "name": "bc91977e7dadd5da7494e92eb2132909", "is_disabled": 0, "rental_uris": {"ios": "https://dc.lft.to/lastmile_qr_scan", "android": "https://dc.lft.to/lastmile_qr_scan"}, "is_reserved": 0}, {"lon": -77.02418216666666, "bike_id": "7fd6aa7f6631fd04e410d55cb3398a39", "lat": 38.923591333333334, "fusion_lon": 0.0, "fusion_lat": 0.0, "type": "electric_scooter", "name": "7fd6aa7f6631fd04e410d55cb3398a39", "is_disabled": 0, "rental_uris": {"ios": "https://dc.lft.to/lastmile_qr_scan", "android": "https://dc.lft.to/lastmile_qr_scan"}, "is_reserved": 0}, {"lon": -77.02487883333333, "bike_id": "83a49579018d45e6c3eac6cde1565ba4", "lat": 38.903959666666665, "fusion_lon": 0.0, "fusion_lat": 0.0, "type": "electric_scooter", "name": "83a49579018d45e6c3eac6cde1565ba4", "is_disabled": 0, "rental_uris": {"ios": "https://dc.lft.to/lastmile_qr_scan", "android": "https://dc.lft.to/lastmile_qr_scan"}, "is_reserved": 0}, {"lon": -77.02804466666667, "bike_id": "676ba116c0aba0a552acdbd6eb24081d", "lat": 38.9113195, "fusion_lon": 0.0, "fusion_lat": 0.0, "type": "electric_scooter", "name": "676ba116c0aba0a552acdbd6eb24081d", "is_disabled": 0, "rental_uris": {"ios": "https://dc.lft.to/lastmile_qr_scan", "android": "https://dc.lft.to/lastmile_qr_scan"}, "is_reserved": 0}, {"lon": -77.03588083333334, "bike_id": "5fa9656561346015e19e980da56ac7ac", "lat": 38.9096755, "fusion_lon": 0.0, "fusion_lat": 0.0, "type": "electric_scooter", "name": "5fa9656561346015e19e980da56ac7ac", "is_disabled": 0, "rental_uris": {"ios": "https://dc.lft.to/lastmile_qr_scan", "android": "https://dc.lft.to/lastmile_qr_scan"}, "is_reserved": 0}, {"lon": -77.00185933333333, "bike_id": "3781d66f9b7ae6736f3e5363dfdbd8c2", "lat": 38.89101983333333, "fusion_lon": 0.0, "fusion_lat": 0.0, "type": "electric_scooter", "name": "3781d66f9b7ae6736f3e5363dfdbd8c2", "is_disabled": 0, "rental_uris": {"ios": "https://dc.lft.to/lastmile_qr_scan", "android": "https://dc.lft.to/lastmile_qr_scan"}, "is_reserved": 0}, {"lon": -77.02422533333333, "bike_id": "ebfd5e8da601d14c93ad85c34c5f6399", "lat": 38.9228645, "fusion_lon": 0.0, "fusion_lat": 0.0, "type": "electric_scooter", "name": "ebfd5e8da601d14c93ad85c34c5f6399", "is_disabled": 0, "rental_uris": {"ios": "https://dc.lft.to/lastmile_qr_scan", "android": "https://dc.lft.to/lastmile_qr_scan"}, "is_reserved": 0}, {"lon": -77.02694066666666, "bike_id": "22c43ad16e664265754e515a69d8d325", "lat": 38.90237, "fusion_lon": 0.0, "fusion_lat": 0.0, "type": "electric_scooter", "name": "22c43ad16e664265754e515a69d8d325", "is_disabled": 0, "rental_uris": {"ios": "https://dc.lft.to/lastmile_qr_scan", "android": "https://dc.lft.to/lastmile_qr_scan"}, "is_reserved": 0}, {"lon": -77.0498375, "bike_id": "2d0fa5a60e7e311589d6610bbac71620", "lat": 38.899939333333336, "fusion_lon": 0.0, "fusion_lat": 0.0, "type": "electric_scooter", "name": "2d0fa5a60e7e311589d6610bbac71620", "is_disabled": 0, "rental_uris": {"ios": "https://dc.lft.to/lastmile_qr_scan", "android": "https://dc.lft.to/lastmile_qr_scan"}, "is_reserved": 0}, {"lon": -77.05270066666667, "bike_id": "1641ecc887f33a40b6627e8af2661177", "lat": 38.899708333333336, "fusion_lon": 0.0, "fusion_lat": 0.0, "type": "electric_scooter", "name": "1641ecc887f33a40b6627e8af2661177", "is_disabled": 0, "rental_uris": {"ios": "https://dc.lft.to/lastmile_qr_scan", "android": "https://dc.lft.to/lastmile_qr_scan"}, "is_reserved": 0}, {"lon": -77.07794483333333, "bike_id": "bdf9ed465514390e938e233075bdfa38", "lat": 38.996047, "fusion_lon": 0.0, "fusion_lat": 0.0, "type": "electric_bike", "name": "bdf9ed465514390e938e233075bdfa38", "is_disabled": 0, "rental_uris": {"ios": "https://dc.lft.to/lastmile_qr_scan", "android": "https://dc.lft.to/lastmile_qr_scan"}, "is_reserved": 0}, {"lon": -77.02503483333334, "bike_id": "6450a498a4835be61343e30be39cb807", "lat": 38.9208775, "fusion_lon": 0.0, "fusion_lat": 0.0, "type": "electric_scooter", "name": "6450a498a4835be61343e30be39cb807", "is_disabled": 0, "rental_uris": {"ios": "https://dc.lft.to/lastmile_qr_scan", "android": "https://dc.lft.to/lastmile_qr_scan"}, "is_reserved": 0}, {"lon": -76.95332216666667, "bike_id": "a775bd4dea35f678253ffe879e439c90", "lat": 38.889347, "fusion_lon": 0.0, "fusion_lat": 0.0, "type": "electric_scooter", "name": "a775bd4dea35f678253ffe879e439c90", "is_disabled": 0, "rental_uris": {"ios": "https://dc.lft.to/lastmile_qr_scan", "android": "https://dc.lft.to/lastmile_qr_scan"}, "is_reserved": 0}, {"lon": -77.0300235, "bike_id": "1e3def397ce83ea784cfef65a4c2af0f", "lat": 39.04192166666667, "fusion_lon": 0.0, "fusion_lat": 0.0, "type": "electric_bike", "name": "1e3def397ce83ea784cfef65a4c2af0f", "is_disabled": 0, "rental_uris": {"ios": "https://dc.lft.to/lastmile_qr_scan", "android": "https://dc.lft.to/lastmile_qr_scan"}, "is_reserved": 0}, {"lon": -77.06137233333334, "bike_id": "5422aa0160d2cae22fe5581228cfbf8c", "lat": 38.94358583333333, "fusion_lon": 0.0, "fusion_lat": 0.0, "type": "electric_scooter", "name": "5422aa0160d2cae22fe5581228cfbf8c", "is_disabled": 0, "rental_uris": {"ios": "https://dc.lft.to/lastmile_qr_scan", "android": "https://dc.lft.to/lastmile_qr_scan"}, "is_reserved": 0}, {"lon": -77.04399266666667, "bike_id": "d426a5bc56b87a87076b23b76a558c1b", "lat": 38.905824333333335, "fusion_lon": 0.0, "fusion_lat": 0.0, "type": "electric_scooter", "name": "d426a5bc56b87a87076b23b76a558c1b", "is_disabled": 0, "rental_uris": {"ios": "https://dc.lft.to/lastmile_qr_scan", "android": "https://dc.lft.to/lastmile_qr_scan"}, "is_reserved": 0}, {"lon": -77.01987616666666, "bike_id": "70236480f8e6ef5148f352012f4cdd8c", "lat": 38.886036, "fusion_lon": 0.0, "fusion_lat": 0.0, "type": "electric_scooter", "name": "70236480f8e6ef5148f352012f4cdd8c", "is_disabled": 0, "rental_uris": {"ios": "https://dc.lft.to/lastmile_qr_scan", "android": "https://dc.lft.to/lastmile_qr_scan"}, "is_reserved": 0}, {"lon": -76.97743383333334, "bike_id": "4106b5df9bbebbaf4592015f6348f5fb", "lat": 38.89893633333333, "fusion_lon": 0.0, "fusion_lat": 0.0, "type": "electric_scooter", "name": "4106b5df9bbebbaf4592015f6348f5fb", "is_disabled": 0, "rental_uris": {"ios": "https://dc.lft.to/lastmile_qr_scan", "android": "https://dc.lft.to/lastmile_qr_scan"}, "is_reserved": 0}, {"lon": -77.02446966666666, "bike_id": "bb54a6d6e144959ed918412ac7003bee", "lat": 38.938456333333335, "fusion_lon": 0.0, "fusion_lat": 0.0, "type": "electric_scooter", "name": "bb54a6d6e144959ed918412ac7003bee", "is_disabled": 0, "rental_uris": {"ios": "https://dc.lft.to/lastmile_qr_scan", "android": "https://dc.lft.to/lastmile_qr_scan"}, "is_reserved": 0}, {"lon": -77.00132633333334, "bike_id": "1d06d1d15eb25baca805e00f06b71613", "lat": 38.878141166666666, "fusion_lon": 0.0, "fusion_lat": 0.0, "type": "electric_scooter", "name": "1d06d1d15eb25baca805e00f06b71613", "is_disabled": 0, "rental_uris": {"ios": "https://dc.lft.to/lastmile_qr_scan", "android": "https://dc.lft.to/lastmile_qr_scan"}, "is_reserved": 0}, {"lon": -76.946185, "bike_id": "294eefc383c521ee1876014abb1f9030", "lat": 38.83231583333333, "fusion_lon": 0.0, "fusion_lat": 0.0, "type": "electric_bike", "name": "294eefc383c521ee1876014abb1f9030", "is_disabled": 0, "rental_uris": {"ios": "https://dc.lft.to/lastmile_qr_scan", "android": "https://dc.lft.to/lastmile_qr_scan"}, "is_reserved": 0}, {"lon": -77.02376166666667, "bike_id": "e3cc9b9068fa2e84b95437044d7c935a", "lat": 38.906242666666664, "fusion_lon": 0.0, "fusion_lat": 0.0, "type": "electric_scooter", "name": "e3cc9b9068fa2e84b95437044d7c935a", "is_disabled": 0, "rental_uris": {"ios": "https://dc.lft.to/lastmile_qr_scan", "android": "https://dc.lft.to/lastmile_qr_scan"}, "is_reserved": 0}, {"lon": -77.02944433333333, "bike_id": "b7f450e42d20bd94ddc322c17b11ac19", "lat": 38.8963835, "fusion_lon": 0.0, "fusion_lat": 0.0, "type": "electric_scooter", "name": "b7f450e42d20bd94ddc322c17b11ac19", "is_disabled": 0, "rental_uris": {"ios": "https://dc.lft.to/lastmile_qr_scan", "android": "https://dc.lft.to/lastmile_qr_scan"}, "is_reserved": 0}, {"lon": -76.93276033333333, "bike_id": "27082fdcd091ad2bb3fdc8b79455f864", "lat": 38.954238833333335, "fusion_lon": 0.0, "fusion_lat": 0.0, "type": "electric_bike", "name": "27082fdcd091ad2bb3fdc8b79455f864", "is_disabled": 0, "rental_uris": {"ios": "https://dc.lft.to/lastmile_qr_scan", "android": "https://dc.lft.to/lastmile_qr_scan"}, "is_reserved": 0}, {"lon": -77.005351, "bike_id": "8cb7c21cffa00d4229f3901e78d26d4b", "lat": 38.875435, "fusion_lon": 0.0, "fusion_lat": 0.0, "type": "electric_scooter", "name": "8cb7c21cffa00d4229f3901e78d26d4b", "is_disabled": 0, "rental_uris": {"ios": "https://dc.lft.to/lastmile_qr_scan", "android": "https://dc.lft.to/lastmile_qr_scan"}, "is_reserved": 0}, {"lon": -77.032136, "bike_id": "866ac071ea42cf3501f7bae9ecf75995", "lat": 38.93613883333333, "fusion_lon": 0.0, "fusion_lat": 0.0, "type": "electric_scooter", "name": "866ac071ea42cf3501f7bae9ecf75995", "is_disabled": 0, "rental_uris": {"ios": "https://dc.lft.to/lastmile_qr_scan", "android": "https://dc.lft.to/lastmile_qr_scan"}, "is_reserved": 0}, {"lon": -77.0209615, "bike_id": "f171764c823ad86ea450ac91068b38c8", "lat": 38.929164166666666, "fusion_lon": 0.0, "fusion_lat": 0.0, "type": "electric_scooter", "name": "f171764c823ad86ea450ac91068b38c8", "is_disabled": 0, "rental_uris": {"ios": "https://dc.lft.to/lastmile_qr_scan", "android": "https://dc.lft.to/lastmile_qr_scan"}, "is_reserved": 0}, {"lon": -77.03180416666666, "bike_id": "bf0d3fff7f5dd19d42115298cb07d790", "lat": 38.915678166666666, "fusion_lon": 0.0, "fusion_lat": 0.0, "type": "electric_scooter", "name": "bf0d3fff7f5dd19d42115298cb07d790", "is_disabled": 0, "rental_uris": {"ios": "https://dc.lft.to/lastmile_qr_scan", "android": "https://dc.lft.to/lastmile_qr_scan"}, "is_reserved": 0}, {"lon": -77.055966, "bike_id": "032d16c50d30635dc276b3b593ea86a8", "lat": 38.936971, "fusion_lon": 0.0, "fusion_lat": 0.0, "type": "electric_scooter", "name": "032d16c50d30635dc276b3b593ea86a8", "is_disabled": 0, "rental_uris": {"ios": "https://dc.lft.to/lastmile_qr_scan", "android": "https://dc.lft.to/lastmile_qr_scan"}, "is_reserved": 0}, {"lon": -77.06106783333334, "bike_id": "f90502fcfee0d95ad2c19200489b7249", "lat": 38.905367, "fusion_lon": 0.0, "fusion_lat": 0.0, "type": "electric_scooter", "name": "f90502fcfee0d95ad2c19200489b7249", "is_disabled": 0, "rental_uris": {"ios": "https://dc.lft.to/lastmile_qr_scan", "android": "https://dc.lft.to/lastmile_qr_scan"}, "is_reserved": 0}, {"lon": -77.02959966666667, "bike_id": "c2a043d4084c550c4d19278bb6baf48f", "lat": 38.9167445, "fusion_lon": 0.0, "fusion_lat": 0.0, "type": "electric_scooter", "name": "c2a043d4084c550c4d19278bb6baf48f", "is_disabled": 0, "rental_uris": {"ios": "https://dc.lft.to/lastmile_qr_scan", "android": "https://dc.lft.to/lastmile_qr_scan"}, "is_reserved": 0}, {"lon": -77.0362575, "bike_id": "8061a2323ea8f078ca1f104d1777561f", "lat": 38.9155335, "fusion_lon": 0.0, "fusion_lat": 0.0, "type": "electric_scooter", "name": "8061a2323ea8f078ca1f104d1777561f", "is_disabled": 0, "rental_uris": {"ios": "https://dc.lft.to/lastmile_qr_scan", "android": "https://dc.lft.to/lastmile_qr_scan"}, "is_reserved": 0}, {"lon": -77.034993, "bike_id": "b7a14d17b9c7b7d1c90a8b22e9b7f681", "lat": 38.9118425, "fusion_lon": 0.0, "fusion_lat": 0.0, "type": "electric_scooter", "name": "b7a14d17b9c7b7d1c90a8b22e9b7f681", "is_disabled": 0, "rental_uris": {"ios": "https://dc.lft.to/lastmile_qr_scan", "android": "https://dc.lft.to/lastmile_qr_scan"}, "is_reserved": 0}, {"lon": -77.045568, "bike_id": "53600381da872ac094e0aedcd6b77c2b", "lat": 38.89613133333334, "fusion_lon": 0.0, "fusion_lat": 0.0, "type": "electric_scooter", "name": "53600381da872ac094e0aedcd6b77c2b", "is_disabled": 0, "rental_uris": {"ios": "https://dc.lft.to/lastmile_qr_scan", "android": "https://dc.lft.to/lastmile_qr_scan"}, "is_reserved": 0}, {"lon": -77.03328866666666, "bike_id": "932a092ab059239c1988e19cd45729cd", "lat": 38.901275166666665, "fusion_lon": 0.0, "fusion_lat": 0.0, "type": "electric_scooter", "name": "932a092ab059239c1988e19cd45729cd", "is_disabled": 0, "rental_uris": {"ios": "https://dc.lft.to/lastmile_qr_scan", "android": "https://dc.lft.to/lastmile_qr_scan"}, "is_reserved": 0}, {"lon": -77.02780916666667, "bike_id": "d5cc54b312fcb17afe841fcc79db0fe5", "lat": 38.92778933333334, "fusion_lon": 0.0, "fusion_lat": 0.0, "type": "electric_scooter", "name": "d5cc54b312fcb17afe841fcc79db0fe5", "is_disabled": 0, "rental_uris": {"ios": "https://dc.lft.to/lastmile_qr_scan", "android": "https://dc.lft.to/lastmile_qr_scan"}, "is_reserved": 0}, {"lon": -77.0606135, "bike_id": "ee5ae46c6a802a12c748f79503026558", "lat": 38.80857566666667, "fusion_lon": 0.0, "fusion_lat": 0.0, "type": "electric_bike", "name": "ee5ae46c6a802a12c748f79503026558", "is_disabled": 0, "rental_uris": {"ios": "https://dc.lft.to/lastmile_qr_scan", "android": "https://dc.lft.to/lastmile_qr_scan"}, "is_reserved": 0}, {"lon": -77.00547066666667, "bike_id": "2ec8cb535485ab58f1d380130ef979b8", "lat": 38.874588, "fusion_lon": 0.0, "fusion_lat": 0.0, "type": "electric_scooter", "name": "2ec8cb535485ab58f1d380130ef979b8", "is_disabled": 0, "rental_uris": {"ios": "https://dc.lft.to/lastmile_qr_scan", "android": "https://dc.lft.to/lastmile_qr_scan"}, "is_reserved": 0}, {"lon": -77.03757283333333, "bike_id": "56124b0d208ccf3f54e6e0887592b176", "lat": 38.92951083333333, "fusion_lon": 0.0, "fusion_lat": 0.0, "type": "electric_scooter", "name": "56124b0d208ccf3f54e6e0887592b176", "is_disabled": 0, "rental_uris": {"ios": "https://dc.lft.to/lastmile_qr_scan", "android": "https://dc.lft.to/lastmile_qr_scan"}, "is_reserved": 0}, {"lon": -77.03800333333334, "bike_id": "bd48f2b4adca3197287e94fd525d1643", "lat": 38.9103665, "fusion_lon": 0.0, "fusion_lat": 0.0, "type": "electric_scooter", "name": "bd48f2b4adca3197287e94fd525d1643", "is_disabled": 0, "rental_uris": {"ios": "https://dc.lft.to/lastmile_qr_scan", "android": "https://dc.lft.to/lastmile_qr_scan"}, "is_reserved": 0}, {"lon": -77.00200633333333, "bike_id": "4aed1c71af0c4342a0bc510d518bb8bd", "lat": 38.902407833333335, "fusion_lon": 0.0, "fusion_lat": 0.0, "type": "electric_scooter", "name": "4aed1c71af0c4342a0bc510d518bb8bd", "is_disabled": 0, "rental_uris": {"ios": "https://dc.lft.to/lastmile_qr_scan", "android": "https://dc.lft.to/lastmile_qr_scan"}, "is_reserved": 0}, {"lon": -77.0244305, "bike_id": "d501fe6c270d0f45c9d7af22a0990736", "lat": 38.91413283333333, "fusion_lon": 0.0, "fusion_lat": 0.0, "type": "electric_scooter", "name": "d501fe6c270d0f45c9d7af22a0990736", "is_disabled": 0, "rental_uris": {"ios": "https://dc.lft.to/lastmile_qr_scan", "android": "https://dc.lft.to/lastmile_qr_scan"}, "is_reserved": 0}, {"lon": -77.05022516666666, "bike_id": "147de4f9bd870e27f92d2db3dfd0cbad", "lat": 38.900415833333334, "fusion_lon": 0.0, "fusion_lat": 0.0, "type": "electric_scooter", "name": "147de4f9bd870e27f92d2db3dfd0cbad", "is_disabled": 0, "rental_uris": {"ios": "https://dc.lft.to/lastmile_qr_scan", "android": "https://dc.lft.to/lastmile_qr_scan"}, "is_reserved": 0}, {"lon": -77.03261683333334, "bike_id": "18e2d57bcccb0dadb6218bc9f8827f12", "lat": 38.928725, "fusion_lon": 0.0, "fusion_lat": 0.0, "type": "electric_scooter", "name": "18e2d57bcccb0dadb6218bc9f8827f12", "is_disabled": 0, "rental_uris": {"ios": "https://dc.lft.to/lastmile_qr_scan", "android": "https://dc.lft.to/lastmile_qr_scan"}, "is_reserved": 0}, {"lon": -77.03206316666666, "bike_id": "3efd8f2a2e0b1704481d3f1f60f46ab5", "lat": 38.9440525, "fusion_lon": 0.0, "fusion_lat": 0.0, "type": "electric_scooter", "name": "3efd8f2a2e0b1704481d3f1f60f46ab5", "is_disabled": 0, "rental_uris": {"ios": "https://dc.lft.to/lastmile_qr_scan", "android": "https://dc.lft.to/lastmile_qr_scan"}, "is_reserved": 0}, {"lon": -77.00045733333333, "bike_id": "9f4da594a9d94ffc446ca8de96561802", "lat": 38.9677325, "fusion_lon": 0.0, "fusion_lat": 0.0, "type": "electric_bike", "name": "9f4da594a9d94ffc446ca8de96561802", "is_disabled": 0, "rental_uris": {"ios": "https://dc.lft.to/lastmile_qr_scan", "android": "https://dc.lft.to/lastmile_qr_scan"}, "is_reserved": 0}, {"lon": -77.04195533333333, "bike_id": "719bd4b068bdb0ae375c5dba6c9e6505", "lat": 38.92043233333333, "fusion_lon": 0.0, "fusion_lat": 0.0, "type": "electric_scooter", "name": "719bd4b068bdb0ae375c5dba6c9e6505", "is_disabled": 0, "rental_uris": {"ios": "https://dc.lft.to/lastmile_qr_scan", "android": "https://dc.lft.to/lastmile_qr_scan"}, "is_reserved": 0}, {"lon": -77.0270355, "bike_id": "3d7e758ecfcab0bc6d4fa800d0342484", "lat": 38.926561666666665, "fusion_lon": 0.0, "fusion_lat": 0.0, "type": "electric_scooter", "name": "3d7e758ecfcab0bc6d4fa800d0342484", "is_disabled": 0, "rental_uris": {"ios": "https://dc.lft.to/lastmile_qr_scan", "android": "https://dc.lft.to/lastmile_qr_scan"}, "is_reserved": 0}, {"lon": -76.95748383333333, "bike_id": "4e11d6095b679862fec28945378ea77d", "lat": 38.88427983333333, "fusion_lon": 0.0, "fusion_lat": 0.0, "type": "electric_scooter", "name": "4e11d6095b679862fec28945378ea77d", "is_disabled": 0, "rental_uris": {"ios": "https://dc.lft.to/lastmile_qr_scan", "android": "https://dc.lft.to/lastmile_qr_scan"}, "is_reserved": 0}, {"lon": -77.04193133333334, "bike_id": "f4898dce0437cf7bceec13b5eaac78fc", "lat": 38.8997565, "fusion_lon": 0.0, "fusion_lat": 0.0, "type": "electric_scooter", "name": "f4898dce0437cf7bceec13b5eaac78fc", "is_disabled": 0, "rental_uris": {"ios": "https://dc.lft.to/lastmile_qr_scan", "android": "https://dc.lft.to/lastmile_qr_scan"}, "is_reserved": 0}, {"lon": -77.11709416666666, "bike_id": "ce7e3052f2d9729ac67c987f5b50efb1", "lat": 38.867459333333336, "fusion_lon": 0.0, "fusion_lat": 0.0, "type": "electric_bike", "name": "ce7e3052f2d9729ac67c987f5b50efb1", "is_disabled": 0, "rental_uris": {"ios": "https://dc.lft.to/lastmile_qr_scan", "android": "https://dc.lft.to/lastmile_qr_scan"}, "is_reserved": 0}, {"lon": -77.02359166666666, "bike_id": "cd00a6cc25d3e3fad31603fd579a60f5", "lat": 38.922234, "fusion_lon": 0.0, "fusion_lat": 0.0, "type": "electric_scooter", "name": "cd00a6cc25d3e3fad31603fd579a60f5", "is_disabled": 0, "rental_uris": {"ios": "https://dc.lft.to/lastmile_qr_scan", "android": "https://dc.lft.to/lastmile_qr_scan"}, "is_reserved": 0}, {"lon": -76.983883, "bike_id": "a6f1c7d222b78b7bc3652faeaa6cea38", "lat": 38.89884683333333, "fusion_lon": 0.0, "fusion_lat": 0.0, "type": "electric_bike", "name": "a6f1c7d222b78b7bc3652faeaa6cea38", "is_disabled": 0, "rental_uris": {"ios": "https://dc.lft.to/lastmile_qr_scan", "android": "https://dc.lft.to/lastmile_qr_scan"}, "is_reserved": 0}, {"lon": -77.000416, "bike_id": "47abb21042f9d68896eec997104ad48c", "lat": 38.9239705, "fusion_lon": 0.0, "fusion_lat": 0.0, "type": "electric_scooter", "name": "47abb21042f9d68896eec997104ad48c", "is_disabled": 0, "rental_uris": {"ios": "https://dc.lft.to/lastmile_qr_scan", "android": "https://dc.lft.to/lastmile_qr_scan"}, "is_reserved": 0}, {"lon": -77.02245733333334, "bike_id": "2dbdbb60b6674028a995a799570ae2d5", "lat": 38.927352, "fusion_lon": 0.0, "fusion_lat": 0.0, "type": "electric_scooter", "name": "2dbdbb60b6674028a995a799570ae2d5", "is_disabled": 0, "rental_uris": {"ios": "https://dc.lft.to/lastmile_qr_scan", "android": "https://dc.lft.to/lastmile_qr_scan"}, "is_reserved": 0}, {"lon": -76.94067416666667, "bike_id": "51a4aa9beb27270b611e6bc51c96090b", "lat": 38.893182333333336, "fusion_lon": 0.0, "fusion_lat": 0.0, "type": "electric_scooter", "name": "51a4aa9beb27270b611e6bc51c96090b", "is_disabled": 0, "rental_uris": {"ios": "https://dc.lft.to/lastmile_qr_scan", "android": "https://dc.lft.to/lastmile_qr_scan"}, "is_reserved": 0}, {"lon": -77.03022816666666, "bike_id": "ddca98d9944b0be6494c515e9960e2aa", "lat": 38.88439266666666, "fusion_lon": 0.0, "fusion_lat": 0.0, "type": "electric_scooter", "name": "ddca98d9944b0be6494c515e9960e2aa", "is_disabled": 0, "rental_uris": {"ios": "https://dc.lft.to/lastmile_qr_scan", "android": "https://dc.lft.to/lastmile_qr_scan"}, "is_reserved": 0}, {"lon": -77.0229355, "bike_id": "d24a8f32e0422f969bf440dc4291d15a", "lat": 38.90969116666667, "fusion_lon": 0.0, "fusion_lat": 0.0, "type": "electric_scooter", "name": "d24a8f32e0422f969bf440dc4291d15a", "is_disabled": 0, "rental_uris": {"ios": "https://dc.lft.to/lastmile_qr_scan", "android": "https://dc.lft.to/lastmile_qr_scan"}, "is_reserved": 0}, {"lon": -77.03211083333333, "bike_id": "dd57f3e18f114b2721ec59ecb6d3679c", "lat": 38.906832666666666, "fusion_lon": 0.0, "fusion_lat": 0.0, "type": "electric_scooter", "name": "dd57f3e18f114b2721ec59ecb6d3679c", "is_disabled": 0, "rental_uris": {"ios": "https://dc.lft.to/lastmile_qr_scan", "android": "https://dc.lft.to/lastmile_qr_scan"}, "is_reserved": 0}, {"lon": -76.9980705, "bike_id": "4158c02d9a6fc8ccad78b0f8840264c4", "lat": 38.82914266666667, "fusion_lon": 0.0, "fusion_lat": 0.0, "type": "electric_bike", "name": "4158c02d9a6fc8ccad78b0f8840264c4", "is_disabled": 0, "rental_uris": {"ios": "https://dc.lft.to/lastmile_qr_scan", "android": "https://dc.lft.to/lastmile_qr_scan"}, "is_reserved": 0}, {"lon": -77.04048516666667, "bike_id": "211aa99ba03d14007fd5b0a5f46cf285", "lat": 38.928779, "fusion_lon": 0.0, "fusion_lat": 0.0, "type": "electric_scooter", "name": "211aa99ba03d14007fd5b0a5f46cf285", "is_disabled": 0, "rental_uris": {"ios": "https://dc.lft.to/lastmile_qr_scan", "android": "https://dc.lft.to/lastmile_qr_scan"}, "is_reserved": 0}, {"lon": -77.023109, "bike_id": "e17bead63c2629fdaaba90f218a8f38b", "lat": 38.89485833333333, "fusion_lon": 0.0, "fusion_lat": 0.0, "type": "electric_scooter", "name": "e17bead63c2629fdaaba90f218a8f38b", "is_disabled": 0, "rental_uris": {"ios": "https://dc.lft.to/lastmile_qr_scan", "android": "https://dc.lft.to/lastmile_qr_scan"}, "is_reserved": 0}, {"lon": -77.0060255, "bike_id": "5d01a610de2631164c54797bee5b7b96", "lat": 38.89210033333333, "fusion_lon": 0.0, "fusion_lat": 0.0, "type": "electric_scooter", "name": "5d01a610de2631164c54797bee5b7b96", "is_disabled": 0, "rental_uris": {"ios": "https://dc.lft.to/lastmile_qr_scan", "android": "https://dc.lft.to/lastmile_qr_scan"}, "is_reserved": 0}, {"lon": -76.98584433333333, "bike_id": "40018ff572fb2b99d740b162ede2484e", "lat": 38.86685766666667, "fusion_lon": 0.0, "fusion_lat": 0.0, "type": "electric_scooter", "name": "40018ff572fb2b99d740b162ede2484e", "is_disabled": 0, "rental_uris": {"ios": "https://dc.lft.to/lastmile_qr_scan", "android": "https://dc.lft.to/lastmile_qr_scan"}, "is_reserved": 0}, {"lon": -77.03859183333333, "bike_id": "4707fd448b449e8dee6fa456c1907394", "lat": 38.91171833333333, "fusion_lon": 0.0, "fusion_lat": 0.0, "type": "electric_scooter", "name": "4707fd448b449e8dee6fa456c1907394", "is_disabled": 0, "rental_uris": {"ios": "https://dc.lft.to/lastmile_qr_scan", "android": "https://dc.lft.to/lastmile_qr_scan"}, "is_reserved": 0}, {"lon": -76.99776466666667, "bike_id": "48a9a43cf3f90612aaae14b265ab15e0", "lat": 38.91119333333333, "fusion_lon": 0.0, "fusion_lat": 0.0, "type": "electric_scooter", "name": "48a9a43cf3f90612aaae14b265ab15e0", "is_disabled": 0, "rental_uris": {"ios": "https://dc.lft.to/lastmile_qr_scan", "android": "https://dc.lft.to/lastmile_qr_scan"}, "is_reserved": 0}, {"lon": -77.01908433333334, "bike_id": "c860d583ea670206d48b7174f85328da", "lat": 38.8863325, "fusion_lon": 0.0, "fusion_lat": 0.0, "type": "electric_scooter", "name": "c860d583ea670206d48b7174f85328da", "is_disabled": 0, "rental_uris": {"ios": "https://dc.lft.to/lastmile_qr_scan", "android": "https://dc.lft.to/lastmile_qr_scan"}, "is_reserved": 0}, {"lon": -77.04336666666667, "bike_id": "e2cc6890c1b389283c1c8c20cf48684c", "lat": 38.903923166666665, "fusion_lon": 0.0, "fusion_lat": 0.0, "type": "electric_scooter", "name": "e2cc6890c1b389283c1c8c20cf48684c", "is_disabled": 0, "rental_uris": {"ios": "https://dc.lft.to/lastmile_qr_scan", "android": "https://dc.lft.to/lastmile_qr_scan"}, "is_reserved": 0}, {"lon": -76.99533316666667, "bike_id": "5b1c14d5c01018134d1f3b10a2c7fe2a", "lat": 38.883708, "fusion_lon": 0.0, "fusion_lat": 0.0, "type": "electric_scooter", "name": "5b1c14d5c01018134d1f3b10a2c7fe2a", "is_disabled": 0, "rental_uris": {"ios": "https://dc.lft.to/lastmile_qr_scan", "android": "https://dc.lft.to/lastmile_qr_scan"}, "is_reserved": 0}, {"lon": -77.0253735, "bike_id": "b9d5bafb3d167ca84768878363ae6bf0", "lat": 38.927491833333335, "fusion_lon": 0.0, "fusion_lat": 0.0, "type": "electric_scooter", "name": "b9d5bafb3d167ca84768878363ae6bf0", "is_disabled": 0, "rental_uris": {"ios": "https://dc.lft.to/lastmile_qr_scan", "android": "https://dc.lft.to/lastmile_qr_scan"}, "is_reserved": 0}, {"lon": -77.026278, "bike_id": "a4559f314e4c95086e1be9c1fc15639a", "lat": 38.9622615, "fusion_lon": 0.0, "fusion_lat": 0.0, "type": "electric_bike", "name": "a4559f314e4c95086e1be9c1fc15639a", "is_disabled": 0, "rental_uris": {"ios": "https://dc.lft.to/lastmile_qr_scan", "android": "https://dc.lft.to/lastmile_qr_scan"}, "is_reserved": 0}, {"lon": -77.028302, "bike_id": "49b12adb175b8711a4633d76dbfe19c0", "lat": 38.931399666666664, "fusion_lon": 0.0, "fusion_lat": 0.0, "type": "electric_scooter", "name": "49b12adb175b8711a4633d76dbfe19c0", "is_disabled": 0, "rental_uris": {"ios": "https://dc.lft.to/lastmile_qr_scan", "android": "https://dc.lft.to/lastmile_qr_scan"}, "is_reserved": 0}, {"lon": -77.02412283333334, "bike_id": "3dcdf0c58c8c11265813190bb34e27d0", "lat": 38.879674666666666, "fusion_lon": 0.0, "fusion_lat": 0.0, "type": "electric_scooter", "name": "3dcdf0c58c8c11265813190bb34e27d0", "is_disabled": 0, "rental_uris": {"ios": "https://dc.lft.to/lastmile_qr_scan", "android": "https://dc.lft.to/lastmile_qr_scan"}, "is_reserved": 0}, {"lon": -77.019588, "bike_id": "8afe0049a6f78ba3c299cdf9694b8c34", "lat": 38.921935166666664, "fusion_lon": 0.0, "fusion_lat": 0.0, "type": "electric_scooter", "name": "8afe0049a6f78ba3c299cdf9694b8c34", "is_disabled": 0, "rental_uris": {"ios": "https://dc.lft.to/lastmile_qr_scan", "android": "https://dc.lft.to/lastmile_qr_scan"}, "is_reserved": 0}, {"lon": -76.9518095, "bike_id": "bf54eee9c3fcab57a4d56dcdfc8817d8", "lat": 38.90737983333333, "fusion_lon": 0.0, "fusion_lat": 0.0, "type": "electric_scooter", "name": "bf54eee9c3fcab57a4d56dcdfc8817d8", "is_disabled": 0, "rental_uris": {"ios": "https://dc.lft.to/lastmile_qr_scan", "android": "https://dc.lft.to/lastmile_qr_scan"}, "is_reserved": 0}, {"lon": -77.04251433333333, "bike_id": "6239b2a45590ddf408fee8d16ef0e5d0", "lat": 38.9223765, "fusion_lon": 0.0, "fusion_lat": 0.0, "type": "electric_scooter", "name": "6239b2a45590ddf408fee8d16ef0e5d0", "is_disabled": 0, "rental_uris": {"ios": "https://dc.lft.to/lastmile_qr_scan", "android": "https://dc.lft.to/lastmile_qr_scan"}, "is_reserved": 0}, {"lon": -77.062226, "bike_id": "e7f46e44a6c9029c8477505956ccf6a3", "lat": 38.863108833333335, "fusion_lon": 0.0, "fusion_lat": 0.0, "type": "electric_bike", "name": "e7f46e44a6c9029c8477505956ccf6a3", "is_disabled": 0, "rental_uris": {"ios": "https://dc.lft.to/lastmile_qr_scan", "android": "https://dc.lft.to/lastmile_qr_scan"}, "is_reserved": 0}, {"lon": -77.00457816666666, "bike_id": "b3af56991294db18b20fd36da4c419f3", "lat": 38.914378166666665, "fusion_lon": 0.0, "fusion_lat": 0.0, "type": "electric_scooter", "name": "b3af56991294db18b20fd36da4c419f3", "is_disabled": 0, "rental_uris": {"ios": "https://dc.lft.to/lastmile_qr_scan", "android": "https://dc.lft.to/lastmile_qr_scan"}, "is_reserved": 0}, {"lon": -76.98716583333334, "bike_id": "4d61050b3bace4ca885ff168912bcf0a", "lat": 38.86623266666667, "fusion_lon": 0.0, "fusion_lat": 0.0, "type": "electric_scooter", "name": "4d61050b3bace4ca885ff168912bcf0a", "is_disabled": 0, "rental_uris": {"ios": "https://dc.lft.to/lastmile_qr_scan", "android": "https://dc.lft.to/lastmile_qr_scan"}, "is_reserved": 0}, {"lon": -76.98197983333333, "bike_id": "c60e9429fdca9ba5d1cab520db35ba72", "lat": 38.899416333333335, "fusion_lon": 0.0, "fusion_lat": 0.0, "type": "electric_scooter", "name": "c60e9429fdca9ba5d1cab520db35ba72", "is_disabled": 0, "rental_uris": {"ios": "https://dc.lft.to/lastmile_qr_scan", "android": "https://dc.lft.to/lastmile_qr_scan"}, "is_reserved": 0}, {"lon": -76.98263516666667, "bike_id": "194c48a1081a3285f3c636f5506f8ff1", "lat": 38.90858033333333, "fusion_lon": 0.0, "fusion_lat": 0.0, "type": "electric_scooter", "name": "194c48a1081a3285f3c636f5506f8ff1", "is_disabled": 0, "rental_uris": {"ios": "https://dc.lft.to/lastmile_qr_scan", "android": "https://dc.lft.to/lastmile_qr_scan"}, "is_reserved": 0}, {"lon": -77.03862166666667, "bike_id": "0cbc38e3dee18088af081d50aa056e14", "lat": 38.91169516666667, "fusion_lon": 0.0, "fusion_lat": 0.0, "type": "electric_scooter", "name": "0cbc38e3dee18088af081d50aa056e14", "is_disabled": 0, "rental_uris": {"ios": "https://dc.lft.to/lastmile_qr_scan", "android": "https://dc.lft.to/lastmile_qr_scan"}, "is_reserved": 0}, {"lon": -77.02694216666667, "bike_id": "18765e6f18a78dd7db5fd2cab74efb7e", "lat": 38.911683833333335, "fusion_lon": 0.0, "fusion_lat": 0.0, "type": "electric_scooter", "name": "18765e6f18a78dd7db5fd2cab74efb7e", "is_disabled": 0, "rental_uris": {"ios": "https://dc.lft.to/lastmile_qr_scan", "android": "https://dc.lft.to/lastmile_qr_scan"}, "is_reserved": 0}, {"lon": -77.03170866666666, "bike_id": "14287e57092c81301c29eb3d91a3a53d", "lat": 38.911192666666665, "fusion_lon": 0.0, "fusion_lat": 0.0, "type": "electric_scooter", "name": "14287e57092c81301c29eb3d91a3a53d", "is_disabled": 0, "rental_uris": {"ios": "https://dc.lft.to/lastmile_qr_scan", "android": "https://dc.lft.to/lastmile_qr_scan"}, "is_reserved": 0}, {"lon": -76.99755066666667, "bike_id": "b80b5e6cd38def137040f9fd24731b64", "lat": 38.900178833333335, "fusion_lon": 0.0, "fusion_lat": 0.0, "type": "electric_scooter", "name": "b80b5e6cd38def137040f9fd24731b64", "is_disabled": 0, "rental_uris": {"ios": "https://dc.lft.to/lastmile_qr_scan", "android": "https://dc.lft.to/lastmile_qr_scan"}, "is_reserved": 0}, {"lon": -77.006772, "bike_id": "9e351114d60ea358a73534f82c8ab83f", "lat": 38.9451685, "fusion_lon": 0.0, "fusion_lat": 0.0, "type": "electric_bike", "name": "9e351114d60ea358a73534f82c8ab83f", "is_disabled": 0, "rental_uris": {"ios": "https://dc.lft.to/lastmile_qr_scan", "android": "https://dc.lft.to/lastmile_qr_scan"}, "is_reserved": 0}, {"lon": -77.01763, "bike_id": "e7299ad4360bdbb25196e3520c1a1010", "lat": 38.88605333333334, "fusion_lon": 0.0, "fusion_lat": 0.0, "type": "electric_scooter", "name": "e7299ad4360bdbb25196e3520c1a1010", "is_disabled": 0, "rental_uris": {"ios": "https://dc.lft.to/lastmile_qr_scan", "android": "https://dc.lft.to/lastmile_qr_scan"}, "is_reserved": 0}, {"lon": -77.03198883333333, "bike_id": "bcb99719ea753ac1105425b0e99e44af", "lat": 38.89869733333333, "fusion_lon": 0.0, "fusion_lat": 0.0, "type": "electric_scooter", "name": "bcb99719ea753ac1105425b0e99e44af", "is_disabled": 0, "rental_uris": {"ios": "https://dc.lft.to/lastmile_qr_scan", "android": "https://dc.lft.to/lastmile_qr_scan"}, "is_reserved": 0}, {"lon": -77.04229566666666, "bike_id": "c6b7b5cc31959ecaa149b8721a387eac", "lat": 38.921266333333335, "fusion_lon": 0.0, "fusion_lat": 0.0, "type": "electric_scooter", "name": "c6b7b5cc31959ecaa149b8721a387eac", "is_disabled": 0, "rental_uris": {"ios": "https://dc.lft.to/lastmile_qr_scan", "android": "https://dc.lft.to/lastmile_qr_scan"}, "is_reserved": 0}, {"lon": -77.0859285, "bike_id": "e349314189e089dad232aa9317c77ed4", "lat": 38.908713166666665, "fusion_lon": 0.0, "fusion_lat": 0.0, "type": "electric_scooter", "name": "e349314189e089dad232aa9317c77ed4", "is_disabled": 0, "rental_uris": {"ios": "https://dc.lft.to/lastmile_qr_scan", "android": "https://dc.lft.to/lastmile_qr_scan"}, "is_reserved": 0}, {"lon": -76.94632816666666, "bike_id": "94799aaed5678567a5c783e8a7353777", "lat": 38.898340166666664, "fusion_lon": 0.0, "fusion_lat": 0.0, "type": "electric_scooter", "name": "94799aaed5678567a5c783e8a7353777", "is_disabled": 0, "rental_uris": {"ios": "https://dc.lft.to/lastmile_qr_scan", "android": "https://dc.lft.to/lastmile_qr_scan"}, "is_reserved": 0}, {"lon": -77.000495, "bike_id": "fbefb2dca5d9ef775c1b5912e050e98d", "lat": 38.90691016666667, "fusion_lon": 0.0, "fusion_lat": 0.0, "type": "electric_scooter", "name": "fbefb2dca5d9ef775c1b5912e050e98d", "is_disabled": 0, "rental_uris": {"ios": "https://dc.lft.to/lastmile_qr_scan", "android": "https://dc.lft.to/lastmile_qr_scan"}, "is_reserved": 0}, {"lon": -77.02050533333333, "bike_id": "2dc049973be27a3cb4e6b5310d213c2b", "lat": 38.92357283333333, "fusion_lon": 0.0, "fusion_lat": 0.0, "type": "electric_scooter", "name": "2dc049973be27a3cb4e6b5310d213c2b", "is_disabled": 0, "rental_uris": {"ios": "https://dc.lft.to/lastmile_qr_scan", "android": "https://dc.lft.to/lastmile_qr_scan"}, "is_reserved": 0}, {"lon": -77.0031035, "bike_id": "da43b588f56afffb5c56fd6c548bd92a", "lat": 38.9235345, "fusion_lon": 0.0, "fusion_lat": 0.0, "type": "electric_scooter", "name": "da43b588f56afffb5c56fd6c548bd92a", "is_disabled": 0, "rental_uris": {"ios": "https://dc.lft.to/lastmile_qr_scan", "android": "https://dc.lft.to/lastmile_qr_scan"}, "is_reserved": 0}, {"lon": -76.98371016666667, "bike_id": "30be18ab14d793e3b6ba35875db9164c", "lat": 38.90646783333333, "fusion_lon": 0.0, "fusion_lat": 0.0, "type": "electric_scooter", "name": "30be18ab14d793e3b6ba35875db9164c", "is_disabled": 0, "rental_uris": {"ios": "https://dc.lft.to/lastmile_qr_scan", "android": "https://dc.lft.to/lastmile_qr_scan"}, "is_reserved": 0}, {"lon": -77.03637916666666, "bike_id": "32547d5119ed9bac7c821a1c0e6be310", "lat": 38.911818833333335, "fusion_lon": 0.0, "fusion_lat": 0.0, "type": "electric_scooter", "name": "32547d5119ed9bac7c821a1c0e6be310", "is_disabled": 0, "rental_uris": {"ios": "https://dc.lft.to/lastmile_qr_scan", "android": "https://dc.lft.to/lastmile_qr_scan"}, "is_reserved": 0}, {"lon": -77.023148, "bike_id": "9abac6e5889da3c6404df87671805480", "lat": 38.878846833333334, "fusion_lon": 0.0, "fusion_lat": 0.0, "type": "electric_scooter", "name": "9abac6e5889da3c6404df87671805480", "is_disabled": 0, "rental_uris": {"ios": "https://dc.lft.to/lastmile_qr_scan", "android": "https://dc.lft.to/lastmile_qr_scan"}, "is_reserved": 0}, {"lon": -77.02117483333333, "bike_id": "b5a8cbb77f3a1dafbbf8b06386fa5d22", "lat": 38.93012683333333, "fusion_lon": 0.0, "fusion_lat": 0.0, "type": "electric_scooter", "name": "b5a8cbb77f3a1dafbbf8b06386fa5d22", "is_disabled": 0, "rental_uris": {"ios": "https://dc.lft.to/lastmile_qr_scan", "android": "https://dc.lft.to/lastmile_qr_scan"}, "is_reserved": 0}, {"lon": -77.0307975, "bike_id": "d2c9669c25b50b5a3ef92302eaefb9bd", "lat": 38.91005633333333, "fusion_lon": 0.0, "fusion_lat": 0.0, "type": "electric_scooter", "name": "d2c9669c25b50b5a3ef92302eaefb9bd", "is_disabled": 0, "rental_uris": {"ios": "https://dc.lft.to/lastmile_qr_scan", "android": "https://dc.lft.to/lastmile_qr_scan"}, "is_reserved": 0}, {"lon": -77.04872316666666, "bike_id": "bed2b1d50ab9a662533c2f37b7259728", "lat": 38.89230216666667, "fusion_lon": 0.0, "fusion_lat": 0.0, "type": "electric_scooter", "name": "bed2b1d50ab9a662533c2f37b7259728", "is_disabled": 0, "rental_uris": {"ios": "https://dc.lft.to/lastmile_qr_scan", "android": "https://dc.lft.to/lastmile_qr_scan"}, "is_reserved": 0}, {"lon": -77.02305283333334, "bike_id": "5ed6cd635ec2ceda421256ae0a126fde", "lat": 38.90865633333333, "fusion_lon": 0.0, "fusion_lat": 0.0, "type": "electric_scooter", "name": "5ed6cd635ec2ceda421256ae0a126fde", "is_disabled": 0, "rental_uris": {"ios": "https://dc.lft.to/lastmile_qr_scan", "android": "https://dc.lft.to/lastmile_qr_scan"}, "is_reserved": 0}, {"lon": -77.04360283333334, "bike_id": "370345ced4f8bc78278b492f2b7a70cf", "lat": 39.015343666666666, "fusion_lon": 0.0, "fusion_lat": 0.0, "type": "electric_bike", "name": "370345ced4f8bc78278b492f2b7a70cf", "is_disabled": 0, "rental_uris": {"ios": "https://dc.lft.to/lastmile_qr_scan", "android": "https://dc.lft.to/lastmile_qr_scan"}, "is_reserved": 0}, {"lon": -77.02728766666667, "bike_id": "736dcfa6c6adacfc198e6c91f37ee8b2", "lat": 38.897338, "fusion_lon": 0.0, "fusion_lat": 0.0, "type": "electric_scooter", "name": "736dcfa6c6adacfc198e6c91f37ee8b2", "is_disabled": 0, "rental_uris": {"ios": "https://dc.lft.to/lastmile_qr_scan", "android": "https://dc.lft.to/lastmile_qr_scan"}, "is_reserved": 0}, {"lon": -76.9784265, "bike_id": "25b055de946acaf2d941598373237e6c", "lat": 38.8656515, "fusion_lon": 0.0, "fusion_lat": 0.0, "type": "electric_scooter", "name": "25b055de946acaf2d941598373237e6c", "is_disabled": 0, "rental_uris": {"ios": "https://dc.lft.to/lastmile_qr_scan", "android": "https://dc.lft.to/lastmile_qr_scan"}, "is_reserved": 0}, {"lon": -77.0297325, "bike_id": "4e2f63755d64904fc28b52488ae3688b", "lat": 38.92286333333333, "fusion_lon": 0.0, "fusion_lat": 0.0, "type": "electric_scooter", "name": "4e2f63755d64904fc28b52488ae3688b", "is_disabled": 0, "rental_uris": {"ios": "https://dc.lft.to/lastmile_qr_scan", "android": "https://dc.lft.to/lastmile_qr_scan"}, "is_reserved": 0}, {"lon": -77.03454816666667, "bike_id": "c85199eb16727cd50bcab2ab7714ffd3", "lat": 38.917957, "fusion_lon": 0.0, "fusion_lat": 0.0, "type": "electric_scooter", "name": "c85199eb16727cd50bcab2ab7714ffd3", "is_disabled": 0, "rental_uris": {"ios": "https://dc.lft.to/lastmile_qr_scan", "android": "https://dc.lft.to/lastmile_qr_scan"}, "is_reserved": 0}, {"lon": -77.03898016666666, "bike_id": "f9dda12c548b72ac1fce9dea09e10320", "lat": 38.92337116666667, "fusion_lon": 0.0, "fusion_lat": 0.0, "type": "electric_scooter", "name": "f9dda12c548b72ac1fce9dea09e10320", "is_disabled": 0, "rental_uris": {"ios": "https://dc.lft.to/lastmile_qr_scan", "android": "https://dc.lft.to/lastmile_qr_scan"}, "is_reserved": 0}, {"lon": -77.03866283333333, "bike_id": "85313e0016caafdb360077671e52c9f3", "lat": 38.9097015, "fusion_lon": 0.0, "fusion_lat": 0.0, "type": "electric_scooter", "name": "85313e0016caafdb360077671e52c9f3", "is_disabled": 0, "rental_uris": {"ios": "https://dc.lft.to/lastmile_qr_scan", "android": "https://dc.lft.to/lastmile_qr_scan"}, "is_reserved": 0}, {"lon": -76.96525016666666, "bike_id": "f9d706579303da24398a74f3fe76c711", "lat": 38.87629183333333, "fusion_lon": 0.0, "fusion_lat": 0.0, "type": "electric_scooter", "name": "f9d706579303da24398a74f3fe76c711", "is_disabled": 0, "rental_uris": {"ios": "https://dc.lft.to/lastmile_qr_scan", "android": "https://dc.lft.to/lastmile_qr_scan"}, "is_reserved": 0}, {"lon": -77.03262133333334, "bike_id": "28c1aae685a9789e8078747bdf83dc00", "lat": 38.9377155, "fusion_lon": 0.0, "fusion_lat": 0.0, "type": "electric_scooter", "name": "28c1aae685a9789e8078747bdf83dc00", "is_disabled": 0, "rental_uris": {"ios": "https://dc.lft.to/lastmile_qr_scan", "android": "https://dc.lft.to/lastmile_qr_scan"}, "is_reserved": 0}, {"lon": -77.04485816666667, "bike_id": "b0a282113a7ed0ff724ce12f56d81270", "lat": 38.913598, "fusion_lon": 0.0, "fusion_lat": 0.0, "type": "electric_scooter", "name": "b0a282113a7ed0ff724ce12f56d81270", "is_disabled": 0, "rental_uris": {"ios": "https://dc.lft.to/lastmile_qr_scan", "android": "https://dc.lft.to/lastmile_qr_scan"}, "is_reserved": 0}, {"lon": -77.05017966666666, "bike_id": "5a72dbd101e559f4f2e05b06fc038970", "lat": 38.915735166666664, "fusion_lon": 0.0, "fusion_lat": 0.0, "type": "electric_scooter", "name": "5a72dbd101e559f4f2e05b06fc038970", "is_disabled": 0, "rental_uris": {"ios": "https://dc.lft.to/lastmile_qr_scan", "android": "https://dc.lft.to/lastmile_qr_scan"}, "is_reserved": 0}, {"lon": -77.02714116666667, "bike_id": "ce8189f64f06de0bbfd970e85a04fbac", "lat": 38.909498, "fusion_lon": 0.0, "fusion_lat": 0.0, "type": "electric_scooter", "name": "ce8189f64f06de0bbfd970e85a04fbac", "is_disabled": 0, "rental_uris": {"ios": "https://dc.lft.to/lastmile_qr_scan", "android": "https://dc.lft.to/lastmile_qr_scan"}, "is_reserved": 0}, {"lon": -77.02396366666666, "bike_id": "fb13720233cc3d67b29035119c85013f", "lat": 38.8981935, "fusion_lon": 0.0, "fusion_lat": 0.0, "type": "electric_scooter", "name": "fb13720233cc3d67b29035119c85013f", "is_disabled": 0, "rental_uris": {"ios": "https://dc.lft.to/lastmile_qr_scan", "android": "https://dc.lft.to/lastmile_qr_scan"}, "is_reserved": 0}, {"lon": -77.025211, "bike_id": "33a06793f16dec7530c96eb5f479d920", "lat": 38.916871666666665, "fusion_lon": 0.0, "fusion_lat": 0.0, "type": "electric_scooter", "name": "33a06793f16dec7530c96eb5f479d920", "is_disabled": 0, "rental_uris": {"ios": "https://dc.lft.to/lastmile_qr_scan", "android": "https://dc.lft.to/lastmile_qr_scan"}, "is_reserved": 0}, {"lon": -76.94414666666667, "bike_id": "650e6816a8e1673f9a86c4a69a64f399", "lat": 38.886168, "fusion_lon": 0.0, "fusion_lat": 0.0, "type": "electric_scooter", "name": "650e6816a8e1673f9a86c4a69a64f399", "is_disabled": 0, "rental_uris": {"ios": "https://dc.lft.to/lastmile_qr_scan", "android": "https://dc.lft.to/lastmile_qr_scan"}, "is_reserved": 0}, {"lon": -76.984896, "bike_id": "f0f1012c66989a4af35295fda9fc9683", "lat": 38.878393, "fusion_lon": 0.0, "fusion_lat": 0.0, "type": "electric_scooter", "name": "f0f1012c66989a4af35295fda9fc9683", "is_disabled": 0, "rental_uris": {"ios": "https://dc.lft.to/lastmile_qr_scan", "android": "https://dc.lft.to/lastmile_qr_scan"}, "is_reserved": 0}, {"lon": -77.06008366666667, "bike_id": "26cd19dafa2a44ec996962bea87876b5", "lat": 38.901149333333336, "fusion_lon": 0.0, "fusion_lat": 0.0, "type": "electric_scooter", "name": "26cd19dafa2a44ec996962bea87876b5", "is_disabled": 0, "rental_uris": {"ios": "https://dc.lft.to/lastmile_qr_scan", "android": "https://dc.lft.to/lastmile_qr_scan"}, "is_reserved": 0}, {"lon": -77.03438216666666, "bike_id": "fcd4544cc60f61821568235b0c58262c", "lat": 38.90511266666667, "fusion_lon": 0.0, "fusion_lat": 0.0, "type": "electric_scooter", "name": "fcd4544cc60f61821568235b0c58262c", "is_disabled": 0, "rental_uris": {"ios": "https://dc.lft.to/lastmile_qr_scan", "android": "https://dc.lft.to/lastmile_qr_scan"}, "is_reserved": 0}, {"lon": -77.03261816666667, "bike_id": "85a11b1abe8867546b39a90c9dedc717", "lat": 38.9320725, "fusion_lon": 0.0, "fusion_lat": 0.0, "type": "electric_scooter", "name": "85a11b1abe8867546b39a90c9dedc717", "is_disabled": 0, "rental_uris": {"ios": "https://dc.lft.to/lastmile_qr_scan", "android": "https://dc.lft.to/lastmile_qr_scan"}, "is_reserved": 0}, {"lon": -77.0358235, "bike_id": "d350ac1f3df74fc4d194871ca2641f78", "lat": 38.910452666666664, "fusion_lon": 0.0, "fusion_lat": 0.0, "type": "electric_scooter", "name": "d350ac1f3df74fc4d194871ca2641f78", "is_disabled": 0, "rental_uris": {"ios": "https://dc.lft.to/lastmile_qr_scan", "android": "https://dc.lft.to/lastmile_qr_scan"}, "is_reserved": 0}, {"lon": -77.03185433333333, "bike_id": "787f7abd7ecfc404183fa1e173994ca6", "lat": 38.91741783333333, "fusion_lon": 0.0, "fusion_lat": 0.0, "type": "electric_scooter", "name": "787f7abd7ecfc404183fa1e173994ca6", "is_disabled": 0, "rental_uris": {"ios": "https://dc.lft.to/lastmile_qr_scan", "android": "https://dc.lft.to/lastmile_qr_scan"}, "is_reserved": 0}, {"lon": -77.03486966666667, "bike_id": "8fe1f507643e2bb87f2d49b00627a21d", "lat": 38.9343355, "fusion_lon": 0.0, "fusion_lat": 0.0, "type": "electric_scooter", "name": "8fe1f507643e2bb87f2d49b00627a21d", "is_disabled": 0, "rental_uris": {"ios": "https://dc.lft.to/lastmile_qr_scan", "android": "https://dc.lft.to/lastmile_qr_scan"}, "is_reserved": 0}, {"lon": -77.03262316666667, "bike_id": "1967efec1fff29f93ee8858aa5fa5e6b", "lat": 38.9377195, "fusion_lon": 0.0, "fusion_lat": 0.0, "type": "electric_scooter", "name": "1967efec1fff29f93ee8858aa5fa5e6b", "is_disabled": 0, "rental_uris": {"ios": "https://dc.lft.to/lastmile_qr_scan", "android": "https://dc.lft.to/lastmile_qr_scan"}, "is_reserved": 0}, {"lon": -77.04419133333333, "bike_id": "ca910dfed0ec660a6fab009ea927254a", "lat": 38.911236333333335, "fusion_lon": 0.0, "fusion_lat": 0.0, "type": "electric_scooter", "name": "ca910dfed0ec660a6fab009ea927254a", "is_disabled": 0, "rental_uris": {"ios": "https://dc.lft.to/lastmile_qr_scan", "android": "https://dc.lft.to/lastmile_qr_scan"}, "is_reserved": 0}, {"lon": -76.9928885, "bike_id": "b5d58c8fd7442f5d459712ffec073f7f", "lat": 38.8988545, "fusion_lon": 0.0, "fusion_lat": 0.0, "type": "electric_scooter", "name": "b5d58c8fd7442f5d459712ffec073f7f", "is_disabled": 0, "rental_uris": {"ios": "https://dc.lft.to/lastmile_qr_scan", "android": "https://dc.lft.to/lastmile_qr_scan"}, "is_reserved": 0}, {"lon": -77.02755633333334, "bike_id": "08fd466a4b2aa44b9a56ab0320e5f049", "lat": 38.9169805, "fusion_lon": 0.0, "fusion_lat": 0.0, "type": "electric_scooter", "name": "08fd466a4b2aa44b9a56ab0320e5f049", "is_disabled": 0, "rental_uris": {"ios": "https://dc.lft.to/lastmile_qr_scan", "android": "https://dc.lft.to/lastmile_qr_scan"}, "is_reserved": 0}, {"lon": -77.042251, "bike_id": "90175835e98feb30c13c619a02366d1a", "lat": 38.913391, "fusion_lon": 0.0, "fusion_lat": 0.0, "type": "electric_scooter", "name": "90175835e98feb30c13c619a02366d1a", "is_disabled": 0, "rental_uris": {"ios": "https://dc.lft.to/lastmile_qr_scan", "android": "https://dc.lft.to/lastmile_qr_scan"}, "is_reserved": 0}, {"lon": -77.025125, "bike_id": "6e51bc14376dc07a112b4b46fa72cd35", "lat": 38.9205505, "fusion_lon": 0.0, "fusion_lat": 0.0, "type": "electric_scooter", "name": "6e51bc14376dc07a112b4b46fa72cd35", "is_disabled": 0, "rental_uris": {"ios": "https://dc.lft.to/lastmile_qr_scan", "android": "https://dc.lft.to/lastmile_qr_scan"}, "is_reserved": 0}, {"lon": -77.00381833333333, "bike_id": "41069246fca4f7ed83a3ff72e9350ba8", "lat": 38.836032333333335, "fusion_lon": 0.0, "fusion_lat": 0.0, "type": "electric_bike", "name": "41069246fca4f7ed83a3ff72e9350ba8", "is_disabled": 0, "rental_uris": {"ios": "https://dc.lft.to/lastmile_qr_scan", "android": "https://dc.lft.to/lastmile_qr_scan"}, "is_reserved": 0}, {"lon": -76.99028233333334, "bike_id": "685c5e3876a578d9ca790cac41bd55e4", "lat": 38.924278666666666, "fusion_lon": 0.0, "fusion_lat": 0.0, "type": "electric_scooter", "name": "685c5e3876a578d9ca790cac41bd55e4", "is_disabled": 0, "rental_uris": {"ios": "https://dc.lft.to/lastmile_qr_scan", "android": "https://dc.lft.to/lastmile_qr_scan"}, "is_reserved": 0}, {"lon": -77.035553, "bike_id": "1f7aaa63797ffbc95b4579408900ab46", "lat": 38.9247825, "fusion_lon": 0.0, "fusion_lat": 0.0, "type": "electric_scooter", "name": "1f7aaa63797ffbc95b4579408900ab46", "is_disabled": 0, "rental_uris": {"ios": "https://dc.lft.to/lastmile_qr_scan", "android": "https://dc.lft.to/lastmile_qr_scan"}, "is_reserved": 0}, {"lon": -77.02167483333334, "bike_id": "cdd7f22c06b7fb4ddae09a73e69f3b06", "lat": 38.9300265, "fusion_lon": 0.0, "fusion_lat": 0.0, "type": "electric_scooter", "name": "cdd7f22c06b7fb4ddae09a73e69f3b06", "is_disabled": 0, "rental_uris": {"ios": "https://dc.lft.to/lastmile_qr_scan", "android": "https://dc.lft.to/lastmile_qr_scan"}, "is_reserved": 0}, {"lon": -77.02609216666667, "bike_id": "704b4cdc828fc63810f422bb358edc7f", "lat": 38.934876333333335, "fusion_lon": 0.0, "fusion_lat": 0.0, "type": "electric_scooter", "name": "704b4cdc828fc63810f422bb358edc7f", "is_disabled": 0, "rental_uris": {"ios": "https://dc.lft.to/lastmile_qr_scan", "android": "https://dc.lft.to/lastmile_qr_scan"}, "is_reserved": 0}, {"lon": -77.0447915, "bike_id": "016975ee1ed4e7f0a9d4d69480eaf460", "lat": 38.924238333333335, "fusion_lon": 0.0, "fusion_lat": 0.0, "type": "electric_scooter", "name": "016975ee1ed4e7f0a9d4d69480eaf460", "is_disabled": 0, "rental_uris": {"ios": "https://dc.lft.to/lastmile_qr_scan", "android": "https://dc.lft.to/lastmile_qr_scan"}, "is_reserved": 0}, {"lon": -77.00200633333333, "bike_id": "95aa7c226d903c2a8370b9456c880a87", "lat": 38.90238433333333, "fusion_lon": 0.0, "fusion_lat": 0.0, "type": "electric_scooter", "name": "95aa7c226d903c2a8370b9456c880a87", "is_disabled": 0, "rental_uris": {"ios": "https://dc.lft.to/lastmile_qr_scan", "android": "https://dc.lft.to/lastmile_qr_scan"}, "is_reserved": 0}, {"lon": -77.05201616666666, "bike_id": "004c1d8d9a49e38e1688e8fec2f5133b", "lat": 38.899575166666665, "fusion_lon": 0.0, "fusion_lat": 0.0, "type": "electric_scooter", "name": "004c1d8d9a49e38e1688e8fec2f5133b", "is_disabled": 0, "rental_uris": {"ios": "https://dc.lft.to/lastmile_qr_scan", "android": "https://dc.lft.to/lastmile_qr_scan"}, "is_reserved": 0}, {"lon": -77.033807, "bike_id": "6b1fe8d8410dabf879fe2ba06df40f01", "lat": 38.89966583333333, "fusion_lon": 0.0, "fusion_lat": 0.0, "type": "electric_scooter", "name": "6b1fe8d8410dabf879fe2ba06df40f01", "is_disabled": 0, "rental_uris": {"ios": "https://dc.lft.to/lastmile_qr_scan", "android": "https://dc.lft.to/lastmile_qr_scan"}, "is_reserved": 0}, {"lon": -77.04284966666667, "bike_id": "8e1d2fc7bfa16534d810442490ed25c6", "lat": 38.90020833333333, "fusion_lon": 0.0, "fusion_lat": 0.0, "type": "electric_scooter", "name": "8e1d2fc7bfa16534d810442490ed25c6", "is_disabled": 0, "rental_uris": {"ios": "https://dc.lft.to/lastmile_qr_scan", "android": "https://dc.lft.to/lastmile_qr_scan"}, "is_reserved": 0}, {"lon": -77.038523, "bike_id": "4518059cf9e572562a68c57e8bdd9f01", "lat": 38.90997183333333, "fusion_lon": 0.0, "fusion_lat": 0.0, "type": "electric_scooter", "name": "4518059cf9e572562a68c57e8bdd9f01", "is_disabled": 0, "rental_uris": {"ios": "https://dc.lft.to/lastmile_qr_scan", "android": "https://dc.lft.to/lastmile_qr_scan"}, "is_reserved": 0}, {"lon": -77.03450883333333, "bike_id": "df346a9aac01ad358711d05a65f2f317", "lat": 38.90974216666667, "fusion_lon": 0.0, "fusion_lat": 0.0, "type": "electric_scooter", "name": "df346a9aac01ad358711d05a65f2f317", "is_disabled": 0, "rental_uris": {"ios": "https://dc.lft.to/lastmile_qr_scan", "android": "https://dc.lft.to/lastmile_qr_scan"}, "is_reserved": 0}, {"lon": -77.0416855, "bike_id": "56475e5b966b88ececdc4d1279caa90d", "lat": 38.91985433333333, "fusion_lon": 0.0, "fusion_lat": 0.0, "type": "electric_scooter", "name": "56475e5b966b88ececdc4d1279caa90d", "is_disabled": 0, "rental_uris": {"ios": "https://dc.lft.to/lastmile_qr_scan", "android": "https://dc.lft.to/lastmile_qr_scan"}, "is_reserved": 0}, {"lon": -76.98022383333333, "bike_id": "40677e98ad351bc1e984000deaa26ea1", "lat": 38.853189, "fusion_lon": 0.0, "fusion_lat": 0.0, "type": "electric_bike", "name": "40677e98ad351bc1e984000deaa26ea1", "is_disabled": 0, "rental_uris": {"ios": "https://dc.lft.to/lastmile_qr_scan", "android": "https://dc.lft.to/lastmile_qr_scan"}, "is_reserved": 0}, {"lon": -76.98986, "bike_id": "bd3b954c30f5c5489f5c91c4cf25b1d1", "lat": 38.93363383333333, "fusion_lon": 0.0, "fusion_lat": 0.0, "type": "electric_scooter", "name": "bd3b954c30f5c5489f5c91c4cf25b1d1", "is_disabled": 0, "rental_uris": {"ios": "https://dc.lft.to/lastmile_qr_scan", "android": "https://dc.lft.to/lastmile_qr_scan"}, "is_reserved": 0}, {"lon": -76.990327, "bike_id": "062ccbd7ed55fda49622480aebd4bd9d", "lat": 38.88875216666667, "fusion_lon": 0.0, "fusion_lat": 0.0, "type": "electric_scooter", "name": "062ccbd7ed55fda49622480aebd4bd9d", "is_disabled": 0, "rental_uris": {"ios": "https://dc.lft.to/lastmile_qr_scan", "android": "https://dc.lft.to/lastmile_qr_scan"}, "is_reserved": 0}, {"lon": -77.03210316666667, "bike_id": "032229d69d0e7e86b437f25c06c62d7c", "lat": 38.9147395, "fusion_lon": 0.0, "fusion_lat": 0.0, "type": "electric_scooter", "name": "032229d69d0e7e86b437f25c06c62d7c", "is_disabled": 0, "rental_uris": {"ios": "https://dc.lft.to/lastmile_qr_scan", "android": "https://dc.lft.to/lastmile_qr_scan"}, "is_reserved": 0}, {"lon": -77.041443, "bike_id": "b56b5fbc8f21c76290447ac8985db7ae", "lat": 38.919796166666664, "fusion_lon": 0.0, "fusion_lat": 0.0, "type": "electric_scooter", "name": "b56b5fbc8f21c76290447ac8985db7ae", "is_disabled": 0, "rental_uris": {"ios": "https://dc.lft.to/lastmile_qr_scan", "android": "https://dc.lft.to/lastmile_qr_scan"}, "is_reserved": 0}, {"lon": -76.99522183333333, "bike_id": "496a72be6c42391d8ce0b1b65589f941", "lat": 38.8625785, "fusion_lon": 0.0, "fusion_lat": 0.0, "type": "electric_scooter", "name": "496a72be6c42391d8ce0b1b65589f941", "is_disabled": 0, "rental_uris": {"ios": "https://dc.lft.to/lastmile_qr_scan", "android": "https://dc.lft.to/lastmile_qr_scan"}, "is_reserved": 0}, {"lon": -77.01907033333333, "bike_id": "65bf4605a9c62592943830fda04a98f7", "lat": 39.0117685, "fusion_lon": 0.0, "fusion_lat": 0.0, "type": "electric_bike", "name": "65bf4605a9c62592943830fda04a98f7", "is_disabled": 0, "rental_uris": {"ios": "https://dc.lft.to/lastmile_qr_scan", "android": "https://dc.lft.to/lastmile_qr_scan"}, "is_reserved": 0}, {"lon": -76.94883866666666, "bike_id": "1f34d5ff9cc10f595e3ad7abc41e4e5a", "lat": 38.89507716666667, "fusion_lon": 0.0, "fusion_lat": 0.0, "type": "electric_scooter", "name": "1f34d5ff9cc10f595e3ad7abc41e4e5a", "is_disabled": 0, "rental_uris": {"ios": "https://dc.lft.to/lastmile_qr_scan", "android": "https://dc.lft.to/lastmile_qr_scan"}, "is_reserved": 0}, {"lon": -77.01765583333334, "bike_id": "56a671323c187165c2ef72f656a33496", "lat": 38.9026055, "fusion_lon": 0.0, "fusion_lat": 0.0, "type": "electric_scooter", "name": "56a671323c187165c2ef72f656a33496", "is_disabled": 0, "rental_uris": {"ios": "https://dc.lft.to/lastmile_qr_scan", "android": "https://dc.lft.to/lastmile_qr_scan"}, "is_reserved": 0}, {"lon": -77.02008566666666, "bike_id": "5e6f089d2b7fcd3004cce0bdac86a261", "lat": 38.92417866666667, "fusion_lon": 0.0, "fusion_lat": 0.0, "type": "electric_scooter", "name": "5e6f089d2b7fcd3004cce0bdac86a261", "is_disabled": 0, "rental_uris": {"ios": "https://dc.lft.to/lastmile_qr_scan", "android": "https://dc.lft.to/lastmile_qr_scan"}, "is_reserved": 0}, {"lon": -77.03268833333334, "bike_id": "094d69bdf242a26f5360892d29a7918d", "lat": 38.901187666666665, "fusion_lon": 0.0, "fusion_lat": 0.0, "type": "electric_scooter", "name": "094d69bdf242a26f5360892d29a7918d", "is_disabled": 0, "rental_uris": {"ios": "https://dc.lft.to/lastmile_qr_scan", "android": "https://dc.lft.to/lastmile_qr_scan"}, "is_reserved": 0}, {"lon": -77.07963183333334, "bike_id": "cfa71a45f5aed3cf7d34d98730f9c683", "lat": 38.85726183333333, "fusion_lon": 0.0, "fusion_lat": 0.0, "type": "electric_bike", "name": "cfa71a45f5aed3cf7d34d98730f9c683", "is_disabled": 0, "rental_uris": {"ios": "https://dc.lft.to/lastmile_qr_scan", "android": "https://dc.lft.to/lastmile_qr_scan"}, "is_reserved": 0}, {"lon": -77.057396, "bike_id": "bb8d59da6f58d85997f8ba1fc7660fa4", "lat": 38.9335285, "fusion_lon": 0.0, "fusion_lat": 0.0, "type": "electric_scooter", "name": "bb8d59da6f58d85997f8ba1fc7660fa4", "is_disabled": 0, "rental_uris": {"ios": "https://dc.lft.to/lastmile_qr_scan", "android": "https://dc.lft.to/lastmile_qr_scan"}, "is_reserved": 0}, {"lon": -77.03108866666666, "bike_id": "293814f8b4b7a300215e938a2f26bb96", "lat": 38.915575833333335, "fusion_lon": 0.0, "fusion_lat": 0.0, "type": "electric_scooter", "name": "293814f8b4b7a300215e938a2f26bb96", "is_disabled": 0, "rental_uris": {"ios": "https://dc.lft.to/lastmile_qr_scan", "android": "https://dc.lft.to/lastmile_qr_scan"}, "is_reserved": 0}, {"lon": -76.99078183333333, "bike_id": "b729b1233074e0a87868b323d953ff17", "lat": 38.898244, "fusion_lon": 0.0, "fusion_lat": 0.0, "type": "electric_bike", "name": "b729b1233074e0a87868b323d953ff17", "is_disabled": 0, "rental_uris": {"ios": "https://dc.lft.to/lastmile_qr_scan", "android": "https://dc.lft.to/lastmile_qr_scan"}, "is_reserved": 0}, {"lon": -77.0163875, "bike_id": "7141a4a630ce31db86ff319ee44d834b", "lat": 38.928982500000004, "fusion_lon": 0.0, "fusion_lat": 0.0, "type": "electric_scooter", "name": "7141a4a630ce31db86ff319ee44d834b", "is_disabled": 0, "rental_uris": {"ios": "https://dc.lft.to/lastmile_qr_scan", "android": "https://dc.lft.to/lastmile_qr_scan"}, "is_reserved": 0}, {"lon": -77.02505483333333, "bike_id": "9f831e8ffdde4cc0c84c3793ab97053b", "lat": 38.91908633333333, "fusion_lon": 0.0, "fusion_lat": 0.0, "type": "electric_scooter", "name": "9f831e8ffdde4cc0c84c3793ab97053b", "is_disabled": 0, "rental_uris": {"ios": "https://dc.lft.to/lastmile_qr_scan", "android": "https://dc.lft.to/lastmile_qr_scan"}, "is_reserved": 0}, {"lon": -77.0416, "bike_id": "7d7181e501d2f100c59a40a8d6957a2d", "lat": 38.91252016666667, "fusion_lon": 0.0, "fusion_lat": 0.0, "type": "electric_scooter", "name": "7d7181e501d2f100c59a40a8d6957a2d", "is_disabled": 0, "rental_uris": {"ios": "https://dc.lft.to/lastmile_qr_scan", "android": "https://dc.lft.to/lastmile_qr_scan"}, "is_reserved": 0}, {"lon": -77.02170716666667, "bike_id": "d173ac5b374fc92c0d62f1186d688b98", "lat": 38.90846483333333, "fusion_lon": 0.0, "fusion_lat": 0.0, "type": "electric_scooter", "name": "d173ac5b374fc92c0d62f1186d688b98", "is_disabled": 0, "rental_uris": {"ios": "https://dc.lft.to/lastmile_qr_scan", "android": "https://dc.lft.to/lastmile_qr_scan"}, "is_reserved": 0}, {"lon": -77.06277316666667, "bike_id": "035700a6c6a0db36c73c1540f2591e35", "lat": 38.90536316666667, "fusion_lon": 0.0, "fusion_lat": 0.0, "type": "electric_scooter", "name": "035700a6c6a0db36c73c1540f2591e35", "is_disabled": 0, "rental_uris": {"ios": "https://dc.lft.to/lastmile_qr_scan", "android": "https://dc.lft.to/lastmile_qr_scan"}, "is_reserved": 0}, {"lon": -77.03358783333333, "bike_id": "94d99a9aee68c4ccd908f9a243a64a78", "lat": 38.900058333333334, "fusion_lon": 0.0, "fusion_lat": 0.0, "type": "electric_scooter", "name": "94d99a9aee68c4ccd908f9a243a64a78", "is_disabled": 0, "rental_uris": {"ios": "https://dc.lft.to/lastmile_qr_scan", "android": "https://dc.lft.to/lastmile_qr_scan"}, "is_reserved": 0}, {"lon": -77.04378516666667, "bike_id": "48ac867b87c68f02c1011eed47f5fe2b", "lat": 38.920645666666665, "fusion_lon": 0.0, "fusion_lat": 0.0, "type": "electric_scooter", "name": "48ac867b87c68f02c1011eed47f5fe2b", "is_disabled": 0, "rental_uris": {"ios": "https://dc.lft.to/lastmile_qr_scan", "android": "https://dc.lft.to/lastmile_qr_scan"}, "is_reserved": 0}, {"lon": -76.93132266666667, "bike_id": "edeb8c0751416d6a6a5e3268407043f3", "lat": 38.87851833333333, "fusion_lon": 0.0, "fusion_lat": 0.0, "type": "electric_scooter", "name": "edeb8c0751416d6a6a5e3268407043f3", "is_disabled": 0, "rental_uris": {"ios": "https://dc.lft.to/lastmile_qr_scan", "android": "https://dc.lft.to/lastmile_qr_scan"}, "is_reserved": 0}, {"lon": -77.05807166666666, "bike_id": "df0ff3fea4fef3aa21de39190dad37ea", "lat": 38.93507683333333, "fusion_lon": 0.0, "fusion_lat": 0.0, "type": "electric_scooter", "name": "df0ff3fea4fef3aa21de39190dad37ea", "is_disabled": 0, "rental_uris": {"ios": "https://dc.lft.to/lastmile_qr_scan", "android": "https://dc.lft.to/lastmile_qr_scan"}, "is_reserved": 0}, {"lon": -77.02199566666667, "bike_id": "097bf65402b892412cbbb1e8ddbbd7f8", "lat": 38.89751166666667, "fusion_lon": 0.0, "fusion_lat": 0.0, "type": "electric_scooter", "name": "097bf65402b892412cbbb1e8ddbbd7f8", "is_disabled": 0, "rental_uris": {"ios": "https://dc.lft.to/lastmile_qr_scan", "android": "https://dc.lft.to/lastmile_qr_scan"}, "is_reserved": 0}, {"lon": -77.0776225, "bike_id": "7b70c38d09d1bf7fe9a1ace2e219b73e", "lat": 38.92556533333333, "fusion_lon": 0.0, "fusion_lat": 0.0, "type": "electric_scooter", "name": "7b70c38d09d1bf7fe9a1ace2e219b73e", "is_disabled": 0, "rental_uris": {"ios": "https://dc.lft.to/lastmile_qr_scan", "android": "https://dc.lft.to/lastmile_qr_scan"}, "is_reserved": 0}, {"lon": -77.025895, "bike_id": "ece234c389f81b043e0e9ac0082185ca", "lat": 38.943025666666664, "fusion_lon": 0.0, "fusion_lat": 0.0, "type": "electric_scooter", "name": "ece234c389f81b043e0e9ac0082185ca", "is_disabled": 0, "rental_uris": {"ios": "https://dc.lft.to/lastmile_qr_scan", "android": "https://dc.lft.to/lastmile_qr_scan"}, "is_reserved": 0}, {"lon": -77.04426933333333, "bike_id": "656bee8ce0c6418a2009707df7ec16a5", "lat": 38.921257, "fusion_lon": 0.0, "fusion_lat": 0.0, "type": "electric_scooter", "name": "656bee8ce0c6418a2009707df7ec16a5", "is_disabled": 0, "rental_uris": {"ios": "https://dc.lft.to/lastmile_qr_scan", "android": "https://dc.lft.to/lastmile_qr_scan"}, "is_reserved": 0}, {"lon": -77.0398, "bike_id": "34a96c452828047709d3275b519e26ef", "lat": 38.9334235, "fusion_lon": 0.0, "fusion_lat": 0.0, "type": "electric_scooter", "name": "34a96c452828047709d3275b519e26ef", "is_disabled": 0, "rental_uris": {"ios": "https://dc.lft.to/lastmile_qr_scan", "android": "https://dc.lft.to/lastmile_qr_scan"}, "is_reserved": 0}, {"lon": -76.99487483333333, "bike_id": "d011ded29911147e7a172e3803ba3674", "lat": 38.862463, "fusion_lon": 0.0, "fusion_lat": 0.0, "type": "electric_scooter", "name": "d011ded29911147e7a172e3803ba3674", "is_disabled": 0, "rental_uris": {"ios": "https://dc.lft.to/lastmile_qr_scan", "android": "https://dc.lft.to/lastmile_qr_scan"}, "is_reserved": 0}, {"lon": -77.00603233333334, "bike_id": "32d98cb96632a90be7f74a957efca739", "lat": 38.906332, "fusion_lon": 0.0, "fusion_lat": 0.0, "type": "electric_scooter", "name": "32d98cb96632a90be7f74a957efca739", "is_disabled": 0, "rental_uris": {"ios": "https://dc.lft.to/lastmile_qr_scan", "android": "https://dc.lft.to/lastmile_qr_scan"}, "is_reserved": 0}, {"lon": -77.044456, "bike_id": "999504b34ed2e27a473a03e0fdeff2e0", "lat": 38.92165283333333, "fusion_lon": 0.0, "fusion_lat": 0.0, "type": "electric_scooter", "name": "999504b34ed2e27a473a03e0fdeff2e0", "is_disabled": 0, "rental_uris": {"ios": "https://dc.lft.to/lastmile_qr_scan", "android": "https://dc.lft.to/lastmile_qr_scan"}, "is_reserved": 0}, {"lon": -77.0514225, "bike_id": "a5ece031912a25cc3872974388ee1ff5", "lat": 38.905438333333336, "fusion_lon": 0.0, "fusion_lat": 0.0, "type": "electric_scooter", "name": "a5ece031912a25cc3872974388ee1ff5", "is_disabled": 0, "rental_uris": {"ios": "https://dc.lft.to/lastmile_qr_scan", "android": "https://dc.lft.to/lastmile_qr_scan"}, "is_reserved": 0}, {"lon": -77.04146783333333, "bike_id": "0092a6e90caacf620671b8e26c2a08ff", "lat": 38.922928666666664, "fusion_lon": 0.0, "fusion_lat": 0.0, "type": "electric_scooter", "name": "0092a6e90caacf620671b8e26c2a08ff", "is_disabled": 0, "rental_uris": {"ios": "https://dc.lft.to/lastmile_qr_scan", "android": "https://dc.lft.to/lastmile_qr_scan"}, "is_reserved": 0}, {"lon": -77.03982416666666, "bike_id": "ccd96612c8b739b142f7304dda818291", "lat": 38.892217333333335, "fusion_lon": 0.0, "fusion_lat": 0.0, "type": "electric_scooter", "name": "ccd96612c8b739b142f7304dda818291", "is_disabled": 0, "rental_uris": {"ios": "https://dc.lft.to/lastmile_qr_scan", "android": "https://dc.lft.to/lastmile_qr_scan"}, "is_reserved": 0}, {"lon": -76.93021066666667, "bike_id": "943c8cdd8432a71e3aba4f56ad6f92cb", "lat": 38.896418833333335, "fusion_lon": 0.0, "fusion_lat": 0.0, "type": "electric_bike", "name": "943c8cdd8432a71e3aba4f56ad6f92cb", "is_disabled": 0, "rental_uris": {"ios": "https://dc.lft.to/lastmile_qr_scan", "android": "https://dc.lft.to/lastmile_qr_scan"}, "is_reserved": 0}, {"lon": -77.03416233333333, "bike_id": "b903645ecfd63c2ac415817af515e09b", "lat": 38.933628, "fusion_lon": 0.0, "fusion_lat": 0.0, "type": "electric_scooter", "name": "b903645ecfd63c2ac415817af515e09b", "is_disabled": 0, "rental_uris": {"ios": "https://dc.lft.to/lastmile_qr_scan", "android": "https://dc.lft.to/lastmile_qr_scan"}, "is_reserved": 0}, {"lon": -76.87494716666667, "bike_id": "eb7b6ced34c6166ee38b0af601c2122d", "lat": 38.990903333333335, "fusion_lon": 0.0, "fusion_lat": 0.0, "type": "electric_bike", "name": "eb7b6ced34c6166ee38b0af601c2122d", "is_disabled": 0, "rental_uris": {"ios": "https://dc.lft.to/lastmile_qr_scan", "android": "https://dc.lft.to/lastmile_qr_scan"}, "is_reserved": 0}, {"lon": -77.00651583333334, "bike_id": "150d74a09cac71319205d15234447236", "lat": 38.8389165, "fusion_lon": 0.0, "fusion_lat": 0.0, "type": "electric_scooter", "name": "150d74a09cac71319205d15234447236", "is_disabled": 0, "rental_uris": {"ios": "https://dc.lft.to/lastmile_qr_scan", "android": "https://dc.lft.to/lastmile_qr_scan"}, "is_reserved": 0}, {"lon": -77.04083483333334, "bike_id": "a8d10f2b4713709f4833e336efb01bc3", "lat": 38.9168985, "fusion_lon": 0.0, "fusion_lat": 0.0, "type": "electric_scooter", "name": "a8d10f2b4713709f4833e336efb01bc3", "is_disabled": 0, "rental_uris": {"ios": "https://dc.lft.to/lastmile_qr_scan", "android": "https://dc.lft.to/lastmile_qr_scan"}, "is_reserved": 0}, {"lon": -77.03290516666667, "bike_id": "85c948959a85e8fa918926d4c9402d78", "lat": 38.956502, "fusion_lon": 0.0, "fusion_lat": 0.0, "type": "electric_scooter", "name": "85c948959a85e8fa918926d4c9402d78", "is_disabled": 0, "rental_uris": {"ios": "https://dc.lft.to/lastmile_qr_scan", "android": "https://dc.lft.to/lastmile_qr_scan"}, "is_reserved": 0}, {"lon": -76.93175083333334, "bike_id": "dc2e57e2a228a7dd153a698f026f3f25", "lat": 38.8988325, "fusion_lon": 0.0, "fusion_lat": 0.0, "type": "electric_scooter", "name": "dc2e57e2a228a7dd153a698f026f3f25", "is_disabled": 0, "rental_uris": {"ios": "https://dc.lft.to/lastmile_qr_scan", "android": "https://dc.lft.to/lastmile_qr_scan"}, "is_reserved": 0}, {"lon": -77.0317565, "bike_id": "013ff69fba5b0d31d80f4e9582cf55a7", "lat": 38.91419633333334, "fusion_lon": 0.0, "fusion_lat": 0.0, "type": "electric_scooter", "name": "013ff69fba5b0d31d80f4e9582cf55a7", "is_disabled": 0, "rental_uris": {"ios": "https://dc.lft.to/lastmile_qr_scan", "android": "https://dc.lft.to/lastmile_qr_scan"}, "is_reserved": 0}, {"lon": -76.95742633333333, "bike_id": "9304e3b2d4758c42d9e1463a4d477bb2", "lat": 38.884276666666665, "fusion_lon": 0.0, "fusion_lat": 0.0, "type": "electric_scooter", "name": "9304e3b2d4758c42d9e1463a4d477bb2", "is_disabled": 0, "rental_uris": {"ios": "https://dc.lft.to/lastmile_qr_scan", "android": "https://dc.lft.to/lastmile_qr_scan"}, "is_reserved": 0}, {"lon": -76.93645883333333, "bike_id": "66336614bb0df22b0546ad241d8e27b9", "lat": 38.900608166666665, "fusion_lon": 0.0, "fusion_lat": 0.0, "type": "electric_scooter", "name": "66336614bb0df22b0546ad241d8e27b9", "is_disabled": 0, "rental_uris": {"ios": "https://dc.lft.to/lastmile_qr_scan", "android": "https://dc.lft.to/lastmile_qr_scan"}, "is_reserved": 0}, {"lon": -77.02378266666666, "bike_id": "794938a87f1f0ef03531599079d2f410", "lat": 38.9161905, "fusion_lon": 0.0, "fusion_lat": 0.0, "type": "electric_scooter", "name": "794938a87f1f0ef03531599079d2f410", "is_disabled": 0, "rental_uris": {"ios": "https://dc.lft.to/lastmile_qr_scan", "android": "https://dc.lft.to/lastmile_qr_scan"}, "is_reserved": 0}, {"lon": -77.02953416666666, "bike_id": "b5995110a542047b4d6314538661194a", "lat": 38.927622, "fusion_lon": 0.0, "fusion_lat": 0.0, "type": "electric_scooter", "name": "b5995110a542047b4d6314538661194a", "is_disabled": 0, "rental_uris": {"ios": "https://dc.lft.to/lastmile_qr_scan", "android": "https://dc.lft.to/lastmile_qr_scan"}, "is_reserved": 0}, {"lon": -77.058749, "bike_id": "662163c7bc6eed1b9ad978b3c2456d4a", "lat": 38.93558566666667, "fusion_lon": 0.0, "fusion_lat": 0.0, "type": "electric_scooter", "name": "662163c7bc6eed1b9ad978b3c2456d4a", "is_disabled": 0, "rental_uris": {"ios": "https://dc.lft.to/lastmile_qr_scan", "android": "https://dc.lft.to/lastmile_qr_scan"}, "is_reserved": 0}, {"lon": -76.99945383333333, "bike_id": "3a75620749d4f81703ebeb9264bda74e", "lat": 38.907604666666664, "fusion_lon": 0.0, "fusion_lat": 0.0, "type": "electric_scooter", "name": "3a75620749d4f81703ebeb9264bda74e", "is_disabled": 0, "rental_uris": {"ios": "https://dc.lft.to/lastmile_qr_scan", "android": "https://dc.lft.to/lastmile_qr_scan"}, "is_reserved": 0}, {"lon": -77.03122633333334, "bike_id": "6e7eebd02f52907bfb927018c72c5da9", "lat": 38.98830133333333, "fusion_lon": 0.0, "fusion_lat": 0.0, "type": "electric_scooter", "name": "6e7eebd02f52907bfb927018c72c5da9", "is_disabled": 0, "rental_uris": {"ios": "https://dc.lft.to/lastmile_qr_scan", "android": "https://dc.lft.to/lastmile_qr_scan"}, "is_reserved": 0}, {"lon": -77.05313766666667, "bike_id": "7cc06f2365ef58ec3af52dc244152207", "lat": 38.9410315, "fusion_lon": 0.0, "fusion_lat": 0.0, "type": "electric_bike", "name": "7cc06f2365ef58ec3af52dc244152207", "is_disabled": 0, "rental_uris": {"ios": "https://dc.lft.to/lastmile_qr_scan", "android": "https://dc.lft.to/lastmile_qr_scan"}, "is_reserved": 0}, {"lon": -77.041058, "bike_id": "49d014e91e8f75fa0bd40c9fedcb092f", "lat": 38.91693316666667, "fusion_lon": 0.0, "fusion_lat": 0.0, "type": "electric_scooter", "name": "49d014e91e8f75fa0bd40c9fedcb092f", "is_disabled": 0, "rental_uris": {"ios": "https://dc.lft.to/lastmile_qr_scan", "android": "https://dc.lft.to/lastmile_qr_scan"}, "is_reserved": 0}, {"lon": -77.04166883333333, "bike_id": "f38a286d4172a7fb525ab49bb6e96310", "lat": 38.9066355, "fusion_lon": 0.0, "fusion_lat": 0.0, "type": "electric_scooter", "name": "f38a286d4172a7fb525ab49bb6e96310", "is_disabled": 0, "rental_uris": {"ios": "https://dc.lft.to/lastmile_qr_scan", "android": "https://dc.lft.to/lastmile_qr_scan"}, "is_reserved": 0}, {"lon": -77.02157616666666, "bike_id": "1e670851e7e842e35cfac1e4c418d440", "lat": 38.89732, "fusion_lon": 0.0, "fusion_lat": 0.0, "type": "electric_scooter", "name": "1e670851e7e842e35cfac1e4c418d440", "is_disabled": 0, "rental_uris": {"ios": "https://dc.lft.to/lastmile_qr_scan", "android": "https://dc.lft.to/lastmile_qr_scan"}, "is_reserved": 0}, {"lon": -76.96395083333333, "bike_id": "6ca635bada36eebb7711581d27adabef", "lat": 38.95167566666667, "fusion_lon": 0.0, "fusion_lat": 0.0, "type": "electric_bike", "name": "6ca635bada36eebb7711581d27adabef", "is_disabled": 0, "rental_uris": {"ios": "https://dc.lft.to/lastmile_qr_scan", "android": "https://dc.lft.to/lastmile_qr_scan"}, "is_reserved": 0}, {"lon": -77.227982, "bike_id": "d8121c71dfc0f4b28f325f4e3b63268f", "lat": 38.9101405, "fusion_lon": 0.0, "fusion_lat": 0.0, "type": "electric_bike", "name": "d8121c71dfc0f4b28f325f4e3b63268f", "is_disabled": 0, "rental_uris": {"ios": "https://dc.lft.to/lastmile_qr_scan", "android": "https://dc.lft.to/lastmile_qr_scan"}, "is_reserved": 0}, {"lon": -77.02795983333333, "bike_id": "3344de7ce54cf236f44bd21a8294dfba", "lat": 38.954033333333335, "fusion_lon": 0.0, "fusion_lat": 0.0, "type": "electric_scooter", "name": "3344de7ce54cf236f44bd21a8294dfba", "is_disabled": 0, "rental_uris": {"ios": "https://dc.lft.to/lastmile_qr_scan", "android": "https://dc.lft.to/lastmile_qr_scan"}, "is_reserved": 0}, {"lon": -77.02086816666667, "bike_id": "f9b66cd29321cf81361367622edf28c3", "lat": 38.92914666666667, "fusion_lon": 0.0, "fusion_lat": 0.0, "type": "electric_scooter", "name": "f9b66cd29321cf81361367622edf28c3", "is_disabled": 0, "rental_uris": {"ios": "https://dc.lft.to/lastmile_qr_scan", "android": "https://dc.lft.to/lastmile_qr_scan"}, "is_reserved": 0}, {"lon": -77.0433965, "bike_id": "85e531c16f8ae740bb8b46039e1735cb", "lat": 38.91039116666666, "fusion_lon": 0.0, "fusion_lat": 0.0, "type": "electric_scooter", "name": "85e531c16f8ae740bb8b46039e1735cb", "is_disabled": 0, "rental_uris": {"ios": "https://dc.lft.to/lastmile_qr_scan", "android": "https://dc.lft.to/lastmile_qr_scan"}, "is_reserved": 0}, {"lon": -77.00739933333334, "bike_id": "9fde6b1250fe621778972d98194dc379", "lat": 38.92530433333334, "fusion_lon": 0.0, "fusion_lat": 0.0, "type": "electric_scooter", "name": "9fde6b1250fe621778972d98194dc379", "is_disabled": 0, "rental_uris": {"ios": "https://dc.lft.to/lastmile_qr_scan", "android": "https://dc.lft.to/lastmile_qr_scan"}, "is_reserved": 0}, {"lon": -77.003738, "bike_id": "64355eedcfcade23fe59b7e03add92d9", "lat": 38.89525066666667, "fusion_lon": 0.0, "fusion_lat": 0.0, "type": "electric_scooter", "name": "64355eedcfcade23fe59b7e03add92d9", "is_disabled": 0, "rental_uris": {"ios": "https://dc.lft.to/lastmile_qr_scan", "android": "https://dc.lft.to/lastmile_qr_scan"}, "is_reserved": 0}, {"lon": -77.02104233333333, "bike_id": "6b98f0c9b53dc26230926e43e17847eb", "lat": 38.92255983333333, "fusion_lon": 0.0, "fusion_lat": 0.0, "type": "electric_scooter", "name": "6b98f0c9b53dc26230926e43e17847eb", "is_disabled": 0, "rental_uris": {"ios": "https://dc.lft.to/lastmile_qr_scan", "android": "https://dc.lft.to/lastmile_qr_scan"}, "is_reserved": 0}, {"lon": -76.99471933333334, "bike_id": "061894aa727ed1371a817db8f5a89ab5", "lat": 38.8621845, "fusion_lon": 0.0, "fusion_lat": 0.0, "type": "electric_scooter", "name": "061894aa727ed1371a817db8f5a89ab5", "is_disabled": 0, "rental_uris": {"ios": "https://dc.lft.to/lastmile_qr_scan", "android": "https://dc.lft.to/lastmile_qr_scan"}, "is_reserved": 0}, {"lon": -76.98370566666667, "bike_id": "e6898bb5174bb13763df6aa515d84b25", "lat": 38.89142916666667, "fusion_lon": 0.0, "fusion_lat": 0.0, "type": "electric_scooter", "name": "e6898bb5174bb13763df6aa515d84b25", "is_disabled": 0, "rental_uris": {"ios": "https://dc.lft.to/lastmile_qr_scan", "android": "https://dc.lft.to/lastmile_qr_scan"}, "is_reserved": 0}, {"lon": -76.98838066666667, "bike_id": "1897fe0068144ee56df65d0f67e1b277", "lat": 38.9006835, "fusion_lon": 0.0, "fusion_lat": 0.0, "type": "electric_scooter", "name": "1897fe0068144ee56df65d0f67e1b277", "is_disabled": 0, "rental_uris": {"ios": "https://dc.lft.to/lastmile_qr_scan", "android": "https://dc.lft.to/lastmile_qr_scan"}, "is_reserved": 0}, {"lon": -77.05610616666667, "bike_id": "4afb1105c78a8e861a498eb524e2fda9", "lat": 38.9315925, "fusion_lon": 0.0, "fusion_lat": 0.0, "type": "electric_scooter", "name": "4afb1105c78a8e861a498eb524e2fda9", "is_disabled": 0, "rental_uris": {"ios": "https://dc.lft.to/lastmile_qr_scan", "android": "https://dc.lft.to/lastmile_qr_scan"}, "is_reserved": 0}, {"lon": -77.01440283333334, "bike_id": "cb0c7ff6e9d9c039be28f91ab0032edf", "lat": 38.920655333333336, "fusion_lon": 0.0, "fusion_lat": 0.0, "type": "electric_scooter", "name": "cb0c7ff6e9d9c039be28f91ab0032edf", "is_disabled": 0, "rental_uris": {"ios": "https://dc.lft.to/lastmile_qr_scan", "android": "https://dc.lft.to/lastmile_qr_scan"}, "is_reserved": 0}, {"lon": -77.03000316666666, "bike_id": "7d7da75f62482b54897dc5a6a184bda4", "lat": 38.9169635, "fusion_lon": 0.0, "fusion_lat": 0.0, "type": "electric_scooter", "name": "7d7da75f62482b54897dc5a6a184bda4", "is_disabled": 0, "rental_uris": {"ios": "https://dc.lft.to/lastmile_qr_scan", "android": "https://dc.lft.to/lastmile_qr_scan"}, "is_reserved": 0}, {"lon": -77.02366283333333, "bike_id": "33a7d59e671d1a19b95c50a000d1c17b", "lat": 38.88475183333333, "fusion_lon": 0.0, "fusion_lat": 0.0, "type": "electric_scooter", "name": "33a7d59e671d1a19b95c50a000d1c17b", "is_disabled": 0, "rental_uris": {"ios": "https://dc.lft.to/lastmile_qr_scan", "android": "https://dc.lft.to/lastmile_qr_scan"}, "is_reserved": 0}, {"lon": -77.061049, "bike_id": "5fce312bb981be8ab285f69c0160a51c", "lat": 38.94366466666666, "fusion_lon": 0.0, "fusion_lat": 0.0, "type": "electric_scooter", "name": "5fce312bb981be8ab285f69c0160a51c", "is_disabled": 0, "rental_uris": {"ios": "https://dc.lft.to/lastmile_qr_scan", "android": "https://dc.lft.to/lastmile_qr_scan"}, "is_reserved": 0}, {"lon": -77.03183633333333, "bike_id": "ad8a26e62c6b55c8e0278c85a7c44477", "lat": 38.936084, "fusion_lon": 0.0, "fusion_lat": 0.0, "type": "electric_scooter", "name": "ad8a26e62c6b55c8e0278c85a7c44477", "is_disabled": 0, "rental_uris": {"ios": "https://dc.lft.to/lastmile_qr_scan", "android": "https://dc.lft.to/lastmile_qr_scan"}, "is_reserved": 0}, {"lon": -77.03339983333333, "bike_id": "39e716cecd61dceb675cc6a7dfc01fa7", "lat": 38.9191295, "fusion_lon": 0.0, "fusion_lat": 0.0, "type": "electric_scooter", "name": "39e716cecd61dceb675cc6a7dfc01fa7", "is_disabled": 0, "rental_uris": {"ios": "https://dc.lft.to/lastmile_qr_scan", "android": "https://dc.lft.to/lastmile_qr_scan"}, "is_reserved": 0}, {"lon": -77.04232183333333, "bike_id": "04f3ed1ecd35d6be54e1a7731300b9cf", "lat": 38.916373, "fusion_lon": 0.0, "fusion_lat": 0.0, "type": "electric_scooter", "name": "04f3ed1ecd35d6be54e1a7731300b9cf", "is_disabled": 0, "rental_uris": {"ios": "https://dc.lft.to/lastmile_qr_scan", "android": "https://dc.lft.to/lastmile_qr_scan"}, "is_reserved": 0}, {"lon": -77.0468615, "bike_id": "883a22c8e5298a50e4250930ee80b19c", "lat": 38.89742183333333, "fusion_lon": 0.0, "fusion_lat": 0.0, "type": "electric_scooter", "name": "883a22c8e5298a50e4250930ee80b19c", "is_disabled": 0, "rental_uris": {"ios": "https://dc.lft.to/lastmile_qr_scan", "android": "https://dc.lft.to/lastmile_qr_scan"}, "is_reserved": 0}, {"lon": -77.058605, "bike_id": "bffa89eabeefb98886ce8cad24485b69", "lat": 38.9360385, "fusion_lon": 0.0, "fusion_lat": 0.0, "type": "electric_scooter", "name": "bffa89eabeefb98886ce8cad24485b69", "is_disabled": 0, "rental_uris": {"ios": "https://dc.lft.to/lastmile_qr_scan", "android": "https://dc.lft.to/lastmile_qr_scan"}, "is_reserved": 0}, {"lon": -76.99045083333333, "bike_id": "8e5f6760565e71f1d61421f0b9942025", "lat": 38.88415966666667, "fusion_lon": 0.0, "fusion_lat": 0.0, "type": "electric_scooter", "name": "8e5f6760565e71f1d61421f0b9942025", "is_disabled": 0, "rental_uris": {"ios": "https://dc.lft.to/lastmile_qr_scan", "android": "https://dc.lft.to/lastmile_qr_scan"}, "is_reserved": 0}, {"lon": -76.948837, "bike_id": "ddbaf0a05f8cb79b2859fe946354d963", "lat": 38.89508433333334, "fusion_lon": 0.0, "fusion_lat": 0.0, "type": "electric_scooter", "name": "ddbaf0a05f8cb79b2859fe946354d963", "is_disabled": 0, "rental_uris": {"ios": "https://dc.lft.to/lastmile_qr_scan", "android": "https://dc.lft.to/lastmile_qr_scan"}, "is_reserved": 0}, {"lon": -76.97329266666667, "bike_id": "277d6e291ecbb5f708a1e9c6bd0c71a4", "lat": 38.904805333333336, "fusion_lon": 0.0, "fusion_lat": 0.0, "type": "electric_bike", "name": "277d6e291ecbb5f708a1e9c6bd0c71a4", "is_disabled": 0, "rental_uris": {"ios": "https://dc.lft.to/lastmile_qr_scan", "android": "https://dc.lft.to/lastmile_qr_scan"}, "is_reserved": 0}, {"lon": -77.021658, "bike_id": "8eda82ca2aaa69d9dac5dbec81e80d59", "lat": 38.897397833333336, "fusion_lon": 0.0, "fusion_lat": 0.0, "type": "electric_scooter", "name": "8eda82ca2aaa69d9dac5dbec81e80d59", "is_disabled": 0, "rental_uris": {"ios": "https://dc.lft.to/lastmile_qr_scan", "android": "https://dc.lft.to/lastmile_qr_scan"}, "is_reserved": 0}, {"lon": -77.082021, "bike_id": "782e11a5e5da0e903eecc5d294900505", "lat": 38.935056833333334, "fusion_lon": 0.0, "fusion_lat": 0.0, "type": "electric_scooter", "name": "782e11a5e5da0e903eecc5d294900505", "is_disabled": 0, "rental_uris": {"ios": "https://dc.lft.to/lastmile_qr_scan", "android": "https://dc.lft.to/lastmile_qr_scan"}, "is_reserved": 0}, {"lon": -77.0268575, "bike_id": "92637ae8c6f90db838bff37cc36e48e9", "lat": 38.90069583333333, "fusion_lon": 0.0, "fusion_lat": 0.0, "type": "electric_scooter", "name": "92637ae8c6f90db838bff37cc36e48e9", "is_disabled": 0, "rental_uris": {"ios": "https://dc.lft.to/lastmile_qr_scan", "android": "https://dc.lft.to/lastmile_qr_scan"}, "is_reserved": 0}, {"lon": -76.91597366666667, "bike_id": "fe32320cb99f7eeb7ed8418400df056a", "lat": 38.879821666666665, "fusion_lon": 0.0, "fusion_lat": 0.0, "type": "electric_bike", "name": "fe32320cb99f7eeb7ed8418400df056a", "is_disabled": 0, "rental_uris": {"ios": "https://dc.lft.to/lastmile_qr_scan", "android": "https://dc.lft.to/lastmile_qr_scan"}, "is_reserved": 0}, {"lon": -77.02959066666666, "bike_id": "86efd75f6e6d8c2bf2d89b1e94cfdb72", "lat": 38.904888666666665, "fusion_lon": 0.0, "fusion_lat": 0.0, "type": "electric_scooter", "name": "86efd75f6e6d8c2bf2d89b1e94cfdb72", "is_disabled": 0, "rental_uris": {"ios": "https://dc.lft.to/lastmile_qr_scan", "android": "https://dc.lft.to/lastmile_qr_scan"}, "is_reserved": 0}, {"lon": -77.01849566666667, "bike_id": "6e2037eb92840a9a6ca804611e209d85", "lat": 38.90362483333333, "fusion_lon": 0.0, "fusion_lat": 0.0, "type": "electric_scooter", "name": "6e2037eb92840a9a6ca804611e209d85", "is_disabled": 0, "rental_uris": {"ios": "https://dc.lft.to/lastmile_qr_scan", "android": "https://dc.lft.to/lastmile_qr_scan"}, "is_reserved": 0}, {"lon": -77.03285733333334, "bike_id": "8ef076fd9d8930b4347ea05ffa7fe79c", "lat": 38.9348665, "fusion_lon": 0.0, "fusion_lat": 0.0, "type": "electric_scooter", "name": "8ef076fd9d8930b4347ea05ffa7fe79c", "is_disabled": 0, "rental_uris": {"ios": "https://dc.lft.to/lastmile_qr_scan", "android": "https://dc.lft.to/lastmile_qr_scan"}, "is_reserved": 0}, {"lon": -76.99507183333333, "bike_id": "e19c6c91861297119204e3d91e0c1055", "lat": 38.883072, "fusion_lon": 0.0, "fusion_lat": 0.0, "type": "electric_scooter", "name": "e19c6c91861297119204e3d91e0c1055", "is_disabled": 0, "rental_uris": {"ios": "https://dc.lft.to/lastmile_qr_scan", "android": "https://dc.lft.to/lastmile_qr_scan"}, "is_reserved": 0}, {"lon": -77.045407, "bike_id": "7a305fc3dff4df174a6a397020d9985b", "lat": 38.913245833333335, "fusion_lon": 0.0, "fusion_lat": 0.0, "type": "electric_scooter", "name": "7a305fc3dff4df174a6a397020d9985b", "is_disabled": 0, "rental_uris": {"ios": "https://dc.lft.to/lastmile_qr_scan", "android": "https://dc.lft.to/lastmile_qr_scan"}, "is_reserved": 0}, {"lon": -77.02509183333333, "bike_id": "657c498d982ea3f22f50ab93fc588bec", "lat": 38.91921333333333, "fusion_lon": 0.0, "fusion_lat": 0.0, "type": "electric_scooter", "name": "657c498d982ea3f22f50ab93fc588bec", "is_disabled": 0, "rental_uris": {"ios": "https://dc.lft.to/lastmile_qr_scan", "android": "https://dc.lft.to/lastmile_qr_scan"}, "is_reserved": 0}, {"lon": -76.99482416666666, "bike_id": "2135f3c570a0b731f44ef1b946165b45", "lat": 38.8974035, "fusion_lon": 0.0, "fusion_lat": 0.0, "type": "electric_scooter", "name": "2135f3c570a0b731f44ef1b946165b45", "is_disabled": 0, "rental_uris": {"ios": "https://dc.lft.to/lastmile_qr_scan", "android": "https://dc.lft.to/lastmile_qr_scan"}, "is_reserved": 0}, {"lon": -77.02163166666666, "bike_id": "b186ad6f8a4e67a73c6ba1e6b045198c", "lat": 38.897239666666664, "fusion_lon": 0.0, "fusion_lat": 0.0, "type": "electric_scooter", "name": "b186ad6f8a4e67a73c6ba1e6b045198c", "is_disabled": 0, "rental_uris": {"ios": "https://dc.lft.to/lastmile_qr_scan", "android": "https://dc.lft.to/lastmile_qr_scan"}, "is_reserved": 0}, {"lon": -77.02903466666666, "bike_id": "c43989997709daac74e07e14bf8d7183", "lat": 38.94038183333333, "fusion_lon": 0.0, "fusion_lat": 0.0, "type": "electric_scooter", "name": "c43989997709daac74e07e14bf8d7183", "is_disabled": 0, "rental_uris": {"ios": "https://dc.lft.to/lastmile_qr_scan", "android": "https://dc.lft.to/lastmile_qr_scan"}, "is_reserved": 0}, {"lon": -77.029007, "bike_id": "59f51e25c89510545918cfa060c48c1f", "lat": 38.9281925, "fusion_lon": 0.0, "fusion_lat": 0.0, "type": "electric_scooter", "name": "59f51e25c89510545918cfa060c48c1f", "is_disabled": 0, "rental_uris": {"ios": "https://dc.lft.to/lastmile_qr_scan", "android": "https://dc.lft.to/lastmile_qr_scan"}, "is_reserved": 0}, {"lon": -77.02627066666666, "bike_id": "a742f01be375940b9c781458cd397e98", "lat": 38.88355983333334, "fusion_lon": 0.0, "fusion_lat": 0.0, "type": "electric_scooter", "name": "a742f01be375940b9c781458cd397e98", "is_disabled": 0, "rental_uris": {"ios": "https://dc.lft.to/lastmile_qr_scan", "android": "https://dc.lft.to/lastmile_qr_scan"}, "is_reserved": 0}, {"lon": -76.98510183333333, "bike_id": "02df9a709e776bafc12d6c7018865a3a", "lat": 38.88078516666667, "fusion_lon": 0.0, "fusion_lat": 0.0, "type": "electric_scooter", "name": "02df9a709e776bafc12d6c7018865a3a", "is_disabled": 0, "rental_uris": {"ios": "https://dc.lft.to/lastmile_qr_scan", "android": "https://dc.lft.to/lastmile_qr_scan"}, "is_reserved": 0}, {"lon": -77.0376015, "bike_id": "140435ef0db590252bcc5b12f2864368", "lat": 38.90774316666667, "fusion_lon": 0.0, "fusion_lat": 0.0, "type": "electric_scooter", "name": "140435ef0db590252bcc5b12f2864368", "is_disabled": 0, "rental_uris": {"ios": "https://dc.lft.to/lastmile_qr_scan", "android": "https://dc.lft.to/lastmile_qr_scan"}, "is_reserved": 0},