{"data": {"bikes": [{"is_disabled": 0, "fusion_lat": 0.0, "lat": 38.83679516666667, "type": "electric_scooter", "lon": -77.00590066666666, "is_reserved": 0, "fusion_lon": 0.0, "bike_id": "a4f5593f9fe4ecca9186815943210eb9", "name": "a4f5593f9fe4ecca9186815943210eb9", "rental_uris": {"ios": "https://dc.lft.to/lastmile_qr_scan", "android": "https://dc.lft.to/lastmile_qr_scan"}}, {"is_disabled": 0, "fusion_lat": 0.0, "lat": 38.93608366666667, "type": "electric_scooter", "lon": -77.08166266666667, "is_reserved": 0, "fusion_lon": 0.0, "bike_id": "95f5110df0cb38ea4c4379ca9955aa40", "name": "95f5110df0cb38ea4c4379ca9955aa40", "rental_uris": {"ios": "https://dc.lft.to/lastmile_qr_scan", "android": "https://dc.lft.to/lastmile_qr_scan"}}, {"is_disabled": 0, "fusion_lat": 0.0, "lat": 38.938488, "type": "electric_scooter", "lon": -77.03385616666667, "is_reserved": 0, "fusion_lon": 0.0, "bike_id": "4a3e65956060fd22b476508963a06019", "name": "4a3e65956060fd22b476508963a06019", "rental_uris": {"ios": "https://dc.lft.to/lastmile_qr_scan", "android": "https://dc.lft.to/lastmile_qr_scan"}}, {"is_disabled": 0, "fusion_lat": 0.0, "lat": 38.92362833333333, "type": "electric_scooter", "lon": -77.050863, "is_reserved": 0, "fusion_lon": 0.0, "bike_id": "5e6b1e5e847d6462a98b99777b8edc7b", "name": "5e6b1e5e847d6462a98b99777b8edc7b", "rental_uris": {"ios": "https://dc.lft.to/lastmile_qr_scan", "android": "https://dc.lft.to/lastmile_qr_scan"}}, {"is_disabled": 0, "fusion_lat": 0.0, "lat": 38.934975666666666, "type": "electric_scooter", "lon": -77.0580185, "is_reserved": 0, "fusion_lon": 0.0, "bike_id": "c41435b5e6220c6b1c5d867a87697254", "name": "c41435b5e6220c6b1c5d867a87697254", "rental_uris": {"ios": "https://dc.lft.to/lastmile_qr_scan", "android": "https://dc.lft.to/lastmile_qr_scan"}}, {"is_disabled": 0, "fusion_lat": 0.0, "lat": 38.88041, "type": "electric_scooter", "lon": -77.01930666666667, "is_reserved": 0, "fusion_lon": 0.0, "bike_id": "73be8034e88d0d8194dbf3f8ed17adef", "name": "73be8034e88d0d8194dbf3f8ed17adef", "rental_uris": {"ios": "https://dc.lft.to/lastmile_qr_scan", "android": "https://dc.lft.to/lastmile_qr_scan"}}, {"is_disabled": 0, "fusion_lat": 0.0, "lat": 38.93675416666667, "type": "electric_bike", "lon": -76.95225383333333, "is_reserved": 0, "fusion_lon": 0.0, "bike_id": "0eec24901165a9f21f80d14cce8a4e5a", "name": "0eec24901165a9f21f80d14cce8a4e5a", "rental_uris": {"ios": "https://dc.lft.to/lastmile_qr_scan", "android": "https://dc.lft.to/lastmile_qr_scan"}}, {"is_disabled": 0, "fusion_lat": 0.0, "lat": 38.90507433333333, "type": "electric_scooter", "lon": -76.97917783333334, "is_reserved": 0, "fusion_lon": 0.0, "bike_id": "9ac7c74fa349de9766508dc3b12cfd6d", "name": "9ac7c74fa349de9766508dc3b12cfd6d", "rental_uris": {"ios": "https://dc.lft.to/lastmile_qr_scan", "android": "https://dc.lft.to/lastmile_qr_scan"}}, {"is_disabled": 0, "fusion_lat": 0.0, "lat": 38.870146166666665, "type": "electric_bike", "lon": -76.96017316666666, "is_reserved": 0, "fusion_lon": 0.0, "bike_id": "2d65fcd70942ca0e85b55c3bf741a5de", "name": "2d65fcd70942ca0e85b55c3bf741a5de", "rental_uris": {"ios": "https://dc.lft.to/lastmile_qr_scan", "android": "https://dc.lft.to/lastmile_qr_scan"}}, {"is_disabled": 0, "fusion_lat": 0.0, "lat": 38.918364833333335, "type": "electric_scooter", "lon": -77.03224883333333, "is_reserved": 0, "fusion_lon": 0.0, "bike_id": "c8e2bc9dae289711175dbad8586bf742", "name": "c8e2bc9dae289711175dbad8586bf742", "rental_uris": {"ios": "https://dc.lft.to/lastmile_qr_scan", "android": "https://dc.lft.to/lastmile_qr_scan"}}, {"is_disabled": 0, "fusion_lat": 0.0, "lat": 38.91757533333333, "type": "electric_scooter", "lon": -77.03188783333333, "is_reserved": 0, "fusion_lon": 0.0, "bike_id": "9edd8ad8f85a0f0fa6532a24e6fea3c9", "name": "9edd8ad8f85a0f0fa6532a24e6fea3c9", "rental_uris": {"ios": "https://dc.lft.to/lastmile_qr_scan", "android": "https://dc.lft.to/lastmile_qr_scan"}}, {"is_disabled": 0, "fusion_lat": 0.0, "lat": 38.90256883333333, "type": "electric_scooter", "lon": -77.01776366666667, "is_reserved": 0, "fusion_lon": 0.0, "bike_id": "700320d07ea14b7344de4592de0f6a25", "name": "700320d07ea14b7344de4592de0f6a25", "rental_uris": {"ios": "https://dc.lft.to/lastmile_qr_scan", "android": "https://dc.lft.to/lastmile_qr_scan"}}, {"is_disabled": 0, "fusion_lat": 0.0, "lat": 38.927748666666666, "type": "electric_scooter", "lon": -77.02708716666666, "is_reserved": 0, "fusion_lon": 0.0, "bike_id": "d72346ba2e830bb80fb05a0ac80f7533", "name": "d72346ba2e830bb80fb05a0ac80f7533", "rental_uris": {"ios": "https://dc.lft.to/lastmile_qr_scan", "android": "https://dc.lft.to/lastmile_qr_scan"}}, {"is_disabled": 0, "fusion_lat": 0.0, "lat": 38.90031483333333, "type": "electric_scooter", "lon": -76.99757066666666, "is_reserved": 0, "fusion_lon": 0.0, "bike_id": "a080362ee64e341ea6a99d62a2ef0596", "name": "a080362ee64e341ea6a99d62a2ef0596", "rental_uris": {"ios": "https://dc.lft.to/lastmile_qr_scan", "android": "https://dc.lft.to/lastmile_qr_scan"}}, {"is_disabled": 0, "fusion_lat": 0.0, "lat": 38.9417545, "type": "electric_scooter", "lon": -77.023393, "is_reserved": 0, "fusion_lon": 0.0, "bike_id": "60271caec0c1240d2bebc68cb4b5eed6", "name": "60271caec0c1240d2bebc68cb4b5eed6", "rental_uris": {"ios": "https://dc.lft.to/lastmile_qr_scan", "android": "https://dc.lft.to/lastmile_qr_scan"}}, {"is_disabled": 0, "fusion_lat": 0.0, "lat": 38.92985983333333, "type": "electric_scooter", "lon": -77.03650683333333, "is_reserved": 0, "fusion_lon": 0.0, "bike_id": "ece35f7402b3cfdeff16266da920f664", "name": "ece35f7402b3cfdeff16266da920f664", "rental_uris": {"ios": "https://dc.lft.to/lastmile_qr_scan", "android": "https://dc.lft.to/lastmile_qr_scan"}}, {"is_disabled": 0, "fusion_lat": 0.0, "lat": 38.90964, "type": "electric_scooter", "lon": -77.01436233333334, "is_reserved": 0, "fusion_lon": 0.0, "bike_id": "6357645fbb995f9743edc5b069c8bdc8", "name": "6357645fbb995f9743edc5b069c8bdc8", "rental_uris": {"ios": "https://dc.lft.to/lastmile_qr_scan", "android": "https://dc.lft.to/lastmile_qr_scan"}}, {"is_disabled": 0, "fusion_lat": 0.0, "lat": 38.92384633333333, "type": "electric_scooter", "lon": -77.0255605, "is_reserved": 0, "fusion_lon": 0.0, "bike_id": "133bad254255235203de4e933d7df109", "name": "133bad254255235203de4e933d7df109", "rental_uris": {"ios": "https://dc.lft.to/lastmile_qr_scan", "android": "https://dc.lft.to/lastmile_qr_scan"}}, {"is_disabled": 0, "fusion_lat": 0.0, "lat": 38.9416415, "type": "electric_scooter", "lon": -77.02534966666667, "is_reserved": 0, "fusion_lon": 0.0, "bike_id": "a285a89ceed852d9d74dc4179d5ef1cc", "name": "a285a89ceed852d9d74dc4179d5ef1cc", "rental_uris": {"ios": "https://dc.lft.to/lastmile_qr_scan", "android": "https://dc.lft.to/lastmile_qr_scan"}}, {"is_disabled": 0, "fusion_lat": 0.0, "lat": 38.92076866666667, "type": "electric_scooter", "lon": -77.023918, "is_reserved": 0, "fusion_lon": 0.0, "bike_id": "04e0206f3f16c42a148d1397750d9e12", "name": "04e0206f3f16c42a148d1397750d9e12", "rental_uris": {"ios": "https://dc.lft.to/lastmile_qr_scan", "android": "https://dc.lft.to/lastmile_qr_scan"}}, {"is_disabled": 0, "fusion_lat": 0.0, "lat": 38.904997, "type": "electric_scooter", "lon": -77.062856, "is_reserved": 0, "fusion_lon": 0.0, "bike_id": "114cb9f69a40eaac223a4c5177dd02dc", "name": "114cb9f69a40eaac223a4c5177dd02dc", "rental_uris": {"ios": "https://dc.lft.to/lastmile_qr_scan", "android": "https://dc.lft.to/lastmile_qr_scan"}}, {"is_disabled": 0, "fusion_lat": 0.0, "lat": 38.92452933333333, "type": "electric_scooter", "lon": -77.03269183333333, "is_reserved": 0, "fusion_lon": 0.0, "bike_id": "81565b1008993c376590b19593f60522", "name": "81565b1008993c376590b19593f60522", "rental_uris": {"ios": "https://dc.lft.to/lastmile_qr_scan", "android": "https://dc.lft.to/lastmile_qr_scan"}}, {"is_disabled": 0, "fusion_lat": 0.0, "lat": 38.896138666666666, "type": "electric_scooter", "lon": -77.027924, "is_reserved": 0, "fusion_lon": 0.0, "bike_id": "d266f12e65b2a465a35c900edf8b4a94", "name": "d266f12e65b2a465a35c900edf8b4a94", "rental_uris": {"ios": "https://dc.lft.to/lastmile_qr_scan", "android": "https://dc.lft.to/lastmile_qr_scan"}}, {"is_disabled": 0, "fusion_lat": 0.0, "lat": 38.86282816666667, "type": "electric_scooter", "lon": -76.99231, "is_reserved": 0, "fusion_lon": 0.0, "bike_id": "9025ab0225b8803187f49a14cfd8a98c", "name": "9025ab0225b8803187f49a14cfd8a98c", "rental_uris": {"ios": "https://dc.lft.to/lastmile_qr_scan", "android": "https://dc.lft.to/lastmile_qr_scan"}}, {"is_disabled": 0, "fusion_lat": 0.0, "lat": 38.9171505, "type": "electric_scooter", "lon": -77.00887016666667, "is_reserved": 0, "fusion_lon": 0.0, "bike_id": "c10a2267ed8788b5058764bb79fef38d", "name": "c10a2267ed8788b5058764bb79fef38d", "rental_uris": {"ios": "https://dc.lft.to/lastmile_qr_scan", "android": "https://dc.lft.to/lastmile_qr_scan"}}, {"is_disabled": 0, "fusion_lat": 0.0, "lat": 38.93591116666666, "type": "electric_scooter", "lon": -77.0350715, "is_reserved": 0, "fusion_lon": 0.0, "bike_id": "637083e90d62aecf6bdaf917da76d7fb", "name": "637083e90d62aecf6bdaf917da76d7fb", "rental_uris": {"ios": "https://dc.lft.to/lastmile_qr_scan", "android": "https://dc.lft.to/lastmile_qr_scan"}}, {"is_disabled": 0, "fusion_lat": 0.0, "lat": 38.86376466666667, "type": "electric_scooter", "lon": -76.9906065, "is_reserved": 0, "fusion_lon": 0.0, "bike_id": "bdc16cb26b0a6667afd1c8929a75472b", "name": "bdc16cb26b0a6667afd1c8929a75472b", "rental_uris": {"ios": "https://dc.lft.to/lastmile_qr_scan", "android": "https://dc.lft.to/lastmile_qr_scan"}}, {"is_disabled": 0, "fusion_lat": 0.0, "lat": 38.9391295, "type": "electric_scooter", "lon": -77.0603495, "is_reserved": 0, "fusion_lon": 0.0, "bike_id": "c404064d9f0883b3e4d3e69cbf4b30fb", "name": "c404064d9f0883b3e4d3e69cbf4b30fb", "rental_uris": {"ios": "https://dc.lft.to/lastmile_qr_scan", "android": "https://dc.lft.to/lastmile_qr_scan"}}, {"is_disabled": 0, "fusion_lat": 0.0, "lat": 38.9121955, "type": "electric_scooter", "lon": -77.03847733333333, "is_reserved": 0, "fusion_lon": 0.0, "bike_id": "43e8a9b4b0bb41cafc3fdbd7f27cc141", "name": "43e8a9b4b0bb41cafc3fdbd7f27cc141", "rental_uris": {"ios": "https://dc.lft.to/lastmile_qr_scan", "android": "https://dc.lft.to/lastmile_qr_scan"}}, {"is_disabled": 0, "fusion_lat": 0.0, "lat": 38.865269833333336, "type": "electric_scooter", "lon": -76.99031666666667, "is_reserved": 0, "fusion_lon": 0.0, "bike_id": "2a3c9f6c65133ac1dcd7cbc26901ab69", "name": "2a3c9f6c65133ac1dcd7cbc26901ab69", "rental_uris": {"ios": "https://dc.lft.to/lastmile_qr_scan", "android": "https://dc.lft.to/lastmile_qr_scan"}}, {"is_disabled": 0, "fusion_lat": 0.0, "lat": 38.93981133333333, "type": "electric_scooter", "lon": -77.03141366666667, "is_reserved": 0, "fusion_lon": 0.0, "bike_id": "0b1876641802c4caf8658b5d368a71df", "name": "0b1876641802c4caf8658b5d368a71df", "rental_uris": {"ios": "https://dc.lft.to/lastmile_qr_scan", "android": "https://dc.lft.to/lastmile_qr_scan"}}, {"is_disabled": 0, "fusion_lat": 0.0, "lat": 38.91398816666667, "type": "electric_scooter", "lon": -76.98417966666666, "is_reserved": 0, "fusion_lon": 0.0, "bike_id": "7a0870081d5a7bed416bd4b9fe9a7ce0", "name": "7a0870081d5a7bed416bd4b9fe9a7ce0", "rental_uris": {"ios": "https://dc.lft.to/lastmile_qr_scan", "android": "https://dc.lft.to/lastmile_qr_scan"}}, {"is_disabled": 0, "fusion_lat": 0.0, "lat": 38.9020915, "type": "electric_scooter", "lon": -77.02368316666667, "is_reserved": 0, "fusion_lon": 0.0, "bike_id": "b970e52efa3feb1d938c2897a71f1682", "name": "b970e52efa3feb1d938c2897a71f1682", "rental_uris": {"ios": "https://dc.lft.to/lastmile_qr_scan", "android": "https://dc.lft.to/lastmile_qr_scan"}}, {"is_disabled": 0, "fusion_lat": 0.0, "lat": 38.91416516666666, "type": "electric_scooter", "lon": -77.01962016666667, "is_reserved": 0, "fusion_lon": 0.0, "bike_id": "53762dfcbe7b61bc2c1d932974685141", "name": "53762dfcbe7b61bc2c1d932974685141", "rental_uris": {"ios": "https://dc.lft.to/lastmile_qr_scan", "android": "https://dc.lft.to/lastmile_qr_scan"}}, {"is_disabled": 0, "fusion_lat": 0.0, "lat": 38.8579455, "type": "electric_bike", "lon": -77.0996015, "is_reserved": 0, "fusion_lon": 0.0, "bike_id": "0ebba354acf236fa35c39e920df25dc5", "name": "0ebba354acf236fa35c39e920df25dc5", "rental_uris": {"ios": "https://dc.lft.to/lastmile_qr_scan", "android": "https://dc.lft.to/lastmile_qr_scan"}}, {"is_disabled": 0, "fusion_lat": 0.0, "lat": 38.95274366666666, "type": "electric_bike", "lon": -77.06979916666667, "is_reserved": 0, "fusion_lon": 0.0, "bike_id": "f99784b03a65a63c2f766dd9c8613304", "name": "f99784b03a65a63c2f766dd9c8613304", "rental_uris": {"ios": "https://dc.lft.to/lastmile_qr_scan", "android": "https://dc.lft.to/lastmile_qr_scan"}}, {"is_disabled": 0, "fusion_lat": 0.0, "lat": 38.876594833333336, "type": "electric_scooter", "lon": -77.00421833333333, "is_reserved": 0, "fusion_lon": 0.0, "bike_id": "206221f2456d18b19fb69f9d7c338857", "name": "206221f2456d18b19fb69f9d7c338857", "rental_uris": {"ios": "https://dc.lft.to/lastmile_qr_scan", "android": "https://dc.lft.to/lastmile_qr_scan"}}, {"is_disabled": 0, "fusion_lat": 0.0, "lat": 38.919075666666664, "type": "electric_scooter", "lon": -77.04627566666667, "is_reserved": 0, "fusion_lon": 0.0, "bike_id": "f26396981147d2c45f6f6b14dbb3ffb7", "name": "f26396981147d2c45f6f6b14dbb3ffb7", "rental_uris": {"ios": "https://dc.lft.to/lastmile_qr_scan", "android": "https://dc.lft.to/lastmile_qr_scan"}}, {"is_disabled": 0, "fusion_lat": 0.0, "lat": 38.926748333333336, "type": "electric_scooter", "lon": -76.99531533333334, "is_reserved": 0, "fusion_lon": 0.0, "bike_id": "8d132c0d2c1268ce10d726fec310bcf2", "name": "8d132c0d2c1268ce10d726fec310bcf2", "rental_uris": {"ios": "https://dc.lft.to/lastmile_qr_scan", "android": "https://dc.lft.to/lastmile_qr_scan"}}, {"is_disabled": 0, "fusion_lat": 0.0, "lat": 38.873687833333335, "type": "electric_scooter", "lon": -77.00095716666667, "is_reserved": 0, "fusion_lon": 0.0, "bike_id": "37aaf1a1f59ade9b7299e16c8c224f10", "name": "37aaf1a1f59ade9b7299e16c8c224f10", "rental_uris": {"ios": "https://dc.lft.to/lastmile_qr_scan", "android": "https://dc.lft.to/lastmile_qr_scan"}}, {"is_disabled": 0, "fusion_lat": 0.0, "lat": 38.903128, "type": "electric_scooter", "lon": -77.05181733333333, "is_reserved": 0, "fusion_lon": 0.0, "bike_id": "dbf0173461c22e7b70aa306f550e4a32", "name": "dbf0173461c22e7b70aa306f550e4a32", "rental_uris": {"ios": "https://dc.lft.to/lastmile_qr_scan", "android": "https://dc.lft.to/lastmile_qr_scan"}}, {"is_disabled": 0, "fusion_lat": 0.0, "lat": 38.904223, "type": "electric_scooter", "lon": -77.03214283333334, "is_reserved": 0, "fusion_lon": 0.0, "bike_id": "3a56cecb25f9636967e4ed8f7d9fff11", "name": "3a56cecb25f9636967e4ed8f7d9fff11", "rental_uris": {"ios": "https://dc.lft.to/lastmile_qr_scan", "android": "https://dc.lft.to/lastmile_qr_scan"}}, {"is_disabled": 0, "fusion_lat": 0.0, "lat": 38.916823, "type": "electric_scooter", "lon": -77.0368685, "is_reserved": 0, "fusion_lon": 0.0, "bike_id": "0930e93ec1154cab06834141996fb832", "name": "0930e93ec1154cab06834141996fb832", "rental_uris": {"ios": "https://dc.lft.to/lastmile_qr_scan", "android": "https://dc.lft.to/lastmile_qr_scan"}}, {"is_disabled": 0, "fusion_lat": 0.0, "lat": 38.876301166666664, "type": "electric_scooter", "lon": -76.96524083333334, "is_reserved": 0, "fusion_lon": 0.0, "bike_id": "27998ab4bf781fb68333863745c30f31", "name": "27998ab4bf781fb68333863745c30f31", "rental_uris": {"ios": "https://dc.lft.to/lastmile_qr_scan", "android": "https://dc.lft.to/lastmile_qr_scan"}}, {"is_disabled": 0, "fusion_lat": 0.0, "lat": 38.910182166666665, "type": "electric_scooter", "lon": -77.0290985, "is_reserved": 0, "fusion_lon": 0.0, "bike_id": "499d029f1e4c079c586df28a25d45678", "name": "499d029f1e4c079c586df28a25d45678", "rental_uris": {"ios": "https://dc.lft.to/lastmile_qr_scan", "android": "https://dc.lft.to/lastmile_qr_scan"}}, {"is_disabled": 0, "fusion_lat": 0.0, "lat": 38.92192166666667, "type": "electric_scooter", "lon": -77.0320315, "is_reserved": 0, "fusion_lon": 0.0, "bike_id": "da89500fd32c96bd228a7efab5807629", "name": "da89500fd32c96bd228a7efab5807629", "rental_uris": {"ios": "https://dc.lft.to/lastmile_qr_scan", "android": "https://dc.lft.to/lastmile_qr_scan"}}, {"is_disabled": 0, "fusion_lat": 0.0, "lat": 38.8932995, "type": "electric_scooter", "lon": -76.92991816666667, "is_reserved": 0, "fusion_lon": 0.0, "bike_id": "677879171f807fb9778f98a220eb8089", "name": "677879171f807fb9778f98a220eb8089", "rental_uris": {"ios": "https://dc.lft.to/lastmile_qr_scan", "android": "https://dc.lft.to/lastmile_qr_scan"}}, {"is_disabled": 0, "fusion_lat": 0.0, "lat": 38.90517333333333, "type": "electric_scooter", "lon": -76.98836483333334, "is_reserved": 0, "fusion_lon": 0.0, "bike_id": "36d16a4e03b36be97e89bea8e5b53d02", "name": "36d16a4e03b36be97e89bea8e5b53d02", "rental_uris": {"ios": "https://dc.lft.to/lastmile_qr_scan", "android": "https://dc.lft.to/lastmile_qr_scan"}}, {"is_disabled": 0, "fusion_lat": 0.0, "lat": 38.9051585, "type": "electric_scooter", "lon": -77.05137266666667, "is_reserved": 0, "fusion_lon": 0.0, "bike_id": "00095556d1efb0776c966ec92227700a", "name": "00095556d1efb0776c966ec92227700a", "rental_uris": {"ios": "https://dc.lft.to/lastmile_qr_scan", "android": "https://dc.lft.to/lastmile_qr_scan"}}, {"is_disabled": 0, "fusion_lat": 0.0, "lat": 38.884842666666664, "type": "electric_scooter", "lon": -77.01507366666667, "is_reserved": 0, "fusion_lon": 0.0, "bike_id": "4d838592f5179d3d1efe090b0255ebb0", "name": "4d838592f5179d3d1efe090b0255ebb0", "rental_uris": {"ios": "https://dc.lft.to/lastmile_qr_scan", "android": "https://dc.lft.to/lastmile_qr_scan"}}, {"is_disabled": 0, "fusion_lat": 0.0, "lat": 38.907188833333336, "type": "electric_scooter", "lon": -77.04356316666667, "is_reserved": 0, "fusion_lon": 0.0, "bike_id": "56fd48533e9fce95b439a90a821a098d", "name": "56fd48533e9fce95b439a90a821a098d", "rental_uris": {"ios": "https://dc.lft.to/lastmile_qr_scan", "android": "https://dc.lft.to/lastmile_qr_scan"}}, {"is_disabled": 0, "fusion_lat": 0.0, "lat": 38.963934333333334, "type": "electric_scooter", "lon": -77.02592666666666, "is_reserved": 0, "fusion_lon": 0.0, "bike_id": "34dff8d546bcad23a9c994486d82b0a0", "name": "34dff8d546bcad23a9c994486d82b0a0", "rental_uris": {"ios": "https://dc.lft.to/lastmile_qr_scan", "android": "https://dc.lft.to/lastmile_qr_scan"}}, {"is_disabled": 0, "fusion_lat": 0.0, "lat": 38.849363833333335, "type": "electric_bike", "lon": -77.1001525, "is_reserved": 0, "fusion_lon": 0.0, "bike_id": "9a7449a531ae19ec4479df9afe629fb9", "name": "9a7449a531ae19ec4479df9afe629fb9", "rental_uris": {"ios": "https://dc.lft.to/lastmile_qr_scan", "android": "https://dc.lft.to/lastmile_qr_scan"}}, {"is_disabled": 0, "fusion_lat": 0.0, "lat": 38.92137266666667, "type": "electric_scooter", "lon": -77.01791333333334, "is_reserved": 0, "fusion_lon": 0.0, "bike_id": "7e2ea55be968da731957e48e199da325", "name": "7e2ea55be968da731957e48e199da325", "rental_uris": {"ios": "https://dc.lft.to/lastmile_qr_scan", "android": "https://dc.lft.to/lastmile_qr_scan"}}, {"is_disabled": 0, "fusion_lat": 0.0, "lat": 38.92005983333333, "type": "electric_scooter", "lon": -77.031966, "is_reserved": 0, "fusion_lon": 0.0, "bike_id": "382f9e169e070b74731ac8023c7f2fd9", "name": "382f9e169e070b74731ac8023c7f2fd9", "rental_uris": {"ios": "https://dc.lft.to/lastmile_qr_scan", "android": "https://dc.lft.to/lastmile_qr_scan"}}, {"is_disabled": 0, "fusion_lat": 0.0, "lat": 38.914927166666665, "type": "electric_scooter", "lon": -76.98379216666666, "is_reserved": 0, "fusion_lon": 0.0, "bike_id": "23d56882b3074e3a9457284ebf65da8a", "name": "23d56882b3074e3a9457284ebf65da8a", "rental_uris": {"ios": "https://dc.lft.to/lastmile_qr_scan", "android": "https://dc.lft.to/lastmile_qr_scan"}}, {"is_disabled": 0, "fusion_lat": 0.0, "lat": 38.90564883333333, "type": "electric_scooter", "lon": -77.03818866666667, "is_reserved": 0, "fusion_lon": 0.0, "bike_id": "d605b970b224feda7c2a936f4948ece3", "name": "d605b970b224feda7c2a936f4948ece3", "rental_uris": {"ios": "https://dc.lft.to/lastmile_qr_scan", "android": "https://dc.lft.to/lastmile_qr_scan"}}, {"is_disabled": 0, "fusion_lat": 0.0, "lat": 38.962234333333335, "type": "electric_bike", "lon": -77.02632616666666, "is_reserved": 0, "fusion_lon": 0.0, "bike_id": "1f97e2b1537dc5f674f346abf1f2f29f", "name": "1f97e2b1537dc5f674f346abf1f2f29f", "rental_uris": {"ios": "https://dc.lft.to/lastmile_qr_scan", "android": "https://dc.lft.to/lastmile_qr_scan"}}, {"is_disabled": 0, "fusion_lat": 0.0, "lat": 38.85769033333333, "type": "electric_bike", "lon": -76.98765633333333, "is_reserved": 0, "fusion_lon": 0.0, "bike_id": "44c66188898e12fa623ad3e6e78c4dd2", "name": "44c66188898e12fa623ad3e6e78c4dd2", "rental_uris": {"ios": "https://dc.lft.to/lastmile_qr_scan", "android": "https://dc.lft.to/lastmile_qr_scan"}}, {"is_disabled": 0, "fusion_lat": 0.0, "lat": 38.901281, "type": "electric_scooter", "lon": -77.0027975, "is_reserved": 0, "fusion_lon": 0.0, "bike_id": "db7c0d02f24351cd2025bb06b185f721", "name": "db7c0d02f24351cd2025bb06b185f721", "rental_uris": {"ios": "https://dc.lft.to/lastmile_qr_scan", "android": "https://dc.lft.to/lastmile_qr_scan"}}, {"is_disabled": 0, "fusion_lat": 0.0, "lat": 38.930926166666666, "type": "electric_scooter", "lon": -77.03750266666667, "is_reserved": 0, "fusion_lon": 0.0, "bike_id": "7180a44d1a14e606d715cce7c6303333", "name": "7180a44d1a14e606d715cce7c6303333", "rental_uris": {"ios": "https://dc.lft.to/lastmile_qr_scan", "android": "https://dc.lft.to/lastmile_qr_scan"}}, {"is_disabled": 0, "fusion_lat": 0.0, "lat": 38.93056083333333, "type": "electric_scooter", "lon": -77.02651783333333, "is_reserved": 0, "fusion_lon": 0.0, "bike_id": "887cd6bf4f8ce15049736fbcb80f8b46", "name": "887cd6bf4f8ce15049736fbcb80f8b46", "rental_uris": {"ios": "https://dc.lft.to/lastmile_qr_scan", "android": "https://dc.lft.to/lastmile_qr_scan"}}, {"is_disabled": 0, "fusion_lat": 0.0, "lat": 38.86620583333333, "type": "electric_scooter", "lon": -76.98699183333333, "is_reserved": 0, "fusion_lon": 0.0, "bike_id": "82b264d3ac2b588f48a93536bf313085", "name": "82b264d3ac2b588f48a93536bf313085", "rental_uris": {"ios": "https://dc.lft.to/lastmile_qr_scan", "android": "https://dc.lft.to/lastmile_qr_scan"}}, {"is_disabled": 0, "fusion_lat": 0.0, "lat": 38.842962166666666, "type": "electric_scooter", "lon": -76.99943066666667, "is_reserved": 0, "fusion_lon": 0.0, "bike_id": "8c39af6a2127a8c7943643a8a7a14c47", "name": "8c39af6a2127a8c7943643a8a7a14c47", "rental_uris": {"ios": "https://dc.lft.to/lastmile_qr_scan", "android": "https://dc.lft.to/lastmile_qr_scan"}}, {"is_disabled": 0, "fusion_lat": 0.0, "lat": 38.893724166666665, "type": "electric_scooter", "lon": -76.9499705, "is_reserved": 0, "fusion_lon": 0.0, "bike_id": "72388f158a74657b7d07183c7a1badec", "name": "72388f158a74657b7d07183c7a1badec", "rental_uris": {"ios": "https://dc.lft.to/lastmile_qr_scan", "android": "https://dc.lft.to/lastmile_qr_scan"}}, {"is_disabled": 0, "fusion_lat": 0.0, "lat": 38.905579, "type": "electric_scooter", "lon": -77.007205, "is_reserved": 0, "fusion_lon": 0.0, "bike_id": "19cb8fb6e1bc1e9b3ef663453f06c165", "name": "19cb8fb6e1bc1e9b3ef663453f06c165", "rental_uris": {"ios": "https://dc.lft.to/lastmile_qr_scan", "android": "https://dc.lft.to/lastmile_qr_scan"}}, {"is_disabled": 0, "fusion_lat": 0.0, "lat": 38.918913833333335, "type": "electric_scooter", "lon": -77.02970016666667, "is_reserved": 0, "fusion_lon": 0.0, "bike_id": "718b83adb2bb218741984ca174aa3c29", "name": "718b83adb2bb218741984ca174aa3c29", "rental_uris": {"ios": "https://dc.lft.to/lastmile_qr_scan", "android": "https://dc.lft.to/lastmile_qr_scan"}}, {"is_disabled": 0, "fusion_lat": 0.0, "lat": 38.928618, "type": "electric_scooter", "lon": -77.028783, "is_reserved": 0, "fusion_lon": 0.0, "bike_id": "62913a0597b0483ec51c573afbc8e8c8", "name": "62913a0597b0483ec51c573afbc8e8c8", "rental_uris": {"ios": "https://dc.lft.to/lastmile_qr_scan", "android": "https://dc.lft.to/lastmile_qr_scan"}}, {"is_disabled": 0, "fusion_lat": 0.0, "lat": 38.90260683333333, "type": "electric_scooter", "lon": -77.01859916666666, "is_reserved": 0, "fusion_lon": 0.0, "bike_id": "ce48abd7714b199a6184cbbe0dcff4ca", "name": "ce48abd7714b199a6184cbbe0dcff4ca", "rental_uris": {"ios": "https://dc.lft.to/lastmile_qr_scan", "android": "https://dc.lft.to/lastmile_qr_scan"}}, {"is_disabled": 0, "fusion_lat": 0.0, "lat": 38.912652333333334, "type": "electric_scooter", "lon": -77.0363035, "is_reserved": 0, "fusion_lon": 0.0, "bike_id": "b42fec41aef8f2f861d9549c80332629", "name": "b42fec41aef8f2f861d9549c80332629", "rental_uris": {"ios": "https://dc.lft.to/lastmile_qr_scan", "android": "https://dc.lft.to/lastmile_qr_scan"}}, {"is_disabled": 0, "fusion_lat": 0.0, "lat": 38.915511, "type": "electric_scooter", "lon": -77.03851083333333, "is_reserved": 0, "fusion_lon": 0.0, "bike_id": "ddbc88eb2abe247fbe27e5bcb367c074", "name": "ddbc88eb2abe247fbe27e5bcb367c074", "rental_uris": {"ios": "https://dc.lft.to/lastmile_qr_scan", "android": "https://dc.lft.to/lastmile_qr_scan"}}, {"is_disabled": 0, "fusion_lat": 0.0, "lat": 38.863710166666664, "type": "electric_scooter", "lon": -76.9904335, "is_reserved": 0, "fusion_lon": 0.0, "bike_id": "c00b41fdb2b591e30e013bfd688c5850", "name": "c00b41fdb2b591e30e013bfd688c5850", "rental_uris": {"ios": "https://dc.lft.to/lastmile_qr_scan", "android": "https://dc.lft.to/lastmile_qr_scan"}}, {"is_disabled": 0, "fusion_lat": 0.0, "lat": 38.87120066666667, "type": "electric_scooter", "lon": -77.010753, "is_reserved": 0, "fusion_lon": 0.0, "bike_id": "0a1c2af7bfa163a162505ba7710cfe64", "name": "0a1c2af7bfa163a162505ba7710cfe64", "rental_uris": {"ios": "https://dc.lft.to/lastmile_qr_scan", "android": "https://dc.lft.to/lastmile_qr_scan"}}, {"is_disabled": 0, "fusion_lat": 0.0, "lat": 38.94509516666667, "type": "electric_bike", "lon": -77.00673183333333, "is_reserved": 0, "fusion_lon": 0.0, "bike_id": "40afc11da64babfe0db4edc17ece74da", "name": "40afc11da64babfe0db4edc17ece74da", "rental_uris": {"ios": "https://dc.lft.to/lastmile_qr_scan", "android": "https://dc.lft.to/lastmile_qr_scan"}}, {"is_disabled": 0, "fusion_lat": 0.0, "lat": 38.877345, "type": "electric_bike", "lon": -77.11847383333334, "is_reserved": 0, "fusion_lon": 0.0, "bike_id": "97712e0fa971e96fc4d5d570bd153b1e", "name": "97712e0fa971e96fc4d5d570bd153b1e", "rental_uris": {"ios": "https://dc.lft.to/lastmile_qr_scan", "android": "https://dc.lft.to/lastmile_qr_scan"}}, {"is_disabled": 0, "fusion_lat": 0.0, "lat": 38.95187083333333, "type": "electric_bike", "lon": -76.93543, "is_reserved": 0, "fusion_lon": 0.0, "bike_id": "aec4dfba87d19706dbaa1452646b47ce", "name": "aec4dfba87d19706dbaa1452646b47ce", "rental_uris": {"ios": "https://dc.lft.to/lastmile_qr_scan", "android": "https://dc.lft.to/lastmile_qr_scan"}}, {"is_disabled": 0, "fusion_lat": 0.0, "lat": 38.938299666666666, "type": "electric_scooter", "lon": -77.061712, "is_reserved": 0, "fusion_lon": 0.0, "bike_id": "9e84cfd7d8c175ec45258e11c43b9137", "name": "9e84cfd7d8c175ec45258e11c43b9137", "rental_uris": {"ios": "https://dc.lft.to/lastmile_qr_scan", "android": "https://dc.lft.to/lastmile_qr_scan"}}, {"is_disabled": 0, "fusion_lat": 0.0, "lat": 38.89839333333333, "type": "electric_scooter", "lon": -76.9310145, "is_reserved": 0, "fusion_lon": 0.0, "bike_id": "6487d1799a697b1827e07bea9d107895", "name": "6487d1799a697b1827e07bea9d107895", "rental_uris": {"ios": "https://dc.lft.to/lastmile_qr_scan", "android": "https://dc.lft.to/lastmile_qr_scan"}}, {"is_disabled": 0, "fusion_lat": 0.0, "lat": 38.90068683333333, "type": "electric_scooter", "lon": -77.04589633333333, "is_reserved": 0, "fusion_lon": 0.0, "bike_id": "81b8dbe6166db9f2328c385f11948d0a", "name": "81b8dbe6166db9f2328c385f11948d0a", "rental_uris": {"ios": "https://dc.lft.to/lastmile_qr_scan", "android": "https://dc.lft.to/lastmile_qr_scan"}}, {"is_disabled": 0, "fusion_lat": 0.0, "lat": 38.92706533333333, "type": "electric_scooter", "lon": -77.0232135, "is_reserved": 0, "fusion_lon": 0.0, "bike_id": "eec12705a41b74a2afe8a7ee2e53d640", "name": "eec12705a41b74a2afe8a7ee2e53d640", "rental_uris": {"ios": "https://dc.lft.to/lastmile_qr_scan", "android": "https://dc.lft.to/lastmile_qr_scan"}}, {"is_disabled": 0, "fusion_lat": 0.0, "lat": 38.925431, "type": "electric_scooter", "lon": -77.04107433333333, "is_reserved": 0, "fusion_lon": 0.0, "bike_id": "8832c8ada638aa2296f0690d8837bbc8", "name": "8832c8ada638aa2296f0690d8837bbc8", "rental_uris": {"ios": "https://dc.lft.to/lastmile_qr_scan", "android": "https://dc.lft.to/lastmile_qr_scan"}}, {"is_disabled": 0, "fusion_lat": 0.0, "lat": 38.908427333333336, "type": "electric_scooter", "lon": -77.085296, "is_reserved": 0, "fusion_lon": 0.0, "bike_id": "ea2208763ec7e9f04017213f85c039fc", "name": "ea2208763ec7e9f04017213f85c039fc", "rental_uris": {"ios": "https://dc.lft.to/lastmile_qr_scan", "android": "https://dc.lft.to/lastmile_qr_scan"}}, {"is_disabled": 0, "fusion_lat": 0.0, "lat": 38.9660655, "type": "electric_bike", "lon": -76.98334983333334, "is_reserved": 0, "fusion_lon": 0.0, "bike_id": "35d0c1043e82593a9984e262ecf156b7", "name": "35d0c1043e82593a9984e262ecf156b7", "rental_uris": {"ios": "https://dc.lft.to/lastmile_qr_scan", "android": "https://dc.lft.to/lastmile_qr_scan"}}, {"is_disabled": 0, "fusion_lat": 0.0, "lat": 38.9171875, "type": "electric_scooter", "lon": -77.0383795, "is_reserved": 0, "fusion_lon": 0.0, "bike_id": "c144895d92832c121d63bd0ed91c4830", "name": "c144895d92832c121d63bd0ed91c4830", "rental_uris": {"ios": "https://dc.lft.to/lastmile_qr_scan", "android": "https://dc.lft.to/lastmile_qr_scan"}}, {"is_disabled": 0, "fusion_lat": 0.0, "lat": 38.92145283333333, "type": "electric_scooter", "lon": -77.04229183333334, "is_reserved": 0, "fusion_lon": 0.0, "bike_id": "d33f3ba13198e0006f3ccc7f6075748b", "name": "d33f3ba13198e0006f3ccc7f6075748b", "rental_uris": {"ios": "https://dc.lft.to/lastmile_qr_scan", "android": "https://dc.lft.to/lastmile_qr_scan"}}, {"is_disabled": 0, "fusion_lat": 0.0, "lat": 38.93318216666667, "type": "electric_scooter", "lon": -77.029063, "is_reserved": 0, "fusion_lon": 0.0, "bike_id": "6492d695ff5d55265c20bc17681c60ac", "name": "6492d695ff5d55265c20bc17681c60ac", "rental_uris": {"ios": "https://dc.lft.to/lastmile_qr_scan", "android": "https://dc.lft.to/lastmile_qr_scan"}}, {"is_disabled": 0, "fusion_lat": 0.0, "lat": 38.9182385, "type": "electric_scooter", "lon": -77.03524916666667, "is_reserved": 0, "fusion_lon": 0.0, "bike_id": "803e73e17239b40e21ca013fb93b8503", "name": "803e73e17239b40e21ca013fb93b8503", "rental_uris": {"ios": "https://dc.lft.to/lastmile_qr_scan", "android": "https://dc.lft.to/lastmile_qr_scan"}}, {"is_disabled": 0, "fusion_lat": 0.0, "lat": 38.933843, "type": "electric_scooter", "lon": -77.03258516666666, "is_reserved": 0, "fusion_lon": 0.0, "bike_id": "5ae2e8bc7a9e306207e2cf8081af09e5", "name": "5ae2e8bc7a9e306207e2cf8081af09e5", "rental_uris": {"ios": "https://dc.lft.to/lastmile_qr_scan", "android": "https://dc.lft.to/lastmile_qr_scan"}}, {"is_disabled": 0, "fusion_lat": 0.0, "lat": 38.900629333333335, "type": "electric_scooter", "lon": -77.01283166666667, "is_reserved": 0, "fusion_lon": 0.0, "bike_id": "489e7b1c6dfc627e0454a054957e3592", "name": "489e7b1c6dfc627e0454a054957e3592", "rental_uris": {"ios": "https://dc.lft.to/lastmile_qr_scan", "android": "https://dc.lft.to/lastmile_qr_scan"}}, {"is_disabled": 0, "fusion_lat": 0.0, "lat": 38.886059, "type": "electric_scooter", "lon": -77.04504783333333, "is_reserved": 0, "fusion_lon": 0.0, "bike_id": "a78adae56d1cb0f79de773f142fedc13", "name": "a78adae56d1cb0f79de773f142fedc13", "rental_uris": {"ios": "https://dc.lft.to/lastmile_qr_scan", "android": "https://dc.lft.to/lastmile_qr_scan"}}, {"is_disabled": 0, "fusion_lat": 0.0, "lat": 38.90118433333333, "type": "electric_scooter", "lon": -77.02178983333333, "is_reserved": 0, "fusion_lon": 0.0, "bike_id": "fe9a9868c230a99676e676e2e6fd0df6", "name": "fe9a9868c230a99676e676e2e6fd0df6", "rental_uris": {"ios": "https://dc.lft.to/lastmile_qr_scan", "android": "https://dc.lft.to/lastmile_qr_scan"}}, {"is_disabled": 0, "fusion_lat": 0.0, "lat": 38.956383, "type": "electric_scooter", "lon": -77.03304283333334, "is_reserved": 0, "fusion_lon": 0.0, "bike_id": "f164929a872fe2762e5256222a609890", "name": "f164929a872fe2762e5256222a609890", "rental_uris": {"ios": "https://dc.lft.to/lastmile_qr_scan", "android": "https://dc.lft.to/lastmile_qr_scan"}}, {"is_disabled": 0, "fusion_lat": 0.0, "lat": 38.92681916666667, "type": "electric_scooter", "lon": -77.03049316666667, "is_reserved": 0, "fusion_lon": 0.0, "bike_id": "10159906b75f1e3850cc477c14b90f7c", "name": "10159906b75f1e3850cc477c14b90f7c", "rental_uris": {"ios": "https://dc.lft.to/lastmile_qr_scan", "android": "https://dc.lft.to/lastmile_qr_scan"}}, {"is_disabled": 0, "fusion_lat": 0.0, "lat": 38.93602966666667, "type": "electric_scooter", "lon": -77.03813933333333, "is_reserved": 0, "fusion_lon": 0.0, "bike_id": "accd5f4a914ecbc45c3a156082179cce", "name": "accd5f4a914ecbc45c3a156082179cce", "rental_uris": {"ios": "https://dc.lft.to/lastmile_qr_scan", "android": "https://dc.lft.to/lastmile_qr_scan"}}, {"is_disabled": 0, "fusion_lat": 0.0, "lat": 38.927277333333336, "type": "electric_scooter", "lon": -77.04110716666666, "is_reserved": 0, "fusion_lon": 0.0, "bike_id": "1914599fc9bb5ceb872895cd118fafe2", "name": "1914599fc9bb5ceb872895cd118fafe2", "rental_uris": {"ios": "https://dc.lft.to/lastmile_qr_scan", "android": "https://dc.lft.to/lastmile_qr_scan"}}, {"is_disabled": 0, "fusion_lat": 0.0, "lat": 38.8961195, "type": "electric_scooter", "lon": -77.031675, "is_reserved": 0, "fusion_lon": 0.0, "bike_id": "1d41f3adc6a98cffe804abc046029926", "name": "1d41f3adc6a98cffe804abc046029926", "rental_uris": {"ios": "https://dc.lft.to/lastmile_qr_scan", "android": "https://dc.lft.to/lastmile_qr_scan"}}, {"is_disabled": 0, "fusion_lat": 0.0, "lat": 38.924237833333336, "type": "electric_scooter", "lon": -77.0562355, "is_reserved": 0, "fusion_lon": 0.0, "bike_id": "7e53b7df710d5e1828d5361bc6bbe89f", "name": "7e53b7df710d5e1828d5361bc6bbe89f", "rental_uris": {"ios": "https://dc.lft.to/lastmile_qr_scan", "android": "https://dc.lft.to/lastmile_qr_scan"}}, {"is_disabled": 0, "fusion_lat": 0.0, "lat": 38.8458905, "type": "electric_scooter", "lon": -76.98161716666667, "is_reserved": 0, "fusion_lon": 0.0, "bike_id": "7356c63a07c864e5ae6c736231e87921", "name": "7356c63a07c864e5ae6c736231e87921", "rental_uris": {"ios": "https://dc.lft.to/lastmile_qr_scan", "android": "https://dc.lft.to/lastmile_qr_scan"}}, {"is_disabled": 0, "fusion_lat": 0.0, "lat": 38.902905833333335, "type": "electric_scooter", "lon": -77.038507, "is_reserved": 0, "fusion_lon": 0.0, "bike_id": "0edef71b91f77d84aacb26b0d5244fa3", "name": "0edef71b91f77d84aacb26b0d5244fa3", "rental_uris": {"ios": "https://dc.lft.to/lastmile_qr_scan", "android": "https://dc.lft.to/lastmile_qr_scan"}}, {"is_disabled": 0, "fusion_lat": 0.0, "lat": 38.921814833333336, "type": "electric_scooter", "lon": -77.04713916666667, "is_reserved": 0, "fusion_lon": 0.0, "bike_id": "e8594dccdfb34c7e10615a07848fb5c0", "name": "e8594dccdfb34c7e10615a07848fb5c0", "rental_uris": {"ios": "https://dc.lft.to/lastmile_qr_scan", "android": "https://dc.lft.to/lastmile_qr_scan"}}, {"is_disabled": 0, "fusion_lat": 0.0, "lat": 38.90356383333334, "type": "electric_scooter", "lon": -77.03648666666666, "is_reserved": 0, "fusion_lon": 0.0, "bike_id": "8e17c3cf7906f8d8f0fab5def06ed76d", "name": "8e17c3cf7906f8d8f0fab5def06ed76d", "rental_uris": {"ios": "https://dc.lft.to/lastmile_qr_scan", "android": "https://dc.lft.to/lastmile_qr_scan"}}, {"is_disabled": 0, "fusion_lat": 0.0, "lat": 38.92469833333333, "type": "electric_bike", "lon": -77.20838, "is_reserved": 0, "fusion_lon": 0.0, "bike_id": "b54a17e7519a95b93e5635241838366e", "name": "b54a17e7519a95b93e5635241838366e", "rental_uris": {"ios": "https://dc.lft.to/lastmile_qr_scan", "android": "https://dc.lft.to/lastmile_qr_scan"}}, {"is_disabled": 0, "fusion_lat": 0.0, "lat": 38.89747783333333, "type": "electric_bike", "lon": -76.99219166666667, "is_reserved": 0, "fusion_lon": 0.0, "bike_id": "74e740b7190d6c1d13caeb69dfc5799a", "name": "74e740b7190d6c1d13caeb69dfc5799a", "rental_uris": {"ios": "https://dc.lft.to/lastmile_qr_scan", "android": "https://dc.lft.to/lastmile_qr_scan"}}, {"is_disabled": 0, "fusion_lat": 0.0, "lat": 38.910178333333334, "type": "electric_scooter", "lon": -77.054606, "is_reserved": 0, "fusion_lon": 0.0, "bike_id": "2bab660e096010291942344d417853ec", "name": "2bab660e096010291942344d417853ec", "rental_uris": {"ios": "https://dc.lft.to/lastmile_qr_scan", "android": "https://dc.lft.to/lastmile_qr_scan"}}, {"is_disabled": 0, "fusion_lat": 0.0, "lat": 38.913039166666664, "type": "electric_scooter", "lon": -77.04349033333334, "is_reserved": 0, "fusion_lon": 0.0, "bike_id": "8884df070264a7a6064abb9aa6d7ccca", "name": "8884df070264a7a6064abb9aa6d7ccca", "rental_uris": {"ios": "https://dc.lft.to/lastmile_qr_scan", "android": "https://dc.lft.to/lastmile_qr_scan"}}, {"is_disabled": 0, "fusion_lat": 0.0, "lat": 38.890603166666665, "type": "electric_scooter", "lon": -76.94326266666667, "is_reserved": 0, "fusion_lon": 0.0, "bike_id": "f17d9574ae4ced4415b9b6352221fdbe", "name": "f17d9574ae4ced4415b9b6352221fdbe", "rental_uris": {"ios": "https://dc.lft.to/lastmile_qr_scan", "android": "https://dc.lft.to/lastmile_qr_scan"}}, {"is_disabled": 0, "fusion_lat": 0.0, "lat": 38.89187416666667, "type": "electric_bike", "lon": -77.12259366666666, "is_reserved": 0, "fusion_lon": 0.0, "bike_id": "90d7826ab8faa5256036ed429f1e75a2", "name": "90d7826ab8faa5256036ed429f1e75a2", "rental_uris": {"ios": "https://dc.lft.to/lastmile_qr_scan", "android": "https://dc.lft.to/lastmile_qr_scan"}}, {"is_disabled": 0, "fusion_lat": 0.0, "lat": 38.858102833333334, "type": "electric_scooter", "lon": -76.986516, "is_reserved": 0, "fusion_lon": 0.0, "bike_id": "c30b942c4ad8990db843ee70e1aed243", "name": "c30b942c4ad8990db843ee70e1aed243", "rental_uris": {"ios": "https://dc.lft.to/lastmile_qr_scan", "android": "https://dc.lft.to/lastmile_qr_scan"}}, {"is_disabled": 0, "fusion_lat": 0.0, "lat": 38.882964, "type": "electric_scooter", "lon": -76.99137466666667, "is_reserved": 0, "fusion_lon": 0.0, "bike_id": "83b986964dd83f3935cfc7149c9a245d", "name": "83b986964dd83f3935cfc7149c9a245d", "rental_uris": {"ios": "https://dc.lft.to/lastmile_qr_scan", "android": "https://dc.lft.to/lastmile_qr_scan"}}, {"is_disabled": 0, "fusion_lat": 0.0, "lat": 38.915642, "type": "electric_scooter", "lon": -77.03167116666667, "is_reserved": 0, "fusion_lon": 0.0, "bike_id": "13e7853b705d2d7537f57a8ddfc09fc9", "name": "13e7853b705d2d7537f57a8ddfc09fc9", "rental_uris": {"ios": "https://dc.lft.to/lastmile_qr_scan", "android": "https://dc.lft.to/lastmile_qr_scan"}}, {"is_disabled": 0, "fusion_lat": 0.0, "lat": 38.920769, "type": "electric_scooter", "lon": -77.02390583333333, "is_reserved": 0, "fusion_lon": 0.0, "bike_id": "f8c372bfb01b0c6cddc24f5b155d8c06", "name": "f8c372bfb01b0c6cddc24f5b155d8c06", "rental_uris": {"ios": "https://dc.lft.to/lastmile_qr_scan", "android": "https://dc.lft.to/lastmile_qr_scan"}}, {"is_disabled": 0, "fusion_lat": 0.0, "lat": 38.918565, "type": "electric_scooter", "lon": -77.03217416666666, "is_reserved": 0, "fusion_lon": 0.0, "bike_id": "a9621fa0b55cb41b553b0b468208046a", "name": "a9621fa0b55cb41b553b0b468208046a", "rental_uris": {"ios": "https://dc.lft.to/lastmile_qr_scan", "android": "https://dc.lft.to/lastmile_qr_scan"}}, {"is_disabled": 0, "fusion_lat": 0.0, "lat": 38.941664333333335, "type": "electric_scooter", "lon": -77.0253315, "is_reserved": 0, "fusion_lon": 0.0, "bike_id": "a517edd44321f5fbe429efa69ac7f39d", "name": "a517edd44321f5fbe429efa69ac7f39d", "rental_uris": {"ios": "https://dc.lft.to/lastmile_qr_scan", "android": "https://dc.lft.to/lastmile_qr_scan"}}, {"is_disabled": 0, "fusion_lat": 0.0, "lat": 38.905130666666665, "type": "electric_scooter", "lon": -77.0250795, "is_reserved": 0, "fusion_lon": 0.0, "bike_id": "e41ab4795a2e1480f7ae42a9637c1c30", "name": "e41ab4795a2e1480f7ae42a9637c1c30", "rental_uris": {"ios": "https://dc.lft.to/lastmile_qr_scan", "android": "https://dc.lft.to/lastmile_qr_scan"}}, {"is_disabled": 0, "fusion_lat": 0.0, "lat": 38.90717883333333, "type": "electric_scooter", "lon": -76.9979385, "is_reserved": 0, "fusion_lon": 0.0, "bike_id": "f30441b9032ddc298dac81d3587396e7", "name": "f30441b9032ddc298dac81d3587396e7", "rental_uris": {"ios": "https://dc.lft.to/lastmile_qr_scan", "android": "https://dc.lft.to/lastmile_qr_scan"}}, {"is_disabled": 0, "fusion_lat": 0.0, "lat": 38.90258466666667, "type": "electric_scooter", "lon": -77.04142933333334, "is_reserved": 0, "fusion_lon": 0.0, "bike_id": "405a3a1779b49b4e57ca7f75edf29cd5", "name": "405a3a1779b49b4e57ca7f75edf29cd5", "rental_uris": {"ios": "https://dc.lft.to/lastmile_qr_scan", "android": "https://dc.lft.to/lastmile_qr_scan"}}, {"is_disabled": 0, "fusion_lat": 0.0, "lat": 38.86619433333333, "type": "electric_bike", "lon": -76.94574816666666, "is_reserved": 0, "fusion_lon": 0.0, "bike_id": "8816db015e4f6775bbede155f3ea4deb", "name": "8816db015e4f6775bbede155f3ea4deb", "rental_uris": {"ios": "https://dc.lft.to/lastmile_qr_scan", "android": "https://dc.lft.to/lastmile_qr_scan"}}, {"is_disabled": 0, "fusion_lat": 0.0, "lat": 38.924345, "type": "electric_scooter", "lon": -77.04244233333333, "is_reserved": 0, "fusion_lon": 0.0, "bike_id": "40efbf1c7e46ae656a21c029124c1e78", "name": "40efbf1c7e46ae656a21c029124c1e78", "rental_uris": {"ios": "https://dc.lft.to/lastmile_qr_scan", "android": "https://dc.lft.to/lastmile_qr_scan"}}, {"is_disabled": 0, "fusion_lat": 0.0, "lat": 38.935946, "type": "electric_scooter", "lon": -77.023332, "is_reserved": 0, "fusion_lon": 0.0, "bike_id": "4cb52515d65f9319bd4d392309fc910a", "name": "4cb52515d65f9319bd4d392309fc910a", "rental_uris": {"ios": "https://dc.lft.to/lastmile_qr_scan", "android": "https://dc.lft.to/lastmile_qr_scan"}}, {"is_disabled": 0, "fusion_lat": 0.0, "lat": 38.91259816666667, "type": "electric_scooter", "lon": -77.03281733333333, "is_reserved": 0, "fusion_lon": 0.0, "bike_id": "087649576d2712906c50d953e4de9c17", "name": "087649576d2712906c50d953e4de9c17", "rental_uris": {"ios": "https://dc.lft.to/lastmile_qr_scan", "android": "https://dc.lft.to/lastmile_qr_scan"}}, {"is_disabled": 0, "fusion_lat": 0.0, "lat": 38.9404965, "type": "electric_scooter", "lon": -77.0297875, "is_reserved": 0, "fusion_lon": 0.0, "bike_id": "ba984a7a5122b2da38d171eab438fef6", "name": "ba984a7a5122b2da38d171eab438fef6", "rental_uris": {"ios": "https://dc.lft.to/lastmile_qr_scan", "android": "https://dc.lft.to/lastmile_qr_scan"}}, {"is_disabled": 0, "fusion_lat": 0.0, "lat": 38.9147865, "type": "electric_scooter", "lon": -77.0094515, "is_reserved": 0, "fusion_lon": 0.0, "bike_id": "7ce0065cfb17fd6292f0b38aae2ab7a5", "name": "7ce0065cfb17fd6292f0b38aae2ab7a5", "rental_uris": {"ios": "https://dc.lft.to/lastmile_qr_scan", "android": "https://dc.lft.to/lastmile_qr_scan"}}, {"is_disabled": 0, "fusion_lat": 0.0, "lat": 38.922663, "type": "electric_scooter", "lon": -77.0412705, "is_reserved": 0, "fusion_lon": 0.0, "bike_id": "9112dfcb5a8de22e2f5d9d52eb89f50a", "name": "9112dfcb5a8de22e2f5d9d52eb89f50a", "rental_uris": {"ios": "https://dc.lft.to/lastmile_qr_scan", "android": "https://dc.lft.to/lastmile_qr_scan"}}, {"is_disabled": 0, "fusion_lat": 0.0, "lat": 38.898849166666665, "type": "electric_scooter", "lon": -76.93176216666667, "is_reserved": 0, "fusion_lon": 0.0, "bike_id": "a4c0de6768af71778d74ae784378c622", "name": "a4c0de6768af71778d74ae784378c622", "rental_uris": {"ios": "https://dc.lft.to/lastmile_qr_scan", "android": "https://dc.lft.to/lastmile_qr_scan"}}, {"is_disabled": 0, "fusion_lat": 0.0, "lat": 38.93870366666667, "type": "electric_scooter", "lon": -77.02488916666667, "is_reserved": 0, "fusion_lon": 0.0, "bike_id": "d4bd34d172fa095b4f44aa8056730602", "name": "d4bd34d172fa095b4f44aa8056730602", "rental_uris": {"ios": "https://dc.lft.to/lastmile_qr_scan", "android": "https://dc.lft.to/lastmile_qr_scan"}}, {"is_disabled": 0, "fusion_lat": 0.0, "lat": 38.908469333333336, "type": "electric_scooter", "lon": -77.0446775, "is_reserved": 0, "fusion_lon": 0.0, "bike_id": "905c847d0937da0e74812e5229628bd9", "name": "905c847d0937da0e74812e5229628bd9", "rental_uris": {"ios": "https://dc.lft.to/lastmile_qr_scan", "android": "https://dc.lft.to/lastmile_qr_scan"}}, {"is_disabled": 0, "fusion_lat": 0.0, "lat": 38.90326433333333, "type": "electric_scooter", "lon": -76.97295483333333, "is_reserved": 0, "fusion_lon": 0.0, "bike_id": "27b8b4d04c44f1b13ada54cbdc34c494", "name": "27b8b4d04c44f1b13ada54cbdc34c494", "rental_uris": {"ios": "https://dc.lft.to/lastmile_qr_scan", "android": "https://dc.lft.to/lastmile_qr_scan"}}, {"is_disabled": 0, "fusion_lat": 0.0, "lat": 38.87232633333333, "type": "electric_scooter", "lon": -77.01204383333334, "is_reserved": 0, "fusion_lon": 0.0, "bike_id": "5238cd230f3418526aaf4238e9c35fcb", "name": "5238cd230f3418526aaf4238e9c35fcb", "rental_uris": {"ios": "https://dc.lft.to/lastmile_qr_scan", "android": "https://dc.lft.to/lastmile_qr_scan"}}, {"is_disabled": 0, "fusion_lat": 0.0, "lat": 38.93100833333333, "type": "electric_scooter", "lon": -77.02394983333333, "is_reserved": 0, "fusion_lon": 0.0, "bike_id": "2f66444a7ab0890d57eb7b0e5600da75", "name": "2f66444a7ab0890d57eb7b0e5600da75", "rental_uris": {"ios": "https://dc.lft.to/lastmile_qr_scan", "android": "https://dc.lft.to/lastmile_qr_scan"}}, {"is_disabled": 0, "fusion_lat": 0.0, "lat": 38.896085, "type": "electric_scooter", "lon": -77.04239633333333, "is_reserved": 0, "fusion_lon": 0.0, "bike_id": "ad9dd5e151d700f2be60b47b8c917cd4", "name": "ad9dd5e151d700f2be60b47b8c917cd4", "rental_uris": {"ios": "https://dc.lft.to/lastmile_qr_scan", "android": "https://dc.lft.to/lastmile_qr_scan"}}, {"is_disabled": 0, "fusion_lat": 0.0, "lat": 38.85327483333333, "type": "electric_scooter", "lon": -76.98001233333333, "is_reserved": 0, "fusion_lon": 0.0, "bike_id": "b08f092328501dbcc2768772ef0f2a9c", "name": "b08f092328501dbcc2768772ef0f2a9c", "rental_uris": {"ios": "https://dc.lft.to/lastmile_qr_scan", "android": "https://dc.lft.to/lastmile_qr_scan"}}, {"is_disabled": 0, "fusion_lat": 0.0, "lat": 38.898997, "type": "electric_scooter", "lon": -77.0036945, "is_reserved": 0, "fusion_lon": 0.0, "bike_id": "65c1653a0c429813594ccd0c966fb6af", "name": "65c1653a0c429813594ccd0c966fb6af", "rental_uris": {"ios": "https://dc.lft.to/lastmile_qr_scan", "android": "https://dc.lft.to/lastmile_qr_scan"}}, {"is_disabled": 0, "fusion_lat": 0.0, "lat": 38.90580033333333, "type": "electric_scooter", "lon": -77.021954, "is_reserved": 0, "fusion_lon": 0.0, "bike_id": "8044bcca4031883877b127e1ce93d251", "name": "8044bcca4031883877b127e1ce93d251", "rental_uris": {"ios": "https://dc.lft.to/lastmile_qr_scan", "android": "https://dc.lft.to/lastmile_qr_scan"}}, {"is_disabled": 0, "fusion_lat": 0.0, "lat": 38.919064666666664, "type": "electric_scooter", "lon": -77.04112416666666, "is_reserved": 0, "fusion_lon": 0.0, "bike_id": "e9fbf72bcdb883816bc064fda71b1e74", "name": "e9fbf72bcdb883816bc064fda71b1e74", "rental_uris": {"ios": "https://dc.lft.to/lastmile_qr_scan", "android": "https://dc.lft.to/lastmile_qr_scan"}}, {"is_disabled": 0, "fusion_lat": 0.0, "lat": 38.96154, "type": "electric_scooter", "lon": -76.9977835, "is_reserved": 0, "fusion_lon": 0.0, "bike_id": "3f4b36b18cfc8225e9bbdf05ad0b0ba5", "name": "3f4b36b18cfc8225e9bbdf05ad0b0ba5", "rental_uris": {"ios": "https://dc.lft.to/lastmile_qr_scan", "android": "https://dc.lft.to/lastmile_qr_scan"}}, {"is_disabled": 0, "fusion_lat": 0.0, "lat": 38.93323133333333, "type": "electric_scooter", "lon": -77.03279766666667, "is_reserved": 0, "fusion_lon": 0.0, "bike_id": "ff91ca30b24945fee80a70866952cb0d", "name": "ff91ca30b24945fee80a70866952cb0d", "rental_uris": {"ios": "https://dc.lft.to/lastmile_qr_scan", "android": "https://dc.lft.to/lastmile_qr_scan"}}, {"is_disabled": 0, "fusion_lat": 0.0, "lat": 38.93390466666666, "type": "electric_scooter", "lon": -77.0206235, "is_reserved": 0, "fusion_lon": 0.0, "bike_id": "a8b9ab2614109abe763e5bcf5e890d2b", "name": "a8b9ab2614109abe763e5bcf5e890d2b", "rental_uris": {"ios": "https://dc.lft.to/lastmile_qr_scan", "android": "https://dc.lft.to/lastmile_qr_scan"}}, {"is_disabled": 0, "fusion_lat": 0.0, "lat": 38.86464516666667, "type": "electric_scooter", "lon": -76.97746583333333, "is_reserved": 0, "fusion_lon": 0.0, "bike_id": "530d6dfe91fe9e2cd0c5985bd7964fd4", "name": "530d6dfe91fe9e2cd0c5985bd7964fd4", "rental_uris": {"ios": "https://dc.lft.to/lastmile_qr_scan", "android": "https://dc.lft.to/lastmile_qr_scan"}}, {"is_disabled": 0, "fusion_lat": 0.0, "lat": 38.916661500000004, "type": "electric_scooter", "lon": -77.03851033333333, "is_reserved": 0, "fusion_lon": 0.0, "bike_id": "0aa1423d248dddb37aa346448e9a030a", "name": "0aa1423d248dddb37aa346448e9a030a", "rental_uris": {"ios": "https://dc.lft.to/lastmile_qr_scan", "android": "https://dc.lft.to/lastmile_qr_scan"}}, {"is_disabled": 0, "fusion_lat": 0.0, "lat": 38.95259083333333, "type": "electric_scooter", "lon": -77.06978833333334, "is_reserved": 0, "fusion_lon": 0.0, "bike_id": "c00c60c4215784729764fbcc6671849d", "name": "c00c60c4215784729764fbcc6671849d", "rental_uris": {"ios": "https://dc.lft.to/lastmile_qr_scan", "android": "https://dc.lft.to/lastmile_qr_scan"}}, {"is_disabled": 0, "fusion_lat": 0.0, "lat": 38.9257335, "type": "electric_scooter", "lon": -77.028416, "is_reserved": 0, "fusion_lon": 0.0, "bike_id": "3553a38e3bca2839ac06a166762ba890", "name": "3553a38e3bca2839ac06a166762ba890", "rental_uris": {"ios": "https://dc.lft.to/lastmile_qr_scan", "android": "https://dc.lft.to/lastmile_qr_scan"}}, {"is_disabled": 0, "fusion_lat": 0.0, "lat": 38.89834066666667, "type": "electric_scooter", "lon": -76.94633733333333, "is_reserved": 0, "fusion_lon": 0.0, "bike_id": "c166c7124891b567f2e8bbb84c3c9f56", "name": "c166c7124891b567f2e8bbb84c3c9f56", "rental_uris": {"ios": "https://dc.lft.to/lastmile_qr_scan", "android": "https://dc.lft.to/lastmile_qr_scan"}}, {"is_disabled": 0, "fusion_lat": 0.0, "lat": 38.91621466666667, "type": "electric_scooter", "lon": -77.0314225, "is_reserved": 0, "fusion_lon": 0.0, "bike_id": "151ac32011955159c814a46c9bff9c8b", "name": "151ac32011955159c814a46c9bff9c8b", "rental_uris": {"ios": "https://dc.lft.to/lastmile_qr_scan", "android": "https://dc.lft.to/lastmile_qr_scan"}}, {"is_disabled": 0, "fusion_lat": 0.0, "lat": 38.97331066666667, "type": "electric_bike", "lon": -77.02147966666666, "is_reserved": 0, "fusion_lon": 0.0, "bike_id": "c245502a4db6ff37f9b592918cd91378", "name": "c245502a4db6ff37f9b592918cd91378", "rental_uris": {"ios": "https://dc.lft.to/lastmile_qr_scan", "android": "https://dc.lft.to/lastmile_qr_scan"}}, {"is_disabled": 0, "fusion_lat": 0.0, "lat": 38.917179, "type": "electric_scooter", "lon": -77.03339666666666, "is_reserved": 0, "fusion_lon": 0.0, "bike_id": "2abcfef3b75c309092c1de73d7b80d6b", "name": "2abcfef3b75c309092c1de73d7b80d6b", "rental_uris": {"ios": "https://dc.lft.to/lastmile_qr_scan", "android": "https://dc.lft.to/lastmile_qr_scan"}}, {"is_disabled": 0, "fusion_lat": 0.0, "lat": 38.897777, "type": "electric_scooter", "lon": -77.03222833333334, "is_reserved": 0, "fusion_lon": 0.0, "bike_id": "0652c6c259f710a6fcf37be9a8bab491", "name": "0652c6c259f710a6fcf37be9a8bab491", "rental_uris": {"ios": "https://dc.lft.to/lastmile_qr_scan", "android": "https://dc.lft.to/lastmile_qr_scan"}}, {"is_disabled": 0, "fusion_lat": 0.0, "lat": 38.865633, "type": "electric_scooter", "lon": -76.989489, "is_reserved": 0, "fusion_lon": 0.0, "bike_id": "4a22efa458271dc1bc1d89012a72fae8", "name": "4a22efa458271dc1bc1d89012a72fae8", "rental_uris": {"ios": "https://dc.lft.to/lastmile_qr_scan", "android": "https://dc.lft.to/lastmile_qr_scan"}}, {"is_disabled": 0, "fusion_lat": 0.0, "lat": 38.9097825, "type": "electric_scooter", "lon": -77.03433366666667, "is_reserved": 0, "fusion_lon": 0.0, "bike_id": "7c28a1f27a919e1c2cc88e226213a320", "name": "7c28a1f27a919e1c2cc88e226213a320", "rental_uris": {"ios": "https://dc.lft.to/lastmile_qr_scan", "android": "https://dc.lft.to/lastmile_qr_scan"}}, {"is_disabled": 0, "fusion_lat": 0.0, "lat": 38.911625666666666, "type": "electric_scooter", "lon": -77.06858583333333, "is_reserved": 0, "fusion_lon": 0.0, "bike_id": "16061bdb1beb0dbf4d8d22909e0ae164", "name": "16061bdb1beb0dbf4d8d22909e0ae164", "rental_uris": {"ios": "https://dc.lft.to/lastmile_qr_scan", "android": "https://dc.lft.to/lastmile_qr_scan"}}, {"is_disabled": 0, "fusion_lat": 0.0, "lat": 38.9170055, "type": "electric_scooter", "lon": -77.02223366666666, "is_reserved": 0, "fusion_lon": 0.0, "bike_id": "40160c17dcb1b35cfd0df98947a98140", "name": "40160c17dcb1b35cfd0df98947a98140", "rental_uris": {"ios": "https://dc.lft.to/lastmile_qr_scan", "android": "https://dc.lft.to/lastmile_qr_scan"}}, {"is_disabled": 0, "fusion_lat": 0.0, "lat": 38.9029955, "type": "electric_scooter", "lon": -76.9924505, "is_reserved": 0, "fusion_lon": 0.0, "bike_id": "06d42cf14edcf8f79f0c0d0deafc5716", "name": "06d42cf14edcf8f79f0c0d0deafc5716", "rental_uris": {"ios": "https://dc.lft.to/lastmile_qr_scan", "android": "https://dc.lft.to/lastmile_qr_scan"}}, {"is_disabled": 0, "fusion_lat": 0.0, "lat": 38.932103, "type": "electric_scooter", "lon": -77.02352783333333, "is_reserved": 0, "fusion_lon": 0.0, "bike_id": "083d73f4fed02ebc97dc4499fec2f093", "name": "083d73f4fed02ebc97dc4499fec2f093", "rental_uris": {"ios": "https://dc.lft.to/lastmile_qr_scan", "android": "https://dc.lft.to/lastmile_qr_scan"}}, {"is_disabled": 0, "fusion_lat": 0.0, "lat": 38.949497666666666, "type": "electric_bike", "lon": -77.01609583333334, "is_reserved": 0, "fusion_lon": 0.0, "bike_id": "aba961bb8b4424da64356dd5a1f7eb90", "name": "aba961bb8b4424da64356dd5a1f7eb90", "rental_uris": {"ios": "https://dc.lft.to/lastmile_qr_scan", "android": "https://dc.lft.to/lastmile_qr_scan"}}, {"is_disabled": 0, "fusion_lat": 0.0, "lat": 38.84430716666667, "type": "electric_scooter", "lon": -76.99779133333334, "is_reserved": 0, "fusion_lon": 0.0, "bike_id": "198504e15da56065710622a0330d8d32", "name": "198504e15da56065710622a0330d8d32", "rental_uris": {"ios": "https://dc.lft.to/lastmile_qr_scan", "android": "https://dc.lft.to/lastmile_qr_scan"}}, {"is_disabled": 0, "fusion_lat": 0.0, "lat": 38.9455755, "type": "electric_bike", "lon": -76.89540216666667, "is_reserved": 0, "fusion_lon": 0.0, "bike_id": "6fda1bf1e90aa43cf90da945beebe337", "name": "6fda1bf1e90aa43cf90da945beebe337", "rental_uris": {"ios": "https://dc.lft.to/lastmile_qr_scan", "android": "https://dc.lft.to/lastmile_qr_scan"}}, {"is_disabled": 0, "fusion_lat": 0.0, "lat": 38.90718316666667, "type": "electric_scooter", "lon": -77.04355083333333, "is_reserved": 0, "fusion_lon": 0.0, "bike_id": "ec6f56f3af10f4fe7cf520eee69fe88b", "name": "ec6f56f3af10f4fe7cf520eee69fe88b", "rental_uris": {"ios": "https://dc.lft.to/lastmile_qr_scan", "android": "https://dc.lft.to/lastmile_qr_scan"}}, {"is_disabled": 0, "fusion_lat": 0.0, "lat": 38.928978, "type": "electric_scooter", "lon": -77.0323685, "is_reserved": 0, "fusion_lon": 0.0, "bike_id": "6686f9a316c604e4804d57dde07ce01b", "name": "6686f9a316c604e4804d57dde07ce01b", "rental_uris": {"ios": "https://dc.lft.to/lastmile_qr_scan", "android": "https://dc.lft.to/lastmile_qr_scan"}}, {"is_disabled": 0, "fusion_lat": 0.0, "lat": 38.9242175, "type": "electric_bike", "lon": -77.0457075, "is_reserved": 0, "fusion_lon": 0.0, "bike_id": "b84d049106faf9d56ff2d1b4c10f2199", "name": "b84d049106faf9d56ff2d1b4c10f2199", "rental_uris": {"ios": "https://dc.lft.to/lastmile_qr_scan", "android": "https://dc.lft.to/lastmile_qr_scan"}}, {"is_disabled": 0, "fusion_lat": 0.0, "lat": 38.91965016666666, "type": "electric_bike", "lon": -76.97262633333334, "is_reserved": 0, "fusion_lon": 0.0, "bike_id": "20078f8d9f09ed0d21a8c3171dc82905", "name": "20078f8d9f09ed0d21a8c3171dc82905", "rental_uris": {"ios": "https://dc.lft.to/lastmile_qr_scan", "android": "https://dc.lft.to/lastmile_qr_scan"}}, {"is_disabled": 0, "fusion_lat": 0.0, "lat": 38.860956, "type": "electric_scooter", "lon": -76.98376583333334, "is_reserved": 0, "fusion_lon": 0.0, "bike_id": "7677f40ebbfc037254fdc94c147607c3", "name": "7677f40ebbfc037254fdc94c147607c3", "rental_uris": {"ios": "https://dc.lft.to/lastmile_qr_scan", "android": "https://dc.lft.to/lastmile_qr_scan"}}, {"is_disabled": 0, "fusion_lat": 0.0, "lat": 38.924798333333335, "type": "electric_scooter", "lon": -77.03916183333334, "is_reserved": 0, "fusion_lon": 0.0, "bike_id": "702b4fba911ae5d622376cc9fa7db8e1", "name": "702b4fba911ae5d622376cc9fa7db8e1", "rental_uris": {"ios": "https://dc.lft.to/lastmile_qr_scan", "android": "https://dc.lft.to/lastmile_qr_scan"}}, {"is_disabled": 0, "fusion_lat": 0.0, "lat": 38.918265833333336, "type": "electric_scooter", "lon": -77.03641083333333, "is_reserved": 0, "fusion_lon": 0.0, "bike_id": "3e16bd4b06a7d9347f1fd898a8e7c7e8", "name": "3e16bd4b06a7d9347f1fd898a8e7c7e8", "rental_uris": {"ios": "https://dc.lft.to/lastmile_qr_scan", "android": "https://dc.lft.to/lastmile_qr_scan"}}, {"is_disabled": 0, "fusion_lat": 0.0, "lat": 38.896262666666665, "type": "electric_scooter", "lon": -77.009203, "is_reserved": 0, "fusion_lon": 0.0, "bike_id": "7fce649dcbe3fd701038e70789aa8caa", "name": "7fce649dcbe3fd701038e70789aa8caa", "rental_uris": {"ios": "https://dc.lft.to/lastmile_qr_scan", "android": "https://dc.lft.to/lastmile_qr_scan"}}, {"is_disabled": 0, "fusion_lat": 0.0, "lat": 38.9021395, "type": "electric_scooter", "lon": -76.9459305, "is_reserved": 0, "fusion_lon": 0.0, "bike_id": "886943acee8ac42def2463c2f6dd8cf8", "name": "886943acee8ac42def2463c2f6dd8cf8", "rental_uris": {"ios": "https://dc.lft.to/lastmile_qr_scan", "android": "https://dc.lft.to/lastmile_qr_scan"}}, {"is_disabled": 0, "fusion_lat": 0.0, "lat": 38.90975433333333, "type": "electric_scooter", "lon": -77.03592916666666, "is_reserved": 0, "fusion_lon": 0.0, "bike_id": "beaf28bb0ef3c46b0cb5c93d1bdca7ce", "name": "beaf28bb0ef3c46b0cb5c93d1bdca7ce", "rental_uris": {"ios": "https://dc.lft.to/lastmile_qr_scan", "android": "https://dc.lft.to/lastmile_qr_scan"}}, {"is_disabled": 0, "fusion_lat": 0.0, "lat": 38.94957483333334, "type": "electric_scooter", "lon": -77.01605483333333, "is_reserved": 0, "fusion_lon": 0.0, "bike_id": "4d55efb60ec79f82054e61ae5239b49f", "name": "4d55efb60ec79f82054e61ae5239b49f", "rental_uris": {"ios": "https://dc.lft.to/lastmile_qr_scan", "android": "https://dc.lft.to/lastmile_qr_scan"}}, {"is_disabled": 0, "fusion_lat": 0.0, "lat": 38.95884983333333, "type": "electric_bike", "lon": -77.01036666666667, "is_reserved": 0, "fusion_lon": 0.0, "bike_id": "e09b7ed29a781de0e8aa78c3f2d399a0", "name": "e09b7ed29a781de0e8aa78c3f2d399a0", "rental_uris": {"ios": "https://dc.lft.to/lastmile_qr_scan", "android": "https://dc.lft.to/lastmile_qr_scan"}}, {"is_disabled": 0, "fusion_lat": 0.0, "lat": 38.96176366666667, "type": "electric_bike", "lon": -76.99590233333333, "is_reserved": 0, "fusion_lon": 0.0, "bike_id": "2e75bca2e338457fdc341c39d6df944d", "name": "2e75bca2e338457fdc341c39d6df944d", "rental_uris": {"ios": "https://dc.lft.to/lastmile_qr_scan", "android": "https://dc.lft.to/lastmile_qr_scan"}}, {"is_disabled": 0, "fusion_lat": 0.0, "lat": 38.915713833333335, "type": "electric_scooter", "lon": -77.04679633333333, "is_reserved": 0, "fusion_lon": 0.0, "bike_id": "06f3fb8dfab03804b433c27b6f0e620a", "name": "06f3fb8dfab03804b433c27b6f0e620a", "rental_uris": {"ios": "https://dc.lft.to/lastmile_qr_scan", "android": "https://dc.lft.to/lastmile_qr_scan"}}, {"is_disabled": 0, "fusion_lat": 0.0, "lat": 38.90491, "type": "electric_scooter", "lon": -77.0601485, "is_reserved": 0, "fusion_lon": 0.0, "bike_id": "13a6f79a7c05daba5cfd4a35d835ba3a", "name": "13a6f79a7c05daba5cfd4a35d835ba3a", "rental_uris": {"ios": "https://dc.lft.to/lastmile_qr_scan", "android": "https://dc.lft.to/lastmile_qr_scan"}}, {"is_disabled": 0, "fusion_lat": 0.0, "lat": 39.038855833333336, "type": "electric_bike", "lon": -76.9904055, "is_reserved": 0, "fusion_lon": 0.0, "bike_id": "992ec81c15462c9225788526d0aded4f", "name": "992ec81c15462c9225788526d0aded4f", "rental_uris": {"ios": "https://dc.lft.to/lastmile_qr_scan", "android": "https://dc.lft.to/lastmile_qr_scan"}}, {"is_disabled": 0, "fusion_lat": 0.0, "lat": 38.942323333333334, "type": "electric_scooter", "lon": -77.0153305, "is_reserved": 0, "fusion_lon": 0.0, "bike_id": "3de5fc686a56dd7132ed8d62b3557f74", "name": "3de5fc686a56dd7132ed8d62b3557f74", "rental_uris": {"ios": "https://dc.lft.to/lastmile_qr_scan", "android": "https://dc.lft.to/lastmile_qr_scan"}}, {"is_disabled": 0, "fusion_lat": 0.0, "lat": 38.897674, "type": "electric_scooter", "lon": -76.985539, "is_reserved": 0, "fusion_lon": 0.0, "bike_id": "8ae21b144f45bd2521699147183ad67b", "name": "8ae21b144f45bd2521699147183ad67b", "rental_uris": {"ios": "https://dc.lft.to/lastmile_qr_scan", "android": "https://dc.lft.to/lastmile_qr_scan"}}, {"is_disabled": 0, "fusion_lat": 0.0, "lat": 38.905106833333335, "type": "electric_scooter", "lon": -77.05148683333333, "is_reserved": 0, "fusion_lon": 0.0, "bike_id": "83f91bc48e1b02679b793cec06ee9614", "name": "83f91bc48e1b02679b793cec06ee9614", "rental_uris": {"ios": "https://dc.lft.to/lastmile_qr_scan", "android": "https://dc.lft.to/lastmile_qr_scan"}}, {"is_disabled": 0, "fusion_lat": 0.0, "lat": 38.90804516666667, "type": "electric_scooter", "lon": -77.03422833333333, "is_reserved": 0, "fusion_lon": 0.0, "bike_id": "04d9e599107ab0842ce7f7978ce8b628", "name": "04d9e599107ab0842ce7f7978ce8b628", "rental_uris": {"ios": "https://dc.lft.to/lastmile_qr_scan", "android": "https://dc.lft.to/lastmile_qr_scan"}}, {"is_disabled": 0, "fusion_lat": 0.0, "lat": 38.942085666666664, "type": "electric_bike", "lon": -77.0182445, "is_reserved": 0, "fusion_lon": 0.0, "bike_id": "41b57bf0f2a92d8328492a32cccf6530", "name": "41b57bf0f2a92d8328492a32cccf6530", "rental_uris": {"ios": "https://dc.lft.to/lastmile_qr_scan", "android": "https://dc.lft.to/lastmile_qr_scan"}}, {"is_disabled": 0, "fusion_lat": 0.0, "lat": 38.858083, "type": "electric_scooter", "lon": -76.98654566666667, "is_reserved": 0, "fusion_lon": 0.0, "bike_id": "cab06fa8894e4557fd3fbbe6b1218a28", "name": "cab06fa8894e4557fd3fbbe6b1218a28", "rental_uris": {"ios": "https://dc.lft.to/lastmile_qr_scan", "android": "https://dc.lft.to/lastmile_qr_scan"}}, {"is_disabled": 0, "fusion_lat": 0.0, "lat": 38.90558983333333, "type": "electric_scooter", "lon": -77.03476866666666, "is_reserved": 0, "fusion_lon": 0.0, "bike_id": "ebf77e0355a561e46e78899dbe1839c0", "name": "ebf77e0355a561e46e78899dbe1839c0", "rental_uris": {"ios": "https://dc.lft.to/lastmile_qr_scan", "android": "https://dc.lft.to/lastmile_qr_scan"}}, {"is_disabled": 0, "fusion_lat": 0.0, "lat": 38.8922645, "type": "electric_scooter", "lon": -77.02446533333334, "is_reserved": 0, "fusion_lon": 0.0, "bike_id": "2b560a86f1c042fbf14a7f492ef7eb7f", "name": "2b560a86f1c042fbf14a7f492ef7eb7f", "rental_uris": {"ios": "https://dc.lft.to/lastmile_qr_scan", "android": "https://dc.lft.to/lastmile_qr_scan"}}, {"is_disabled": 0, "fusion_lat": 0.0, "lat": 38.944459333333334, "type": "electric_scooter", "lon": -77.06351616666667, "is_reserved": 0, "fusion_lon": 0.0, "bike_id": "1fc736ce57c4748640f3d7062e28b7d4", "name": "1fc736ce57c4748640f3d7062e28b7d4", "rental_uris": {"ios": "https://dc.lft.to/lastmile_qr_scan", "android": "https://dc.lft.to/lastmile_qr_scan"}}, {"is_disabled": 0, "fusion_lat": 0.0, "lat": 38.905187833333336, "type": "electric_scooter", "lon": -77.04348933333333, "is_reserved": 0, "fusion_lon": 0.0, "bike_id": "92f13409efe55c7a411ca9f554db10bf", "name": "92f13409efe55c7a411ca9f554db10bf", "rental_uris": {"ios": "https://dc.lft.to/lastmile_qr_scan", "android": "https://dc.lft.to/lastmile_qr_scan"}}, {"is_disabled": 0, "fusion_lat": 0.0, "lat": 38.91548383333333, "type": "electric_scooter", "lon": -77.038448, "is_reserved": 0, "fusion_lon": 0.0, "bike_id": "cf975a9bcc27f224367e637f15d0b437", "name": "cf975a9bcc27f224367e637f15d0b437", "rental_uris": {"ios": "https://dc.lft.to/lastmile_qr_scan", "android": "https://dc.lft.to/lastmile_qr_scan"}}, {"is_disabled": 0, "fusion_lat": 0.0, "lat": 38.9111185, "type": "electric_scooter", "lon": -77.04825566666666, "is_reserved": 0, "fusion_lon": 0.0, "bike_id": "7435fb34a5d2581ca5cb4581c81e0d6d", "name": "7435fb34a5d2581ca5cb4581c81e0d6d", "rental_uris": {"ios": "https://dc.lft.to/lastmile_qr_scan", "android": "https://dc.lft.to/lastmile_qr_scan"}}, {"is_disabled": 0, "fusion_lat": 0.0, "lat": 38.92952116666667, "type": "electric_bike", "lon": -77.04396816666667, "is_reserved": 0, "fusion_lon": 0.0, "bike_id": "55ecccdc4c13b60c310593b5ce0c22bd", "name": "55ecccdc4c13b60c310593b5ce0c22bd", "rental_uris": {"ios": "https://dc.lft.to/lastmile_qr_scan", "android": "https://dc.lft.to/lastmile_qr_scan"}}, {"is_disabled": 0, "fusion_lat": 0.0, "lat": 39.088591, "type": "electric_bike", "lon": -77.178389, "is_reserved": 0, "fusion_lon": 0.0, "bike_id": "c51699f20a98a6871b9518cad6b567da", "name": "c51699f20a98a6871b9518cad6b567da", "rental_uris": {"ios": "https://dc.lft.to/lastmile_qr_scan", "android": "https://dc.lft.to/lastmile_qr_scan"}}, {"is_disabled": 0, "fusion_lat": 0.0, "lat": 38.9221475, "type": "electric_scooter", "lon": -77.03300566666667, "is_reserved": 0, "fusion_lon": 0.0, "bike_id": "ce933d0f8b267310b67dcfb2b84e2df0", "name": "ce933d0f8b267310b67dcfb2b84e2df0", "rental_uris": {"ios": "https://dc.lft.to/lastmile_qr_scan", "android": "https://dc.lft.to/lastmile_qr_scan"}}, {"is_disabled": 0, "fusion_lat": 0.0, "lat": 38.9295575, "type": "electric_bike", "lon": -77.03766383333334, "is_reserved": 0, "fusion_lon": 0.0, "bike_id": "62fcd64765a10719a7ffa5c5b2b7efed", "name": "62fcd64765a10719a7ffa5c5b2b7efed", "rental_uris": {"ios": "https://dc.lft.to/lastmile_qr_scan", "android": "https://dc.lft.to/lastmile_qr_scan"}}, {"is_disabled": 0, "fusion_lat": 0.0, "lat": 38.901606666666666, "type": "electric_scooter", "lon": -76.97629233333333, "is_reserved": 0, "fusion_lon": 0.0, "bike_id": "f6450929c550963970dd14403ae35d90", "name": "f6450929c550963970dd14403ae35d90", "rental_uris": {"ios": "https://dc.lft.to/lastmile_qr_scan", "android": "https://dc.lft.to/lastmile_qr_scan"}}, {"is_disabled": 0, "fusion_lat": 0.0, "lat": 38.940585666666664, "type": "electric_bike", "lon": -76.95383566666666, "is_reserved": 0, "fusion_lon": 0.0, "bike_id": "3bb233471190abb34f2a5990c288db22", "name": "3bb233471190abb34f2a5990c288db22", "rental_uris": {"ios": "https://dc.lft.to/lastmile_qr_scan", "android": "https://dc.lft.to/lastmile_qr_scan"}}, {"is_disabled": 0, "fusion_lat": 0.0, "lat": 38.91928083333333, "type": "electric_scooter", "lon": -77.031756, "is_reserved": 0, "fusion_lon": 0.0, "bike_id": "d4f5c78414a97ed917a8f154a324479a", "name": "d4f5c78414a97ed917a8f154a324479a", "rental_uris": {"ios": "https://dc.lft.to/lastmile_qr_scan", "android": "https://dc.lft.to/lastmile_qr_scan"}}, {"is_disabled": 0, "fusion_lat": 0.0, "lat": 38.928505333333334, "type": "electric_bike", "lon": -77.02051766666666, "is_reserved": 0, "fusion_lon": 0.0, "bike_id": "7c358a3558d7c54a3e5e4566faac78a1", "name": "7c358a3558d7c54a3e5e4566faac78a1", "rental_uris": {"ios": "https://dc.lft.to/lastmile_qr_scan", "android": "https://dc.lft.to/lastmile_qr_scan"}}, {"is_disabled": 0, "fusion_lat": 0.0, "lat": 38.887231166666666, "type": "electric_scooter", "lon": -77.03204266666667, "is_reserved": 0, "fusion_lon": 0.0, "bike_id": "6099719efca1c195393989c499e478b3", "name": "6099719efca1c195393989c499e478b3", "rental_uris": {"ios": "https://dc.lft.to/lastmile_qr_scan", "android": "https://dc.lft.to/lastmile_qr_scan"}}, {"is_disabled": 0, "fusion_lat": 0.0, "lat": 38.928598666666666, "type": "electric_bike", "lon": -77.2221665, "is_reserved": 0, "fusion_lon": 0.0, "bike_id": "3d574aa96708dc54771a4b59923d199c", "name": "3d574aa96708dc54771a4b59923d199c", "rental_uris": {"ios": "https://dc.lft.to/lastmile_qr_scan", "android": "https://dc.lft.to/lastmile_qr_scan"}}, {"is_disabled": 0, "fusion_lat": 0.0, "lat": 38.983672, "type": "electric_scooter", "lon": -77.02645166666667, "is_reserved": 0, "fusion_lon": 0.0, "bike_id": "2019ad9cad844d2440e892ddbebabeca", "name": "2019ad9cad844d2440e892ddbebabeca", "rental_uris": {"ios": "https://dc.lft.to/lastmile_qr_scan", "android": "https://dc.lft.to/lastmile_qr_scan"}}, {"is_disabled": 0, "fusion_lat": 0.0, "lat": 38.884037166666666, "type": "electric_scooter", "lon": -77.03042416666666, "is_reserved": 0, "fusion_lon": 0.0, "bike_id": "e947a52f007041e41e510d3ff75ea6a4", "name": "e947a52f007041e41e510d3ff75ea6a4", "rental_uris": {"ios": "https://dc.lft.to/lastmile_qr_scan", "android": "https://dc.lft.to/lastmile_qr_scan"}}, {"is_disabled": 0, "fusion_lat": 0.0, "lat": 38.898121833333335, "type": "electric_bike", "lon": -76.99070333333333, "is_reserved": 0, "fusion_lon": 0.0, "bike_id": "138986ddda12c8d3d7d2dc4acd2eade6", "name": "138986ddda12c8d3d7d2dc4acd2eade6", "rental_uris": {"ios": "https://dc.lft.to/lastmile_qr_scan", "android": "https://dc.lft.to/lastmile_qr_scan"}}, {"is_disabled": 0, "fusion_lat": 0.0, "lat": 38.89962383333334, "type": "electric_bike", "lon": -77.05497583333333, "is_reserved": 0, "fusion_lon": 0.0, "bike_id": "20af481e830ecd2e44a55c231e35b1b2", "name": "20af481e830ecd2e44a55c231e35b1b2", "rental_uris": {"ios": "https://dc.lft.to/lastmile_qr_scan", "android": "https://dc.lft.to/lastmile_qr_scan"}}, {"is_disabled": 0, "fusion_lat": 0.0, "lat": 38.92321833333333, "type": "electric_scooter", "lon": -77.0451765, "is_reserved": 0, "fusion_lon": 0.0, "bike_id": "9ee96e2c3242c50977f51685b7cd5d6e", "name": "9ee96e2c3242c50977f51685b7cd5d6e", "rental_uris": {"ios": "https://dc.lft.to/lastmile_qr_scan", "android": "https://dc.lft.to/lastmile_qr_scan"}}, {"is_disabled": 0, "fusion_lat": 0.0, "lat": 38.91002816666666, "type": "electric_scooter", "lon": -77.04004033333334, "is_reserved": 0, "fusion_lon": 0.0, "bike_id": "905cb5c6651a69d20f9ad4d71107c63e", "name": "905cb5c6651a69d20f9ad4d71107c63e", "rental_uris": {"ios": "https://dc.lft.to/lastmile_qr_scan", "android": "https://dc.lft.to/lastmile_qr_scan"}}, {"is_disabled": 0, "fusion_lat": 0.0, "lat": 38.92464833333333, "type": "electric_scooter", "lon": -77.07865966666667, "is_reserved": 0, "fusion_lon": 0.0, "bike_id": "b4ac50c023e91f638f11eb7ff7f6b830", "name": "b4ac50c023e91f638f11eb7ff7f6b830", "rental_uris": {"ios": "https://dc.lft.to/lastmile_qr_scan", "android": "https://dc.lft.to/lastmile_qr_scan"}}, {"is_disabled": 0, "fusion_lat": 0.0, "lat": 38.92254833333333, "type": "electric_scooter", "lon": -77.0425165, "is_reserved": 0, "fusion_lon": 0.0, "bike_id": "0683c3055399c935af19f2a1d6c0dbdf", "name": "0683c3055399c935af19f2a1d6c0dbdf", "rental_uris": {"ios": "https://dc.lft.to/lastmile_qr_scan", "android": "https://dc.lft.to/lastmile_qr_scan"}}, {"is_disabled": 0, "fusion_lat": 0.0, "lat": 38.907814, "type": "electric_scooter", "lon": -77.03862866666667, "is_reserved": 0, "fusion_lon": 0.0, "bike_id": "f82b9c2583014a920d0a145d559c6f05", "name": "f82b9c2583014a920d0a145d559c6f05", "rental_uris": {"ios": "https://dc.lft.to/lastmile_qr_scan", "android": "https://dc.lft.to/lastmile_qr_scan"}}, {"is_disabled": 0, "fusion_lat": 0.0, "lat": 38.915561, "type": "electric_scooter", "lon": -77.00960516666666, "is_reserved": 0, "fusion_lon": 0.0, "bike_id": "42ba9df8b4282c1c0d57399401e937b1", "name": "42ba9df8b4282c1c0d57399401e937b1", "rental_uris": {"ios": "https://dc.lft.to/lastmile_qr_scan", "android": "https://dc.lft.to/lastmile_qr_scan"}}, {"is_disabled": 0, "fusion_lat": 0.0, "lat": 38.89833566666667, "type": "electric_scooter", "lon": -76.94635016666666, "is_reserved": 0, "fusion_lon": 0.0, "bike_id": "5c2b4b96d9a428fdcda875e34b12fd32", "name": "5c2b4b96d9a428fdcda875e34b12fd32", "rental_uris": {"ios": "https://dc.lft.to/lastmile_qr_scan", "android": "https://dc.lft.to/lastmile_qr_scan"}}, {"is_disabled": 0, "fusion_lat": 0.0, "lat": 38.90125416666667, "type": "electric_scooter", "lon": -77.04233416666666, "is_reserved": 0, "fusion_lon": 0.0, "bike_id": "0eec951d69af1d4f1a91c480e4434ef9", "name": "0eec951d69af1d4f1a91c480e4434ef9", "rental_uris": {"ios": "https://dc.lft.to/lastmile_qr_scan", "android": "https://dc.lft.to/lastmile_qr_scan"}}, {"is_disabled": 0, "fusion_lat": 0.0, "lat": 38.904196666666664, "type": "electric_scooter", "lon": -77.048544, "is_reserved": 0, "fusion_lon": 0.0, "bike_id": "e0070f1b40093348fe0fd9ebad8f418e", "name": "e0070f1b40093348fe0fd9ebad8f418e", "rental_uris": {"ios": "https://dc.lft.to/lastmile_qr_scan", "android": "https://dc.lft.to/lastmile_qr_scan"}}, {"is_disabled": 0, "fusion_lat": 0.0, "lat": 38.915487, "type": "electric_scooter", "lon": -77.04157916666666, "is_reserved": 0, "fusion_lon": 0.0, "bike_id": "4d5601d0addff7e1ed381b5d9a5bc9f1", "name": "4d5601d0addff7e1ed381b5d9a5bc9f1", "rental_uris": {"ios": "https://dc.lft.to/lastmile_qr_scan", "android": "https://dc.lft.to/lastmile_qr_scan"}}, {"is_disabled": 0, "fusion_lat": 0.0, "lat": 38.91824233333333, "type": "electric_scooter", "lon": -77.036457, "is_reserved": 0, "fusion_lon": 0.0, "bike_id": "2854f08376e6e69ed22df73c35fa0b33", "name": "2854f08376e6e69ed22df73c35fa0b33", "rental_uris": {"ios": "https://dc.lft.to/lastmile_qr_scan", "android": "https://dc.lft.to/lastmile_qr_scan"}}, {"is_disabled": 0, "fusion_lat": 0.0, "lat": 38.93271983333333, "type": "electric_bike", "lon": -77.0398915, "is_reserved": 0, "fusion_lon": 0.0, "bike_id": "9126f0670302a6bab47a456ff100f435", "name": "9126f0670302a6bab47a456ff100f435", "rental_uris": {"ios": "https://dc.lft.to/lastmile_qr_scan", "android": "https://dc.lft.to/lastmile_qr_scan"}}, {"is_disabled": 0, "fusion_lat": 0.0, "lat": 38.91106466666667, "type": "electric_scooter", "lon": -77.0420135, "is_reserved": 0, "fusion_lon": 0.0, "bike_id": "cfe67cb9e8e7e0e31da0396378e6f55c", "name": "cfe67cb9e8e7e0e31da0396378e6f55c", "rental_uris": {"ios": "https://dc.lft.to/lastmile_qr_scan", "android": "https://dc.lft.to/lastmile_qr_scan"}}, {"is_disabled": 0, "fusion_lat": 0.0, "lat": 38.92437983333333, "type": "electric_scooter", "lon": -77.05748983333334, "is_reserved": 0, "fusion_lon": 0.0, "bike_id": "01e87747c9ca67aaa7055835e51cb6c1", "name": "01e87747c9ca67aaa7055835e51cb6c1", "rental_uris": {"ios": "https://dc.lft.to/lastmile_qr_scan", "android": "https://dc.lft.to/lastmile_qr_scan"}}, {"is_disabled": 0, "fusion_lat": 0.0, "lat": 39.052072, "type": "electric_bike", "lon": -77.10917266666667, "is_reserved": 0, "fusion_lon": 0.0, "bike_id": "89ea2452e267856a62246d9f4328db11", "name": "89ea2452e267856a62246d9f4328db11", "rental_uris": {"ios": "https://dc.lft.to/lastmile_qr_scan", "android": "https://dc.lft.to/lastmile_qr_scan"}}, {"is_disabled": 0, "fusion_lat": 0.0, "lat": 38.9214875, "type": "electric_scooter", "lon": -77.038682, "is_reserved": 0, "fusion_lon": 0.0, "bike_id": "9f84037e5d43a583ff29e2b1fe6b66ba", "name": "9f84037e5d43a583ff29e2b1fe6b66ba", "rental_uris": {"ios": "https://dc.lft.to/lastmile_qr_scan", "android": "https://dc.lft.to/lastmile_qr_scan"}}, {"is_disabled": 0, "fusion_lat": 0.0, "lat": 38.90384066666667, "type": "electric_scooter", "lon": -77.038749, "is_reserved": 0, "fusion_lon": 0.0, "bike_id": "989844c336ca70346ed3149d1ccb6e22", "name": "989844c336ca70346ed3149d1ccb6e22", "rental_uris": {"ios": "https://dc.lft.to/lastmile_qr_scan", "android": "https://dc.lft.to/lastmile_qr_scan"}}, {"is_disabled": 0, "fusion_lat": 0.0, "lat": 38.94802833333333, "type": "electric_bike", "lon": -77.0080895, "is_reserved": 0, "fusion_lon": 0.0, "bike_id": "eaceacb3a0d981724bd3f8231ee5ffad", "name": "eaceacb3a0d981724bd3f8231ee5ffad", "rental_uris": {"ios": "https://dc.lft.to/lastmile_qr_scan", "android": "https://dc.lft.to/lastmile_qr_scan"}}, {"is_disabled": 0, "fusion_lat": 0.0, "lat": 38.9014055, "type": "electric_scooter", "lon": -76.99795566666667, "is_reserved": 0, "fusion_lon": 0.0, "bike_id": "39ea5c373d08600671fe2d0de61c500f", "name": "39ea5c373d08600671fe2d0de61c500f", "rental_uris": {"ios": "https://dc.lft.to/lastmile_qr_scan", "android": "https://dc.lft.to/lastmile_qr_scan"}}, {"is_disabled": 0, "fusion_lat": 0.0, "lat": 38.91275516666666, "type": "electric_scooter", "lon": -77.04170816666667, "is_reserved": 0, "fusion_lon": 0.0, "bike_id": "f38526aaed84d1ad7b1f10c3eb729062", "name": "f38526aaed84d1ad7b1f10c3eb729062", "rental_uris": {"ios": "https://dc.lft.to/lastmile_qr_scan", "android": "https://dc.lft.to/lastmile_qr_scan"}}, {"is_disabled": 0, "fusion_lat": 0.0, "lat": 38.9535665, "type": "electric_bike", "lon": -76.9809585, "is_reserved": 0, "fusion_lon": 0.0, "bike_id": "53c31541563e5f2c2e9c5785e543870c", "name": "53c31541563e5f2c2e9c5785e543870c", "rental_uris": {"ios": "https://dc.lft.to/lastmile_qr_scan", "android": "https://dc.lft.to/lastmile_qr_scan"}}, {"is_disabled": 0, "fusion_lat": 0.0, "lat": 38.8715025, "type": "electric_bike", "lon": -76.93670633333333, "is_reserved": 0, "fusion_lon": 0.0, "bike_id": "54244bcc05f373ad10d882ce9816d1b7", "name": "54244bcc05f373ad10d882ce9816d1b7", "rental_uris": {"ios": "https://dc.lft.to/lastmile_qr_scan", "android": "https://dc.lft.to/lastmile_qr_scan"}}, {"is_disabled": 0, "fusion_lat": 0.0, "lat": 38.90984616666667, "type": "electric_scooter", "lon": -77.033592, "is_reserved": 0, "fusion_lon": 0.0, "bike_id": "1a347b9bd9b5dbe7de0fe7667889c7cf", "name": "1a347b9bd9b5dbe7de0fe7667889c7cf", "rental_uris": {"ios": "https://dc.lft.to/lastmile_qr_scan", "android": "https://dc.lft.to/lastmile_qr_scan"}}, {"is_disabled": 0, "fusion_lat": 0.0, "lat": 38.908523333333335, "type": "electric_scooter", "lon": -77.02458966666667, "is_reserved": 0, "fusion_lon": 0.0, "bike_id": "73683959ddb3ece326a9be590fdc6190", "name": "73683959ddb3ece326a9be590fdc6190", "rental_uris": {"ios": "https://dc.lft.to/lastmile_qr_scan", "android": "https://dc.lft.to/lastmile_qr_scan"}}, {"is_disabled": 0, "fusion_lat": 0.0, "lat": 38.896167166666665, "type": "electric_scooter", "lon": -76.994125, "is_reserved": 0, "fusion_lon": 0.0, "bike_id": "cf4e3e5d0e6bd8e885d92c1dda171e89", "name": "cf4e3e5d0e6bd8e885d92c1dda171e89", "rental_uris": {"ios": "https://dc.lft.to/lastmile_qr_scan", "android": "https://dc.lft.to/lastmile_qr_scan"}}, {"is_disabled": 0, "fusion_lat": 0.0, "lat": 38.92499083333333, "type": "electric_scooter", "lon": -77.021527, "is_reserved": 0, "fusion_lon": 0.0, "bike_id": "6860c93f93135fd102cb2a66411d3199", "name": "6860c93f93135fd102cb2a66411d3199", "rental_uris": {"ios": "https://dc.lft.to/lastmile_qr_scan", "android": "https://dc.lft.to/lastmile_qr_scan"}}, {"is_disabled": 0, "fusion_lat": 0.0, "lat": 38.900021333333335, "type": "electric_scooter", "lon": -77.00629, "is_reserved": 0, "fusion_lon": 0.0, "bike_id": "c25455f47ee41ac9a1ed78f3a038e98c", "name": "c25455f47ee41ac9a1ed78f3a038e98c", "rental_uris": {"ios": "https://dc.lft.to/lastmile_qr_scan", "android": "https://dc.lft.to/lastmile_qr_scan"}}, {"is_disabled": 0, "fusion_lat": 0.0, "lat": 38.90158433333333, "type": "electric_scooter", "lon": -77.02539133333333, "is_reserved": 0, "fusion_lon": 0.0, "bike_id": "8a0f1f8f904131d08b9931cd877ff99f", "name": "8a0f1f8f904131d08b9931cd877ff99f", "rental_uris": {"ios": "https://dc.lft.to/lastmile_qr_scan", "android": "https://dc.lft.to/lastmile_qr_scan"}}, {"is_disabled": 0, "fusion_lat": 0.0, "lat": 38.93828766666667, "type": "electric_bike", "lon": -77.03285066666666, "is_reserved": 0, "fusion_lon": 0.0, "bike_id": "a467cf7eb9383fd5097c2785bbfcb26d", "name": "a467cf7eb9383fd5097c2785bbfcb26d", "rental_uris": {"ios": "https://dc.lft.to/lastmile_qr_scan", "android": "https://dc.lft.to/lastmile_qr_scan"}}, {"is_disabled": 0, "fusion_lat": 0.0, "lat": 38.88317716666667, "type": "electric_scooter", "lon": -77.0093665, "is_reserved": 0, "fusion_lon": 0.0, "bike_id": "169bbf55097d16dda04185df19439ce9", "name": "169bbf55097d16dda04185df19439ce9", "rental_uris": {"ios": "https://dc.lft.to/lastmile_qr_scan", "android": "https://dc.lft.to/lastmile_qr_scan"}}, {"is_disabled": 0, "fusion_lat": 0.0, "lat": 38.92288416666667, "type": "electric_scooter", "lon": -77.03196966666667, "is_reserved": 0, "fusion_lon": 0.0, "bike_id": "254abd7be14ac741bdfd8e142dc0cbcd", "name": "254abd7be14ac741bdfd8e142dc0cbcd", "rental_uris": {"ios": "https://dc.lft.to/lastmile_qr_scan", "android": "https://dc.lft.to/lastmile_qr_scan"}}, {"is_disabled": 0, "fusion_lat": 0.0, "lat": 38.875475, "type": "electric_scooter", "lon": -77.00049333333334, "is_reserved": 0, "fusion_lon": 0.0, "bike_id": "78980dbbc4df308a4626f4e5989f23e0", "name": "78980dbbc4df308a4626f4e5989f23e0", "rental_uris": {"ios": "https://dc.lft.to/lastmile_qr_scan", "android": "https://dc.lft.to/lastmile_qr_scan"}}, {"is_disabled": 0, "fusion_lat": 0.0, "lat": 38.89908466666667, "type": "electric_scooter", "lon": -77.03272733333333, "is_reserved": 0, "fusion_lon": 0.0, "bike_id": "cdda4bed0db6d279a7be9fba8e6ce2b3", "name": "cdda4bed0db6d279a7be9fba8e6ce2b3", "rental_uris": {"ios": "https://dc.lft.to/lastmile_qr_scan", "android": "https://dc.lft.to/lastmile_qr_scan"}}, {"is_disabled": 0, "fusion_lat": 0.0, "lat": 38.94897683333333, "type": "electric_bike", "lon": -76.96375833333333, "is_reserved": 0, "fusion_lon": 0.0, "bike_id": "ae7178c5ffd2110d135e684b8d922c6a", "name": "ae7178c5ffd2110d135e684b8d922c6a", "rental_uris": {"ios": "https://dc.lft.to/lastmile_qr_scan", "android": "https://dc.lft.to/lastmile_qr_scan"}}, {"is_disabled": 0, "fusion_lat": 0.0, "lat": 38.892534, "type": "electric_scooter", "lon": -76.94333666666667, "is_reserved": 0, "fusion_lon": 0.0, "bike_id": "2a4e9487e02b89da432a629896502ad1", "name": "2a4e9487e02b89da432a629896502ad1", "rental_uris": {"ios": "https://dc.lft.to/lastmile_qr_scan", "android": "https://dc.lft.to/lastmile_qr_scan"}}, {"is_disabled": 0, "fusion_lat": 0.0, "lat": 38.916220333333335, "type": "electric_scooter", "lon": -77.02711083333334, "is_reserved": 0, "fusion_lon": 0.0, "bike_id": "64253810737989abbc8f49213aa8ba1f", "name": "64253810737989abbc8f49213aa8ba1f", "rental_uris": {"ios": "https://dc.lft.to/lastmile_qr_scan", "android": "https://dc.lft.to/lastmile_qr_scan"}}, {"is_disabled": 0, "fusion_lat": 0.0, "lat": 38.8844635, "type": "electric_scooter", "lon": -77.00584266666667, "is_reserved": 0, "fusion_lon": 0.0, "bike_id": "f1be465824de8a48ac2c65a4345e8fd4", "name": "f1be465824de8a48ac2c65a4345e8fd4", "rental_uris": {"ios": "https://dc.lft.to/lastmile_qr_scan", "android": "https://dc.lft.to/lastmile_qr_scan"}}, {"is_disabled": 0, "fusion_lat": 0.0, "lat": 38.917326, "type": "electric_scooter", "lon": -77.03662533333333, "is_reserved": 0, "fusion_lon": 0.0, "bike_id": "767e847c6cab8265f55426bedf71431e", "name": "767e847c6cab8265f55426bedf71431e", "rental_uris": {"ios": "https://dc.lft.to/lastmile_qr_scan", "android": "https://dc.lft.to/lastmile_qr_scan"}}, {"is_disabled": 0, "fusion_lat": 0.0, "lat": 38.90844883333333, "type": "electric_scooter", "lon": -77.0328995, "is_reserved": 0, "fusion_lon": 0.0, "bike_id": "18cc176bebc7faed786988f0ae779db8", "name": "18cc176bebc7faed786988f0ae779db8", "rental_uris": {"ios": "https://dc.lft.to/lastmile_qr_scan", "android": "https://dc.lft.to/lastmile_qr_scan"}}, {"is_disabled": 0, "fusion_lat": 0.0, "lat": 38.8457625, "type": "electric_bike", "lon": -77.096226, "is_reserved": 0, "fusion_lon": 0.0, "bike_id": "292f537fefb1180a23e409c17ad2f3ea", "name": "292f537fefb1180a23e409c17ad2f3ea", "rental_uris": {"ios": "https://dc.lft.to/lastmile_qr_scan", "android": "https://dc.lft.to/lastmile_qr_scan"}}, {"is_disabled": 0, "fusion_lat": 0.0, "lat": 38.9013115, "type": "electric_scooter", "lon": -77.04188266666667, "is_reserved": 0, "fusion_lon": 0.0, "bike_id": "cbc525a255756ec4e44bd48049ce4e4a", "name": "cbc525a255756ec4e44bd48049ce4e4a", "rental_uris": {"ios": "https://dc.lft.to/lastmile_qr_scan", "android": "https://dc.lft.to/lastmile_qr_scan"}}, {"is_disabled": 0, "fusion_lat": 0.0, "lat": 38.926654666666664, "type": "electric_scooter", "lon": -77.01541766666666, "is_reserved": 0, "fusion_lon": 0.0, "bike_id": "d051eb934f37b3590fef8956308718b1", "name": "d051eb934f37b3590fef8956308718b1", "rental_uris": {"ios": "https://dc.lft.to/lastmile_qr_scan", "android": "https://dc.lft.to/lastmile_qr_scan"}}, {"is_disabled": 0, "fusion_lat": 0.0, "lat": 38.871599333333336, "type": "electric_scooter", "lon": -77.01351733333334, "is_reserved": 0, "fusion_lon": 0.0, "bike_id": "ff9b44fa9416d4904a8b4c16ec3b7b6a", "name": "ff9b44fa9416d4904a8b4c16ec3b7b6a", "rental_uris": {"ios": "https://dc.lft.to/lastmile_qr_scan", "android": "https://dc.lft.to/lastmile_qr_scan"}}, {"is_disabled": 0, "fusion_lat": 0.0, "lat": 38.924132, "type": "electric_bike", "lon": -77.20813466666667, "is_reserved": 0, "fusion_lon": 0.0, "bike_id": "1cb0778463d88578525fb0b75cb9995b", "name": "1cb0778463d88578525fb0b75cb9995b", "rental_uris": {"ios": "https://dc.lft.to/lastmile_qr_scan", "android": "https://dc.lft.to/lastmile_qr_scan"}}, {"is_disabled": 0, "fusion_lat": 0.0, "lat": 38.9038235, "type": "electric_scooter", "lon": -77.05336283333334, "is_reserved": 0, "fusion_lon": 0.0, "bike_id": "4089b528ff29a4ad8af1ce807f2bc170", "name": "4089b528ff29a4ad8af1ce807f2bc170", "rental_uris": {"ios": "https://dc.lft.to/lastmile_qr_scan", "android": "https://dc.lft.to/lastmile_qr_scan"}}, {"is_disabled": 0, "fusion_lat": 0.0, "lat": 38.903487166666665, "type": "electric_scooter", "lon": -77.06576633333333, "is_reserved": 0, "fusion_lon": 0.0, "bike_id": "c72efb078d8e030296df37efcff8d8db", "name": "c72efb078d8e030296df37efcff8d8db", "rental_uris": {"ios": "https://dc.lft.to/lastmile_qr_scan", "android": "https://dc.lft.to/lastmile_qr_scan"}}, {"is_disabled": 0, "fusion_lat": 0.0, "lat": 38.90923166666666, "type": "electric_scooter", "lon": -76.99274033333333, "is_reserved": 0, "fusion_lon": 0.0, "bike_id": "f7bbba724b4babb4dfb6c0df91c8d020", "name": "f7bbba724b4babb4dfb6c0df91c8d020", "rental_uris": {"ios": "https://dc.lft.to/lastmile_qr_scan", "android": "https://dc.lft.to/lastmile_qr_scan"}}, {"is_disabled": 0, "fusion_lat": 0.0, "lat": 38.91799783333333, "type": "electric_scooter", "lon": -77.03415483333333, "is_reserved": 0, "fusion_lon": 0.0, "bike_id": "702affb657d47850c78451f6193b17c1", "name": "702affb657d47850c78451f6193b17c1", "rental_uris": {"ios": "https://dc.lft.to/lastmile_qr_scan", "android": "https://dc.lft.to/lastmile_qr_scan"}}, {"is_disabled": 0, "fusion_lat": 0.0, "lat": 38.9173265, "type": "electric_scooter", "lon": -77.03664633333334, "is_reserved": 0, "fusion_lon": 0.0, "bike_id": "4cb049b3871ab4cb908cb96af0dcbe85", "name": "4cb049b3871ab4cb908cb96af0dcbe85", "rental_uris": {"ios": "https://dc.lft.to/lastmile_qr_scan", "android": "https://dc.lft.to/lastmile_qr_scan"}}, {"is_disabled": 0, "fusion_lat": 0.0, "lat": 38.89126316666667, "type": "electric_scooter", "lon": -76.94081616666666, "is_reserved": 0, "fusion_lon": 0.0, "bike_id": "40a6ba1d87dbcd6026b9ba46cd7faa2f", "name": "40a6ba1d87dbcd6026b9ba46cd7faa2f", "rental_uris": {"ios": "https://dc.lft.to/lastmile_qr_scan", "android": "https://dc.lft.to/lastmile_qr_scan"}}, {"is_disabled": 0, "fusion_lat": 0.0, "lat": 38.90833166666667, "type": "electric_scooter", "lon": -77.085094, "is_reserved": 0, "fusion_lon": 0.0, "bike_id": "9695da0b48832c510d29fa06acf1ee92", "name": "9695da0b48832c510d29fa06acf1ee92", "rental_uris": {"ios": "https://dc.lft.to/lastmile_qr_scan", "android": "https://dc.lft.to/lastmile_qr_scan"}}, {"is_disabled": 0, "fusion_lat": 0.0, "lat": 38.910428833333334, "type": "electric_scooter", "lon": -77.0219875, "is_reserved": 0, "fusion_lon": 0.0, "bike_id": "5ea618bf96aa266ab7534d512a941874", "name": "5ea618bf96aa266ab7534d512a941874", "rental_uris": {"ios": "https://dc.lft.to/lastmile_qr_scan", "android": "https://dc.lft.to/lastmile_qr_scan"}}, {"is_disabled": 0, "fusion_lat": 0.0, "lat": 38.92063183333333, "type": "electric_scooter", "lon": -77.03461566666667, "is_reserved": 0, "fusion_lon": 0.0, "bike_id": "7b58c51a8532286b473da4f4f066402c", "name": "7b58c51a8532286b473da4f4f066402c", "rental_uris": {"ios": "https://dc.lft.to/lastmile_qr_scan", "android": "https://dc.lft.to/lastmile_qr_scan"}}, {"is_disabled": 0, "fusion_lat": 0.0, "lat": 38.87504416666667, "type": "electric_bike", "lon": -77.02588866666666, "is_reserved": 0, "fusion_lon": 0.0, "bike_id": "9742127b3e663a841c9c635f3a6672f6", "name": "9742127b3e663a841c9c635f3a6672f6", "rental_uris": {"ios": "https://dc.lft.to/lastmile_qr_scan", "android": "https://dc.lft.to/lastmile_qr_scan"}}, {"is_disabled": 0, "fusion_lat": 0.0, "lat": 38.919673, "type": "electric_scooter", "lon": -77.04313033333334, "is_reserved": 0, "fusion_lon": 0.0, "bike_id": "a1809a4e6fecd4a1ed85b7c09e39f470", "name": "a1809a4e6fecd4a1ed85b7c09e39f470", "rental_uris": {"ios": "https://dc.lft.to/lastmile_qr_scan", "android": "https://dc.lft.to/lastmile_qr_scan"}}, {"is_disabled": 0, "fusion_lat": 0.0, "lat": 38.90732716666667, "type": "electric_scooter", "lon": -77.01068983333333, "is_reserved": 0, "fusion_lon": 0.0, "bike_id": "6dca650c082094dc9ad8c8714f618b09", "name": "6dca650c082094dc9ad8c8714f618b09", "rental_uris": {"ios": "https://dc.lft.to/lastmile_qr_scan", "android": "https://dc.lft.to/lastmile_qr_scan"}}, {"is_disabled": 0, "fusion_lat": 0.0, "lat": 38.905807833333334, "type": "electric_scooter", "lon": -77.048664, "is_reserved": 0, "fusion_lon": 0.0, "bike_id": "512b322ba3bae8e0520f655fe44ad35f", "name": "512b322ba3bae8e0520f655fe44ad35f", "rental_uris": {"ios": "https://dc.lft.to/lastmile_qr_scan", "android": "https://dc.lft.to/lastmile_qr_scan"}}, {"is_disabled": 0, "fusion_lat": 0.0, "lat": 38.911237166666666, "type": "electric_scooter", "lon": -77.037524, "is_reserved": 0, "fusion_lon": 0.0, "bike_id": "17b63dfe50e4921489e06542a686f9ce", "name": "17b63dfe50e4921489e06542a686f9ce", "rental_uris": {"ios": "https://dc.lft.to/lastmile_qr_scan", "android": "https://dc.lft.to/lastmile_qr_scan"}}, {"is_disabled": 0, "fusion_lat": 0.0, "lat": 39.015995333333336, "type": "electric_bike", "lon": -77.044293, "is_reserved": 0, "fusion_lon": 0.0, "bike_id": "e58d9988ac26f0f3a3c3d37948b0f21c", "name": "e58d9988ac26f0f3a3c3d37948b0f21c", "rental_uris": {"ios": "https://dc.lft.to/lastmile_qr_scan", "android": "https://dc.lft.to/lastmile_qr_scan"}}, {"is_disabled": 0, "fusion_lat": 0.0, "lat": 38.8814625, "type": "electric_scooter", "lon": -77.02667966666667, "is_reserved": 0, "fusion_lon": 0.0, "bike_id": "d144d65937038fe8cf11a4d1c078ffda", "name": "d144d65937038fe8cf11a4d1c078ffda", "rental_uris": {"ios": "https://dc.lft.to/lastmile_qr_scan", "android": "https://dc.lft.to/lastmile_qr_scan"}}, {"is_disabled": 0, "fusion_lat": 0.0, "lat": 38.917589, "type": "electric_scooter", "lon": -77.03998266666666, "is_reserved": 0, "fusion_lon": 0.0, "bike_id": "9806f89e70c7a3a814810e85516418c4", "name": "9806f89e70c7a3a814810e85516418c4", "rental_uris": {"ios": "https://dc.lft.to/lastmile_qr_scan", "android": "https://dc.lft.to/lastmile_qr_scan"}}, {"is_disabled": 0, "fusion_lat": 0.0, "lat": 38.892457, "type": "electric_scooter", "lon": -77.03958683333333, "is_reserved": 0, "fusion_lon": 0.0, "bike_id": "58c68b08166fa8cf15a937819a37da8a", "name": "58c68b08166fa8cf15a937819a37da8a", "rental_uris": {"ios": "https://dc.lft.to/lastmile_qr_scan", "android": "https://dc.lft.to/lastmile_qr_scan"}}, {"is_disabled": 0, "fusion_lat": 0.0, "lat": 38.90561066666667, "type": "electric_scooter", "lon": -77.0396995, "is_reserved": 0, "fusion_lon": 0.0, "bike_id": "4ad16afbf964e8c63c7942c35e918c88", "name": "4ad16afbf964e8c63c7942c35e918c88", "rental_uris": {"ios": "https://dc.lft.to/lastmile_qr_scan", "android": "https://dc.lft.to/lastmile_qr_scan"}}, {"is_disabled": 0, "fusion_lat": 0.0, "lat": 38.903382, "type": "electric_scooter", "lon": -77.043364, "is_reserved": 0, "fusion_lon": 0.0, "bike_id": "a2b0155827a00c724c3a12241fe48449", "name": "a2b0155827a00c724c3a12241fe48449", "rental_uris": {"ios": "https://dc.lft.to/lastmile_qr_scan", "android": "https://dc.lft.to/lastmile_qr_scan"}}, {"is_disabled": 0, "fusion_lat": 0.0, "lat": 38.99074566666667, "type": "electric_bike", "lon": -76.874699, "is_reserved": 0, "fusion_lon": 0.0, "bike_id": "c9aeadc0104538cec0df3d4d11dad0c8", "name": "c9aeadc0104538cec0df3d4d11dad0c8", "rental_uris": {"ios": "https://dc.lft.to/lastmile_qr_scan", "android": "https://dc.lft.to/lastmile_qr_scan"}}, {"is_disabled": 0, "fusion_lat": 0.0, "lat": 38.88403683333333, "type": "electric_scooter", "lon": -77.01535733333333, "is_reserved": 0, "fusion_lon": 0.0, "bike_id": "d08a9bea49a1a48899d0ba58bf0dee25", "name": "d08a9bea49a1a48899d0ba58bf0dee25", "rental_uris": {"ios": "https://dc.lft.to/lastmile_qr_scan", "android": "https://dc.lft.to/lastmile_qr_scan"}}, {"is_disabled": 0, "fusion_lat": 0.0, "lat": 38.93635116666667, "type": "electric_scooter", "lon": -77.0366455, "is_reserved": 0, "fusion_lon": 0.0, "bike_id": "145078a10e65bddb839875192353e89a", "name": "145078a10e65bddb839875192353e89a", "rental_uris": {"ios": "https://dc.lft.to/lastmile_qr_scan", "android": "https://dc.lft.to/lastmile_qr_scan"}}, {"is_disabled": 0, "fusion_lat": 0.0, "lat": 38.900965666666664, "type": "electric_scooter", "lon": -76.983426, "is_reserved": 0, "fusion_lon": 0.0, "bike_id": "5aa5f56e19f086a35e57ec04a4b6b22f", "name": "5aa5f56e19f086a35e57ec04a4b6b22f", "rental_uris": {"ios": "https://dc.lft.to/lastmile_qr_scan", "android": "https://dc.lft.to/lastmile_qr_scan"}}, {"is_disabled": 0, "fusion_lat": 0.0, "lat": 38.902586, "type": "electric_scooter", "lon": -77.02664116666666, "is_reserved": 0, "fusion_lon": 0.0, "bike_id": "c912fad6a2c4b31ea69e9dc3843b91b2", "name": "c912fad6a2c4b31ea69e9dc3843b91b2", "rental_uris": {"ios": "https://dc.lft.to/lastmile_qr_scan", "android": "https://dc.lft.to/lastmile_qr_scan"}}, {"is_disabled": 0, "fusion_lat": 0.0, "lat": 38.91420433333333, "type": "electric_scooter", "lon": -77.0453665, "is_reserved": 0, "fusion_lon": 0.0, "bike_id": "9903bea01e6bc2de0d6e3e5cd6a30121", "name": "9903bea01e6bc2de0d6e3e5cd6a30121", "rental_uris": {"ios": "https://dc.lft.to/lastmile_qr_scan", "android": "https://dc.lft.to/lastmile_qr_scan"}}, {"is_disabled": 0, "fusion_lat": 0.0, "lat": 38.87679683333333, "type": "electric_scooter", "lon": -77.00426566666667, "is_reserved": 0, "fusion_lon": 0.0, "bike_id": "c559ee1aa17937789b5521f72c111826", "name": "c559ee1aa17937789b5521f72c111826", "rental_uris": {"ios": "https://dc.lft.to/lastmile_qr_scan", "android": "https://dc.lft.to/lastmile_qr_scan"}}, {"is_disabled": 0, "fusion_lat": 0.0, "lat": 38.82878, "type": "electric_bike", "lon": -77.11215733333333, "is_reserved": 0, "fusion_lon": 0.0, "bike_id": "b44fcccb143bb3bd92b4bf3f41278ebd", "name": "b44fcccb143bb3bd92b4bf3f41278ebd", "rental_uris": {"ios": "https://dc.lft.to/lastmile_qr_scan", "android": "https://dc.lft.to/lastmile_qr_scan"}}, {"is_disabled": 0, "fusion_lat": 0.0, "lat": 38.89374316666667, "type": "electric_scooter", "lon": -76.949983, "is_reserved": 0, "fusion_lon": 0.0, "bike_id": "463954757214e49ddfd8e27e4d71b412", "name": "463954757214e49ddfd8e27e4d71b412", "rental_uris": {"ios": "https://dc.lft.to/lastmile_qr_scan", "android": "https://dc.lft.to/lastmile_qr_scan"}}, {"is_disabled": 0, "fusion_lat": 0.0, "lat": 38.884334, "type": "electric_scooter", "lon": -76.95756566666667, "is_reserved": 0, "fusion_lon": 0.0, "bike_id": "348f145348bc55e1a4aefe3b0dcb7f25", "name": "348f145348bc55e1a4aefe3b0dcb7f25", "rental_uris": {"ios": "https://dc.lft.to/lastmile_qr_scan", "android": "https://dc.lft.to/lastmile_qr_scan"}}, {"is_disabled": 0, "fusion_lat": 0.0, "lat": 38.89345333333333, "type": "electric_scooter", "lon": -77.01200433333334, "is_reserved": 0, "fusion_lon": 0.0, "bike_id": "aa746b349e60f359064a51c92659e094", "name": "aa746b349e60f359064a51c92659e094", "rental_uris": {"ios": "https://dc.lft.to/lastmile_qr_scan", "android": "https://dc.lft.to/lastmile_qr_scan"}}, {"is_disabled": 0, "fusion_lat": 0.0, "lat": 38.907489, "type": "electric_scooter", "lon": -77.00114166666667, "is_reserved": 0, "fusion_lon": 0.0, "bike_id": "3493515f4b8c354a958e97d978e50839", "name": "3493515f4b8c354a958e97d978e50839", "rental_uris": {"ios": "https://dc.lft.to/lastmile_qr_scan", "android": "https://dc.lft.to/lastmile_qr_scan"}}, {"is_disabled": 0, "fusion_lat": 0.0, "lat": 38.938436333333335, "type": "electric_scooter", "lon": -77.02457566666666, "is_reserved": 0, "fusion_lon": 0.0, "bike_id": "aba1ddd72cc021a56c71ac03cf1ad602", "name": "aba1ddd72cc021a56c71ac03cf1ad602", "rental_uris": {"ios": "https://dc.lft.to/lastmile_qr_scan", "android": "https://dc.lft.to/lastmile_qr_scan"}}, {"is_disabled": 0, "fusion_lat": 0.0, "lat": 38.91552383333333, "type": "electric_scooter", "lon": -77.019924, "is_reserved": 0, "fusion_lon": 0.0, "bike_id": "0a259d537adbebf1c441998ee2106f0d", "name": "0a259d537adbebf1c441998ee2106f0d", "rental_uris": {"ios": "https://dc.lft.to/lastmile_qr_scan", "android": "https://dc.lft.to/lastmile_qr_scan"}}, {"is_disabled": 0, "fusion_lat": 0.0, "lat": 38.88229966666667, "type": "electric_scooter", "lon": -76.92660716666667, "is_reserved": 0, "fusion_lon": 0.0, "bike_id": "30a7a04ad598be922ba30bea1bc4f481", "name": "30a7a04ad598be922ba30bea1bc4f481", "rental_uris": {"ios": "https://dc.lft.to/lastmile_qr_scan", "android": "https://dc.lft.to/lastmile_qr_scan"}}, {"is_disabled": 0, "fusion_lat": 0.0, "lat": 38.925046, "type": "electric_scooter", "lon": -77.0088935, "is_reserved": 0, "fusion_lon": 0.0, "bike_id": "32332f58cabcd9727941ee28af9b2a82", "name": "32332f58cabcd9727941ee28af9b2a82", "rental_uris": {"ios": "https://dc.lft.to/lastmile_qr_scan", "android": "https://dc.lft.to/lastmile_qr_scan"}}, {"is_disabled": 0, "fusion_lat": 0.0, "lat": 38.839406833333335, "type": "electric_bike", "lon": -77.0789025, "is_reserved": 0, "fusion_lon": 0.0, "bike_id": "c13425bbb40fcd8309fffd3a32037188", "name": "c13425bbb40fcd8309fffd3a32037188", "rental_uris": {"ios": "https://dc.lft.to/lastmile_qr_scan", "android": "https://dc.lft.to/lastmile_qr_scan"}}, {"is_disabled": 0, "fusion_lat": 0.0, "lat": 38.918253166666666, "type": "electric_scooter", "lon": -77.03642116666667, "is_reserved": 0, "fusion_lon": 0.0, "bike_id": "9116433227155fe4e1b0d77113db99c7", "name": "9116433227155fe4e1b0d77113db99c7", "rental_uris": {"ios": "https://dc.lft.to/lastmile_qr_scan", "android": "https://dc.lft.to/lastmile_qr_scan"}}, {"is_disabled": 0, "fusion_lat": 0.0, "lat": 38.9343855, "type": "electric_scooter", "lon": -77.03441916666667, "is_reserved": 0, "fusion_lon": 0.0, "bike_id": "505c84194c980ac532e84ff0e6000155", "name": "505c84194c980ac532e84ff0e6000155", "rental_uris": {"ios": "https://dc.lft.to/lastmile_qr_scan", "android": "https://dc.lft.to/lastmile_qr_scan"}}, {"is_disabled": 0, "fusion_lat": 0.0, "lat": 38.961749, "type": "electric_bike", "lon": -76.99590266666667, "is_reserved": 0, "fusion_lon": 0.0, "bike_id": "cdf8f6c2cf40f295f02e4b8b48c820b6", "name": "cdf8f6c2cf40f295f02e4b8b48c820b6", "rental_uris": {"ios": "https://dc.lft.to/lastmile_qr_scan", "android": "https://dc.lft.to/lastmile_qr_scan"}}, {"is_disabled": 0, "fusion_lat": 0.0, "lat": 38.907404, "type": "electric_scooter", "lon": -77.02391666666666, "is_reserved": 0, "fusion_lon": 0.0, "bike_id": "ec7a5f008f9d90ed8bc78d2be56a21cc", "name": "ec7a5f008f9d90ed8bc78d2be56a21cc", "rental_uris": {"ios": "https://dc.lft.to/lastmile_qr_scan", "android": "https://dc.lft.to/lastmile_qr_scan"}},