{"data": {"bikes": [{"rental_uris": {"ios": "https://dc.lft.to/lastmile_qr_scan", "android": "https://dc.lft.to/lastmile_qr_scan"}, "lon": -76.99817366666667, "type": "electric_scooter", "fusion_lat": 0.0, "lat": 38.900101, "name": "fd7c71eddf35a55411bb2fc25520aa0e", "fusion_lon": 0.0, "bike_id": "fd7c71eddf35a55411bb2fc25520aa0e", "is_disabled": 0, "is_reserved": 0}, {"rental_uris": {"ios": "https://dc.lft.to/lastmile_qr_scan", "android": "https://dc.lft.to/lastmile_qr_scan"}, "lon": -77.0072665, "type": "electric_scooter", "fusion_lat": 0.0, "lat": 38.8849065, "name": "0d735041897cf06b22ac26bbc1281cfb", "fusion_lon": 0.0, "bike_id": "0d735041897cf06b22ac26bbc1281cfb", "is_disabled": 0, "is_reserved": 0}, {"rental_uris": {"ios": "https://dc.lft.to/lastmile_qr_scan", "android": "https://dc.lft.to/lastmile_qr_scan"}, "lon": -77.0284245, "type": "electric_scooter", "fusion_lat": 0.0, "lat": 38.9426225, "name": "6adcce06a26509875a852823df19cb56", "fusion_lon": 0.0, "bike_id": "6adcce06a26509875a852823df19cb56", "is_disabled": 0, "is_reserved": 0}, {"rental_uris": {"ios": "https://dc.lft.to/lastmile_qr_scan", "android": "https://dc.lft.to/lastmile_qr_scan"}, "lon": -77.353125, "type": "electric_bike", "fusion_lat": 0.0, "lat": 38.950024666666664, "name": "20d734216c78a33d73df2eba97d9dcca", "fusion_lon": 0.0, "bike_id": "20d734216c78a33d73df2eba97d9dcca", "is_disabled": 0, "is_reserved": 0}, {"rental_uris": {"ios": "https://dc.lft.to/lastmile_qr_scan", "android": "https://dc.lft.to/lastmile_qr_scan"}, "lon": -77.04746833333333, "type": "electric_scooter", "fusion_lat": 0.0, "lat": 38.91770533333333, "name": "769ea0a71aa72cc84c0fc927d29d8454", "fusion_lon": 0.0, "bike_id": "769ea0a71aa72cc84c0fc927d29d8454", "is_disabled": 0, "is_reserved": 0}, {"rental_uris": {"ios": "https://dc.lft.to/lastmile_qr_scan", "android": "https://dc.lft.to/lastmile_qr_scan"}, "lon": -77.02966816666667, "type": "electric_scooter", "fusion_lat": 0.0, "lat": 38.90617616666667, "name": "55925e47b799fbed06ca439fd9726b15", "fusion_lon": 0.0, "bike_id": "55925e47b799fbed06ca439fd9726b15", "is_disabled": 0, "is_reserved": 0}, {"rental_uris": {"ios": "https://dc.lft.to/lastmile_qr_scan", "android": "https://dc.lft.to/lastmile_qr_scan"}, "lon": -77.03175466666667, "type": "electric_scooter", "fusion_lat": 0.0, "lat": 38.919228833333335, "name": "df67c1fb4ffeed7ec69f5b1a281ce6f0", "fusion_lon": 0.0, "bike_id": "df67c1fb4ffeed7ec69f5b1a281ce6f0", "is_disabled": 0, "is_reserved": 0}, {"rental_uris": {"ios": "https://dc.lft.to/lastmile_qr_scan", "android": "https://dc.lft.to/lastmile_qr_scan"}, "lon": -76.93175733333334, "type": "electric_scooter", "fusion_lat": 0.0, "lat": 38.898836333333335, "name": "964e0e0388a2870c7b4e682df469f670", "fusion_lon": 0.0, "bike_id": "964e0e0388a2870c7b4e682df469f670", "is_disabled": 0, "is_reserved": 0}, {"rental_uris": {"ios": "https://dc.lft.to/lastmile_qr_scan", "android": "https://dc.lft.to/lastmile_qr_scan"}, "lon": -76.994852, "type": "electric_scooter", "fusion_lat": 0.0, "lat": 38.86237116666667, "name": "a8fdb86ae19320e8e850e4cc5de6d683", "fusion_lon": 0.0, "bike_id": "a8fdb86ae19320e8e850e4cc5de6d683", "is_disabled": 0, "is_reserved": 0}, {"rental_uris": {"ios": "https://dc.lft.to/lastmile_qr_scan", "android": "https://dc.lft.to/lastmile_qr_scan"}, "lon": -77.01860183333334, "type": "electric_scooter", "fusion_lat": 0.0, "lat": 38.892686833333336, "name": "ab36fce49cf24d3637d63b301cc3c295", "fusion_lon": 0.0, "bike_id": "ab36fce49cf24d3637d63b301cc3c295", "is_disabled": 0, "is_reserved": 0}, {"rental_uris": {"ios": "https://dc.lft.to/lastmile_qr_scan", "android": "https://dc.lft.to/lastmile_qr_scan"}, "lon": -77.0254375, "type": "electric_scooter", "fusion_lat": 0.0, "lat": 38.89223366666667, "name": "69481f98ca4e7e515dfa3e852b5bd229", "fusion_lon": 0.0, "bike_id": "69481f98ca4e7e515dfa3e852b5bd229", "is_disabled": 0, "is_reserved": 0}, {"rental_uris": {"ios": "https://dc.lft.to/lastmile_qr_scan", "android": "https://dc.lft.to/lastmile_qr_scan"}, "lon": -77.03619133333333, "type": "electric_scooter", "fusion_lat": 0.0, "lat": 38.93736833333333, "name": "c73a3f7ab3d3792ed458a1f797ac0601", "fusion_lon": 0.0, "bike_id": "c73a3f7ab3d3792ed458a1f797ac0601", "is_disabled": 0, "is_reserved": 0}, {"rental_uris": {"ios": "https://dc.lft.to/lastmile_qr_scan", "android": "https://dc.lft.to/lastmile_qr_scan"}, "lon": -77.0025895, "type": "electric_bike", "fusion_lat": 0.0, "lat": 38.91179783333333, "name": "aa26c1336ea504b2d46b576a96ba7ec1", "fusion_lon": 0.0, "bike_id": "aa26c1336ea504b2d46b576a96ba7ec1", "is_disabled": 0, "is_reserved": 0}, {"rental_uris": {"ios": "https://dc.lft.to/lastmile_qr_scan", "android": "https://dc.lft.to/lastmile_qr_scan"}, "lon": -77.033109, "type": "electric_scooter", "fusion_lat": 0.0, "lat": 38.9014915, "name": "f31cfd58e4e4654e328169e57d57cbaf", "fusion_lon": 0.0, "bike_id": "f31cfd58e4e4654e328169e57d57cbaf", "is_disabled": 0, "is_reserved": 0}, {"rental_uris": {"ios": "https://dc.lft.to/lastmile_qr_scan", "android": "https://dc.lft.to/lastmile_qr_scan"}, "lon": -77.0429915, "type": "electric_scooter", "fusion_lat": 0.0, "lat": 38.92298, "name": "cbe824ec111d6a154d044dfbce95106f", "fusion_lon": 0.0, "bike_id": "cbe824ec111d6a154d044dfbce95106f", "is_disabled": 0, "is_reserved": 0}, {"rental_uris": {"ios": "https://dc.lft.to/lastmile_qr_scan", "android": "https://dc.lft.to/lastmile_qr_scan"}, "lon": -77.06348716666666, "type": "electric_scooter", "fusion_lat": 0.0, "lat": 38.944505, "name": "893ab2260108626e84867c4a2bf441b8", "fusion_lon": 0.0, "bike_id": "893ab2260108626e84867c4a2bf441b8", "is_disabled": 0, "is_reserved": 0}, {"rental_uris": {"ios": "https://dc.lft.to/lastmile_qr_scan", "android": "https://dc.lft.to/lastmile_qr_scan"}, "lon": -77.18293483333333, "type": "electric_bike", "fusion_lat": 0.0, "lat": 38.88341483333333, "name": "f8a40b39f00235605bcce2ea9358e35a", "fusion_lon": 0.0, "bike_id": "f8a40b39f00235605bcce2ea9358e35a", "is_disabled": 0, "is_reserved": 0}, {"rental_uris": {"ios": "https://dc.lft.to/lastmile_qr_scan", "android": "https://dc.lft.to/lastmile_qr_scan"}, "lon": -77.03876466666667, "type": "electric_scooter", "fusion_lat": 0.0, "lat": 38.90811866666667, "name": "8048641c78297f12a48a39bf77d0828a", "fusion_lon": 0.0, "bike_id": "8048641c78297f12a48a39bf77d0828a", "is_disabled": 0, "is_reserved": 0}, {"rental_uris": {"ios": "https://dc.lft.to/lastmile_qr_scan", "android": "https://dc.lft.to/lastmile_qr_scan"}, "lon": -77.025857, "type": "electric_scooter", "fusion_lat": 0.0, "lat": 38.920365333333336, "name": "fb9c97fd6aaf4c93eef88b65d8150840", "fusion_lon": 0.0, "bike_id": "fb9c97fd6aaf4c93eef88b65d8150840", "is_disabled": 0, "is_reserved": 0}, {"rental_uris": {"ios": "https://dc.lft.to/lastmile_qr_scan", "android": "https://dc.lft.to/lastmile_qr_scan"}, "lon": -77.04003383333334, "type": "electric_scooter", "fusion_lat": 0.0, "lat": 38.90032433333333, "name": "8abdf06a3f5fcd78cb82b399fc77ff22", "fusion_lon": 0.0, "bike_id": "8abdf06a3f5fcd78cb82b399fc77ff22", "is_disabled": 0, "is_reserved": 0}, {"rental_uris": {"ios": "https://dc.lft.to/lastmile_qr_scan", "android": "https://dc.lft.to/lastmile_qr_scan"}, "lon": -77.01748716666667, "type": "electric_scooter", "fusion_lat": 0.0, "lat": 38.905635833333335, "name": "68bf3537b864962746f42deceab93102", "fusion_lon": 0.0, "bike_id": "68bf3537b864962746f42deceab93102", "is_disabled": 0, "is_reserved": 0}, {"rental_uris": {"ios": "https://dc.lft.to/lastmile_qr_scan", "android": "https://dc.lft.to/lastmile_qr_scan"}, "lon": -77.03182516666666, "type": "electric_scooter", "fusion_lat": 0.0, "lat": 38.917224166666664, "name": "404964e0609472fc160c1e1025d6998b", "fusion_lon": 0.0, "bike_id": "404964e0609472fc160c1e1025d6998b", "is_disabled": 0, "is_reserved": 0}, {"rental_uris": {"ios": "https://dc.lft.to/lastmile_qr_scan", "android": "https://dc.lft.to/lastmile_qr_scan"}, "lon": -76.9782125, "type": "electric_scooter", "fusion_lat": 0.0, "lat": 38.89519383333333, "name": "d12204fbb3ce7f1ad1192d1e37d28a74", "fusion_lon": 0.0, "bike_id": "d12204fbb3ce7f1ad1192d1e37d28a74", "is_disabled": 0, "is_reserved": 0}, {"rental_uris": {"ios": "https://dc.lft.to/lastmile_qr_scan", "android": "https://dc.lft.to/lastmile_qr_scan"}, "lon": -76.990218, "type": "electric_scooter", "fusion_lat": 0.0, "lat": 38.858697166666666, "name": "059171d0cb78b06b545d24f56d7fa0bc", "fusion_lon": 0.0, "bike_id": "059171d0cb78b06b545d24f56d7fa0bc", "is_disabled": 0, "is_reserved": 0}, {"rental_uris": {"ios": "https://dc.lft.to/lastmile_qr_scan", "android": "https://dc.lft.to/lastmile_qr_scan"}, "lon": -76.931631, "type": "electric_scooter", "fusion_lat": 0.0, "lat": 38.89877333333333, "name": "54d992d43726470218c2eb7f14c81da1", "fusion_lon": 0.0, "bike_id": "54d992d43726470218c2eb7f14c81da1", "is_disabled": 0, "is_reserved": 0}, {"rental_uris": {"ios": "https://dc.lft.to/lastmile_qr_scan", "android": "https://dc.lft.to/lastmile_qr_scan"}, "lon": -77.00205166666667, "type": "electric_scooter", "fusion_lat": 0.0, "lat": 38.90024616666667, "name": "be8fd2bcaae0f430e7cdc30cb6bac477", "fusion_lon": 0.0, "bike_id": "be8fd2bcaae0f430e7cdc30cb6bac477", "is_disabled": 0, "is_reserved": 0}, {"rental_uris": {"ios": "https://dc.lft.to/lastmile_qr_scan", "android": "https://dc.lft.to/lastmile_qr_scan"}, "lon": -77.03369666666667, "type": "electric_scooter", "fusion_lat": 0.0, "lat": 38.928709166666664, "name": "8d8e67699a611cdb9443d171e85cf05e", "fusion_lon": 0.0, "bike_id": "8d8e67699a611cdb9443d171e85cf05e", "is_disabled": 0, "is_reserved": 0}, {"rental_uris": {"ios": "https://dc.lft.to/lastmile_qr_scan", "android": "https://dc.lft.to/lastmile_qr_scan"}, "lon": -77.05005516666667, "type": "electric_scooter", "fusion_lat": 0.0, "lat": 38.8923, "name": "39eac03e219f7e831bc5d7831bf141d7", "fusion_lon": 0.0, "bike_id": "39eac03e219f7e831bc5d7831bf141d7", "is_disabled": 0, "is_reserved": 0}, {"rental_uris": {"ios": "https://dc.lft.to/lastmile_qr_scan", "android": "https://dc.lft.to/lastmile_qr_scan"}, "lon": -76.98157266666666, "type": "electric_scooter", "fusion_lat": 0.0, "lat": 38.9002205, "name": "94f14502f12249f465e3fea840172651", "fusion_lon": 0.0, "bike_id": "94f14502f12249f465e3fea840172651", "is_disabled": 0, "is_reserved": 0}, {"rental_uris": {"ios": "https://dc.lft.to/lastmile_qr_scan", "android": "https://dc.lft.to/lastmile_qr_scan"}, "lon": -77.03842233333333, "type": "electric_scooter", "fusion_lat": 0.0, "lat": 38.909805666666664, "name": "7d2bc65d3769c2f535ac1afffa5abda5", "fusion_lon": 0.0, "bike_id": "7d2bc65d3769c2f535ac1afffa5abda5", "is_disabled": 0, "is_reserved": 0}, {"rental_uris": {"ios": "https://dc.lft.to/lastmile_qr_scan", "android": "https://dc.lft.to/lastmile_qr_scan"}, "lon": -76.96303666666667, "type": "electric_bike", "fusion_lat": 0.0, "lat": 38.92706183333333, "name": "7020f417a96185bc85ef210f75b9e727", "fusion_lon": 0.0, "bike_id": "7020f417a96185bc85ef210f75b9e727", "is_disabled": 0, "is_reserved": 0}, {"rental_uris": {"ios": "https://dc.lft.to/lastmile_qr_scan", "android": "https://dc.lft.to/lastmile_qr_scan"}, "lon": -77.01186783333333, "type": "electric_scooter", "fusion_lat": 0.0, "lat": 38.90032516666667, "name": "b7cc75c51185fa504c7b546b01a7aeba", "fusion_lon": 0.0, "bike_id": "b7cc75c51185fa504c7b546b01a7aeba", "is_disabled": 0, "is_reserved": 0}, {"rental_uris": {"ios": "https://dc.lft.to/lastmile_qr_scan", "android": "https://dc.lft.to/lastmile_qr_scan"}, "lon": -77.04459433333334, "type": "electric_scooter", "fusion_lat": 0.0, "lat": 38.91115216666667, "name": "e3c3c3ad1a36766a26f42c74b3c6aded", "fusion_lon": 0.0, "bike_id": "e3c3c3ad1a36766a26f42c74b3c6aded", "is_disabled": 0, "is_reserved": 0}, {"rental_uris": {"ios": "https://dc.lft.to/lastmile_qr_scan", "android": "https://dc.lft.to/lastmile_qr_scan"}, "lon": -77.02337133333333, "type": "electric_scooter", "fusion_lat": 0.0, "lat": 38.9085365, "name": "f0447e9337e782ad8656c5ab4c3b316d", "fusion_lon": 0.0, "bike_id": "f0447e9337e782ad8656c5ab4c3b316d", "is_disabled": 0, "is_reserved": 0}, {"rental_uris": {"ios": "https://dc.lft.to/lastmile_qr_scan", "android": "https://dc.lft.to/lastmile_qr_scan"}, "lon": -77.01389716666667, "type": "electric_scooter", "fusion_lat": 0.0, "lat": 38.92885416666667, "name": "d1d891cec8b9ee84099d57a688e5361d", "fusion_lon": 0.0, "bike_id": "d1d891cec8b9ee84099d57a688e5361d", "is_disabled": 0, "is_reserved": 0}, {"rental_uris": {"ios": "https://dc.lft.to/lastmile_qr_scan", "android": "https://dc.lft.to/lastmile_qr_scan"}, "lon": -77.03196016666666, "type": "electric_scooter", "fusion_lat": 0.0, "lat": 38.912492666666665, "name": "a89c7149b8a1157ed975fad1c0d30ef6", "fusion_lon": 0.0, "bike_id": "a89c7149b8a1157ed975fad1c0d30ef6", "is_disabled": 0, "is_reserved": 0}, {"rental_uris": {"ios": "https://dc.lft.to/lastmile_qr_scan", "android": "https://dc.lft.to/lastmile_qr_scan"}, "lon": -77.03605116666667, "type": "electric_scooter", "fusion_lat": 0.0, "lat": 38.93485366666667, "name": "2adc21f15fba6842de444b933be70020", "fusion_lon": 0.0, "bike_id": "2adc21f15fba6842de444b933be70020", "is_disabled": 0, "is_reserved": 0}, {"rental_uris": {"ios": "https://dc.lft.to/lastmile_qr_scan", "android": "https://dc.lft.to/lastmile_qr_scan"}, "lon": -77.04549183333333, "type": "electric_scooter", "fusion_lat": 0.0, "lat": 38.934025166666665, "name": "999d39abd12af1ca2f050ba46375e07d", "fusion_lon": 0.0, "bike_id": "999d39abd12af1ca2f050ba46375e07d", "is_disabled": 0, "is_reserved": 0}, {"rental_uris": {"ios": "https://dc.lft.to/lastmile_qr_scan", "android": "https://dc.lft.to/lastmile_qr_scan"}, "lon": -77.02007366666666, "type": "electric_scooter", "fusion_lat": 0.0, "lat": 38.913106, "name": "82002c2edc5711251452d4e69885bf0a", "fusion_lon": 0.0, "bike_id": "82002c2edc5711251452d4e69885bf0a", "is_disabled": 0, "is_reserved": 0}, {"rental_uris": {"ios": "https://dc.lft.to/lastmile_qr_scan", "android": "https://dc.lft.to/lastmile_qr_scan"}, "lon": -77.00619566666667, "type": "electric_scooter", "fusion_lat": 0.0, "lat": 38.902592166666665, "name": "92ac0b38c786dad4a2f4a073a6f51db2", "fusion_lon": 0.0, "bike_id": "92ac0b38c786dad4a2f4a073a6f51db2", "is_disabled": 0, "is_reserved": 0}, {"rental_uris": {"ios": "https://dc.lft.to/lastmile_qr_scan", "android": "https://dc.lft.to/lastmile_qr_scan"}, "lon": -76.989675, "type": "electric_scooter", "fusion_lat": 0.0, "lat": 38.9024435, "name": "140045d2b15f210b2e3e231f539bf8ad", "fusion_lon": 0.0, "bike_id": "140045d2b15f210b2e3e231f539bf8ad", "is_disabled": 0, "is_reserved": 0}, {"rental_uris": {"ios": "https://dc.lft.to/lastmile_qr_scan", "android": "https://dc.lft.to/lastmile_qr_scan"}, "lon": -77.02709983333334, "type": "electric_scooter", "fusion_lat": 0.0, "lat": 38.950005166666664, "name": "ba2e792ee83eb6597f86fbb2c55cca55", "fusion_lon": 0.0, "bike_id": "ba2e792ee83eb6597f86fbb2c55cca55", "is_disabled": 0, "is_reserved": 0}, {"rental_uris": {"ios": "https://dc.lft.to/lastmile_qr_scan", "android": "https://dc.lft.to/lastmile_qr_scan"}, "lon": -77.03956883333333, "type": "electric_scooter", "fusion_lat": 0.0, "lat": 38.89248416666667, "name": "35da624d72ab6526252ed32ade308edb", "fusion_lon": 0.0, "bike_id": "35da624d72ab6526252ed32ade308edb", "is_disabled": 0, "is_reserved": 0}, {"rental_uris": {"ios": "https://dc.lft.to/lastmile_qr_scan", "android": "https://dc.lft.to/lastmile_qr_scan"}, "lon": -77.03129383333334, "type": "electric_scooter", "fusion_lat": 0.0, "lat": 38.90666866666667, "name": "293ff2c1cd0129ee3d2c991bf060a47a", "fusion_lon": 0.0, "bike_id": "293ff2c1cd0129ee3d2c991bf060a47a", "is_disabled": 0, "is_reserved": 0}, {"rental_uris": {"ios": "https://dc.lft.to/lastmile_qr_scan", "android": "https://dc.lft.to/lastmile_qr_scan"}, "lon": -76.94637583333333, "type": "electric_scooter", "fusion_lat": 0.0, "lat": 38.898319, "name": "2131d2386696fa9936dd7c46e997f9a6", "fusion_lon": 0.0, "bike_id": "2131d2386696fa9936dd7c46e997f9a6", "is_disabled": 0, "is_reserved": 0}, {"rental_uris": {"ios": "https://dc.lft.to/lastmile_qr_scan", "android": "https://dc.lft.to/lastmile_qr_scan"}, "lon": -77.039177, "type": "electric_scooter", "fusion_lat": 0.0, "lat": 38.9184205, "name": "1e9712166d4ea519ffb4fbe91b09d5a3", "fusion_lon": 0.0, "bike_id": "1e9712166d4ea519ffb4fbe91b09d5a3", "is_disabled": 0, "is_reserved": 0}, {"rental_uris": {"ios": "https://dc.lft.to/lastmile_qr_scan", "android": "https://dc.lft.to/lastmile_qr_scan"}, "lon": -77.00027383333334, "type": "electric_scooter", "fusion_lat": 0.0, "lat": 38.90830616666667, "name": "96cff4324587700f022e38cff0e80e43", "fusion_lon": 0.0, "bike_id": "96cff4324587700f022e38cff0e80e43", "is_disabled": 0, "is_reserved": 0}, {"rental_uris": {"ios": "https://dc.lft.to/lastmile_qr_scan", "android": "https://dc.lft.to/lastmile_qr_scan"}, "lon": -77.0125105, "type": "electric_scooter", "fusion_lat": 0.0, "lat": 38.899669333333335, "name": "5c1a779131fe0c3c80171f5c0b268608", "fusion_lon": 0.0, "bike_id": "5c1a779131fe0c3c80171f5c0b268608", "is_disabled": 0, "is_reserved": 0}, {"rental_uris": {"ios": "https://dc.lft.to/lastmile_qr_scan", "android": "https://dc.lft.to/lastmile_qr_scan"}, "lon": -77.01426616666667, "type": "electric_scooter", "fusion_lat": 0.0, "lat": 38.877465, "name": "3d57d173294714430dd8965264a1eed1", "fusion_lon": 0.0, "bike_id": "3d57d173294714430dd8965264a1eed1", "is_disabled": 0, "is_reserved": 0}, {"rental_uris": {"ios": "https://dc.lft.to/lastmile_qr_scan", "android": "https://dc.lft.to/lastmile_qr_scan"}, "lon": -77.13597733333333, "type": "electric_bike", "fusion_lat": 0.0, "lat": 39.05347183333333, "name": "be6f87b235ec15755712493662905909", "fusion_lon": 0.0, "bike_id": "be6f87b235ec15755712493662905909", "is_disabled": 0, "is_reserved": 0}, {"rental_uris": {"ios": "https://dc.lft.to/lastmile_qr_scan", "android": "https://dc.lft.to/lastmile_qr_scan"}, "lon": -77.02941183333333, "type": "electric_scooter", "fusion_lat": 0.0, "lat": 38.920619333333335, "name": "8a13e5317f51876859c7ba966b78427c", "fusion_lon": 0.0, "bike_id": "8a13e5317f51876859c7ba966b78427c", "is_disabled": 0, "is_reserved": 0}, {"rental_uris": {"ios": "https://dc.lft.to/lastmile_qr_scan", "android": "https://dc.lft.to/lastmile_qr_scan"}, "lon": -77.043066, "type": "electric_scooter", "fusion_lat": 0.0, "lat": 38.922566333333336, "name": "e7ea1853efca8544f370adff3937ca9d", "fusion_lon": 0.0, "bike_id": "e7ea1853efca8544f370adff3937ca9d", "is_disabled": 0, "is_reserved": 0}, {"rental_uris": {"ios": "https://dc.lft.to/lastmile_qr_scan", "android": "https://dc.lft.to/lastmile_qr_scan"}, "lon": -76.98634233333334, "type": "electric_scooter", "fusion_lat": 0.0, "lat": 38.86819766666667, "name": "f030b7afd7ea3d9a1219b14c51db030e", "fusion_lon": 0.0, "bike_id": "f030b7afd7ea3d9a1219b14c51db030e", "is_disabled": 0, "is_reserved": 0}, {"rental_uris": {"ios": "https://dc.lft.to/lastmile_qr_scan", "android": "https://dc.lft.to/lastmile_qr_scan"}, "lon": -77.00893466666666, "type": "electric_scooter", "fusion_lat": 0.0, "lat": 38.89775066666667, "name": "a99009684c2376026f10de3afda389c6", "fusion_lon": 0.0, "bike_id": "a99009684c2376026f10de3afda389c6", "is_disabled": 0, "is_reserved": 0}, {"rental_uris": {"ios": "https://dc.lft.to/lastmile_qr_scan", "android": "https://dc.lft.to/lastmile_qr_scan"}, "lon": -77.04481216666667, "type": "electric_scooter", "fusion_lat": 0.0, "lat": 38.90642233333333, "name": "0fd69b7527b43950c0ad98407441ed15", "fusion_lon": 0.0, "bike_id": "0fd69b7527b43950c0ad98407441ed15", "is_disabled": 0, "is_reserved": 0}, {"rental_uris": {"ios": "https://dc.lft.to/lastmile_qr_scan", "android": "https://dc.lft.to/lastmile_qr_scan"}, "lon": -77.05253866666666, "type": "electric_scooter", "fusion_lat": 0.0, "lat": 38.92377616666667, "name": "7376560848e666565dc7d9895b31e218", "fusion_lon": 0.0, "bike_id": "7376560848e666565dc7d9895b31e218", "is_disabled": 0, "is_reserved": 0}, {"rental_uris": {"ios": "https://dc.lft.to/lastmile_qr_scan", "android": "https://dc.lft.to/lastmile_qr_scan"}, "lon": -77.0320105, "type": "electric_scooter", "fusion_lat": 0.0, "lat": 38.904005166666664, "name": "d0a096f700e21823c1879f3dcacb1e0e", "fusion_lon": 0.0, "bike_id": "d0a096f700e21823c1879f3dcacb1e0e", "is_disabled": 0, "is_reserved": 0}, {"rental_uris": {"ios": "https://dc.lft.to/lastmile_qr_scan", "android": "https://dc.lft.to/lastmile_qr_scan"}, "lon": -77.015155, "type": "electric_scooter", "fusion_lat": 0.0, "lat": 38.88730533333333, "name": "591e715154976771d3c669d285345c72", "fusion_lon": 0.0, "bike_id": "591e715154976771d3c669d285345c72", "is_disabled": 0, "is_reserved": 0}, {"rental_uris": {"ios": "https://dc.lft.to/lastmile_qr_scan", "android": "https://dc.lft.to/lastmile_qr_scan"}, "lon": -77.0174685, "type": "electric_scooter", "fusion_lat": 0.0, "lat": 38.9171395, "name": "ab0a58927332441ceb7e0206c1965011", "fusion_lon": 0.0, "bike_id": "ab0a58927332441ceb7e0206c1965011", "is_disabled": 0, "is_reserved": 0}, {"rental_uris": {"ios": "https://dc.lft.to/lastmile_qr_scan", "android": "https://dc.lft.to/lastmile_qr_scan"}, "lon": -77.026021, "type": "electric_scooter", "fusion_lat": 0.0, "lat": 38.919925, "name": "58f47fb638e0d930a8b3ada4e447e252", "fusion_lon": 0.0, "bike_id": "58f47fb638e0d930a8b3ada4e447e252", "is_disabled": 0, "is_reserved": 0}, {"rental_uris": {"ios": "https://dc.lft.to/lastmile_qr_scan", "android": "https://dc.lft.to/lastmile_qr_scan"}, "lon": -77.0250145, "type": "electric_scooter", "fusion_lat": 0.0, "lat": 38.93639866666667, "name": "0065efbd9b1d279cdeaaf0e6133b3f4a", "fusion_lon": 0.0, "bike_id": "0065efbd9b1d279cdeaaf0e6133b3f4a", "is_disabled": 0, "is_reserved": 0}, {"rental_uris": {"ios": "https://dc.lft.to/lastmile_qr_scan", "android": "https://dc.lft.to/lastmile_qr_scan"}, "lon": -76.9044245, "type": "electric_bike", "fusion_lat": 0.0, "lat": 38.89774666666667, "name": "4c9e4b309defa591e93496eaf43e4bb5", "fusion_lon": 0.0, "bike_id": "4c9e4b309defa591e93496eaf43e4bb5", "is_disabled": 0, "is_reserved": 0}, {"rental_uris": {"ios": "https://dc.lft.to/lastmile_qr_scan", "android": "https://dc.lft.to/lastmile_qr_scan"}, "lon": -77.04885683333333, "type": "electric_scooter", "fusion_lat": 0.0, "lat": 38.91236816666667, "name": "2f148b39bb5b008e41987ab9267e684f", "fusion_lon": 0.0, "bike_id": "2f148b39bb5b008e41987ab9267e684f", "is_disabled": 0, "is_reserved": 0}, {"rental_uris": {"ios": "https://dc.lft.to/lastmile_qr_scan", "android": "https://dc.lft.to/lastmile_qr_scan"}, "lon": -77.035892, "type": "electric_scooter", "fusion_lat": 0.0, "lat": 38.902288166666665, "name": "b8ccce6a634b2937537b8c7f45eb31f9", "fusion_lon": 0.0, "bike_id": "b8ccce6a634b2937537b8c7f45eb31f9", "is_disabled": 0, "is_reserved": 0}, {"rental_uris": {"ios": "https://dc.lft.to/lastmile_qr_scan", "android": "https://dc.lft.to/lastmile_qr_scan"}, "lon": -77.02469933333333, "type": "electric_scooter", "fusion_lat": 0.0, "lat": 38.93296083333333, "name": "161068afa528d14def36693bcfe23cef", "fusion_lon": 0.0, "bike_id": "161068afa528d14def36693bcfe23cef", "is_disabled": 0, "is_reserved": 0}, {"rental_uris": {"ios": "https://dc.lft.to/lastmile_qr_scan", "android": "https://dc.lft.to/lastmile_qr_scan"}, "lon": -77.030828, "type": "electric_scooter", "fusion_lat": 0.0, "lat": 38.909927333333336, "name": "a088ad6c3435eb13cea0c9426fd50dbc", "fusion_lon": 0.0, "bike_id": "a088ad6c3435eb13cea0c9426fd50dbc", "is_disabled": 0, "is_reserved": 0}, {"rental_uris": {"ios": "https://dc.lft.to/lastmile_qr_scan", "android": "https://dc.lft.to/lastmile_qr_scan"}, "lon": -77.01212833333334, "type": "electric_scooter", "fusion_lat": 0.0, "lat": 38.91518716666667, "name": "7901ad71e59243bfcd8a34dfcd1eb452", "fusion_lon": 0.0, "bike_id": "7901ad71e59243bfcd8a34dfcd1eb452", "is_disabled": 0, "is_reserved": 0}, {"rental_uris": {"ios": "https://dc.lft.to/lastmile_qr_scan", "android": "https://dc.lft.to/lastmile_qr_scan"}, "lon": -77.0343765, "type": "electric_scooter", "fusion_lat": 0.0, "lat": 38.903523666666665, "name": "3339800dba77544fa8c3da2cda366afc", "fusion_lon": 0.0, "bike_id": "3339800dba77544fa8c3da2cda366afc", "is_disabled": 0, "is_reserved": 0}, {"rental_uris": {"ios": "https://dc.lft.to/lastmile_qr_scan", "android": "https://dc.lft.to/lastmile_qr_scan"}, "lon": -77.00729316666667, "type": "electric_scooter", "fusion_lat": 0.0, "lat": 38.88491333333333, "name": "8110afe3c3258597e2252c3b1ff45cfd", "fusion_lon": 0.0, "bike_id": "8110afe3c3258597e2252c3b1ff45cfd", "is_disabled": 0, "is_reserved": 0}, {"rental_uris": {"ios": "https://dc.lft.to/lastmile_qr_scan", "android": "https://dc.lft.to/lastmile_qr_scan"}, "lon": -77.04609983333333, "type": "electric_scooter", "fusion_lat": 0.0, "lat": 38.9139065, "name": "e72254ab65d07ff4fb73553ad51616bd", "fusion_lon": 0.0, "bike_id": "e72254ab65d07ff4fb73553ad51616bd", "is_disabled": 0, "is_reserved": 0}, {"rental_uris": {"ios": "https://dc.lft.to/lastmile_qr_scan", "android": "https://dc.lft.to/lastmile_qr_scan"}, "lon": -77.0952565, "type": "electric_bike", "fusion_lat": 0.0, "lat": 38.83812416666667, "name": "032f79427f80dd6294375488f5657b60", "fusion_lon": 0.0, "bike_id": "032f79427f80dd6294375488f5657b60", "is_disabled": 0, "is_reserved": 0}, {"rental_uris": {"ios": "https://dc.lft.to/lastmile_qr_scan", "android": "https://dc.lft.to/lastmile_qr_scan"}, "lon": -77.02220166666666, "type": "electric_scooter", "fusion_lat": 0.0, "lat": 38.891961333333334, "name": "ba3f4dfbba6b52d5c412733e44c20603", "fusion_lon": 0.0, "bike_id": "ba3f4dfbba6b52d5c412733e44c20603", "is_disabled": 0, "is_reserved": 0}, {"rental_uris": {"ios": "https://dc.lft.to/lastmile_qr_scan", "android": "https://dc.lft.to/lastmile_qr_scan"}, "lon": -77.04502583333333, "type": "electric_scooter", "fusion_lat": 0.0, "lat": 38.91572166666667, "name": "61c4786d358cc1c4532011f5c126294f", "fusion_lon": 0.0, "bike_id": "61c4786d358cc1c4532011f5c126294f", "is_disabled": 0, "is_reserved": 0}, {"rental_uris": {"ios": "https://dc.lft.to/lastmile_qr_scan", "android": "https://dc.lft.to/lastmile_qr_scan"}, "lon": -77.0282955, "type": "electric_scooter", "fusion_lat": 0.0, "lat": 38.89393166666667, "name": "896f48bfffb2ca18b9f903b6af16d2de", "fusion_lon": 0.0, "bike_id": "896f48bfffb2ca18b9f903b6af16d2de", "is_disabled": 0, "is_reserved": 0}, {"rental_uris": {"ios": "https://dc.lft.to/lastmile_qr_scan", "android": "https://dc.lft.to/lastmile_qr_scan"}, "lon": -76.994858, "type": "electric_scooter", "fusion_lat": 0.0, "lat": 38.86235116666667, "name": "8b2490f49fe9434158a0a5d039e0bb4b", "fusion_lon": 0.0, "bike_id": "8b2490f49fe9434158a0a5d039e0bb4b", "is_disabled": 0, "is_reserved": 0}, {"rental_uris": {"ios": "https://dc.lft.to/lastmile_qr_scan", "android": "https://dc.lft.to/lastmile_qr_scan"}, "lon": -76.9581775, "type": "electric_scooter", "fusion_lat": 0.0, "lat": 38.890566666666665, "name": "9551c75b825c35560683d167f8d5596b", "fusion_lon": 0.0, "bike_id": "9551c75b825c35560683d167f8d5596b", "is_disabled": 0, "is_reserved": 0}, {"rental_uris": {"ios": "https://dc.lft.to/lastmile_qr_scan", "android": "https://dc.lft.to/lastmile_qr_scan"}, "lon": -77.03213166666667, "type": "electric_scooter", "fusion_lat": 0.0, "lat": 38.911112333333335, "name": "78df695fe1b14272a11e14e34076fdff", "fusion_lon": 0.0, "bike_id": "78df695fe1b14272a11e14e34076fdff", "is_disabled": 0, "is_reserved": 0}, {"rental_uris": {"ios": "https://dc.lft.to/lastmile_qr_scan", "android": "https://dc.lft.to/lastmile_qr_scan"}, "lon": -77.03191983333333, "type": "electric_scooter", "fusion_lat": 0.0, "lat": 38.91664433333333, "name": "468e5aa506bd9e97c7710554e65eac1e", "fusion_lon": 0.0, "bike_id": "468e5aa506bd9e97c7710554e65eac1e", "is_disabled": 0, "is_reserved": 0}, {"rental_uris": {"ios": "https://dc.lft.to/lastmile_qr_scan", "android": "https://dc.lft.to/lastmile_qr_scan"}, "lon": -77.034744, "type": "electric_scooter", "fusion_lat": 0.0, "lat": 38.905644333333335, "name": "5c6c988cd4bb3f4a8e0ff215da3c537f", "fusion_lon": 0.0, "bike_id": "5c6c988cd4bb3f4a8e0ff215da3c537f", "is_disabled": 0, "is_reserved": 0}, {"rental_uris": {"ios": "https://dc.lft.to/lastmile_qr_scan", "android": "https://dc.lft.to/lastmile_qr_scan"}, "lon": -77.03251116666667, "type": "electric_scooter", "fusion_lat": 0.0, "lat": 38.918192833333336, "name": "aa15f1d59b50e91898887de0f68617de", "fusion_lon": 0.0, "bike_id": "aa15f1d59b50e91898887de0f68617de", "is_disabled": 0, "is_reserved": 0}, {"rental_uris": {"ios": "https://dc.lft.to/lastmile_qr_scan", "android": "https://dc.lft.to/lastmile_qr_scan"}, "lon": -77.031997, "type": "electric_scooter", "fusion_lat": 0.0, "lat": 38.917382, "name": "4405632ad083f2ff94d199be95de4c21", "fusion_lon": 0.0, "bike_id": "4405632ad083f2ff94d199be95de4c21", "is_disabled": 0, "is_reserved": 0}, {"rental_uris": {"ios": "https://dc.lft.to/lastmile_qr_scan", "android": "https://dc.lft.to/lastmile_qr_scan"}, "lon": -77.05596616666666, "type": "electric_scooter", "fusion_lat": 0.0, "lat": 38.92782033333334, "name": "9fb4250fa1d0c40af9d24b750d1fd2df", "fusion_lon": 0.0, "bike_id": "9fb4250fa1d0c40af9d24b750d1fd2df", "is_disabled": 0, "is_reserved": 0}, {"rental_uris": {"ios": "https://dc.lft.to/lastmile_qr_scan", "android": "https://dc.lft.to/lastmile_qr_scan"}, "lon": -77.0452375, "type": "electric_scooter", "fusion_lat": 0.0, "lat": 38.9097145, "name": "e29ec6477b2d5a96df20be586a3e0f3e", "fusion_lon": 0.0, "bike_id": "e29ec6477b2d5a96df20be586a3e0f3e", "is_disabled": 0, "is_reserved": 0}, {"rental_uris": {"ios": "https://dc.lft.to/lastmile_qr_scan", "android": "https://dc.lft.to/lastmile_qr_scan"}, "lon": -77.03351833333333, "type": "electric_scooter", "fusion_lat": 0.0, "lat": 38.8851095, "name": "9a809616dd2e43d8d66f6659551b8e38", "fusion_lon": 0.0, "bike_id": "9a809616dd2e43d8d66f6659551b8e38", "is_disabled": 0, "is_reserved": 0}, {"rental_uris": {"ios": "https://dc.lft.to/lastmile_qr_scan", "android": "https://dc.lft.to/lastmile_qr_scan"}, "lon": -77.0321035, "type": "electric_scooter", "fusion_lat": 0.0, "lat": 38.91314916666666, "name": "3ade78e516c821714ba77f5598789f83", "fusion_lon": 0.0, "bike_id": "3ade78e516c821714ba77f5598789f83", "is_disabled": 0, "is_reserved": 0}, {"rental_uris": {"ios": "https://dc.lft.to/lastmile_qr_scan", "android": "https://dc.lft.to/lastmile_qr_scan"}, "lon": -77.044794, "type": "electric_scooter", "fusion_lat": 0.0, "lat": 38.90402433333333, "name": "a1feae544322f59ba5ee0c9591e2c8e0", "fusion_lon": 0.0, "bike_id": "a1feae544322f59ba5ee0c9591e2c8e0", "is_disabled": 0, "is_reserved": 0}, {"rental_uris": {"ios": "https://dc.lft.to/lastmile_qr_scan", "android": "https://dc.lft.to/lastmile_qr_scan"}, "lon": -77.03824166666666, "type": "electric_scooter", "fusion_lat": 0.0, "lat": 38.92054616666667, "name": "530df5ea394858fcc533fdd46e9c4ef1", "fusion_lon": 0.0, "bike_id": "530df5ea394858fcc533fdd46e9c4ef1", "is_disabled": 0, "is_reserved": 0}, {"rental_uris": {"ios": "https://dc.lft.to/lastmile_qr_scan", "android": "https://dc.lft.to/lastmile_qr_scan"}, "lon": -77.01710866666667, "type": "electric_scooter", "fusion_lat": 0.0, "lat": 38.8922255, "name": "45dd015f7375664402bfbf8d7bd4b37e", "fusion_lon": 0.0, "bike_id": "45dd015f7375664402bfbf8d7bd4b37e", "is_disabled": 0, "is_reserved": 0}, {"rental_uris": {"ios": "https://dc.lft.to/lastmile_qr_scan", "android": "https://dc.lft.to/lastmile_qr_scan"}, "lon": -77.042871, "type": "electric_scooter", "fusion_lat": 0.0, "lat": 38.910397333333336, "name": "70fb610b6954f14f855c419bc4764aca", "fusion_lon": 0.0, "bike_id": "70fb610b6954f14f855c419bc4764aca", "is_disabled": 0, "is_reserved": 0}, {"rental_uris": {"ios": "https://dc.lft.to/lastmile_qr_scan", "android": "https://dc.lft.to/lastmile_qr_scan"}, "lon": -77.03206033333333, "type": "electric_scooter", "fusion_lat": 0.0, "lat": 38.93756616666667, "name": "ed305b9a6934ad2e85cfb0a753701bb2", "fusion_lon": 0.0, "bike_id": "ed305b9a6934ad2e85cfb0a753701bb2", "is_disabled": 0, "is_reserved": 0}, {"rental_uris": {"ios": "https://dc.lft.to/lastmile_qr_scan", "android": "https://dc.lft.to/lastmile_qr_scan"}, "lon": -77.01546033333334, "type": "electric_scooter", "fusion_lat": 0.0, "lat": 38.9027445, "name": "22510200c1c85012b923e742abc1c241", "fusion_lon": 0.0, "bike_id": "22510200c1c85012b923e742abc1c241", "is_disabled": 0, "is_reserved": 0}, {"rental_uris": {"ios": "https://dc.lft.to/lastmile_qr_scan", "android": "https://dc.lft.to/lastmile_qr_scan"}, "lon": -76.94653683333334, "type": "electric_scooter", "fusion_lat": 0.0, "lat": 38.89825733333333, "name": "a9d96dc1a13f97c090f21b92b115f9a1", "fusion_lon": 0.0, "bike_id": "a9d96dc1a13f97c090f21b92b115f9a1", "is_disabled": 0, "is_reserved": 0}, {"rental_uris": {"ios": "https://dc.lft.to/lastmile_qr_scan", "android": "https://dc.lft.to/lastmile_qr_scan"}, "lon": -77.026942, "type": "electric_scooter", "fusion_lat": 0.0, "lat": 38.9068585, "name": "07051ff8a4f20eb953dd30fc313ff7b0", "fusion_lon": 0.0, "bike_id": "07051ff8a4f20eb953dd30fc313ff7b0", "is_disabled": 0, "is_reserved": 0}, {"rental_uris": {"ios": "https://dc.lft.to/lastmile_qr_scan", "android": "https://dc.lft.to/lastmile_qr_scan"}, "lon": -76.97251683333333, "type": "electric_bike", "fusion_lat": 0.0, "lat": 38.95740933333333, "name": "b198b7602f391c4ea98e863baa1af55a", "fusion_lon": 0.0, "bike_id": "b198b7602f391c4ea98e863baa1af55a", "is_disabled": 0, "is_reserved": 0}, {"rental_uris": {"ios": "https://dc.lft.to/lastmile_qr_scan", "android": "https://dc.lft.to/lastmile_qr_scan"}, "lon": -77.0588285, "type": "electric_scooter", "fusion_lat": 0.0, "lat": 38.93631883333333, "name": "6135de489e27d688581477e5b3e99894", "fusion_lon": 0.0, "bike_id": "6135de489e27d688581477e5b3e99894", "is_disabled": 0, "is_reserved": 0}, {"rental_uris": {"ios": "https://dc.lft.to/lastmile_qr_scan", "android": "https://dc.lft.to/lastmile_qr_scan"}, "lon": -77.03840566666666, "type": "electric_scooter", "fusion_lat": 0.0, "lat": 38.910839833333334, "name": "869487fb94d0bc01c016d5a83ae700c9", "fusion_lon": 0.0, "bike_id": "869487fb94d0bc01c016d5a83ae700c9", "is_disabled": 0, "is_reserved": 0}, {"rental_uris": {"ios": "https://dc.lft.to/lastmile_qr_scan", "android": "https://dc.lft.to/lastmile_qr_scan"}, "lon": -77.03049216666666, "type": "electric_scooter", "fusion_lat": 0.0, "lat": 38.926846, "name": "2d0d59ee60438403a85390d493421d80", "fusion_lon": 0.0, "bike_id": "2d0d59ee60438403a85390d493421d80", "is_disabled": 0, "is_reserved": 0}, {"rental_uris": {"ios": "https://dc.lft.to/lastmile_qr_scan", "android": "https://dc.lft.to/lastmile_qr_scan"}, "lon": -77.03444716666667, "type": "electric_scooter", "fusion_lat": 0.0, "lat": 38.91796733333334, "name": "3b553eab770be06a8567187fcb7d9935", "fusion_lon": 0.0, "bike_id": "3b553eab770be06a8567187fcb7d9935", "is_disabled": 0, "is_reserved": 0}, {"rental_uris": {"ios": "https://dc.lft.to/lastmile_qr_scan", "android": "https://dc.lft.to/lastmile_qr_scan"}, "lon": -77.02952266666667, "type": "electric_scooter", "fusion_lat": 0.0, "lat": 38.90505983333333, "name": "94362192390d7980d4044f6e43be06ee", "fusion_lon": 0.0, "bike_id": "94362192390d7980d4044f6e43be06ee", "is_disabled": 0, "is_reserved": 0}, {"rental_uris": {"ios": "https://dc.lft.to/lastmile_qr_scan", "android": "https://dc.lft.to/lastmile_qr_scan"}, "lon": -77.0317535, "type": "electric_scooter", "fusion_lat": 0.0, "lat": 38.9192485, "name": "9337f03460af0d2c574b2c3892865a83", "fusion_lon": 0.0, "bike_id": "9337f03460af0d2c574b2c3892865a83", "is_disabled": 0, "is_reserved": 0}, {"rental_uris": {"ios": "https://dc.lft.to/lastmile_qr_scan", "android": "https://dc.lft.to/lastmile_qr_scan"}, "lon": -77.02399833333334, "type": "electric_scooter", "fusion_lat": 0.0, "lat": 38.91603, "name": "eddc7c8003370ca8e9325b5e2ae412ec", "fusion_lon": 0.0, "bike_id": "eddc7c8003370ca8e9325b5e2ae412ec", "is_disabled": 0, "is_reserved": 0}, {"rental_uris": {"ios": "https://dc.lft.to/lastmile_qr_scan", "android": "https://dc.lft.to/lastmile_qr_scan"}, "lon": -77.02575383333334, "type": "electric_scooter", "fusion_lat": 0.0, "lat": 38.887472, "name": "a17d9ca895fe3e967342691accd7e979", "fusion_lon": 0.0, "bike_id": "a17d9ca895fe3e967342691accd7e979", "is_disabled": 0, "is_reserved": 0}, {"rental_uris": {"ios": "https://dc.lft.to/lastmile_qr_scan", "android": "https://dc.lft.to/lastmile_qr_scan"}, "lon": -77.03505216666667, "type": "electric_scooter", "fusion_lat": 0.0, "lat": 38.91878116666667, "name": "14be44a2f312b1f86494e18be8d81b1b", "fusion_lon": 0.0, "bike_id": "14be44a2f312b1f86494e18be8d81b1b", "is_disabled": 0, "is_reserved": 0}, {"rental_uris": {"ios": "https://dc.lft.to/lastmile_qr_scan", "android": "https://dc.lft.to/lastmile_qr_scan"}, "lon": -77.04623516666666, "type": "electric_scooter", "fusion_lat": 0.0, "lat": 38.916337, "name": "d43546e13b7b4098ab87e325c840c4dc", "fusion_lon": 0.0, "bike_id": "d43546e13b7b4098ab87e325c840c4dc", "is_disabled": 0, "is_reserved": 0}, {"rental_uris": {"ios": "https://dc.lft.to/lastmile_qr_scan", "android": "https://dc.lft.to/lastmile_qr_scan"}, "lon": -77.035085, "type": "electric_scooter", "fusion_lat": 0.0, "lat": 38.92361, "name": "af66f15a7f399473e4932f8082443098", "fusion_lon": 0.0, "bike_id": "af66f15a7f399473e4932f8082443098", "is_disabled": 0, "is_reserved": 0}, {"rental_uris": {"ios": "https://dc.lft.to/lastmile_qr_scan", "android": "https://dc.lft.to/lastmile_qr_scan"}, "lon": -77.02156766666667, "type": "electric_scooter", "fusion_lat": 0.0, "lat": 38.897329, "name": "b8e48e00dd021b8cf807fafffbe86bfe", "fusion_lon": 0.0, "bike_id": "b8e48e00dd021b8cf807fafffbe86bfe", "is_disabled": 0, "is_reserved": 0}, {"rental_uris": {"ios": "https://dc.lft.to/lastmile_qr_scan", "android": "https://dc.lft.to/lastmile_qr_scan"}, "lon": -77.0551255, "type": "electric_scooter", "fusion_lat": 0.0, "lat": 38.928285833333334, "name": "7611cc0857eaf0f09d217f38ec48a386", "fusion_lon": 0.0, "bike_id": "7611cc0857eaf0f09d217f38ec48a386", "is_disabled": 0, "is_reserved": 0}, {"rental_uris": {"ios": "https://dc.lft.to/lastmile_qr_scan", "android": "https://dc.lft.to/lastmile_qr_scan"}, "lon": -77.05753016666667, "type": "electric_scooter", "fusion_lat": 0.0, "lat": 38.934159333333334, "name": "b619788a7069d69ea63a85e380cdada4", "fusion_lon": 0.0, "bike_id": "b619788a7069d69ea63a85e380cdada4", "is_disabled": 0, "is_reserved": 0}, {"rental_uris": {"ios": "https://dc.lft.to/lastmile_qr_scan", "android": "https://dc.lft.to/lastmile_qr_scan"}, "lon": -77.01151616666667, "type": "electric_scooter", "fusion_lat": 0.0, "lat": 38.90034466666667, "name": "5cfbc3d217c6eefd328457daf3a25d12", "fusion_lon": 0.0, "bike_id": "5cfbc3d217c6eefd328457daf3a25d12", "is_disabled": 0, "is_reserved": 0}, {"rental_uris": {"ios": "https://dc.lft.to/lastmile_qr_scan", "android": "https://dc.lft.to/lastmile_qr_scan"}, "lon": -77.02603666666667, "type": "electric_scooter", "fusion_lat": 0.0, "lat": 38.916739666666665, "name": "b9055c0036c3ae3244f7837888d43ff9", "fusion_lon": 0.0, "bike_id": "b9055c0036c3ae3244f7837888d43ff9", "is_disabled": 0, "is_reserved": 0}, {"rental_uris": {"ios": "https://dc.lft.to/lastmile_qr_scan", "android": "https://dc.lft.to/lastmile_qr_scan"}, "lon": -77.071906, "type": "electric_scooter", "fusion_lat": 0.0, "lat": 38.919948833333336, "name": "af554fc73d47bbd2d6bd8bd17a09d946", "fusion_lon": 0.0, "bike_id": "af554fc73d47bbd2d6bd8bd17a09d946", "is_disabled": 0, "is_reserved": 0}, {"rental_uris": {"ios": "https://dc.lft.to/lastmile_qr_scan", "android": "https://dc.lft.to/lastmile_qr_scan"}, "lon": -77.03361833333334, "type": "electric_scooter", "fusion_lat": 0.0, "lat": 38.92868983333334, "name": "ef38db7d3dce4295069e0b8bb8f74bce", "fusion_lon": 0.0, "bike_id": "ef38db7d3dce4295069e0b8bb8f74bce", "is_disabled": 0, "is_reserved": 0}, {"rental_uris": {"ios": "https://dc.lft.to/lastmile_qr_scan", "android": "https://dc.lft.to/lastmile_qr_scan"}, "lon": -76.98024216666667, "type": "electric_scooter", "fusion_lat": 0.0, "lat": 38.8876685, "name": "dcdb9330e68ec1dac0e100ee91aab854", "fusion_lon": 0.0, "bike_id": "dcdb9330e68ec1dac0e100ee91aab854", "is_disabled": 0, "is_reserved": 0}, {"rental_uris": {"ios": "https://dc.lft.to/lastmile_qr_scan", "android": "https://dc.lft.to/lastmile_qr_scan"}, "lon": -76.98234666666667, "type": "electric_scooter", "fusion_lat": 0.0, "lat": 38.86762366666667, "name": "0336d2dcc7d64b1d213c1c7907910d9d", "fusion_lon": 0.0, "bike_id": "0336d2dcc7d64b1d213c1c7907910d9d", "is_disabled": 0, "is_reserved": 0}, {"rental_uris": {"ios": "https://dc.lft.to/lastmile_qr_scan", "android": "https://dc.lft.to/lastmile_qr_scan"}, "lon": -77.03016183333334, "type": "electric_scooter", "fusion_lat": 0.0, "lat": 38.910094, "name": "db0587cacab0bd67a26e9c52d0c04f2a", "fusion_lon": 0.0, "bike_id": "db0587cacab0bd67a26e9c52d0c04f2a", "is_disabled": 0, "is_reserved": 0}, {"rental_uris": {"ios": "https://dc.lft.to/lastmile_qr_scan", "android": "https://dc.lft.to/lastmile_qr_scan"}, "lon": -76.94890766666667, "type": "electric_scooter", "fusion_lat": 0.0, "lat": 38.89529183333333, "name": "bc0d0c9942a09bdef0969e9de601c98a", "fusion_lon": 0.0, "bike_id": "bc0d0c9942a09bdef0969e9de601c98a", "is_disabled": 0, "is_reserved": 0}, {"rental_uris": {"ios": "https://dc.lft.to/lastmile_qr_scan", "android": "https://dc.lft.to/lastmile_qr_scan"}, "lon": -77.04180316666667, "type": "electric_scooter", "fusion_lat": 0.0, "lat": 38.92017516666667, "name": "120529f4ce5584636b36dc7176834172", "fusion_lon": 0.0, "bike_id": "120529f4ce5584636b36dc7176834172", "is_disabled": 0, "is_reserved": 0}, {"rental_uris": {"ios": "https://dc.lft.to/lastmile_qr_scan", "android": "https://dc.lft.to/lastmile_qr_scan"}, "lon": -77.03198166666667, "type": "electric_scooter", "fusion_lat": 0.0, "lat": 38.9132, "name": "5b44502aca324b9e063b010e65915cf8", "fusion_lon": 0.0, "bike_id": "5b44502aca324b9e063b010e65915cf8", "is_disabled": 0, "is_reserved": 0}, {"rental_uris": {"ios": "https://dc.lft.to/lastmile_qr_scan", "android": "https://dc.lft.to/lastmile_qr_scan"}, "lon": -76.981789, "type": "electric_scooter", "fusion_lat": 0.0, "lat": 38.895795666666665, "name": "6a9c3334dec6e1c01849ffd7d91051c2", "fusion_lon": 0.0, "bike_id": "6a9c3334dec6e1c01849ffd7d91051c2", "is_disabled": 0, "is_reserved": 0}, {"rental_uris": {"ios": "https://dc.lft.to/lastmile_qr_scan", "android": "https://dc.lft.to/lastmile_qr_scan"}, "lon": -77.02536366666666, "type": "electric_scooter", "fusion_lat": 0.0, "lat": 38.92403516666667, "name": "c51cac7f292e939176b34fe9d5879d07", "fusion_lon": 0.0, "bike_id": "c51cac7f292e939176b34fe9d5879d07", "is_disabled": 0, "is_reserved": 0}, {"rental_uris": {"ios": "https://dc.lft.to/lastmile_qr_scan", "android": "https://dc.lft.to/lastmile_qr_scan"}, "lon": -77.045804, "type": "electric_scooter", "fusion_lat": 0.0, "lat": 38.910631, "name": "20b3fbf7e52be40b766e38f19a2e8b65", "fusion_lon": 0.0, "bike_id": "20b3fbf7e52be40b766e38f19a2e8b65", "is_disabled": 0, "is_reserved": 0}, {"rental_uris": {"ios": "https://dc.lft.to/lastmile_qr_scan", "android": "https://dc.lft.to/lastmile_qr_scan"}, "lon": -77.02960033333333, "type": "electric_scooter", "fusion_lat": 0.0, "lat": 38.9158475, "name": "e7e8bd49bbe0cbee3b4927cb4f400a45", "fusion_lon": 0.0, "bike_id": "e7e8bd49bbe0cbee3b4927cb4f400a45", "is_disabled": 0, "is_reserved": 0}, {"rental_uris": {"ios": "https://dc.lft.to/lastmile_qr_scan", "android": "https://dc.lft.to/lastmile_qr_scan"}, "lon": -76.90966833333333, "type": "electric_bike", "fusion_lat": 0.0, "lat": 38.854224, "name": "9dbbfe7546d695bb398da33e254c3913", "fusion_lon": 0.0, "bike_id": "9dbbfe7546d695bb398da33e254c3913", "is_disabled": 0, "is_reserved": 0}, {"rental_uris": {"ios": "https://dc.lft.to/lastmile_qr_scan", "android": "https://dc.lft.to/lastmile_qr_scan"}, "lon": -76.98252433333333, "type": "electric_scooter", "fusion_lat": 0.0, "lat": 38.908644833333334, "name": "55ea45946b4c646b19b9cdf4fb42523e", "fusion_lon": 0.0, "bike_id": "55ea45946b4c646b19b9cdf4fb42523e", "is_disabled": 0, "is_reserved": 0}, {"rental_uris": {"ios": "https://dc.lft.to/lastmile_qr_scan", "android": "https://dc.lft.to/lastmile_qr_scan"}, "lon": -77.03478933333334, "type": "electric_scooter", "fusion_lat": 0.0, "lat": 38.90560983333334, "name": "f41c565f5b823476d59a116665db972a", "fusion_lon": 0.0, "bike_id": "f41c565f5b823476d59a116665db972a", "is_disabled": 0, "is_reserved": 0}, {"rental_uris": {"ios": "https://dc.lft.to/lastmile_qr_scan", "android": "https://dc.lft.to/lastmile_qr_scan"}, "lon": -77.018751, "type": "electric_scooter", "fusion_lat": 0.0, "lat": 38.88747683333333, "name": "03b18b1c84f670b37c937968e2f64bc7", "fusion_lon": 0.0, "bike_id": "03b18b1c84f670b37c937968e2f64bc7", "is_disabled": 0, "is_reserved": 0}, {"rental_uris": {"ios": "https://dc.lft.to/lastmile_qr_scan", "android": "https://dc.lft.to/lastmile_qr_scan"}, "lon": -77.00976866666667, "type": "electric_scooter", "fusion_lat": 0.0, "lat": 38.919246, "name": "4161b60a541dbafdb311d943c030bba5", "fusion_lon": 0.0, "bike_id": "4161b60a541dbafdb311d943c030bba5", "is_disabled": 0, "is_reserved": 0}, {"rental_uris": {"ios": "https://dc.lft.to/lastmile_qr_scan", "android": "https://dc.lft.to/lastmile_qr_scan"}, "lon": -77.02188916666667, "type": "electric_scooter", "fusion_lat": 0.0, "lat": 38.93953283333333, "name": "20fed143cd34aa60fcf9a154810c9f1c", "fusion_lon": 0.0, "bike_id": "20fed143cd34aa60fcf9a154810c9f1c", "is_disabled": 0, "is_reserved": 0}, {"rental_uris": {"ios": "https://dc.lft.to/lastmile_qr_scan", "android": "https://dc.lft.to/lastmile_qr_scan"}, "lon": -77.04546583333334, "type": "electric_scooter", "fusion_lat": 0.0, "lat": 38.933874, "name": "ebac6053d5b5bae3dcb9924d14bb3d8f", "fusion_lon": 0.0, "bike_id": "ebac6053d5b5bae3dcb9924d14bb3d8f", "is_disabled": 0, "is_reserved": 0}, {"rental_uris": {"ios": "https://dc.lft.to/lastmile_qr_scan", "android": "https://dc.lft.to/lastmile_qr_scan"}, "lon": -77.055168, "type": "electric_scooter", "fusion_lat": 0.0, "lat": 38.928367, "name": "19851f2242195343654ab47779fb1639", "fusion_lon": 0.0, "bike_id": "19851f2242195343654ab47779fb1639", "is_disabled": 0, "is_reserved": 0}, {"rental_uris": {"ios": "https://dc.lft.to/lastmile_qr_scan", "android": "https://dc.lft.to/lastmile_qr_scan"}, "lon": -77.04401366666667, "type": "electric_scooter", "fusion_lat": 0.0, "lat": 38.905790833333334, "name": "f68b41355bb3fa117aa30955859cb416", "fusion_lon": 0.0, "bike_id": "f68b41355bb3fa117aa30955859cb416", "is_disabled": 0, "is_reserved": 0}, {"rental_uris": {"ios": "https://dc.lft.to/lastmile_qr_scan", "android": "https://dc.lft.to/lastmile_qr_scan"}, "lon": -77.0326455, "type": "electric_scooter", "fusion_lat": 0.0, "lat": 38.93436033333333, "name": "8d6364a17c392cdeeecac5724f453f62", "fusion_lon": 0.0, "bike_id": "8d6364a17c392cdeeecac5724f453f62", "is_disabled": 0, "is_reserved": 0}, {"rental_uris": {"ios": "https://dc.lft.to/lastmile_qr_scan", "android": "https://dc.lft.to/lastmile_qr_scan"}, "lon": -77.01867866666667, "type": "electric_scooter", "fusion_lat": 0.0, "lat": 38.902618333333336, "name": "f75d7cae4d5ede71e7a151bd76e7edee", "fusion_lon": 0.0, "bike_id": "f75d7cae4d5ede71e7a151bd76e7edee", "is_disabled": 0, "is_reserved": 0}, {"rental_uris": {"ios": "https://dc.lft.to/lastmile_qr_scan", "android": "https://dc.lft.to/lastmile_qr_scan"}, "lon": -77.031912, "type": "electric_scooter", "fusion_lat": 0.0, "lat": 38.91676066666667, "name": "df3ccaac8cb9888ac82e52e4d5fe1235", "fusion_lon": 0.0, "bike_id": "df3ccaac8cb9888ac82e52e4d5fe1235", "is_disabled": 0, "is_reserved": 0}, {"rental_uris": {"ios": "https://dc.lft.to/lastmile_qr_scan", "android": "https://dc.lft.to/lastmile_qr_scan"}, "lon": -77.0202875, "type": "electric_scooter", "fusion_lat": 0.0, "lat": 38.91554, "name": "31971e062d5428bba278e91a21c794d6", "fusion_lon": 0.0, "bike_id": "31971e062d5428bba278e91a21c794d6", "is_disabled": 0, "is_reserved": 0}, {"rental_uris": {"ios": "https://dc.lft.to/lastmile_qr_scan", "android": "https://dc.lft.to/lastmile_qr_scan"}, "lon": -77.0259285, "type": "electric_scooter", "fusion_lat": 0.0, "lat": 38.9075455, "name": "40de2334fdb938914e5199d8123cf8ea", "fusion_lon": 0.0, "bike_id": "40de2334fdb938914e5199d8123cf8ea", "is_disabled": 0, "is_reserved": 0}, {"rental_uris": {"ios": "https://dc.lft.to/lastmile_qr_scan", "android": "https://dc.lft.to/lastmile_qr_scan"}, "lon": -76.99177366666666, "type": "electric_scooter", "fusion_lat": 0.0, "lat": 38.908377, "name": "33739c034d03fe9a590b70294dabc435", "fusion_lon": 0.0, "bike_id": "33739c034d03fe9a590b70294dabc435", "is_disabled": 0, "is_reserved": 0}, {"rental_uris": {"ios": "https://dc.lft.to/lastmile_qr_scan", "android": "https://dc.lft.to/lastmile_qr_scan"}, "lon": -77.0442335, "type": "electric_scooter", "fusion_lat": 0.0, "lat": 38.91799266666666, "name": "a170100e66ff6d369214ceca4e3b9c58", "fusion_lon": 0.0, "bike_id": "a170100e66ff6d369214ceca4e3b9c58", "is_disabled": 0, "is_reserved": 0}, {"rental_uris": {"ios": "https://dc.lft.to/lastmile_qr_scan", "android": "https://dc.lft.to/lastmile_qr_scan"}, "lon": -77.0402795, "type": "electric_scooter", "fusion_lat": 0.0, "lat": 38.9244185, "name": "d25ce10545adf241b165674761c91ce7", "fusion_lon": 0.0, "bike_id": "d25ce10545adf241b165674761c91ce7", "is_disabled": 0, "is_reserved": 0}, {"rental_uris": {"ios": "https://dc.lft.to/lastmile_qr_scan", "android": "https://dc.lft.to/lastmile_qr_scan"}, "lon": -77.00200833333334, "type": "electric_scooter", "fusion_lat": 0.0, "lat": 38.90061733333334, "name": "8d5521bc7fd48e894e1a9c2654a8b652", "fusion_lon": 0.0, "bike_id": "8d5521bc7fd48e894e1a9c2654a8b652", "is_disabled": 0, "is_reserved": 0}, {"rental_uris": {"ios": "https://dc.lft.to/lastmile_qr_scan", "android": "https://dc.lft.to/lastmile_qr_scan"}, "lon": -77.030876, "type": "electric_scooter", "fusion_lat": 0.0, "lat": 38.89990366666667, "name": "d0290049530f8516e10aa990a179d6df", "fusion_lon": 0.0, "bike_id": "d0290049530f8516e10aa990a179d6df", "is_disabled": 0, "is_reserved": 0}, {"rental_uris": {"ios": "https://dc.lft.to/lastmile_qr_scan", "android": "https://dc.lft.to/lastmile_qr_scan"}, "lon": -77.01934516666667, "type": "electric_scooter", "fusion_lat": 0.0, "lat": 38.949295, "name": "9eb849e5c8f281f9ce3f7bf44745f37a", "fusion_lon": 0.0, "bike_id": "9eb849e5c8f281f9ce3f7bf44745f37a", "is_disabled": 0, "is_reserved": 0}, {"rental_uris": {"ios": "https://dc.lft.to/lastmile_qr_scan", "android": "https://dc.lft.to/lastmile_qr_scan"}, "lon": -77.04637983333333, "type": "electric_scooter", "fusion_lat": 0.0, "lat": 38.89219833333333, "name": "3b690c5f1d2719880469017195c010ef", "fusion_lon": 0.0, "bike_id": "3b690c5f1d2719880469017195c010ef", "is_disabled": 0, "is_reserved": 0}, {"rental_uris": {"ios": "https://dc.lft.to/lastmile_qr_scan", "android": "https://dc.lft.to/lastmile_qr_scan"}, "lon": -77.03800683333333, "type": "electric_scooter", "fusion_lat": 0.0, "lat": 38.9122595, "name": "be5bfd7860b7c6d77c4fb7445d6e7d1f", "fusion_lon": 0.0, "bike_id": "be5bfd7860b7c6d77c4fb7445d6e7d1f", "is_disabled": 0, "is_reserved": 0}, {"rental_uris": {"ios": "https://dc.lft.to/lastmile_qr_scan", "android": "https://dc.lft.to/lastmile_qr_scan"}, "lon": -77.0382385, "type": "electric_scooter", "fusion_lat": 0.0, "lat": 38.90679883333333, "name": "48c07ce3c449598336e90fa5f3b2789e", "fusion_lon": 0.0, "bike_id": "48c07ce3c449598336e90fa5f3b2789e", "is_disabled": 0, "is_reserved": 0}, {"rental_uris": {"ios": "https://dc.lft.to/lastmile_qr_scan", "android": "https://dc.lft.to/lastmile_qr_scan"}, "lon": -77.04352766666666, "type": "electric_scooter", "fusion_lat": 0.0, "lat": 38.8966775, "name": "39ea3e5cf333f3070d8742630fbd1336", "fusion_lon": 0.0, "bike_id": "39ea3e5cf333f3070d8742630fbd1336", "is_disabled": 0, "is_reserved": 0}, {"rental_uris": {"ios": "https://dc.lft.to/lastmile_qr_scan", "android": "https://dc.lft.to/lastmile_qr_scan"}, "lon": -77.03355566666667, "type": "electric_scooter", "fusion_lat": 0.0, "lat": 38.8925115, "name": "d86ef045b05f46f0696fa61a5dd8ecc3", "fusion_lon": 0.0, "bike_id": "d86ef045b05f46f0696fa61a5dd8ecc3", "is_disabled": 0, "is_reserved": 0}, {"rental_uris": {"ios": "https://dc.lft.to/lastmile_qr_scan", "android": "https://dc.lft.to/lastmile_qr_scan"}, "lon": -77.04033266666667, "type": "electric_scooter", "fusion_lat": 0.0, "lat": 38.9242955, "name": "5de56cc9f30f5cc9220b4f5d87263855", "fusion_lon": 0.0, "bike_id": "5de56cc9f30f5cc9220b4f5d87263855", "is_disabled": 0, "is_reserved": 0}, {"rental_uris": {"ios": "https://dc.lft.to/lastmile_qr_scan", "android": "https://dc.lft.to/lastmile_qr_scan"}, "lon": -77.06388266666667, "type": "electric_scooter", "fusion_lat": 0.0, "lat": 38.90834983333333, "name": "f638009a6fcfe040c03fc0a444ce22e1", "fusion_lon": 0.0, "bike_id": "f638009a6fcfe040c03fc0a444ce22e1", "is_disabled": 0, "is_reserved": 0}, {"rental_uris": {"ios": "https://dc.lft.to/lastmile_qr_scan", "android": "https://dc.lft.to/lastmile_qr_scan"}, "lon": -77.0384485, "type": "electric_scooter", "fusion_lat": 0.0, "lat": 38.913329166666664, "name": "861d3b2220009b8650c4fbbeb5604348", "fusion_lon": 0.0, "bike_id": "861d3b2220009b8650c4fbbeb5604348", "is_disabled": 0, "is_reserved": 0}, {"rental_uris": {"ios": "https://dc.lft.to/lastmile_qr_scan", "android": "https://dc.lft.to/lastmile_qr_scan"}, "lon": -76.9761255, "type": "electric_bike", "fusion_lat": 0.0, "lat": 38.91307666666667, "name": "d75fc83078d5ca03e2a739e79142f3b0", "fusion_lon": 0.0, "bike_id": "d75fc83078d5ca03e2a739e79142f3b0", "is_disabled": 0, "is_reserved": 0}, {"rental_uris": {"ios": "https://dc.lft.to/lastmile_qr_scan", "android": "https://dc.lft.to/lastmile_qr_scan"}, "lon": -77.0439055, "type": "electric_scooter", "fusion_lat": 0.0, "lat": 38.922744333333334, "name": "d52fb9b0c9c7771c0df0e35f24817973", "fusion_lon": 0.0, "bike_id": "d52fb9b0c9c7771c0df0e35f24817973", "is_disabled": 0, "is_reserved": 0}, {"rental_uris": {"ios": "https://dc.lft.to/lastmile_qr_scan", "android": "https://dc.lft.to/lastmile_qr_scan"}, "lon": -76.9903745, "type": "electric_scooter", "fusion_lat": 0.0, "lat": 38.85876783333333, "name": "cb4184643d3c3e453ef1be39d511875f", "fusion_lon": 0.0, "bike_id": "cb4184643d3c3e453ef1be39d511875f", "is_disabled": 0, "is_reserved": 0}, {"rental_uris": {"ios": "https://dc.lft.to/lastmile_qr_scan", "android": "https://dc.lft.to/lastmile_qr_scan"}, "lon": -77.06250666666666, "type": "electric_scooter", "fusion_lat": 0.0, "lat": 38.9067875, "name": "ec73277347683f4af19ede52834448a8", "fusion_lon": 0.0, "bike_id": "ec73277347683f4af19ede52834448a8", "is_disabled": 0, "is_reserved": 0}, {"rental_uris": {"ios": "https://dc.lft.to/lastmile_qr_scan", "android": "https://dc.lft.to/lastmile_qr_scan"}, "lon": -77.03167716666667, "type": "electric_bike", "fusion_lat": 0.0, "lat": 38.944567666666664, "name": "6b24bc1c3962b3c41a5e91f96bb0b9db", "fusion_lon": 0.0, "bike_id": "6b24bc1c3962b3c41a5e91f96bb0b9db", "is_disabled": 0, "is_reserved": 0}, {"rental_uris": {"ios": "https://dc.lft.to/lastmile_qr_scan", "android": "https://dc.lft.to/lastmile_qr_scan"}, "lon": -77.01522233333333, "type": "electric_scooter", "fusion_lat": 0.0, "lat": 38.91875616666667, "name": "e74e4fa667357306c97a00652931f8ad", "fusion_lon": 0.0, "bike_id": "e74e4fa667357306c97a00652931f8ad", "is_disabled": 0, "is_reserved": 0}, {"rental_uris": {"ios": "https://dc.lft.to/lastmile_qr_scan", "android": "https://dc.lft.to/lastmile_qr_scan"}, "lon": -76.971894, "type": "electric_scooter", "fusion_lat": 0.0, "lat": 38.912638666666666, "name": "d0d1348e9e395d8a7bd8a80ccf466c36", "fusion_lon": 0.0, "bike_id": "d0d1348e9e395d8a7bd8a80ccf466c36", "is_disabled": 0, "is_reserved": 0}, {"rental_uris": {"ios": "https://dc.lft.to/lastmile_qr_scan", "android": "https://dc.lft.to/lastmile_qr_scan"}, "lon": -77.00275033333334, "type": "electric_bike", "fusion_lat": 0.0, "lat": 38.91163566666667, "name": "92ca8b23509e4e3a1c5cb2226647fb35", "fusion_lon": 0.0, "bike_id": "92ca8b23509e4e3a1c5cb2226647fb35", "is_disabled": 0, "is_reserved": 0}, {"rental_uris": {"ios": "https://dc.lft.to/lastmile_qr_scan", "android": "https://dc.lft.to/lastmile_qr_scan"}, "lon": -77.06691583333334, "type": "electric_scooter", "fusion_lat": 0.0, "lat": 38.90972933333333, "name": "652aa0fc5fd2318028c1c1cafa845c1f", "fusion_lon": 0.0, "bike_id": "652aa0fc5fd2318028c1c1cafa845c1f", "is_disabled": 0, "is_reserved": 0}, {"rental_uris": {"ios": "https://dc.lft.to/lastmile_qr_scan", "android": "https://dc.lft.to/lastmile_qr_scan"}, "lon": -77.03126116666667, "type": "electric_scooter", "fusion_lat": 0.0, "lat": 38.9112025, "name": "ade206ad45401b4911da2b274db6dac1", "fusion_lon": 0.0, "bike_id": "ade206ad45401b4911da2b274db6dac1", "is_disabled": 0, "is_reserved": 0}, {"rental_uris": {"ios": "https://dc.lft.to/lastmile_qr_scan", "android": "https://dc.lft.to/lastmile_qr_scan"}, "lon": -77.0182205, "type": "electric_scooter", "fusion_lat": 0.0, "lat": 38.90813566666667, "name": "85d92264d919cd803ca9c1c23ad0dfa3", "fusion_lon": 0.0, "bike_id": "85d92264d919cd803ca9c1c23ad0dfa3", "is_disabled": 0, "is_reserved": 0}, {"rental_uris": {"ios": "https://dc.lft.to/lastmile_qr_scan", "android": "https://dc.lft.to/lastmile_qr_scan"}, "lon": -76.98179983333333, "type": "electric_scooter", "fusion_lat": 0.0, "lat": 38.8769795, "name": "2788d14c997271287ab83d49aa62ecce", "fusion_lon": 0.0, "bike_id": "2788d14c997271287ab83d49aa62ecce", "is_disabled": 0, "is_reserved": 0}, {"rental_uris": {"ios": "https://dc.lft.to/lastmile_qr_scan", "android": "https://dc.lft.to/lastmile_qr_scan"}, "lon": -77.02315733333333, "type": "electric_scooter", "fusion_lat": 0.0, "lat": 38.887327666666664, "name": "9dc4168cf3d6da7880ae484315861702", "fusion_lon": 0.0, "bike_id": "9dc4168cf3d6da7880ae484315861702", "is_disabled": 0, "is_reserved": 0}, {"rental_uris": {"ios": "https://dc.lft.to/lastmile_qr_scan", "android": "https://dc.lft.to/lastmile_qr_scan"}, "lon": -77.03988783333334, "type": "electric_scooter", "fusion_lat": 0.0, "lat": 38.898777333333335, "name": "f5a0345c631a09597f5e2543c7788a7c", "fusion_lon": 0.0, "bike_id": "f5a0345c631a09597f5e2543c7788a7c", "is_disabled": 0, "is_reserved": 0}, {"rental_uris": {"ios": "https://dc.lft.to/lastmile_qr_scan", "android": "https://dc.lft.to/lastmile_qr_scan"}, "lon": -77.0321165, "type": "electric_scooter", "fusion_lat": 0.0, "lat": 38.92010283333333, "name": "efd888d2dfd53aaf7daf18770d6f0010", "fusion_lon": 0.0, "bike_id": "efd888d2dfd53aaf7daf18770d6f0010", "is_disabled": 0, "is_reserved": 0}, {"rental_uris": {"ios": "https://dc.lft.to/lastmile_qr_scan", "android": "https://dc.lft.to/lastmile_qr_scan"}, "lon": -76.987053, "type": "electric_bike", "fusion_lat": 0.0, "lat": 38.901575333333334, "name": "0487ac586b0dcf72cb4448ab708b0e91", "fusion_lon": 0.0, "bike_id": "0487ac586b0dcf72cb4448ab708b0e91", "is_disabled": 0, "is_reserved": 0}, {"rental_uris": {"ios": "https://dc.lft.to/lastmile_qr_scan", "android": "https://dc.lft.to/lastmile_qr_scan"}, "lon": -77.01867716666666, "type": "electric_scooter", "fusion_lat": 0.0, "lat": 38.902710166666665, "name": "ceb824aa46e09ab42ac8c10e2cc25910", "fusion_lon": 0.0, "bike_id": "ceb824aa46e09ab42ac8c10e2cc25910", "is_disabled": 0, "is_reserved": 0}, {"rental_uris": {"ios": "https://dc.lft.to/lastmile_qr_scan", "android": "https://dc.lft.to/lastmile_qr_scan"}, "lon": -77.031763, "type": "electric_scooter", "fusion_lat": 0.0, "lat": 38.91925916666667, "name": "ba8176e4bb36c4042524803f8a190c50", "fusion_lon": 0.0, "bike_id": "ba8176e4bb36c4042524803f8a190c50", "is_disabled": 0, "is_reserved": 0}, {"rental_uris": {"ios": "https://dc.lft.to/lastmile_qr_scan", "android": "https://dc.lft.to/lastmile_qr_scan"}, "lon": -77.0326035, "type": "electric_scooter", "fusion_lat": 0.0, "lat": 38.91402683333333, "name": "5e6ccc5b7b6299e70254d0d5be2954e0", "fusion_lon": 0.0, "bike_id": "5e6ccc5b7b6299e70254d0d5be2954e0", "is_disabled": 0, "is_reserved": 0}, {"rental_uris": {"ios": "https://dc.lft.to/lastmile_qr_scan", "android": "https://dc.lft.to/lastmile_qr_scan"}, "lon": -77.02971916666667, "type": "electric_scooter", "fusion_lat": 0.0, "lat": 38.90780083333333, "name": "9b461aad718f54644be0c33b203707e1", "fusion_lon": 0.0, "bike_id": "9b461aad718f54644be0c33b203707e1", "is_disabled": 0, "is_reserved": 0}, {"rental_uris": {"ios": "https://dc.lft.to/lastmile_qr_scan", "android": "https://dc.lft.to/lastmile_qr_scan"}, "lon": -76.938111, "type": "electric_scooter", "fusion_lat": 0.0, "lat": 38.9130485, "name": "a5b9738ff9c3933c6c08a56f4a171faa", "fusion_lon": 0.0, "bike_id": "a5b9738ff9c3933c6c08a56f4a171faa", "is_disabled": 0, "is_reserved": 0}, {"rental_uris": {"ios": "https://dc.lft.to/lastmile_qr_scan", "android": "https://dc.lft.to/lastmile_qr_scan"}, "lon": -77.0404245, "type": "electric_scooter", "fusion_lat": 0.0, "lat": 38.9256545, "name": "0043465d5e22677a785acbc3f820939d", "fusion_lon": 0.0, "bike_id": "0043465d5e22677a785acbc3f820939d", "is_disabled": 0, "is_reserved": 0}, {"rental_uris": {"ios": "https://dc.lft.to/lastmile_qr_scan", "android": "https://dc.lft.to/lastmile_qr_scan"}, "lon": -77.031685, "type": "electric_scooter", "fusion_lat": 0.0, "lat": 38.896066833333336, "name": "209ce9b4842a0fe71e227016e098010f", "fusion_lon": 0.0, "bike_id": "209ce9b4842a0fe71e227016e098010f", "is_disabled": 0, "is_reserved": 0}, {"rental_uris": {"ios": "https://dc.lft.to/lastmile_qr_scan", "android": "https://dc.lft.to/lastmile_qr_scan"}, "lon": -77.0284, "type": "electric_scooter", "fusion_lat": 0.0, "lat": 38.887699, "name": "c98784865442c1f26a2f49192ba6a293", "fusion_lon": 0.0, "bike_id": "c98784865442c1f26a2f49192ba6a293", "is_disabled": 0, "is_reserved": 0}, {"rental_uris": {"ios": "https://dc.lft.to/lastmile_qr_scan", "android": "https://dc.lft.to/lastmile_qr_scan"}, "lon": -77.0396845, "type": "electric_scooter", "fusion_lat": 0.0, "lat": 38.8922225, "name": "6bacd8c53ec941af21dd55bef4d7bb0d", "fusion_lon": 0.0, "bike_id": "6bacd8c53ec941af21dd55bef4d7bb0d", "is_disabled": 0, "is_reserved": 0}, {"rental_uris": {"ios": "https://dc.lft.to/lastmile_qr_scan", "android": "https://dc.lft.to/lastmile_qr_scan"}, "lon": -77.06163433333333, "type": "electric_scooter", "fusion_lat": 0.0, "lat": 38.94225083333333, "name": "879ae0aab9acd6518bf771fec5282a5f", "fusion_lon": 0.0, "bike_id": "879ae0aab9acd6518bf771fec5282a5f", "is_disabled": 0, "is_reserved": 0}, {"rental_uris": {"ios": "https://dc.lft.to/lastmile_qr_scan", "android": "https://dc.lft.to/lastmile_qr_scan"}, "lon": -77.02407866666667, "type": "electric_scooter", "fusion_lat": 0.0, "lat": 38.921987, "name": "3c0161750ba17a7544fb421c68759928", "fusion_lon": 0.0, "bike_id": "3c0161750ba17a7544fb421c68759928", "is_disabled": 0, "is_reserved": 0}, {"rental_uris": {"ios": "https://dc.lft.to/lastmile_qr_scan", "android": "https://dc.lft.to/lastmile_qr_scan"}, "lon": -77.032449, "type": "electric_scooter", "fusion_lat": 0.0, "lat": 38.909632333333334, "name": "a0085006b181ed54656c474aea98916b", "fusion_lon": 0.0, "bike_id": "a0085006b181ed54656c474aea98916b", "is_disabled": 0, "is_reserved": 0}, {"rental_uris": {"ios": "https://dc.lft.to/lastmile_qr_scan", "android": "https://dc.lft.to/lastmile_qr_scan"}, "lon": -76.987723, "type": "electric_scooter", "fusion_lat": 0.0, "lat": 38.91173583333333, "name": "bf79ae882145fed5a69a74a4b9579200", "fusion_lon": 0.0, "bike_id": "bf79ae882145fed5a69a74a4b9579200", "is_disabled": 0, "is_reserved": 0}, {"rental_uris": {"ios": "https://dc.lft.to/lastmile_qr_scan", "android": "https://dc.lft.to/lastmile_qr_scan"}, "lon": -76.97888183333333, "type": "electric_scooter", "fusion_lat": 0.0, "lat": 38.916740833333336, "name": "d24846cbec908163b723909765cb16a8", "fusion_lon": 0.0, "bike_id": "d24846cbec908163b723909765cb16a8", "is_disabled": 0, "is_reserved": 0}, {"rental_uris": {"ios": "https://dc.lft.to/lastmile_qr_scan", "android": "https://dc.lft.to/lastmile_qr_scan"}, "lon": -77.049437, "type": "electric_scooter", "fusion_lat": 0.0, "lat": 38.89656766666667, "name": "188b87d1c85181771efa81c03f25c379", "fusion_lon": 0.0, "bike_id": "188b87d1c85181771efa81c03f25c379", "is_disabled": 0, "is_reserved": 0}, {"rental_uris": {"ios": "https://dc.lft.to/lastmile_qr_scan", "android": "https://dc.lft.to/lastmile_qr_scan"}, "lon": -77.12744016666667, "type": "electric_bike", "fusion_lat": 0.0, "lat": 38.888228833333336, "name": "3fb9da99d89f6e59ffe412d56b3e37fc", "fusion_lon": 0.0, "bike_id": "3fb9da99d89f6e59ffe412d56b3e37fc", "is_disabled": 0, "is_reserved": 0}, {"rental_uris": {"ios": "https://dc.lft.to/lastmile_qr_scan", "android": "https://dc.lft.to/lastmile_qr_scan"}, "lon": -77.04293, "type": "electric_scooter", "fusion_lat": 0.0, "lat": 38.9087635, "name": "a9b1b6c0984a7f5c82b16d511b706ff3", "fusion_lon": 0.0, "bike_id": "a9b1b6c0984a7f5c82b16d511b706ff3", "is_disabled": 0, "is_reserved": 0}, {"rental_uris": {"ios": "https://dc.lft.to/lastmile_qr_scan", "android": "https://dc.lft.to/lastmile_qr_scan"}, "lon": -77.0450135, "type": "electric_scooter", "fusion_lat": 0.0, "lat": 38.911055, "name": "4b9e46f2cf859baad839c63a7a17d6a6", "fusion_lon": 0.0, "bike_id": "4b9e46f2cf859baad839c63a7a17d6a6", "is_disabled": 0, "is_reserved": 0}, {"rental_uris": {"ios": "https://dc.lft.to/lastmile_qr_scan", "android": "https://dc.lft.to/lastmile_qr_scan"}, "lon": -76.99586416666666, "type": "electric_scooter", "fusion_lat": 0.0, "lat": 38.95503866666667, "name": "38168fed68d8b00f5f923a3f385dc308", "fusion_lon": 0.0, "bike_id": "38168fed68d8b00f5f923a3f385dc308", "is_disabled": 0, "is_reserved": 0}, {"rental_uris": {"ios": "https://dc.lft.to/lastmile_qr_scan", "android": "https://dc.lft.to/lastmile_qr_scan"}, "lon": -77.04222833333333, "type": "electric_scooter", "fusion_lat": 0.0, "lat": 38.911183666666666, "name": "b54fe35665b8cd75e48aebc62c3028f5", "fusion_lon": 0.0, "bike_id": "b54fe35665b8cd75e48aebc62c3028f5", "is_disabled": 0, "is_reserved": 0}, {"rental_uris": {"ios": "https://dc.lft.to/lastmile_qr_scan", "android": "https://dc.lft.to/lastmile_qr_scan"}, "lon": -77.09875, "type": "electric_bike", "fusion_lat": 0.0, "lat": 38.94786216666667, "name": "6f8c3609d0dec02b7bb512d103d151ac", "fusion_lon": 0.0, "bike_id": "6f8c3609d0dec02b7bb512d103d151ac", "is_disabled": 0, "is_reserved": 0}, {"rental_uris": {"ios": "https://dc.lft.to/lastmile_qr_scan", "android": "https://dc.lft.to/lastmile_qr_scan"}, "lon": -76.923736, "type": "electric_bike", "fusion_lat": 0.0, "lat": 38.883742833333336, "name": "61112bbc1c519396c11c23e9d67b02ee", "fusion_lon": 0.0, "bike_id": "61112bbc1c519396c11c23e9d67b02ee", "is_disabled": 0, "is_reserved": 0}, {"rental_uris": {"ios": "https://dc.lft.to/lastmile_qr_scan", "android": "https://dc.lft.to/lastmile_qr_scan"}, "lon": -77.05023116666666, "type": "electric_scooter", "fusion_lat": 0.0, "lat": 38.9235475, "name": "64f95c89e18fe505b338c39e04bfea38", "fusion_lon": 0.0, "bike_id": "64f95c89e18fe505b338c39e04bfea38", "is_disabled": 0, "is_reserved": 0}, {"rental_uris": {"ios": "https://dc.lft.to/lastmile_qr_scan", "android": "https://dc.lft.to/lastmile_qr_scan"}, "lon": -77.04180283333334, "type": "electric_scooter", "fusion_lat": 0.0, "lat": 38.9118015, "name": "c45eb3e489d708052a30e43b87d5bfef", "fusion_lon": 0.0, "bike_id": "c45eb3e489d708052a30e43b87d5bfef", "is_disabled": 0, "is_reserved": 0}, {"rental_uris": {"ios": "https://dc.lft.to/lastmile_qr_scan", "android": "https://dc.lft.to/lastmile_qr_scan"}, "lon": -77.027654, "type": "electric_scooter", "fusion_lat": 0.0, "lat": 38.91343, "name": "646c67238b158905b837979c9af59524", "fusion_lon": 0.0, "bike_id": "646c67238b158905b837979c9af59524", "is_disabled": 0, "is_reserved": 0}, {"rental_uris": {"ios": "https://dc.lft.to/lastmile_qr_scan", "android": "https://dc.lft.to/lastmile_qr_scan"}, "lon": -76.9317765, "type": "electric_scooter", "fusion_lat": 0.0, "lat": 38.898853333333335, "name": "9971ed5351590e81feea7dae405c139b", "fusion_lon": 0.0, "bike_id": "9971ed5351590e81feea7dae405c139b", "is_disabled": 0, "is_reserved": 0}, {"rental_uris": {"ios": "https://dc.lft.to/lastmile_qr_scan", "android": "https://dc.lft.to/lastmile_qr_scan"}, "lon": -77.01774983333334, "type": "electric_scooter", "fusion_lat": 0.0, "lat": 38.92113366666667, "name": "0a1def5f9beea7ef38d04234a28a8703", "fusion_lon": 0.0, "bike_id": "0a1def5f9beea7ef38d04234a28a8703", "is_disabled": 0, "is_reserved": 0}, {"rental_uris": {"ios": "https://dc.lft.to/lastmile_qr_scan", "android": "https://dc.lft.to/lastmile_qr_scan"}, "lon": -77.02301216666666, "type": "electric_scooter", "fusion_lat": 0.0, "lat": 38.9015035, "name": "edaaf6eb6115d347b45cb23139597c9c", "fusion_lon": 0.0, "bike_id": "edaaf6eb6115d347b45cb23139597c9c", "is_disabled": 0, "is_reserved": 0}, {"rental_uris": {"ios": "https://dc.lft.to/lastmile_qr_scan", "android": "https://dc.lft.to/lastmile_qr_scan"}, "lon": -77.00254866666667, "type": "electric_scooter", "fusion_lat": 0.0, "lat": 38.91170116666667, "name": "6eda176dfe8fb0b61481e867cf4e524a", "fusion_lon": 0.0, "bike_id": "6eda176dfe8fb0b61481e867cf4e524a", "is_disabled": 0, "is_reserved": 0}, {"rental_uris": {"ios": "https://dc.lft.to/lastmile_qr_scan", "android": "https://dc.lft.to/lastmile_qr_scan"}, "lon": -77.0950055, "type": "electric_bike", "fusion_lat": 0.0, "lat": 38.88759816666666, "name": "8ad69f377cf4ad80c9f3c9fa07669d20", "fusion_lon": 0.0, "bike_id": "8ad69f377cf4ad80c9f3c9fa07669d20", "is_disabled": 0, "is_reserved": 0}, {"rental_uris": {"ios": "https://dc.lft.to/lastmile_qr_scan", "android": "https://dc.lft.to/lastmile_qr_scan"}, "lon": -77.0382375, "type": "electric_scooter", "fusion_lat": 0.0, "lat": 38.920661833333334, "name": "90ebbc15c62d1cbfd1952a5a8458f0de", "fusion_lon": 0.0, "bike_id": "90ebbc15c62d1cbfd1952a5a8458f0de", "is_disabled": 0, "is_reserved": 0}, {"rental_uris": {"ios": "https://dc.lft.to/lastmile_qr_scan", "android": "https://dc.lft.to/lastmile_qr_scan"}, "lon": -77.03050016666667, "type": "electric_scooter", "fusion_lat": 0.0, "lat": 38.884052, "name": "51c8ebdc309303dc46e832dc495caf6f", "fusion_lon": 0.0, "bike_id": "51c8ebdc309303dc46e832dc495caf6f", "is_disabled": 0, "is_reserved": 0}, {"rental_uris": {"ios": "https://dc.lft.to/lastmile_qr_scan", "android": "https://dc.lft.to/lastmile_qr_scan"}, "lon": -77.04494316666667, "type": "electric_scooter", "fusion_lat": 0.0, "lat": 38.903173833333334, "name": "b4b75ec13c51db4f624bdc3b30888f47", "fusion_lon": 0.0, "bike_id": "b4b75ec13c51db4f624bdc3b30888f47", "is_disabled": 0, "is_reserved": 0}, {"rental_uris": {"ios": "https://dc.lft.to/lastmile_qr_scan", "android": "https://dc.lft.to/lastmile_qr_scan"}, "lon": -77.07376016666667, "type": "electric_bike", "fusion_lat": 0.0, "lat": 38.961742666666666, "name": "a78a568aa4403b7f6abc5edad2c4adad", "fusion_lon": 0.0, "bike_id": "a78a568aa4403b7f6abc5edad2c4adad", "is_disabled": 0, "is_reserved": 0}, {"rental_uris": {"ios": "https://dc.lft.to/lastmile_qr_scan", "android": "https://dc.lft.to/lastmile_qr_scan"}, "lon": -76.99574716666666, "type": "electric_scooter", "fusion_lat": 0.0, "lat": 38.900285333333336, "name": "23b5257daf349ff9c54e3bd45cde1f8e", "fusion_lon": 0.0, "bike_id": "23b5257daf349ff9c54e3bd45cde1f8e", "is_disabled": 0, "is_reserved": 0}, {"rental_uris": {"ios": "https://dc.lft.to/lastmile_qr_scan", "android": "https://dc.lft.to/lastmile_qr_scan"}, "lon": -77.0236095, "type": "electric_scooter", "fusion_lat": 0.0, "lat": 38.92061416666667, "name": "c595240b5ac320a14e41bf0be1ad3fb1", "fusion_lon": 0.0, "bike_id": "c595240b5ac320a14e41bf0be1ad3fb1", "is_disabled": 0, "is_reserved": 0}, {"rental_uris": {"ios": "https://dc.lft.to/lastmile_qr_scan", "android": "https://dc.lft.to/lastmile_qr_scan"}, "lon": -77.00808466666666, "type": "electric_scooter", "fusion_lat": 0.0, "lat": 38.90562116666667, "name": "67ae91f995ac5d3895729847da58595b", "fusion_lon": 0.0, "bike_id": "67ae91f995ac5d3895729847da58595b", "is_disabled": 0, "is_reserved": 0}, {"rental_uris": {"ios": "https://dc.lft.to/lastmile_qr_scan", "android": "https://dc.lft.to/lastmile_qr_scan"}, "lon": -76.92997666666666, "type": "electric_bike", "fusion_lat": 0.0, "lat": 38.887976333333334, "name": "ba898f60e7f951bfa1e088cb23166bda", "fusion_lon": 0.0, "bike_id": "ba898f60e7f951bfa1e088cb23166bda", "is_disabled": 0, "is_reserved": 0}, {"rental_uris": {"ios": "https://dc.lft.to/lastmile_qr_scan", "android": "https://dc.lft.to/lastmile_qr_scan"}, "lon": -77.0492495, "type": "electric_scooter", "fusion_lat": 0.0, "lat": 38.90074083333333, "name": "6a140874a8484870ed44cb680e0ab892", "fusion_lon": 0.0, "bike_id": "6a140874a8484870ed44cb680e0ab892", "is_disabled": 0, "is_reserved": 0}, {"rental_uris": {"ios": "https://dc.lft.to/lastmile_qr_scan", "android": "https://dc.lft.to/lastmile_qr_scan"}, "lon": -77.00715916666667, "type": "electric_scooter", "fusion_lat": 0.0, "lat": 38.91346983333333, "name": "1a1f656fd379c200b6d755306e626b30", "fusion_lon": 0.0, "bike_id": "1a1f656fd379c200b6d755306e626b30", "is_disabled": 0, "is_reserved": 0}, {"rental_uris": {"ios": "https://dc.lft.to/lastmile_qr_scan", "android": "https://dc.lft.to/lastmile_qr_scan"}, "lon": -77.05274916666667, "type": "electric_scooter", "fusion_lat": 0.0, "lat": 38.9102145, "name": "1cac9076121e12c81a6685f09e438dbf", "fusion_lon": 0.0, "bike_id": "1cac9076121e12c81a6685f09e438dbf", "is_disabled": 0, "is_reserved": 0}, {"rental_uris": {"ios": "https://dc.lft.to/lastmile_qr_scan", "android": "https://dc.lft.to/lastmile_qr_scan"}, "lon": -77.028366, "type": "electric_scooter", "fusion_lat": 0.0, "lat": 38.93234866666667, "name": "5d78470b1e4a64e09457d0d1822af605", "fusion_lon": 0.0, "bike_id": "5d78470b1e4a64e09457d0d1822af605", "is_disabled": 0, "is_reserved": 0}, {"rental_uris": {"ios": "https://dc.lft.to/lastmile_qr_scan", "android": "https://dc.lft.to/lastmile_qr_scan"}, "lon": -77.001958, "type": "electric_scooter", "fusion_lat": 0.0, "lat": 38.90833833333333, "name": "01bae5544f63113e1260c98ac19bcd30", "fusion_lon": 0.0, "bike_id": "01bae5544f63113e1260c98ac19bcd30", "is_disabled": 0, "is_reserved": 0}, {"rental_uris": {"ios": "https://dc.lft.to/lastmile_qr_scan", "android": "https://dc.lft.to/lastmile_qr_scan"}, "lon": -77.01898133333333, "type": "electric_scooter", "fusion_lat": 0.0, "lat": 38.905587, "name": "288fc659fb4e6cd4e4f9b4b2df829f47", "fusion_lon": 0.0, "bike_id": "288fc659fb4e6cd4e4f9b4b2df829f47", "is_disabled": 0, "is_reserved": 0}, {"rental_uris": {"ios": "https://dc.lft.to/lastmile_qr_scan", "android": "https://dc.lft.to/lastmile_qr_scan"}, "lon": -77.01598416666667, "type": "electric_scooter", "fusion_lat": 0.0, "lat": 38.89624533333333, "name": "4fec1428785d12ceaa81abdf54a3e3f8", "fusion_lon": 0.0, "bike_id": "4fec1428785d12ceaa81abdf54a3e3f8", "is_disabled": 0, "is_reserved": 0}, {"rental_uris": {"ios": "https://dc.lft.to/lastmile_qr_scan", "android": "https://dc.lft.to/lastmile_qr_scan"}, "lon": -77.02620666666667, "type": "electric_scooter", "fusion_lat": 0.0, "lat": 38.919131166666666, "name": "d60ffae608d4c7965c4dd0f19eea7872", "fusion_lon": 0.0, "bike_id": "d60ffae608d4c7965c4dd0f19eea7872", "is_disabled": 0, "is_reserved": 0}, {"rental_uris": {"ios": "https://dc.lft.to/lastmile_qr_scan", "android": "https://dc.lft.to/lastmile_qr_scan"}, "lon": -77.03081516666667, "type": "electric_scooter", "fusion_lat": 0.0, "lat": 38.8998685, "name": "cec47103f0c7f13dc4e96f9de1c0f432", "fusion_lon": 0.0, "bike_id": "cec47103f0c7f13dc4e96f9de1c0f432", "is_disabled": 0, "is_reserved": 0}, {"rental_uris": {"ios": "https://dc.lft.to/lastmile_qr_scan", "android": "https://dc.lft.to/lastmile_qr_scan"}, "lon": -76.93737666666667, "type": "electric_scooter", "fusion_lat": 0.0, "lat": 38.89015, "name": "40fdb2be89301d74daa7100c4fedc2e2", "fusion_lon": 0.0, "bike_id": "40fdb2be89301d74daa7100c4fedc2e2", "is_disabled": 0, "is_reserved": 0}, {"rental_uris": {"ios": "https://dc.lft.to/lastmile_qr_scan", "android": "https://dc.lft.to/lastmile_qr_scan"}, "lon": -77.07934233333333, "type": "electric_scooter", "fusion_lat": 0.0, "lat": 38.9487075, "name": "0864fe42f894a39be67b045d5e0781a3", "fusion_lon": 0.0, "bike_id": "0864fe42f894a39be67b045d5e0781a3", "is_disabled": 0, "is_reserved": 0}, {"rental_uris": {"ios": "https://dc.lft.to/lastmile_qr_scan", "android": "https://dc.lft.to/lastmile_qr_scan"}, "lon": -77.046456, "type": "electric_scooter", "fusion_lat": 0.0, "lat": 38.91577, "name": "571ba5c06e7374e95f218b22a7b199b7", "fusion_lon": 0.0, "bike_id": "571ba5c06e7374e95f218b22a7b199b7", "is_disabled": 0, "is_reserved": 0}, {"rental_uris": {"ios": "https://dc.lft.to/lastmile_qr_scan", "android": "https://dc.lft.to/lastmile_qr_scan"}, "lon": -76.97501483333333, "type": "electric_bike", "fusion_lat": 0.0, "lat": 38.919355, "name": "adfee9b078aa2f364002074b7d7c913f", "fusion_lon": 0.0, "bike_id": "adfee9b078aa2f364002074b7d7c913f", "is_disabled": 0, "is_reserved": 0}, {"rental_uris": {"ios": "https://dc.lft.to/lastmile_qr_scan", "android": "https://dc.lft.to/lastmile_qr_scan"}, "lon": -77.03832666666666, "type": "electric_scooter", "fusion_lat": 0.0, "lat": 38.911149, "name": "d9b9056af9a7a54414c82ef03598b514", "fusion_lon": 0.0, "bike_id": "d9b9056af9a7a54414c82ef03598b514", "is_disabled": 0, "is_reserved": 0}, {"rental_uris": {"ios": "https://dc.lft.to/lastmile_qr_scan", "android": "https://dc.lft.to/lastmile_qr_scan"}, "lon": -76.99611266666666, "type": "electric_scooter", "fusion_lat": 0.0, "lat": 38.88628883333333, "name": "a74a733d0e893280190070c9bf596eda", "fusion_lon": 0.0, "bike_id": "a74a733d0e893280190070c9bf596eda", "is_disabled": 0, "is_reserved": 0}, {"rental_uris": {"ios": "https://dc.lft.to/lastmile_qr_scan", "android": "https://dc.lft.to/lastmile_qr_scan"}, "lon": -76.985677, "type": "electric_scooter", "fusion_lat": 0.0, "lat": 38.86150516666667, "name": "bb41b947dd611d54b3f902b164e30615", "fusion_lon": 0.0, "bike_id": "bb41b947dd611d54b3f902b164e30615", "is_disabled": 0, "is_reserved": 0}, {"rental_uris": {"ios": "https://dc.lft.to/lastmile_qr_scan", "android": "https://dc.lft.to/lastmile_qr_scan"}, "lon": -76.9756485, "type": "electric_scooter", "fusion_lat": 0.0, "lat": 38.904439833333335, "name": "12c3c1699bd8f707124629b706457710", "fusion_lon": 0.0, "bike_id": "12c3c1699bd8f707124629b706457710", "is_disabled": 0, "is_reserved": 0}, {"rental_uris": {"ios": "https://dc.lft.to/lastmile_qr_scan", "android": "https://dc.lft.to/lastmile_qr_scan"}, "lon": -77.0465905, "type": "electric_scooter", "fusion_lat": 0.0, "lat": 38.896517333333335, "name": "dc8c7bb85a4480f847de9a544dd9813e", "fusion_lon": 0.0, "bike_id": "dc8c7bb85a4480f847de9a544dd9813e", "is_disabled": 0, "is_reserved": 0}, {"rental_uris": {"ios": "https://dc.lft.to/lastmile_qr_scan", "android": "https://dc.lft.to/lastmile_qr_scan"}, "lon": -77.04494233333334, "type": "electric_scooter", "fusion_lat": 0.0, "lat": 38.9152185, "name": "9903a4a0ee37ddd006c4824e5fec8ef4", "fusion_lon": 0.0, "bike_id": "9903a4a0ee37ddd006c4824e5fec8ef4", "is_disabled": 0, "is_reserved": 0}, {"rental_uris": {"ios": "https://dc.lft.to/lastmile_qr_scan", "android": "https://dc.lft.to/lastmile_qr_scan"}, "lon": -76.973218, "type": "electric_scooter", "fusion_lat": 0.0, "lat": 38.930283333333335, "name": "21afd98559d49be3f1cdd8954db21091", "fusion_lon": 0.0, "bike_id": "21afd98559d49be3f1cdd8954db21091", "is_disabled": 0, "is_reserved": 0}, {"rental_uris": {"ios": "https://dc.lft.to/lastmile_qr_scan", "android": "https://dc.lft.to/lastmile_qr_scan"}, "lon": -76.99871833333333, "type": "electric_scooter", "fusion_lat": 0.0, "lat": 38.900309, "name": "5f4ee4dccb470126517109298b56cba4", "fusion_lon": 0.0, "bike_id": "5f4ee4dccb470126517109298b56cba4", "is_disabled": 0, "is_reserved": 0}, {"rental_uris": {"ios": "https://dc.lft.to/lastmile_qr_scan", "android": "https://dc.lft.to/lastmile_qr_scan"}, "lon": -77.01091966666667, "type": "electric_scooter", "fusion_lat": 0.0, "lat": 38.915626333333336, "name": "19c20aeafb493a18bee761f5b06bb002", "fusion_lon": 0.0, "bike_id": "19c20aeafb493a18bee761f5b06bb002", "is_disabled": 0, "is_reserved": 0}, {"rental_uris": {"ios": "https://dc.lft.to/lastmile_qr_scan", "android": "https://dc.lft.to/lastmile_qr_scan"}, "lon": -77.04553416666667, "type": "electric_scooter", "fusion_lat": 0.0, "lat": 38.89223233333333, "name": "224b6f057cdd25fbebaa087d5dcd1cfe", "fusion_lon": 0.0, "bike_id": "224b6f057cdd25fbebaa087d5dcd1cfe", "is_disabled": 0, "is_reserved": 0}, {"rental_uris": {"ios": "https://dc.lft.to/lastmile_qr_scan", "android": "https://dc.lft.to/lastmile_qr_scan"}, "lon": -76.99799883333333, "type": "electric_scooter", "fusion_lat": 0.0, "lat": 38.90856016666667, "name": "cace9a582760fb127823f3ca58453181", "fusion_lon": 0.0, "bike_id": "cace9a582760fb127823f3ca58453181", "is_disabled": 0, "is_reserved": 0}, {"rental_uris": {"ios": "https://dc.lft.to/lastmile_qr_scan", "android": "https://dc.lft.to/lastmile_qr_scan"}, "lon": -77.02829366666667, "type": "electric_scooter", "fusion_lat": 0.0, "lat": 38.89534466666667, "name": "0bc32ba9978df1b08ba0be0ddb09b404", "fusion_lon": 0.0, "bike_id": "0bc32ba9978df1b08ba0be0ddb09b404", "is_disabled": 0, "is_reserved": 0}, {"rental_uris": {"ios": "https://dc.lft.to/lastmile_qr_scan", "android": "https://dc.lft.to/lastmile_qr_scan"}, "lon": -77.02398716666667, "type": "electric_scooter", "fusion_lat": 0.0, "lat": 38.915894, "name": "d3d3a6755091d354a4df966137861d06", "fusion_lon": 0.0, "bike_id": "d3d3a6755091d354a4df966137861d06", "is_disabled": 0, "is_reserved": 0}, {"rental_uris": {"ios": "https://dc.lft.to/lastmile_qr_scan", "android": "https://dc.lft.to/lastmile_qr_scan"}, "lon": -77.0489635, "type": "electric_scooter", "fusion_lat": 0.0, "lat": 38.905909666666666, "name": "223e83a67acfe014ad6786401e7620df", "fusion_lon": 0.0, "bike_id": "223e83a67acfe014ad6786401e7620df", "is_disabled": 0, "is_reserved": 0}, {"rental_uris": {"ios": "https://dc.lft.to/lastmile_qr_scan", "android": "https://dc.lft.to/lastmile_qr_scan"}, "lon": -77.0269385, "type": "electric_scooter", "fusion_lat": 0.0, "lat": 38.90872566666667, "name": "95b628092ccb444b02f3cfd6546fb5ac", "fusion_lon": 0.0, "bike_id": "95b628092ccb444b02f3cfd6546fb5ac", "is_disabled": 0, "is_reserved": 0}, {"rental_uris": {"ios": "https://dc.lft.to/lastmile_qr_scan", "android": "https://dc.lft.to/lastmile_qr_scan"}, "lon": -77.02384866666667, "type": "electric_scooter", "fusion_lat": 0.0, "lat": 38.89231433333333, "name": "83e104372b2267ca20b8f30338f4d81a", "fusion_lon": 0.0, "bike_id": "83e104372b2267ca20b8f30338f4d81a", "is_disabled": 0, "is_reserved": 0}, {"rental_uris": {"ios": "https://dc.lft.to/lastmile_qr_scan", "android": "https://dc.lft.to/lastmile_qr_scan"}, "lon": -77.05000416666667, "type": "electric_scooter", "fusion_lat": 0.0, "lat": 38.89230216666667, "name": "27b0024477200b0acd1e8ca85147d194", "fusion_lon": 0.0, "bike_id": "27b0024477200b0acd1e8ca85147d194", "is_disabled": 0, "is_reserved": 0}, {"rental_uris": {"ios": "https://dc.lft.to/lastmile_qr_scan", "android": "https://dc.lft.to/lastmile_qr_scan"}, "lon": -77.05222683333334, "type": "electric_scooter", "fusion_lat": 0.0, "lat": 38.92497916666667, "name": "9a077c2dd1a200cb1c5b69f5ae741c97", "fusion_lon": 0.0, "bike_id": "9a077c2dd1a200cb1c5b69f5ae741c97", "is_disabled": 0, "is_reserved": 0}, {"rental_uris": {"ios": "https://dc.lft.to/lastmile_qr_scan", "android": "https://dc.lft.to/lastmile_qr_scan"}, "lon": -77.05357883333333, "type": "electric_scooter", "fusion_lat": 0.0, "lat": 38.9279225, "name": "7ad637fd2efc1b8421260404f07b2fbd", "fusion_lon": 0.0, "bike_id": "7ad637fd2efc1b8421260404f07b2fbd", "is_disabled": 0, "is_reserved": 0}, {"rental_uris": {"ios": "https://dc.lft.to/lastmile_qr_scan", "android": "https://dc.lft.to/lastmile_qr_scan"}, "lon": -77.04479383333333, "type": "electric_scooter", "fusion_lat": 0.0, "lat": 38.9110815, "name": "f7201f521381d1001b7ae8d5e52fe166", "fusion_lon": 0.0, "bike_id": "f7201f521381d1001b7ae8d5e52fe166", "is_disabled": 0, "is_reserved": 0}, {"rental_uris": {"ios": "https://dc.lft.to/lastmile_qr_scan", "android": "https://dc.lft.to/lastmile_qr_scan"}, "lon": -77.04684133333333, "type": "electric_scooter", "fusion_lat": 0.0, "lat": 38.900325, "name": "78836598e4e8bf4927a8f80cd3bed669", "fusion_lon": 0.0, "bike_id": "78836598e4e8bf4927a8f80cd3bed669", "is_disabled": 0, "is_reserved": 0}, {"rental_uris": {"ios": "https://dc.lft.to/lastmile_qr_scan", "android": "https://dc.lft.to/lastmile_qr_scan"}, "lon": -77.05301516666667, "type": "electric_scooter", "fusion_lat": 0.0, "lat": 38.927904166666664, "name": "6e54f65aba8dd95478210604d261a028", "fusion_lon": 0.0, "bike_id": "6e54f65aba8dd95478210604d261a028", "is_disabled": 0, "is_reserved": 0}, {"rental_uris": {"ios": "https://dc.lft.to/lastmile_qr_scan", "android": "https://dc.lft.to/lastmile_qr_scan"}, "lon": -77.129014, "type": "electric_bike", "fusion_lat": 0.0, "lat": 38.86377683333333, "name": "0006879d02014e684222e3b2b4238864", "fusion_lon": 0.0, "bike_id": "0006879d02014e684222e3b2b4238864", "is_disabled": 0, "is_reserved": 0}, {"rental_uris": {"ios": "https://dc.lft.to/lastmile_qr_scan", "android": "https://dc.lft.to/lastmile_qr_scan"}, "lon": -77.042939, "type": "electric_scooter", "fusion_lat": 0.0, "lat": 38.9065415, "name": "345dd0ef863fc97225dc4bf7c16f3bca", "fusion_lon": 0.0, "bike_id": "345dd0ef863fc97225dc4bf7c16f3bca", "is_disabled": 0, "is_reserved": 0}, {"rental_uris": {"ios": "https://dc.lft.to/lastmile_qr_scan", "android": "https://dc.lft.to/lastmile_qr_scan"}, "lon": -76.99552833333334, "type": "electric_scooter", "fusion_lat": 0.0, "lat": 38.862356, "name": "e95b0bda491dca6f1b6c9bb2d4ef370a", "fusion_lon": 0.0, "bike_id": "e95b0bda491dca6f1b6c9bb2d4ef370a", "is_disabled": 0, "is_reserved": 0}, {"rental_uris": {"ios": "https://dc.lft.to/lastmile_qr_scan", "android": "https://dc.lft.to/lastmile_qr_scan"}, "lon": -77.01995366666667, "type": "electric_scooter", "fusion_lat": 0.0, "lat": 38.937816833333336, "name": "7f15455256250579bf644624bda2e65e", "fusion_lon": 0.0, "bike_id": "7f15455256250579bf644624bda2e65e", "is_disabled": 0, "is_reserved": 0}, {"rental_uris": {"ios": "https://dc.lft.to/lastmile_qr_scan", "android": "https://dc.lft.to/lastmile_qr_scan"}, "lon": -77.03470683333333, "type": "electric_scooter", "fusion_lat": 0.0, "lat": 38.934530333333335, "name": "799314399726bc3a07943f3d9fb03240", "fusion_lon": 0.0, "bike_id": "799314399726bc3a07943f3d9fb03240", "is_disabled": 0, "is_reserved": 0}, {"rental_uris": {"ios": "https://dc.lft.to/lastmile_qr_scan", "android": "https://dc.lft.to/lastmile_qr_scan"}, "lon": -76.99000666666667, "type": "electric_scooter", "fusion_lat": 0.0, "lat": 38.90389716666667, "name": "8efd995a90859d54cd664257b3d5d4c9", "fusion_lon": 0.0, "bike_id": "8efd995a90859d54cd664257b3d5d4c9", "is_disabled": 0, "is_reserved": 0}, {"rental_uris": {"ios": "https://dc.lft.to/lastmile_qr_scan", "android": "https://dc.lft.to/lastmile_qr_scan"}, "lon": -77.0404105, "type": "electric_scooter", "fusion_lat": 0.0, "lat": 38.90600766666667, "name": "852dfe90cd80d91f7357eff10c987f4d", "fusion_lon": 0.0, "bike_id": "852dfe90cd80d91f7357eff10c987f4d", "is_disabled": 0, "is_reserved": 0}, {"rental_uris": {"ios": "https://dc.lft.to/lastmile_qr_scan", "android": "https://dc.lft.to/lastmile_qr_scan"}, "lon": -76.99839016666667, "type": "electric_scooter", "fusion_lat": 0.0, "lat": 38.900399, "name": "193c3744789c76515af441f8bad379dd", "fusion_lon": 0.0, "bike_id": "193c3744789c76515af441f8bad379dd", "is_disabled": 0, "is_reserved": 0}, {"rental_uris": {"ios": "https://dc.lft.to/lastmile_qr_scan", "android": "https://dc.lft.to/lastmile_qr_scan"}, "lon": -77.0102835, "type": "electric_scooter", "fusion_lat": 0.0, "lat": 38.91809583333333, "name": "5181ab04d00e687554af28ffbc855009", "fusion_lon": 0.0, "bike_id": "5181ab04d00e687554af28ffbc855009", "is_disabled": 0, "is_reserved": 0}, {"rental_uris": {"ios": "https://dc.lft.to/lastmile_qr_scan", "android": "https://dc.lft.to/lastmile_qr_scan"}, "lon": -77.03755866666667, "type": "electric_scooter", "fusion_lat": 0.0, "lat": 38.91257433333333, "name": "3b43e98a41bee3e49a38dbfd146dea51", "fusion_lon": 0.0, "bike_id": "3b43e98a41bee3e49a38dbfd146dea51", "is_disabled": 0, "is_reserved": 0}, {"rental_uris": {"ios": "https://dc.lft.to/lastmile_qr_scan", "android": "https://dc.lft.to/lastmile_qr_scan"}, "lon": -77.0592845, "type": "electric_scooter", "fusion_lat": 0.0, "lat": 38.909557, "name": "18c15df49e3dae36e036f50c5c4bf7de", "fusion_lon": 0.0, "bike_id": "18c15df49e3dae36e036f50c5c4bf7de", "is_disabled": 0, "is_reserved": 0}, {"rental_uris": {"ios": "https://dc.lft.to/lastmile_qr_scan", "android": "https://dc.lft.to/lastmile_qr_scan"}, "lon": -76.98308283333333, "type": "electric_scooter", "fusion_lat": 0.0, "lat": 38.899687166666666, "name": "e4d44217f8a5f989d2a4418ec83f323e", "fusion_lon": 0.0, "bike_id": "e4d44217f8a5f989d2a4418ec83f323e", "is_disabled": 0, "is_reserved": 0}, {"rental_uris": {"ios": "https://dc.lft.to/lastmile_qr_scan", "android": "https://dc.lft.to/lastmile_qr_scan"}, "lon": -77.02574583333333, "type": "electric_scooter", "fusion_lat": 0.0, "lat": 38.903492, "name": "e2c7bc7dba95a933613d9607a14e0455", "fusion_lon": 0.0, "bike_id": "e2c7bc7dba95a933613d9607a14e0455", "is_disabled": 0, "is_reserved": 0}, {"rental_uris": {"ios": "https://dc.lft.to/lastmile_qr_scan", "android": "https://dc.lft.to/lastmile_qr_scan"}, "lon": -77.02587533333333, "type": "electric_scooter", "fusion_lat": 0.0, "lat": 38.8924975, "name": "9e37e40b2d30ff84bb3562bf5703683a", "fusion_lon": 0.0, "bike_id": "9e37e40b2d30ff84bb3562bf5703683a", "is_disabled": 0, "is_reserved": 0}, {"rental_uris": {"ios": "https://dc.lft.to/lastmile_qr_scan", "android": "https://dc.lft.to/lastmile_qr_scan"}, "lon": -77.0677145, "type": "electric_scooter", "fusion_lat": 0.0, "lat": 38.903506, "name": "3a24ad776fee8e3a54db098ade3f1969", "fusion_lon": 0.0, "bike_id": "3a24ad776fee8e3a54db098ade3f1969", "is_disabled": 0, "is_reserved": 0}, {"rental_uris": {"ios": "https://dc.lft.to/lastmile_qr_scan", "android": "https://dc.lft.to/lastmile_qr_scan"}, "lon": -77.0321465, "type": "electric_scooter", "fusion_lat": 0.0, "lat": 38.93380783333333, "name": "10e00b7dbb76cc93387d2be847d9ac0c", "fusion_lon": 0.0, "bike_id": "10e00b7dbb76cc93387d2be847d9ac0c", "is_disabled": 0, "is_reserved": 0}, {"rental_uris": {"ios": "https://dc.lft.to/lastmile_qr_scan", "android": "https://dc.lft.to/lastmile_qr_scan"}, "lon": -77.04702933333333, "type": "electric_scooter", "fusion_lat": 0.0, "lat": 38.92239333333333, "name": "5d2bb46ca7f0117b15d82df6ebe3d38d", "fusion_lon": 0.0, "bike_id": "5d2bb46ca7f0117b15d82df6ebe3d38d", "is_disabled": 0, "is_reserved": 0}, {"rental_uris": {"ios": "https://dc.lft.to/lastmile_qr_scan", "android": "https://dc.lft.to/lastmile_qr_scan"}, "lon": -77.0498585, "type": "electric_scooter", "fusion_lat": 0.0, "lat": 38.9011575, "name": "bda4aa9d37a32be4be4131ef81e2e3f4", "fusion_lon": 0.0, "bike_id": "bda4aa9d37a32be4be4131ef81e2e3f4", "is_disabled": 0, "is_reserved": 0}, {"rental_uris": {"ios": "https://dc.lft.to/lastmile_qr_scan", "android": "https://dc.lft.to/lastmile_qr_scan"}, "lon": -77.0321045, "type": "electric_scooter", "fusion_lat": 0.0, "lat": 38.925795, "name": "f62be903e17b254ec2cbee9737782799", "fusion_lon": 0.0, "bike_id": "f62be903e17b254ec2cbee9737782799", "is_disabled": 0, "is_reserved": 0}, {"rental_uris": {"ios": "https://dc.lft.to/lastmile_qr_scan", "android": "https://dc.lft.to/lastmile_qr_scan"}, "lon": -77.00366433333333, "type": "electric_scooter", "fusion_lat": 0.0, "lat": 38.87658366666667, "name": "9d29cec220d6ed68f69fe873d213abd8", "fusion_lon": 0.0, "bike_id": "9d29cec220d6ed68f69fe873d213abd8", "is_disabled": 0, "is_reserved": 0}, {"rental_uris": {"ios": "https://dc.lft.to/lastmile_qr_scan", "android": "https://dc.lft.to/lastmile_qr_scan"}, "lon": -76.94890733333334, "type": "electric_scooter", "fusion_lat": 0.0, "lat": 38.8952505, "name": "9d176eb0b5d20716f988fa5f84ffdf94", "fusion_lon": 0.0, "bike_id": "9d176eb0b5d20716f988fa5f84ffdf94", "is_disabled": 0, "is_reserved": 0}, {"rental_uris": {"ios": "https://dc.lft.to/lastmile_qr_scan", "android": "https://dc.lft.to/lastmile_qr_scan"}, "lon": -77.0098985, "type": "electric_scooter", "fusion_lat": 0.0, "lat": 38.895965333333336, "name": "b5e428debdab8f74f444065c4aab878c", "fusion_lon": 0.0, "bike_id": "b5e428debdab8f74f444065c4aab878c", "is_disabled": 0, "is_reserved": 0}, {"rental_uris": {"ios": "https://dc.lft.to/lastmile_qr_scan", "android": "https://dc.lft.to/lastmile_qr_scan"}, "lon": -77.02836483333333, "type": "electric_scooter", "fusion_lat": 0.0, "lat": 38.89526383333333, "name": "079f67dcdb847075cc4f22deee1cacc3", "fusion_lon": 0.0, "bike_id": "079f67dcdb847075cc4f22deee1cacc3", "is_disabled": 0, "is_reserved": 0}, {"rental_uris": {"ios": "https://dc.lft.to/lastmile_qr_scan", "android": "https://dc.lft.to/lastmile_qr_scan"}, "lon": -77.01947466666667, "type": "electric_scooter", "fusion_lat": 0.0, "lat": 38.92417733333333, "name": "da017c558b469d24c2570d2e12cfdde8", "fusion_lon": 0.0, "bike_id": "da017c558b469d24c2570d2e12cfdde8", "is_disabled": 0, "is_reserved": 0}, {"rental_uris": {"ios": "https://dc.lft.to/lastmile_qr_scan", "android": "https://dc.lft.to/lastmile_qr_scan"}, "lon": -76.98560666666667, "type": "electric_scooter", "fusion_lat": 0.0, "lat": 38.8558075, "name": "c448e80734e2f4f37a1f3577bc722a6c", "fusion_lon": 0.0, "bike_id": "c448e80734e2f4f37a1f3577bc722a6c", "is_disabled": 0, "is_reserved": 0}, {"rental_uris": {"ios": "https://dc.lft.to/lastmile_qr_scan", "android": "https://dc.lft.to/lastmile_qr_scan"}, "lon": -77.02835466666667, "type": "electric_scooter", "fusion_lat": 0.0, "lat": 38.895284, "name": "083e8c39c50e99e0407ea5e25f4aa04b", "fusion_lon": 0.0, "bike_id": "083e8c39c50e99e0407ea5e25f4aa04b", "is_disabled": 0, "is_reserved": 0}, {"rental_uris": {"ios": "https://dc.lft.to/lastmile_qr_scan", "android": "https://dc.lft.to/lastmile_qr_scan"}, "lon": -77.04490666666666, "type": "electric_scooter", "fusion_lat": 0.0, "lat": 38.9194875, "name": "066f94f401c30bf7247318abea627932", "fusion_lon": 0.0, "bike_id": "066f94f401c30bf7247318abea627932", "is_disabled": 0, "is_reserved": 0}, {"rental_uris": {"ios": "https://dc.lft.to/lastmile_qr_scan", "android": "https://dc.lft.to/lastmile_qr_scan"}, "lon": -77.07907833333333, "type": "electric_scooter", "fusion_lat": 0.0, "lat": 38.948028666666666, "name": "7d8a4725f90065761873dbfc10545197", "fusion_lon": 0.0, "bike_id": "7d8a4725f90065761873dbfc10545197", "is_disabled": 0, "is_reserved": 0}, {"rental_uris": {"ios": "https://dc.lft.to/lastmile_qr_scan", "android": "https://dc.lft.to/lastmile_qr_scan"}, "lon": -77.00868616666666, "type": "electric_bike", "fusion_lat": 0.0, "lat": 38.82728083333333, "name": "cc311103ccabe943fef510c22408ae53", "fusion_lon": 0.0, "bike_id": "cc311103ccabe943fef510c22408ae53", "is_disabled": 0, "is_reserved": 0}, {"rental_uris": {"ios": "https://dc.lft.to/lastmile_qr_scan", "android": "https://dc.lft.to/lastmile_qr_scan"}, "lon": -77.0418205, "type": "electric_scooter", "fusion_lat": 0.0, "lat": 38.90359133333333, "name": "2a311d4db319d34392ffffbd4cc4ac68", "fusion_lon": 0.0, "bike_id": "2a311d4db319d34392ffffbd4cc4ac68", "is_disabled": 0, "is_reserved": 0}, {"rental_uris": {"ios": "https://dc.lft.to/lastmile_qr_scan", "android": "https://dc.lft.to/lastmile_qr_scan"}, "lon": -77.04253933333334, "type": "electric_scooter", "fusion_lat": 0.0, "lat": 38.92060516666667, "name": "35d3d7eb071fd8b6bf33e70f28e8e831", "fusion_lon": 0.0, "bike_id": "35d3d7eb071fd8b6bf33e70f28e8e831", "is_disabled": 0, "is_reserved": 0}, {"rental_uris": {"ios": "https://dc.lft.to/lastmile_qr_scan", "android": "https://dc.lft.to/lastmile_qr_scan"}, "lon": -77.02414866666666, "type": "electric_scooter", "fusion_lat": 0.0, "lat": 38.917032, "name": "fad2c96522e00e189c94fbf2646cdf18", "fusion_lon": 0.0, "bike_id": "fad2c96522e00e189c94fbf2646cdf18", "is_disabled": 0, "is_reserved": 0}, {"rental_uris": {"ios": "https://dc.lft.to/lastmile_qr_scan", "android": "https://dc.lft.to/lastmile_qr_scan"}, "lon": -77.02069683333333, "type": "electric_scooter", "fusion_lat": 0.0, "lat": 38.93533716666666, "name": "f5e97b76b0a88b0a7d5eb5580b08d075", "fusion_lon": 0.0, "bike_id": "f5e97b76b0a88b0a7d5eb5580b08d075", "is_disabled": 0, "is_reserved": 0}, {"rental_uris": {"ios": "https://dc.lft.to/lastmile_qr_scan", "android": "https://dc.lft.to/lastmile_qr_scan"}, "lon": -77.044898, "type": "electric_scooter", "fusion_lat": 0.0, "lat": 38.913140166666665, "name": "b4bd52d2be65b14c72638351fd81f13d", "fusion_lon": 0.0, "bike_id": "b4bd52d2be65b14c72638351fd81f13d", "is_disabled": 0, "is_reserved": 0}, {"rental_uris": {"ios": "https://dc.lft.to/lastmile_qr_scan", "android": "https://dc.lft.to/lastmile_qr_scan"}, "lon": -77.028347, "type": "electric_scooter", "fusion_lat": 0.0, "lat": 38.924718166666665, "name": "649663491b4669ecbe2b863dc71248e6", "fusion_lon": 0.0, "bike_id": "649663491b4669ecbe2b863dc71248e6", "is_disabled": 0, "is_reserved": 0}, {"rental_uris": {"ios": "https://dc.lft.to/lastmile_qr_scan", "android": "https://dc.lft.to/lastmile_qr_scan"}, "lon": -77.01081833333333, "type": "electric_bike", "fusion_lat": 0.0, "lat": 38.956534, "name": "46624c3d5367d66fc67a1be428e62b87", "fusion_lon": 0.0, "bike_id": "46624c3d5367d66fc67a1be428e62b87", "is_disabled": 0, "is_reserved": 0}, {"rental_uris": {"ios": "https://dc.lft.to/lastmile_qr_scan", "android": "https://dc.lft.to/lastmile_qr_scan"}, "lon": -77.0392255, "type": "electric_scooter", "fusion_lat": 0.0, "lat": 38.8985255, "name": "6197e043a961c65905ffbc22de5fbc03", "fusion_lon": 0.0, "bike_id": "6197e043a961c65905ffbc22de5fbc03", "is_disabled": 0, "is_reserved": 0}, {"rental_uris": {"ios": "https://dc.lft.to/lastmile_qr_scan", "android": "https://dc.lft.to/lastmile_qr_scan"}, "lon": -77.00262216666667, "type": "electric_scooter", "fusion_lat": 0.0, "lat": 38.898956166666665, "name": "6c4689af6175748f58ed7fd273d1a931", "fusion_lon": 0.0, "bike_id": "6c4689af6175748f58ed7fd273d1a931", "is_disabled": 0, "is_reserved": 0}, {"rental_uris": {"ios": "https://dc.lft.to/lastmile_qr_scan", "android": "https://dc.lft.to/lastmile_qr_scan"}, "lon": -77.03261366666666, "type": "electric_scooter", "fusion_lat": 0.0, "lat": 38.91989566666667, "name": "613ab5c34001710dada89faff0ec470b", "fusion_lon": 0.0, "bike_id": "613ab5c34001710dada89faff0ec470b", "is_disabled": 0, "is_reserved": 0}, {"rental_uris": {"ios": "https://dc.lft.to/lastmile_qr_scan", "android": "https://dc.lft.to/lastmile_qr_scan"}, "lon": -76.99852, "type": "electric_scooter", "fusion_lat": 0.0, "lat": 38.8949205, "name": "960dc3e29e4531f7da44b01935a15006", "fusion_lon": 0.0, "bike_id": "960dc3e29e4531f7da44b01935a15006", "is_disabled": 0, "is_reserved": 0}, {"rental_uris": {"ios": "https://dc.lft.to/lastmile_qr_scan", "android": "https://dc.lft.to/lastmile_qr_scan"}, "lon": -77.03700366666666, "type": "electric_scooter", "fusion_lat": 0.0, "lat": 38.92636133333333, "name": "25b0e62dfa48d1087c30c85fea483544", "fusion_lon": 0.0, "bike_id": "25b0e62dfa48d1087c30c85fea483544", "is_disabled": 0, "is_reserved": 0}, {"rental_uris": {"ios": "https://dc.lft.to/lastmile_qr_scan", "android": "https://dc.lft.to/lastmile_qr_scan"}, "lon": -77.00669516666666, "type": "electric_scooter", "fusion_lat": 0.0, "lat": 38.90726266666667, "name": "9cd48025745578f516aabddf595ba78a", "fusion_lon": 0.0, "bike_id": "9cd48025745578f516aabddf595ba78a", "is_disabled": 0, "is_reserved": 0}, {"rental_uris": {"ios": "https://dc.lft.to/lastmile_qr_scan", "android": "https://dc.lft.to/lastmile_qr_scan"}, "lon": -77.04482716666666, "type": "electric_scooter", "fusion_lat": 0.0, "lat": 38.90316816666667, "name": "5023e0dcbe6a84bdabc9afdb03fd1b19", "fusion_lon": 0.0, "bike_id": "5023e0dcbe6a84bdabc9afdb03fd1b19", "is_disabled": 0, "is_reserved": 0}, {"rental_uris": {"ios": "https://dc.lft.to/lastmile_qr_scan", "android": "https://dc.lft.to/lastmile_qr_scan"},