{"data": {"bikes": [{"bike_id": "5a1b6b4f26fe9ae818a26872a7e9409a", "type": "electric_scooter", "is_disabled": 0, "lat": 38.917962833333334, "rental_uris": {"ios": "https://dc.lft.to/lastmile_qr_scan", "android": "https://dc.lft.to/lastmile_qr_scan"}, "is_reserved": 0, "fusion_lon": 0.0, "fusion_lat": 0.0, "lon": -77.04152033333334, "name": "5a1b6b4f26fe9ae818a26872a7e9409a"}, {"bike_id": "d1cb65ca5c7a56b46b5cb2e1bb35c0ed", "type": "electric_scooter", "is_disabled": 0, "lat": 38.87066633333333, "rental_uris": {"ios": "https://dc.lft.to/lastmile_qr_scan", "android": "https://dc.lft.to/lastmile_qr_scan"}, "is_reserved": 0, "fusion_lon": 0.0, "fusion_lat": 0.0, "lon": -76.98126916666666, "name": "d1cb65ca5c7a56b46b5cb2e1bb35c0ed"}, {"bike_id": "88bcc71daefdd4699ba7dcb8112cf94c", "type": "electric_scooter", "is_disabled": 0, "lat": 38.921516833333335, "rental_uris": {"ios": "https://dc.lft.to/lastmile_qr_scan", "android": "https://dc.lft.to/lastmile_qr_scan"}, "is_reserved": 0, "fusion_lon": 0.0, "fusion_lat": 0.0, "lon": -77.03869483333334, "name": "88bcc71daefdd4699ba7dcb8112cf94c"}, {"bike_id": "8af119b470271e7e267c7b8cbdbb9b16", "type": "electric_scooter", "is_disabled": 0, "lat": 38.9331945, "rental_uris": {"ios": "https://dc.lft.to/lastmile_qr_scan", "android": "https://dc.lft.to/lastmile_qr_scan"}, "is_reserved": 0, "fusion_lon": 0.0, "fusion_lat": 0.0, "lon": -77.07231916666667, "name": "8af119b470271e7e267c7b8cbdbb9b16"}, {"bike_id": "d071aadd629e70156d09146f8be8e6a6", "type": "electric_scooter", "is_disabled": 0, "lat": 38.927185, "rental_uris": {"ios": "https://dc.lft.to/lastmile_qr_scan", "android": "https://dc.lft.to/lastmile_qr_scan"}, "is_reserved": 0, "fusion_lon": 0.0, "fusion_lat": 0.0, "lon": -77.02724883333333, "name": "d071aadd629e70156d09146f8be8e6a6"}, {"bike_id": "3cb93c9039a54e7836ad1ba7dc1ac980", "type": "electric_scooter", "is_disabled": 0, "lat": 38.9340015, "rental_uris": {"ios": "https://dc.lft.to/lastmile_qr_scan", "android": "https://dc.lft.to/lastmile_qr_scan"}, "is_reserved": 0, "fusion_lon": 0.0, "fusion_lat": 0.0, "lon": -77.03986183333333, "name": "3cb93c9039a54e7836ad1ba7dc1ac980"}, {"bike_id": "3967f4d37a31d369273f3ef9df32d8dc", "type": "electric_bike", "is_disabled": 0, "lat": 39.05501016666667, "rental_uris": {"ios": "https://dc.lft.to/lastmile_qr_scan", "android": "https://dc.lft.to/lastmile_qr_scan"}, "is_reserved": 0, "fusion_lon": 0.0, "fusion_lat": 0.0, "lon": -77.046478, "name": "3967f4d37a31d369273f3ef9df32d8dc"}, {"bike_id": "cd134271319e294986bc9a1bd66390bf", "type": "electric_scooter", "is_disabled": 0, "lat": 38.9395625, "rental_uris": {"ios": "https://dc.lft.to/lastmile_qr_scan", "android": "https://dc.lft.to/lastmile_qr_scan"}, "is_reserved": 0, "fusion_lon": 0.0, "fusion_lat": 0.0, "lon": -77.03665533333333, "name": "cd134271319e294986bc9a1bd66390bf"}, {"bike_id": "c1e0ac7284100c0ed84507f54c30bcf5", "type": "electric_scooter", "is_disabled": 0, "lat": 38.92614966666667, "rental_uris": {"ios": "https://dc.lft.to/lastmile_qr_scan", "android": "https://dc.lft.to/lastmile_qr_scan"}, "is_reserved": 0, "fusion_lon": 0.0, "fusion_lat": 0.0, "lon": -77.021607, "name": "c1e0ac7284100c0ed84507f54c30bcf5"}, {"bike_id": "bc0b5a55adaaf6ab7ee1e4e7937395e5", "type": "electric_scooter", "is_disabled": 0, "lat": 38.89370516666666, "rental_uris": {"ios": "https://dc.lft.to/lastmile_qr_scan", "android": "https://dc.lft.to/lastmile_qr_scan"}, "is_reserved": 0, "fusion_lon": 0.0, "fusion_lat": 0.0, "lon": -76.98559083333333, "name": "bc0b5a55adaaf6ab7ee1e4e7937395e5"}, {"bike_id": "1dcc77eb51bc0e0ab67375ce974836c5", "type": "electric_bike", "is_disabled": 0, "lat": 38.929643, "rental_uris": {"ios": "https://dc.lft.to/lastmile_qr_scan", "android": "https://dc.lft.to/lastmile_qr_scan"}, "is_reserved": 0, "fusion_lon": 0.0, "fusion_lat": 0.0, "lon": -77.18560916666667, "name": "1dcc77eb51bc0e0ab67375ce974836c5"}, {"bike_id": "ce10c838985c15cf75ffdaa0d5e0e15f", "type": "electric_scooter", "is_disabled": 0, "lat": 38.9025865, "rental_uris": {"ios": "https://dc.lft.to/lastmile_qr_scan", "android": "https://dc.lft.to/lastmile_qr_scan"}, "is_reserved": 0, "fusion_lon": 0.0, "fusion_lat": 0.0, "lon": -77.033766, "name": "ce10c838985c15cf75ffdaa0d5e0e15f"}, {"bike_id": "a52e90896786343d73b1364769821a7b", "type": "electric_scooter", "is_disabled": 0, "lat": 38.9028235, "rental_uris": {"ios": "https://dc.lft.to/lastmile_qr_scan", "android": "https://dc.lft.to/lastmile_qr_scan"}, "is_reserved": 0, "fusion_lon": 0.0, "fusion_lat": 0.0, "lon": -77.058061, "name": "a52e90896786343d73b1364769821a7b"}, {"bike_id": "b647f4af7710db104cda0964da2c374d", "type": "electric_scooter", "is_disabled": 0, "lat": 38.901538333333335, "rental_uris": {"ios": "https://dc.lft.to/lastmile_qr_scan", "android": "https://dc.lft.to/lastmile_qr_scan"}, "is_reserved": 0, "fusion_lon": 0.0, "fusion_lat": 0.0, "lon": -76.93056733333333, "name": "b647f4af7710db104cda0964da2c374d"}, {"bike_id": "1382b0f7a208f112e6206f4c05c08e79", "type": "electric_scooter", "is_disabled": 0, "lat": 38.87662783333333, "rental_uris": {"ios": "https://dc.lft.to/lastmile_qr_scan", "android": "https://dc.lft.to/lastmile_qr_scan"}, "is_reserved": 0, "fusion_lon": 0.0, "fusion_lat": 0.0, "lon": -77.00574283333333, "name": "1382b0f7a208f112e6206f4c05c08e79"}, {"bike_id": "fca35f6bf0125b13e8938f587159065f", "type": "electric_scooter", "is_disabled": 0, "lat": 38.9389195, "rental_uris": {"ios": "https://dc.lft.to/lastmile_qr_scan", "android": "https://dc.lft.to/lastmile_qr_scan"}, "is_reserved": 0, "fusion_lon": 0.0, "fusion_lat": 0.0, "lon": -77.02497166666667, "name": "fca35f6bf0125b13e8938f587159065f"}, {"bike_id": "5a0546d98788250d26264b6257e93efd", "type": "electric_scooter", "is_disabled": 0, "lat": 38.892169, "rental_uris": {"ios": "https://dc.lft.to/lastmile_qr_scan", "android": "https://dc.lft.to/lastmile_qr_scan"}, "is_reserved": 0, "fusion_lon": 0.0, "fusion_lat": 0.0, "lon": -77.0258295, "name": "5a0546d98788250d26264b6257e93efd"}, {"bike_id": "0e6f8809937a1d3202ed6756ef675025", "type": "electric_scooter", "is_disabled": 0, "lat": 38.913494, "rental_uris": {"ios": "https://dc.lft.to/lastmile_qr_scan", "android": "https://dc.lft.to/lastmile_qr_scan"}, "is_reserved": 0, "fusion_lon": 0.0, "fusion_lat": 0.0, "lon": -77.04483733333333, "name": "0e6f8809937a1d3202ed6756ef675025"}, {"bike_id": "87e18f41cbe0fb899647edc3ca8b71c7", "type": "electric_scooter", "is_disabled": 0, "lat": 38.902682666666664, "rental_uris": {"ios": "https://dc.lft.to/lastmile_qr_scan", "android": "https://dc.lft.to/lastmile_qr_scan"}, "is_reserved": 0, "fusion_lon": 0.0, "fusion_lat": 0.0, "lon": -77.03854283333334, "name": "87e18f41cbe0fb899647edc3ca8b71c7"}, {"bike_id": "9751de048497e866897e6a26994c25c8", "type": "electric_bike", "is_disabled": 0, "lat": 39.0629355, "rental_uris": {"ios": "https://dc.lft.to/lastmile_qr_scan", "android": "https://dc.lft.to/lastmile_qr_scan"}, "is_reserved": 0, "fusion_lon": 0.0, "fusion_lat": 0.0, "lon": -77.049778, "name": "9751de048497e866897e6a26994c25c8"}, {"bike_id": "384b29af7a25e1930222423e6f5c2705", "type": "electric_scooter", "is_disabled": 0, "lat": 38.864151, "rental_uris": {"ios": "https://dc.lft.to/lastmile_qr_scan", "android": "https://dc.lft.to/lastmile_qr_scan"}, "is_reserved": 0, "fusion_lon": 0.0, "fusion_lat": 0.0, "lon": -76.980437, "name": "384b29af7a25e1930222423e6f5c2705"}, {"bike_id": "8c485c046e006758859f8522bc4f3e14", "type": "electric_scooter", "is_disabled": 0, "lat": 38.905807333333335, "rental_uris": {"ios": "https://dc.lft.to/lastmile_qr_scan", "android": "https://dc.lft.to/lastmile_qr_scan"}, "is_reserved": 0, "fusion_lon": 0.0, "fusion_lat": 0.0, "lon": -77.01999933333333, "name": "8c485c046e006758859f8522bc4f3e14"}, {"bike_id": "35ea144f44f65c6ecc142af2fe96a393", "type": "electric_scooter", "is_disabled": 0, "lat": 38.86363866666667, "rental_uris": {"ios": "https://dc.lft.to/lastmile_qr_scan", "android": "https://dc.lft.to/lastmile_qr_scan"}, "is_reserved": 0, "fusion_lon": 0.0, "fusion_lat": 0.0, "lon": -76.99050666666666, "name": "35ea144f44f65c6ecc142af2fe96a393"}, {"bike_id": "bcf48360e36d0d6211871353c655166b", "type": "electric_scooter", "is_disabled": 0, "lat": 38.90843783333333, "rental_uris": {"ios": "https://dc.lft.to/lastmile_qr_scan", "android": "https://dc.lft.to/lastmile_qr_scan"}, "is_reserved": 0, "fusion_lon": 0.0, "fusion_lat": 0.0, "lon": -76.9980085, "name": "bcf48360e36d0d6211871353c655166b"}, {"bike_id": "831a2f7bdd86de2ac7f0d5e1b3e6b1b0", "type": "electric_scooter", "is_disabled": 0, "lat": 38.91914633333333, "rental_uris": {"ios": "https://dc.lft.to/lastmile_qr_scan", "android": "https://dc.lft.to/lastmile_qr_scan"}, "is_reserved": 0, "fusion_lon": 0.0, "fusion_lat": 0.0, "lon": -77.04245083333333, "name": "831a2f7bdd86de2ac7f0d5e1b3e6b1b0"}, {"bike_id": "fee4cd967c44d32dc481c268ccaa6bf5", "type": "electric_scooter", "is_disabled": 0, "lat": 38.905017666666666, "rental_uris": {"ios": "https://dc.lft.to/lastmile_qr_scan", "android": "https://dc.lft.to/lastmile_qr_scan"}, "is_reserved": 0, "fusion_lon": 0.0, "fusion_lat": 0.0, "lon": -77.05114783333333, "name": "fee4cd967c44d32dc481c268ccaa6bf5"}, {"bike_id": "86664c263e1112e6571f9f4f67a114c3", "type": "electric_scooter", "is_disabled": 0, "lat": 38.88379333333334, "rental_uris": {"ios": "https://dc.lft.to/lastmile_qr_scan", "android": "https://dc.lft.to/lastmile_qr_scan"}, "is_reserved": 0, "fusion_lon": 0.0, "fusion_lat": 0.0, "lon": -77.026534, "name": "86664c263e1112e6571f9f4f67a114c3"}, {"bike_id": "73df89653b198138f7e9e90e19bce3c0", "type": "electric_scooter", "is_disabled": 0, "lat": 38.866806833333335, "rental_uris": {"ios": "https://dc.lft.to/lastmile_qr_scan", "android": "https://dc.lft.to/lastmile_qr_scan"}, "is_reserved": 0, "fusion_lon": 0.0, "fusion_lat": 0.0, "lon": -76.98557016666666, "name": "73df89653b198138f7e9e90e19bce3c0"}, {"bike_id": "4764cd88b806649c7f90251a7128c1fe", "type": "electric_scooter", "is_disabled": 0, "lat": 38.92052266666666, "rental_uris": {"ios": "https://dc.lft.to/lastmile_qr_scan", "android": "https://dc.lft.to/lastmile_qr_scan"}, "is_reserved": 0, "fusion_lon": 0.0, "fusion_lat": 0.0, "lon": -77.03123883333333, "name": "4764cd88b806649c7f90251a7128c1fe"}, {"bike_id": "402b2b3159d8f304a7689360e6b69538", "type": "electric_scooter", "is_disabled": 0, "lat": 38.902426166666665, "rental_uris": {"ios": "https://dc.lft.to/lastmile_qr_scan", "android": "https://dc.lft.to/lastmile_qr_scan"}, "is_reserved": 0, "fusion_lon": 0.0, "fusion_lat": 0.0, "lon": -77.0395815, "name": "402b2b3159d8f304a7689360e6b69538"}, {"bike_id": "560dcdc273f1bd26e5ca3363a611b334", "type": "electric_scooter", "is_disabled": 0, "lat": 38.92138216666667, "rental_uris": {"ios": "https://dc.lft.to/lastmile_qr_scan", "android": "https://dc.lft.to/lastmile_qr_scan"}, "is_reserved": 0, "fusion_lon": 0.0, "fusion_lat": 0.0, "lon": -77.04129333333333, "name": "560dcdc273f1bd26e5ca3363a611b334"}, {"bike_id": "e8d9526e74443ae2779a648ac9aebb17", "type": "electric_scooter", "is_disabled": 0, "lat": 38.92312916666667, "rental_uris": {"ios": "https://dc.lft.to/lastmile_qr_scan", "android": "https://dc.lft.to/lastmile_qr_scan"}, "is_reserved": 0, "fusion_lon": 0.0, "fusion_lat": 0.0, "lon": -77.03910616666667, "name": "e8d9526e74443ae2779a648ac9aebb17"}, {"bike_id": "2f6866104db2467af9b4edb720aaa362", "type": "electric_scooter", "is_disabled": 0, "lat": 38.918097, "rental_uris": {"ios": "https://dc.lft.to/lastmile_qr_scan", "android": "https://dc.lft.to/lastmile_qr_scan"}, "is_reserved": 0, "fusion_lon": 0.0, "fusion_lat": 0.0, "lon": -77.036695, "name": "2f6866104db2467af9b4edb720aaa362"}, {"bike_id": "c3c3c1435d5041d25351b77e968e0cd4", "type": "electric_scooter", "is_disabled": 0, "lat": 38.90730216666667, "rental_uris": {"ios": "https://dc.lft.to/lastmile_qr_scan", "android": "https://dc.lft.to/lastmile_qr_scan"}, "is_reserved": 0, "fusion_lon": 0.0, "fusion_lat": 0.0, "lon": -77.02948683333334, "name": "c3c3c1435d5041d25351b77e968e0cd4"}, {"bike_id": "72336a05270d9c97f9dcba452aaad606", "type": "electric_bike", "is_disabled": 0, "lat": 38.90875033333333, "rental_uris": {"ios": "https://dc.lft.to/lastmile_qr_scan", "android": "https://dc.lft.to/lastmile_qr_scan"}, "is_reserved": 0, "fusion_lon": 0.0, "fusion_lat": 0.0, "lon": -76.991346, "name": "72336a05270d9c97f9dcba452aaad606"}, {"bike_id": "b8a661538bac87e8a88d48ef00632c67", "type": "electric_scooter", "is_disabled": 0, "lat": 38.919626666666666, "rental_uris": {"ios": "https://dc.lft.to/lastmile_qr_scan", "android": "https://dc.lft.to/lastmile_qr_scan"}, "is_reserved": 0, "fusion_lon": 0.0, "fusion_lat": 0.0, "lon": -77.0238655, "name": "b8a661538bac87e8a88d48ef00632c67"}, {"bike_id": "78ef57cfeec3cf7d30e247d678e23c01", "type": "electric_scooter", "is_disabled": 0, "lat": 38.89253516666667, "rental_uris": {"ios": "https://dc.lft.to/lastmile_qr_scan", "android": "https://dc.lft.to/lastmile_qr_scan"}, "is_reserved": 0, "fusion_lon": 0.0, "fusion_lat": 0.0, "lon": -77.03344716666666, "name": "78ef57cfeec3cf7d30e247d678e23c01"}, {"bike_id": "414c214bff14642f9d08e2a87c5adc7e", "type": "electric_scooter", "is_disabled": 0, "lat": 38.9019445, "rental_uris": {"ios": "https://dc.lft.to/lastmile_qr_scan", "android": "https://dc.lft.to/lastmile_qr_scan"}, "is_reserved": 0, "fusion_lon": 0.0, "fusion_lat": 0.0, "lon": -76.98844766666667, "name": "414c214bff14642f9d08e2a87c5adc7e"}, {"bike_id": "fb1711a7fec00fb6675c460f31758173", "type": "electric_scooter", "is_disabled": 0, "lat": 38.9000795, "rental_uris": {"ios": "https://dc.lft.to/lastmile_qr_scan", "android": "https://dc.lft.to/lastmile_qr_scan"}, "is_reserved": 0, "fusion_lon": 0.0, "fusion_lat": 0.0, "lon": -77.01268383333333, "name": "fb1711a7fec00fb6675c460f31758173"}, {"bike_id": "9778d74bb8c4d1dbd19417652bfd5dcb", "type": "electric_scooter", "is_disabled": 0, "lat": 38.923413833333335, "rental_uris": {"ios": "https://dc.lft.to/lastmile_qr_scan", "android": "https://dc.lft.to/lastmile_qr_scan"}, "is_reserved": 0, "fusion_lon": 0.0, "fusion_lat": 0.0, "lon": -77.054328, "name": "9778d74bb8c4d1dbd19417652bfd5dcb"}, {"bike_id": "87f8c1d84edd248e59170173267e1aac", "type": "electric_scooter", "is_disabled": 0, "lat": 38.926036333333336, "rental_uris": {"ios": "https://dc.lft.to/lastmile_qr_scan", "android": "https://dc.lft.to/lastmile_qr_scan"}, "is_reserved": 0, "fusion_lon": 0.0, "fusion_lat": 0.0, "lon": -77.021549, "name": "87f8c1d84edd248e59170173267e1aac"}, {"bike_id": "9621c23d39114813a88592d3ad2aa226", "type": "electric_scooter", "is_disabled": 0, "lat": 38.940726, "rental_uris": {"ios": "https://dc.lft.to/lastmile_qr_scan", "android": "https://dc.lft.to/lastmile_qr_scan"}, "is_reserved": 0, "fusion_lon": 0.0, "fusion_lat": 0.0, "lon": -77.052542, "name": "9621c23d39114813a88592d3ad2aa226"}, {"bike_id": "9fed6b2ae5add138b775b61e5eafda5b", "type": "electric_scooter", "is_disabled": 0, "lat": 38.913524833333334, "rental_uris": {"ios": "https://dc.lft.to/lastmile_qr_scan", "android": "https://dc.lft.to/lastmile_qr_scan"}, "is_reserved": 0, "fusion_lon": 0.0, "fusion_lat": 0.0, "lon": -77.04579983333333, "name": "9fed6b2ae5add138b775b61e5eafda5b"}, {"bike_id": "86000491dbdb72879ec275260fdce7b1", "type": "electric_scooter", "is_disabled": 0, "lat": 38.904435, "rental_uris": {"ios": "https://dc.lft.to/lastmile_qr_scan", "android": "https://dc.lft.to/lastmile_qr_scan"}, "is_reserved": 0, "fusion_lon": 0.0, "fusion_lat": 0.0, "lon": -77.02868483333333, "name": "86000491dbdb72879ec275260fdce7b1"}, {"bike_id": "eb9e4fb14e80e821bd47d21dea67fcaa", "type": "electric_scooter", "is_disabled": 0, "lat": 38.909795, "rental_uris": {"ios": "https://dc.lft.to/lastmile_qr_scan", "android": "https://dc.lft.to/lastmile_qr_scan"}, "is_reserved": 0, "fusion_lon": 0.0, "fusion_lat": 0.0, "lon": -77.03186616666666, "name": "eb9e4fb14e80e821bd47d21dea67fcaa"}, {"bike_id": "02b3001092a6e6163c072c2ffc0f3894", "type": "electric_scooter", "is_disabled": 0, "lat": 38.89226566666667, "rental_uris": {"ios": "https://dc.lft.to/lastmile_qr_scan", "android": "https://dc.lft.to/lastmile_qr_scan"}, "is_reserved": 0, "fusion_lon": 0.0, "fusion_lat": 0.0, "lon": -77.02386416666667, "name": "02b3001092a6e6163c072c2ffc0f3894"}, {"bike_id": "348e1ab0b0a0fd70a6de7f121a1bf10b", "type": "electric_scooter", "is_disabled": 0, "lat": 38.91110033333333, "rental_uris": {"ios": "https://dc.lft.to/lastmile_qr_scan", "android": "https://dc.lft.to/lastmile_qr_scan"}, "is_reserved": 0, "fusion_lon": 0.0, "fusion_lat": 0.0, "lon": -77.03832616666666, "name": "348e1ab0b0a0fd70a6de7f121a1bf10b"}, {"bike_id": "11e506b3182d9f723e4939246baaf5bf", "type": "electric_scooter", "is_disabled": 0, "lat": 38.87937216666667, "rental_uris": {"ios": "https://dc.lft.to/lastmile_qr_scan", "android": "https://dc.lft.to/lastmile_qr_scan"}, "is_reserved": 0, "fusion_lon": 0.0, "fusion_lat": 0.0, "lon": -77.01539516666666, "name": "11e506b3182d9f723e4939246baaf5bf"}, {"bike_id": "32b505c5de140f3a08916aa6c36f68a1", "type": "electric_scooter", "is_disabled": 0, "lat": 38.917045, "rental_uris": {"ios": "https://dc.lft.to/lastmile_qr_scan", "android": "https://dc.lft.to/lastmile_qr_scan"}, "is_reserved": 0, "fusion_lon": 0.0, "fusion_lat": 0.0, "lon": -77.0957745, "name": "32b505c5de140f3a08916aa6c36f68a1"}, {"bike_id": "4d277cd8dcc4447c3bb542198152a2ea", "type": "electric_scooter", "is_disabled": 0, "lat": 38.92072366666667, "rental_uris": {"ios": "https://dc.lft.to/lastmile_qr_scan", "android": "https://dc.lft.to/lastmile_qr_scan"}, "is_reserved": 0, "fusion_lon": 0.0, "fusion_lat": 0.0, "lon": -77.02505066666667, "name": "4d277cd8dcc4447c3bb542198152a2ea"}, {"bike_id": "f106e7a99b3bc497f21f02bb934280f8", "type": "electric_scooter", "is_disabled": 0, "lat": 38.914066166666665, "rental_uris": {"ios": "https://dc.lft.to/lastmile_qr_scan", "android": "https://dc.lft.to/lastmile_qr_scan"}, "is_reserved": 0, "fusion_lon": 0.0, "fusion_lat": 0.0, "lon": -77.03225583333334, "name": "f106e7a99b3bc497f21f02bb934280f8"}, {"bike_id": "79bdf6aa17b3e7b906a20cca5ec1a55a", "type": "electric_scooter", "is_disabled": 0, "lat": 38.906468, "rental_uris": {"ios": "https://dc.lft.to/lastmile_qr_scan", "android": "https://dc.lft.to/lastmile_qr_scan"}, "is_reserved": 0, "fusion_lon": 0.0, "fusion_lat": 0.0, "lon": -77.024902, "name": "79bdf6aa17b3e7b906a20cca5ec1a55a"}, {"bike_id": "9060e34266d8dd99823616169d2b5e50", "type": "electric_scooter", "is_disabled": 0, "lat": 38.9332565, "rental_uris": {"ios": "https://dc.lft.to/lastmile_qr_scan", "android": "https://dc.lft.to/lastmile_qr_scan"}, "is_reserved": 0, "fusion_lon": 0.0, "fusion_lat": 0.0, "lon": -77.03253516666666, "name": "9060e34266d8dd99823616169d2b5e50"}, {"bike_id": "92a28bdbb50aeff93c39a594c414910e", "type": "electric_scooter", "is_disabled": 0, "lat": 38.919900166666665, "rental_uris": {"ios": "https://dc.lft.to/lastmile_qr_scan", "android": "https://dc.lft.to/lastmile_qr_scan"}, "is_reserved": 0, "fusion_lon": 0.0, "fusion_lat": 0.0, "lon": -77.03203533333334, "name": "92a28bdbb50aeff93c39a594c414910e"}, {"bike_id": "de6b84452920e41bb8b2f99359bac23b", "type": "electric_scooter", "is_disabled": 0, "lat": 38.92323833333333, "rental_uris": {"ios": "https://dc.lft.to/lastmile_qr_scan", "android": "https://dc.lft.to/lastmile_qr_scan"}, "is_reserved": 0, "fusion_lon": 0.0, "fusion_lat": 0.0, "lon": -77.0214795, "name": "de6b84452920e41bb8b2f99359bac23b"}, {"bike_id": "4b0ffa29badca751225ef87bdd407e0a", "type": "electric_scooter", "is_disabled": 0, "lat": 38.92165816666667, "rental_uris": {"ios": "https://dc.lft.to/lastmile_qr_scan", "android": "https://dc.lft.to/lastmile_qr_scan"}, "is_reserved": 0, "fusion_lon": 0.0, "fusion_lat": 0.0, "lon": -77.01912083333333, "name": "4b0ffa29badca751225ef87bdd407e0a"}, {"bike_id": "45e71dfbbb1434d49c13e2f4aae41b87", "type": "electric_scooter", "is_disabled": 0, "lat": 38.95732016666667, "rental_uris": {"ios": "https://dc.lft.to/lastmile_qr_scan", "android": "https://dc.lft.to/lastmile_qr_scan"}, "is_reserved": 0, "fusion_lon": 0.0, "fusion_lat": 0.0, "lon": -77.02404016666667, "name": "45e71dfbbb1434d49c13e2f4aae41b87"}, {"bike_id": "3573722a9671cb2ac79b8066af448c0d", "type": "electric_scooter", "is_disabled": 0, "lat": 38.89042233333333, "rental_uris": {"ios": "https://dc.lft.to/lastmile_qr_scan", "android": "https://dc.lft.to/lastmile_qr_scan"}, "is_reserved": 0, "fusion_lon": 0.0, "fusion_lat": 0.0, "lon": -77.01505866666666, "name": "3573722a9671cb2ac79b8066af448c0d"}, {"bike_id": "9f50efdb62e0c6e4246e632d2f7eaaf3", "type": "electric_scooter", "is_disabled": 0, "lat": 38.8644955, "rental_uris": {"ios": "https://dc.lft.to/lastmile_qr_scan", "android": "https://dc.lft.to/lastmile_qr_scan"}, "is_reserved": 0, "fusion_lon": 0.0, "fusion_lat": 0.0, "lon": -77.01267783333333, "name": "9f50efdb62e0c6e4246e632d2f7eaaf3"}, {"bike_id": "4835a6e8e6b69f44b62d60ba4b0d8836", "type": "electric_scooter", "is_disabled": 0, "lat": 38.90511633333333, "rental_uris": {"ios": "https://dc.lft.to/lastmile_qr_scan", "android": "https://dc.lft.to/lastmile_qr_scan"}, "is_reserved": 0, "fusion_lon": 0.0, "fusion_lat": 0.0, "lon": -77.02504466666667, "name": "4835a6e8e6b69f44b62d60ba4b0d8836"}, {"bike_id": "ab1417e33ab14efaf063dea572acf8f6", "type": "electric_scooter", "is_disabled": 0, "lat": 38.91798816666667, "rental_uris": {"ios": "https://dc.lft.to/lastmile_qr_scan", "android": "https://dc.lft.to/lastmile_qr_scan"}, "is_reserved": 0, "fusion_lon": 0.0, "fusion_lat": 0.0, "lon": -77.03122566666667, "name": "ab1417e33ab14efaf063dea572acf8f6"}, {"bike_id": "eb4a2430ff5fb5fb4d7300ba5d144990", "type": "electric_scooter", "is_disabled": 0, "lat": 38.923746333333334, "rental_uris": {"ios": "https://dc.lft.to/lastmile_qr_scan", "android": "https://dc.lft.to/lastmile_qr_scan"}, "is_reserved": 0, "fusion_lon": 0.0, "fusion_lat": 0.0, "lon": -77.02529166666666, "name": "eb4a2430ff5fb5fb4d7300ba5d144990"}, {"bike_id": "6f53db0e3b9cb59e5cff47493301111c", "type": "electric_scooter", "is_disabled": 0, "lat": 38.92285616666667, "rental_uris": {"ios": "https://dc.lft.to/lastmile_qr_scan", "android": "https://dc.lft.to/lastmile_qr_scan"}, "is_reserved": 0, "fusion_lon": 0.0, "fusion_lat": 0.0, "lon": -76.99450633333333, "name": "6f53db0e3b9cb59e5cff47493301111c"}, {"bike_id": "2423f835c630acb55116e9de35b035e8", "type": "electric_scooter", "is_disabled": 0, "lat": 38.95152, "rental_uris": {"ios": "https://dc.lft.to/lastmile_qr_scan", "android": "https://dc.lft.to/lastmile_qr_scan"}, "is_reserved": 0, "fusion_lon": 0.0, "fusion_lat": 0.0, "lon": -77.018702, "name": "2423f835c630acb55116e9de35b035e8"}, {"bike_id": "c8b4ab0566c5aa6ddb0fdb46866bce75", "type": "electric_bike", "is_disabled": 0, "lat": 38.9620575, "rental_uris": {"ios": "https://dc.lft.to/lastmile_qr_scan", "android": "https://dc.lft.to/lastmile_qr_scan"}, "is_reserved": 0, "fusion_lon": 0.0, "fusion_lat": 0.0, "lon": -77.02783766666667, "name": "c8b4ab0566c5aa6ddb0fdb46866bce75"}, {"bike_id": "af27ce369235a45690790806add86c3a", "type": "electric_scooter", "is_disabled": 0, "lat": 38.904042833333335, "rental_uris": {"ios": "https://dc.lft.to/lastmile_qr_scan", "android": "https://dc.lft.to/lastmile_qr_scan"}, "is_reserved": 0, "fusion_lon": 0.0, "fusion_lat": 0.0, "lon": -76.97329016666667, "name": "af27ce369235a45690790806add86c3a"}, {"bike_id": "b32d5266c833a7c06f4536dbb98321df", "type": "electric_scooter", "is_disabled": 0, "lat": 38.91241566666667, "rental_uris": {"ios": "https://dc.lft.to/lastmile_qr_scan", "android": "https://dc.lft.to/lastmile_qr_scan"}, "is_reserved": 0, "fusion_lon": 0.0, "fusion_lat": 0.0, "lon": -77.00917933333334, "name": "b32d5266c833a7c06f4536dbb98321df"}, {"bike_id": "6a04c9f4ad2bca402d4044e90c320dfc", "type": "electric_scooter", "is_disabled": 0, "lat": 38.9489595, "rental_uris": {"ios": "https://dc.lft.to/lastmile_qr_scan", "android": "https://dc.lft.to/lastmile_qr_scan"}, "is_reserved": 0, "fusion_lon": 0.0, "fusion_lat": 0.0, "lon": -77.00649766666666, "name": "6a04c9f4ad2bca402d4044e90c320dfc"}, {"bike_id": "bc6a35cef4f69a7463581a707db36218", "type": "electric_scooter", "is_disabled": 0, "lat": 38.916643666666666, "rental_uris": {"ios": "https://dc.lft.to/lastmile_qr_scan", "android": "https://dc.lft.to/lastmile_qr_scan"}, "is_reserved": 0, "fusion_lon": 0.0, "fusion_lat": 0.0, "lon": -77.02894683333334, "name": "bc6a35cef4f69a7463581a707db36218"}, {"bike_id": "2331c62109aa390187c8e0e26d421846", "type": "electric_scooter", "is_disabled": 0, "lat": 38.90653983333333, "rental_uris": {"ios": "https://dc.lft.to/lastmile_qr_scan", "android": "https://dc.lft.to/lastmile_qr_scan"}, "is_reserved": 0, "fusion_lon": 0.0, "fusion_lat": 0.0, "lon": -77.05321833333333, "name": "2331c62109aa390187c8e0e26d421846"}, {"bike_id": "847f7b02b61286979c98dc780ec38f62", "type": "electric_scooter", "is_disabled": 0, "lat": 38.9240705, "rental_uris": {"ios": "https://dc.lft.to/lastmile_qr_scan", "android": "https://dc.lft.to/lastmile_qr_scan"}, "is_reserved": 0, "fusion_lon": 0.0, "fusion_lat": 0.0, "lon": -77.029778, "name": "847f7b02b61286979c98dc780ec38f62"}, {"bike_id": "f870f4d3cab642d4d5fc4a416055ae13", "type": "electric_scooter", "is_disabled": 0, "lat": 38.932907666666665, "rental_uris": {"ios": "https://dc.lft.to/lastmile_qr_scan", "android": "https://dc.lft.to/lastmile_qr_scan"}, "is_reserved": 0, "fusion_lon": 0.0, "fusion_lat": 0.0, "lon": -77.036206, "name": "f870f4d3cab642d4d5fc4a416055ae13"}, {"bike_id": "4090b0a8cc6152ca1c4f2ab7b797d9a1", "type": "electric_scooter", "is_disabled": 0, "lat": 38.908637, "rental_uris": {"ios": "https://dc.lft.to/lastmile_qr_scan", "android": "https://dc.lft.to/lastmile_qr_scan"}, "is_reserved": 0, "fusion_lon": 0.0, "fusion_lat": 0.0, "lon": -77.02828466666666, "name": "4090b0a8cc6152ca1c4f2ab7b797d9a1"}, {"bike_id": "dbdb6849db74527e391a456733dbe6c8", "type": "electric_scooter", "is_disabled": 0, "lat": 38.91598, "rental_uris": {"ios": "https://dc.lft.to/lastmile_qr_scan", "android": "https://dc.lft.to/lastmile_qr_scan"}, "is_reserved": 0, "fusion_lon": 0.0, "fusion_lat": 0.0, "lon": -77.01223266666666, "name": "dbdb6849db74527e391a456733dbe6c8"}, {"bike_id": "66abfa1db46d30684993c1b11ce7c4e2", "type": "electric_scooter", "is_disabled": 0, "lat": 38.92460783333333, "rental_uris": {"ios": "https://dc.lft.to/lastmile_qr_scan", "android": "https://dc.lft.to/lastmile_qr_scan"}, "is_reserved": 0, "fusion_lon": 0.0, "fusion_lat": 0.0, "lon": -77.05229233333333, "name": "66abfa1db46d30684993c1b11ce7c4e2"}, {"bike_id": "ddc13d9b9c242060499647107d5bd34c", "type": "electric_scooter", "is_disabled": 0, "lat": 38.910373, "rental_uris": {"ios": "https://dc.lft.to/lastmile_qr_scan", "android": "https://dc.lft.to/lastmile_qr_scan"}, "is_reserved": 0, "fusion_lon": 0.0, "fusion_lat": 0.0, "lon": -77.01023616666667, "name": "ddc13d9b9c242060499647107d5bd34c"}, {"bike_id": "f4f12370636a91d9db6b7d272048c191", "type": "electric_bike", "is_disabled": 0, "lat": 38.8834685, "rental_uris": {"ios": "https://dc.lft.to/lastmile_qr_scan", "android": "https://dc.lft.to/lastmile_qr_scan"}, "is_reserved": 0, "fusion_lon": 0.0, "fusion_lat": 0.0, "lon": -76.936288, "name": "f4f12370636a91d9db6b7d272048c191"}, {"bike_id": "861c376ddc87378c0d52e2b021d38567", "type": "electric_scooter", "is_disabled": 0, "lat": 38.92166616666667, "rental_uris": {"ios": "https://dc.lft.to/lastmile_qr_scan", "android": "https://dc.lft.to/lastmile_qr_scan"}, "is_reserved": 0, "fusion_lon": 0.0, "fusion_lat": 0.0, "lon": -77.03368633333334, "name": "861c376ddc87378c0d52e2b021d38567"}, {"bike_id": "a3e402830fd4e1e9c21dce4ef3533597", "type": "electric_scooter", "is_disabled": 0, "lat": 38.929010166666664, "rental_uris": {"ios": "https://dc.lft.to/lastmile_qr_scan", "android": "https://dc.lft.to/lastmile_qr_scan"}, "is_reserved": 0, "fusion_lon": 0.0, "fusion_lat": 0.0, "lon": -77.03286966666667, "name": "a3e402830fd4e1e9c21dce4ef3533597"}, {"bike_id": "bde56d3a9d4b2f6b0c069b1399c0467c", "type": "electric_scooter", "is_disabled": 0, "lat": 38.915655, "rental_uris": {"ios": "https://dc.lft.to/lastmile_qr_scan", "android": "https://dc.lft.to/lastmile_qr_scan"}, "is_reserved": 0, "fusion_lon": 0.0, "fusion_lat": 0.0, "lon": -77.0428175, "name": "bde56d3a9d4b2f6b0c069b1399c0467c"}, {"bike_id": "7193d56beb32cef7116efc9443981293", "type": "electric_scooter", "is_disabled": 0, "lat": 38.91105866666667, "rental_uris": {"ios": "https://dc.lft.to/lastmile_qr_scan", "android": "https://dc.lft.to/lastmile_qr_scan"}, "is_reserved": 0, "fusion_lon": 0.0, "fusion_lat": 0.0, "lon": -77.03288733333333, "name": "7193d56beb32cef7116efc9443981293"}, {"bike_id": "3478796002d71fa2eb156cef5f831be3", "type": "electric_scooter", "is_disabled": 0, "lat": 38.9010115, "rental_uris": {"ios": "https://dc.lft.to/lastmile_qr_scan", "android": "https://dc.lft.to/lastmile_qr_scan"}, "is_reserved": 0, "fusion_lon": 0.0, "fusion_lat": 0.0, "lon": -77.05779616666666, "name": "3478796002d71fa2eb156cef5f831be3"}, {"bike_id": "b92d2ec8e12e342bec72465455fc87d2", "type": "electric_scooter", "is_disabled": 0, "lat": 38.921518, "rental_uris": {"ios": "https://dc.lft.to/lastmile_qr_scan", "android": "https://dc.lft.to/lastmile_qr_scan"}, "is_reserved": 0, "fusion_lon": 0.0, "fusion_lat": 0.0, "lon": -77.035323, "name": "b92d2ec8e12e342bec72465455fc87d2"}, {"bike_id": "a1015db0fb77f3905c98ab6222435502", "type": "electric_scooter", "is_disabled": 0, "lat": 38.91006866666667, "rental_uris": {"ios": "https://dc.lft.to/lastmile_qr_scan", "android": "https://dc.lft.to/lastmile_qr_scan"}, "is_reserved": 0, "fusion_lon": 0.0, "fusion_lat": 0.0, "lon": -76.986342, "name": "a1015db0fb77f3905c98ab6222435502"}, {"bike_id": "fe0cb5e6901ed23feec210c2306d0154", "type": "electric_scooter", "is_disabled": 0, "lat": 38.936767833333334, "rental_uris": {"ios": "https://dc.lft.to/lastmile_qr_scan", "android": "https://dc.lft.to/lastmile_qr_scan"}, "is_reserved": 0, "fusion_lon": 0.0, "fusion_lat": 0.0, "lon": -77.0363905, "name": "fe0cb5e6901ed23feec210c2306d0154"}, {"bike_id": "234b7e325ea8c53c17801a97d11dc134", "type": "electric_scooter", "is_disabled": 0, "lat": 38.947011333333336, "rental_uris": {"ios": "https://dc.lft.to/lastmile_qr_scan", "android": "https://dc.lft.to/lastmile_qr_scan"}, "is_reserved": 0, "fusion_lon": 0.0, "fusion_lat": 0.0, "lon": -77.01937916666667, "name": "234b7e325ea8c53c17801a97d11dc134"}, {"bike_id": "fd6d3f385254815b25918d6875403e4d", "type": "electric_scooter", "is_disabled": 0, "lat": 38.947879666666665, "rental_uris": {"ios": "https://dc.lft.to/lastmile_qr_scan", "android": "https://dc.lft.to/lastmile_qr_scan"}, "is_reserved": 0, "fusion_lon": 0.0, "fusion_lat": 0.0, "lon": -77.021359, "name": "fd6d3f385254815b25918d6875403e4d"}, {"bike_id": "df72509570fc5fa25ed147a38d208b98", "type": "electric_scooter", "is_disabled": 0, "lat": 38.90682416666667, "rental_uris": {"ios": "https://dc.lft.to/lastmile_qr_scan", "android": "https://dc.lft.to/lastmile_qr_scan"}, "is_reserved": 0, "fusion_lon": 0.0, "fusion_lat": 0.0, "lon": -77.03595066666666, "name": "df72509570fc5fa25ed147a38d208b98"}, {"bike_id": "130efee7d9d3225f51cdee26969f39ac", "type": "electric_scooter", "is_disabled": 0, "lat": 38.916117166666666, "rental_uris": {"ios": "https://dc.lft.to/lastmile_qr_scan", "android": "https://dc.lft.to/lastmile_qr_scan"}, "is_reserved": 0, "fusion_lon": 0.0, "fusion_lat": 0.0, "lon": -77.0486185, "name": "130efee7d9d3225f51cdee26969f39ac"}, {"bike_id": "8883d78c33f294d949d0ad037cdb8db8", "type": "electric_bike", "is_disabled": 0, "lat": 38.880578, "rental_uris": {"ios": "https://dc.lft.to/lastmile_qr_scan", "android": "https://dc.lft.to/lastmile_qr_scan"}, "is_reserved": 0, "fusion_lon": 0.0, "fusion_lat": 0.0, "lon": -76.96238683333333, "name": "8883d78c33f294d949d0ad037cdb8db8"}, {"bike_id": "fd9d280007c7a88f11f673d436225aaa", "type": "electric_scooter", "is_disabled": 0, "lat": 38.86983, "rental_uris": {"ios": "https://dc.lft.to/lastmile_qr_scan", "android": "https://dc.lft.to/lastmile_qr_scan"}, "is_reserved": 0, "fusion_lon": 0.0, "fusion_lat": 0.0, "lon": -76.98175, "name": "fd9d280007c7a88f11f673d436225aaa"}, {"bike_id": "4aadc790df5fd2f739d2a45519338a6a", "type": "electric_scooter", "is_disabled": 0, "lat": 38.921349166666666, "rental_uris": {"ios": "https://dc.lft.to/lastmile_qr_scan", "android": "https://dc.lft.to/lastmile_qr_scan"}, "is_reserved": 0, "fusion_lon": 0.0, "fusion_lat": 0.0, "lon": -77.04577083333334, "name": "4aadc790df5fd2f739d2a45519338a6a"}, {"bike_id": "490e168bd7a52629af3b6c97a0f0e210", "type": "electric_scooter", "is_disabled": 0, "lat": 38.9259445, "rental_uris": {"ios": "https://dc.lft.to/lastmile_qr_scan", "android": "https://dc.lft.to/lastmile_qr_scan"}, "is_reserved": 0, "fusion_lon": 0.0, "fusion_lat": 0.0, "lon": -77.0249985, "name": "490e168bd7a52629af3b6c97a0f0e210"}, {"bike_id": "3920ec457479cb3c9392a62c8d298767", "type": "electric_scooter", "is_disabled": 0, "lat": 38.919379, "rental_uris": {"ios": "https://dc.lft.to/lastmile_qr_scan", "android": "https://dc.lft.to/lastmile_qr_scan"}, "is_reserved": 0, "fusion_lon": 0.0, "fusion_lat": 0.0, "lon": -77.04490116666666, "name": "3920ec457479cb3c9392a62c8d298767"}, {"bike_id": "4eaae47505465dd8fb5078d9ff02c3a0", "type": "electric_scooter", "is_disabled": 0, "lat": 38.91916783333333, "rental_uris": {"ios": "https://dc.lft.to/lastmile_qr_scan", "android": "https://dc.lft.to/lastmile_qr_scan"}, "is_reserved": 0, "fusion_lon": 0.0, "fusion_lat": 0.0, "lon": -77.01414733333333, "name": "4eaae47505465dd8fb5078d9ff02c3a0"}, {"bike_id": "cfb86444708b16621bd9b7aceab99c25", "type": "electric_scooter", "is_disabled": 0, "lat": 38.914140333333336, "rental_uris": {"ios": "https://dc.lft.to/lastmile_qr_scan", "android": "https://dc.lft.to/lastmile_qr_scan"}, "is_reserved": 0, "fusion_lon": 0.0, "fusion_lat": 0.0, "lon": -77.01559166666667, "name": "cfb86444708b16621bd9b7aceab99c25"}, {"bike_id": "dd38235080839f0fb19edc563f54c7b2", "type": "electric_scooter", "is_disabled": 0, "lat": 38.92439433333333, "rental_uris": {"ios": "https://dc.lft.to/lastmile_qr_scan", "android": "https://dc.lft.to/lastmile_qr_scan"}, "is_reserved": 0, "fusion_lon": 0.0, "fusion_lat": 0.0, "lon": -77.03352233333334, "name": "dd38235080839f0fb19edc563f54c7b2"}, {"bike_id": "a22b445568a37c107b644bb5b75e058d", "type": "electric_bike", "is_disabled": 0, "lat": 38.87272983333333, "rental_uris": {"ios": "https://dc.lft.to/lastmile_qr_scan", "android": "https://dc.lft.to/lastmile_qr_scan"}, "is_reserved": 0, "fusion_lon": 0.0, "fusion_lat": 0.0, "lon": -77.23315516666666, "name": "a22b445568a37c107b644bb5b75e058d"}, {"bike_id": "36d975671dbf6049d12e901347ec1288", "type": "electric_scooter", "is_disabled": 0, "lat": 38.92855333333333, "rental_uris": {"ios": "https://dc.lft.to/lastmile_qr_scan", "android": "https://dc.lft.to/lastmile_qr_scan"}, "is_reserved": 0, "fusion_lon": 0.0, "fusion_lat": 0.0, "lon": -77.019495, "name": "36d975671dbf6049d12e901347ec1288"}, {"bike_id": "ebbb6f36ef310580b1f404e63d89ea09", "type": "electric_bike", "is_disabled": 0, "lat": 38.91014766666667, "rental_uris": {"ios": "https://dc.lft.to/lastmile_qr_scan", "android": "https://dc.lft.to/lastmile_qr_scan"}, "is_reserved": 0, "fusion_lon": 0.0, "fusion_lat": 0.0, "lon": -77.22799583333334, "name": "ebbb6f36ef310580b1f404e63d89ea09"}, {"bike_id": "0a4b9c53b569de2fb33a227ce673f6ae", "type": "electric_scooter", "is_disabled": 0, "lat": 38.913718833333334, "rental_uris": {"ios": "https://dc.lft.to/lastmile_qr_scan", "android": "https://dc.lft.to/lastmile_qr_scan"}, "is_reserved": 0, "fusion_lon": 0.0, "fusion_lat": 0.0, "lon": -77.07270816666667, "name": "0a4b9c53b569de2fb33a227ce673f6ae"}, {"bike_id": "738cdce0592eb4e14e59eb14a26b248a", "type": "electric_scooter", "is_disabled": 0, "lat": 38.89868333333333, "rental_uris": {"ios": "https://dc.lft.to/lastmile_qr_scan", "android": "https://dc.lft.to/lastmile_qr_scan"}, "is_reserved": 0, "fusion_lon": 0.0, "fusion_lat": 0.0, "lon": -77.02002083333333, "name": "738cdce0592eb4e14e59eb14a26b248a"}, {"bike_id": "3ef9ea8ef5bc3d2901602979da899d4f", "type": "electric_scooter", "is_disabled": 0, "lat": 38.92988016666666, "rental_uris": {"ios": "https://dc.lft.to/lastmile_qr_scan", "android": "https://dc.lft.to/lastmile_qr_scan"}, "is_reserved": 0, "fusion_lon": 0.0, "fusion_lat": 0.0, "lon": -77.03473283333334, "name": "3ef9ea8ef5bc3d2901602979da899d4f"}, {"bike_id": "8e634afde0898eacf96aee3ded35c1b6", "type": "electric_scooter", "is_disabled": 0, "lat": 38.90683833333333, "rental_uris": {"ios": "https://dc.lft.to/lastmile_qr_scan", "android": "https://dc.lft.to/lastmile_qr_scan"}, "is_reserved": 0, "fusion_lon": 0.0, "fusion_lat": 0.0, "lon": -77.07151233333333, "name": "8e634afde0898eacf96aee3ded35c1b6"}, {"bike_id": "d0dbdf2fb161f9be7c17bd5d4c6b85e8", "type": "electric_scooter", "is_disabled": 0, "lat": 38.90028266666667, "rental_uris": {"ios": "https://dc.lft.to/lastmile_qr_scan", "android": "https://dc.lft.to/lastmile_qr_scan"}, "is_reserved": 0, "fusion_lon": 0.0, "fusion_lat": 0.0, "lon": -76.988107, "name": "d0dbdf2fb161f9be7c17bd5d4c6b85e8"}, {"bike_id": "78209240d823483e7630f312ddbb7177", "type": "electric_scooter", "is_disabled": 0, "lat": 38.916783833333334, "rental_uris": {"ios": "https://dc.lft.to/lastmile_qr_scan", "android": "https://dc.lft.to/lastmile_qr_scan"}, "is_reserved": 0, "fusion_lon": 0.0, "fusion_lat": 0.0, "lon": -77.02299283333333, "name": "78209240d823483e7630f312ddbb7177"}, {"bike_id": "a860b1aa0186df451ed8f34cadd47fc2", "type": "electric_scooter", "is_disabled": 0, "lat": 38.91107683333333, "rental_uris": {"ios": "https://dc.lft.to/lastmile_qr_scan", "android": "https://dc.lft.to/lastmile_qr_scan"}, "is_reserved": 0, "fusion_lon": 0.0, "fusion_lat": 0.0, "lon": -77.011544, "name": "a860b1aa0186df451ed8f34cadd47fc2"}, {"bike_id": "09496062da0ff8318f8bbd6a10c6da66", "type": "electric_scooter", "is_disabled": 0, "lat": 38.9068565, "rental_uris": {"ios": "https://dc.lft.to/lastmile_qr_scan", "android": "https://dc.lft.to/lastmile_qr_scan"}, "is_reserved": 0, "fusion_lon": 0.0, "fusion_lat": 0.0, "lon": -77.06339683333333, "name": "09496062da0ff8318f8bbd6a10c6da66"}, {"bike_id": "273655bf06908f51ae72a77d122b6619", "type": "electric_scooter", "is_disabled": 0, "lat": 38.94214233333334, "rental_uris": {"ios": "https://dc.lft.to/lastmile_qr_scan", "android": "https://dc.lft.to/lastmile_qr_scan"}, "is_reserved": 0, "fusion_lon": 0.0, "fusion_lat": 0.0, "lon": -77.025888, "name": "273655bf06908f51ae72a77d122b6619"}, {"bike_id": "42ac56a7ce0d89d03cf4241dc075ad07", "type": "electric_scooter", "is_disabled": 0, "lat": 38.93184983333333, "rental_uris": {"ios": "https://dc.lft.to/lastmile_qr_scan", "android": "https://dc.lft.to/lastmile_qr_scan"}, "is_reserved": 0, "fusion_lon": 0.0, "fusion_lat": 0.0, "lon": -77.0365855, "name": "42ac56a7ce0d89d03cf4241dc075ad07"}, {"bike_id": "2555f5041badf94e3fcda7d091e221b8", "type": "electric_scooter", "is_disabled": 0, "lat": 38.9297695, "rental_uris": {"ios": "https://dc.lft.to/lastmile_qr_scan", "android": "https://dc.lft.to/lastmile_qr_scan"}, "is_reserved": 0, "fusion_lon": 0.0, "fusion_lat": 0.0, "lon": -77.03948266666667, "name": "2555f5041badf94e3fcda7d091e221b8"}, {"bike_id": "b8a44266af4dbd1d78de5b2b6d25b01f", "type": "electric_scooter", "is_disabled": 0, "lat": 38.910353666666666, "rental_uris": {"ios": "https://dc.lft.to/lastmile_qr_scan", "android": "https://dc.lft.to/lastmile_qr_scan"}, "is_reserved": 0, "fusion_lon": 0.0, "fusion_lat": 0.0, "lon": -77.04122483333333, "name": "b8a44266af4dbd1d78de5b2b6d25b01f"}, {"bike_id": "6e51e437895c865eb56c451ddff02f32", "type": "electric_scooter", "is_disabled": 0, "lat": 38.9345845, "rental_uris": {"ios": "https://dc.lft.to/lastmile_qr_scan", "android": "https://dc.lft.to/lastmile_qr_scan"}, "is_reserved": 0, "fusion_lon": 0.0, "fusion_lat": 0.0, "lon": -77.07224983333333, "name": "6e51e437895c865eb56c451ddff02f32"}, {"bike_id": "251c31436beb48db31c377199e0e6ec1", "type": "electric_scooter", "is_disabled": 0, "lat": 38.923414, "rental_uris": {"ios": "https://dc.lft.to/lastmile_qr_scan", "android": "https://dc.lft.to/lastmile_qr_scan"}, "is_reserved": 0, "fusion_lon": 0.0, "fusion_lat": 0.0, "lon": -77.040206, "name": "251c31436beb48db31c377199e0e6ec1"}, {"bike_id": "89bce812d46a2d32dcee975776d602f5", "type": "electric_scooter", "is_disabled": 0, "lat": 38.9246345, "rental_uris": {"ios": "https://dc.lft.to/lastmile_qr_scan", "android": "https://dc.lft.to/lastmile_qr_scan"}, "is_reserved": 0, "fusion_lon": 0.0, "fusion_lat": 0.0, "lon": -77.052321, "name": "89bce812d46a2d32dcee975776d602f5"}, {"bike_id": "67b9222ffd48ff630389f40850df1a9d", "type": "electric_bike", "is_disabled": 0, "lat": 39.05632583333333, "rental_uris": {"ios": "https://dc.lft.to/lastmile_qr_scan", "android": "https://dc.lft.to/lastmile_qr_scan"}, "is_reserved": 0, "fusion_lon": 0.0, "fusion_lat": 0.0, "lon": -77.12527716666666, "name": "67b9222ffd48ff630389f40850df1a9d"}, {"bike_id": "0f988b01a79a9cd125bcf6c3a3191665", "type": "electric_scooter", "is_disabled": 0, "lat": 38.907284, "rental_uris": {"ios": "https://dc.lft.to/lastmile_qr_scan", "android": "https://dc.lft.to/lastmile_qr_scan"}, "is_reserved": 0, "fusion_lon": 0.0, "fusion_lat": 0.0, "lon": -77.014876, "name": "0f988b01a79a9cd125bcf6c3a3191665"}, {"bike_id": "53593cbc5a21945fd75d149d749704e8", "type": "electric_scooter", "is_disabled": 0, "lat": 38.9163335, "rental_uris": {"ios": "https://dc.lft.to/lastmile_qr_scan", "android": "https://dc.lft.to/lastmile_qr_scan"}, "is_reserved": 0, "fusion_lon": 0.0, "fusion_lat": 0.0, "lon": -77.01085783333333, "name": "53593cbc5a21945fd75d149d749704e8"}, {"bike_id": "d41c0399cbba73a2e375a07a08c564d8", "type": "electric_scooter", "is_disabled": 0, "lat": 38.9191245, "rental_uris": {"ios": "https://dc.lft.to/lastmile_qr_scan", "android": "https://dc.lft.to/lastmile_qr_scan"}, "is_reserved": 0, "fusion_lon": 0.0, "fusion_lat": 0.0, "lon": -77.033875, "name": "d41c0399cbba73a2e375a07a08c564d8"}, {"bike_id": "b264de1e143f469eb6dabc5ca5627d7f", "type": "electric_scooter", "is_disabled": 0, "lat": 38.908417166666666, "rental_uris": {"ios": "https://dc.lft.to/lastmile_qr_scan", "android": "https://dc.lft.to/lastmile_qr_scan"}, "is_reserved": 0, "fusion_lon": 0.0, "fusion_lat": 0.0, "lon": -77.022326, "name": "b264de1e143f469eb6dabc5ca5627d7f"}, {"bike_id": "bc1119fb6c3e1e52cf73dd007d6a0cc2", "type": "electric_scooter", "is_disabled": 0, "lat": 38.92446433333333, "rental_uris": {"ios": "https://dc.lft.to/lastmile_qr_scan", "android": "https://dc.lft.to/lastmile_qr_scan"}, "is_reserved": 0, "fusion_lon": 0.0, "fusion_lat": 0.0, "lon": -77.04397183333333, "name": "bc1119fb6c3e1e52cf73dd007d6a0cc2"}, {"bike_id": "934506b7cca117b6a2a0e59bda563982", "type": "electric_scooter", "is_disabled": 0, "lat": 38.92010116666667, "rental_uris": {"ios": "https://dc.lft.to/lastmile_qr_scan", "android": "https://dc.lft.to/lastmile_qr_scan"}, "is_reserved": 0, "fusion_lon": 0.0, "fusion_lat": 0.0, "lon": -77.0179345, "name": "934506b7cca117b6a2a0e59bda563982"}, {"bike_id": "9ffc93bce72a41b107ee26ab02cf4917", "type": "electric_scooter", "is_disabled": 0, "lat": 38.920912333333334, "rental_uris": {"ios": "https://dc.lft.to/lastmile_qr_scan", "android": "https://dc.lft.to/lastmile_qr_scan"}, "is_reserved": 0, "fusion_lon": 0.0, "fusion_lat": 0.0, "lon": -77.0044155, "name": "9ffc93bce72a41b107ee26ab02cf4917"}, {"bike_id": "9fff715b44fe60967196f6f1b03f6dfc", "type": "electric_scooter", "is_disabled": 0, "lat": 38.9008245, "rental_uris": {"ios": "https://dc.lft.to/lastmile_qr_scan", "android": "https://dc.lft.to/lastmile_qr_scan"}, "is_reserved": 0, "fusion_lon": 0.0, "fusion_lat": 0.0, "lon": -77.04757666666667, "name": "9fff715b44fe60967196f6f1b03f6dfc"}, {"bike_id": "2aabd90dc91781b3c3fd26171d3cdc40", "type": "electric_bike", "is_disabled": 0, "lat": 39.01368333333333, "rental_uris": {"ios": "https://dc.lft.to/lastmile_qr_scan", "android": "https://dc.lft.to/lastmile_qr_scan"}, "is_reserved": 0, "fusion_lon": 0.0, "fusion_lat": 0.0, "lon": -76.92133133333333, "name": "2aabd90dc91781b3c3fd26171d3cdc40"}, {"bike_id": "d5ea039515a0cfd21faaae96534cdfad", "type": "electric_scooter", "is_disabled": 0, "lat": 38.9168145, "rental_uris": {"ios": "https://dc.lft.to/lastmile_qr_scan", "android": "https://dc.lft.to/lastmile_qr_scan"}, "is_reserved": 0, "fusion_lon": 0.0, "fusion_lat": 0.0, "lon": -77.02949483333333, "name": "d5ea039515a0cfd21faaae96534cdfad"}, {"bike_id": "8a9e9b3fe4c8575de4a732843358bcde", "type": "electric_scooter", "is_disabled": 0, "lat": 38.918232333333336, "rental_uris": {"ios": "https://dc.lft.to/lastmile_qr_scan", "android": "https://dc.lft.to/lastmile_qr_scan"}, "is_reserved": 0, "fusion_lon": 0.0, "fusion_lat": 0.0, "lon": -77.031916, "name": "8a9e9b3fe4c8575de4a732843358bcde"}, {"bike_id": "d5088b6d4f964cc998ba0af1a071b05e", "type": "electric_scooter", "is_disabled": 0, "lat": 38.921196, "rental_uris": {"ios": "https://dc.lft.to/lastmile_qr_scan", "android": "https://dc.lft.to/lastmile_qr_scan"}, "is_reserved": 0, "fusion_lon": 0.0, "fusion_lat": 0.0, "lon": -77.0366215, "name": "d5088b6d4f964cc998ba0af1a071b05e"}, {"bike_id": "9c26b53f220bf023a6040ace15244024", "type": "electric_scooter", "is_disabled": 0, "lat": 38.91961366666666, "rental_uris": {"ios": "https://dc.lft.to/lastmile_qr_scan", "android": "https://dc.lft.to/lastmile_qr_scan"}, "is_reserved": 0, "fusion_lon": 0.0, "fusion_lat": 0.0, "lon": -77.0385025, "name": "9c26b53f220bf023a6040ace15244024"}, {"bike_id": "a327b3fb64463995c3b97cdf9f5b7240", "type": "electric_bike", "is_disabled": 0, "lat": 38.956389, "rental_uris": {"ios": "https://dc.lft.to/lastmile_qr_scan", "android": "https://dc.lft.to/lastmile_qr_scan"}, "is_reserved": 0, "fusion_lon": 0.0, "fusion_lat": 0.0, "lon": -76.99794533333333, "name": "a327b3fb64463995c3b97cdf9f5b7240"}, {"bike_id": "f6e7108ae33376405864f6372eb676a7", "type": "electric_scooter", "is_disabled": 0, "lat": 38.89625933333333, "rental_uris": {"ios": "https://dc.lft.to/lastmile_qr_scan", "android": "https://dc.lft.to/lastmile_qr_scan"}, "is_reserved": 0, "fusion_lon": 0.0, "fusion_lat": 0.0, "lon": -77.0329505, "name": "f6e7108ae33376405864f6372eb676a7"}, {"bike_id": "42ff4c9865b684832fad44ff5e1023f4", "type": "electric_scooter", "is_disabled": 0, "lat": 38.9205685, "rental_uris": {"ios": "https://dc.lft.to/lastmile_qr_scan", "android": "https://dc.lft.to/lastmile_qr_scan"}, "is_reserved": 0, "fusion_lon": 0.0, "fusion_lat": 0.0, "lon": -77.02375833333333, "name": "42ff4c9865b684832fad44ff5e1023f4"}, {"bike_id": "d16ee4f2f41980d7bd36573649e87a40", "type": "electric_scooter", "is_disabled": 0, "lat": 38.90839, "rental_uris": {"ios": "https://dc.lft.to/lastmile_qr_scan", "android": "https://dc.lft.to/lastmile_qr_scan"}, "is_reserved": 0, "fusion_lon": 0.0, "fusion_lat": 0.0, "lon": -77.04352633333333, "name": "d16ee4f2f41980d7bd36573649e87a40"}, {"bike_id": "08beec2a18116addc29ac8b467e55da7", "type": "electric_scooter", "is_disabled": 0, "lat": 38.862056, "rental_uris": {"ios": "https://dc.lft.to/lastmile_qr_scan", "android": "https://dc.lft.to/lastmile_qr_scan"}, "is_reserved": 0, "fusion_lon": 0.0, "fusion_lat": 0.0, "lon": -76.9946645, "name": "08beec2a18116addc29ac8b467e55da7"}, {"bike_id": "917509404ab873675fe7fb4fb386c948", "type": "electric_scooter", "is_disabled": 0, "lat": 38.9434045, "rental_uris": {"ios": "https://dc.lft.to/lastmile_qr_scan", "android": "https://dc.lft.to/lastmile_qr_scan"}, "is_reserved": 0, "fusion_lon": 0.0, "fusion_lat": 0.0, "lon": -77.06139416666667, "name": "917509404ab873675fe7fb4fb386c948"}, {"bike_id": "afb20980042586b7a0b9642b1d5b4fdf", "type": "electric_scooter", "is_disabled": 0, "lat": 38.92628533333333, "rental_uris": {"ios": "https://dc.lft.to/lastmile_qr_scan", "android": "https://dc.lft.to/lastmile_qr_scan"}, "is_reserved": 0, "fusion_lon": 0.0, "fusion_lat": 0.0, "lon": -77.02154466666667, "name": "afb20980042586b7a0b9642b1d5b4fdf"}, {"bike_id": "a37f9ae9e9e592388be3bdbffa2dc3a3", "type": "electric_scooter", "is_disabled": 0, "lat": 38.92786533333334, "rental_uris": {"ios": "https://dc.lft.to/lastmile_qr_scan", "android": "https://dc.lft.to/lastmile_qr_scan"}, "is_reserved": 0, "fusion_lon": 0.0, "fusion_lat": 0.0, "lon": -77.05260733333333, "name": "a37f9ae9e9e592388be3bdbffa2dc3a3"}, {"bike_id": "545a828db0d506cb593dd7375355e5bd", "type": "electric_bike", "is_disabled": 0, "lat": 38.829433333333334, "rental_uris": {"ios": "https://dc.lft.to/lastmile_qr_scan", "android": "https://dc.lft.to/lastmile_qr_scan"}, "is_reserved": 0, "fusion_lon": 0.0, "fusion_lat": 0.0, "lon": -77.123607, "name": "545a828db0d506cb593dd7375355e5bd"}, {"bike_id": "17f9438be4e43cbb46ad02b2d58cb952", "type": "electric_scooter", "is_disabled": 0, "lat": 38.9471485, "rental_uris": {"ios": "https://dc.lft.to/lastmile_qr_scan", "android": "https://dc.lft.to/lastmile_qr_scan"}, "is_reserved": 0, "fusion_lon": 0.0, "fusion_lat": 0.0, "lon": -77.027854, "name": "17f9438be4e43cbb46ad02b2d58cb952"}, {"bike_id": "ef4223efb94617b3b52dda5182602bc9", "type": "electric_scooter", "is_disabled": 0, "lat": 38.90805066666667, "rental_uris": {"ios": "https://dc.lft.to/lastmile_qr_scan", "android": "https://dc.lft.to/lastmile_qr_scan"}, "is_reserved": 0, "fusion_lon": 0.0, "fusion_lat": 0.0, "lon": -77.0347915, "name": "ef4223efb94617b3b52dda5182602bc9"}, {"bike_id": "0977b50d34eb946ef78a23513237128c", "type": "electric_scooter", "is_disabled": 0, "lat": 38.913326, "rental_uris": {"ios": "https://dc.lft.to/lastmile_qr_scan", "android": "https://dc.lft.to/lastmile_qr_scan"}, "is_reserved": 0, "fusion_lon": 0.0, "fusion_lat": 0.0, "lon": -77.0317935, "name": "0977b50d34eb946ef78a23513237128c"}, {"bike_id": "bee5ca289c93029df713f030bd00ecb2", "type": "electric_scooter", "is_disabled": 0, "lat": 38.86673066666667, "rental_uris": {"ios": "https://dc.lft.to/lastmile_qr_scan", "android": "https://dc.lft.to/lastmile_qr_scan"}, "is_reserved": 0, "fusion_lon": 0.0, "fusion_lat": 0.0, "lon": -76.985302, "name": "bee5ca289c93029df713f030bd00ecb2"}, {"bike_id": "c1e5f8486e6b758c44dee325a90cd320", "type": "electric_scooter", "is_disabled": 0, "lat": 38.923648666666665, "rental_uris": {"ios": "https://dc.lft.to/lastmile_qr_scan", "android": "https://dc.lft.to/lastmile_qr_scan"}, "is_reserved": 0, "fusion_lon": 0.0, "fusion_lat": 0.0, "lon": -77.051308, "name": "c1e5f8486e6b758c44dee325a90cd320"}, {"bike_id": "b48136ab42cd8ec54d22e96bd5476584", "type": "electric_bike", "is_disabled": 0, "lat": 38.892894166666665, "rental_uris": {"ios": "https://dc.lft.to/lastmile_qr_scan", "android": "https://dc.lft.to/lastmile_qr_scan"}, "is_reserved": 0, "fusion_lon": 0.0, "fusion_lat": 0.0, "lon": -76.97617883333334, "name": "b48136ab42cd8ec54d22e96bd5476584"}, {"bike_id": "ea42408c0ed276cb502cc22882e09dab", "type": "electric_scooter", "is_disabled": 0, "lat": 38.9392755, "rental_uris": {"ios": "https://dc.lft.to/lastmile_qr_scan", "android": "https://dc.lft.to/lastmile_qr_scan"}, "is_reserved": 0, "fusion_lon": 0.0, "fusion_lat": 0.0, "lon": -77.03679533333333, "name": "ea42408c0ed276cb502cc22882e09dab"}, {"bike_id": "dd18524c210f78e21dca44321d74de17", "type": "electric_scooter", "is_disabled": 0, "lat": 38.8826555, "rental_uris": {"ios": "https://dc.lft.to/lastmile_qr_scan", "android": "https://dc.lft.to/lastmile_qr_scan"}, "is_reserved": 0, "fusion_lon": 0.0, "fusion_lat": 0.0, "lon": -76.99505133333334, "name": "dd18524c210f78e21dca44321d74de17"}, {"bike_id": "e6c05303fa3946b7529c95552a10d21c", "type": "electric_scooter", "is_disabled": 0, "lat": 38.918269, "rental_uris": {"ios": "https://dc.lft.to/lastmile_qr_scan", "android": "https://dc.lft.to/lastmile_qr_scan"}, "is_reserved": 0, "fusion_lon": 0.0, "fusion_lat": 0.0, "lon": -77.04557033333333, "name": "e6c05303fa3946b7529c95552a10d21c"}, {"bike_id": "87739d98198b0f234fe969b913dded31", "type": "electric_scooter", "is_disabled": 0, "lat": 38.920389166666666, "rental_uris": {"ios": "https://dc.lft.to/lastmile_qr_scan", "android": "https://dc.lft.to/lastmile_qr_scan"}, "is_reserved": 0, "fusion_lon": 0.0, "fusion_lat": 0.0, "lon": -77.031104, "name": "87739d98198b0f234fe969b913dded31"}, {"bike_id": "b0b2c5c9e9a472b2639f19c52caab546", "type": "electric_scooter", "is_disabled": 0, "lat": 38.92778916666666, "rental_uris": {"ios": "https://dc.lft.to/lastmile_qr_scan", "android": "https://dc.lft.to/lastmile_qr_scan"}, "is_reserved": 0, "fusion_lon": 0.0, "fusion_lat": 0.0, "lon": -77.05405566666667, "name": "b0b2c5c9e9a472b2639f19c52caab546"}, {"bike_id": "0465801c8ee7079bc46564ceb90ecf1a", "type": "electric_scooter", "is_disabled": 0, "lat": 38.907214333333336, "rental_uris": {"ios": "https://dc.lft.to/lastmile_qr_scan", "android": "https://dc.lft.to/lastmile_qr_scan"}, "is_reserved": 0, "fusion_lon": 0.0, "fusion_lat": 0.0, "lon": -77.00970966666667, "name": "0465801c8ee7079bc46564ceb90ecf1a"}, {"bike_id": "cf5e220b0f02bc0fbbbbc406b646f4dd", "type": "electric_scooter", "is_disabled": 0, "lat": 38.902356833333336, "rental_uris": {"ios": "https://dc.lft.to/lastmile_qr_scan", "android": "https://dc.lft.to/lastmile_qr_scan"}, "is_reserved": 0, "fusion_lon": 0.0, "fusion_lat": 0.0, "lon": -76.97413083333333, "name": "cf5e220b0f02bc0fbbbbc406b646f4dd"}, {"bike_id": "5eecc345cd263195f6187ff6934e8e0b", "type": "electric_scooter", "is_disabled": 0, "lat": 38.90732233333333, "rental_uris": {"ios": "https://dc.lft.to/lastmile_qr_scan", "android": "https://dc.lft.to/lastmile_qr_scan"}, "is_reserved": 0, "fusion_lon": 0.0, "fusion_lat": 0.0, "lon": -77.06335483333334, "name": "5eecc345cd263195f6187ff6934e8e0b"}, {"bike_id": "827c3b2c79824ee4b59046fb43d71260", "type": "electric_scooter", "is_disabled": 0, "lat": 38.914870666666665, "rental_uris": {"ios": "https://dc.lft.to/lastmile_qr_scan", "android": "https://dc.lft.to/lastmile_qr_scan"}, "is_reserved": 0, "fusion_lon": 0.0, "fusion_lat": 0.0, "lon": -76.98575183333334, "name": "827c3b2c79824ee4b59046fb43d71260"}, {"bike_id": "b1fec8ffb4fcd546209294f57fd11f0a", "type": "electric_scooter", "is_disabled": 0, "lat": 38.90032883333333, "rental_uris": {"ios": "https://dc.lft.to/lastmile_qr_scan", "android": "https://dc.lft.to/lastmile_qr_scan"}, "is_reserved": 0, "fusion_lon": 0.0, "fusion_lat": 0.0, "lon": -76.9806315, "name": "b1fec8ffb4fcd546209294f57fd11f0a"}, {"bike_id": "408769701563fec4fa4915de3fc58b65", "type": "electric_scooter", "is_disabled": 0, "lat": 38.92598183333333, "rental_uris": {"ios": "https://dc.lft.to/lastmile_qr_scan", "android": "https://dc.lft.to/lastmile_qr_scan"}, "is_reserved": 0, "fusion_lon": 0.0, "fusion_lat": 0.0, "lon": -77.0083365, "name": "408769701563fec4fa4915de3fc58b65"}, {"bike_id": "6474d2020c592738290dcdb1a737348d", "type": "electric_scooter", "is_disabled": 0, "lat": 38.91936883333333, "rental_uris": {"ios": "https://dc.lft.to/lastmile_qr_scan", "android": "https://dc.lft.to/lastmile_qr_scan"}, "is_reserved": 0, "fusion_lon": 0.0, "fusion_lat": 0.0, "lon": -77.0248785, "name": "6474d2020c592738290dcdb1a737348d"}, {"bike_id": "511f91597d7c52b17fe8a66cd9ef77a2", "type": "electric_scooter", "is_disabled": 0, "lat": 38.90946066666667, "rental_uris": {"ios": "https://dc.lft.to/lastmile_qr_scan", "android": "https://dc.lft.to/lastmile_qr_scan"}, "is_reserved": 0, "fusion_lon": 0.0, "fusion_lat": 0.0, "lon": -77.04037683333334, "name": "511f91597d7c52b17fe8a66cd9ef77a2"}, {"bike_id": "c09dcd753f537ac68f480440d884e58c", "type": "electric_scooter", "is_disabled": 0, "lat": 38.920439, "rental_uris": {"ios": "https://dc.lft.to/lastmile_qr_scan", "android": "https://dc.lft.to/lastmile_qr_scan"}, "is_reserved": 0, "fusion_lon": 0.0, "fusion_lat": 0.0, "lon": -77.0345015, "name": "c09dcd753f537ac68f480440d884e58c"}, {"bike_id": "3b7f6906039eaf91f7aec83371b87d53", "type": "electric_scooter", "is_disabled": 0, "lat": 38.931827, "rental_uris": {"ios": "https://dc.lft.to/lastmile_qr_scan", "android": "https://dc.lft.to/lastmile_qr_scan"}, "is_reserved": 0, "fusion_lon": 0.0, "fusion_lat": 0.0, "lon": -77.04302466666667, "name": "3b7f6906039eaf91f7aec83371b87d53"}, {"bike_id": "1ca4c403721348682a4e400dc14b6055", "type": "electric_scooter", "is_disabled": 0, "lat": 38.844379833333335, "rental_uris": {"ios": "https://dc.lft.to/lastmile_qr_scan", "android": "https://dc.lft.to/lastmile_qr_scan"}, "is_reserved": 0, "fusion_lon": 0.0, "fusion_lat": 0.0, "lon": -76.99781216666666, "name": "1ca4c403721348682a4e400dc14b6055"}, {"bike_id": "945d3df7c511191fd136fc30bb5625a2", "type": "electric_scooter", "is_disabled": 0, "lat": 38.902750833333336, "rental_uris": {"ios": "https://dc.lft.to/lastmile_qr_scan", "android": "https://dc.lft.to/lastmile_qr_scan"}, "is_reserved": 0, "fusion_lon": 0.0, "fusion_lat": 0.0, "lon": -77.01902866666667, "name": "945d3df7c511191fd136fc30bb5625a2"}, {"bike_id": "ae06e16e2eb9e9ecce97dc6a6a7b081b", "type": "electric_scooter", "is_disabled": 0, "lat": 38.88616733333333, "rental_uris": {"ios": "https://dc.lft.to/lastmile_qr_scan", "android": "https://dc.lft.to/lastmile_qr_scan"}, "is_reserved": 0, "fusion_lon": 0.0, "fusion_lat": 0.0, "lon": -77.0283845, "name": "ae06e16e2eb9e9ecce97dc6a6a7b081b"}, {"bike_id": "294d9c4782b9621baf1d7e5d3e1ceb10", "type": "electric_scooter", "is_disabled": 0, "lat": 38.92076083333333, "rental_uris": {"ios": "https://dc.lft.to/lastmile_qr_scan", "android": "https://dc.lft.to/lastmile_qr_scan"}, "is_reserved": 0, "fusion_lon": 0.0, "fusion_lat": 0.0, "lon": -77.00451916666667, "name": "294d9c4782b9621baf1d7e5d3e1ceb10"}, {"bike_id": "f40fc6a20c0a81793a3b6d116acb37d1", "type": "electric_scooter", "is_disabled": 0, "lat": 38.90588616666667, "rental_uris": {"ios": "https://dc.lft.to/lastmile_qr_scan", "android": "https://dc.lft.to/lastmile_qr_scan"}, "is_reserved": 0, "fusion_lon": 0.0, "fusion_lat": 0.0, "lon": -77.06803033333334, "name": "f40fc6a20c0a81793a3b6d116acb37d1"}, {"bike_id": "bd1f7ce777c686ab5a4c02ce82856756", "type": "electric_scooter", "is_disabled": 0, "lat": 38.919144333333335, "rental_uris": {"ios": "https://dc.lft.to/lastmile_qr_scan", "android": "https://dc.lft.to/lastmile_qr_scan"}, "is_reserved": 0, "fusion_lon": 0.0, "fusion_lat": 0.0, "lon": -77.03333133333334, "name": "bd1f7ce777c686ab5a4c02ce82856756"}, {"bike_id": "021fe455a1904b3f06c1713bf6102c2f", "type": "electric_scooter", "is_disabled": 0, "lat": 38.892313, "rental_uris": {"ios": "https://dc.lft.to/lastmile_qr_scan", "android": "https://dc.lft.to/lastmile_qr_scan"}, "is_reserved": 0, "fusion_lon": 0.0, "fusion_lat": 0.0, "lon": -77.02385316666667, "name": "021fe455a1904b3f06c1713bf6102c2f"}, {"bike_id": "015413a18981ce6a81edbd5d8ce5e770", "type": "electric_scooter", "is_disabled": 0, "lat": 38.922288, "rental_uris": {"ios": "https://dc.lft.to/lastmile_qr_scan", "android": "https://dc.lft.to/lastmile_qr_scan"}, "is_reserved": 0, "fusion_lon": 0.0, "fusion_lat": 0.0, "lon": -77.0470725, "name": "015413a18981ce6a81edbd5d8ce5e770"}, {"bike_id": "584ea4933a3eb821217f5cdf6ea3e9a9", "type": "electric_bike", "is_disabled": 0, "lat": 38.83609883333333, "rental_uris": {"ios": "https://dc.lft.to/lastmile_qr_scan", "android": "https://dc.lft.to/lastmile_qr_scan"}, "is_reserved": 0, "fusion_lon": 0.0, "fusion_lat": 0.0, "lon": -77.00376516666667, "name": "584ea4933a3eb821217f5cdf6ea3e9a9"}, {"bike_id": "c745e454d1810a91812dbe6c19435d1b", "type": "electric_bike", "is_disabled": 0, "lat": 38.859351833333335, "rental_uris": {"ios": "https://dc.lft.to/lastmile_qr_scan", "android": "https://dc.lft.to/lastmile_qr_scan"}, "is_reserved": 0, "fusion_lon": 0.0, "fusion_lat": 0.0, "lon": -77.11827533333333, "name": "c745e454d1810a91812dbe6c19435d1b"}, {"bike_id": "58dd68decc6047e363e91db81808f9a7", "type": "electric_bike", "is_disabled": 0, "lat": 38.82366316666667, "rental_uris": {"ios": "https://dc.lft.to/lastmile_qr_scan", "android": "https://dc.lft.to/lastmile_qr_scan"}, "is_reserved": 0, "fusion_lon": 0.0, "fusion_lat": 0.0, "lon": -77.0021815, "name": "58dd68decc6047e363e91db81808f9a7"}, {"bike_id": "940abb9967c8b8cb499d0ebeaadd6eb8", "type": "electric_bike", "is_disabled": 0, "lat": 38.89810716666667, "rental_uris": {"ios": "https://dc.lft.to/lastmile_qr_scan", "android": "https://dc.lft.to/lastmile_qr_scan"}, "is_reserved": 0, "fusion_lon": 0.0, "fusion_lat": 0.0, "lon": -76.99068833333334, "name": "940abb9967c8b8cb499d0ebeaadd6eb8"}, {"bike_id": "fd40f84c56f99f6770963b45c7c195bf", "type": "electric_scooter", "is_disabled": 0, "lat": 38.906889166666666, "rental_uris": {"ios": "https://dc.lft.to/lastmile_qr_scan", "android": "https://dc.lft.to/lastmile_qr_scan"}, "is_reserved": 0, "fusion_lon": 0.0, "fusion_lat": 0.0, "lon": -77.06260783333333, "name": "fd40f84c56f99f6770963b45c7c195bf"}, {"bike_id": "449db661b66e2eb84296afc153faf29a", "type": "electric_scooter", "is_disabled": 0, "lat": 38.9131845, "rental_uris": {"ios": "https://dc.lft.to/lastmile_qr_scan", "android": "https://dc.lft.to/lastmile_qr_scan"}, "is_reserved": 0, "fusion_lon": 0.0, "fusion_lat": 0.0, "lon": -77.03240616666666, "name": "449db661b66e2eb84296afc153faf29a"}, {"bike_id": "981e2ddb480642492457fb7266102ec7", "type": "electric_bike", "is_disabled": 0, "lat": 38.932263166666665, "rental_uris": {"ios": "https://dc.lft.to/lastmile_qr_scan", "android": "https://dc.lft.to/lastmile_qr_scan"}, "is_reserved": 0, "fusion_lon": 0.0, "fusion_lat": 0.0, "lon": -77.181195, "name": "981e2ddb480642492457fb7266102ec7"}, {"bike_id": "a12129c9fedfca0a771a877400ae7bd7", "type": "electric_scooter", "is_disabled": 0, "lat": 38.929491166666665, "rental_uris": {"ios": "https://dc.lft.to/lastmile_qr_scan", "android": "https://dc.lft.to/lastmile_qr_scan"}, "is_reserved": 0, "fusion_lon": 0.0, "fusion_lat": 0.0, "lon": -77.04404733333334, "name": "a12129c9fedfca0a771a877400ae7bd7"}, {"bike_id": "675afd526d78bba436ec4a989df3814b", "type": "electric_bike", "is_disabled": 0, "lat": 38.934453166666664, "rental_uris": {"ios": "https://dc.lft.to/lastmile_qr_scan", "android": "https://dc.lft.to/lastmile_qr_scan"}, "is_reserved": 0, "fusion_lon": 0.0, "fusion_lat": 0.0, "lon": -77.04128433333334, "name": "675afd526d78bba436ec4a989df3814b"}, {"bike_id": "2003975dcace156622811474aeefe419", "type": "electric_scooter", "is_disabled": 0, "lat": 38.924616666666665, "rental_uris": {"ios": "https://dc.lft.to/lastmile_qr_scan", "android": "https://dc.lft.to/lastmile_qr_scan"}, "is_reserved": 0, "fusion_lon": 0.0, "fusion_lat": 0.0, "lon": -77.037817, "name": "2003975dcace156622811474aeefe419"}, {"bike_id": "c3b34ccc5dc331c80254362ef5e24132", "type": "electric_scooter", "is_disabled": 0, "lat": 38.934536, "rental_uris": {"ios": "https://dc.lft.to/lastmile_qr_scan", "android": "https://dc.lft.to/lastmile_qr_scan"}, "is_reserved": 0, "fusion_lon": 0.0, "fusion_lat": 0.0, "lon": -77.02792433333333, "name": "c3b34ccc5dc331c80254362ef5e24132"}, {"bike_id": "0bde70f85bcf6ac06e54353eac5aa2bf", "type": "electric_scooter", "is_disabled": 0, "lat": 38.931919, "rental_uris": {"ios": "https://dc.lft.to/lastmile_qr_scan", "android": "https://dc.lft.to/lastmile_qr_scan"}, "is_reserved": 0, "fusion_lon": 0.0, "fusion_lat": 0.0, "lon": -77.023912, "name": "0bde70f85bcf6ac06e54353eac5aa2bf"}, {"bike_id": "bb13dc93d5a1dbbcd87d10c2bfb03e01", "type": "electric_scooter", "is_disabled": 0, "lat": 38.900174666666665, "rental_uris": {"ios": "https://dc.lft.to/lastmile_qr_scan", "android": "https://dc.lft.to/lastmile_qr_scan"}, "is_reserved": 0, "fusion_lon": 0.0, "fusion_lat": 0.0, "lon": -76.99863666666667, "name": "bb13dc93d5a1dbbcd87d10c2bfb03e01"}, {"bike_id": "23080580f35d0fe138ca4cd6c90f0b84", "type": "electric_scooter", "is_disabled": 0, "lat": 38.935566, "rental_uris": {"ios": "https://dc.lft.to/lastmile_qr_scan", "android": "https://dc.lft.to/lastmile_qr_scan"}, "is_reserved": 0, "fusion_lon": 0.0, "fusion_lat": 0.0, "lon": -77.03684633333333, "name": "23080580f35d0fe138ca4cd6c90f0b84"}, {"bike_id": "ed85ef36af9b18b5ec1d400ae0e7cbbb", "type": "electric_scooter", "is_disabled": 0, "lat": 38.922511666666665, "rental_uris": {"ios": "https://dc.lft.to/lastmile_qr_scan", "android": "https://dc.lft.to/lastmile_qr_scan"}, "is_reserved": 0, "fusion_lon": 0.0, "fusion_lat": 0.0, "lon": -77.0420105, "name": "ed85ef36af9b18b5ec1d400ae0e7cbbb"}, {"bike_id": "e7f9ffccd6d2cea466af3f31feefaf8f", "type": "electric_scooter", "is_disabled": 0, "lat": 38.93409666666667, "rental_uris": {"ios": "https://dc.lft.to/lastmile_qr_scan", "android": "https://dc.lft.to/lastmile_qr_scan"}, "is_reserved": 0, "fusion_lon": 0.0, "fusion_lat": 0.0, "lon": -77.041473, "name": "e7f9ffccd6d2cea466af3f31feefaf8f"}, {"bike_id": "feacb400f6e2b56c1b4f3234870dd6e3", "type": "electric_scooter", "is_disabled": 0, "lat": 38.9182045, "rental_uris": {"ios": "https://dc.lft.to/lastmile_qr_scan", "android": "https://dc.lft.to/lastmile_qr_scan"}, "is_reserved": 0, "fusion_lon": 0.0, "fusion_lat": 0.0, "lon": -77.03193616666667, "name": "feacb400f6e2b56c1b4f3234870dd6e3"}, {"bike_id": "475ecf4d6db63c815161ebcfa8600c00", "type": "electric_bike", "is_disabled": 0, "lat": 38.882464666666664, "rental_uris": {"ios": "https://dc.lft.to/lastmile_qr_scan", "android": "https://dc.lft.to/lastmile_qr_scan"}, "is_reserved": 0, "fusion_lon": 0.0, "fusion_lat": 0.0, "lon": -76.96256466666667, "name": "475ecf4d6db63c815161ebcfa8600c00"}, {"bike_id": "dd9d818219ae9de6995159f53479bb4f", "type": "electric_scooter", "is_disabled": 0, "lat": 38.9322265, "rental_uris": {"ios": "https://dc.lft.to/lastmile_qr_scan", "android": "https://dc.lft.to/lastmile_qr_scan"}, "is_reserved": 0, "fusion_lon": 0.0, "fusion_lat": 0.0, "lon": -77.0335765, "name": "dd9d818219ae9de6995159f53479bb4f"}, {"bike_id": "9d1d9d7ffff724adb0e0d58cd679d0df", "type": "electric_scooter", "is_disabled": 0, "lat": 38.904671666666665, "rental_uris": {"ios": "https://dc.lft.to/lastmile_qr_scan", "android": "https://dc.lft.to/lastmile_qr_scan"}, "is_reserved": 0, "fusion_lon": 0.0, "fusion_lat": 0.0, "lon": -76.97607616666667, "name": "9d1d9d7ffff724adb0e0d58cd679d0df"}, {"bike_id": "ea08407f41ae0360dcb46a73fe764db5", "type": "electric_scooter", "is_disabled": 0, "lat": 38.924824666666666, "rental_uris": {"ios": "https://dc.lft.to/lastmile_qr_scan", "android": "https://dc.lft.to/lastmile_qr_scan"}, "is_reserved": 0, "fusion_lon": 0.0, "fusion_lat": 0.0, "lon": -77.02193483333333, "name": "ea08407f41ae0360dcb46a73fe764db5"}, {"bike_id": "f4f25aa5af0ed03999a2930f4b86e426", "type": "electric_scooter", "is_disabled": 0, "lat": 38.93063383333333, "rental_uris": {"ios": "https://dc.lft.to/lastmile_qr_scan", "android": "https://dc.lft.to/lastmile_qr_scan"}, "is_reserved": 0, "fusion_lon": 0.0, "fusion_lat": 0.0, "lon": -77.03197633333333, "name": "f4f25aa5af0ed03999a2930f4b86e426"}, {"bike_id": "2ded446e007cfed7f410d20046a6da62", "type": "electric_scooter", "is_disabled": 0, "lat": 38.93536266666667, "rental_uris": {"ios": "https://dc.lft.to/lastmile_qr_scan", "android": "https://dc.lft.to/lastmile_qr_scan"}, "is_reserved": 0, "fusion_lon": 0.0, "fusion_lat": 0.0, "lon": -77.02354816666667, "name": "2ded446e007cfed7f410d20046a6da62"}, {"bike_id": "35e3463679a0b7414148c1ea506e9b0f", "type": "electric_bike", "is_disabled": 0, "lat": 38.978782333333335, "rental_uris": {"ios": "https://dc.lft.to/lastmile_qr_scan", "android": "https://dc.lft.to/lastmile_qr_scan"}, "is_reserved": 0, "fusion_lon": 0.0, "fusion_lat": 0.0, "lon": -77.06026333333334, "name": "35e3463679a0b7414148c1ea506e9b0f"}, {"bike_id": "6b213c84ffa11cd99fa22bb62c676288", "type": "electric_scooter", "is_disabled": 0, "lat": 38.91621333333333, "rental_uris": {"ios": "https://dc.lft.to/lastmile_qr_scan", "android": "https://dc.lft.to/lastmile_qr_scan"}, "is_reserved": 0, "fusion_lon": 0.0, "fusion_lat": 0.0, "lon": -77.0452455, "name": "6b213c84ffa11cd99fa22bb62c676288"}, {"bike_id": "7a3ee366187dd10954ad91e1aa131b76", "type": "electric_scooter", "is_disabled": 0, "lat": 38.91475716666667, "rental_uris": {"ios": "https://dc.lft.to/lastmile_qr_scan", "android": "https://dc.lft.to/lastmile_qr_scan"}, "is_reserved": 0, "fusion_lon": 0.0, "fusion_lat": 0.0, "lon": -77.00914, "name": "7a3ee366187dd10954ad91e1aa131b76"}, {"bike_id": "fda12a62ddd7bf9dc0286f195dbce878", "type": "electric_scooter", "is_disabled": 0, "lat": 38.944923333333335, "rental_uris": {"ios": "https://dc.lft.to/lastmile_qr_scan", "android": "https://dc.lft.to/lastmile_qr_scan"}, "is_reserved": 0, "fusion_lon": 0.0, "fusion_lat": 0.0, "lon": -77.02620416666667, "name": "fda12a62ddd7bf9dc0286f195dbce878"}, {"bike_id": "1411e262b96128e31341097ea2a45698", "type": "electric_scooter", "is_disabled": 0, "lat": 38.9163455, "rental_uris": {"ios": "https://dc.lft.to/lastmile_qr_scan", "android": "https://dc.lft.to/lastmile_qr_scan"}, "is_reserved": 0, "fusion_lon": 0.0, "fusion_lat": 0.0, "lon": -77.03725316666667, "name": "1411e262b96128e31341097ea2a45698"}, {"bike_id": "7b6234d8bd2b82eb27840792e0da3a22", "type": "electric_scooter", "is_disabled": 0, "lat": 38.905002, "rental_uris": {"ios": "https://dc.lft.to/lastmile_qr_scan", "android": "https://dc.lft.to/lastmile_qr_scan"}, "is_reserved": 0, "fusion_lon": 0.0, "fusion_lat": 0.0, "lon": -77.06115083333333, "name": "7b6234d8bd2b82eb27840792e0da3a22"}, {"bike_id": "8ed131839464dd3093986d5664b7c835", "type": "electric_scooter", "is_disabled": 0, "lat": 38.91558466666667, "rental_uris": {"ios": "https://dc.lft.to/lastmile_qr_scan", "android": "https://dc.lft.to/lastmile_qr_scan"}, "is_reserved": 0, "fusion_lon": 0.0, "fusion_lat": 0.0, "lon": -77.03868216666666, "name": "8ed131839464dd3093986d5664b7c835"}, {"bike_id": "69ed2cb7dca1a1dc000e1936de232bb8", "type": "electric_scooter", "is_disabled": 0, "lat": 38.90260633333333, "rental_uris": {"ios": "https://dc.lft.to/lastmile_qr_scan", "android": "https://dc.lft.to/lastmile_qr_scan"}, "is_reserved": 0, "fusion_lon": 0.0, "fusion_lat": 0.0, "lon": -77.00330783333334, "name": "69ed2cb7dca1a1dc000e1936de232bb8"}, {"bike_id": "d6806257686a49e2bac0cb8aea032ea5", "type": "electric_scooter", "is_disabled": 0, "lat": 38.942126333333334, "rental_uris": {"ios": "https://dc.lft.to/lastmile_qr_scan", "android": "https://dc.lft.to/lastmile_qr_scan"}, "is_reserved": 0, "fusion_lon": 0.0, "fusion_lat": 0.0, "lon": -77.02589616666667, "name": "d6806257686a49e2bac0cb8aea032ea5"}, {"bike_id": "06585cd66579b272ed43db8af4d67d71", "type": "electric_scooter", "is_disabled": 0, "lat": 38.90645716666667, "rental_uris": {"ios": "https://dc.lft.to/lastmile_qr_scan", "android": "https://dc.lft.to/lastmile_qr_scan"}, "is_reserved": 0, "fusion_lon": 0.0, "fusion_lat": 0.0, "lon": -77.01431266666667, "name": "06585cd66579b272ed43db8af4d67d71"}, {"bike_id": "67f59a8f43ec8c09b42b473fb099b5b8", "type": "electric_scooter", "is_disabled": 0, "lat": 38.902176833333336, "rental_uris": {"ios": "https://dc.lft.to/lastmile_qr_scan", "android": "https://dc.lft.to/lastmile_qr_scan"}, "is_reserved": 0, "fusion_lon": 0.0, "fusion_lat": 0.0, "lon": -77.02218133333334, "name": "67f59a8f43ec8c09b42b473fb099b5b8"}, {"bike_id": "b2a830175b3c65c4b1b1a361ae758a24", "type": "electric_scooter", "is_disabled": 0, "lat": 38.93633033333333, "rental_uris": {"ios": "https://dc.lft.to/lastmile_qr_scan", "android": "https://dc.lft.to/lastmile_qr_scan"}, "is_reserved": 0, "fusion_lon": 0.0, "fusion_lat": 0.0, "lon": -77.05881183333334, "name": "b2a830175b3c65c4b1b1a361ae758a24"}, {"bike_id": "cef92c235bf89e1ce04518c7ab54a713", "type": "electric_scooter", "is_disabled": 0, "lat": 38.9107225, "rental_uris": {"ios": "https://dc.lft.to/lastmile_qr_scan", "android": "https://dc.lft.to/lastmile_qr_scan"}, "is_reserved": 0, "fusion_lon": 0.0, "fusion_lat": 0.0, "lon": -77.0372365, "name": "cef92c235bf89e1ce04518c7ab54a713"}, {"bike_id": "18bd5cea41d93aaaf84099a23d6d5213", "type": "electric_scooter", "is_disabled": 0, "lat": 38.90562516666667, "rental_uris": {"ios": "https://dc.lft.to/lastmile_qr_scan", "android": "https://dc.lft.to/lastmile_qr_scan"}, "is_reserved": 0, "fusion_lon": 0.0, "fusion_lat": 0.0, "lon": -77.02495716666667, "name": "18bd5cea41d93aaaf84099a23d6d5213"}, {"bike_id": "7d15e51e86eaaca12c9a91a9d39ff462", "type": "electric_scooter", "is_disabled": 0, "lat": 38.900039166666666, "rental_uris": {"ios": "https://dc.lft.to/lastmile_qr_scan", "android": "https://dc.lft.to/lastmile_qr_scan"}, "is_reserved": 0, "fusion_lon": 0.0, "fusion_lat": 0.0, "lon": -77.053363, "name": "7d15e51e86eaaca12c9a91a9d39ff462"}, {"bike_id": "a2d9f2b891a91e8d0823414e0883f0e8", "type": "electric_scooter", "is_disabled": 0, "lat": 38.925202666666664, "rental_uris": {"ios": "https://dc.lft.to/lastmile_qr_scan", "android": "https://dc.lft.to/lastmile_qr_scan"}, "is_reserved": 0, "fusion_lon": 0.0, "fusion_lat": 0.0, "lon": -77.07717133333334, "name": "a2d9f2b891a91e8d0823414e0883f0e8"}, {"bike_id": "6cd4bc591c5bfae9b654447ea7714a2b", "type": "electric_scooter", "is_disabled": 0, "lat": 38.9095365, "rental_uris": {"ios": "https://dc.lft.to/lastmile_qr_scan", "android": "https://dc.lft.to/lastmile_qr_scan"}, "is_reserved": 0, "fusion_lon": 0.0, "fusion_lat": 0.0, "lon": -77.0231015, "name": "6cd4bc591c5bfae9b654447ea7714a2b"}, {"bike_id": "6034bb2b6bbddb0f99321bb9a9e017e5", "type": "electric_scooter", "is_disabled": 0, "lat": 38.927522833333335, "rental_uris": {"ios": "https://dc.lft.to/lastmile_qr_scan", "android": "https://dc.lft.to/lastmile_qr_scan"}, "is_reserved": 0, "fusion_lon": 0.0, "fusion_lat": 0.0, "lon": -77.03271616666666, "name": "6034bb2b6bbddb0f99321bb9a9e017e5"}, {"bike_id": "475e4803aa5656eae1fbe7e39f8e352d", "type": "electric_scooter", "is_disabled": 0, "lat": 38.92068316666666, "rental_uris": {"ios": "https://dc.lft.to/lastmile_qr_scan", "android": "https://dc.lft.to/lastmile_qr_scan"}, "is_reserved": 0, "fusion_lon": 0.0, "fusion_lat": 0.0, "lon": -77.02507716666666, "name": "475e4803aa5656eae1fbe7e39f8e352d"}, {"bike_id": "b9a306e71ddd938e96ed072fca2fe47c", "type": "electric_scooter", "is_disabled": 0, "lat": 38.8973005, "rental_uris": {"ios": "https://dc.lft.to/lastmile_qr_scan", "android": "https://dc.lft.to/lastmile_qr_scan"}, "is_reserved": 0, "fusion_lon": 0.0, "fusion_lat": 0.0, "lon": -77.0036945, "name": "b9a306e71ddd938e96ed072fca2fe47c"}, {"bike_id": "df8ea106d7feb5ab94f0e116219c8293", "type": "electric_bike", "is_disabled": 0, "lat": 38.990899666666664, "rental_uris": {"ios": "https://dc.lft.to/lastmile_qr_scan", "android": "https://dc.lft.to/lastmile_qr_scan"}, "is_reserved": 0, "fusion_lon": 0.0, "fusion_lat": 0.0, "lon": -76.87496, "name": "df8ea106d7feb5ab94f0e116219c8293"}, {"bike_id": "5f2e03c5711dba8b28341ea6a77fea6b", "type": "electric_scooter", "is_disabled": 0, "lat": 38.8431535, "rental_uris": {"ios": "https://dc.lft.to/lastmile_qr_scan", "android": "https://dc.lft.to/lastmile_qr_scan"}, "is_reserved": 0, "fusion_lon": 0.0, "fusion_lat": 0.0, "lon": -76.99926616666667, "name": "5f2e03c5711dba8b28341ea6a77fea6b"}, {"bike_id": "8df995510ca4c4430fcfd1e7aa9aed35", "type": "electric_scooter", "is_disabled": 0, "lat": 38.90505733333333, "rental_uris": {"ios": "https://dc.lft.to/lastmile_qr_scan", "android": "https://dc.lft.to/lastmile_qr_scan"}, "is_reserved": 0, "fusion_lon": 0.0, "fusion_lat": 0.0, "lon": -77.06015583333334, "name": "8df995510ca4c4430fcfd1e7aa9aed35"}, {"bike_id": "5f5aa2fa053db21a3c093b2a9ff6bba2", "type": "electric_scooter", "is_disabled": 0, "lat": 38.894914666666665, "rental_uris": {"ios": "https://dc.lft.to/lastmile_qr_scan", "android": "https://dc.lft.to/lastmile_qr_scan"}, "is_reserved": 0, "fusion_lon": 0.0, "fusion_lat": 0.0, "lon": -76.98838883333333, "name": "5f5aa2fa053db21a3c093b2a9ff6bba2"}, {"bike_id": "4ee2ec7dc1f5d8a856d2985553daedb4", "type": "electric_bike", "is_disabled": 0, "lat": 38.8651145, "rental_uris": {"ios": "https://dc.lft.to/lastmile_qr_scan", "android": "https://dc.lft.to/lastmile_qr_scan"}, "is_reserved": 0, "fusion_lon": 0.0, "fusion_lat": 0.0, "lon": -76.97333333333333, "name": "4ee2ec7dc1f5d8a856d2985553daedb4"}, {"bike_id": "f92a7e186c89f75e74dd8781d1ec91c5", "type": "electric_scooter", "is_disabled": 0, "lat": 38.896153, "rental_uris": {"ios": "https://dc.lft.to/lastmile_qr_scan", "android": "https://dc.lft.to/lastmile_qr_scan"}, "is_reserved": 0, "fusion_lon": 0.0, "fusion_lat": 0.0, "lon": -77.02683233333333, "name": "f92a7e186c89f75e74dd8781d1ec91c5"}, {"bike_id": "0f14a0bb400f4a9ea345085f2c235228", "type": "electric_scooter", "is_disabled": 0, "lat": 38.8888005, "rental_uris": {"ios": "https://dc.lft.to/lastmile_qr_scan", "android": "https://dc.lft.to/lastmile_qr_scan"}, "is_reserved": 0, "fusion_lon": 0.0, "fusion_lat": 0.0, "lon": -76.9903695, "name": "0f14a0bb400f4a9ea345085f2c235228"}, {"bike_id": "0694b2281326fa13ca4030072ed0f7b6", "type": "electric_scooter", "is_disabled": 0, "lat": 38.90040483333333, "rental_uris": {"ios": "https://dc.lft.to/lastmile_qr_scan", "android": "https://dc.lft.to/lastmile_qr_scan"}, "is_reserved": 0, "fusion_lon": 0.0, "fusion_lat": 0.0, "lon": -76.9191695, "name": "0694b2281326fa13ca4030072ed0f7b6"}, {"bike_id": "220c6832e0cc22ba30bfaef5c3ee7995", "type": "electric_scooter", "is_disabled": 0, "lat": 38.892309, "rental_uris": {"ios": "https://dc.lft.to/lastmile_qr_scan", "android": "https://dc.lft.to/lastmile_qr_scan"}, "is_reserved": 0, "fusion_lon": 0.0, "fusion_lat": 0.0, "lon": -77.04998983333333, "name": "220c6832e0cc22ba30bfaef5c3ee7995"}, {"bike_id": "a376fb5847724f12dcf2e4a43e8c76d8", "type": "electric_scooter", "is_disabled": 0, "lat": 38.920027166666664, "rental_uris": {"ios": "https://dc.lft.to/lastmile_qr_scan", "android": "https://dc.lft.to/lastmile_qr_scan"}, "is_reserved": 0, "fusion_lon": 0.0, "fusion_lat": 0.0, "lon": -77.0239355, "name": "a376fb5847724f12dcf2e4a43e8c76d8"}, {"bike_id": "e52df5a7f5dacae2c008966fd332db94", "type": "electric_scooter", "is_disabled": 0, "lat": 38.916996833333336, "rental_uris": {"ios": "https://dc.lft.to/lastmile_qr_scan", "android": "https://dc.lft.to/lastmile_qr_scan"}, "is_reserved": 0, "fusion_lon": 0.0, "fusion_lat": 0.0, "lon": -77.031093, "name": "e52df5a7f5dacae2c008966fd332db94"}, {"bike_id": "88f7abef303641e5213c6b54b99c6ad1", "type": "electric_scooter", "is_disabled": 0, "lat": 38.90008233333333, "rental_uris": {"ios": "https://dc.lft.to/lastmile_qr_scan", "android": "https://dc.lft.to/lastmile_qr_scan"}, "is_reserved": 0, "fusion_lon": 0.0, "fusion_lat": 0.0, "lon": -76.9986175, "name": "88f7abef303641e5213c6b54b99c6ad1"}, {"bike_id": "68387844b6e0a404cc569d32b3700505", "type": "electric_scooter", "is_disabled": 0, "lat": 38.858099, "rental_uris": {"ios": "https://dc.lft.to/lastmile_qr_scan", "android": "https://dc.lft.to/lastmile_qr_scan"}, "is_reserved": 0, "fusion_lon": 0.0, "fusion_lat": 0.0, "lon": -76.98921916666667, "name": "68387844b6e0a404cc569d32b3700505"}, {"bike_id": "757c2b725e67735c97bf71243914618f", "type": "electric_bike", "is_disabled": 0, "lat": 38.86482783333334, "rental_uris": {"ios": "https://dc.lft.to/lastmile_qr_scan", "android": "https://dc.lft.to/lastmile_qr_scan"}, "is_reserved": 0, "fusion_lon": 0.0, "fusion_lat": 0.0, "lon": -76.97745066666667, "name": "757c2b725e67735c97bf71243914618f"}, {"bike_id": "bbd4628ffcc04c0237f06d9d66ca1aa4", "type": "electric_scooter", "is_disabled": 0, "lat": 38.92621066666667, "rental_uris": {"ios": "https://dc.lft.to/lastmile_qr_scan", "android": "https://dc.lft.to/lastmile_qr_scan"}, "is_reserved": 0, "fusion_lon": 0.0, "fusion_lat": 0.0, "lon": -77.04190483333333, "name": "bbd4628ffcc04c0237f06d9d66ca1aa4"}, {"bike_id": "1f48c4503490c25724b56fe52455279d", "type": "electric_scooter", "is_disabled": 0, "lat": 38.93424733333333, "rental_uris": {"ios": "https://dc.lft.to/lastmile_qr_scan", "android": "https://dc.lft.to/lastmile_qr_scan"}, "is_reserved": 0, "fusion_lon": 0.0, "fusion_lat": 0.0, "lon": -77.040035, "name": "1f48c4503490c25724b56fe52455279d"}, {"bike_id": "84e7c8ae98a710e0a0aabea37d95c8f4", "type": "electric_scooter", "is_disabled": 0, "lat": 38.92972416666667, "rental_uris": {"ios": "https://dc.lft.to/lastmile_qr_scan", "android": "https://dc.lft.to/lastmile_qr_scan"}, "is_reserved": 0, "fusion_lon": 0.0, "fusion_lat": 0.0, "lon": -77.02821816666666, "name": "84e7c8ae98a710e0a0aabea37d95c8f4"}, {"bike_id": "2d0ca1b76847098f4746f732db06f378", "type": "electric_scooter", "is_disabled": 0, "lat": 38.895069166666666, "rental_uris": {"ios": "https://dc.lft.to/lastmile_qr_scan", "android": "https://dc.lft.to/lastmile_qr_scan"}, "is_reserved": 0, "fusion_lon": 0.0, "fusion_lat": 0.0, "lon": -77.011069, "name": "2d0ca1b76847098f4746f732db06f378"}, {"bike_id": "34c70bb5a744d6bee103806424f60bf9", "type": "electric_bike", "is_disabled": 0, "lat": 38.8039185, "rental_uris": {"ios": "https://dc.lft.to/lastmile_qr_scan", "android": "https://dc.lft.to/lastmile_qr_scan"}, "is_reserved": 0, "fusion_lon": 0.0, "fusion_lat": 0.0, "lon": -77.05554416666666, "name": "34c70bb5a744d6bee103806424f60bf9"}, {"bike_id": "b762c178d50c4e918ee0e71c7e0f1b00", "type": "electric_scooter", "is_disabled": 0, "lat": 38.92220433333333, "rental_uris": {"ios": "https://dc.lft.to/lastmile_qr_scan", "android": "https://dc.lft.to/lastmile_qr_scan"}, "is_reserved": 0, "fusion_lon": 0.0, "fusion_lat": 0.0, "lon": -77.03455883333334, "name": "b762c178d50c4e918ee0e71c7e0f1b00"}, {"bike_id": "1d455bf8329d9bde3fd5404c848a6cca", "type": "electric_scooter", "is_disabled": 0, "lat": 38.887452333333336, "rental_uris": {"ios": "https://dc.lft.to/lastmile_qr_scan", "android": "https://dc.lft.to/lastmile_qr_scan"}, "is_reserved": 0, "fusion_lon": 0.0, "fusion_lat": 0.0, "lon": -77.02731316666667, "name": "1d455bf8329d9bde3fd5404c848a6cca"}, {"bike_id": "53ad72ead2471fd5c18e4c1889a460b5", "type": "electric_scooter", "is_disabled": 0, "lat": 38.880202833333335, "rental_uris": {"ios": "https://dc.lft.to/lastmile_qr_scan", "android": "https://dc.lft.to/lastmile_qr_scan"}, "is_reserved": 0, "fusion_lon": 0.0, "fusion_lat": 0.0, "lon": -77.02488566666666, "name": "53ad72ead2471fd5c18e4c1889a460b5"}, {"bike_id": "e72abe98c3b5c89e6767fafb03579110", "type": "electric_scooter", "is_disabled": 0, "lat": 38.89999566666667, "rental_uris": {"ios": "https://dc.lft.to/lastmile_qr_scan", "android": "https://dc.lft.to/lastmile_qr_scan"}, "is_reserved": 0, "fusion_lon": 0.0, "fusion_lat": 0.0, "lon": -76.99413433333334, "name": "e72abe98c3b5c89e6767fafb03579110"}, {"bike_id": "4a748e79abb8cdc8a6bf1ef45d8bb87e", "type": "electric_scooter", "is_disabled": 0, "lat": 38.93251333333333, "rental_uris": {"ios": "https://dc.lft.to/lastmile_qr_scan", "android": "https://dc.lft.to/lastmile_qr_scan"}, "is_reserved": 0, "fusion_lon": 0.0, "fusion_lat": 0.0, "lon": -77.03271966666667, "name": "4a748e79abb8cdc8a6bf1ef45d8bb87e"}, {"bike_id": "19b3173b8740c4e8a7b6bfff501234a5", "type": "electric_scooter", "is_disabled": 0, "lat": 38.91491716666667, "rental_uris": {"ios": "https://dc.lft.to/lastmile_qr_scan", "android": "https://dc.lft.to/lastmile_qr_scan"}, "is_reserved": 0, "fusion_lon": 0.0, "fusion_lat": 0.0, "lon": -77.02501866666667, "name": "19b3173b8740c4e8a7b6bfff501234a5"}, {"bike_id": "fca0c65710d9c6237ebbff2cf66ff8b8", "type": "electric_scooter", "is_disabled": 0, "lat": 38.89936516666667, "rental_uris": {"ios": "https://dc.lft.to/lastmile_qr_scan", "android": "https://dc.lft.to/lastmile_qr_scan"}, "is_reserved": 0, "fusion_lon": 0.0, "fusion_lat": 0.0, "lon": -77.04790833333334, "name": "fca0c65710d9c6237ebbff2cf66ff8b8"}, {"bike_id": "b299aec523ddc9a6a541cf4074cc8078", "type": "electric_scooter", "is_disabled": 0, "lat": 38.9418645, "rental_uris": {"ios": "https://dc.lft.to/lastmile_qr_scan", "android": "https://dc.lft.to/lastmile_qr_scan"}, "is_reserved": 0, "fusion_lon": 0.0, "fusion_lat": 0.0, "lon": -77.02489383333334, "name": "b299aec523ddc9a6a541cf4074cc8078"}, {"bike_id": "f20053aaa7214a3664974fa4a1b854b1", "type": "electric_scooter", "is_disabled": 0, "lat": 38.93896316666667, "rental_uris": {"ios": "https://dc.lft.to/lastmile_qr_scan", "android": "https://dc.lft.to/lastmile_qr_scan"}, "is_reserved": 0, "fusion_lon": 0.0, "fusion_lat": 0.0, "lon": -77.03325966666667, "name": "f20053aaa7214a3664974fa4a1b854b1"}, {"bike_id": "860836249e363168c5b41e7837010b4a", "type": "electric_bike", "is_disabled": 0, "lat": 38.80898066666666, "rental_uris": {"ios": "https://dc.lft.to/lastmile_qr_scan", "android": "https://dc.lft.to/lastmile_qr_scan"}, "is_reserved": 0, "fusion_lon": 0.0, "fusion_lat": 0.0, "lon": -77.08647266666667, "name": "860836249e363168c5b41e7837010b4a"}, {"bike_id": "5610a7f68023096c7b88a6cb1920e54d", "type": "electric_scooter", "is_disabled": 0, "lat": 38.870696, "rental_uris": {"ios": "https://dc.lft.to/lastmile_qr_scan", "android": "https://dc.lft.to/lastmile_qr_scan"}, "is_reserved": 0, "fusion_lon": 0.0, "fusion_lat": 0.0, "lon": -76.98128633333333, "name": "5610a7f68023096c7b88a6cb1920e54d"}, {"bike_id": "b0023124528619e05ca062994c737e0c", "type": "electric_scooter", "is_disabled": 0, "lat": 38.921222, "rental_uris": {"ios": "https://dc.lft.to/lastmile_qr_scan", "android": "https://dc.lft.to/lastmile_qr_scan"}, "is_reserved": 0, "fusion_lon": 0.0, "fusion_lat": 0.0, "lon": -77.00924883333333, "name": "b0023124528619e05ca062994c737e0c"}, {"bike_id": "e6f1eb60c31c0481af8ccf5699f2f233", "type": "electric_scooter", "is_disabled": 0, "lat": 38.900768666666664, "rental_uris": {"ios": "https://dc.lft.to/lastmile_qr_scan", "android": "https://dc.lft.to/lastmile_qr_scan"}, "is_reserved": 0, "fusion_lon": 0.0, "fusion_lat": 0.0, "lon": -77.04761566666667, "name": "e6f1eb60c31c0481af8ccf5699f2f233"}, {"bike_id": "3a008a32a467a91bdbd033df1c932ec3", "type": "electric_scooter", "is_disabled": 0, "lat": 38.94289966666667, "rental_uris": {"ios": "https://dc.lft.to/lastmile_qr_scan", "android": "https://dc.lft.to/lastmile_qr_scan"}, "is_reserved": 0, "fusion_lon": 0.0, "fusion_lat": 0.0, "lon": -77.02167916666667, "name": "3a008a32a467a91bdbd033df1c932ec3"}, {"bike_id": "55ed538cc958e954e07edfe7eed92057", "type": "electric_scooter", "is_disabled": 0, "lat": 38.927216, "rental_uris": {"ios": "https://dc.lft.to/lastmile_qr_scan", "android": "https://dc.lft.to/lastmile_qr_scan"}, "is_reserved": 0, "fusion_lon": 0.0, "fusion_lat": 0.0, "lon": -77.03993766666666, "name": "55ed538cc958e954e07edfe7eed92057"}, {"bike_id": "e847e5dad09cfe2058096553fc58a8d2", "type": "electric_scooter", "is_disabled": 0, "lat": 38.908244833333335, "rental_uris": {"ios": "https://dc.lft.to/lastmile_qr_scan", "android": "https://dc.lft.to/lastmile_qr_scan"}, "is_reserved": 0, "fusion_lon": 0.0, "fusion_lat": 0.0, "lon": -76.94159416666666, "name": "e847e5dad09cfe2058096553fc58a8d2"}, {"bike_id": "bb441b1656ec5029b7b8f7ad53dcb427", "type": "electric_scooter", "is_disabled": 0, "lat": 38.917453333333334, "rental_uris": {"ios": "https://dc.lft.to/lastmile_qr_scan", "android": "https://dc.lft.to/lastmile_qr_scan"}, "is_reserved": 0, "fusion_lon": 0.0, "fusion_lat": 0.0, "lon": -77.017066, "name": "bb441b1656ec5029b7b8f7ad53dcb427"}, {"bike_id": "0b90a712e138a02e9335da7eacb70574", "type": "electric_scooter", "is_disabled": 0, "lat": 38.913784, "rental_uris": {"ios": "https://dc.lft.to/lastmile_qr_scan", "android": "https://dc.lft.to/lastmile_qr_scan"}, "is_reserved": 0, "fusion_lon": 0.0, "fusion_lat": 0.0, "lon": -77.0413755, "name": "0b90a712e138a02e9335da7eacb70574"}, {"bike_id": "13711ac7f0612068d8980bec556fb02b", "type": "electric_scooter", "is_disabled": 0, "lat": 38.933067, "rental_uris": {"ios": "https://dc.lft.to/lastmile_qr_scan", "android": "https://dc.lft.to/lastmile_qr_scan"}, "is_reserved": 0, "fusion_lon": 0.0, "fusion_lat": 0.0, "lon": -77.0215605, "name": "13711ac7f0612068d8980bec556fb02b"}, {"bike_id": "98d5c82b8340c1867a27532c891635f4", "type": "electric_bike", "is_disabled": 0, "lat": 38.872774, "rental_uris": {"ios": "https://dc.lft.to/lastmile_qr_scan", "android": "https://dc.lft.to/lastmile_qr_scan"}, "is_reserved": 0, "fusion_lon": 0.0, "fusion_lat": 0.0, "lon": -77.23327983333333, "name": "98d5c82b8340c1867a27532c891635f4"}, {"bike_id": "98dfeb21c4d4813b03931302d428e42c", "type": "electric_bike", "is_disabled": 0, "lat": 38.96469116666667, "rental_uris": {"ios": "https://dc.lft.to/lastmile_qr_scan", "android": "https://dc.lft.to/lastmile_qr_scan"}, "is_reserved": 0, "fusion_lon": 0.0, "fusion_lat": 0.0, "lon": -77.03562416666666, "name": "98dfeb21c4d4813b03931302d428e42c"}, {"bike_id": "304ecb09eef0b540d754bbd4d4fd59bd", "type": "electric_scooter", "is_disabled": 0, "lat": 38.885652, "rental_uris": {"ios": "https://dc.lft.to/lastmile_qr_scan", "android": "https://dc.lft.to/lastmile_qr_scan"}, "is_reserved": 0, "fusion_lon": 0.0, "fusion_lat": 0.0, "lon": -77.00205416666667, "name": "304ecb09eef0b540d754bbd4d4fd59bd"}, {"bike_id": "fc54b808165365a9df81a5fdfba30112", "type": "electric_scooter", "is_disabled": 0, "lat": 38.915614166666664, "rental_uris": {"ios": "https://dc.lft.to/lastmile_qr_scan", "android": "https://dc.lft.to/lastmile_qr_scan"}, "is_reserved": 0, "fusion_lon": 0.0, "fusion_lat": 0.0, "lon": -77.04112316666667, "name": "fc54b808165365a9df81a5fdfba30112"}, {"bike_id": "0c4f21dfe9720424ec45cfec683b2605", "type": "electric_scooter", "is_disabled": 0, "lat": 38.90483433333333, "rental_uris": {"ios": "https://dc.lft.to/lastmile_qr_scan", "android": "https://dc.lft.to/lastmile_qr_scan"}, "is_reserved": 0, "fusion_lon": 0.0, "fusion_lat": 0.0, "lon": -77.00743133333333, "name": "0c4f21dfe9720424ec45cfec683b2605"}, {"bike_id": "e5103dadf9d9837673bcdfc4a64adc39", "type": "electric_bike", "is_disabled": 0, "lat": 38.897354666666665, "rental_uris": {"ios": "https://dc.lft.to/lastmile_qr_scan", "android": "https://dc.lft.to/lastmile_qr_scan"}, "is_reserved": 0, "fusion_lon": 0.0, "fusion_lat": 0.0, "lon": -77.02224883333334, "name": "e5103dadf9d9837673bcdfc4a64adc39"}, {"bike_id": "846e1adf18a643f6bacf377ec6ffa33b", "type": "electric_scooter", "is_disabled": 0, "lat": 38.93666116666667, "rental_uris": {"ios": "https://dc.lft.to/lastmile_qr_scan", "android": "https://dc.lft.to/lastmile_qr_scan"}, "is_reserved": 0, "fusion_lon": 0.0, "fusion_lat": 0.0, "lon": -77.0356215, "name": "846e1adf18a643f6bacf377ec6ffa33b"}, {"bike_id": "d63160c44f2228761b5e69b9b71fd87a", "type": "electric_scooter", "is_disabled": 0, "lat": 38.86247633333333, "rental_uris": {"ios": "https://dc.lft.to/lastmile_qr_scan", "android": "https://dc.lft.to/lastmile_qr_scan"}, "is_reserved": 0, "fusion_lon": 0.0, "fusion_lat": 0.0, "lon": -76.995042, "name": "d63160c44f2228761b5e69b9b71fd87a"}, {"bike_id": "b35201cc8d12036beeedc171666828e0", "type": "electric_scooter", "is_disabled": 0, "lat": 38.92745733333334, "rental_uris": {"ios": "https://dc.lft.to/lastmile_qr_scan", "android": "https://dc.lft.to/lastmile_qr_scan"}, "is_reserved": 0, "fusion_lon": 0.0, "fusion_lat": 0.0, "lon": -77.0253185, "name": "b35201cc8d12036beeedc171666828e0"}, {"bike_id": "2009030e41229fe42d361a133b208a99", "type": "electric_scooter", "is_disabled": 0, "lat": 38.96204183333333, "rental_uris": {"ios": "https://dc.lft.to/lastmile_qr_scan", "android": "https://dc.lft.to/lastmile_qr_scan"}, "is_reserved": 0, "fusion_lon": 0.0, "fusion_lat": 0.0, "lon": -77.02232433333333, "name": "2009030e41229fe42d361a133b208a99"}, {"bike_id": "0f4c65ee786bc3958ed193569a7bb634", "type": "electric_scooter", "is_disabled": 0, "lat": 38.893106333333336, "rental_uris": {"ios": "https://dc.lft.to/lastmile_qr_scan", "android": "https://dc.lft.to/lastmile_qr_scan"}, "is_reserved": 0, "fusion_lon": 0.0, "fusion_lat": 0.0, "lon": -77.01235866666667, "name": "0f4c65ee786bc3958ed193569a7bb634"}, {"bike_id": "cc54b3e39ce8a675ef0cf93cb590809f", "type": "electric_scooter", "is_disabled": 0, "lat": 38.9042465, "rental_uris": {"ios": "https://dc.lft.to/lastmile_qr_scan", "android": "https://dc.lft.to/lastmile_qr_scan"}, "is_reserved": 0, "fusion_lon": 0.0, "fusion_lat": 0.0, "lon": -77.05454366666666, "name": "cc54b3e39ce8a675ef0cf93cb590809f"}, {"bike_id": "d6a7b2ee8f3bd4cb82ca9ab14f7ca231", "type": "electric_scooter", "is_disabled": 0, "lat": 38.864653833333335, "rental_uris": {"ios": "https://dc.lft.to/lastmile_qr_scan", "android": "https://dc.lft.to/lastmile_qr_scan"}, "is_reserved": 0, "fusion_lon": 0.0, "fusion_lat": 0.0, "lon": -76.98234066666667, "name": "d6a7b2ee8f3bd4cb82ca9ab14f7ca231"}, {"bike_id": "5b404ec828fb8a26f2cbdba71a686903", "type": "electric_bike", "is_disabled": 0, "lat": 38.9274005, "rental_uris": {"ios": "https://dc.lft.to/lastmile_qr_scan", "android": "https://dc.lft.to/lastmile_qr_scan"}, "is_reserved": 0, "fusion_lon": 0.0, "fusion_lat": 0.0, "lon": -76.99360883333334, "name": "5b404ec828fb8a26f2cbdba71a686903"}, {"bike_id": "a334f9b104dd1ac55905a62d7a663962", "type": "electric_scooter", "is_disabled": 0, "lat": 38.9051415, "rental_uris": {"ios": "https://dc.lft.to/lastmile_qr_scan", "android": "https://dc.lft.to/lastmile_qr_scan"}, "is_reserved": 0, "fusion_lon": 0.0, "fusion_lat": 0.0, "lon": -77.02977183333333, "name": "a334f9b104dd1ac55905a62d7a663962"}, {"bike_id": "0ae8235eb4fdbbf1aebe3ca61666982d", "type": "electric_scooter", "is_disabled": 0, "lat": 38.90867983333333, "rental_uris": {"ios": "https://dc.lft.to/lastmile_qr_scan", "android": "https://dc.lft.to/lastmile_qr_scan"}, "is_reserved": 0, "fusion_lon": 0.0, "fusion_lat": 0.0, "lon": -77.085957, "name": "0ae8235eb4fdbbf1aebe3ca61666982d"}, {"bike_id": "cefb00db6a8680418fa06644f90e2a3f", "type": "electric_bike", "is_disabled": 0, "lat": 38.98362866666667, "rental_uris": {"ios": "https://dc.lft.to/lastmile_qr_scan", "android": "https://dc.lft.to/lastmile_qr_scan"}, "is_reserved": 0, "fusion_lon": 0.0, "fusion_lat": 0.0, "lon": -76.972122, "name": "cefb00db6a8680418fa06644f90e2a3f"}, {"bike_id": "179b18bf315179b056e661323e06e230", "type": "electric_scooter", "is_disabled": 0, "lat": 38.9218845, "rental_uris": {"ios": "https://dc.lft.to/lastmile_qr_scan", "android": "https://dc.lft.to/lastmile_qr_scan"}, "is_reserved": 0, "fusion_lon": 0.0, "fusion_lat": 0.0, "lon": -76.993603, "name": "179b18bf315179b056e661323e06e230"}, {"bike_id": "d6d7463626b5bc79b6c1f76d0316159a", "type": "electric_scooter", "is_disabled": 0, "lat": 38.90172283333333, "rental_uris": {"ios": "https://dc.lft.to/lastmile_qr_scan", "android": "https://dc.lft.to/lastmile_qr_scan"}, "is_reserved": 0, "fusion_lon": 0.0, "fusion_lat": 0.0, "lon": -77.0320915, "name": "d6d7463626b5bc79b6c1f76d0316159a"}, {"bike_id": "a81fbe4f01bd8f9309cbbaf255143498", "type": "electric_scooter", "is_disabled": 0, "lat": 38.893583, "rental_uris": {"ios": "https://dc.lft.to/lastmile_qr_scan", "android": "https://dc.lft.to/lastmile_qr_scan"}, "is_reserved": 0, "fusion_lon": 0.0, "fusion_lat": 0.0, "lon": -76.94935016666666, "name": "a81fbe4f01bd8f9309cbbaf255143498"}, {"bike_id": "a28d8c317a4846395cb5259a1d25ef9d", "type": "electric_scooter", "is_disabled": 0, "lat": 38.91042616666667, "rental_uris": {"ios": "https://dc.lft.to/lastmile_qr_scan", "android": "https://dc.lft.to/lastmile_qr_scan"}, "is_reserved": 0, "fusion_lon": 0.0, "fusion_lat": 0.0, "lon": -77.07351083333333, "name": "a28d8c317a4846395cb5259a1d25ef9d"}, {"bike_id": "8c53ac56170faf37d3abec7fcae6c960", "type": "electric_bike", "is_disabled": 0, "lat": 38.823777666666665, "rental_uris": {"ios": "https://dc.lft.to/lastmile_qr_scan", "android": "https://dc.lft.to/lastmile_qr_scan"}, "is_reserved": 0, "fusion_lon": 0.0, "fusion_lat": 0.0, "lon": -77.002281, "name": "8c53ac56170faf37d3abec7fcae6c960"}, {"bike_id": "7d0360b6cad20d7eaf830e768edb474e", "type": "electric_scooter", "is_disabled": 0, "lat": 38.928065833333335, "rental_uris": {"ios": "https://dc.lft.to/lastmile_qr_scan", "android": "https://dc.lft.to/lastmile_qr_scan"}, "is_reserved": 0, "fusion_lon": 0.0, "fusion_lat": 0.0, "lon": -77.0321075, "name": "7d0360b6cad20d7eaf830e768edb474e"}, {"bike_id": "19e06435dcf53e820f0ce26103dadcf8", "type": "electric_scooter", "is_disabled": 0, "lat": 38.900087, "rental_uris": {"ios": "https://dc.lft.to/lastmile_qr_scan", "android": "https://dc.lft.to/lastmile_qr_scan"}, "is_reserved": 0, "fusion_lon": 0.0, "fusion_lat": 0.0, "lon": -76.99619016666666, "name": "19e06435dcf53e820f0ce26103dadcf8"}, {"bike_id": "4124a006fb92c7f96b349333c0fc639d", "type": "electric_scooter", "is_disabled": 0, "lat": 38.9154765, "rental_uris": {"ios": "https://dc.lft.to/lastmile_qr_scan", "android": "https://dc.lft.to/lastmile_qr_scan"}, "is_reserved": 0, "fusion_lon": 0.0, "fusion_lat": 0.0, "lon": -76.970146, "name": "4124a006fb92c7f96b349333c0fc639d"}, {"bike_id": "9ff252052701556a113c5c6001e37f8a", "type": "electric_bike", "is_disabled": 0, "lat": 38.905109333333336, "rental_uris": {"ios": "https://dc.lft.to/lastmile_qr_scan", "android": "https://dc.lft.to/lastmile_qr_scan"}, "is_reserved": 0, "fusion_lon": 0.0, "fusion_lat": 0.0, "lon": -76.98726533333334, "name": "9ff252052701556a113c5c6001e37f8a"}, {"bike_id": "1b2bf5750b0f7ad0a59f245345edb62c", "type": "electric_scooter", "is_disabled": 0, "lat": 38.90256083333333, "rental_uris": {"ios": "https://dc.lft.to/lastmile_qr_scan", "android": "https://dc.lft.to/lastmile_qr_scan"}, "is_reserved": 0, "fusion_lon": 0.0, "fusion_lat": 0.0, "lon": -77.01850016666667, "name": "1b2bf5750b0f7ad0a59f245345edb62c"}, {"bike_id": "0aeb51bc80df590561117250040c39e2", "type": "electric_scooter", "is_disabled": 0, "lat": 38.90735883333333, "rental_uris": {"ios": "https://dc.lft.to/lastmile_qr_scan", "android": "https://dc.lft.to/lastmile_qr_scan"}, "is_reserved": 0, "fusion_lon": 0.0, "fusion_lat": 0.0, "lon": -77.03451816666667, "name": "0aeb51bc80df590561117250040c39e2"}, {"bike_id": "af52474a1ca373e32dd586a7a7b1d763", "type": "electric_scooter", "is_disabled": 0, "lat": 38.91873533333333, "rental_uris": {"ios": "https://dc.lft.to/lastmile_qr_scan", "android": "https://dc.lft.to/lastmile_qr_scan"}, "is_reserved": 0, "fusion_lon": 0.0, "fusion_lat": 0.0, "lon": -77.03500683333333, "name": "af52474a1ca373e32dd586a7a7b1d763"}, {"bike_id": "e9551ded3ffb8559281e861e849ece03", "type": "electric_scooter", "is_disabled": 0, "lat": 38.894815, "rental_uris": {"ios": "https://dc.lft.to/lastmile_qr_scan", "android": "https://dc.lft.to/lastmile_qr_scan"}, "is_reserved": 0, "fusion_lon": 0.0, "fusion_lat": 0.0, "lon": -77.0218105, "name": "e9551ded3ffb8559281e861e849ece03"}, {"bike_id": "53ebb43c411f6e36a82b8b0129d92efe", "type": "electric_bike", "is_disabled": 0, "lat": 38.8824385, "rental_uris": {"ios": "https://dc.lft.to/lastmile_qr_scan", "android": "https://dc.lft.to/lastmile_qr_scan"}, "is_reserved": 0, "fusion_lon": 0.0, "fusion_lat": 0.0, "lon": -76.96252866666667, "name": "53ebb43c411f6e36a82b8b0129d92efe"}, {"bike_id": "b2718494e702c56837966f7bd0c0728d", "type": "electric_scooter", "is_disabled": 0, "lat": 38.89942716666667, "rental_uris": {"ios": "https://dc.lft.to/lastmile_qr_scan", "android": "https://dc.lft.to/lastmile_qr_scan"}, "is_reserved": 0, "fusion_lon": 0.0, "fusion_lat": 0.0, "lon": -77.0479385, "name": "b2718494e702c56837966f7bd0c0728d"}, {"bike_id": "f72e475fa85d2be72bfecdb2cae93aa7", "type": "electric_scooter", "is_disabled": 0, "lat": 38.90351116666667, "rental_uris": {"ios": "https://dc.lft.to/lastmile_qr_scan", "android": "https://dc.lft.to/lastmile_qr_scan"}, "is_reserved": 0, "fusion_lon": 0.0, "fusion_lat": 0.0, "lon": -77.01948083333333, "name": "f72e475fa85d2be72bfecdb2cae93aa7"}, {"bike_id": "2d379a7c2c2aae1b26514f1c3a23e529", "type": "electric_scooter", "is_disabled": 0, "lat": 38.932902, "rental_uris": {"ios": "https://dc.lft.to/lastmile_qr_scan", "android": "https://dc.lft.to/lastmile_qr_scan"}, "is_reserved": 0, "fusion_lon": 0.0, "fusion_lat": 0.0, "lon": -77.03546283333333, "name": "2d379a7c2c2aae1b26514f1c3a23e529"}, {"bike_id": "7f9af13c47d65eb2c45dda7322efba8a", "type": "electric_scooter", "is_disabled": 0, "lat": 38.91049566666667, "rental_uris": {"ios": "https://dc.lft.to/lastmile_qr_scan", "android": "https://dc.lft.to/lastmile_qr_scan"},