{"data": {"bikes": [{"is_disabled": 0, "rental_uris": {"android": "https://dc.lft.to/lastmile_qr_scan", "ios": "https://dc.lft.to/lastmile_qr_scan"}, "is_reserved": 0, "name": "f32e6ca6b25e66c68d251cf70fffe82a", "lon": -77.02275816666666, "type": "electric_scooter", "bike_id": "f32e6ca6b25e66c68d251cf70fffe82a", "fusion_lon": 0.0, "lat": 38.91266066666667, "fusion_lat": 0.0}, {"is_disabled": 0, "rental_uris": {"android": "https://dc.lft.to/lastmile_qr_scan", "ios": "https://dc.lft.to/lastmile_qr_scan"}, "is_reserved": 0, "name": "e8a95eb798272a26af1ac5a05317f432", "lon": -77.03843866666666, "type": "electric_scooter", "bike_id": "e8a95eb798272a26af1ac5a05317f432", "fusion_lon": 0.0, "lat": 38.906744833333335, "fusion_lat": 0.0}, {"is_disabled": 0, "rental_uris": {"android": "https://dc.lft.to/lastmile_qr_scan", "ios": "https://dc.lft.to/lastmile_qr_scan"}, "is_reserved": 0, "name": "f1f0c2b2f72be5bc037b5f44199316c0", "lon": -77.02483466666666, "type": "electric_scooter", "bike_id": "f1f0c2b2f72be5bc037b5f44199316c0", "fusion_lon": 0.0, "lat": 38.938812, "fusion_lat": 0.0}, {"is_disabled": 0, "rental_uris": {"android": "https://dc.lft.to/lastmile_qr_scan", "ios": "https://dc.lft.to/lastmile_qr_scan"}, "is_reserved": 0, "name": "5c745b007bff0fde6ca61ce1b81135d1", "lon": -77.04868133333333, "type": "electric_scooter", "bike_id": "5c745b007bff0fde6ca61ce1b81135d1", "fusion_lon": 0.0, "lat": 38.89223483333333, "fusion_lat": 0.0}, {"is_disabled": 0, "rental_uris": {"android": "https://dc.lft.to/lastmile_qr_scan", "ios": "https://dc.lft.to/lastmile_qr_scan"}, "is_reserved": 0, "name": "1eb8f8e5c4ecd5ff75f6144c98740551", "lon": -76.9076475, "type": "electric_bike", "bike_id": "1eb8f8e5c4ecd5ff75f6144c98740551", "fusion_lon": 0.0, "lat": 38.92440583333333, "fusion_lat": 0.0}, {"is_disabled": 0, "rental_uris": {"android": "https://dc.lft.to/lastmile_qr_scan", "ios": "https://dc.lft.to/lastmile_qr_scan"}, "is_reserved": 0, "name": "734bc548619600ff5fd976fbadf56d94", "lon": -77.02395933333334, "type": "electric_scooter", "bike_id": "734bc548619600ff5fd976fbadf56d94", "fusion_lon": 0.0, "lat": 38.894800333333336, "fusion_lat": 0.0}, {"is_disabled": 0, "rental_uris": {"android": "https://dc.lft.to/lastmile_qr_scan", "ios": "https://dc.lft.to/lastmile_qr_scan"}, "is_reserved": 0, "name": "8b5c989fec8c5c0f7cd783b8f1f82d30", "lon": -77.04181816666667, "type": "electric_scooter", "bike_id": "8b5c989fec8c5c0f7cd783b8f1f82d30", "fusion_lon": 0.0, "lat": 38.91276216666667, "fusion_lat": 0.0}, {"is_disabled": 0, "rental_uris": {"android": "https://dc.lft.to/lastmile_qr_scan", "ios": "https://dc.lft.to/lastmile_qr_scan"}, "is_reserved": 0, "name": "1abe02f77b915a9a244d94aee98eca8b", "lon": -77.05937583333333, "type": "electric_scooter", "bike_id": "1abe02f77b915a9a244d94aee98eca8b", "fusion_lon": 0.0, "lat": 38.905318333333334, "fusion_lat": 0.0}, {"is_disabled": 0, "rental_uris": {"android": "https://dc.lft.to/lastmile_qr_scan", "ios": "https://dc.lft.to/lastmile_qr_scan"}, "is_reserved": 0, "name": "fd5fc2cbc2d075dbd84cecaf9ed8d4b5", "lon": -77.022213, "type": "electric_scooter", "bike_id": "fd5fc2cbc2d075dbd84cecaf9ed8d4b5", "fusion_lon": 0.0, "lat": 38.935512, "fusion_lat": 0.0}, {"is_disabled": 0, "rental_uris": {"android": "https://dc.lft.to/lastmile_qr_scan", "ios": "https://dc.lft.to/lastmile_qr_scan"}, "is_reserved": 0, "name": "4d35b223c01122f104059d9ca09a2416", "lon": -77.01766133333334, "type": "electric_scooter", "bike_id": "4d35b223c01122f104059d9ca09a2416", "fusion_lon": 0.0, "lat": 38.90394666666667, "fusion_lat": 0.0}, {"is_disabled": 0, "rental_uris": {"android": "https://dc.lft.to/lastmile_qr_scan", "ios": "https://dc.lft.to/lastmile_qr_scan"}, "is_reserved": 0, "name": "c911d19da18e2f56da0b6162e13d6675", "lon": -77.03783516666667, "type": "electric_scooter", "bike_id": "c911d19da18e2f56da0b6162e13d6675", "fusion_lon": 0.0, "lat": 38.9232765, "fusion_lat": 0.0}, {"is_disabled": 0, "rental_uris": {"android": "https://dc.lft.to/lastmile_qr_scan", "ios": "https://dc.lft.to/lastmile_qr_scan"}, "is_reserved": 0, "name": "7502acbe121c0aea904b011ebeac9d04", "lon": -77.0466595, "type": "electric_scooter", "bike_id": "7502acbe121c0aea904b011ebeac9d04", "fusion_lon": 0.0, "lat": 38.9157295, "fusion_lat": 0.0}, {"is_disabled": 0, "rental_uris": {"android": "https://dc.lft.to/lastmile_qr_scan", "ios": "https://dc.lft.to/lastmile_qr_scan"}, "is_reserved": 0, "name": "8968c1d1b2069c1bddbd05c1057d0d95", "lon": -77.03823216666666, "type": "electric_scooter", "bike_id": "8968c1d1b2069c1bddbd05c1057d0d95", "fusion_lon": 0.0, "lat": 38.908444333333335, "fusion_lat": 0.0}, {"is_disabled": 0, "rental_uris": {"android": "https://dc.lft.to/lastmile_qr_scan", "ios": "https://dc.lft.to/lastmile_qr_scan"}, "is_reserved": 0, "name": "7c2a1b73fa5674404b62f28cdbf837e1", "lon": -76.8749835, "type": "electric_bike", "bike_id": "7c2a1b73fa5674404b62f28cdbf837e1", "fusion_lon": 0.0, "lat": 38.99091216666667, "fusion_lat": 0.0}, {"is_disabled": 0, "rental_uris": {"android": "https://dc.lft.to/lastmile_qr_scan", "ios": "https://dc.lft.to/lastmile_qr_scan"}, "is_reserved": 0, "name": "1ec3bfd65f62ddfc0e1d4558e4aaffe1", "lon": -77.05042433333334, "type": "electric_scooter", "bike_id": "1ec3bfd65f62ddfc0e1d4558e4aaffe1", "fusion_lon": 0.0, "lat": 38.90412416666667, "fusion_lat": 0.0}, {"is_disabled": 0, "rental_uris": {"android": "https://dc.lft.to/lastmile_qr_scan", "ios": "https://dc.lft.to/lastmile_qr_scan"}, "is_reserved": 0, "name": "e7e74b7c3febe04b813e5d7c9a74104a", "lon": -77.03812433333333, "type": "electric_scooter", "bike_id": "e7e74b7c3febe04b813e5d7c9a74104a", "fusion_lon": 0.0, "lat": 38.90975616666667, "fusion_lat": 0.0}, {"is_disabled": 0, "rental_uris": {"android": "https://dc.lft.to/lastmile_qr_scan", "ios": "https://dc.lft.to/lastmile_qr_scan"}, "is_reserved": 0, "name": "33ec3ea6f107ff1e48b38b9d1fc13f31", "lon": -77.07305166666667, "type": "electric_scooter", "bike_id": "33ec3ea6f107ff1e48b38b9d1fc13f31", "fusion_lon": 0.0, "lat": 38.92278533333333, "fusion_lat": 0.0}, {"is_disabled": 0, "rental_uris": {"android": "https://dc.lft.to/lastmile_qr_scan", "ios": "https://dc.lft.to/lastmile_qr_scan"}, "is_reserved": 0, "name": "cac55cdc09f48a0281f5a54592589d8c", "lon": -77.11230283333333, "type": "electric_bike", "bike_id": "cac55cdc09f48a0281f5a54592589d8c", "fusion_lon": 0.0, "lat": 38.828799, "fusion_lat": 0.0}, {"is_disabled": 0, "rental_uris": {"android": "https://dc.lft.to/lastmile_qr_scan", "ios": "https://dc.lft.to/lastmile_qr_scan"}, "is_reserved": 0, "name": "799740bce13fae2544309ddace342a07", "lon": -77.02359883333334, "type": "electric_scooter", "bike_id": "799740bce13fae2544309ddace342a07", "fusion_lon": 0.0, "lat": 38.90558716666666, "fusion_lat": 0.0}, {"is_disabled": 0, "rental_uris": {"android": "https://dc.lft.to/lastmile_qr_scan", "ios": "https://dc.lft.to/lastmile_qr_scan"}, "is_reserved": 0, "name": "0cce8bbde7af1ba4c3d24c8630d57cf2", "lon": -77.01221166666667, "type": "electric_scooter", "bike_id": "0cce8bbde7af1ba4c3d24c8630d57cf2", "fusion_lon": 0.0, "lat": 38.9102805, "fusion_lat": 0.0}, {"is_disabled": 0, "rental_uris": {"android": "https://dc.lft.to/lastmile_qr_scan", "ios": "https://dc.lft.to/lastmile_qr_scan"}, "is_reserved": 0, "name": "6b15a46d1745ac64dc43623f78a3026d", "lon": -77.03996816666667, "type": "electric_scooter", "bike_id": "6b15a46d1745ac64dc43623f78a3026d", "fusion_lon": 0.0, "lat": 38.902633333333334, "fusion_lat": 0.0}, {"is_disabled": 0, "rental_uris": {"android": "https://dc.lft.to/lastmile_qr_scan", "ios": "https://dc.lft.to/lastmile_qr_scan"}, "is_reserved": 0, "name": "a227101b0038ec774df8831e35aebb76", "lon": -77.0285135, "type": "electric_scooter", "bike_id": "a227101b0038ec774df8831e35aebb76", "fusion_lon": 0.0, "lat": 38.917078, "fusion_lat": 0.0}, {"is_disabled": 0, "rental_uris": {"android": "https://dc.lft.to/lastmile_qr_scan", "ios": "https://dc.lft.to/lastmile_qr_scan"}, "is_reserved": 0, "name": "f0239ec4a59a83c888d7b929ba6515e6", "lon": -76.97518816666667, "type": "electric_bike", "bike_id": "f0239ec4a59a83c888d7b929ba6515e6", "fusion_lon": 0.0, "lat": 38.90312983333333, "fusion_lat": 0.0}, {"is_disabled": 0, "rental_uris": {"android": "https://dc.lft.to/lastmile_qr_scan", "ios": "https://dc.lft.to/lastmile_qr_scan"}, "is_reserved": 0, "name": "68e433bba022e7ad4676eb509cad8eb0", "lon": -76.97880633333334, "type": "electric_scooter", "bike_id": "68e433bba022e7ad4676eb509cad8eb0", "fusion_lon": 0.0, "lat": 38.927283833333334, "fusion_lat": 0.0}, {"is_disabled": 0, "rental_uris": {"android": "https://dc.lft.to/lastmile_qr_scan", "ios": "https://dc.lft.to/lastmile_qr_scan"}, "is_reserved": 0, "name": "3ff0bdc076a61424e4d5f8b35b6117f6", "lon": -77.012252, "type": "electric_scooter", "bike_id": "3ff0bdc076a61424e4d5f8b35b6117f6", "fusion_lon": 0.0, "lat": 38.885833166666664, "fusion_lat": 0.0}, {"is_disabled": 0, "rental_uris": {"android": "https://dc.lft.to/lastmile_qr_scan", "ios": "https://dc.lft.to/lastmile_qr_scan"}, "is_reserved": 0, "name": "c454a5e507e95bc1e351d813322cf53b", "lon": -77.02369266666666, "type": "electric_scooter", "bike_id": "c454a5e507e95bc1e351d813322cf53b", "fusion_lon": 0.0, "lat": 38.91598183333333, "fusion_lat": 0.0}, {"is_disabled": 0, "rental_uris": {"android": "https://dc.lft.to/lastmile_qr_scan", "ios": "https://dc.lft.to/lastmile_qr_scan"}, "is_reserved": 0, "name": "72db4f68f03c54f9f106b0c8def03097", "lon": -77.0456435, "type": "electric_scooter", "bike_id": "72db4f68f03c54f9f106b0c8def03097", "fusion_lon": 0.0, "lat": 38.917777666666666, "fusion_lat": 0.0}, {"is_disabled": 0, "rental_uris": {"android": "https://dc.lft.to/lastmile_qr_scan", "ios": "https://dc.lft.to/lastmile_qr_scan"}, "is_reserved": 0, "name": "9b2dd6842c953dbe0489f4cd695b9af6", "lon": -77.022943, "type": "electric_scooter", "bike_id": "9b2dd6842c953dbe0489f4cd695b9af6", "fusion_lon": 0.0, "lat": 38.916160166666664, "fusion_lat": 0.0}, {"is_disabled": 0, "rental_uris": {"android": "https://dc.lft.to/lastmile_qr_scan", "ios": "https://dc.lft.to/lastmile_qr_scan"}, "is_reserved": 0, "name": "c5ab6408708f41d74393200bf4b28b5b", "lon": -77.05442, "type": "electric_scooter", "bike_id": "c5ab6408708f41d74393200bf4b28b5b", "fusion_lon": 0.0, "lat": 38.896034666666665, "fusion_lat": 0.0}, {"is_disabled": 0, "rental_uris": {"android": "https://dc.lft.to/lastmile_qr_scan", "ios": "https://dc.lft.to/lastmile_qr_scan"}, "is_reserved": 0, "name": "8fa2a092f04563bb2063a3aa075ce729", "lon": -77.03660933333333, "type": "electric_scooter", "bike_id": "8fa2a092f04563bb2063a3aa075ce729", "fusion_lon": 0.0, "lat": 38.912452333333334, "fusion_lat": 0.0}, {"is_disabled": 0, "rental_uris": {"android": "https://dc.lft.to/lastmile_qr_scan", "ios": "https://dc.lft.to/lastmile_qr_scan"}, "is_reserved": 0, "name": "910b2f14dcd91cf33e6e1da8b9a28c6d", "lon": -77.10441633333333, "type": "electric_bike", "bike_id": "910b2f14dcd91cf33e6e1da8b9a28c6d", "fusion_lon": 0.0, "lat": 39.028636666666664, "fusion_lat": 0.0}, {"is_disabled": 0, "rental_uris": {"android": "https://dc.lft.to/lastmile_qr_scan", "ios": "https://dc.lft.to/lastmile_qr_scan"}, "is_reserved": 0, "name": "d0b721c280a3151cef7644b4e0aae1bd", "lon": -77.04633566666666, "type": "electric_scooter", "bike_id": "d0b721c280a3151cef7644b4e0aae1bd", "fusion_lon": 0.0, "lat": 38.905546333333334, "fusion_lat": 0.0}, {"is_disabled": 0, "rental_uris": {"android": "https://dc.lft.to/lastmile_qr_scan", "ios": "https://dc.lft.to/lastmile_qr_scan"}, "is_reserved": 0, "name": "caf35f8abebd7bef78a4f983a07b0e11", "lon": -77.00865083333333, "type": "electric_scooter", "bike_id": "caf35f8abebd7bef78a4f983a07b0e11", "fusion_lon": 0.0, "lat": 38.90641166666666, "fusion_lat": 0.0}, {"is_disabled": 0, "rental_uris": {"android": "https://dc.lft.to/lastmile_qr_scan", "ios": "https://dc.lft.to/lastmile_qr_scan"}, "is_reserved": 0, "name": "0013b81fb2431a3b9731ccea00739ffc", "lon": -77.033175, "type": "electric_scooter", "bike_id": "0013b81fb2431a3b9731ccea00739ffc", "fusion_lon": 0.0, "lat": 38.8985905, "fusion_lat": 0.0}, {"is_disabled": 0, "rental_uris": {"android": "https://dc.lft.to/lastmile_qr_scan", "ios": "https://dc.lft.to/lastmile_qr_scan"}, "is_reserved": 0, "name": "3bf0897790cf68e94bfb9ad4e94c587c", "lon": -76.94824733333333, "type": "electric_scooter", "bike_id": "3bf0897790cf68e94bfb9ad4e94c587c", "fusion_lon": 0.0, "lat": 38.88514, "fusion_lat": 0.0}, {"is_disabled": 0, "rental_uris": {"android": "https://dc.lft.to/lastmile_qr_scan", "ios": "https://dc.lft.to/lastmile_qr_scan"}, "is_reserved": 0, "name": "4a09059d940b34acff22d2386cbabe55", "lon": -77.02003933333333, "type": "electric_scooter", "bike_id": "4a09059d940b34acff22d2386cbabe55", "fusion_lon": 0.0, "lat": 38.915827, "fusion_lat": 0.0}, {"is_disabled": 0, "rental_uris": {"android": "https://dc.lft.to/lastmile_qr_scan", "ios": "https://dc.lft.to/lastmile_qr_scan"}, "is_reserved": 0, "name": "a3003093fd099667e693f282c812e034", "lon": -77.03629683333334, "type": "electric_scooter", "bike_id": "a3003093fd099667e693f282c812e034", "fusion_lon": 0.0, "lat": 38.91042516666667, "fusion_lat": 0.0}, {"is_disabled": 0, "rental_uris": {"android": "https://dc.lft.to/lastmile_qr_scan", "ios": "https://dc.lft.to/lastmile_qr_scan"}, "is_reserved": 0, "name": "44a53eab4342136474346f9ed8ee7255", "lon": -77.03873116666666, "type": "electric_scooter", "bike_id": "44a53eab4342136474346f9ed8ee7255", "fusion_lon": 0.0, "lat": 38.915631, "fusion_lat": 0.0}, {"is_disabled": 0, "rental_uris": {"android": "https://dc.lft.to/lastmile_qr_scan", "ios": "https://dc.lft.to/lastmile_qr_scan"}, "is_reserved": 0, "name": "dab2f4c5e6f39ec75f060886ba0d1ddc", "lon": -77.025145, "type": "electric_scooter", "bike_id": "dab2f4c5e6f39ec75f060886ba0d1ddc", "fusion_lon": 0.0, "lat": 38.91925416666667, "fusion_lat": 0.0}, {"is_disabled": 0, "rental_uris": {"android": "https://dc.lft.to/lastmile_qr_scan", "ios": "https://dc.lft.to/lastmile_qr_scan"}, "is_reserved": 0, "name": "abce774a98441421d6b83e69cbe16d62", "lon": -77.003578, "type": "electric_scooter", "bike_id": "abce774a98441421d6b83e69cbe16d62", "fusion_lon": 0.0, "lat": 38.87768116666667, "fusion_lat": 0.0}, {"is_disabled": 0, "rental_uris": {"android": "https://dc.lft.to/lastmile_qr_scan", "ios": "https://dc.lft.to/lastmile_qr_scan"}, "is_reserved": 0, "name": "f460d05623a2d46bfc0984304230f71e", "lon": -77.02840266666666, "type": "electric_scooter", "bike_id": "f460d05623a2d46bfc0984304230f71e", "fusion_lon": 0.0, "lat": 38.931941333333334, "fusion_lat": 0.0}, {"is_disabled": 0, "rental_uris": {"android": "https://dc.lft.to/lastmile_qr_scan", "ios": "https://dc.lft.to/lastmile_qr_scan"}, "is_reserved": 0, "name": "a5447b72dce8ceae3f7db94a4a1a7646", "lon": -77.17804316666667, "type": "electric_bike", "bike_id": "a5447b72dce8ceae3f7db94a4a1a7646", "fusion_lon": 0.0, "lat": 39.08846, "fusion_lat": 0.0}, {"is_disabled": 0, "rental_uris": {"android": "https://dc.lft.to/lastmile_qr_scan", "ios": "https://dc.lft.to/lastmile_qr_scan"}, "is_reserved": 0, "name": "b24fb23b31196a4d08b2a881805bb6e9", "lon": -77.035824, "type": "electric_scooter", "bike_id": "b24fb23b31196a4d08b2a881805bb6e9", "fusion_lon": 0.0, "lat": 38.90764516666667, "fusion_lat": 0.0}, {"is_disabled": 0, "rental_uris": {"android": "https://dc.lft.to/lastmile_qr_scan", "ios": "https://dc.lft.to/lastmile_qr_scan"}, "is_reserved": 0, "name": "9f2afcfbb7f4b5e8e3126678348567a7", "lon": -77.0512405, "type": "electric_scooter", "bike_id": "9f2afcfbb7f4b5e8e3126678348567a7", "fusion_lon": 0.0, "lat": 38.923463166666664, "fusion_lat": 0.0}, {"is_disabled": 0, "rental_uris": {"android": "https://dc.lft.to/lastmile_qr_scan", "ios": "https://dc.lft.to/lastmile_qr_scan"}, "is_reserved": 0, "name": "6ea2728d3069d6ad8c738c277918de82", "lon": -77.02921916666666, "type": "electric_bike", "bike_id": "6ea2728d3069d6ad8c738c277918de82", "fusion_lon": 0.0, "lat": 38.9056875, "fusion_lat": 0.0}, {"is_disabled": 0, "rental_uris": {"android": "https://dc.lft.to/lastmile_qr_scan", "ios": "https://dc.lft.to/lastmile_qr_scan"}, "is_reserved": 0, "name": "524d22d9d1cee500fb30e311ebf1fd98", "lon": -76.988875, "type": "electric_scooter", "bike_id": "524d22d9d1cee500fb30e311ebf1fd98", "fusion_lon": 0.0, "lat": 38.86674983333333, "fusion_lat": 0.0}, {"is_disabled": 0, "rental_uris": {"android": "https://dc.lft.to/lastmile_qr_scan", "ios": "https://dc.lft.to/lastmile_qr_scan"}, "is_reserved": 0, "name": "856201bf72a11ee14f37219ba2fa68a5", "lon": -77.04997666666667, "type": "electric_scooter", "bike_id": "856201bf72a11ee14f37219ba2fa68a5", "fusion_lon": 0.0, "lat": 38.89764616666667, "fusion_lat": 0.0}, {"is_disabled": 0, "rental_uris": {"android": "https://dc.lft.to/lastmile_qr_scan", "ios": "https://dc.lft.to/lastmile_qr_scan"}, "is_reserved": 0, "name": "34881095da2f5ba6c18050a88f650b91", "lon": -77.032602, "type": "electric_scooter", "bike_id": "34881095da2f5ba6c18050a88f650b91", "fusion_lon": 0.0, "lat": 38.91326166666666, "fusion_lat": 0.0}, {"is_disabled": 0, "rental_uris": {"android": "https://dc.lft.to/lastmile_qr_scan", "ios": "https://dc.lft.to/lastmile_qr_scan"}, "is_reserved": 0, "name": "ecebf6b5dde411a28cda462c226b6f26", "lon": -76.99008366666666, "type": "electric_scooter", "bike_id": "ecebf6b5dde411a28cda462c226b6f26", "fusion_lon": 0.0, "lat": 38.86505616666667, "fusion_lat": 0.0}, {"is_disabled": 0, "rental_uris": {"android": "https://dc.lft.to/lastmile_qr_scan", "ios": "https://dc.lft.to/lastmile_qr_scan"}, "is_reserved": 0, "name": "4f76f866ddc324b2178bd7ebdf025ff8", "lon": -77.03300066666667, "type": "electric_scooter", "bike_id": "4f76f866ddc324b2178bd7ebdf025ff8", "fusion_lon": 0.0, "lat": 38.920503, "fusion_lat": 0.0}, {"is_disabled": 0, "rental_uris": {"android": "https://dc.lft.to/lastmile_qr_scan", "ios": "https://dc.lft.to/lastmile_qr_scan"}, "is_reserved": 0, "name": "ad522b64f67476a60436205b08840dae", "lon": -77.0434705, "type": "electric_scooter", "bike_id": "ad522b64f67476a60436205b08840dae", "fusion_lon": 0.0, "lat": 38.89830583333333, "fusion_lat": 0.0}, {"is_disabled": 0, "rental_uris": {"android": "https://dc.lft.to/lastmile_qr_scan", "ios": "https://dc.lft.to/lastmile_qr_scan"}, "is_reserved": 0, "name": "60c19dbba87077f58b566a3868187926", "lon": -76.99605133333333, "type": "electric_scooter", "bike_id": "60c19dbba87077f58b566a3868187926", "fusion_lon": 0.0, "lat": 38.90033916666667, "fusion_lat": 0.0}, {"is_disabled": 0, "rental_uris": {"android": "https://dc.lft.to/lastmile_qr_scan", "ios": "https://dc.lft.to/lastmile_qr_scan"}, "is_reserved": 0, "name": "65f1c8bf5bee3e128f20ccdf2318af08", "lon": -76.95414666666667, "type": "electric_scooter", "bike_id": "65f1c8bf5bee3e128f20ccdf2318af08", "fusion_lon": 0.0, "lat": 38.88414566666667, "fusion_lat": 0.0}, {"is_disabled": 0, "rental_uris": {"android": "https://dc.lft.to/lastmile_qr_scan", "ios": "https://dc.lft.to/lastmile_qr_scan"}, "is_reserved": 0, "name": "7f51830db5c57e27da1b4500225882ff", "lon": -77.04816883333334, "type": "electric_scooter", "bike_id": "7f51830db5c57e27da1b4500225882ff", "fusion_lon": 0.0, "lat": 38.90457383333333, "fusion_lat": 0.0}, {"is_disabled": 0, "rental_uris": {"android": "https://dc.lft.to/lastmile_qr_scan", "ios": "https://dc.lft.to/lastmile_qr_scan"}, "is_reserved": 0, "name": "f6b31a8bf590e6bd410f3797c812278e", "lon": -77.000725, "type": "electric_scooter", "bike_id": "f6b31a8bf590e6bd410f3797c812278e", "fusion_lon": 0.0, "lat": 38.900530333333336, "fusion_lat": 0.0}, {"is_disabled": 0, "rental_uris": {"android": "https://dc.lft.to/lastmile_qr_scan", "ios": "https://dc.lft.to/lastmile_qr_scan"}, "is_reserved": 0, "name": "5a20ac9ffe9193216d93d29c5b344816", "lon": -77.0319545, "type": "electric_scooter", "bike_id": "5a20ac9ffe9193216d93d29c5b344816", "fusion_lon": 0.0, "lat": 38.910090333333336, "fusion_lat": 0.0}, {"is_disabled": 0, "rental_uris": {"android": "https://dc.lft.to/lastmile_qr_scan", "ios": "https://dc.lft.to/lastmile_qr_scan"}, "is_reserved": 0, "name": "ecbdb578184a9d014fdd5754c8e4c3c1", "lon": -77.02499016666667, "type": "electric_bike", "bike_id": "ecbdb578184a9d014fdd5754c8e4c3c1", "fusion_lon": 0.0, "lat": 38.97404066666667, "fusion_lat": 0.0}, {"is_disabled": 0, "rental_uris": {"android": "https://dc.lft.to/lastmile_qr_scan", "ios": "https://dc.lft.to/lastmile_qr_scan"}, "is_reserved": 0, "name": "60526d804303ffe6a06b68646d39aaa0", "lon": -77.00199333333333, "type": "electric_scooter", "bike_id": "60526d804303ffe6a06b68646d39aaa0", "fusion_lon": 0.0, "lat": 38.902438833333335, "fusion_lat": 0.0}, {"is_disabled": 0, "rental_uris": {"android": "https://dc.lft.to/lastmile_qr_scan", "ios": "https://dc.lft.to/lastmile_qr_scan"}, "is_reserved": 0, "name": "2cc27e1c17ecd1671d55f74129ee33bb", "lon": -77.00541533333333, "type": "electric_scooter", "bike_id": "2cc27e1c17ecd1671d55f74129ee33bb", "fusion_lon": 0.0, "lat": 38.8770685, "fusion_lat": 0.0}, {"is_disabled": 0, "rental_uris": {"android": "https://dc.lft.to/lastmile_qr_scan", "ios": "https://dc.lft.to/lastmile_qr_scan"}, "is_reserved": 0, "name": "a7c9ffee47b304e86d186c0c020f6b30", "lon": -77.03452116666666, "type": "electric_scooter", "bike_id": "a7c9ffee47b304e86d186c0c020f6b30", "fusion_lon": 0.0, "lat": 38.92546333333333, "fusion_lat": 0.0}, {"is_disabled": 0, "rental_uris": {"android": "https://dc.lft.to/lastmile_qr_scan", "ios": "https://dc.lft.to/lastmile_qr_scan"}, "is_reserved": 0, "name": "8a8468b62b7c61c86d2f1ee7dc7dece5", "lon": -77.05475833333334, "type": "electric_scooter", "bike_id": "8a8468b62b7c61c86d2f1ee7dc7dece5", "fusion_lon": 0.0, "lat": 38.90437083333333, "fusion_lat": 0.0}, {"is_disabled": 0, "rental_uris": {"android": "https://dc.lft.to/lastmile_qr_scan", "ios": "https://dc.lft.to/lastmile_qr_scan"}, "is_reserved": 0, "name": "41690eef4563d17b0941622207776497", "lon": -76.93358533333334, "type": "electric_scooter", "bike_id": "41690eef4563d17b0941622207776497", "fusion_lon": 0.0, "lat": 38.901948166666664, "fusion_lat": 0.0}, {"is_disabled": 0, "rental_uris": {"android": "https://dc.lft.to/lastmile_qr_scan", "ios": "https://dc.lft.to/lastmile_qr_scan"}, "is_reserved": 0, "name": "f3417a80845847def59bd55bcbc77477", "lon": -77.01877833333333, "type": "electric_scooter", "bike_id": "f3417a80845847def59bd55bcbc77477", "fusion_lon": 0.0, "lat": 38.900308, "fusion_lat": 0.0}, {"is_disabled": 0, "rental_uris": {"android": "https://dc.lft.to/lastmile_qr_scan", "ios": "https://dc.lft.to/lastmile_qr_scan"}, "is_reserved": 0, "name": "5394ceb1e124ea3ee52c5c0d2d13ca99", "lon": -77.03809833333334, "type": "electric_bike", "bike_id": "5394ceb1e124ea3ee52c5c0d2d13ca99", "fusion_lon": 0.0, "lat": 38.9968895, "fusion_lat": 0.0}, {"is_disabled": 0, "rental_uris": {"android": "https://dc.lft.to/lastmile_qr_scan", "ios": "https://dc.lft.to/lastmile_qr_scan"}, "is_reserved": 0, "name": "afd0685a3dea9dad39429060b5240887", "lon": -77.098336, "type": "electric_bike", "bike_id": "afd0685a3dea9dad39429060b5240887", "fusion_lon": 0.0, "lat": 38.857912, "fusion_lat": 0.0}, {"is_disabled": 0, "rental_uris": {"android": "https://dc.lft.to/lastmile_qr_scan", "ios": "https://dc.lft.to/lastmile_qr_scan"}, "is_reserved": 0, "name": "2ade3d53d467f06fb89f2536063ffc6a", "lon": -77.02227216666667, "type": "electric_scooter", "bike_id": "2ade3d53d467f06fb89f2536063ffc6a", "fusion_lon": 0.0, "lat": 38.8922195, "fusion_lat": 0.0}, {"is_disabled": 0, "rental_uris": {"android": "https://dc.lft.to/lastmile_qr_scan", "ios": "https://dc.lft.to/lastmile_qr_scan"}, "is_reserved": 0, "name": "32318b190de6f68497b6d9310b56fe94", "lon": -77.02177033333334, "type": "electric_scooter", "bike_id": "32318b190de6f68497b6d9310b56fe94", "fusion_lon": 0.0, "lat": 38.9429245, "fusion_lat": 0.0}, {"is_disabled": 0, "rental_uris": {"android": "https://dc.lft.to/lastmile_qr_scan", "ios": "https://dc.lft.to/lastmile_qr_scan"}, "is_reserved": 0, "name": "c022a2d0171ed8736898e21a212aef65", "lon": -77.03885133333333, "type": "electric_scooter", "bike_id": "c022a2d0171ed8736898e21a212aef65", "fusion_lon": 0.0, "lat": 38.91561816666667, "fusion_lat": 0.0}, {"is_disabled": 0, "rental_uris": {"android": "https://dc.lft.to/lastmile_qr_scan", "ios": "https://dc.lft.to/lastmile_qr_scan"}, "is_reserved": 0, "name": "e8fe1a357689cea0248e926f7fe2c9f0", "lon": -76.93527633333333, "type": "electric_scooter", "bike_id": "e8fe1a357689cea0248e926f7fe2c9f0", "fusion_lon": 0.0, "lat": 38.878997166666664, "fusion_lat": 0.0}, {"is_disabled": 0, "rental_uris": {"android": "https://dc.lft.to/lastmile_qr_scan", "ios": "https://dc.lft.to/lastmile_qr_scan"}, "is_reserved": 0, "name": "139d9ead9c500113393f4f8d4d4e1c0c", "lon": -76.99079083333334, "type": "electric_scooter", "bike_id": "139d9ead9c500113393f4f8d4d4e1c0c", "fusion_lon": 0.0, "lat": 38.9042215, "fusion_lat": 0.0}, {"is_disabled": 0, "rental_uris": {"android": "https://dc.lft.to/lastmile_qr_scan", "ios": "https://dc.lft.to/lastmile_qr_scan"}, "is_reserved": 0, "name": "fb08f38c10048acb699a2158543ee73c", "lon": -77.03099316666666, "type": "electric_scooter", "bike_id": "fb08f38c10048acb699a2158543ee73c", "fusion_lon": 0.0, "lat": 38.928608833333335, "fusion_lat": 0.0}, {"is_disabled": 0, "rental_uris": {"android": "https://dc.lft.to/lastmile_qr_scan", "ios": "https://dc.lft.to/lastmile_qr_scan"}, "is_reserved": 0, "name": "83f9438d85fdc943292bfb1b0357fa39", "lon": -77.08785783333333, "type": "electric_bike", "bike_id": "83f9438d85fdc943292bfb1b0357fa39", "fusion_lon": 0.0, "lat": 38.82335533333333, "fusion_lat": 0.0}, {"is_disabled": 0, "rental_uris": {"android": "https://dc.lft.to/lastmile_qr_scan", "ios": "https://dc.lft.to/lastmile_qr_scan"}, "is_reserved": 0, "name": "580663e49c29e1ffcf30cf0d268d509c", "lon": -76.9949225, "type": "electric_scooter", "bike_id": "580663e49c29e1ffcf30cf0d268d509c", "fusion_lon": 0.0, "lat": 38.925792333333334, "fusion_lat": 0.0}, {"is_disabled": 0, "rental_uris": {"android": "https://dc.lft.to/lastmile_qr_scan", "ios": "https://dc.lft.to/lastmile_qr_scan"}, "is_reserved": 0, "name": "9973fa6679b0df47c10d33c57a58d0b6", "lon": -77.03762966666666, "type": "electric_scooter", "bike_id": "9973fa6679b0df47c10d33c57a58d0b6", "fusion_lon": 0.0, "lat": 38.929063666666664, "fusion_lat": 0.0}, {"is_disabled": 0, "rental_uris": {"android": "https://dc.lft.to/lastmile_qr_scan", "ios": "https://dc.lft.to/lastmile_qr_scan"}, "is_reserved": 0, "name": "94c6d7d85e560617a8ec09c48201589d", "lon": -77.042467, "type": "electric_scooter", "bike_id": "94c6d7d85e560617a8ec09c48201589d", "fusion_lon": 0.0, "lat": 38.92221216666667, "fusion_lat": 0.0}, {"is_disabled": 0, "rental_uris": {"android": "https://dc.lft.to/lastmile_qr_scan", "ios": "https://dc.lft.to/lastmile_qr_scan"}, "is_reserved": 0, "name": "3552d3e0e69ced9fdaf039b8e84a976d", "lon": -77.02184966666667, "type": "electric_scooter", "bike_id": "3552d3e0e69ced9fdaf039b8e84a976d", "fusion_lon": 0.0, "lat": 38.89947766666667, "fusion_lat": 0.0}, {"is_disabled": 0, "rental_uris": {"android": "https://dc.lft.to/lastmile_qr_scan", "ios": "https://dc.lft.to/lastmile_qr_scan"}, "is_reserved": 0, "name": "08933aaebab6bd0e6bda09fbf4f87dc9", "lon": -77.048704, "type": "electric_scooter", "bike_id": "08933aaebab6bd0e6bda09fbf4f87dc9", "fusion_lon": 0.0, "lat": 38.90950633333333, "fusion_lat": 0.0}, {"is_disabled": 0, "rental_uris": {"android": "https://dc.lft.to/lastmile_qr_scan", "ios": "https://dc.lft.to/lastmile_qr_scan"}, "is_reserved": 0, "name": "6fbac91764db8c53f5b2580cc48f5eac", "lon": -77.03126083333333, "type": "electric_scooter", "bike_id": "6fbac91764db8c53f5b2580cc48f5eac", "fusion_lon": 0.0, "lat": 38.9201715, "fusion_lat": 0.0}, {"is_disabled": 0, "rental_uris": {"android": "https://dc.lft.to/lastmile_qr_scan", "ios": "https://dc.lft.to/lastmile_qr_scan"}, "is_reserved": 0, "name": "365f8ecc937a546d06163ec137b2fc16", "lon": -77.038739, "type": "electric_scooter", "bike_id": "365f8ecc937a546d06163ec137b2fc16", "fusion_lon": 0.0, "lat": 38.90812183333333, "fusion_lat": 0.0}, {"is_disabled": 0, "rental_uris": {"android": "https://dc.lft.to/lastmile_qr_scan", "ios": "https://dc.lft.to/lastmile_qr_scan"}, "is_reserved": 0, "name": "04cb251f9fe3db888312517c65a558fb", "lon": -77.03269116666667, "type": "electric_scooter", "bike_id": "04cb251f9fe3db888312517c65a558fb", "fusion_lon": 0.0, "lat": 38.9156305, "fusion_lat": 0.0}, {"is_disabled": 0, "rental_uris": {"android": "https://dc.lft.to/lastmile_qr_scan", "ios": "https://dc.lft.to/lastmile_qr_scan"}, "is_reserved": 0, "name": "409caa793f83251afbb30b858be91402", "lon": -77.04489066666666, "type": "electric_scooter", "bike_id": "409caa793f83251afbb30b858be91402", "fusion_lon": 0.0, "lat": 38.911698666666666, "fusion_lat": 0.0}, {"is_disabled": 0, "rental_uris": {"android": "https://dc.lft.to/lastmile_qr_scan", "ios": "https://dc.lft.to/lastmile_qr_scan"}, "is_reserved": 0, "name": "973d66c59b885c6cc452ac276a54b399", "lon": -77.01614716666667, "type": "electric_scooter", "bike_id": "973d66c59b885c6cc452ac276a54b399", "fusion_lon": 0.0, "lat": 38.8787275, "fusion_lat": 0.0}, {"is_disabled": 0, "rental_uris": {"android": "https://dc.lft.to/lastmile_qr_scan", "ios": "https://dc.lft.to/lastmile_qr_scan"}, "is_reserved": 0, "name": "67674740343e3bf6b30da0ece1852e3a", "lon": -77.05052366666666, "type": "electric_scooter", "bike_id": "67674740343e3bf6b30da0ece1852e3a", "fusion_lon": 0.0, "lat": 38.9236835, "fusion_lat": 0.0}, {"is_disabled": 0, "rental_uris": {"android": "https://dc.lft.to/lastmile_qr_scan", "ios": "https://dc.lft.to/lastmile_qr_scan"}, "is_reserved": 0, "name": "f0f7cc42a189793f9631d33892e8686e", "lon": -76.96531533333334, "type": "electric_scooter", "bike_id": "f0f7cc42a189793f9631d33892e8686e", "fusion_lon": 0.0, "lat": 38.876265833333335, "fusion_lat": 0.0}, {"is_disabled": 0, "rental_uris": {"android": "https://dc.lft.to/lastmile_qr_scan", "ios": "https://dc.lft.to/lastmile_qr_scan"}, "is_reserved": 0, "name": "af3ea4826e86587717eef37467312aef", "lon": -77.03040833333333, "type": "electric_scooter", "bike_id": "af3ea4826e86587717eef37467312aef", "fusion_lon": 0.0, "lat": 38.931226333333335, "fusion_lat": 0.0}, {"is_disabled": 0, "rental_uris": {"android": "https://dc.lft.to/lastmile_qr_scan", "ios": "https://dc.lft.to/lastmile_qr_scan"}, "is_reserved": 0, "name": "f7cc71326a539cc27e7e7729bafceb78", "lon": -77.04702483333334, "type": "electric_scooter", "bike_id": "f7cc71326a539cc27e7e7729bafceb78", "fusion_lon": 0.0, "lat": 38.897488833333334, "fusion_lat": 0.0}, {"is_disabled": 0, "rental_uris": {"android": "https://dc.lft.to/lastmile_qr_scan", "ios": "https://dc.lft.to/lastmile_qr_scan"}, "is_reserved": 0, "name": "7736f7bbb25ad7f4fc05e315381ccdf2", "lon": -77.03636316666666, "type": "electric_scooter", "bike_id": "7736f7bbb25ad7f4fc05e315381ccdf2", "fusion_lon": 0.0, "lat": 38.930491, "fusion_lat": 0.0}, {"is_disabled": 0, "rental_uris": {"android": "https://dc.lft.to/lastmile_qr_scan", "ios": "https://dc.lft.to/lastmile_qr_scan"}, "is_reserved": 0, "name": "e3878fe80c21a017318d4c6b145fc223", "lon": -77.02688016666667, "type": "electric_scooter", "bike_id": "e3878fe80c21a017318d4c6b145fc223", "fusion_lon": 0.0, "lat": 38.9063605, "fusion_lat": 0.0}, {"is_disabled": 0, "rental_uris": {"android": "https://dc.lft.to/lastmile_qr_scan", "ios": "https://dc.lft.to/lastmile_qr_scan"}, "is_reserved": 0, "name": "483ba8f84a0a9fef8a42a8d14a84a136", "lon": -77.0494195, "type": "electric_scooter", "bike_id": "483ba8f84a0a9fef8a42a8d14a84a136", "fusion_lon": 0.0, "lat": 38.907286166666665, "fusion_lat": 0.0}, {"is_disabled": 0, "rental_uris": {"android": "https://dc.lft.to/lastmile_qr_scan", "ios": "https://dc.lft.to/lastmile_qr_scan"}, "is_reserved": 0, "name": "e461746429ba5bcfe78fa4a36936b677", "lon": -77.00155816666667, "type": "electric_scooter", "bike_id": "e461746429ba5bcfe78fa4a36936b677", "fusion_lon": 0.0, "lat": 38.87382366666667, "fusion_lat": 0.0}, {"is_disabled": 0, "rental_uris": {"android": "https://dc.lft.to/lastmile_qr_scan", "ios": "https://dc.lft.to/lastmile_qr_scan"}, "is_reserved": 0, "name": "f2bbc5881d1b7d844c44e46d37cca90a", "lon": -77.02475983333333, "type": "electric_scooter", "bike_id": "f2bbc5881d1b7d844c44e46d37cca90a", "fusion_lon": 0.0, "lat": 38.9385805, "fusion_lat": 0.0}, {"is_disabled": 0, "rental_uris": {"android": "https://dc.lft.to/lastmile_qr_scan", "ios": "https://dc.lft.to/lastmile_qr_scan"}, "is_reserved": 0, "name": "fcce182230d030c2ba64df1ead7a7d9c", "lon": -77.01193116666667, "type": "electric_scooter", "bike_id": "fcce182230d030c2ba64df1ead7a7d9c", "fusion_lon": 0.0, "lat": 38.90368566666667, "fusion_lat": 0.0}, {"is_disabled": 0, "rental_uris": {"android": "https://dc.lft.to/lastmile_qr_scan", "ios": "https://dc.lft.to/lastmile_qr_scan"}, "is_reserved": 0, "name": "597b73706d7e214985b0126208b88c83", "lon": -77.02893883333333, "type": "electric_scooter", "bike_id": "597b73706d7e214985b0126208b88c83", "fusion_lon": 0.0, "lat": 38.901402, "fusion_lat": 0.0}, {"is_disabled": 0, "rental_uris": {"android": "https://dc.lft.to/lastmile_qr_scan", "ios": "https://dc.lft.to/lastmile_qr_scan"}, "is_reserved": 0, "name": "834c45988f843eab5a68a6a3cf369117", "lon": -77.0337805, "type": "electric_scooter", "bike_id": "834c45988f843eab5a68a6a3cf369117", "fusion_lon": 0.0, "lat": 38.92156383333333, "fusion_lat": 0.0}, {"is_disabled": 0, "rental_uris": {"android": "https://dc.lft.to/lastmile_qr_scan", "ios": "https://dc.lft.to/lastmile_qr_scan"}, "is_reserved": 0, "name": "c0bd2952b8c812475655edd687020eac", "lon": -77.028074, "type": "electric_scooter", "bike_id": "c0bd2952b8c812475655edd687020eac", "fusion_lon": 0.0, "lat": 38.962158333333335, "fusion_lat": 0.0}, {"is_disabled": 0, "rental_uris": {"android": "https://dc.lft.to/lastmile_qr_scan", "ios": "https://dc.lft.to/lastmile_qr_scan"}, "is_reserved": 0, "name": "ffa0a79bd17bd13cdd43c175173f282e", "lon": -77.0363625, "type": "electric_scooter", "bike_id": "ffa0a79bd17bd13cdd43c175173f282e", "fusion_lon": 0.0, "lat": 38.9428505, "fusion_lat": 0.0}, {"is_disabled": 0, "rental_uris": {"android": "https://dc.lft.to/lastmile_qr_scan", "ios": "https://dc.lft.to/lastmile_qr_scan"}, "is_reserved": 0, "name": "89a57605b88db67e4ca74165490a1c38", "lon": -77.03176783333333, "type": "electric_scooter", "bike_id": "89a57605b88db67e4ca74165490a1c38", "fusion_lon": 0.0, "lat": 38.91416316666667, "fusion_lat": 0.0}, {"is_disabled": 0, "rental_uris": {"android": "https://dc.lft.to/lastmile_qr_scan", "ios": "https://dc.lft.to/lastmile_qr_scan"}, "is_reserved": 0, "name": "b798d0a09de3b31e3da7bcfc780d4749", "lon": -77.02704333333334, "type": "electric_scooter", "bike_id": "b798d0a09de3b31e3da7bcfc780d4749", "fusion_lon": 0.0, "lat": 38.94982233333333, "fusion_lat": 0.0}, {"is_disabled": 0, "rental_uris": {"android": "https://dc.lft.to/lastmile_qr_scan", "ios": "https://dc.lft.to/lastmile_qr_scan"}, "is_reserved": 0, "name": "e889944913c72645e64ada16fd297114", "lon": -77.00669616666667, "type": "electric_bike", "bike_id": "e889944913c72645e64ada16fd297114", "fusion_lon": 0.0, "lat": 38.94504533333333, "fusion_lat": 0.0}, {"is_disabled": 0, "rental_uris": {"android": "https://dc.lft.to/lastmile_qr_scan", "ios": "https://dc.lft.to/lastmile_qr_scan"}, "is_reserved": 0, "name": "c60b05efe85eda063d96ce103158c359", "lon": -77.03156683333333, "type": "electric_scooter", "bike_id": "c60b05efe85eda063d96ce103158c359", "fusion_lon": 0.0, "lat": 38.92860133333333, "fusion_lat": 0.0}, {"is_disabled": 0, "rental_uris": {"android": "https://dc.lft.to/lastmile_qr_scan", "ios": "https://dc.lft.to/lastmile_qr_scan"}, "is_reserved": 0, "name": "00de0768765f901e0de6316c3f7c205c", "lon": -77.05212483333334, "type": "electric_scooter", "bike_id": "00de0768765f901e0de6316c3f7c205c", "fusion_lon": 0.0, "lat": 38.92479016666667, "fusion_lat": 0.0}, {"is_disabled": 0, "rental_uris": {"android": "https://dc.lft.to/lastmile_qr_scan", "ios": "https://dc.lft.to/lastmile_qr_scan"}, "is_reserved": 0, "name": "88ed22c907d720d2fb4cbaabb34b5dc2", "lon": -77.03854283333334, "type": "electric_scooter", "bike_id": "88ed22c907d720d2fb4cbaabb34b5dc2", "fusion_lon": 0.0, "lat": 38.93202816666667, "fusion_lat": 0.0}, {"is_disabled": 0, "rental_uris": {"android": "https://dc.lft.to/lastmile_qr_scan", "ios": "https://dc.lft.to/lastmile_qr_scan"}, "is_reserved": 0, "name": "8e3feb1a7c4614b34e6cd404d4dd174a", "lon": -76.94632866666667, "type": "electric_scooter", "bike_id": "8e3feb1a7c4614b34e6cd404d4dd174a", "fusion_lon": 0.0, "lat": 38.89834583333333, "fusion_lat": 0.0}, {"is_disabled": 0, "rental_uris": {"android": "https://dc.lft.to/lastmile_qr_scan", "ios": "https://dc.lft.to/lastmile_qr_scan"}, "is_reserved": 0, "name": "f6e9449400d80a097b517ef78e3c86ee", "lon": -77.05942216666666, "type": "electric_scooter", "bike_id": "f6e9449400d80a097b517ef78e3c86ee", "fusion_lon": 0.0, "lat": 38.936832, "fusion_lat": 0.0}, {"is_disabled": 0, "rental_uris": {"android": "https://dc.lft.to/lastmile_qr_scan", "ios": "https://dc.lft.to/lastmile_qr_scan"}, "is_reserved": 0, "name": "0d50a37c7af9b1f04d8d378a531e205d", "lon": -77.032573, "type": "electric_scooter", "bike_id": "0d50a37c7af9b1f04d8d378a531e205d", "fusion_lon": 0.0, "lat": 38.937005666666664, "fusion_lat": 0.0}, {"is_disabled": 0, "rental_uris": {"android": "https://dc.lft.to/lastmile_qr_scan", "ios": "https://dc.lft.to/lastmile_qr_scan"}, "is_reserved": 0, "name": "4e53627c55058be707125da94b388bb5", "lon": -76.9985625, "type": "electric_scooter", "bike_id": "4e53627c55058be707125da94b388bb5", "fusion_lon": 0.0, "lat": 38.908971666666666, "fusion_lat": 0.0}, {"is_disabled": 0, "rental_uris": {"android": "https://dc.lft.to/lastmile_qr_scan", "ios": "https://dc.lft.to/lastmile_qr_scan"}, "is_reserved": 0, "name": "5f5d8b58641fbc9c19093ec5df50d36c", "lon": -77.03058166666666, "type": "electric_scooter", "bike_id": "5f5d8b58641fbc9c19093ec5df50d36c", "fusion_lon": 0.0, "lat": 38.923694, "fusion_lat": 0.0}, {"is_disabled": 0, "rental_uris": {"android": "https://dc.lft.to/lastmile_qr_scan", "ios": "https://dc.lft.to/lastmile_qr_scan"}, "is_reserved": 0, "name": "477a0573b211252e1c8521a9ce9c60e4", "lon": -77.00757066666667, "type": "electric_scooter", "bike_id": "477a0573b211252e1c8521a9ce9c60e4", "fusion_lon": 0.0, "lat": 38.91029433333333, "fusion_lat": 0.0}, {"is_disabled": 0, "rental_uris": {"android": "https://dc.lft.to/lastmile_qr_scan", "ios": "https://dc.lft.to/lastmile_qr_scan"}, "is_reserved": 0, "name": "4eab42ade23f80eb710a5a97d2f33dcf", "lon": -77.05010116666666, "type": "electric_scooter", "bike_id": "4eab42ade23f80eb710a5a97d2f33dcf", "fusion_lon": 0.0, "lat": 38.90520816666667, "fusion_lat": 0.0}, {"is_disabled": 0, "rental_uris": {"android": "https://dc.lft.to/lastmile_qr_scan", "ios": "https://dc.lft.to/lastmile_qr_scan"}, "is_reserved": 0, "name": "011b040879f143e18b940ea61273c156", "lon": -77.04567133333333, "type": "electric_scooter", "bike_id": "011b040879f143e18b940ea61273c156", "fusion_lon": 0.0, "lat": 38.913162666666665, "fusion_lat": 0.0}, {"is_disabled": 0, "rental_uris": {"android": "https://dc.lft.to/lastmile_qr_scan", "ios": "https://dc.lft.to/lastmile_qr_scan"}, "is_reserved": 0, "name": "f5b7d2f852c86c0f3d7a80ebd25ca048", "lon": -77.04225166666667, "type": "electric_scooter", "bike_id": "f5b7d2f852c86c0f3d7a80ebd25ca048", "fusion_lon": 0.0, "lat": 38.90777883333333, "fusion_lat": 0.0}, {"is_disabled": 0, "rental_uris": {"android": "https://dc.lft.to/lastmile_qr_scan", "ios": "https://dc.lft.to/lastmile_qr_scan"}, "is_reserved": 0, "name": "4e2819fe0b147d7c758ec27a576ffa4e", "lon": -76.98318933333333, "type": "electric_bike", "bike_id": "4e2819fe0b147d7c758ec27a576ffa4e", "fusion_lon": 0.0, "lat": 38.92253683333333, "fusion_lat": 0.0}, {"is_disabled": 0, "rental_uris": {"android": "https://dc.lft.to/lastmile_qr_scan", "ios": "https://dc.lft.to/lastmile_qr_scan"}, "is_reserved": 0, "name": "bfb674ba13a4ba93a859df29444ef269", "lon": -77.007411, "type": "electric_scooter", "bike_id": "bfb674ba13a4ba93a859df29444ef269", "fusion_lon": 0.0, "lat": 38.90360783333333, "fusion_lat": 0.0}, {"is_disabled": 0, "rental_uris": {"android": "https://dc.lft.to/lastmile_qr_scan", "ios": "https://dc.lft.to/lastmile_qr_scan"}, "is_reserved": 0, "name": "ce5df50279417d813e087845fccae8e7", "lon": -76.99871083333333, "type": "electric_scooter", "bike_id": "ce5df50279417d813e087845fccae8e7", "fusion_lon": 0.0, "lat": 38.900308333333335, "fusion_lat": 0.0}, {"is_disabled": 0, "rental_uris": {"android": "https://dc.lft.to/lastmile_qr_scan", "ios": "https://dc.lft.to/lastmile_qr_scan"}, "is_reserved": 0, "name": "22600ab2609614bfb0b1bb535d9ba518", "lon": -76.93179366666666, "type": "electric_scooter", "bike_id": "22600ab2609614bfb0b1bb535d9ba518", "fusion_lon": 0.0, "lat": 38.8812675, "fusion_lat": 0.0}, {"is_disabled": 0, "rental_uris": {"android": "https://dc.lft.to/lastmile_qr_scan", "ios": "https://dc.lft.to/lastmile_qr_scan"}, "is_reserved": 0, "name": "3c0f3c57e272d1b5a08d698ed9934d7b", "lon": -77.0154025, "type": "electric_scooter", "bike_id": "3c0f3c57e272d1b5a08d698ed9934d7b", "fusion_lon": 0.0, "lat": 38.88739133333333, "fusion_lat": 0.0}, {"is_disabled": 0, "rental_uris": {"android": "https://dc.lft.to/lastmile_qr_scan", "ios": "https://dc.lft.to/lastmile_qr_scan"}, "is_reserved": 0, "name": "c395007adc0c6e275a575791d2c99056", "lon": -76.90545816666666, "type": "electric_bike", "bike_id": "c395007adc0c6e275a575791d2c99056", "fusion_lon": 0.0, "lat": 38.89734166666667, "fusion_lat": 0.0}, {"is_disabled": 0, "rental_uris": {"android": "https://dc.lft.to/lastmile_qr_scan", "ios": "https://dc.lft.to/lastmile_qr_scan"}, "is_reserved": 0, "name": "7cf3abd63871e0f27de20dde1b8c3d10", "lon": -77.07274616666666, "type": "electric_scooter", "bike_id": "7cf3abd63871e0f27de20dde1b8c3d10", "fusion_lon": 0.0, "lat": 38.93470966666667, "fusion_lat": 0.0}, {"is_disabled": 0, "rental_uris": {"android": "https://dc.lft.to/lastmile_qr_scan", "ios": "https://dc.lft.to/lastmile_qr_scan"}, "is_reserved": 0, "name": "111a432162acd2202d3e14236a756a47", "lon": -77.014099, "type": "electric_scooter", "bike_id": "111a432162acd2202d3e14236a756a47", "fusion_lon": 0.0, "lat": 38.913994333333335, "fusion_lat": 0.0}, {"is_disabled": 0, "rental_uris": {"android": "https://dc.lft.to/lastmile_qr_scan", "ios": "https://dc.lft.to/lastmile_qr_scan"}, "is_reserved": 0, "name": "8dc293156e0677594dfdf7d6680d1fa1", "lon": -77.04215833333333, "type": "electric_scooter", "bike_id": "8dc293156e0677594dfdf7d6680d1fa1", "fusion_lon": 0.0, "lat": 38.91418133333333, "fusion_lat": 0.0}, {"is_disabled": 0, "rental_uris": {"android": "https://dc.lft.to/lastmile_qr_scan", "ios": "https://dc.lft.to/lastmile_qr_scan"}, "is_reserved": 0, "name": "535cbc31d06a1d3d3b0bcb902ee61130", "lon": -77.03391566666667, "type": "electric_scooter", "bike_id": "535cbc31d06a1d3d3b0bcb902ee61130", "fusion_lon": 0.0, "lat": 38.912682833333335, "fusion_lat": 0.0}, {"is_disabled": 0, "rental_uris": {"android": "https://dc.lft.to/lastmile_qr_scan", "ios": "https://dc.lft.to/lastmile_qr_scan"}, "is_reserved": 0, "name": "ce4b32d5acf5929c4a44e72bce021193", "lon": -77.0036975, "type": "electric_scooter", "bike_id": "ce4b32d5acf5929c4a44e72bce021193", "fusion_lon": 0.0, "lat": 38.88688366666667, "fusion_lat": 0.0}, {"is_disabled": 0, "rental_uris": {"android": "https://dc.lft.to/lastmile_qr_scan", "ios": "https://dc.lft.to/lastmile_qr_scan"}, "is_reserved": 0, "name": "6605b8757a0e6b26dae9a2586d68d750", "lon": -77.04411116666667, "type": "electric_bike", "bike_id": "6605b8757a0e6b26dae9a2586d68d750", "fusion_lon": 0.0, "lat": 39.0520515, "fusion_lat": 0.0}, {"is_disabled": 0, "rental_uris": {"android": "https://dc.lft.to/lastmile_qr_scan", "ios": "https://dc.lft.to/lastmile_qr_scan"}, "is_reserved": 0, "name": "4903e1f83f5b1aae84aed2a9d0cae2f2", "lon": -77.013783, "type": "electric_scooter", "bike_id": "4903e1f83f5b1aae84aed2a9d0cae2f2", "fusion_lon": 0.0, "lat": 38.88646466666667, "fusion_lat": 0.0}, {"is_disabled": 0, "rental_uris": {"android": "https://dc.lft.to/lastmile_qr_scan", "ios": "https://dc.lft.to/lastmile_qr_scan"}, "is_reserved": 0, "name": "920adc72d0bda5d8e83a989c0ae26b93", "lon": -77.0500085, "type": "electric_scooter", "bike_id": "920adc72d0bda5d8e83a989c0ae26b93", "fusion_lon": 0.0, "lat": 38.905178666666664, "fusion_lat": 0.0}, {"is_disabled": 0, "rental_uris": {"android": "https://dc.lft.to/lastmile_qr_scan", "ios": "https://dc.lft.to/lastmile_qr_scan"}, "is_reserved": 0, "name": "43194495fc82a3ee4933513a84add3e8", "lon": -77.01370616666667, "type": "electric_scooter", "bike_id": "43194495fc82a3ee4933513a84add3e8", "fusion_lon": 0.0, "lat": 38.92881366666667, "fusion_lat": 0.0}, {"is_disabled": 0, "rental_uris": {"android": "https://dc.lft.to/lastmile_qr_scan", "ios": "https://dc.lft.to/lastmile_qr_scan"}, "is_reserved": 0, "name": "324f50e46edf9356a91a0b91a3b70fb7", "lon": -77.0195725, "type": "electric_scooter", "bike_id": "324f50e46edf9356a91a0b91a3b70fb7", "fusion_lon": 0.0, "lat": 38.88381233333333, "fusion_lat": 0.0}, {"is_disabled": 0, "rental_uris": {"android": "https://dc.lft.to/lastmile_qr_scan", "ios": "https://dc.lft.to/lastmile_qr_scan"}, "is_reserved": 0, "name": "2ac10fa0cc77678e1797d948cff45e82", "lon": -77.04429266666666, "type": "electric_scooter", "bike_id": "2ac10fa0cc77678e1797d948cff45e82", "fusion_lon": 0.0, "lat": 38.9126, "fusion_lat": 0.0}, {"is_disabled": 0, "rental_uris": {"android": "https://dc.lft.to/lastmile_qr_scan", "ios": "https://dc.lft.to/lastmile_qr_scan"}, "is_reserved": 0, "name": "4aa5232d50e958abd1881a5cd35b3e12", "lon": -77.03837066666667, "type": "electric_scooter", "bike_id": "4aa5232d50e958abd1881a5cd35b3e12", "fusion_lon": 0.0, "lat": 38.91658233333333, "fusion_lat": 0.0}, {"is_disabled": 0, "rental_uris": {"android": "https://dc.lft.to/lastmile_qr_scan", "ios": "https://dc.lft.to/lastmile_qr_scan"}, "is_reserved": 0, "name": "b4589529f0d02a63367974cfc5b05b4e", "lon": -77.032482, "type": "electric_scooter", "bike_id": "b4589529f0d02a63367974cfc5b05b4e", "fusion_lon": 0.0, "lat": 38.91107866666667, "fusion_lat": 0.0}, {"is_disabled": 0, "rental_uris": {"android": "https://dc.lft.to/lastmile_qr_scan", "ios": "https://dc.lft.to/lastmile_qr_scan"}, "is_reserved": 0, "name": "676f85129e64ce58b838a6742b52f308", "lon": -77.0077655, "type": "electric_scooter", "bike_id": "676f85129e64ce58b838a6742b52f308", "fusion_lon": 0.0, "lat": 38.907388, "fusion_lat": 0.0}, {"is_disabled": 0, "rental_uris": {"android": "https://dc.lft.to/lastmile_qr_scan", "ios": "https://dc.lft.to/lastmile_qr_scan"}, "is_reserved": 0, "name": "b07a50af4484116fcc447cd870dbf77e", "lon": -77.0476835, "type": "electric_scooter", "bike_id": "b07a50af4484116fcc447cd870dbf77e", "fusion_lon": 0.0, "lat": 38.91768533333333, "fusion_lat": 0.0}, {"is_disabled": 0, "rental_uris": {"android": "https://dc.lft.to/lastmile_qr_scan", "ios": "https://dc.lft.to/lastmile_qr_scan"}, "is_reserved": 0, "name": "b53351278bc82c08836e2c7a1cf68ea1", "lon": -77.02160433333333, "type": "electric_scooter", "bike_id": "b53351278bc82c08836e2c7a1cf68ea1", "fusion_lon": 0.0, "lat": 38.87919016666667, "fusion_lat": 0.0}, {"is_disabled": 0, "rental_uris": {"android": "https://dc.lft.to/lastmile_qr_scan", "ios": "https://dc.lft.to/lastmile_qr_scan"}, "is_reserved": 0, "name": "6d838c45ba5d96a2ed8b2da3c776fc27", "lon": -77.02850983333333, "type": "electric_bike", "bike_id": "6d838c45ba5d96a2ed8b2da3c776fc27", "fusion_lon": 0.0, "lat": 38.913623, "fusion_lat": 0.0}, {"is_disabled": 0, "rental_uris": {"android": "https://dc.lft.to/lastmile_qr_scan", "ios": "https://dc.lft.to/lastmile_qr_scan"}, "is_reserved": 0, "name": "a55ce2e751010198f6d05d01858015a9", "lon": -77.027623, "type": "electric_scooter", "bike_id": "a55ce2e751010198f6d05d01858015a9", "fusion_lon": 0.0, "lat": 38.9673165, "fusion_lat": 0.0}, {"is_disabled": 0, "rental_uris": {"android": "https://dc.lft.to/lastmile_qr_scan", "ios": "https://dc.lft.to/lastmile_qr_scan"}, "is_reserved": 0, "name": "d45de028c19e200d1b3a2f8e34a8ad7a", "lon": -77.03385783333333, "type": "electric_scooter", "bike_id": "d45de028c19e200d1b3a2f8e34a8ad7a", "fusion_lon": 0.0, "lat": 38.921589166666664, "fusion_lat": 0.0}, {"is_disabled": 0, "rental_uris": {"android": "https://dc.lft.to/lastmile_qr_scan", "ios": "https://dc.lft.to/lastmile_qr_scan"}, "is_reserved": 0, "name": "774d476c1a642c3dcc88bfdf215cdd45", "lon": -77.026117, "type": "electric_scooter", "bike_id": "774d476c1a642c3dcc88bfdf215cdd45", "fusion_lon": 0.0, "lat": 38.924414, "fusion_lat": 0.0}, {"is_disabled": 0, "rental_uris": {"android": "https://dc.lft.to/lastmile_qr_scan", "ios": "https://dc.lft.to/lastmile_qr_scan"}, "is_reserved": 0, "name": "e6a3cf298ff1acdccb475a90ad68a8fc", "lon": -77.03150583333333, "type": "electric_scooter", "bike_id": "e6a3cf298ff1acdccb475a90ad68a8fc", "fusion_lon": 0.0, "lat": 38.9012215, "fusion_lat": 0.0}, {"is_disabled": 0, "rental_uris": {"android": "https://dc.lft.to/lastmile_qr_scan", "ios": "https://dc.lft.to/lastmile_qr_scan"}, "is_reserved": 0, "name": "bf982cd3733aebda18cfae39f615773c", "lon": -77.051149, "type": "electric_scooter", "bike_id": "bf982cd3733aebda18cfae39f615773c", "fusion_lon": 0.0, "lat": 38.901217, "fusion_lat": 0.0}, {"is_disabled": 0, "rental_uris": {"android": "https://dc.lft.to/lastmile_qr_scan", "ios": "https://dc.lft.to/lastmile_qr_scan"}, "is_reserved": 0, "name": "ba6a0579ef8c52d09b4324921ce6cd5f", "lon": -77.02378433333334, "type": "electric_scooter", "bike_id": "ba6a0579ef8c52d09b4324921ce6cd5f", "fusion_lon": 0.0, "lat": 38.90205783333333, "fusion_lat": 0.0}, {"is_disabled": 0, "rental_uris": {"android": "https://dc.lft.to/lastmile_qr_scan", "ios": "https://dc.lft.to/lastmile_qr_scan"}, "is_reserved": 0, "name": "bef163410d04575f6828f2132b86ad63", "lon": -77.0278005, "type": "electric_scooter", "bike_id": "bef163410d04575f6828f2132b86ad63", "fusion_lon": 0.0, "lat": 38.91711766666667, "fusion_lat": 0.0}, {"is_disabled": 0, "rental_uris": {"android": "https://dc.lft.to/lastmile_qr_scan", "ios": "https://dc.lft.to/lastmile_qr_scan"}, "is_reserved": 0, "name": "4ed37e4bc5ca5ea4f0e22930b27869da", "lon": -77.05111766666667, "type": "electric_scooter", "bike_id": "4ed37e4bc5ca5ea4f0e22930b27869da", "fusion_lon": 0.0, "lat": 38.902033833333334, "fusion_lat": 0.0}, {"is_disabled": 0, "rental_uris": {"android": "https://dc.lft.to/lastmile_qr_scan", "ios": "https://dc.lft.to/lastmile_qr_scan"}, "is_reserved": 0, "name": "701b23ad4cafe5a53db30ce2d3ac21d0", "lon": -77.04135783333334, "type": "electric_bike", "bike_id": "701b23ad4cafe5a53db30ce2d3ac21d0", "fusion_lon": 0.0, "lat": 38.944025833333335, "fusion_lat": 0.0}, {"is_disabled": 0, "rental_uris": {"android": "https://dc.lft.to/lastmile_qr_scan", "ios": "https://dc.lft.to/lastmile_qr_scan"}, "is_reserved": 0, "name": "1838531f0924170f31a8d2e6577e2dcc", "lon": -77.03368566666667, "type": "electric_scooter", "bike_id": "1838531f0924170f31a8d2e6577e2dcc", "fusion_lon": 0.0, "lat": 38.921491333333336, "fusion_lat": 0.0}, {"is_disabled": 0, "rental_uris": {"android": "https://dc.lft.to/lastmile_qr_scan", "ios": "https://dc.lft.to/lastmile_qr_scan"}, "is_reserved": 0, "name": "ea5a30079c7b3887fb3c282ba62836bc", "lon": -77.02847316666667, "type": "electric_scooter", "bike_id": "ea5a30079c7b3887fb3c282ba62836bc", "fusion_lon": 0.0, "lat": 38.925716333333334, "fusion_lat": 0.0}, {"is_disabled": 0, "rental_uris": {"android": "https://dc.lft.to/lastmile_qr_scan", "ios": "https://dc.lft.to/lastmile_qr_scan"}, "is_reserved": 0, "name": "a4e56da0f94e3f4a49104737717f1472", "lon": -77.0239335, "type": "electric_scooter", "bike_id": "a4e56da0f94e3f4a49104737717f1472", "fusion_lon": 0.0, "lat": 38.92807466666667, "fusion_lat": 0.0}, {"is_disabled": 0, "rental_uris": {"android": "https://dc.lft.to/lastmile_qr_scan", "ios": "https://dc.lft.to/lastmile_qr_scan"}, "is_reserved": 0, "name": "bfa3209440ce419116acc37c56ab84a7", "lon": -77.03208933333333, "type": "electric_scooter", "bike_id": "bfa3209440ce419116acc37c56ab84a7", "fusion_lon": 0.0, "lat": 38.9036325, "fusion_lat": 0.0}, {"is_disabled": 0, "rental_uris": {"android": "https://dc.lft.to/lastmile_qr_scan", "ios": "https://dc.lft.to/lastmile_qr_scan"}, "is_reserved": 0, "name": "58e9e4f65d28818e245792df12ed7296", "lon": -77.00927766666666, "type": "electric_scooter", "bike_id": "58e9e4f65d28818e245792df12ed7296", "fusion_lon": 0.0, "lat": 38.905732666666665, "fusion_lat": 0.0}, {"is_disabled": 0, "rental_uris": {"android": "https://dc.lft.to/lastmile_qr_scan", "ios": "https://dc.lft.to/lastmile_qr_scan"}, "is_reserved": 0, "name": "743ce1b3b7c74f3da8605cd58444b730", "lon": -77.03381183333333, "type": "electric_scooter", "bike_id": "743ce1b3b7c74f3da8605cd58444b730", "fusion_lon": 0.0, "lat": 38.916987, "fusion_lat": 0.0}, {"is_disabled": 0, "rental_uris": {"android": "https://dc.lft.to/lastmile_qr_scan", "ios": "https://dc.lft.to/lastmile_qr_scan"}, "is_reserved": 0, "name": "eb68c7e64da4e4ff61a6f6f15368f694", "lon": -77.01512566666666, "type": "electric_scooter", "bike_id": "eb68c7e64da4e4ff61a6f6f15368f694", "fusion_lon": 0.0, "lat": 38.910034333333336, "fusion_lat": 0.0}, {"is_disabled": 0, "rental_uris": {"android": "https://dc.lft.to/lastmile_qr_scan", "ios": "https://dc.lft.to/lastmile_qr_scan"}, "is_reserved": 0, "name": "9cb37b3fadb2e57a44a4b698d2326aa5", "lon": -77.0458465, "type": "electric_scooter", "bike_id": "9cb37b3fadb2e57a44a4b698d2326aa5", "fusion_lon": 0.0, "lat": 38.92422, "fusion_lat": 0.0}, {"is_disabled": 0, "rental_uris": {"android": "https://dc.lft.to/lastmile_qr_scan", "ios": "https://dc.lft.to/lastmile_qr_scan"}, "is_reserved": 0, "name": "9148fe234b581c919a7ff334c0a6de8d", "lon": -77.038521, "type": "electric_scooter", "bike_id": "9148fe234b581c919a7ff334c0a6de8d", "fusion_lon": 0.0, "lat": 38.914706, "fusion_lat": 0.0}, {"is_disabled": 0, "rental_uris": {"android": "https://dc.lft.to/lastmile_qr_scan", "ios": "https://dc.lft.to/lastmile_qr_scan"}, "is_reserved": 0, "name": "add85a2f28a91cb9088d8f9a893208a0", "lon": -77.03449766666667, "type": "electric_scooter", "bike_id": "add85a2f28a91cb9088d8f9a893208a0", "fusion_lon": 0.0, "lat": 38.90965, "fusion_lat": 0.0}, {"is_disabled": 0, "rental_uris": {"android": "https://dc.lft.to/lastmile_qr_scan", "ios": "https://dc.lft.to/lastmile_qr_scan"}, "is_reserved": 0, "name": "f6e11a5f8051d171eda362e1a236065e", "lon": -77.04802883333333, "type": "electric_scooter", "bike_id": "f6e11a5f8051d171eda362e1a236065e", "fusion_lon": 0.0, "lat": 38.904649166666665, "fusion_lat": 0.0}, {"is_disabled": 0, "rental_uris": {"android": "https://dc.lft.to/lastmile_qr_scan", "ios": "https://dc.lft.to/lastmile_qr_scan"}, "is_reserved": 0, "name": "85ef2ab998a27c1b5704d3300537b70c", "lon": -76.9464115, "type": "electric_scooter", "bike_id": "85ef2ab998a27c1b5704d3300537b70c", "fusion_lon": 0.0, "lat": 38.898428, "fusion_lat": 0.0}, {"is_disabled": 0, "rental_uris": {"android": "https://dc.lft.to/lastmile_qr_scan", "ios": "https://dc.lft.to/lastmile_qr_scan"}, "is_reserved": 0, "name": "187dc9f1979c853eacd1d2df2019002d", "lon": -77.0352115, "type": "electric_scooter", "bike_id": "187dc9f1979c853eacd1d2df2019002d", "fusion_lon": 0.0, "lat": 38.922598666666666, "fusion_lat": 0.0}, {"is_disabled": 0, "rental_uris": {"android": "https://dc.lft.to/lastmile_qr_scan", "ios": "https://dc.lft.to/lastmile_qr_scan"}, "is_reserved": 0, "name": "99f003ac8519e401333803bc60b3fd64", "lon": -77.03445316666667, "type": "electric_scooter", "bike_id": "99f003ac8519e401333803bc60b3fd64", "fusion_lon": 0.0, "lat": 38.908873166666666, "fusion_lat": 0.0}, {"is_disabled": 0, "rental_uris": {"android": "https://dc.lft.to/lastmile_qr_scan", "ios": "https://dc.lft.to/lastmile_qr_scan"}, "is_reserved": 0, "name": "f1d77f3d3d187a1a9bb63f118a715624", "lon": -77.0387865, "type": "electric_scooter", "bike_id": "f1d77f3d3d187a1a9bb63f118a715624", "fusion_lon": 0.0, "lat": 38.91564833333333, "fusion_lat": 0.0}, {"is_disabled": 0, "rental_uris": {"android": "https://dc.lft.to/lastmile_qr_scan", "ios": "https://dc.lft.to/lastmile_qr_scan"}, "is_reserved": 0, "name": "279b7f8ac9ac570cfdc53ad213c08901", "lon": -77.03552866666666, "type": "electric_scooter", "bike_id": "279b7f8ac9ac570cfdc53ad213c08901", "fusion_lon": 0.0, "lat": 38.923532, "fusion_lat": 0.0}, {"is_disabled": 0, "rental_uris": {"android": "https://dc.lft.to/lastmile_qr_scan", "ios": "https://dc.lft.to/lastmile_qr_scan"}, "is_reserved": 0, "name": "c3f1313ed6e4555c8d877d7124be984b", "lon": -77.050482, "type": "electric_scooter", "bike_id": "c3f1313ed6e4555c8d877d7124be984b", "fusion_lon": 0.0, "lat": 38.900812333333334, "fusion_lat": 0.0}, {"is_disabled": 0, "rental_uris": {"android": "https://dc.lft.to/lastmile_qr_scan", "ios": "https://dc.lft.to/lastmile_qr_scan"}, "is_reserved": 0, "name": "63df63f87da75f8677b6e8bdf862e430", "lon": -77.01731433333333, "type": "electric_scooter", "bike_id": "63df63f87da75f8677b6e8bdf862e430", "fusion_lon": 0.0, "lat": 38.91118433333333, "fusion_lat": 0.0}, {"is_disabled": 0, "rental_uris": {"android": "https://dc.lft.to/lastmile_qr_scan", "ios": "https://dc.lft.to/lastmile_qr_scan"}, "is_reserved": 0, "name": "60ce3aca567aac3e2db1aef690b36396", "lon": -77.01703233333333, "type": "electric_scooter", "bike_id": "60ce3aca567aac3e2db1aef690b36396", "fusion_lon": 0.0, "lat": 38.90256383333333, "fusion_lat": 0.0}, {"is_disabled": 0, "rental_uris": {"android": "https://dc.lft.to/lastmile_qr_scan", "ios": "https://dc.lft.to/lastmile_qr_scan"}, "is_reserved": 0, "name": "5ffb990a070245724f7936713a3a175d", "lon": -77.0295335, "type": "electric_scooter", "bike_id": "5ffb990a070245724f7936713a3a175d", "fusion_lon": 0.0, "lat": 38.92762283333333, "fusion_lat": 0.0}, {"is_disabled": 0, "rental_uris": {"android": "https://dc.lft.to/lastmile_qr_scan", "ios": "https://dc.lft.to/lastmile_qr_scan"}, "is_reserved": 0, "name": "411607c63c1b49b6ebbde517b46f5021", "lon": -77.03190316666667, "type": "electric_scooter", "bike_id": "411607c63c1b49b6ebbde517b46f5021", "fusion_lon": 0.0, "lat": 38.901312, "fusion_lat": 0.0}, {"is_disabled": 0, "rental_uris": {"android": "https://dc.lft.to/lastmile_qr_scan", "ios": "https://dc.lft.to/lastmile_qr_scan"}, "is_reserved": 0, "name": "055f72d196f0345445ac195edb6a2eab", "lon": -77.02493116666666, "type": "electric_scooter", "bike_id": "055f72d196f0345445ac195edb6a2eab", "fusion_lon": 0.0, "lat": 38.941851166666666, "fusion_lat": 0.0}, {"is_disabled": 0, "rental_uris": {"android": "https://dc.lft.to/lastmile_qr_scan", "ios": "https://dc.lft.to/lastmile_qr_scan"}, "is_reserved": 0, "name": "3639cb39e09457e8e5b12879446c558a", "lon": -77.0254725, "type": "electric_scooter", "bike_id": "3639cb39e09457e8e5b12879446c558a", "fusion_lon": 0.0, "lat": 38.924069333333335, "fusion_lat": 0.0}, {"is_disabled": 0, "rental_uris": {"android": "https://dc.lft.to/lastmile_qr_scan", "ios": "https://dc.lft.to/lastmile_qr_scan"}, "is_reserved": 0, "name": "e61f2c5a8543f7599d7be6cdf5e0b09e", "lon": -77.04503666666666, "type": "electric_scooter", "bike_id": "e61f2c5a8543f7599d7be6cdf5e0b09e", "fusion_lon": 0.0, "lat": 38.90676533333333, "fusion_lat": 0.0}, {"is_disabled": 0, "rental_uris": {"android": "https://dc.lft.to/lastmile_qr_scan", "ios": "https://dc.lft.to/lastmile_qr_scan"}, "is_reserved": 0, "name": "9376e55941a222a1e6f2cf04d6c3b355", "lon": -77.0006405, "type": "electric_scooter", "bike_id": "9376e55941a222a1e6f2cf04d6c3b355", "fusion_lon": 0.0, "lat": 38.888587666666666, "fusion_lat": 0.0}, {"is_disabled": 0, "rental_uris": {"android": "https://dc.lft.to/lastmile_qr_scan", "ios": "https://dc.lft.to/lastmile_qr_scan"}, "is_reserved": 0, "name": "54d483968dd54321fab10651334bd438", "lon": -77.02493266666667, "type": "electric_scooter", "bike_id": "54d483968dd54321fab10651334bd438", "fusion_lon": 0.0, "lat": 38.919488, "fusion_lat": 0.0}, {"is_disabled": 0, "rental_uris": {"android": "https://dc.lft.to/lastmile_qr_scan", "ios": "https://dc.lft.to/lastmile_qr_scan"}, "is_reserved": 0, "name": "7f81ef86cca5ec5521771b1dff6b3387", "lon": -76.98573133333333, "type": "electric_scooter", "bike_id": "7f81ef86cca5ec5521771b1dff6b3387", "fusion_lon": 0.0, "lat": 38.896170166666664, "fusion_lat": 0.0}, {"is_disabled": 0, "rental_uris": {"android": "https://dc.lft.to/lastmile_qr_scan", "ios": "https://dc.lft.to/lastmile_qr_scan"}, "is_reserved": 0, "name": "a60a36468fc83d4401b594e38a4fadb1", "lon": -77.02773033333334, "type": "electric_scooter", "bike_id": "a60a36468fc83d4401b594e38a4fadb1", "fusion_lon": 0.0, "lat": 38.917016833333335, "fusion_lat": 0.0}, {"is_disabled": 0, "rental_uris": {"android": "https://dc.lft.to/lastmile_qr_scan", "ios": "https://dc.lft.to/lastmile_qr_scan"}, "is_reserved": 0, "name": "e33ef66130f213c3e8c79d03023dc950", "lon": -77.02624733333333, "type": "electric_scooter", "bike_id": "e33ef66130f213c3e8c79d03023dc950", "fusion_lon": 0.0, "lat": 38.915692666666665, "fusion_lat": 0.0}, {"is_disabled": 0, "rental_uris": {"android": "https://dc.lft.to/lastmile_qr_scan", "ios": "https://dc.lft.to/lastmile_qr_scan"}, "is_reserved": 0, "name": "58b5388f193c06481e16795d75d67e96", "lon": -77.02654733333334, "type": "electric_scooter", "bike_id": "58b5388f193c06481e16795d75d67e96", "fusion_lon": 0.0, "lat": 38.89598483333333, "fusion_lat": 0.0}, {"is_disabled": 0, "rental_uris": {"android": "https://dc.lft.to/lastmile_qr_scan", "ios": "https://dc.lft.to/lastmile_qr_scan"}, "is_reserved": 0, "name": "e071146421cffe58f29cc1fd63b0c5da", "lon": -76.929212, "type": "electric_bike", "bike_id": "e071146421cffe58f29cc1fd63b0c5da", "fusion_lon": 0.0, "lat": 38.980300666666665, "fusion_lat": 0.0}, {"is_disabled": 0, "rental_uris": {"android": "https://dc.lft.to/lastmile_qr_scan", "ios": "https://dc.lft.to/lastmile_qr_scan"}, "is_reserved": 0, "name": "9d5b8bba8ffa84e43fa11f00baf80b4b", "lon": -76.995124, "type": "electric_scooter", "bike_id": "9d5b8bba8ffa84e43fa11f00baf80b4b", "fusion_lon": 0.0, "lat": 38.8982605, "fusion_lat": 0.0}, {"is_disabled": 0, "rental_uris": {"android": "https://dc.lft.to/lastmile_qr_scan", "ios": "https://dc.lft.to/lastmile_qr_scan"}, "is_reserved": 0, "name": "c56a02962d4b1cdd1f2d83261a03d382", "lon": -77.0502395, "type": "electric_scooter", "bike_id": "c56a02962d4b1cdd1f2d83261a03d382", "fusion_lon": 0.0, "lat": 38.90047833333333, "fusion_lat": 0.0}, {"is_disabled": 0, "rental_uris": {"android": "https://dc.lft.to/lastmile_qr_scan", "ios": "https://dc.lft.to/lastmile_qr_scan"}, "is_reserved": 0, "name": "5080c32a082bb585d7b4b8c8c8ef63dd", "lon": -76.94470533333333, "type": "electric_scooter", "bike_id": "5080c32a082bb585d7b4b8c8c8ef63dd", "fusion_lon": 0.0, "lat": 38.90282083333334, "fusion_lat": 0.0}, {"is_disabled": 0, "rental_uris": {"android": "https://dc.lft.to/lastmile_qr_scan", "ios": "https://dc.lft.to/lastmile_qr_scan"}, "is_reserved": 0, "name": "a0b82af9da0174c97e45282ad2aa533a", "lon": -77.04768133333333, "type": "electric_scooter", "bike_id": "a0b82af9da0174c97e45282ad2aa533a", "fusion_lon": 0.0, "lat": 38.91244916666667, "fusion_lat": 0.0}, {"is_disabled": 0, "rental_uris": {"android": "https://dc.lft.to/lastmile_qr_scan", "ios": "https://dc.lft.to/lastmile_qr_scan"}, "is_reserved": 0, "name": "cf629b3d7f84a26f9cc81c2809954dc0", "lon": -77.04870883333334, "type": "electric_scooter", "bike_id": "cf629b3d7f84a26f9cc81c2809954dc0", "fusion_lon": 0.0, "lat": 38.91338983333333, "fusion_lat": 0.0}, {"is_disabled": 0, "rental_uris": {"android": "https://dc.lft.to/lastmile_qr_scan", "ios": "https://dc.lft.to/lastmile_qr_scan"}, "is_reserved": 0, "name": "b7a0e4196a63ff569235cc678fb6b2c0", "lon": -77.01970733333333, "type": "electric_scooter", "bike_id": "b7a0e4196a63ff569235cc678fb6b2c0", "fusion_lon": 0.0, "lat": 38.89616516666667, "fusion_lat": 0.0}, {"is_disabled": 0, "rental_uris": {"android": "https://dc.lft.to/lastmile_qr_scan", "ios": "https://dc.lft.to/lastmile_qr_scan"}, "is_reserved": 0, "name": "39d5f5799f944900e32e688e284b3ed9", "lon": -77.026919, "type": "electric_bike", "bike_id": "39d5f5799f944900e32e688e284b3ed9", "fusion_lon": 0.0, "lat": 38.9483495, "fusion_lat": 0.0}, {"is_disabled": 0, "rental_uris": {"android": "https://dc.lft.to/lastmile_qr_scan", "ios": "https://dc.lft.to/lastmile_qr_scan"}, "is_reserved": 0, "name": "6a2ccd64fd68eb973cf38370a0e52fb4", "lon": -76.99650966666667, "type": "electric_scooter", "bike_id": "6a2ccd64fd68eb973cf38370a0e52fb4", "fusion_lon": 0.0, "lat": 38.88721833333334, "fusion_lat": 0.0}, {"is_disabled": 0, "rental_uris": {"android": "https://dc.lft.to/lastmile_qr_scan", "ios": "https://dc.lft.to/lastmile_qr_scan"}, "is_reserved": 0, "name": "c4fea417a1bf04b57a5f5cc75a4d5b41", "lon": -76.99534833333334, "type": "electric_scooter", "bike_id": "c4fea417a1bf04b57a5f5cc75a4d5b41", "fusion_lon": 0.0, "lat": 38.920454, "fusion_lat": 0.0}, {"is_disabled": 0, "rental_uris": {"android": "https://dc.lft.to/lastmile_qr_scan", "ios": "https://dc.lft.to/lastmile_qr_scan"}, "is_reserved": 0, "name": "6efe2f0baf8e361f65d7b7b84fc93e68", "lon": -77.0347165, "type": "electric_scooter", "bike_id": "6efe2f0baf8e361f65d7b7b84fc93e68", "fusion_lon": 0.0, "lat": 38.92151066666667, "fusion_lat": 0.0}, {"is_disabled": 0, "rental_uris": {"android": "https://dc.lft.to/lastmile_qr_scan", "ios": "https://dc.lft.to/lastmile_qr_scan"}, "is_reserved": 0, "name": "f405c01622f1aa0d6025cc0708220214", "lon": -77.04208416666667, "type": "electric_scooter", "bike_id": "f405c01622f1aa0d6025cc0708220214", "fusion_lon": 0.0, "lat": 38.9112965, "fusion_lat": 0.0}, {"is_disabled": 0, "rental_uris": {"android": "https://dc.lft.to/lastmile_qr_scan", "ios": "https://dc.lft.to/lastmile_qr_scan"}, "is_reserved": 0, "name": "bc1f525d931e1c51f2fb880df9401aaf", "lon": -77.024421, "type": "electric_scooter", "bike_id": "bc1f525d931e1c51f2fb880df9401aaf", "fusion_lon": 0.0, "lat": 38.917033, "fusion_lat": 0.0}, {"is_disabled": 0, "rental_uris": {"android": "https://dc.lft.to/lastmile_qr_scan", "ios": "https://dc.lft.to/lastmile_qr_scan"}, "is_reserved": 0, "name": "0b245608ef38ad74e6e5f7d5e89c75c8", "lon": -77.12257783333334, "type": "electric_bike", "bike_id": "0b245608ef38ad74e6e5f7d5e89c75c8", "fusion_lon": 0.0, "lat": 38.887688833333335, "fusion_lat": 0.0}, {"is_disabled": 0, "rental_uris": {"android": "https://dc.lft.to/lastmile_qr_scan", "ios": "https://dc.lft.to/lastmile_qr_scan"}, "is_reserved": 0, "name": "01081c5cf3c606e702e9dcb2d4a80615", "lon": -77.07845866666666, "type": "electric_scooter", "bike_id": "01081c5cf3c606e702e9dcb2d4a80615", "fusion_lon": 0.0, "lat": 38.931389333333335, "fusion_lat": 0.0}, {"is_disabled": 0, "rental_uris": {"android": "https://dc.lft.to/lastmile_qr_scan", "ios": "https://dc.lft.to/lastmile_qr_scan"}, "is_reserved": 0, "name": "63e434165060abc4042630d7aaee1a72", "lon": -76.93540216666666, "type": "electric_bike", "bike_id": "63e434165060abc4042630d7aaee1a72", "fusion_lon": 0.0, "lat": 38.955563, "fusion_lat": 0.0}, {"is_disabled": 0, "rental_uris": {"android": "https://dc.lft.to/lastmile_qr_scan", "ios": "https://dc.lft.to/lastmile_qr_scan"}, "is_reserved": 0, "name": "d07c533b1ea23e0fec99a5e22b1b27a8", "lon": -77.0768655, "type": "electric_bike", "bike_id": "d07c533b1ea23e0fec99a5e22b1b27a8", "fusion_lon": 0.0, "lat": 38.831947666666665, "fusion_lat": 0.0}, {"is_disabled": 0, "rental_uris": {"android": "https://dc.lft.to/lastmile_qr_scan", "ios": "https://dc.lft.to/lastmile_qr_scan"}, "is_reserved": 0, "name": "d105e6465a525098d55cd4bd38f31b96", "lon": -77.03355816666667, "type": "electric_scooter", "bike_id": "d105e6465a525098d55cd4bd38f31b96", "fusion_lon": 0.0, "lat": 38.8924385, "fusion_lat": 0.0}, {"is_disabled": 0, "rental_uris": {"android": "https://dc.lft.to/lastmile_qr_scan", "ios": "https://dc.lft.to/lastmile_qr_scan"}, "is_reserved": 0, "name": "5dd778663459351350905723f378aef7", "lon": -77.03190666666667, "type": "electric_scooter", "bike_id": "5dd778663459351350905723f378aef7", "fusion_lon": 0.0, "lat": 38.9146325, "fusion_lat": 0.0}, {"is_disabled": 0, "rental_uris": {"android": "https://dc.lft.to/lastmile_qr_scan", "ios": "https://dc.lft.to/lastmile_qr_scan"}, "is_reserved": 0, "name": "2800a7ca94a8b2b8956b25e89b8662d6", "lon": -77.02421966666667, "type": "electric_scooter", "bike_id": "2800a7ca94a8b2b8956b25e89b8662d6", "fusion_lon": 0.0, "lat": 38.911123, "fusion_lat": 0.0}, {"is_disabled": 0, "rental_uris": {"android": "https://dc.lft.to/lastmile_qr_scan", "ios": "https://dc.lft.to/lastmile_qr_scan"}, "is_reserved": 0, "name": "79b603b10028a1aadf5afef685c37c0f", "lon": -77.11227716666667, "type": "electric_bike", "bike_id": "79b603b10028a1aadf5afef685c37c0f", "fusion_lon": 0.0, "lat": 38.82878866666667, "fusion_lat": 0.0}, {"is_disabled": 0, "rental_uris": {"android": "https://dc.lft.to/lastmile_qr_scan", "ios": "https://dc.lft.to/lastmile_qr_scan"}, "is_reserved": 0, "name": "09c1fc797652b930a5ce1890b0b8ad16", "lon": -77.01099183333334, "type": "electric_scooter", "bike_id": "09c1fc797652b930a5ce1890b0b8ad16", "fusion_lon": 0.0, "lat": 38.90561916666667, "fusion_lat": 0.0}, {"is_disabled": 0, "rental_uris": {"android": "https://dc.lft.to/lastmile_qr_scan", "ios": "https://dc.lft.to/lastmile_qr_scan"}, "is_reserved": 0, "name": "9d01b32a39ec90292c84ca562ebafea1", "lon": -77.07106266666666, "type": "electric_scooter", "bike_id": "9d01b32a39ec90292c84ca562ebafea1", "fusion_lon": 0.0, "lat": 38.92696383333333, "fusion_lat": 0.0}, {"is_disabled": 0, "rental_uris": {"android": "https://dc.lft.to/lastmile_qr_scan", "ios": "https://dc.lft.to/lastmile_qr_scan"}, "is_reserved": 0, "name": "0dd7d74a94a63d9125e87957adc14380", "lon": -77.01994216666667, "type": "electric_scooter", "bike_id": "0dd7d74a94a63d9125e87957adc14380", "fusion_lon": 0.0, "lat": 38.877946, "fusion_lat": 0.0}, {"is_disabled": 0, "rental_uris": {"android": "https://dc.lft.to/lastmile_qr_scan", "ios": "https://dc.lft.to/lastmile_qr_scan"}, "is_reserved": 0, "name": "0a7c1fb659f99ad93113b35f489c0fde", "lon": -77.023857, "type": "electric_scooter", "bike_id": "0a7c1fb659f99ad93113b35f489c0fde", "fusion_lon": 0.0, "lat": 38.916729833333335, "fusion_lat": 0.0}, {"is_disabled": 0, "rental_uris": {"android": "https://dc.lft.to/lastmile_qr_scan", "ios": "https://dc.lft.to/lastmile_qr_scan"}, "is_reserved": 0, "name": "5c26f91e4a26372a5acc4223d1756f75", "lon": -77.03846133333333, "type": "electric_scooter", "bike_id": "5c26f91e4a26372a5acc4223d1756f75", "fusion_lon": 0.0, "lat": 38.9264765, "fusion_lat": 0.0}, {"is_disabled": 0, "rental_uris": {"android": "https://dc.lft.to/lastmile_qr_scan", "ios": "https://dc.lft.to/lastmile_qr_scan"}, "is_reserved": 0, "name": "fdd23465e3582f1870bb9ea45343a320", "lon": -77.03205833333334, "type": "electric_scooter", "bike_id": "fdd23465e3582f1870bb9ea45343a320", "fusion_lon": 0.0, "lat": 38.91805133333333, "fusion_lat": 0.0}, {"is_disabled": 0, "rental_uris": {"android": "https://dc.lft.to/lastmile_qr_scan", "ios": "https://dc.lft.to/lastmile_qr_scan"}, "is_reserved": 0, "name": "9abc8178c1288db6423247842a202feb", "lon": -77.024008, "type": "electric_scooter", "bike_id": "9abc8178c1288db6423247842a202feb", "fusion_lon": 0.0, "lat": 38.931023833333334, "fusion_lat": 0.0}, {"is_disabled": 0, "rental_uris": {"android": "https://dc.lft.to/lastmile_qr_scan", "ios": "https://dc.lft.to/lastmile_qr_scan"}, "is_reserved": 0, "name": "133d83675620bed811af11f85f541a0d", "lon": -77.01018083333334, "type": "electric_scooter", "bike_id": "133d83675620bed811af11f85f541a0d", "fusion_lon": 0.0, "lat": 38.9062365, "fusion_lat": 0.0}, {"is_disabled": 0, "rental_uris": {"android": "https://dc.lft.to/lastmile_qr_scan", "ios": "https://dc.lft.to/lastmile_qr_scan"}, "is_reserved": 0, "name": "52439675ea782367bd28898cb23fcd06", "lon": -77.02352133333333, "type": "electric_scooter", "bike_id": "52439675ea782367bd28898cb23fcd06", "fusion_lon": 0.0, "lat": 38.92264016666667, "fusion_lat": 0.0}, {"is_disabled": 0, "rental_uris": {"android": "https://dc.lft.to/lastmile_qr_scan", "ios": "https://dc.lft.to/lastmile_qr_scan"}, "is_reserved": 0, "name": "f858a5d05cb078e6e2c47736f5aedbe8", "lon": -77.00120883333334, "type": "electric_scooter", "bike_id": "f858a5d05cb078e6e2c47736f5aedbe8", "fusion_lon": 0.0, "lat": 38.912692, "fusion_lat": 0.0}, {"is_disabled": 0, "rental_uris": {"android": "https://dc.lft.to/lastmile_qr_scan", "ios": "https://dc.lft.to/lastmile_qr_scan"}, "is_reserved": 0, "name": "6fef3b1064ebbb6a40dba9616eb99628", "lon": -77.043484, "type": "electric_scooter", "bike_id": "6fef3b1064ebbb6a40dba9616eb99628", "fusion_lon": 0.0, "lat": 38.89835216666667, "fusion_lat": 0.0}, {"is_disabled": 0, "rental_uris": {"android": "https://dc.lft.to/lastmile_qr_scan", "ios": "https://dc.lft.to/lastmile_qr_scan"}, "is_reserved": 0, "name": "3b894f81d49129d3bdb6b99051f07b7c", "lon": -77.02817416666667, "type": "electric_scooter", "bike_id": "3b894f81d49129d3bdb6b99051f07b7c", "fusion_lon": 0.0, "lat": 38.931722, "fusion_lat": 0.0}, {"is_disabled": 0, "rental_uris": {"android": "https://dc.lft.to/lastmile_qr_scan", "ios": "https://dc.lft.to/lastmile_qr_scan"}, "is_reserved": 0, "name": "01140838cc81679f986a77b72ba4fc21", "lon": -76.98729166666666, "type": "electric_scooter", "bike_id": "01140838cc81679f986a77b72ba4fc21", "fusion_lon": 0.0, "lat": 38.8670765, "fusion_lat": 0.0}, {"is_disabled": 0, "rental_uris": {"android": "https://dc.lft.to/lastmile_qr_scan", "ios": "https://dc.lft.to/lastmile_qr_scan"}, "is_reserved": 0, "name": "ff3ef32c3a2c2b803e793ca582239ae0", "lon": -76.952081, "type": "electric_bike", "bike_id": "ff3ef32c3a2c2b803e793ca582239ae0", "fusion_lon": 0.0, "lat": 38.936656, "fusion_lat": 0.0}, {"is_disabled": 0, "rental_uris": {"android": "https://dc.lft.to/lastmile_qr_scan", "ios": "https://dc.lft.to/lastmile_qr_scan"}, "is_reserved": 0, "name": "aca86f5d0a4890b4daebcc366381feda", "lon": -77.0475945, "type": "electric_scooter", "bike_id": "aca86f5d0a4890b4daebcc366381feda", "fusion_lon": 0.0, "lat": 38.907237333333335, "fusion_lat": 0.0}, {"is_disabled": 0, "rental_uris": {"android": "https://dc.lft.to/lastmile_qr_scan", "ios": "https://dc.lft.to/lastmile_qr_scan"}, "is_reserved": 0, "name": "20ba1dafe627c45b14e3f2f5efe6edcd", "lon": -77.06651266666667, "type": "electric_scooter", "bike_id": "20ba1dafe627c45b14e3f2f5efe6edcd", "fusion_lon": 0.0, "lat": 38.92696933333333, "fusion_lat": 0.0}, {"is_disabled": 0, "rental_uris": {"android": "https://dc.lft.to/lastmile_qr_scan", "ios": "https://dc.lft.to/lastmile_qr_scan"}, "is_reserved": 0, "name": "05f9909f7ce91e4937ccb93097db23f0", "lon": -77.007796, "type": "electric_scooter", "bike_id": "05f9909f7ce91e4937ccb93097db23f0", "fusion_lon": 0.0, "lat": 38.907397333333336, "fusion_lat": 0.0}, {"is_disabled": 0, "rental_uris": {"android": "https://dc.lft.to/lastmile_qr_scan", "ios": "https://dc.lft.to/lastmile_qr_scan"}, "is_reserved": 0, "name": "6e9c90cc8f49470e41b299128f88d327", "lon": -77.03063233333333, "type": "electric_scooter", "bike_id": "6e9c90cc8f49470e41b299128f88d327", "fusion_lon": 0.0, "lat": 38.9398385, "fusion_lat": 0.0}, {"is_disabled": 0, "rental_uris": {"android": "https://dc.lft.to/lastmile_qr_scan", "ios": "https://dc.lft.to/lastmile_qr_scan"}, "is_reserved": 0, "name": "8e70eb3271f71e5af6d2e20a1946ab41", "lon": -77.03347616666667, "type": "electric_scooter", "bike_id": "8e70eb3271f71e5af6d2e20a1946ab41", "fusion_lon": 0.0, "lat": 38.91709016666667, "fusion_lat": 0.0}, {"is_disabled": 0, "rental_uris": {"android": "https://dc.lft.to/lastmile_qr_scan", "ios": "https://dc.lft.to/lastmile_qr_scan"}, "is_reserved": 0, "name": "07a93e866502412524151be466c97a50", "lon": -76.98002683333333, "type": "electric_bike", "bike_id": "07a93e866502412524151be466c97a50", "fusion_lon": 0.0, "lat": 38.87757216666667, "fusion_lat": 0.0}, {"is_disabled": 0, "rental_uris": {"android": "https://dc.lft.to/lastmile_qr_scan", "ios": "https://dc.lft.to/lastmile_qr_scan"}, "is_reserved": 0, "name": "76eac6a961476a709b0aa439b0dfc5ae", "lon": -77.0272755, "type": "electric_scooter", "bike_id": "76eac6a961476a709b0aa439b0dfc5ae", "fusion_lon": 0.0, "lat": 38.908622666666666, "fusion_lat": 0.0}, {"is_disabled": 0, "rental_uris": {"android": "https://dc.lft.to/lastmile_qr_scan", "ios": "https://dc.lft.to/lastmile_qr_scan"}, "is_reserved": 0, "name": "8057c61b1ccdaccef6297e1702f776bd", "lon": -77.01360183333334, "type": "electric_scooter", "bike_id": "8057c61b1ccdaccef6297e1702f776bd", "fusion_lon": 0.0, "lat": 38.9302695, "fusion_lat": 0.0}, {"is_disabled": 0, "rental_uris": {"android": "https://dc.lft.to/lastmile_qr_scan", "ios": "https://dc.lft.to/lastmile_qr_scan"}, "is_reserved": 0, "name": "8cc2ddf9ab641449c7cb3a9bab362d6a", "lon": -76.98645816666667, "type": "electric_bike", "bike_id": "8cc2ddf9ab641449c7cb3a9bab362d6a", "fusion_lon": 0.0, "lat": 38.90159333333333, "fusion_lat": 0.0}, {"is_disabled": 0, "rental_uris": {"android": "https://dc.lft.to/lastmile_qr_scan", "ios": "https://dc.lft.to/lastmile_qr_scan"}, "is_reserved": 0, "name": "3a81a205b4c340ffbc8a2ba3754fb167", "lon": -77.36091116666667, "type": "electric_bike", "bike_id": "3a81a205b4c340ffbc8a2ba3754fb167", "fusion_lon": 0.0, "lat": 38.93967633333333, "fusion_lat": 0.0}, {"is_disabled": 0, "rental_uris": {"android": "https://dc.lft.to/lastmile_qr_scan", "ios": "https://dc.lft.to/lastmile_qr_scan"}, "is_reserved": 0, "name": "1826ef702d58462ca1ed5aaba889f4fd", "lon": -77.06354466666667, "type": "electric_scooter", "bike_id": "1826ef702d58462ca1ed5aaba889f4fd", "fusion_lon": 0.0, "lat": 38.9444225, "fusion_lat": 0.0}, {"is_disabled": 0, "rental_uris": {"android": "https://dc.lft.to/lastmile_qr_scan", "ios": "https://dc.lft.to/lastmile_qr_scan"}, "is_reserved": 0, "name": "84dd4c312b7c3b03269dc088f04bde82", "lon": -77.03024566666667, "type": "electric_scooter", "bike_id": "84dd4c312b7c3b03269dc088f04bde82", "fusion_lon": 0.0, "lat": 38.92244483333333, "fusion_lat": 0.0}, {"is_disabled": 0, "rental_uris": {"android": "https://dc.lft.to/lastmile_qr_scan", "ios": "https://dc.lft.to/lastmile_qr_scan"}, "is_reserved": 0, "name": "075cb263af204f34468e42fd655cfa37", "lon": -77.030125, "type": "electric_scooter", "bike_id": "075cb263af204f34468e42fd655cfa37", "fusion_lon": 0.0, "lat": 38.90514366666667, "fusion_lat": 0.0}, {"is_disabled": 0, "rental_uris": {"android": "https://dc.lft.to/lastmile_qr_scan", "ios": "https://dc.lft.to/lastmile_qr_scan"}, "is_reserved": 0, "name": "4d525e9d7531603740429a6b8540f231", "lon": -77.034184, "type": "electric_scooter", "bike_id": "4d525e9d7531603740429a6b8540f231", "fusion_lon": 0.0, "lat": 38.919286166666666, "fusion_lat": 0.0}, {"is_disabled": 0, "rental_uris": {"android": "https://dc.lft.to/lastmile_qr_scan", "ios": "https://dc.lft.to/lastmile_qr_scan"}, "is_reserved": 0, "name": "527562b39d6972fe61b2ad6a4deb0327", "lon": -77.03790716666667, "type": "electric_scooter", "bike_id": "527562b39d6972fe61b2ad6a4deb0327", "fusion_lon": 0.0, "lat": 38.926241, "fusion_lat": 0.0}, {"is_disabled": 0, "rental_uris": {"android": "https://dc.lft.to/lastmile_qr_scan", "ios": "https://dc.lft.to/lastmile_qr_scan"}, "is_reserved": 0, "name": "52036351a526fc93266e62963cb69cae", "lon": -77.01909616666667, "type": "electric_bike", "bike_id": "52036351a526fc93266e62963cb69cae", "fusion_lon": 0.0, "lat": 38.937525, "fusion_lat": 0.0}, {"is_disabled": 0, "rental_uris": {"android": "https://dc.lft.to/lastmile_qr_scan", "ios": "https://dc.lft.to/lastmile_qr_scan"}, "is_reserved": 0, "name": "bc576c5df474c336de5071c7b9386c15", "lon": -77.02175866666667, "type": "electric_scooter", "bike_id": "bc576c5df474c336de5071c7b9386c15", "fusion_lon": 0.0, "lat": 38.9429345, "fusion_lat": 0.0}, {"is_disabled": 0, "rental_uris": {"android": "https://dc.lft.to/lastmile_qr_scan", "ios": "https://dc.lft.to/lastmile_qr_scan"}, "is_reserved": 0, "name": "0af9e87f235fb0d73c03a0f256d6520a", "lon": -76.9853645, "type": "electric_scooter", "bike_id": "0af9e87f235fb0d73c03a0f256d6520a", "fusion_lon": 0.0, "lat": 38.907992166666666, "fusion_lat": 0.0}, {"is_disabled": 0, "rental_uris": {"android": "https://dc.lft.to/lastmile_qr_scan", "ios": "https://dc.lft.to/lastmile_qr_scan"}, "is_reserved": 0, "name": "bd1da68e8dff7bc3aed108ef2cef0734", "lon": -77.013703, "type": "electric_scooter", "bike_id": "bd1da68e8dff7bc3aed108ef2cef0734", "fusion_lon": 0.0, "lat": 38.879016, "fusion_lat": 0.0}, {"is_disabled": 0, "rental_uris": {"android": "https://dc.lft.to/lastmile_qr_scan", "ios": "https://dc.lft.to/lastmile_qr_scan"}, "is_reserved": 0, "name": "e04e8887d66c02ad67437aec7e92637d", "lon": -76.987039, "type": "electric_scooter", "bike_id": "e04e8887d66c02ad67437aec7e92637d", "fusion_lon": 0.0, "lat": 38.907106166666665, "fusion_lat": 0.0}, {"is_disabled": 0, "rental_uris": {"android": "https://dc.lft.to/lastmile_qr_scan", "ios": "https://dc.lft.to/lastmile_qr_scan"}, "is_reserved": 0, "name": "2b9059d8a0674815691d07b956d215d1", "lon": -77.03475283333333, "type": "electric_scooter", "bike_id": "2b9059d8a0674815691d07b956d215d1", "fusion_lon": 0.0, "lat": 38.90748, "fusion_lat": 0.0}, {"is_disabled": 0, "rental_uris": {"android": "https://dc.lft.to/lastmile_qr_scan", "ios": "https://dc.lft.to/lastmile_qr_scan"}, "is_reserved": 0, "name": "bada64cadc180e51a206e5593cf7f5b4", "lon": -77.00050816666666, "type": "electric_scooter", "bike_id": "bada64cadc180e51a206e5593cf7f5b4", "fusion_lon": 0.0, "lat": 38.919001333333334, "fusion_lat": 0.0}, {"is_disabled": 0, "rental_uris": {"android": "https://dc.lft.to/lastmile_qr_scan", "ios": "https://dc.lft.to/lastmile_qr_scan"}, "is_reserved": 0, "name": "3fe05b6c23318199d71ea3a1edefb6e7", "lon": -77.028415, "type": "electric_scooter", "bike_id": "3fe05b6c23318199d71ea3a1edefb6e7", "fusion_lon": 0.0, "lat": 38.931931, "fusion_lat": 0.0}, {"is_disabled": 0, "rental_uris": {"android": "https://dc.lft.to/lastmile_qr_scan", "ios": "https://dc.lft.to/lastmile_qr_scan"}, "is_reserved": 0, "name": "e6f60de7ea8302daa004f0074696c4a4", "lon": -77.03352316666667, "type": "electric_scooter", "bike_id": "e6f60de7ea8302daa004f0074696c4a4", "fusion_lon": 0.0, "lat": 38.892336, "fusion_lat": 0.0}, {"is_disabled": 0, "rental_uris": {"android": "https://dc.lft.to/lastmile_qr_scan", "ios": "https://dc.lft.to/lastmile_qr_scan"}, "is_reserved": 0, "name": "e9857ff1650485b07609232afcc95a08", "lon": -77.011837, "type": "electric_scooter", "bike_id": "e9857ff1650485b07609232afcc95a08", "fusion_lon": 0.0, "lat": 38.900204333333335, "fusion_lat": 0.0}, {"is_disabled": 0, "rental_uris": {"android": "https://dc.lft.to/lastmile_qr_scan", "ios": "https://dc.lft.to/lastmile_qr_scan"}, "is_reserved": 0, "name": "c4b51f86cf41ffede2bb428a783a777a", "lon": -76.98584416666667, "type": "electric_scooter", "bike_id": "c4b51f86cf41ffede2bb428a783a777a", "fusion_lon": 0.0, "lat": 38.91032116666667, "fusion_lat": 0.0}, {"is_disabled": 0, "rental_uris": {"android": "https://dc.lft.to/lastmile_qr_scan", "ios": "https://dc.lft.to/lastmile_qr_scan"}, "is_reserved": 0, "name": "f98a58f3236f2f31aeb1cb828a10dbe7", "lon": -77.01904383333333, "type": "electric_scooter", "bike_id": "f98a58f3236f2f31aeb1cb828a10dbe7", "fusion_lon": 0.0, "lat": 38.9035745, "fusion_lat": 0.0}, {"is_disabled": 0, "rental_uris": {"android": "https://dc.lft.to/lastmile_qr_scan", "ios": "https://dc.lft.to/lastmile_qr_scan"}, "is_reserved": 0, "name": "6d804349f581373bec405aa0a5991c5a", "lon": -77.05061766666667, "type": "electric_scooter", "bike_id": "6d804349f581373bec405aa0a5991c5a", "fusion_lon": 0.0, "lat": 38.916418, "fusion_lat": 0.0}, {"is_disabled": 0, "rental_uris": {"android": "https://dc.lft.to/lastmile_qr_scan", "ios": "https://dc.lft.to/lastmile_qr_scan"}, "is_reserved": 0, "name": "b249d69becf058942a3825cb9448cd10", "lon": -77.04368883333333, "type": "electric_scooter", "bike_id": "b249d69becf058942a3825cb9448cd10", "fusion_lon": 0.0, "lat": 38.92238183333333, "fusion_lat": 0.0}, {"is_disabled": 0, "rental_uris": {"android": "https://dc.lft.to/lastmile_qr_scan", "ios": "https://dc.lft.to/lastmile_qr_scan"}, "is_reserved": 0, "name": "0d599f92697571d19461aa7725cbe4a0", "lon": -77.01231583333333, "type": "electric_scooter", "bike_id": "0d599f92697571d19461aa7725cbe4a0", "fusion_lon": 0.0, "lat": 38.90047666666667, "fusion_lat": 0.0}, {"is_disabled": 0, "rental_uris": {"android": "https://dc.lft.to/lastmile_qr_scan", "ios": "https://dc.lft.to/lastmile_qr_scan"}, "is_reserved": 0, "name": "f936262b5f9a6273dc23549f9f625921", "lon": -76.99058083333334, "type": "electric_scooter", "bike_id": "f936262b5f9a6273dc23549f9f625921", "fusion_lon": 0.0, "lat": 38.858984166666666, "fusion_lat": 0.0}, {"is_disabled": 0, "rental_uris": {"android": "https://dc.lft.to/lastmile_qr_scan", "ios": "https://dc.lft.to/lastmile_qr_scan"}, "is_reserved": 0, "name": "03ddab6b98714c66f0505223b3105d7a", "lon": -76.983085, "type": "electric_scooter", "bike_id": "03ddab6b98714c66f0505223b3105d7a", "fusion_lon": 0.0, "lat": 38.868885166666665, "fusion_lat": 0.0}, {"is_disabled": 0, "rental_uris": {"android": "https://dc.lft.to/lastmile_qr_scan", "ios": "https://dc.lft.to/lastmile_qr_scan"}, "is_reserved": 0, "name": "02282f7a77bfc850796abf17f9b6a963", "lon": -76.95471416666666, "type": "electric_bike", "bike_id": "02282f7a77bfc850796abf17f9b6a963", "fusion_lon": 0.0, "lat": 38.935675, "fusion_lat": 0.0}, {"is_disabled": 0, "rental_uris": {"android": "https://dc.lft.to/lastmile_qr_scan", "ios": "https://dc.lft.to/lastmile_qr_scan"}, "is_reserved": 0, "name": "7e9dbf69c2bc9dd2ad492ad3031c0996", "lon": -77.034731, "type": "electric_scooter", "bike_id": "7e9dbf69c2bc9dd2ad492ad3031c0996", "fusion_lon": 0.0, "lat": 38.90796983333333, "fusion_lat": 0.0}, {"is_disabled": 0, "rental_uris": {"android": "https://dc.lft.to/lastmile_qr_scan", "ios": "https://dc.lft.to/lastmile_qr_scan"}, "is_reserved": 0, "name": "7aff475f0360ed2cc04fc09581e427e1", "lon": -76.98717933333333, "type": "electric_scooter", "bike_id": "7aff475f0360ed2cc04fc09581e427e1", "fusion_lon": 0.0, "lat": 38.867038, "fusion_lat": 0.0}, {"is_disabled": 0, "rental_uris": {"android": "https://dc.lft.to/lastmile_qr_scan", "ios": "https://dc.lft.to/lastmile_qr_scan"}, "is_reserved": 0, "name": "199f0c37b848505c0846309a5d70a371", "lon": -77.02269483333333, "type": "electric_scooter", "bike_id": "199f0c37b848505c0846309a5d70a371", "fusion_lon": 0.0, "lat": 38.92743866666667, "fusion_lat": 0.0}, {"is_disabled": 0, "rental_uris": {"android": "https://dc.lft.to/lastmile_qr_scan", "ios": "https://dc.lft.to/lastmile_qr_scan"}, "is_reserved": 0, "name": "305f72c5fab05de01edaefb8c4a8a58f", "lon": -76.98872033333333, "type": "electric_scooter", "bike_id": "305f72c5fab05de01edaefb8c4a8a58f", "fusion_lon": 0.0, "lat": 38.89205183333333, "fusion_lat": 0.0}, {"is_disabled": 0, "rental_uris": {"android": "https://dc.lft.to/lastmile_qr_scan", "ios": "https://dc.lft.to/lastmile_qr_scan"}, "is_reserved": 0, "name": "e841aa87ad3478a15f9d34acd8e80b6f", "lon": -77.02653816666667, "type": "electric_scooter", "bike_id": "e841aa87ad3478a15f9d34acd8e80b6f", "fusion_lon": 0.0, "lat": 38.896109833333334, "fusion_lat": 0.0}, {"is_disabled": 0, "rental_uris": {"android": "https://dc.lft.to/lastmile_qr_scan", "ios": "https://dc.lft.to/lastmile_qr_scan"}, "is_reserved": 0, "name": "0892137c73e2178a0de361a761f4a70a", "lon": -77.02962916666667, "type": "electric_scooter", "bike_id": "0892137c73e2178a0de361a761f4a70a", "fusion_lon": 0.0, "lat": 38.91775233333333, "fusion_lat": 0.0}, {"is_disabled": 0, "rental_uris": {"android": "https://dc.lft.to/lastmile_qr_scan", "ios": "https://dc.lft.to/lastmile_qr_scan"}, "is_reserved": 0, "name": "b6da790570bcd473a7cad782c88c5799", "lon": -77.032119, "type": "electric_scooter", "bike_id": "b6da790570bcd473a7cad782c88c5799", "fusion_lon": 0.0, "lat": 38.92582216666667, "fusion_lat": 0.0}, {"is_disabled": 0, "rental_uris": {"android": "https://dc.lft.to/lastmile_qr_scan", "ios": "https://dc.lft.to/lastmile_qr_scan"}, "is_reserved": 0, "name": "6a8172be57582880852afeb9243d13e4", "lon": -76.99570283333334, "type": "electric_bike", "bike_id": "6a8172be57582880852afeb9243d13e4", "fusion_lon": 0.0, "lat": 39.00789833333333, "fusion_lat": 0.0}, {"is_disabled": 0, "rental_uris": {"android": "https://dc.lft.to/lastmile_qr_scan", "ios": "https://dc.lft.to/lastmile_qr_scan"}, "is_reserved": 0, "name": "b88909bd8c4c9fbd0cd86dc4ad83bb57", "lon": -77.04026533333334, "type": "electric_scooter", "bike_id": "b88909bd8c4c9fbd0cd86dc4ad83bb57", "fusion_lon": 0.0, "lat": 38.917047, "fusion_lat": 0.0}, {"is_disabled": 0, "rental_uris": {"android": "https://dc.lft.to/lastmile_qr_scan", "ios": "https://dc.lft.to/lastmile_qr_scan"}, "is_reserved": 0, "name": "b18ddf8a27aeee0f56d6046d3a779684", "lon": -77.04523033333334, "type": "electric_scooter", "bike_id": "b18ddf8a27aeee0f56d6046d3a779684", "fusion_lon": 0.0, "lat": 38.906350333333336, "fusion_lat": 0.0}, {"is_disabled": 0, "rental_uris": {"android": "https://dc.lft.to/lastmile_qr_scan", "ios": "https://dc.lft.to/lastmile_qr_scan"}, "is_reserved": 0, "name": "1b958a991b3936580d82e3194690ad93", "lon": -77.02159233333333, "type": "electric_scooter", "bike_id": "1b958a991b3936580d82e3194690ad93", "fusion_lon": 0.0, "lat": 38.92602733333333, "fusion_lat": 0.0}, {"is_disabled": 0, "rental_uris": {"android": "https://dc.lft.to/lastmile_qr_scan", "ios": "https://dc.lft.to/lastmile_qr_scan"}, "is_reserved": 0, "name": "2a36d469310e57c80bd76e9732608b68", "lon": -77.03778633333333, "type": "electric_bike", "bike_id": "2a36d469310e57c80bd76e9732608b68", "fusion_lon": 0.0, "lat": 38.929463, "fusion_lat": 0.0}, {"is_disabled": 0, "rental_uris": {"android": "https://dc.lft.to/lastmile_qr_scan", "ios": "https://dc.lft.to/lastmile_qr_scan"}, "is_reserved": 0, "name": "6e232be7c70dc4bc2e06515ab2464b1f", "lon": -77.022333, "type": "electric_scooter", "bike_id": "6e232be7c70dc4bc2e06515ab2464b1f", "fusion_lon": 0.0, "lat": 38.90558583333333, "fusion_lat": 0.0}, {"is_disabled": 0, "rental_uris": {"android": "https://dc.lft.to/lastmile_qr_scan", "ios": "https://dc.lft.to/lastmile_qr_scan"}, "is_reserved": 0, "name": "d0a6501568c32ff1cbe9fec414a6e26f", "lon": -77.02366266666667, "type": "electric_scooter", "bike_id": "d0a6501568c32ff1cbe9fec414a6e26f", "fusion_lon": 0.0, "lat": 38.93128633333333, "fusion_lat": 0.0}, {"is_disabled": 0, "rental_uris": {"android": "https://dc.lft.to/lastmile_qr_scan", "ios": "https://dc.lft.to/lastmile_qr_scan"}, "is_reserved": 0, "name": "9b5ef8d2a03d7e7e92e3b18e1eb345d4", "lon": -77.048718, "type": "electric_scooter", "bike_id": "9b5ef8d2a03d7e7e92e3b18e1eb345d4", "fusion_lon": 0.0, "lat": 38.9095305, "fusion_lat": 0.0}, {"is_disabled": 0, "rental_uris": {"android": "https://dc.lft.to/lastmile_qr_scan", "ios": "https://dc.lft.to/lastmile_qr_scan"}, "is_reserved": 0, "name": "ebe52c426a6b025ed43d78a6e74c9962", "lon": -77.00599733333334, "type": "electric_scooter", "bike_id": "ebe52c426a6b025ed43d78a6e74c9962", "fusion_lon": 0.0, "lat": 38.87590733333333, "fusion_lat": 0.0}, {"is_disabled": 0, "rental_uris": {"android": "https://dc.lft.to/lastmile_qr_scan", "ios": "https://dc.lft.to/lastmile_qr_scan"}, "is_reserved": 0, "name": "68d810beac883735e0d50def7dd02a0f", "lon": -77.03983233333334, "type": "electric_scooter", "bike_id": "68d810beac883735e0d50def7dd02a0f", "fusion_lon": 0.0, "lat": 38.918100333333335, "fusion_lat": 0.0}, {"is_disabled": 0, "rental_uris": {"android": "https://dc.lft.to/lastmile_qr_scan", "ios": "https://dc.lft.to/lastmile_qr_scan"}, "is_reserved": 0, "name": "2738e6ff5a4ee1563da123e4e51b7e0d", "lon": -77.03658716666666, "type": "electric_scooter", "bike_id": "2738e6ff5a4ee1563da123e4e51b7e0d", "fusion_lon": 0.0, "lat": 38.922141333333336, "fusion_lat": 0.0}, {"is_disabled": 0, "rental_uris": {"android": "https://dc.lft.to/lastmile_qr_scan", "ios": "https://dc.lft.to/lastmile_qr_scan"}, "is_reserved": 0, "name": "b364d13a6e822b4f973901aa8989e040", "lon": -77.01229316666667, "type": "electric_scooter", "bike_id": "b364d13a6e822b4f973901aa8989e040", "fusion_lon": 0.0, "lat": 38.88583933333334, "fusion_lat": 0.0}, {"is_disabled": 0, "rental_uris": {"android": "https://dc.lft.to/lastmile_qr_scan", "ios": "https://dc.lft.to/lastmile_qr_scan"}, "is_reserved": 0, "name": "3aaae651c02ada1bb73a9fb04cdefbb7", "lon": -77.02402466666666, "type": "electric_scooter", "bike_id": "3aaae651c02ada1bb73a9fb04cdefbb7", "fusion_lon": 0.0, "lat": 38.93103166666667, "fusion_lat": 0.0}, {"is_disabled": 0, "rental_uris": {"android": "https://dc.lft.to/lastmile_qr_scan", "ios": "https://dc.lft.to/lastmile_qr_scan"}, "is_reserved": 0, "name": "caaf676440d8f03a2f80400a2bba8baa", "lon": -77.03022383333334, "type": "electric_scooter", "bike_id": "caaf676440d8f03a2f80400a2bba8baa", "fusion_lon": 0.0, "lat": 38.922436166666664, "fusion_lat": 0.0}, {"is_disabled": 0, "rental_uris": {"android": "https://dc.lft.to/lastmile_qr_scan", "ios": "https://dc.lft.to/lastmile_qr_scan"}, "is_reserved": 0, "name": "cbee1e811df90c0a35137944fc913c46", "lon": -76.92168266666667, "type": "electric_bike", "bike_id": "cbee1e811df90c0a35137944fc913c46", "fusion_lon": 0.0, "lat": 39.01040016666666, "fusion_lat": 0.0}, {"is_disabled": 0, "rental_uris": {"android": "https://dc.lft.to/lastmile_qr_scan", "ios": "https://dc.lft.to/lastmile_qr_scan"}, "is_reserved": 0, "name": "19f7c76a206cce589226d49ef4b4e20f", "lon": -77.00211233333333, "type": "electric_scooter", "bike_id": "19f7c76a206cce589226d49ef4b4e20f", "fusion_lon": 0.0, "lat": 38.91573783333333, "fusion_lat": 0.0}, {"is_disabled": 0, "rental_uris": {"android": "https://dc.lft.to/lastmile_qr_scan", "ios": "https://dc.lft.to/lastmile_qr_scan"}, "is_reserved": 0, "name": "40e0f7a6e9cb0ab4774ad8649b97dfcf", "lon": -76.94704683333333, "type": "electric_scooter", "bike_id": "40e0f7a6e9cb0ab4774ad8649b97dfcf", "fusion_lon": 0.0, "lat": 38.897315666666664, "fusion_lat": 0.0}, {"is_disabled": 0, "rental_uris": {"android": "https://dc.lft.to/lastmile_qr_scan", "ios": "https://dc.lft.to/lastmile_qr_scan"}, "is_reserved": 0, "name": "ccf485652a1076bec8c7b8009cb63ac0", "lon": -77.01844633333333, "type": "electric_scooter", "bike_id": "ccf485652a1076bec8c7b8009cb63ac0", "fusion_lon": 0.0, "lat": 38.903686, "fusion_lat": 0.0}, {"is_disabled": 0, "rental_uris": {"android": "https://dc.lft.to/lastmile_qr_scan", "ios": "https://dc.lft.to/lastmile_qr_scan"}, "is_reserved": 0, "name": "0962e0b797aa399bafd831a52d7b60b3", "lon": -76.992314, "type": "electric_scooter", "bike_id": "0962e0b797aa399bafd831a52d7b60b3", "fusion_lon": 0.0, "lat": 38.89888166666667, "fusion_lat": 0.0}, {"is_disabled": 0, "rental_uris": {"android": "https://dc.lft.to/lastmile_qr_scan", "ios": "https://dc.lft.to/lastmile_qr_scan"}, "is_reserved": 0, "name": "9bc104e42012827650b747eaa0547f23", "lon": -77.0305735, "type": "electric_scooter", "bike_id": "9bc104e42012827650b747eaa0547f23", "fusion_lon": 0.0, "lat": 38.956339166666666, "fusion_lat": 0.0}, {"is_disabled": 0, "rental_uris": {"android": "https://dc.lft.to/lastmile_qr_scan", "ios": "https://dc.lft.to/lastmile_qr_scan"}, "is_reserved": 0, "name": "8dc1244c459a2906c71f04f3431ccdbb", "lon": -76.9968835, "type": "electric_scooter", "bike_id": "8dc1244c459a2906c71f04f3431ccdbb", "fusion_lon": 0.0, "lat": 38.860351333333334, "fusion_lat": 0.0}, {"is_disabled": 0, "rental_uris": {"android": "https://dc.lft.to/lastmile_qr_scan", "ios": "https://dc.lft.to/lastmile_qr_scan"}, "is_reserved": 0, "name": "d5ebe9d07c90b4bb95eb3c9c56ef4b3d", "lon": -77.04124883333333, "type": "electric_scooter", "bike_id": "d5ebe9d07c90b4bb95eb3c9c56ef4b3d", "fusion_lon": 0.0, "lat": 38.91707816666667, "fusion_lat": 0.0}, {"is_disabled": 0, "rental_uris": {"android": "https://dc.lft.to/lastmile_qr_scan", "ios": "https://dc.lft.to/lastmile_qr_scan"}, "is_reserved": 0, "name": "088fe6b596a59421cd30c802905f114e", "lon": -77.14777366666667, "type": "electric_bike", "bike_id": "088fe6b596a59421cd30c802905f114e", "fusion_lon": 0.0, "lat": 39.09586, "fusion_lat": 0.0}, {"is_disabled": 0, "rental_uris": {"android": "https://dc.lft.to/lastmile_qr_scan", "ios": "https://dc.lft.to/lastmile_qr_scan"}, "is_reserved": 0, "name": "9eee65432e3fb5378d670d253417019a", "lon": -77.09585766666666, "type": "electric_bike", "bike_id": "9eee65432e3fb5378d670d253417019a", "fusion_lon": 0.0, "lat": 38.83788883333333, "fusion_lat": 0.0}, {"is_disabled": 0, "rental_uris": {"android": "https://dc.lft.to/lastmile_qr_scan", "ios": "https://dc.lft.to/lastmile_qr_scan"}, "is_reserved": 0, "name": "e75a0f11091c2a387cea5ca96c8e9a2e", "lon": -77.02593616666667, "type": "electric_scooter", "bike_id": "e75a0f11091c2a387cea5ca96c8e9a2e", "fusion_lon": 0.0, "lat": 38.89973533333333, "fusion_lat": 0.0}, {"is_disabled": 0, "rental_uris": {"android": "https://dc.lft.to/lastmile_qr_scan", "ios": "https://dc.lft.to/lastmile_qr_scan"}, "is_reserved": 0, "name": "1dcc1f2c2adfcef8cad2b94527caf951", "lon": -77.00260133333333, "type": "electric_scooter", "bike_id": "1dcc1f2c2adfcef8cad2b94527caf951", "fusion_lon": 0.0, "lat": 38.91181016666667, "fusion_lat": 0.0}, {"is_disabled": 0, "rental_uris": {"android": "https://dc.lft.to/lastmile_qr_scan", "ios": "https://dc.lft.to/lastmile_qr_scan"}, "is_reserved": 0, "name": "1d4460bef776e188588c5999b69b3216", "lon": -77.03614666666667, "type": "electric_scooter", "bike_id": "1d4460bef776e188588c5999b69b3216", "fusion_lon": 0.0, "lat": 38.931535333333336, "fusion_lat": 0.0}, {"is_disabled": 0, "rental_uris": {"android": "https://dc.lft.to/lastmile_qr_scan", "ios": "https://dc.lft.to/lastmile_qr_scan"}, "is_reserved": 0, "name": "3ceb023de1f70a5fca13a118d21de827", "lon": -77.047942, "type": "electric_bike", "bike_id": "3ceb023de1f70a5fca13a118d21de827", "fusion_lon": 0.0, "lat": 38.91936583333333, "fusion_lat": 0.0}, {"is_disabled": 0, "rental_uris": {"android": "https://dc.lft.to/lastmile_qr_scan", "ios": "https://dc.lft.to/lastmile_qr_scan"}, "is_reserved": 0, "name": "d1219fa256cf08ebad53a226d5ccdd94", "lon": -77.00126583333333, "type": "electric_bike", "bike_id": "d1219fa256cf08ebad53a226d5ccdd94", "fusion_lon": 0.0, "lat": 38.99934666666667, "fusion_lat": 0.0}, {"is_disabled": 0, "rental_uris": {"android": "https://dc.lft.to/lastmile_qr_scan", "ios": "https://dc.lft.to/lastmile_qr_scan"}, "is_reserved": 0, "name": "c3a5a217f61f676b87f9cf86b296d2bd", "lon": -76.9488815, "type": "electric_scooter", "bike_id": "c3a5a217f61f676b87f9cf86b296d2bd", "fusion_lon": 0.0, "lat": 38.89510533333333, "fusion_lat": 0.0}, {"is_disabled": 0, "rental_uris": {"android": "https://dc.lft.to/lastmile_qr_scan", "ios": "https://dc.lft.to/lastmile_qr_scan"}, "is_reserved": 0, "name": "83a8fafc7b6123aef3d843258d4fdabb", "lon": -77.03085866666666, "type": "electric_scooter", "bike_id": "83a8fafc7b6123aef3d843258d4fdabb", "fusion_lon": 0.0, "lat": 38.92250516666667, "fusion_lat": 0.0}, {"is_disabled": 0, "rental_uris": {"android": "https://dc.lft.to/lastmile_qr_scan", "ios": "https://dc.lft.to/lastmile_qr_scan"}, "is_reserved": 0, "name": "dfd487f475842d15ea3f59b32f31085b", "lon": -76.92767933333333, "type": "electric_bike", "bike_id": "dfd487f475842d15ea3f59b32f31085b", "fusion_lon": 0.0, "lat": 38.960369, "fusion_lat": 0.0}, {"is_disabled": 0, "rental_uris": {"android": "https://dc.lft.to/lastmile_qr_scan", "ios": "https://dc.lft.to/lastmile_qr_scan"}, "is_reserved": 0, "name": "b0ccd597facaf6d0c47e9374db095126", "lon": -77.05210733333334, "type": "electric_scooter", "bike_id": "b0ccd597facaf6d0c47e9374db095126", "fusion_lon": 0.0, "lat": 38.897955833333334, "fusion_lat": 0.0}, {"is_disabled": 0, "rental_uris": {"android": "https://dc.lft.to/lastmile_qr_scan", "ios": "https://dc.lft.to/lastmile_qr_scan"}, "is_reserved": 0, "name": "2bee2af71abb93d4175bd1d6884c19c1", "lon": -77.010505, "type": "electric_scooter", "bike_id": "2bee2af71abb93d4175bd1d6884c19c1", "fusion_lon": 0.0, "lat": 38.866646, "fusion_lat": 0.0},