{"data": {"bikes": [{"name": "3c63209cfb89eacaca95968b2ecfc36b", "is_reserved": 0, "type": "electric_scooter", "rental_uris": {"ios": "https://dc.lft.to/lastmile_qr_scan", "android": "https://dc.lft.to/lastmile_qr_scan"}, "lat": 38.926112, "lon": -77.07327316666667, "bike_id": "3c63209cfb89eacaca95968b2ecfc36b", "fusion_lat": 0.0, "is_disabled": 0, "fusion_lon": 0.0}, {"name": "99a88774312338714c5a5f31a915bfed", "is_reserved": 0, "type": "electric_bike", "rental_uris": {"ios": "https://dc.lft.to/lastmile_qr_scan", "android": "https://dc.lft.to/lastmile_qr_scan"}, "lat": 38.971922166666666, "lon": -76.99375933333333, "bike_id": "99a88774312338714c5a5f31a915bfed", "fusion_lat": 0.0, "is_disabled": 0, "fusion_lon": 0.0}, {"name": "d3b9248efd22bd5a38d6572bec739103", "is_reserved": 0, "type": "electric_scooter", "rental_uris": {"ios": "https://dc.lft.to/lastmile_qr_scan", "android": "https://dc.lft.to/lastmile_qr_scan"}, "lat": 38.93895833333333, "lon": -77.032643, "bike_id": "d3b9248efd22bd5a38d6572bec739103", "fusion_lat": 0.0, "is_disabled": 0, "fusion_lon": 0.0}, {"name": "8192a0f5613505725cd3cbecc900b5c2", "is_reserved": 0, "type": "electric_scooter", "rental_uris": {"ios": "https://dc.lft.to/lastmile_qr_scan", "android": "https://dc.lft.to/lastmile_qr_scan"}, "lat": 38.9375285, "lon": -77.02489633333333, "bike_id": "8192a0f5613505725cd3cbecc900b5c2", "fusion_lat": 0.0, "is_disabled": 0, "fusion_lon": 0.0}, {"name": "3b333adf4667e897d87e4d67fd07088e", "is_reserved": 0, "type": "electric_scooter", "rental_uris": {"ios": "https://dc.lft.to/lastmile_qr_scan", "android": "https://dc.lft.to/lastmile_qr_scan"}, "lat": 38.9038095, "lon": -77.04201516666667, "bike_id": "3b333adf4667e897d87e4d67fd07088e", "fusion_lat": 0.0, "is_disabled": 0, "fusion_lon": 0.0}, {"name": "6fd11219f769ddfeb704b7d5fb8e61a4", "is_reserved": 0, "type": "electric_scooter", "rental_uris": {"ios": "https://dc.lft.to/lastmile_qr_scan", "android": "https://dc.lft.to/lastmile_qr_scan"}, "lat": 38.90034566666667, "lon": -76.99840583333334, "bike_id": "6fd11219f769ddfeb704b7d5fb8e61a4", "fusion_lat": 0.0, "is_disabled": 0, "fusion_lon": 0.0}, {"name": "3c15c57983a222f33f8dec26adcef690", "is_reserved": 0, "type": "electric_scooter", "rental_uris": {"ios": "https://dc.lft.to/lastmile_qr_scan", "android": "https://dc.lft.to/lastmile_qr_scan"}, "lat": 38.925672166666665, "lon": -77.05260133333333, "bike_id": "3c15c57983a222f33f8dec26adcef690", "fusion_lat": 0.0, "is_disabled": 0, "fusion_lon": 0.0}, {"name": "a2f241412670bd75291cfa6dfe12d7a6", "is_reserved": 0, "type": "electric_scooter", "rental_uris": {"ios": "https://dc.lft.to/lastmile_qr_scan", "android": "https://dc.lft.to/lastmile_qr_scan"}, "lat": 38.93393666666667, "lon": -77.05743183333334, "bike_id": "a2f241412670bd75291cfa6dfe12d7a6", "fusion_lat": 0.0, "is_disabled": 0, "fusion_lon": 0.0}, {"name": "4f3e88ba487edb65ff31af5aff89e00b", "is_reserved": 0, "type": "electric_scooter", "rental_uris": {"ios": "https://dc.lft.to/lastmile_qr_scan", "android": "https://dc.lft.to/lastmile_qr_scan"}, "lat": 38.900418333333334, "lon": -76.99618166666667, "bike_id": "4f3e88ba487edb65ff31af5aff89e00b", "fusion_lat": 0.0, "is_disabled": 0, "fusion_lon": 0.0}, {"name": "4c3976b3aa86094faf4ec4353ee40248", "is_reserved": 0, "type": "electric_scooter", "rental_uris": {"ios": "https://dc.lft.to/lastmile_qr_scan", "android": "https://dc.lft.to/lastmile_qr_scan"}, "lat": 38.89554833333333, "lon": -76.94880116666667, "bike_id": "4c3976b3aa86094faf4ec4353ee40248", "fusion_lat": 0.0, "is_disabled": 0, "fusion_lon": 0.0}, {"name": "50dc4c7f304d81f4cda4be2a74a3bd66", "is_reserved": 0, "type": "electric_scooter", "rental_uris": {"ios": "https://dc.lft.to/lastmile_qr_scan", "android": "https://dc.lft.to/lastmile_qr_scan"}, "lat": 38.890086, "lon": -76.93737616666667, "bike_id": "50dc4c7f304d81f4cda4be2a74a3bd66", "fusion_lat": 0.0, "is_disabled": 0, "fusion_lon": 0.0}, {"name": "9e042c23cb5bded4d56d6d4894278027", "is_reserved": 0, "type": "electric_bike", "rental_uris": {"ios": "https://dc.lft.to/lastmile_qr_scan", "android": "https://dc.lft.to/lastmile_qr_scan"}, "lat": 38.935844, "lon": -77.05650916666667, "bike_id": "9e042c23cb5bded4d56d6d4894278027", "fusion_lat": 0.0, "is_disabled": 0, "fusion_lon": 0.0}, {"name": "bb19e6e300d0700a485006bf451c8f62", "is_reserved": 0, "type": "electric_scooter", "rental_uris": {"ios": "https://dc.lft.to/lastmile_qr_scan", "android": "https://dc.lft.to/lastmile_qr_scan"}, "lat": 38.91587883333333, "lon": -77.01129366666666, "bike_id": "bb19e6e300d0700a485006bf451c8f62", "fusion_lat": 0.0, "is_disabled": 0, "fusion_lon": 0.0}, {"name": "b6d4e25f8d361c375b28fc461e2dc9e0", "is_reserved": 0, "type": "electric_scooter", "rental_uris": {"ios": "https://dc.lft.to/lastmile_qr_scan", "android": "https://dc.lft.to/lastmile_qr_scan"}, "lat": 38.88333766666667, "lon": -76.99168933333333, "bike_id": "b6d4e25f8d361c375b28fc461e2dc9e0", "fusion_lat": 0.0, "is_disabled": 0, "fusion_lon": 0.0}, {"name": "0ae92f31da9d9a845504b7c389369b39", "is_reserved": 0, "type": "electric_scooter", "rental_uris": {"ios": "https://dc.lft.to/lastmile_qr_scan", "android": "https://dc.lft.to/lastmile_qr_scan"}, "lat": 38.872932666666664, "lon": -76.977305, "bike_id": "0ae92f31da9d9a845504b7c389369b39", "fusion_lat": 0.0, "is_disabled": 0, "fusion_lon": 0.0}, {"name": "82b27e77531aaa54b1ad30968aee9a34", "is_reserved": 0, "type": "electric_scooter", "rental_uris": {"ios": "https://dc.lft.to/lastmile_qr_scan", "android": "https://dc.lft.to/lastmile_qr_scan"}, "lat": 38.902415, "lon": -77.00202583333333, "bike_id": "82b27e77531aaa54b1ad30968aee9a34", "fusion_lat": 0.0, "is_disabled": 0, "fusion_lon": 0.0}, {"name": "a1093b4dc62adeda5503c55e55dc2c64", "is_reserved": 0, "type": "electric_scooter", "rental_uris": {"ios": "https://dc.lft.to/lastmile_qr_scan", "android": "https://dc.lft.to/lastmile_qr_scan"}, "lat": 38.911128, "lon": -77.04036633333334, "bike_id": "a1093b4dc62adeda5503c55e55dc2c64", "fusion_lat": 0.0, "is_disabled": 0, "fusion_lon": 0.0}, {"name": "615a4ff2d3cf402e456d803a4c9cb861", "is_reserved": 0, "type": "electric_scooter", "rental_uris": {"ios": "https://dc.lft.to/lastmile_qr_scan", "android": "https://dc.lft.to/lastmile_qr_scan"}, "lat": 38.909993, "lon": -76.99741933333334, "bike_id": "615a4ff2d3cf402e456d803a4c9cb861", "fusion_lat": 0.0, "is_disabled": 0, "fusion_lon": 0.0}, {"name": "bda5441e9aab7c022c32e61a0332d637", "is_reserved": 0, "type": "electric_scooter", "rental_uris": {"ios": "https://dc.lft.to/lastmile_qr_scan", "android": "https://dc.lft.to/lastmile_qr_scan"}, "lat": 38.900226833333335, "lon": -76.99933683333333, "bike_id": "bda5441e9aab7c022c32e61a0332d637", "fusion_lat": 0.0, "is_disabled": 0, "fusion_lon": 0.0}, {"name": "5ba862edcaf9c235cae4c0fa63214e49", "is_reserved": 0, "type": "electric_scooter", "rental_uris": {"ios": "https://dc.lft.to/lastmile_qr_scan", "android": "https://dc.lft.to/lastmile_qr_scan"}, "lat": 38.863106, "lon": -76.9827595, "bike_id": "5ba862edcaf9c235cae4c0fa63214e49", "fusion_lat": 0.0, "is_disabled": 0, "fusion_lon": 0.0}, {"name": "08246de0a186e4fe6fff45722417a94c", "is_reserved": 0, "type": "electric_bike", "rental_uris": {"ios": "https://dc.lft.to/lastmile_qr_scan", "android": "https://dc.lft.to/lastmile_qr_scan"}, "lat": 38.996061166666664, "lon": -77.07793433333333, "bike_id": "08246de0a186e4fe6fff45722417a94c", "fusion_lat": 0.0, "is_disabled": 0, "fusion_lon": 0.0}, {"name": "2360047b11b9966fdcb36fc1d7059c61", "is_reserved": 0, "type": "electric_bike", "rental_uris": {"ios": "https://dc.lft.to/lastmile_qr_scan", "android": "https://dc.lft.to/lastmile_qr_scan"}, "lat": 38.8737745, "lon": -77.118, "bike_id": "2360047b11b9966fdcb36fc1d7059c61", "fusion_lat": 0.0, "is_disabled": 0, "fusion_lon": 0.0}, {"name": "6a5240b7e3219022bf9515d2e0d2db68", "is_reserved": 0, "type": "electric_scooter", "rental_uris": {"ios": "https://dc.lft.to/lastmile_qr_scan", "android": "https://dc.lft.to/lastmile_qr_scan"}, "lat": 38.924010833333334, "lon": -77.0445285, "bike_id": "6a5240b7e3219022bf9515d2e0d2db68", "fusion_lat": 0.0, "is_disabled": 0, "fusion_lon": 0.0}, {"name": "d7de9b43ee997c0bc6069b0dbf1eeadc", "is_reserved": 0, "type": "electric_scooter", "rental_uris": {"ios": "https://dc.lft.to/lastmile_qr_scan", "android": "https://dc.lft.to/lastmile_qr_scan"}, "lat": 38.9110675, "lon": -77.02724483333333, "bike_id": "d7de9b43ee997c0bc6069b0dbf1eeadc", "fusion_lat": 0.0, "is_disabled": 0, "fusion_lon": 0.0}, {"name": "d07bc41a9f21d2e48285714d047e2264", "is_reserved": 0, "type": "electric_scooter", "rental_uris": {"ios": "https://dc.lft.to/lastmile_qr_scan", "android": "https://dc.lft.to/lastmile_qr_scan"}, "lat": 38.92322866666667, "lon": -77.046222, "bike_id": "d07bc41a9f21d2e48285714d047e2264", "fusion_lat": 0.0, "is_disabled": 0, "fusion_lon": 0.0}, {"name": "a2ce08fb9db97496533bf739ae32ca57", "is_reserved": 0, "type": "electric_scooter", "rental_uris": {"ios": "https://dc.lft.to/lastmile_qr_scan", "android": "https://dc.lft.to/lastmile_qr_scan"}, "lat": 38.900034, "lon": -77.03339033333333, "bike_id": "a2ce08fb9db97496533bf739ae32ca57", "fusion_lat": 0.0, "is_disabled": 0, "fusion_lon": 0.0}, {"name": "aa69b141d7fe9058b7318d37cc87ff26", "is_reserved": 0, "type": "electric_scooter", "rental_uris": {"ios": "https://dc.lft.to/lastmile_qr_scan", "android": "https://dc.lft.to/lastmile_qr_scan"}, "lat": 38.91128416666667, "lon": -77.044242, "bike_id": "aa69b141d7fe9058b7318d37cc87ff26", "fusion_lat": 0.0, "is_disabled": 0, "fusion_lon": 0.0}, {"name": "590060d5adeb582426d8354cd83436e6", "is_reserved": 0, "type": "electric_scooter", "rental_uris": {"ios": "https://dc.lft.to/lastmile_qr_scan", "android": "https://dc.lft.to/lastmile_qr_scan"}, "lat": 38.9157075, "lon": -77.03196683333333, "bike_id": "590060d5adeb582426d8354cd83436e6", "fusion_lat": 0.0, "is_disabled": 0, "fusion_lon": 0.0}, {"name": "c5a56c6e9d672214a034473b2603a43e", "is_reserved": 0, "type": "electric_scooter", "rental_uris": {"ios": "https://dc.lft.to/lastmile_qr_scan", "android": "https://dc.lft.to/lastmile_qr_scan"}, "lat": 38.927938166666664, "lon": -77.05414483333334, "bike_id": "c5a56c6e9d672214a034473b2603a43e", "fusion_lat": 0.0, "is_disabled": 0, "fusion_lon": 0.0}, {"name": "0e46a6797b6feac06ae001a244e4b945", "is_reserved": 0, "type": "electric_scooter", "rental_uris": {"ios": "https://dc.lft.to/lastmile_qr_scan", "android": "https://dc.lft.to/lastmile_qr_scan"}, "lat": 38.9430835, "lon": -77.059381, "bike_id": "0e46a6797b6feac06ae001a244e4b945", "fusion_lat": 0.0, "is_disabled": 0, "fusion_lon": 0.0}, {"name": "dfdd4f915ba7b97cfe5ff53d96d3748f", "is_reserved": 0, "type": "electric_scooter", "rental_uris": {"ios": "https://dc.lft.to/lastmile_qr_scan", "android": "https://dc.lft.to/lastmile_qr_scan"}, "lat": 38.93675266666666, "lon": -77.03593783333334, "bike_id": "dfdd4f915ba7b97cfe5ff53d96d3748f", "fusion_lat": 0.0, "is_disabled": 0, "fusion_lon": 0.0}, {"name": "d963d71774b0a4d5051d2a0c41ccd0fd", "is_reserved": 0, "type": "electric_scooter", "rental_uris": {"ios": "https://dc.lft.to/lastmile_qr_scan", "android": "https://dc.lft.to/lastmile_qr_scan"}, "lat": 38.916906166666664, "lon": -77.0343935, "bike_id": "d963d71774b0a4d5051d2a0c41ccd0fd", "fusion_lat": 0.0, "is_disabled": 0, "fusion_lon": 0.0}, {"name": "71b1b8f55bec9da9515760d639044f3b", "is_reserved": 0, "type": "electric_scooter", "rental_uris": {"ios": "https://dc.lft.to/lastmile_qr_scan", "android": "https://dc.lft.to/lastmile_qr_scan"}, "lat": 38.88725433333333, "lon": -77.01982033333333, "bike_id": "71b1b8f55bec9da9515760d639044f3b", "fusion_lat": 0.0, "is_disabled": 0, "fusion_lon": 0.0}, {"name": "cd34ef8f7403ba7232c4067aeccd1f5b", "is_reserved": 0, "type": "electric_scooter", "rental_uris": {"ios": "https://dc.lft.to/lastmile_qr_scan", "android": "https://dc.lft.to/lastmile_qr_scan"}, "lat": 38.886541, "lon": -77.01530233333334, "bike_id": "cd34ef8f7403ba7232c4067aeccd1f5b", "fusion_lat": 0.0, "is_disabled": 0, "fusion_lon": 0.0}, {"name": "3d041907fd621dd9b8b6316999c1ca36", "is_reserved": 0, "type": "electric_scooter", "rental_uris": {"ios": "https://dc.lft.to/lastmile_qr_scan", "android": "https://dc.lft.to/lastmile_qr_scan"}, "lat": 38.89728983333333, "lon": -77.024414, "bike_id": "3d041907fd621dd9b8b6316999c1ca36", "fusion_lat": 0.0, "is_disabled": 0, "fusion_lon": 0.0}, {"name": "36900f01ebd59acc8479b67e0a94f35f", "is_reserved": 0, "type": "electric_scooter", "rental_uris": {"ios": "https://dc.lft.to/lastmile_qr_scan", "android": "https://dc.lft.to/lastmile_qr_scan"}, "lat": 38.86325383333333, "lon": -76.9915155, "bike_id": "36900f01ebd59acc8479b67e0a94f35f", "fusion_lat": 0.0, "is_disabled": 0, "fusion_lon": 0.0}, {"name": "4e90b20e040f512d17b78a3309f8aee8", "is_reserved": 0, "type": "electric_scooter", "rental_uris": {"ios": "https://dc.lft.to/lastmile_qr_scan", "android": "https://dc.lft.to/lastmile_qr_scan"}, "lat": 38.927910833333335, "lon": -77.05421116666666, "bike_id": "4e90b20e040f512d17b78a3309f8aee8", "fusion_lat": 0.0, "is_disabled": 0, "fusion_lon": 0.0}, {"name": "92f96ea1a345a71c17513b02b06e07e2", "is_reserved": 0, "type": "electric_scooter", "rental_uris": {"ios": "https://dc.lft.to/lastmile_qr_scan", "android": "https://dc.lft.to/lastmile_qr_scan"}, "lat": 38.92618, "lon": -77.0222265, "bike_id": "92f96ea1a345a71c17513b02b06e07e2", "fusion_lat": 0.0, "is_disabled": 0, "fusion_lon": 0.0}, {"name": "44e1fdc5e0251844677fa3b242ee573f", "is_reserved": 0, "type": "electric_bike", "rental_uris": {"ios": "https://dc.lft.to/lastmile_qr_scan", "android": "https://dc.lft.to/lastmile_qr_scan"}, "lat": 38.922708666666665, "lon": -77.01988266666666, "bike_id": "44e1fdc5e0251844677fa3b242ee573f", "fusion_lat": 0.0, "is_disabled": 0, "fusion_lon": 0.0}, {"name": "cd2a8e5ddf0f219a9c8074460af2fa55", "is_reserved": 0, "type": "electric_scooter", "rental_uris": {"ios": "https://dc.lft.to/lastmile_qr_scan", "android": "https://dc.lft.to/lastmile_qr_scan"}, "lat": 38.916819, "lon": -77.036645, "bike_id": "cd2a8e5ddf0f219a9c8074460af2fa55", "fusion_lat": 0.0, "is_disabled": 0, "fusion_lon": 0.0}, {"name": "e5dff137072cc6239a75484492d850ca", "is_reserved": 0, "type": "electric_scooter", "rental_uris": {"ios": "https://dc.lft.to/lastmile_qr_scan", "android": "https://dc.lft.to/lastmile_qr_scan"}, "lat": 38.8581115, "lon": -76.989258, "bike_id": "e5dff137072cc6239a75484492d850ca", "fusion_lat": 0.0, "is_disabled": 0, "fusion_lon": 0.0}, {"name": "c51e92c299a3df6ea70f10a5c5292a42", "is_reserved": 0, "type": "electric_bike", "rental_uris": {"ios": "https://dc.lft.to/lastmile_qr_scan", "android": "https://dc.lft.to/lastmile_qr_scan"}, "lat": 38.8959625, "lon": -76.90711516666667, "bike_id": "c51e92c299a3df6ea70f10a5c5292a42", "fusion_lat": 0.0, "is_disabled": 0, "fusion_lon": 0.0}, {"name": "a1cf346ed383ae2d47422c518aac2b7d", "is_reserved": 0, "type": "electric_scooter", "rental_uris": {"ios": "https://dc.lft.to/lastmile_qr_scan", "android": "https://dc.lft.to/lastmile_qr_scan"}, "lat": 38.91802766666667, "lon": -77.034397, "bike_id": "a1cf346ed383ae2d47422c518aac2b7d", "fusion_lat": 0.0, "is_disabled": 0, "fusion_lon": 0.0}, {"name": "647d7c3d4a1a1c12970f2bd645dab0f6", "is_reserved": 0, "type": "electric_scooter", "rental_uris": {"ios": "https://dc.lft.to/lastmile_qr_scan", "android": "https://dc.lft.to/lastmile_qr_scan"}, "lat": 38.84432733333333, "lon": -76.998171, "bike_id": "647d7c3d4a1a1c12970f2bd645dab0f6", "fusion_lat": 0.0, "is_disabled": 0, "fusion_lon": 0.0}, {"name": "c7cee6e91fccd789990a1a8da4b39488", "is_reserved": 0, "type": "electric_scooter", "rental_uris": {"ios": "https://dc.lft.to/lastmile_qr_scan", "android": "https://dc.lft.to/lastmile_qr_scan"}, "lat": 38.8969375, "lon": -77.00500883333333, "bike_id": "c7cee6e91fccd789990a1a8da4b39488", "fusion_lat": 0.0, "is_disabled": 0, "fusion_lon": 0.0}, {"name": "8082d48a127643e7355fd3a3380784b4", "is_reserved": 0, "type": "electric_scooter", "rental_uris": {"ios": "https://dc.lft.to/lastmile_qr_scan", "android": "https://dc.lft.to/lastmile_qr_scan"}, "lat": 38.923508, "lon": -77.03200016666666, "bike_id": "8082d48a127643e7355fd3a3380784b4", "fusion_lat": 0.0, "is_disabled": 0, "fusion_lon": 0.0}, {"name": "44a753e720c63cf78240685aaab77dc8", "is_reserved": 0, "type": "electric_scooter", "rental_uris": {"ios": "https://dc.lft.to/lastmile_qr_scan", "android": "https://dc.lft.to/lastmile_qr_scan"}, "lat": 38.89854733333333, "lon": -76.9903375, "bike_id": "44a753e720c63cf78240685aaab77dc8", "fusion_lat": 0.0, "is_disabled": 0, "fusion_lon": 0.0}, {"name": "c893eb436151fc05f667bbb30d18a413", "is_reserved": 0, "type": "electric_bike", "rental_uris": {"ios": "https://dc.lft.to/lastmile_qr_scan", "android": "https://dc.lft.to/lastmile_qr_scan"}, "lat": 38.94921333333333, "lon": -77.00802866666666, "bike_id": "c893eb436151fc05f667bbb30d18a413", "fusion_lat": 0.0, "is_disabled": 0, "fusion_lon": 0.0}, {"name": "0eeb48ead14d3722595cf82cbef9bb26", "is_reserved": 0, "type": "electric_scooter", "rental_uris": {"ios": "https://dc.lft.to/lastmile_qr_scan", "android": "https://dc.lft.to/lastmile_qr_scan"}, "lat": 38.910470333333336, "lon": -77.04831766666666, "bike_id": "0eeb48ead14d3722595cf82cbef9bb26", "fusion_lat": 0.0, "is_disabled": 0, "fusion_lon": 0.0}, {"name": "e276c9a4e7e1882a37648436fa7093b1", "is_reserved": 0, "type": "electric_scooter", "rental_uris": {"ios": "https://dc.lft.to/lastmile_qr_scan", "android": "https://dc.lft.to/lastmile_qr_scan"}, "lat": 38.90048133333333, "lon": -76.98285566666667, "bike_id": "e276c9a4e7e1882a37648436fa7093b1", "fusion_lat": 0.0, "is_disabled": 0, "fusion_lon": 0.0}, {"name": "ff0b18b0dfd872135d09294ca8b82042", "is_reserved": 0, "type": "electric_scooter", "rental_uris": {"ios": "https://dc.lft.to/lastmile_qr_scan", "android": "https://dc.lft.to/lastmile_qr_scan"}, "lat": 38.93054383333333, "lon": -77.01996833333334, "bike_id": "ff0b18b0dfd872135d09294ca8b82042", "fusion_lat": 0.0, "is_disabled": 0, "fusion_lon": 0.0}, {"name": "96afac9914b8e4c620d44cac0cab87cf", "is_reserved": 0, "type": "electric_bike", "rental_uris": {"ios": "https://dc.lft.to/lastmile_qr_scan", "android": "https://dc.lft.to/lastmile_qr_scan"}, "lat": 38.974408, "lon": -77.02988533333334, "bike_id": "96afac9914b8e4c620d44cac0cab87cf", "fusion_lat": 0.0, "is_disabled": 0, "fusion_lon": 0.0}, {"name": "a1ce2bfc0742a978b2e91e57cbde455e", "is_reserved": 0, "type": "electric_scooter", "rental_uris": {"ios": "https://dc.lft.to/lastmile_qr_scan", "android": "https://dc.lft.to/lastmile_qr_scan"}, "lat": 38.90983266666667, "lon": -77.033018, "bike_id": "a1ce2bfc0742a978b2e91e57cbde455e", "fusion_lat": 0.0, "is_disabled": 0, "fusion_lon": 0.0}, {"name": "8acf8ec9619cfeeba4eaefb80104e491", "is_reserved": 0, "type": "electric_bike", "rental_uris": {"ios": "https://dc.lft.to/lastmile_qr_scan", "android": "https://dc.lft.to/lastmile_qr_scan"}, "lat": 38.854521, "lon": -76.97246933333334, "bike_id": "8acf8ec9619cfeeba4eaefb80104e491", "fusion_lat": 0.0, "is_disabled": 0, "fusion_lon": 0.0}, {"name": "429ffa11e72468d0c8aa7960c37baeef", "is_reserved": 0, "type": "electric_scooter", "rental_uris": {"ios": "https://dc.lft.to/lastmile_qr_scan", "android": "https://dc.lft.to/lastmile_qr_scan"}, "lat": 38.924785166666666, "lon": -77.05241916666667, "bike_id": "429ffa11e72468d0c8aa7960c37baeef", "fusion_lat": 0.0, "is_disabled": 0, "fusion_lon": 0.0}, {"name": "cfe88527bca88ecef8c97cc188ac976b", "is_reserved": 0, "type": "electric_scooter", "rental_uris": {"ios": "https://dc.lft.to/lastmile_qr_scan", "android": "https://dc.lft.to/lastmile_qr_scan"}, "lat": 38.924477833333334, "lon": -76.997665, "bike_id": "cfe88527bca88ecef8c97cc188ac976b", "fusion_lat": 0.0, "is_disabled": 0, "fusion_lon": 0.0}, {"name": "7cb9787f810dcc343d00c077df8c0d51", "is_reserved": 0, "type": "electric_scooter", "rental_uris": {"ios": "https://dc.lft.to/lastmile_qr_scan", "android": "https://dc.lft.to/lastmile_qr_scan"}, "lat": 38.8971085, "lon": -77.02293416666667, "bike_id": "7cb9787f810dcc343d00c077df8c0d51", "fusion_lat": 0.0, "is_disabled": 0, "fusion_lon": 0.0}, {"name": "44eb263a0fce1919c82998058713af6b", "is_reserved": 0, "type": "electric_scooter", "rental_uris": {"ios": "https://dc.lft.to/lastmile_qr_scan", "android": "https://dc.lft.to/lastmile_qr_scan"}, "lat": 38.92343833333334, "lon": -77.03496666666666, "bike_id": "44eb263a0fce1919c82998058713af6b", "fusion_lat": 0.0, "is_disabled": 0, "fusion_lon": 0.0}, {"name": "32e4417dc20bd2ab262764df971c76c9", "is_reserved": 0, "type": "electric_bike", "rental_uris": {"ios": "https://dc.lft.to/lastmile_qr_scan", "android": "https://dc.lft.to/lastmile_qr_scan"}, "lat": 38.919669666666664, "lon": -77.03178216666667, "bike_id": "32e4417dc20bd2ab262764df971c76c9", "fusion_lat": 0.0, "is_disabled": 0, "fusion_lon": 0.0}, {"name": "4d1099ba66d60f4a4473427f68bd3811", "is_reserved": 0, "type": "electric_scooter", "rental_uris": {"ios": "https://dc.lft.to/lastmile_qr_scan", "android": "https://dc.lft.to/lastmile_qr_scan"}, "lat": 38.924207833333334, "lon": -77.0195215, "bike_id": "4d1099ba66d60f4a4473427f68bd3811", "fusion_lat": 0.0, "is_disabled": 0, "fusion_lon": 0.0}, {"name": "23f1ee0057f4e28b893398501bde53fc", "is_reserved": 0, "type": "electric_scooter", "rental_uris": {"ios": "https://dc.lft.to/lastmile_qr_scan", "android": "https://dc.lft.to/lastmile_qr_scan"}, "lat": 38.866648833333336, "lon": -76.98884383333333, "bike_id": "23f1ee0057f4e28b893398501bde53fc", "fusion_lat": 0.0, "is_disabled": 0, "fusion_lon": 0.0}, {"name": "b4f8bd1a836c5924993bc41ca35c56b0", "is_reserved": 0, "type": "electric_scooter", "rental_uris": {"ios": "https://dc.lft.to/lastmile_qr_scan", "android": "https://dc.lft.to/lastmile_qr_scan"}, "lat": 38.892252666666664, "lon": -77.03990733333333, "bike_id": "b4f8bd1a836c5924993bc41ca35c56b0", "fusion_lat": 0.0, "is_disabled": 0, "fusion_lon": 0.0}, {"name": "232c7ec5a731c2ab45ceadd9e743cb1a", "is_reserved": 0, "type": "electric_scooter", "rental_uris": {"ios": "https://dc.lft.to/lastmile_qr_scan", "android": "https://dc.lft.to/lastmile_qr_scan"}, "lat": 38.91942016666667, "lon": -77.03202833333333, "bike_id": "232c7ec5a731c2ab45ceadd9e743cb1a", "fusion_lat": 0.0, "is_disabled": 0, "fusion_lon": 0.0}, {"name": "8dda3435f5ddd37388e9bcca648ea606", "is_reserved": 0, "type": "electric_scooter", "rental_uris": {"ios": "https://dc.lft.to/lastmile_qr_scan", "android": "https://dc.lft.to/lastmile_qr_scan"}, "lat": 38.9426035, "lon": -77.025321, "bike_id": "8dda3435f5ddd37388e9bcca648ea606", "fusion_lat": 0.0, "is_disabled": 0, "fusion_lon": 0.0}, {"name": "dd2b25be7b221a84bb04bbf0e863194c", "is_reserved": 0, "type": "electric_scooter", "rental_uris": {"ios": "https://dc.lft.to/lastmile_qr_scan", "android": "https://dc.lft.to/lastmile_qr_scan"}, "lat": 38.919256, "lon": -77.03360133333334, "bike_id": "dd2b25be7b221a84bb04bbf0e863194c", "fusion_lat": 0.0, "is_disabled": 0, "fusion_lon": 0.0}, {"name": "2c5c50faacf7cf91d3603fcb59e7ed17", "is_reserved": 0, "type": "electric_scooter", "rental_uris": {"ios": "https://dc.lft.to/lastmile_qr_scan", "android": "https://dc.lft.to/lastmile_qr_scan"}, "lat": 38.93864166666667, "lon": -77.024904, "bike_id": "2c5c50faacf7cf91d3603fcb59e7ed17", "fusion_lat": 0.0, "is_disabled": 0, "fusion_lon": 0.0}, {"name": "30b8d506897b420984f4ac3e5c79e88b", "is_reserved": 0, "type": "electric_scooter", "rental_uris": {"ios": "https://dc.lft.to/lastmile_qr_scan", "android": "https://dc.lft.to/lastmile_qr_scan"}, "lat": 38.87597866666667, "lon": -77.0199765, "bike_id": "30b8d506897b420984f4ac3e5c79e88b", "fusion_lat": 0.0, "is_disabled": 0, "fusion_lon": 0.0}, {"name": "e865083d0e160f73febbe7fe844ca8e5", "is_reserved": 0, "type": "electric_bike", "rental_uris": {"ios": "https://dc.lft.to/lastmile_qr_scan", "android": "https://dc.lft.to/lastmile_qr_scan"}, "lat": 38.87671866666667, "lon": -77.014459, "bike_id": "e865083d0e160f73febbe7fe844ca8e5", "fusion_lat": 0.0, "is_disabled": 0, "fusion_lon": 0.0}, {"name": "83e44f28563d21d289cb195582a41ab7", "is_reserved": 0, "type": "electric_scooter", "rental_uris": {"ios": "https://dc.lft.to/lastmile_qr_scan", "android": "https://dc.lft.to/lastmile_qr_scan"}, "lat": 38.886108166666666, "lon": -76.98751883333334, "bike_id": "83e44f28563d21d289cb195582a41ab7", "fusion_lat": 0.0, "is_disabled": 0, "fusion_lon": 0.0}, {"name": "899282f2b5547b3327318e0436412015", "is_reserved": 0, "type": "electric_scooter", "rental_uris": {"ios": "https://dc.lft.to/lastmile_qr_scan", "android": "https://dc.lft.to/lastmile_qr_scan"}, "lat": 38.918173, "lon": -77.032076, "bike_id": "899282f2b5547b3327318e0436412015", "fusion_lat": 0.0, "is_disabled": 0, "fusion_lon": 0.0}, {"name": "07b83342d9b23cbc5513c052a688a688", "is_reserved": 0, "type": "electric_scooter", "rental_uris": {"ios": "https://dc.lft.to/lastmile_qr_scan", "android": "https://dc.lft.to/lastmile_qr_scan"}, "lat": 38.90724216666667, "lon": -77.02984483333333, "bike_id": "07b83342d9b23cbc5513c052a688a688", "fusion_lat": 0.0, "is_disabled": 0, "fusion_lon": 0.0}, {"name": "028f41a6d5f2b104a3fab8a20c253086", "is_reserved": 0, "type": "electric_scooter", "rental_uris": {"ios": "https://dc.lft.to/lastmile_qr_scan", "android": "https://dc.lft.to/lastmile_qr_scan"}, "lat": 38.916951833333336, "lon": -77.037827, "bike_id": "028f41a6d5f2b104a3fab8a20c253086", "fusion_lat": 0.0, "is_disabled": 0, "fusion_lon": 0.0}, {"name": "61c41c6d3c833fb4f6f70bbbb1790744", "is_reserved": 0, "type": "electric_scooter", "rental_uris": {"ios": "https://dc.lft.to/lastmile_qr_scan", "android": "https://dc.lft.to/lastmile_qr_scan"}, "lat": 38.91966433333333, "lon": -77.048537, "bike_id": "61c41c6d3c833fb4f6f70bbbb1790744", "fusion_lat": 0.0, "is_disabled": 0, "fusion_lon": 0.0}, {"name": "ca9a8700cdd63150b708e41c9524cddf", "is_reserved": 0, "type": "electric_scooter", "rental_uris": {"ios": "https://dc.lft.to/lastmile_qr_scan", "android": "https://dc.lft.to/lastmile_qr_scan"}, "lat": 38.9002745, "lon": -77.00675133333333, "bike_id": "ca9a8700cdd63150b708e41c9524cddf", "fusion_lat": 0.0, "is_disabled": 0, "fusion_lon": 0.0}, {"name": "a1939424d6925212b18aeca33662e0e4", "is_reserved": 0, "type": "electric_bike", "rental_uris": {"ios": "https://dc.lft.to/lastmile_qr_scan", "android": "https://dc.lft.to/lastmile_qr_scan"}, "lat": 38.9489205, "lon": -77.01506366666666, "bike_id": "a1939424d6925212b18aeca33662e0e4", "fusion_lat": 0.0, "is_disabled": 0, "fusion_lon": 0.0}, {"name": "498b4c7f8d0c3078614f996fcceedfed", "is_reserved": 0, "type": "electric_scooter", "rental_uris": {"ios": "https://dc.lft.to/lastmile_qr_scan", "android": "https://dc.lft.to/lastmile_qr_scan"}, "lat": 38.887469833333334, "lon": -77.0223315, "bike_id": "498b4c7f8d0c3078614f996fcceedfed", "fusion_lat": 0.0, "is_disabled": 0, "fusion_lon": 0.0}, {"name": "273e6437c68eaff3a289b499c4b42ab4", "is_reserved": 0, "type": "electric_scooter", "rental_uris": {"ios": "https://dc.lft.to/lastmile_qr_scan", "android": "https://dc.lft.to/lastmile_qr_scan"}, "lat": 38.933910833333336, "lon": -77.05744166666666, "bike_id": "273e6437c68eaff3a289b499c4b42ab4", "fusion_lat": 0.0, "is_disabled": 0, "fusion_lon": 0.0}, {"name": "2efff1406f2cb3dba8d512b65174a869", "is_reserved": 0, "type": "electric_scooter", "rental_uris": {"ios": "https://dc.lft.to/lastmile_qr_scan", "android": "https://dc.lft.to/lastmile_qr_scan"}, "lat": 38.919415666666666, "lon": -77.03441133333334, "bike_id": "2efff1406f2cb3dba8d512b65174a869", "fusion_lat": 0.0, "is_disabled": 0, "fusion_lon": 0.0}, {"name": "574c149966973f029e238a1594eed183", "is_reserved": 0, "type": "electric_bike", "rental_uris": {"ios": "https://dc.lft.to/lastmile_qr_scan", "android": "https://dc.lft.to/lastmile_qr_scan"}, "lat": 38.84437116666667, "lon": -77.08589183333333, "bike_id": "574c149966973f029e238a1594eed183", "fusion_lat": 0.0, "is_disabled": 0, "fusion_lon": 0.0}, {"name": "f6d53e8fb08b5c32a9a247497a01d573", "is_reserved": 0, "type": "electric_scooter", "rental_uris": {"ios": "https://dc.lft.to/lastmile_qr_scan", "android": "https://dc.lft.to/lastmile_qr_scan"}, "lat": 38.921610333333334, "lon": -77.03489316666666, "bike_id": "f6d53e8fb08b5c32a9a247497a01d573", "fusion_lat": 0.0, "is_disabled": 0, "fusion_lon": 0.0}, {"name": "6520b7e19a0e774b8c2f9c9380c883b1", "is_reserved": 0, "type": "electric_scooter", "rental_uris": {"ios": "https://dc.lft.to/lastmile_qr_scan", "android": "https://dc.lft.to/lastmile_qr_scan"}, "lat": 38.90958533333333, "lon": -77.02310316666667, "bike_id": "6520b7e19a0e774b8c2f9c9380c883b1", "fusion_lat": 0.0, "is_disabled": 0, "fusion_lon": 0.0}, {"name": "3ef5942f4361775e6623f2af42d68eb8", "is_reserved": 0, "type": "electric_scooter", "rental_uris": {"ios": "https://dc.lft.to/lastmile_qr_scan", "android": "https://dc.lft.to/lastmile_qr_scan"}, "lat": 38.923322, "lon": -77.04304466666666, "bike_id": "3ef5942f4361775e6623f2af42d68eb8", "fusion_lat": 0.0, "is_disabled": 0, "fusion_lon": 0.0}, {"name": "af4814a65563dda1ca0aa71dd7b50b05", "is_reserved": 0, "type": "electric_bike", "rental_uris": {"ios": "https://dc.lft.to/lastmile_qr_scan", "android": "https://dc.lft.to/lastmile_qr_scan"}, "lat": 38.94907166666667, "lon": -76.97238133333333, "bike_id": "af4814a65563dda1ca0aa71dd7b50b05", "fusion_lat": 0.0, "is_disabled": 0, "fusion_lon": 0.0}, {"name": "b1f4be13e5ebac4b02f2b7b429efb1b1", "is_reserved": 0, "type": "electric_scooter", "rental_uris": {"ios": "https://dc.lft.to/lastmile_qr_scan", "android": "https://dc.lft.to/lastmile_qr_scan"}, "lat": 38.91780166666667, "lon": -76.9732765, "bike_id": "b1f4be13e5ebac4b02f2b7b429efb1b1", "fusion_lat": 0.0, "is_disabled": 0, "fusion_lon": 0.0}, {"name": "fa2ac52fb42faf3f5e1ad1215e00549c", "is_reserved": 0, "type": "electric_scooter", "rental_uris": {"ios": "https://dc.lft.to/lastmile_qr_scan", "android": "https://dc.lft.to/lastmile_qr_scan"}, "lat": 38.903064, "lon": -77.04344966666666, "bike_id": "fa2ac52fb42faf3f5e1ad1215e00549c", "fusion_lat": 0.0, "is_disabled": 0, "fusion_lon": 0.0}, {"name": "5b078412dcd4782e59dd4d8112b7b90c", "is_reserved": 0, "type": "electric_scooter", "rental_uris": {"ios": "https://dc.lft.to/lastmile_qr_scan", "android": "https://dc.lft.to/lastmile_qr_scan"}, "lat": 38.91516383333333, "lon": -76.98491816666666, "bike_id": "5b078412dcd4782e59dd4d8112b7b90c", "fusion_lat": 0.0, "is_disabled": 0, "fusion_lon": 0.0}, {"name": "28ec4a9f923f1678f7ee6f67d643ebf1", "is_reserved": 0, "type": "electric_scooter", "rental_uris": {"ios": "https://dc.lft.to/lastmile_qr_scan", "android": "https://dc.lft.to/lastmile_qr_scan"}, "lat": 38.90260516666667, "lon": -77.00230316666666, "bike_id": "28ec4a9f923f1678f7ee6f67d643ebf1", "fusion_lat": 0.0, "is_disabled": 0, "fusion_lon": 0.0}, {"name": "785209d125bad748585fe4564fd9430d", "is_reserved": 0, "type": "electric_scooter", "rental_uris": {"ios": "https://dc.lft.to/lastmile_qr_scan", "android": "https://dc.lft.to/lastmile_qr_scan"}, "lat": 38.898089666666664, "lon": -76.99160416666666, "bike_id": "785209d125bad748585fe4564fd9430d", "fusion_lat": 0.0, "is_disabled": 0, "fusion_lon": 0.0}, {"name": "908c2265ff4005a06a5474b8047acce8", "is_reserved": 0, "type": "electric_scooter", "rental_uris": {"ios": "https://dc.lft.to/lastmile_qr_scan", "android": "https://dc.lft.to/lastmile_qr_scan"}, "lat": 38.917852333333336, "lon": -77.031881, "bike_id": "908c2265ff4005a06a5474b8047acce8", "fusion_lat": 0.0, "is_disabled": 0, "fusion_lon": 0.0}, {"name": "fe15cb3cc8b1b425c5e2532f48a42629", "is_reserved": 0, "type": "electric_scooter", "rental_uris": {"ios": "https://dc.lft.to/lastmile_qr_scan", "android": "https://dc.lft.to/lastmile_qr_scan"}, "lat": 38.8874615, "lon": -77.0140675, "bike_id": "fe15cb3cc8b1b425c5e2532f48a42629", "fusion_lat": 0.0, "is_disabled": 0, "fusion_lon": 0.0}, {"name": "9f7d40023d1009473715ee7d4ada7b7e", "is_reserved": 0, "type": "electric_scooter", "rental_uris": {"ios": "https://dc.lft.to/lastmile_qr_scan", "android": "https://dc.lft.to/lastmile_qr_scan"}, "lat": 38.91707533333334, "lon": -77.0417315, "bike_id": "9f7d40023d1009473715ee7d4ada7b7e", "fusion_lat": 0.0, "is_disabled": 0, "fusion_lon": 0.0}, {"name": "0ede5533714556c485552da3aa8999fe", "is_reserved": 0, "type": "electric_scooter", "rental_uris": {"ios": "https://dc.lft.to/lastmile_qr_scan", "android": "https://dc.lft.to/lastmile_qr_scan"}, "lat": 38.892171, "lon": -77.02660433333334, "bike_id": "0ede5533714556c485552da3aa8999fe", "fusion_lat": 0.0, "is_disabled": 0, "fusion_lon": 0.0}, {"name": "39565e0441ffc23e093dfe6437749657", "is_reserved": 0, "type": "electric_scooter", "rental_uris": {"ios": "https://dc.lft.to/lastmile_qr_scan", "android": "https://dc.lft.to/lastmile_qr_scan"}, "lat": 38.91074883333334, "lon": -77.02889033333334, "bike_id": "39565e0441ffc23e093dfe6437749657", "fusion_lat": 0.0, "is_disabled": 0, "fusion_lon": 0.0}, {"name": "c546d5eb465b4b0c0927897741802b38", "is_reserved": 0, "type": "electric_scooter", "rental_uris": {"ios": "https://dc.lft.to/lastmile_qr_scan", "android": "https://dc.lft.to/lastmile_qr_scan"}, "lat": 38.895562166666664, "lon": -76.9565515, "bike_id": "c546d5eb465b4b0c0927897741802b38", "fusion_lat": 0.0, "is_disabled": 0, "fusion_lon": 0.0}, {"name": "77950bc4e01b84ac196d1302d98884c7", "is_reserved": 0, "type": "electric_bike", "rental_uris": {"ios": "https://dc.lft.to/lastmile_qr_scan", "android": "https://dc.lft.to/lastmile_qr_scan"}, "lat": 39.088617, "lon": -77.1784425, "bike_id": "77950bc4e01b84ac196d1302d98884c7", "fusion_lat": 0.0, "is_disabled": 0, "fusion_lon": 0.0}, {"name": "69dea88840b0818acdcf18b5625255c6", "is_reserved": 0, "type": "electric_bike", "rental_uris": {"ios": "https://dc.lft.to/lastmile_qr_scan", "android": "https://dc.lft.to/lastmile_qr_scan"}, "lat": 38.91695766666667, "lon": -77.03552333333333, "bike_id": "69dea88840b0818acdcf18b5625255c6", "fusion_lat": 0.0, "is_disabled": 0, "fusion_lon": 0.0}, {"name": "b8f6b39eaea9f869c502372f35f1fe2a", "is_reserved": 0, "type": "electric_scooter", "rental_uris": {"ios": "https://dc.lft.to/lastmile_qr_scan", "android": "https://dc.lft.to/lastmile_qr_scan"}, "lat": 38.91699083333334, "lon": -77.04283333333333, "bike_id": "b8f6b39eaea9f869c502372f35f1fe2a", "fusion_lat": 0.0, "is_disabled": 0, "fusion_lon": 0.0}, {"name": "956020a2617abda0e9886d7504ede26d", "is_reserved": 0, "type": "electric_bike", "rental_uris": {"ios": "https://dc.lft.to/lastmile_qr_scan", "android": "https://dc.lft.to/lastmile_qr_scan"}, "lat": 38.8880715, "lon": -77.04280666666666, "bike_id": "956020a2617abda0e9886d7504ede26d", "fusion_lat": 0.0, "is_disabled": 0, "fusion_lon": 0.0}, {"name": "aea50d93a1ccb34d130ba36726b9b23d", "is_reserved": 0, "type": "electric_scooter", "rental_uris": {"ios": "https://dc.lft.to/lastmile_qr_scan", "android": "https://dc.lft.to/lastmile_qr_scan"}, "lat": 38.90026833333334, "lon": -77.011653, "bike_id": "aea50d93a1ccb34d130ba36726b9b23d", "fusion_lat": 0.0, "is_disabled": 0, "fusion_lon": 0.0}, {"name": "0f92be3bf4be6d6c057880bb3394d3d2", "is_reserved": 0, "type": "electric_scooter", "rental_uris": {"ios": "https://dc.lft.to/lastmile_qr_scan", "android": "https://dc.lft.to/lastmile_qr_scan"}, "lat": 38.924786833333336, "lon": -77.03784216666666, "bike_id": "0f92be3bf4be6d6c057880bb3394d3d2", "fusion_lat": 0.0, "is_disabled": 0, "fusion_lon": 0.0}, {"name": "507f7e493f619fb9f24d4a70b33ee641", "is_reserved": 0, "type": "electric_scooter", "rental_uris": {"ios": "https://dc.lft.to/lastmile_qr_scan", "android": "https://dc.lft.to/lastmile_qr_scan"}, "lat": 38.920537, "lon": -77.0340935, "bike_id": "507f7e493f619fb9f24d4a70b33ee641", "fusion_lat": 0.0, "is_disabled": 0, "fusion_lon": 0.0}, {"name": "44f405d297c39eca7dcdcd1901d7556f", "is_reserved": 0, "type": "electric_scooter", "rental_uris": {"ios": "https://dc.lft.to/lastmile_qr_scan", "android": "https://dc.lft.to/lastmile_qr_scan"}, "lat": 38.888776166666666, "lon": -76.95720016666667, "bike_id": "44f405d297c39eca7dcdcd1901d7556f", "fusion_lat": 0.0, "is_disabled": 0, "fusion_lon": 0.0}, {"name": "62648a53db9611894efd8ba1a0eb802d", "is_reserved": 0, "type": "electric_scooter", "rental_uris": {"ios": "https://dc.lft.to/lastmile_qr_scan", "android": "https://dc.lft.to/lastmile_qr_scan"}, "lat": 38.923000333333334, "lon": -77.04271616666666, "bike_id": "62648a53db9611894efd8ba1a0eb802d", "fusion_lat": 0.0, "is_disabled": 0, "fusion_lon": 0.0}, {"name": "d1a9ab01982234cf20449ee4d437b4e5", "is_reserved": 0, "type": "electric_scooter", "rental_uris": {"ios": "https://dc.lft.to/lastmile_qr_scan", "android": "https://dc.lft.to/lastmile_qr_scan"}, "lat": 38.8811685, "lon": -77.01657016666667, "bike_id": "d1a9ab01982234cf20449ee4d437b4e5", "fusion_lat": 0.0, "is_disabled": 0, "fusion_lon": 0.0}, {"name": "0675cb281b116b8e3e7fb779151d1f91", "is_reserved": 0, "type": "electric_bike", "rental_uris": {"ios": "https://dc.lft.to/lastmile_qr_scan", "android": "https://dc.lft.to/lastmile_qr_scan"}, "lat": 38.959588333333336, "lon": -77.100901, "bike_id": "0675cb281b116b8e3e7fb779151d1f91", "fusion_lat": 0.0, "is_disabled": 0, "fusion_lon": 0.0}, {"name": "6314560a35b9f79066975c63d55656c1", "is_reserved": 0, "type": "electric_scooter", "rental_uris": {"ios": "https://dc.lft.to/lastmile_qr_scan", "android": "https://dc.lft.to/lastmile_qr_scan"}, "lat": 38.94086816666667, "lon": -77.02721416666667, "bike_id": "6314560a35b9f79066975c63d55656c1", "fusion_lat": 0.0, "is_disabled": 0, "fusion_lon": 0.0}, {"name": "c99aa6c7bd5c874678ea07be8b553711", "is_reserved": 0, "type": "electric_scooter", "rental_uris": {"ios": "https://dc.lft.to/lastmile_qr_scan", "android": "https://dc.lft.to/lastmile_qr_scan"}, "lat": 38.894810666666665, "lon": -77.02237816666667, "bike_id": "c99aa6c7bd5c874678ea07be8b553711", "fusion_lat": 0.0, "is_disabled": 0, "fusion_lon": 0.0}, {"name": "257ce7b1a4cd515cbb21a15c61ba4e7e", "is_reserved": 0, "type": "electric_scooter", "rental_uris": {"ios": "https://dc.lft.to/lastmile_qr_scan", "android": "https://dc.lft.to/lastmile_qr_scan"}, "lat": 38.900572833333335, "lon": -76.998282, "bike_id": "257ce7b1a4cd515cbb21a15c61ba4e7e", "fusion_lat": 0.0, "is_disabled": 0, "fusion_lon": 0.0}, {"name": "dfa4f51b2603361a547bf370a45fcb56", "is_reserved": 0, "type": "electric_scooter", "rental_uris": {"ios": "https://dc.lft.to/lastmile_qr_scan", "android": "https://dc.lft.to/lastmile_qr_scan"}, "lat": 38.9352145, "lon": -77.0234815, "bike_id": "dfa4f51b2603361a547bf370a45fcb56", "fusion_lat": 0.0, "is_disabled": 0, "fusion_lon": 0.0}, {"name": "6fddb945b784382cf82911266f3b60d9", "is_reserved": 0, "type": "electric_scooter", "rental_uris": {"ios": "https://dc.lft.to/lastmile_qr_scan", "android": "https://dc.lft.to/lastmile_qr_scan"}, "lat": 38.86970633333333, "lon": -77.01348316666666, "bike_id": "6fddb945b784382cf82911266f3b60d9", "fusion_lat": 0.0, "is_disabled": 0, "fusion_lon": 0.0}, {"name": "f821f49e682d4e5f4511fbefa2aa692e", "is_reserved": 0, "type": "electric_bike", "rental_uris": {"ios": "https://dc.lft.to/lastmile_qr_scan", "android": "https://dc.lft.to/lastmile_qr_scan"}, "lat": 38.91157533333333, "lon": -77.01152183333333, "bike_id": "f821f49e682d4e5f4511fbefa2aa692e", "fusion_lat": 0.0, "is_disabled": 0, "fusion_lon": 0.0}, {"name": "23004a3daa144ca647c1cd6a6a6c6db2", "is_reserved": 0, "type": "electric_scooter", "rental_uris": {"ios": "https://dc.lft.to/lastmile_qr_scan", "android": "https://dc.lft.to/lastmile_qr_scan"}, "lat": 38.9268015, "lon": -77.00760216666667, "bike_id": "23004a3daa144ca647c1cd6a6a6c6db2", "fusion_lat": 0.0, "is_disabled": 0, "fusion_lon": 0.0}, {"name": "887ddee96e2bb92bae3e770341d71fe2", "is_reserved": 0, "type": "electric_scooter", "rental_uris": {"ios": "https://dc.lft.to/lastmile_qr_scan", "android": "https://dc.lft.to/lastmile_qr_scan"}, "lat": 38.895215, "lon": -77.021985, "bike_id": "887ddee96e2bb92bae3e770341d71fe2", "fusion_lat": 0.0, "is_disabled": 0, "fusion_lon": 0.0}, {"name": "629f8776f4a82302b6ba529a8ee22b41", "is_reserved": 0, "type": "electric_bike", "rental_uris": {"ios": "https://dc.lft.to/lastmile_qr_scan", "android": "https://dc.lft.to/lastmile_qr_scan"}, "lat": 38.879526, "lon": -77.10745833333333, "bike_id": "629f8776f4a82302b6ba529a8ee22b41", "fusion_lat": 0.0, "is_disabled": 0, "fusion_lon": 0.0}, {"name": "130d77fa6db93c6f381526c58fc3a542", "is_reserved": 0, "type": "electric_scooter", "rental_uris": {"ios": "https://dc.lft.to/lastmile_qr_scan", "android": "https://dc.lft.to/lastmile_qr_scan"}, "lat": 38.897397, "lon": -77.033309, "bike_id": "130d77fa6db93c6f381526c58fc3a542", "fusion_lat": 0.0, "is_disabled": 0, "fusion_lon": 0.0}, {"name": "9783673f3cb9e3390333dbf90edbf828", "is_reserved": 0, "type": "electric_scooter", "rental_uris": {"ios": "https://dc.lft.to/lastmile_qr_scan", "android": "https://dc.lft.to/lastmile_qr_scan"}, "lat": 38.908055833333336, "lon": -76.9969365, "bike_id": "9783673f3cb9e3390333dbf90edbf828", "fusion_lat": 0.0, "is_disabled": 0, "fusion_lon": 0.0}, {"name": "0c115a06c106e7be9b4f6a455cb420e7", "is_reserved": 0, "type": "electric_scooter", "rental_uris": {"ios": "https://dc.lft.to/lastmile_qr_scan", "android": "https://dc.lft.to/lastmile_qr_scan"}, "lat": 38.88321833333333, "lon": -76.99833966666667, "bike_id": "0c115a06c106e7be9b4f6a455cb420e7", "fusion_lat": 0.0, "is_disabled": 0, "fusion_lon": 0.0}, {"name": "77f35575362427fe3a5ff421801dc3cd", "is_reserved": 0, "type": "electric_scooter", "rental_uris": {"ios": "https://dc.lft.to/lastmile_qr_scan", "android": "https://dc.lft.to/lastmile_qr_scan"}, "lat": 38.90037016666667, "lon": -77.00659483333334, "bike_id": "77f35575362427fe3a5ff421801dc3cd", "fusion_lat": 0.0, "is_disabled": 0, "fusion_lon": 0.0}, {"name": "a3c1382a11b72ff68388f9e00bcb62c9", "is_reserved": 0, "type": "electric_scooter", "rental_uris": {"ios": "https://dc.lft.to/lastmile_qr_scan", "android": "https://dc.lft.to/lastmile_qr_scan"}, "lat": 38.89938866666667, "lon": -77.02702516666666, "bike_id": "a3c1382a11b72ff68388f9e00bcb62c9", "fusion_lat": 0.0, "is_disabled": 0, "fusion_lon": 0.0}, {"name": "b61137c4bf043e355e7e392c61578500", "is_reserved": 0, "type": "electric_scooter", "rental_uris": {"ios": "https://dc.lft.to/lastmile_qr_scan", "android": "https://dc.lft.to/lastmile_qr_scan"}, "lat": 38.88743916666667, "lon": -77.015292, "bike_id": "b61137c4bf043e355e7e392c61578500", "fusion_lat": 0.0, "is_disabled": 0, "fusion_lon": 0.0}, {"name": "8d5e37e5d1c9f4346f417cd8d77e56b9", "is_reserved": 0, "type": "electric_scooter", "rental_uris": {"ios": "https://dc.lft.to/lastmile_qr_scan", "android": "https://dc.lft.to/lastmile_qr_scan"}, "lat": 38.920524666666665, "lon": -77.0337005, "bike_id": "8d5e37e5d1c9f4346f417cd8d77e56b9", "fusion_lat": 0.0, "is_disabled": 0, "fusion_lon": 0.0}, {"name": "11cd8478a6e2274c462802310860b5d6", "is_reserved": 0, "type": "electric_scooter", "rental_uris": {"ios": "https://dc.lft.to/lastmile_qr_scan", "android": "https://dc.lft.to/lastmile_qr_scan"}, "lat": 38.8814355, "lon": -76.94403083333333, "bike_id": "11cd8478a6e2274c462802310860b5d6", "fusion_lat": 0.0, "is_disabled": 0, "fusion_lon": 0.0}, {"name": "b1852688bff0c071f8e4ef7db002c685", "is_reserved": 0, "type": "electric_scooter", "rental_uris": {"ios": "https://dc.lft.to/lastmile_qr_scan", "android": "https://dc.lft.to/lastmile_qr_scan"}, "lat": 38.9065185, "lon": -77.05118616666667, "bike_id": "b1852688bff0c071f8e4ef7db002c685", "fusion_lat": 0.0, "is_disabled": 0, "fusion_lon": 0.0}, {"name": "c4aff9f2c355fba3a62788487fe715c2", "is_reserved": 0, "type": "electric_scooter", "rental_uris": {"ios": "https://dc.lft.to/lastmile_qr_scan", "android": "https://dc.lft.to/lastmile_qr_scan"}, "lat": 38.92131583333333, "lon": -77.04573683333334, "bike_id": "c4aff9f2c355fba3a62788487fe715c2", "fusion_lat": 0.0, "is_disabled": 0, "fusion_lon": 0.0}, {"name": "abffce6725235ff7975584e2ffc3ee46", "is_reserved": 0, "type": "electric_scooter", "rental_uris": {"ios": "https://dc.lft.to/lastmile_qr_scan", "android": "https://dc.lft.to/lastmile_qr_scan"}, "lat": 38.908229166666665, "lon": -77.07029733333333, "bike_id": "abffce6725235ff7975584e2ffc3ee46", "fusion_lat": 0.0, "is_disabled": 0, "fusion_lon": 0.0}, {"name": "c1cc01b768178b10af35fd5c31792977", "is_reserved": 0, "type": "electric_scooter", "rental_uris": {"ios": "https://dc.lft.to/lastmile_qr_scan", "android": "https://dc.lft.to/lastmile_qr_scan"}, "lat": 38.923624, "lon": -77.05123616666667, "bike_id": "c1cc01b768178b10af35fd5c31792977", "fusion_lat": 0.0, "is_disabled": 0, "fusion_lon": 0.0}, {"name": "a0634aa4efb9417a0d8a9441cce858d7", "is_reserved": 0, "type": "electric_scooter", "rental_uris": {"ios": "https://dc.lft.to/lastmile_qr_scan", "android": "https://dc.lft.to/lastmile_qr_scan"}, "lat": 38.87504966666667, "lon": -77.01746433333334, "bike_id": "a0634aa4efb9417a0d8a9441cce858d7", "fusion_lat": 0.0, "is_disabled": 0, "fusion_lon": 0.0}, {"name": "23a8aa8efece0b0f13daaf1002e48105", "is_reserved": 0, "type": "electric_scooter", "rental_uris": {"ios": "https://dc.lft.to/lastmile_qr_scan", "android": "https://dc.lft.to/lastmile_qr_scan"}, "lat": 38.940864833333336, "lon": -77.06131916666666, "bike_id": "23a8aa8efece0b0f13daaf1002e48105", "fusion_lat": 0.0, "is_disabled": 0, "fusion_lon": 0.0}, {"name": "0e93b22407d37bc1e52213ea658961fa", "is_reserved": 0, "type": "electric_scooter", "rental_uris": {"ios": "https://dc.lft.to/lastmile_qr_scan", "android": "https://dc.lft.to/lastmile_qr_scan"}, "lat": 38.905534833333334, "lon": -77.05704316666667, "bike_id": "0e93b22407d37bc1e52213ea658961fa", "fusion_lat": 0.0, "is_disabled": 0, "fusion_lon": 0.0}, {"name": "d15ebb9027dde2804a15c6980d745e80", "is_reserved": 0, "type": "electric_scooter", "rental_uris": {"ios": "https://dc.lft.to/lastmile_qr_scan", "android": "https://dc.lft.to/lastmile_qr_scan"}, "lat": 38.9182755, "lon": -77.034452, "bike_id": "d15ebb9027dde2804a15c6980d745e80", "fusion_lat": 0.0, "is_disabled": 0, "fusion_lon": 0.0}, {"name": "1f0adf29614f40ff30c40cc8cb8f6280", "is_reserved": 0, "type": "electric_scooter", "rental_uris": {"ios": "https://dc.lft.to/lastmile_qr_scan", "android": "https://dc.lft.to/lastmile_qr_scan"}, "lat": 38.9006615, "lon": -77.0454455, "bike_id": "1f0adf29614f40ff30c40cc8cb8f6280", "fusion_lat": 0.0, "is_disabled": 0, "fusion_lon": 0.0}, {"name": "70a5269c7793f3ca1c9c3b3b86dd61cf", "is_reserved": 0, "type": "electric_scooter", "rental_uris": {"ios": "https://dc.lft.to/lastmile_qr_scan", "android": "https://dc.lft.to/lastmile_qr_scan"}, "lat": 38.90451383333333, "lon": -76.98267083333333, "bike_id": "70a5269c7793f3ca1c9c3b3b86dd61cf", "fusion_lat": 0.0, "is_disabled": 0, "fusion_lon": 0.0}, {"name": "03272bec8f38f82de019cffb4e54640e", "is_reserved": 0, "type": "electric_scooter", "rental_uris": {"ios": "https://dc.lft.to/lastmile_qr_scan", "android": "https://dc.lft.to/lastmile_qr_scan"}, "lat": 38.88344216666667, "lon": -77.01606316666667, "bike_id": "03272bec8f38f82de019cffb4e54640e", "fusion_lat": 0.0, "is_disabled": 0, "fusion_lon": 0.0}, {"name": "6527b4aebfef252df02eb2f27ce272f7", "is_reserved": 0, "type": "electric_scooter", "rental_uris": {"ios": "https://dc.lft.to/lastmile_qr_scan", "android": "https://dc.lft.to/lastmile_qr_scan"}, "lat": 38.910445833333334, "lon": -77.0437345, "bike_id": "6527b4aebfef252df02eb2f27ce272f7", "fusion_lat": 0.0, "is_disabled": 0, "fusion_lon": 0.0}, {"name": "c0633c8fc56cd46028a3b78cbdeb24e3", "is_reserved": 0, "type": "electric_scooter", "rental_uris": {"ios": "https://dc.lft.to/lastmile_qr_scan", "android": "https://dc.lft.to/lastmile_qr_scan"}, "lat": 38.9097385, "lon": -77.0228165, "bike_id": "c0633c8fc56cd46028a3b78cbdeb24e3", "fusion_lat": 0.0, "is_disabled": 0, "fusion_lon": 0.0}, {"name": "7a1c2f8b2d03b263346faaae9470127a", "is_reserved": 0, "type": "electric_scooter", "rental_uris": {"ios": "https://dc.lft.to/lastmile_qr_scan", "android": "https://dc.lft.to/lastmile_qr_scan"}, "lat": 38.9153565, "lon": -77.0319465, "bike_id": "7a1c2f8b2d03b263346faaae9470127a", "fusion_lat": 0.0, "is_disabled": 0, "fusion_lon": 0.0}, {"name": "1cd2249cdce8b742258864f19df5fba6", "is_reserved": 0, "type": "electric_scooter", "rental_uris": {"ios": "https://dc.lft.to/lastmile_qr_scan", "android": "https://dc.lft.to/lastmile_qr_scan"}, "lat": 38.936591, "lon": -77.036955, "bike_id": "1cd2249cdce8b742258864f19df5fba6", "fusion_lat": 0.0, "is_disabled": 0, "fusion_lon": 0.0}, {"name": "90118ac3520cdf14066b558c6ad1e678", "is_reserved": 0, "type": "electric_scooter", "rental_uris": {"ios": "https://dc.lft.to/lastmile_qr_scan", "android": "https://dc.lft.to/lastmile_qr_scan"}, "lat": 38.872773333333335, "lon": -77.01722333333333, "bike_id": "90118ac3520cdf14066b558c6ad1e678", "fusion_lat": 0.0, "is_disabled": 0, "fusion_lon": 0.0}, {"name": "33cbd6ef7e5a348fd868d755074198fe", "is_reserved": 0, "type": "electric_scooter", "rental_uris": {"ios": "https://dc.lft.to/lastmile_qr_scan", "android": "https://dc.lft.to/lastmile_qr_scan"}, "lat": 38.881191666666666, "lon": -77.0265325, "bike_id": "33cbd6ef7e5a348fd868d755074198fe", "fusion_lat": 0.0, "is_disabled": 0, "fusion_lon": 0.0}, {"name": "3c1b62caf30b1e26f2cd56857eb076e1", "is_reserved": 0, "type": "electric_scooter", "rental_uris": {"ios": "https://dc.lft.to/lastmile_qr_scan", "android": "https://dc.lft.to/lastmile_qr_scan"}, "lat": 38.9245945, "lon": -77.04015533333333, "bike_id": "3c1b62caf30b1e26f2cd56857eb076e1", "fusion_lat": 0.0, "is_disabled": 0, "fusion_lon": 0.0}, {"name": "db165f7a902b076a3fe9e2dd4830f135", "is_reserved": 0, "type": "electric_scooter", "rental_uris": {"ios": "https://dc.lft.to/lastmile_qr_scan", "android": "https://dc.lft.to/lastmile_qr_scan"}, "lat": 38.9084575, "lon": -76.99751, "bike_id": "db165f7a902b076a3fe9e2dd4830f135", "fusion_lat": 0.0, "is_disabled": 0, "fusion_lon": 0.0}, {"name": "c7e3582944bba3f114128981f05e8ba1", "is_reserved": 0, "type": "electric_scooter", "rental_uris": {"ios": "https://dc.lft.to/lastmile_qr_scan", "android": "https://dc.lft.to/lastmile_qr_scan"}, "lat": 38.9391175, "lon": -77.06073883333333, "bike_id": "c7e3582944bba3f114128981f05e8ba1", "fusion_lat": 0.0, "is_disabled": 0, "fusion_lon": 0.0}, {"name": "c4ebec72dd20b93ccb7eec96d5526deb", "is_reserved": 0, "type": "electric_scooter", "rental_uris": {"ios": "https://dc.lft.to/lastmile_qr_scan", "android": "https://dc.lft.to/lastmile_qr_scan"}, "lat": 38.9202325, "lon": -77.03124033333333, "bike_id": "c4ebec72dd20b93ccb7eec96d5526deb", "fusion_lat": 0.0, "is_disabled": 0, "fusion_lon": 0.0}, {"name": "a2355b32d6dbfb5582271f5453bb2278", "is_reserved": 0, "type": "electric_scooter", "rental_uris": {"ios": "https://dc.lft.to/lastmile_qr_scan", "android": "https://dc.lft.to/lastmile_qr_scan"}, "lat": 38.923934, "lon": -77.08036683333333, "bike_id": "a2355b32d6dbfb5582271f5453bb2278", "fusion_lat": 0.0, "is_disabled": 0, "fusion_lon": 0.0}, {"name": "1ec358214f6d781befc0030b000c259e", "is_reserved": 0, "type": "electric_scooter", "rental_uris": {"ios": "https://dc.lft.to/lastmile_qr_scan", "android": "https://dc.lft.to/lastmile_qr_scan"}, "lat": 38.92819633333333, "lon": -77.02900133333333, "bike_id": "1ec358214f6d781befc0030b000c259e", "fusion_lat": 0.0, "is_disabled": 0, "fusion_lon": 0.0}, {"name": "4cbf8ae46514bfa64f4dc382f5f03e95", "is_reserved": 0, "type": "electric_scooter", "rental_uris": {"ios": "https://dc.lft.to/lastmile_qr_scan", "android": "https://dc.lft.to/lastmile_qr_scan"}, "lat": 38.90137583333333, "lon": -76.99876716666667, "bike_id": "4cbf8ae46514bfa64f4dc382f5f03e95", "fusion_lat": 0.0, "is_disabled": 0, "fusion_lon": 0.0}, {"name": "25045214cb1e77ceb0f03685e7b02da7", "is_reserved": 0, "type": "electric_scooter", "rental_uris": {"ios": "https://dc.lft.to/lastmile_qr_scan", "android": "https://dc.lft.to/lastmile_qr_scan"}, "lat": 38.895112, "lon": -77.02209666666667, "bike_id": "25045214cb1e77ceb0f03685e7b02da7", "fusion_lat": 0.0, "is_disabled": 0, "fusion_lon": 0.0}, {"name": "1e0947a67d7cb8d0a61eb217b00427f2", "is_reserved": 0, "type": "electric_scooter", "rental_uris": {"ios": "https://dc.lft.to/lastmile_qr_scan", "android": "https://dc.lft.to/lastmile_qr_scan"}, "lat": 38.920678, "lon": -77.042543, "bike_id": "1e0947a67d7cb8d0a61eb217b00427f2", "fusion_lat": 0.0, "is_disabled": 0, "fusion_lon": 0.0}, {"name": "20b4643b95741204a07cbc9628eb35cc", "is_reserved": 0, "type": "electric_scooter", "rental_uris": {"ios": "https://dc.lft.to/lastmile_qr_scan", "android": "https://dc.lft.to/lastmile_qr_scan"}, "lat": 38.923522, "lon": -77.04148733333334, "bike_id": "20b4643b95741204a07cbc9628eb35cc", "fusion_lat": 0.0, "is_disabled": 0, "fusion_lon": 0.0}, {"name": "72f7e647af6e3fe3f03058f1776cb1ae", "is_reserved": 0, "type": "electric_scooter", "rental_uris": {"ios": "https://dc.lft.to/lastmile_qr_scan", "android": "https://dc.lft.to/lastmile_qr_scan"}, "lat": 38.902907166666665, "lon": -76.9801755, "bike_id": "72f7e647af6e3fe3f03058f1776cb1ae", "fusion_lat": 0.0, "is_disabled": 0, "fusion_lon": 0.0}, {"name": "2aa3aebdd37409324bf0a821a61700d0", "is_reserved": 0, "type": "electric_scooter", "rental_uris": {"ios": "https://dc.lft.to/lastmile_qr_scan", "android": "https://dc.lft.to/lastmile_qr_scan"}, "lat": 38.897312166666666, "lon": -76.99512316666667, "bike_id": "2aa3aebdd37409324bf0a821a61700d0", "fusion_lat": 0.0, "is_disabled": 0, "fusion_lon": 0.0}, {"name": "dec0cf0ed30b126a2f058088687b753d", "is_reserved": 0, "type": "electric_scooter", "rental_uris": {"ios": "https://dc.lft.to/lastmile_qr_scan", "android": "https://dc.lft.to/lastmile_qr_scan"}, "lat": 38.89223633333334, "lon": -77.04331016666667, "bike_id": "dec0cf0ed30b126a2f058088687b753d", "fusion_lat": 0.0, "is_disabled": 0, "fusion_lon": 0.0}, {"name": "07142872888fdb52a49d39e08f550779", "is_reserved": 0, "type": "electric_scooter", "rental_uris": {"ios": "https://dc.lft.to/lastmile_qr_scan", "android": "https://dc.lft.to/lastmile_qr_scan"}, "lat": 38.882593, "lon": -76.99508633333333, "bike_id": "07142872888fdb52a49d39e08f550779", "fusion_lat": 0.0, "is_disabled": 0, "fusion_lon": 0.0}, {"name": "342ff46ef8515df4eec9bdef587ec442", "is_reserved": 0, "type": "electric_scooter", "rental_uris": {"ios": "https://dc.lft.to/lastmile_qr_scan", "android": "https://dc.lft.to/lastmile_qr_scan"}, "lat": 38.92031866666667, "lon": -77.030068, "bike_id": "342ff46ef8515df4eec9bdef587ec442", "fusion_lat": 0.0, "is_disabled": 0, "fusion_lon": 0.0}, {"name": "7ab19e0a89dc7560e4a74cb0a02e7610", "is_reserved": 0, "type": "electric_bike", "rental_uris": {"ios": "https://dc.lft.to/lastmile_qr_scan", "android": "https://dc.lft.to/lastmile_qr_scan"}, "lat": 38.86820066666667, "lon": -76.9803405, "bike_id": "7ab19e0a89dc7560e4a74cb0a02e7610", "fusion_lat": 0.0, "is_disabled": 0, "fusion_lon": 0.0}, {"name": "2df59918ca49662976802f213cf4ed85", "is_reserved": 0, "type": "electric_scooter", "rental_uris": {"ios": "https://dc.lft.to/lastmile_qr_scan", "android": "https://dc.lft.to/lastmile_qr_scan"}, "lat": 38.91556383333333, "lon": -77.053219, "bike_id": "2df59918ca49662976802f213cf4ed85", "fusion_lat": 0.0, "is_disabled": 0, "fusion_lon": 0.0}, {"name": "2cd4de50d99e7f2d206844140e51af24", "is_reserved": 0, "type": "electric_scooter", "rental_uris": {"ios": "https://dc.lft.to/lastmile_qr_scan", "android": "https://dc.lft.to/lastmile_qr_scan"}, "lat": 38.9272365, "lon": -77.02279783333333, "bike_id": "2cd4de50d99e7f2d206844140e51af24", "fusion_lat": 0.0, "is_disabled": 0, "fusion_lon": 0.0}, {"name": "5cbe8f6347225741a9c7048874172efb", "is_reserved": 0, "type": "electric_scooter", "rental_uris": {"ios": "https://dc.lft.to/lastmile_qr_scan", "android": "https://dc.lft.to/lastmile_qr_scan"}, "lat": 38.9023295, "lon": -77.04354133333334, "bike_id": "5cbe8f6347225741a9c7048874172efb", "fusion_lat": 0.0, "is_disabled": 0, "fusion_lon": 0.0}, {"name": "c9ceede0a47fc77ed3ea3639bd495f1d", "is_reserved": 0, "type": "electric_scooter", "rental_uris": {"ios": "https://dc.lft.to/lastmile_qr_scan", "android": "https://dc.lft.to/lastmile_qr_scan"}, "lat": 38.91732533333333, "lon": -77.041769, "bike_id": "c9ceede0a47fc77ed3ea3639bd495f1d", "fusion_lat": 0.0, "is_disabled": 0, "fusion_lon": 0.0}, {"name": "3f2442b13be7bbb376faf04854c60aec", "is_reserved": 0, "type": "electric_scooter", "rental_uris": {"ios": "https://dc.lft.to/lastmile_qr_scan", "android": "https://dc.lft.to/lastmile_qr_scan"}, "lat": 38.90339133333333, "lon": -77.0434465, "bike_id": "3f2442b13be7bbb376faf04854c60aec", "fusion_lat": 0.0, "is_disabled": 0, "fusion_lon": 0.0}, {"name": "ecd42bf59d1292947bc3dbf583447d52", "is_reserved": 0, "type": "electric_scooter", "rental_uris": {"ios": "https://dc.lft.to/lastmile_qr_scan", "android": "https://dc.lft.to/lastmile_qr_scan"}, "lat": 38.8960785, "lon": -77.0092705, "bike_id": "ecd42bf59d1292947bc3dbf583447d52", "fusion_lat": 0.0, "is_disabled": 0, "fusion_lon": 0.0}, {"name": "2ee114709d2295993043170041594316", "is_reserved": 0, "type": "electric_bike", "rental_uris": {"ios": "https://dc.lft.to/lastmile_qr_scan", "android": "https://dc.lft.to/lastmile_qr_scan"}, "lat": 38.8409065, "lon": -77.076977, "bike_id": "2ee114709d2295993043170041594316", "fusion_lat": 0.0, "is_disabled": 0, "fusion_lon": 0.0}, {"name": "8a73f4e78a898893db2471e514783af1", "is_reserved": 0, "type": "electric_scooter", "rental_uris": {"ios": "https://dc.lft.to/lastmile_qr_scan", "android": "https://dc.lft.to/lastmile_qr_scan"}, "lat": 38.8837345, "lon": -76.99517683333333, "bike_id": "8a73f4e78a898893db2471e514783af1", "fusion_lat": 0.0, "is_disabled": 0, "fusion_lon": 0.0}, {"name": "798c02d34db00f5ecf0ca1819d16efcf", "is_reserved": 0, "type": "electric_scooter", "rental_uris": {"ios": "https://dc.lft.to/lastmile_qr_scan", "android": "https://dc.lft.to/lastmile_qr_scan"}, "lat": 38.907605833333335, "lon": -76.99938266666666, "bike_id": "798c02d34db00f5ecf0ca1819d16efcf", "fusion_lat": 0.0, "is_disabled": 0, "fusion_lon": 0.0}, {"name": "4c0f982545f990a3483ab527f75fc5d3", "is_reserved": 0, "type": "electric_scooter", "rental_uris": {"ios": "https://dc.lft.to/lastmile_qr_scan", "android": "https://dc.lft.to/lastmile_qr_scan"}, "lat": 38.8987955, "lon": -76.93195366666667, "bike_id": "4c0f982545f990a3483ab527f75fc5d3", "fusion_lat": 0.0, "is_disabled": 0, "fusion_lon": 0.0}, {"name": "221cbc5ff6de474a6f1b1992a2b0e566", "is_reserved": 0, "type": "electric_scooter", "rental_uris": {"ios": "https://dc.lft.to/lastmile_qr_scan", "android": "https://dc.lft.to/lastmile_qr_scan"}, "lat": 38.903801333333334, "lon": -77.04973283333334, "bike_id": "221cbc5ff6de474a6f1b1992a2b0e566", "fusion_lat": 0.0, "is_disabled": 0, "fusion_lon": 0.0}, {"name": "11237128e6e414ff512a33a6109806f7", "is_reserved": 0, "type": "electric_bike", "rental_uris": {"ios": "https://dc.lft.to/lastmile_qr_scan", "android": "https://dc.lft.to/lastmile_qr_scan"}, "lat": 38.890056, "lon": -77.04892616666666, "bike_id": "11237128e6e414ff512a33a6109806f7", "fusion_lat": 0.0, "is_disabled": 0, "fusion_lon": 0.0}, {"name": "1177c289a8db3edec899cdb722e456f1", "is_reserved": 0, "type": "electric_scooter", "rental_uris": {"ios": "https://dc.lft.to/lastmile_qr_scan", "android": "https://dc.lft.to/lastmile_qr_scan"}, "lat": 38.86665166666667, "lon": -76.98533466666666, "bike_id": "1177c289a8db3edec899cdb722e456f1", "fusion_lat": 0.0, "is_disabled": 0, "fusion_lon": 0.0}, {"name": "7d7e1502553f0f5e1dfe908744da3529", "is_reserved": 0, "type": "electric_bike", "rental_uris": {"ios": "https://dc.lft.to/lastmile_qr_scan", "android": "https://dc.lft.to/lastmile_qr_scan"}, "lat": 38.8918975, "lon": -77.00196083333333, "bike_id": "7d7e1502553f0f5e1dfe908744da3529", "fusion_lat": 0.0, "is_disabled": 0, "fusion_lon": 0.0}, {"name": "550489aa72a8d019ee24d523076d647a", "is_reserved": 0, "type": "electric_scooter", "rental_uris": {"ios": "https://dc.lft.to/lastmile_qr_scan", "android": "https://dc.lft.to/lastmile_qr_scan"}, "lat": 38.910351, "lon": -76.98560233333333, "bike_id": "550489aa72a8d019ee24d523076d647a", "fusion_lat": 0.0, "is_disabled": 0, "fusion_lon": 0.0}, {"name": "643137c1098307d53993ca8054195759", "is_reserved": 0, "type": "electric_scooter", "rental_uris": {"ios": "https://dc.lft.to/lastmile_qr_scan", "android": "https://dc.lft.to/lastmile_qr_scan"}, "lat": 38.91869066666667, "lon": -77.044779, "bike_id": "643137c1098307d53993ca8054195759", "fusion_lat": 0.0, "is_disabled": 0, "fusion_lon": 0.0}, {"name": "aea4e9e434c150ebe98740af9c70adf4", "is_reserved": 0, "type": "electric_scooter", "rental_uris": {"ios": "https://dc.lft.to/lastmile_qr_scan", "android": "https://dc.lft.to/lastmile_qr_scan"}, "lat": 38.902445666666665, "lon": -77.03264266666666, "bike_id": "aea4e9e434c150ebe98740af9c70adf4", "fusion_lat": 0.0, "is_disabled": 0, "fusion_lon": 0.0}, {"name": "0ae0051d4210b6df4571150e4ddc0d42", "is_reserved": 0, "type": "electric_scooter", "rental_uris": {"ios": "https://dc.lft.to/lastmile_qr_scan", "android": "https://dc.lft.to/lastmile_qr_scan"}, "lat": 38.905351333333336, "lon": -77.05140133333333, "bike_id": "0ae0051d4210b6df4571150e4ddc0d42", "fusion_lat": 0.0, "is_disabled": 0, "fusion_lon": 0.0}, {"name": "e4bab3cae0d05f240def32ca32bfad3b", "is_reserved": 0, "type": "electric_scooter", "rental_uris": {"ios": "https://dc.lft.to/lastmile_qr_scan", "android": "https://dc.lft.to/lastmile_qr_scan"}, "lat": 38.905125, "lon": -77.063659, "bike_id": "e4bab3cae0d05f240def32ca32bfad3b", "fusion_lat": 0.0, "is_disabled": 0, "fusion_lon": 0.0}, {"name": "9374feb395849ac41773190d17d16e0e", "is_reserved": 0, "type": "electric_bike", "rental_uris": {"ios": "https://dc.lft.to/lastmile_qr_scan", "android": "https://dc.lft.to/lastmile_qr_scan"}, "lat": 38.955470166666665, "lon": -76.93548133333333, "bike_id": "9374feb395849ac41773190d17d16e0e", "fusion_lat": 0.0, "is_disabled": 0, "fusion_lon": 0.0}, {"name": "de25693dcfddd45438bbdf8b4418ab9b", "is_reserved": 0, "type": "electric_scooter", "rental_uris": {"ios": "https://dc.lft.to/lastmile_qr_scan", "android": "https://dc.lft.to/lastmile_qr_scan"}, "lat": 38.897337666666665, "lon": -77.02168916666666, "bike_id": "de25693dcfddd45438bbdf8b4418ab9b", "fusion_lat": 0.0, "is_disabled": 0, "fusion_lon": 0.0}, {"name": "1b470c2f82084ddf756cfed853380142", "is_reserved": 0, "type": "electric_scooter", "rental_uris": {"ios": "https://dc.lft.to/lastmile_qr_scan", "android": "https://dc.lft.to/lastmile_qr_scan"}, "lat": 38.95426483333333, "lon": -77.02768066666667, "bike_id": "1b470c2f82084ddf756cfed853380142", "fusion_lat": 0.0, "is_disabled": 0, "fusion_lon": 0.0}, {"name": "548315620077734e76bba0867aad5c28", "is_reserved": 0, "type": "electric_scooter", "rental_uris": {"ios": "https://dc.lft.to/lastmile_qr_scan", "android": "https://dc.lft.to/lastmile_qr_scan"}, "lat": 38.86256233333334, "lon": -76.987017, "bike_id": "548315620077734e76bba0867aad5c28", "fusion_lat": 0.0, "is_disabled": 0, "fusion_lon": 0.0}, {"name": "acb61be7a8a52224c37c276d81845d5c", "is_reserved": 0, "type": "electric_scooter", "rental_uris": {"ios": "https://dc.lft.to/lastmile_qr_scan", "android": "https://dc.lft.to/lastmile_qr_scan"}, "lat": 38.91688366666666, "lon": -77.0295735, "bike_id": "acb61be7a8a52224c37c276d81845d5c", "fusion_lat": 0.0, "is_disabled": 0, "fusion_lon": 0.0}, {"name": "deb4bee6e7f685e00e93632752ef6fdb", "is_reserved": 0, "type": "electric_scooter", "rental_uris": {"ios": "https://dc.lft.to/lastmile_qr_scan", "android": "https://dc.lft.to/lastmile_qr_scan"}, "lat": 38.92163633333333, "lon": -77.03313333333334, "bike_id": "deb4bee6e7f685e00e93632752ef6fdb", "fusion_lat": 0.0, "is_disabled": 0, "fusion_lon": 0.0}, {"name": "4f7dd1a09297198cbfdba33a1c825837", "is_reserved": 0, "type": "electric_scooter", "rental_uris": {"ios": "https://dc.lft.to/lastmile_qr_scan", "android": "https://dc.lft.to/lastmile_qr_scan"}, "lat": 38.93674216666667, "lon": -77.03283033333334, "bike_id": "4f7dd1a09297198cbfdba33a1c825837", "fusion_lat": 0.0, "is_disabled": 0, "fusion_lon": 0.0}, {"name": "67dea042d32422669c397921502c726b", "is_reserved": 0, "type": "electric_scooter", "rental_uris": {"ios": "https://dc.lft.to/lastmile_qr_scan", "android": "https://dc.lft.to/lastmile_qr_scan"}, "lat": 38.92827616666667, "lon": -77.05439183333333, "bike_id": "67dea042d32422669c397921502c726b", "fusion_lat": 0.0, "is_disabled": 0, "fusion_lon": 0.0}, {"name": "3c46699e9aeea1a397b53841be390c03", "is_reserved": 0, "type": "electric_scooter", "rental_uris": {"ios": "https://dc.lft.to/lastmile_qr_scan", "android": "https://dc.lft.to/lastmile_qr_scan"}, "lat": 38.907694166666666, "lon": -77.06329133333334, "bike_id": "3c46699e9aeea1a397b53841be390c03", "fusion_lat": 0.0, "is_disabled": 0, "fusion_lon": 0.0}, {"name": "1983b566f37e7b6d25a94cf90092b499", "is_reserved": 0, "type": "electric_scooter", "rental_uris": {"ios": "https://dc.lft.to/lastmile_qr_scan", "android": "https://dc.lft.to/lastmile_qr_scan"}, "lat": 38.914128, "lon": -77.018132, "bike_id": "1983b566f37e7b6d25a94cf90092b499", "fusion_lat": 0.0, "is_disabled": 0, "fusion_lon": 0.0}, {"name": "7a03bf36173f90273b2217e65a4367da", "is_reserved": 0, "type": "electric_scooter", "rental_uris": {"ios": "https://dc.lft.to/lastmile_qr_scan", "android": "https://dc.lft.to/lastmile_qr_scan"}, "lat": 38.900282833333335, "lon": -77.01163016666666, "bike_id": "7a03bf36173f90273b2217e65a4367da", "fusion_lat": 0.0, "is_disabled": 0, "fusion_lon": 0.0}, {"name": "03402e2b4fcde9654cc881f4584c7ee2", "is_reserved": 0, "type": "electric_scooter", "rental_uris": {"ios": "https://dc.lft.to/lastmile_qr_scan", "android": "https://dc.lft.to/lastmile_qr_scan"}, "lat": 38.90400316666667, "lon": -77.06298533333333, "bike_id": "03402e2b4fcde9654cc881f4584c7ee2", "fusion_lat": 0.0, "is_disabled": 0, "fusion_lon": 0.0}, {"name": "45663f8ce917231ed3daba772443afdf", "is_reserved": 0, "type": "electric_scooter", "rental_uris": {"ios": "https://dc.lft.to/lastmile_qr_scan", "android": "https://dc.lft.to/lastmile_qr_scan"}, "lat": 38.900991166666664, "lon": -77.02399266666667, "bike_id": "45663f8ce917231ed3daba772443afdf", "fusion_lat": 0.0, "is_disabled": 0, "fusion_lon": 0.0}, {"name": "a645247ae2cb8eb273d26d624fa9df36", "is_reserved": 0, "type": "electric_scooter", "rental_uris": {"ios": "https://dc.lft.to/lastmile_qr_scan", "android": "https://dc.lft.to/lastmile_qr_scan"}, "lat": 38.923257, "lon": -77.02146866666666, "bike_id": "a645247ae2cb8eb273d26d624fa9df36", "fusion_lat": 0.0, "is_disabled": 0, "fusion_lon": 0.0}, {"name": "60119c2d57980883c6c3d9da0cea2f75", "is_reserved": 0, "type": "electric_scooter", "rental_uris": {"ios": "https://dc.lft.to/lastmile_qr_scan", "android": "https://dc.lft.to/lastmile_qr_scan"}, "lat": 38.92344933333333, "lon": -77.05345766666667, "bike_id": "60119c2d57980883c6c3d9da0cea2f75", "fusion_lat": 0.0, "is_disabled": 0, "fusion_lon": 0.0}, {"name": "3c87a619b56137af0dcd246d7f72708b", "is_reserved": 0, "type": "electric_scooter", "rental_uris": {"ios": "https://dc.lft.to/lastmile_qr_scan", "android": "https://dc.lft.to/lastmile_qr_scan"}, "lat": 38.9358085, "lon": -77.02744166666666, "bike_id": "3c87a619b56137af0dcd246d7f72708b", "fusion_lat": 0.0, "is_disabled": 0, "fusion_lon": 0.0}, {"name": "37b1e4af671c994fc16b259ec5b9090d", "is_reserved": 0, "type": "electric_bike", "rental_uris": {"ios": "https://dc.lft.to/lastmile_qr_scan", "android": "https://dc.lft.to/lastmile_qr_scan"}, "lat": 38.89942833333333, "lon": -77.00898766666667, "bike_id": "37b1e4af671c994fc16b259ec5b9090d", "fusion_lat": 0.0, "is_disabled": 0, "fusion_lon": 0.0}, {"name": "580e305b6b17b90391eb34a2de9b105b", "is_reserved": 0, "type": "electric_scooter", "rental_uris": {"ios": "https://dc.lft.to/lastmile_qr_scan", "android": "https://dc.lft.to/lastmile_qr_scan"}, "lat": 38.90282583333333, "lon": -76.98193316666666, "bike_id": "580e305b6b17b90391eb34a2de9b105b", "fusion_lat": 0.0, "is_disabled": 0, "fusion_lon": 0.0}, {"name": "c8efbf7d814d21613caf92aae7dec4ae", "is_reserved": 0, "type": "electric_scooter", "rental_uris": {"ios": "https://dc.lft.to/lastmile_qr_scan", "android": "https://dc.lft.to/lastmile_qr_scan"}, "lat": 38.90260883333333, "lon": -77.03232866666667, "bike_id": "c8efbf7d814d21613caf92aae7dec4ae", "fusion_lat": 0.0, "is_disabled": 0, "fusion_lon": 0.0}, {"name": "00a0566eb6257514931c63a9a747b798", "is_reserved": 0, "type": "electric_scooter", "rental_uris": {"ios": "https://dc.lft.to/lastmile_qr_scan", "android": "https://dc.lft.to/lastmile_qr_scan"}, "lat": 38.908373833333336, "lon": -77.04458983333333, "bike_id": "00a0566eb6257514931c63a9a747b798", "fusion_lat": 0.0, "is_disabled": 0, "fusion_lon": 0.0}, {"name": "53a8374d767c12db8cc8d28b9e224559", "is_reserved": 0, "type": "electric_scooter", "rental_uris": {"ios": "https://dc.lft.to/lastmile_qr_scan", "android": "https://dc.lft.to/lastmile_qr_scan"}, "lat": 38.89876916666667, "lon": -76.93185633333333, "bike_id": "53a8374d767c12db8cc8d28b9e224559", "fusion_lat": 0.0, "is_disabled": 0, "fusion_lon": 0.0}, {"name": "9202c71449ffd6a390b2c0e4eda293c3", "is_reserved": 0, "type": "electric_scooter", "rental_uris": {"ios": "https://dc.lft.to/lastmile_qr_scan", "android": "https://dc.lft.to/lastmile_qr_scan"}, "lat": 38.97510333333334, "lon": -77.017003, "bike_id": "9202c71449ffd6a390b2c0e4eda293c3", "fusion_lat": 0.0, "is_disabled": 0, "fusion_lon": 0.0}, {"name": "1e5ef7476bb0a6fef394c4fb662618c6", "is_reserved": 0, "type": "electric_scooter", "rental_uris": {"ios": "https://dc.lft.to/lastmile_qr_scan", "android": "https://dc.lft.to/lastmile_qr_scan"}, "lat": 38.899687166666666, "lon": -77.05569966666667, "bike_id": "1e5ef7476bb0a6fef394c4fb662618c6", "fusion_lat": 0.0, "is_disabled": 0, "fusion_lon": 0.0}, {"name": "4e38ca377ed2ef2b9743bb8e65916622", "is_reserved": 0, "type": "electric_scooter", "rental_uris": {"ios": "https://dc.lft.to/lastmile_qr_scan", "android": "https://dc.lft.to/lastmile_qr_scan"}, "lat": 38.907727666666666, "lon": -77.0559135, "bike_id": "4e38ca377ed2ef2b9743bb8e65916622", "fusion_lat": 0.0, "is_disabled": 0, "fusion_lon": 0.0}, {"name": "5030048bb6932002d8a4a86ad0154172", "is_reserved": 0, "type": "electric_scooter", "rental_uris": {"ios": "https://dc.lft.to/lastmile_qr_scan", "android": "https://dc.lft.to/lastmile_qr_scan"}, "lat": 38.95008166666667, "lon": -77.02732616666667, "bike_id": "5030048bb6932002d8a4a86ad0154172", "fusion_lat": 0.0, "is_disabled": 0, "fusion_lon": 0.0}, {"name": "326dc0857aadba18432d5e492dc78bfc", "is_reserved": 0, "type": "electric_scooter", "rental_uris": {"ios": "https://dc.lft.to/lastmile_qr_scan", "android": "https://dc.lft.to/lastmile_qr_scan"}, "lat": 38.892218, "lon": -77.023689, "bike_id": "326dc0857aadba18432d5e492dc78bfc", "fusion_lat": 0.0, "is_disabled": 0, "fusion_lon": 0.0}, {"name": "3ce226ced40b1df0e76da4531d20776f", "is_reserved": 0, "type": "electric_scooter", "rental_uris": {"ios": "https://dc.lft.to/lastmile_qr_scan", "android": "https://dc.lft.to/lastmile_qr_scan"}, "lat": 38.910489, "lon": -77.04370333333334, "bike_id": "3ce226ced40b1df0e76da4531d20776f", "fusion_lat": 0.0, "is_disabled": 0, "fusion_lon": 0.0}, {"name": "c820ad043ac94ecde66424a0d7775720", "is_reserved": 0, "type": "electric_scooter", "rental_uris": {"ios": "https://dc.lft.to/lastmile_qr_scan", "android": "https://dc.lft.to/lastmile_qr_scan"}, "lat": 38.923678, "lon": -77.00388983333333, "bike_id": "c820ad043ac94ecde66424a0d7775720", "fusion_lat": 0.0, "is_disabled": 0, "fusion_lon": 0.0}, {"name": "5d137d92bde02c16e6f9278922fc2846", "is_reserved": 0, "type": "electric_bike", "rental_uris": {"ios": "https://dc.lft.to/lastmile_qr_scan", "android": "https://dc.lft.to/lastmile_qr_scan"}, "lat": 38.8520865, "lon": -77.10132566666667, "bike_id": "5d137d92bde02c16e6f9278922fc2846", "fusion_lat": 0.0, "is_disabled": 0, "fusion_lon": 0.0}, {"name": "6fd643d9646abfa2c4f56801b2efbb37", "is_reserved": 0, "type": "electric_scooter", "rental_uris": {"ios": "https://dc.lft.to/lastmile_qr_scan", "android": "https://dc.lft.to/lastmile_qr_scan"}, "lat": 38.89545416666667, "lon": -76.99523683333334, "bike_id": "6fd643d9646abfa2c4f56801b2efbb37", "fusion_lat": 0.0, "is_disabled": 0, "fusion_lon": 0.0}, {"name": "72207265842f445df2ea297411cc34ed", "is_reserved": 0, "type": "electric_scooter", "rental_uris": {"ios": "https://dc.lft.to/lastmile_qr_scan", "android": "https://dc.lft.to/lastmile_qr_scan"}, "lat": 38.91111083333333, "lon": -77.023116, "bike_id": "72207265842f445df2ea297411cc34ed", "fusion_lat": 0.0, "is_disabled": 0, "fusion_lon": 0.0}, {"name": "56b7f8a9ea1ec50f702876268ee4e34d", "is_reserved": 0, "type": "electric_bike", "rental_uris": {"ios": "https://dc.lft.to/lastmile_qr_scan", "android": "https://dc.lft.to/lastmile_qr_scan"}, "lat": 38.839004833333334, "lon": -77.08775316666667, "bike_id": "56b7f8a9ea1ec50f702876268ee4e34d", "fusion_lat": 0.0, "is_disabled": 0, "fusion_lon": 0.0}, {"name": "8be898bf190fd6409aea3027357411b6", "is_reserved": 0, "type": "electric_scooter", "rental_uris": {"ios": "https://dc.lft.to/lastmile_qr_scan", "android": "https://dc.lft.to/lastmile_qr_scan"}, "lat": 38.90180866666667, "lon": -77.00906016666667, "bike_id": "8be898bf190fd6409aea3027357411b6", "fusion_lat": 0.0, "is_disabled": 0, "fusion_lon": 0.0}, {"name": "ebfdba57e8bae2c8413cf562508f98ab", "is_reserved": 0, "type": "electric_scooter", "rental_uris": {"ios": "https://dc.lft.to/lastmile_qr_scan", "android": "https://dc.lft.to/lastmile_qr_scan"}, "lat": 38.8946065, "lon": -77.01756633333333, "bike_id": "ebfdba57e8bae2c8413cf562508f98ab", "fusion_lat": 0.0, "is_disabled": 0, "fusion_lon": 0.0}, {"name": "cf5b434d8de8c5e4a0d3fc513db6ea21", "is_reserved": 0, "type": "electric_scooter", "rental_uris": {"ios": "https://dc.lft.to/lastmile_qr_scan", "android": "https://dc.lft.to/lastmile_qr_scan"}, "lat": 38.859265, "lon": -76.967777, "bike_id": "cf5b434d8de8c5e4a0d3fc513db6ea21", "fusion_lat": 0.0, "is_disabled": 0, "fusion_lon": 0.0}, {"name": "1fef7cd65893a86d717710e253bcdca7", "is_reserved": 0, "type": "electric_scooter", "rental_uris": {"ios": "https://dc.lft.to/lastmile_qr_scan", "android": "https://dc.lft.to/lastmile_qr_scan"}, "lat": 38.96081083333333, "lon": -77.0282835, "bike_id": "1fef7cd65893a86d717710e253bcdca7", "fusion_lat": 0.0, "is_disabled": 0, "fusion_lon": 0.0}, {"name": "7455fe538c5a19fc6d6254d4931e6e06", "is_reserved": 0, "type": "electric_bike", "rental_uris": {"ios": "https://dc.lft.to/lastmile_qr_scan", "android": "https://dc.lft.to/lastmile_qr_scan"}, "lat": 38.89383216666667, "lon": -76.94823016666666, "bike_id": "7455fe538c5a19fc6d6254d4931e6e06", "fusion_lat": 0.0, "is_disabled": 0, "fusion_lon": 0.0}, {"name": "c667900d1f148fc7641fca05db32c11d", "is_reserved": 0, "type": "electric_scooter", "rental_uris": {"ios": "https://dc.lft.to/lastmile_qr_scan", "android": "https://dc.lft.to/lastmile_qr_scan"}, "lat": 38.88776816666667, "lon": -76.97709333333333, "bike_id": "c667900d1f148fc7641fca05db32c11d", "fusion_lat": 0.0, "is_disabled": 0, "fusion_lon": 0.0}, {"name": "c91e6a60cbbd75991dd55c9afe780524", "is_reserved": 0, "type": "electric_scooter", "rental_uris": {"ios": "https://dc.lft.to/lastmile_qr_scan", "android": "https://dc.lft.to/lastmile_qr_scan"}, "lat": 38.897403, "lon": -77.033456, "bike_id": "c91e6a60cbbd75991dd55c9afe780524", "fusion_lat": 0.0, "is_disabled": 0, "fusion_lon": 0.0}, {"name": "8d022a1ba12f1e000c786f7bd69fab41", "is_reserved": 0, "type": "electric_scooter", "rental_uris": {"ios": "https://dc.lft.to/lastmile_qr_scan", "android": "https://dc.lft.to/lastmile_qr_scan"}, "lat": 38.8830435, "lon": -76.97873883333334, "bike_id": "8d022a1ba12f1e000c786f7bd69fab41", "fusion_lat": 0.0, "is_disabled": 0, "fusion_lon": 0.0}, {"name": "3184d97f142f7719bc554aaece73497a", "is_reserved": 0, "type": "electric_scooter", "rental_uris": {"ios": "https://dc.lft.to/lastmile_qr_scan", "android": "https://dc.lft.to/lastmile_qr_scan"}, "lat": 38.940064, "lon": -77.072353, "bike_id": "3184d97f142f7719bc554aaece73497a", "fusion_lat": 0.0, "is_disabled": 0, "fusion_lon": 0.0}, {"name": "3f4b49bce3a740ff79e4588329ec99c7", "is_reserved": 0, "type": "electric_scooter", "rental_uris": {"ios": "https://dc.lft.to/lastmile_qr_scan", "android": "https://dc.lft.to/lastmile_qr_scan"}, "lat": 38.86126066666667, "lon": -76.9838125, "bike_id": "3f4b49bce3a740ff79e4588329ec99c7", "fusion_lat": 0.0, "is_disabled": 0, "fusion_lon": 0.0}, {"name": "1a0add1f06c1bffc2a6a607905e3b25f", "is_reserved": 0, "type": "electric_scooter", "rental_uris": {"ios": "https://dc.lft.to/lastmile_qr_scan", "android": "https://dc.lft.to/lastmile_qr_scan"}, "lat": 38.897300333333334, "lon": -77.00368133333333, "bike_id": "1a0add1f06c1bffc2a6a607905e3b25f", "fusion_lat": 0.0, "is_disabled": 0, "fusion_lon": 0.0}, {"name": "9f94792c000a0a9c306df996d2fe25a8", "is_reserved": 0, "type": "electric_scooter", "rental_uris": {"ios": "https://dc.lft.to/lastmile_qr_scan", "android": "https://dc.lft.to/lastmile_qr_scan"}, "lat": 38.876752833333335, "lon": -77.01795816666667, "bike_id": "9f94792c000a0a9c306df996d2fe25a8", "fusion_lat": 0.0, "is_disabled": 0, "fusion_lon": 0.0}, {"name": "0645fef19f9fe9dc2492e67a58c86c4e", "is_reserved": 0, "type": "electric_scooter", "rental_uris": {"ios": "https://dc.lft.to/lastmile_qr_scan", "android": "https://dc.lft.to/lastmile_qr_scan"}, "lat": 38.885605166666664, "lon": -76.99628383333334, "bike_id": "0645fef19f9fe9dc2492e67a58c86c4e", "fusion_lat": 0.0, "is_disabled": 0, "fusion_lon": 0.0}, {"name": "f4c92232a52429dd94f2928c2de8c350", "is_reserved": 0, "type": "electric_scooter", "rental_uris": {"ios": "https://dc.lft.to/lastmile_qr_scan", "android": "https://dc.lft.to/lastmile_qr_scan"}, "lat": 38.8964655, "lon": -77.00799316666667, "bike_id": "f4c92232a52429dd94f2928c2de8c350", "fusion_lat": 0.0, "is_disabled": 0, "fusion_lon": 0.0}, {"name": "47cfc4a4bc89de1f0e3531963454d371", "is_reserved": 0, "type": "electric_scooter", "rental_uris": {"ios": "https://dc.lft.to/lastmile_qr_scan", "android": "https://dc.lft.to/lastmile_qr_scan"}, "lat": 38.91349483333333, "lon": -77.03186216666667, "bike_id": "47cfc4a4bc89de1f0e3531963454d371", "fusion_lat": 0.0, "is_disabled": 0, "fusion_lon": 0.0}, {"name": "f597a83cc77a258eb1acb4fb2fb7286f", "is_reserved": 0, "type": "electric_scooter", "rental_uris": {"ios": "https://dc.lft.to/lastmile_qr_scan", "android": "https://dc.lft.to/lastmile_qr_scan"}, "lat": 38.92154516666667, "lon": -77.0210195, "bike_id": "f597a83cc77a258eb1acb4fb2fb7286f", "fusion_lat": 0.0, "is_disabled": 0, "fusion_lon": 0.0}, {"name": "d12685fb6e29ece342ec965ee3f8c76c", "is_reserved": 0, "type": "electric_scooter", "rental_uris": {"ios": "https://dc.lft.to/lastmile_qr_scan", "android": "https://dc.lft.to/lastmile_qr_scan"}, "lat": 38.8765605, "lon": -77.00468483333333, "bike_id": "d12685fb6e29ece342ec965ee3f8c76c", "fusion_lat": 0.0, "is_disabled": 0, "fusion_lon": 0.0}, {"name": "54d859c5104f16e732758ef698022364", "is_reserved": 0, "type": "electric_scooter", "rental_uris": {"ios": "https://dc.lft.to/lastmile_qr_scan", "android": "https://dc.lft.to/lastmile_qr_scan"}, "lat": 38.92163566666667, "lon": -77.0443485, "bike_id": "54d859c5104f16e732758ef698022364", "fusion_lat": 0.0, "is_disabled": 0, "fusion_lon": 0.0}, {"name": "511fed85a3fc4389a25a1ac9a352ac29", "is_reserved": 0, "type": "electric_scooter", "rental_uris": {"ios": "https://dc.lft.to/lastmile_qr_scan", "android": "https://dc.lft.to/lastmile_qr_scan"}, "lat": 38.946936666666666, "lon": -76.99920216666666, "bike_id": "511fed85a3fc4389a25a1ac9a352ac29", "fusion_lat": 0.0, "is_disabled": 0, "fusion_lon": 0.0}, {"name": "b71520ca2d090958336c0f932cfa44fd", "is_reserved": 0, "type": "electric_scooter", "rental_uris": {"ios": "https://dc.lft.to/lastmile_qr_scan", "android": "https://dc.lft.to/lastmile_qr_scan"}, "lat": 38.93084916666667, "lon": -77.02792983333333, "bike_id": "b71520ca2d090958336c0f932cfa44fd", "fusion_lat": 0.0, "is_disabled": 0, "fusion_lon": 0.0}, {"name": "155ad03f994e3aa026f16d7b94e6824c", "is_reserved": 0, "type": "electric_scooter", "rental_uris": {"ios": "https://dc.lft.to/lastmile_qr_scan", "android": "https://dc.lft.to/lastmile_qr_scan"}, "lat": 38.91780516666667, "lon": -77.03207233333333, "bike_id": "155ad03f994e3aa026f16d7b94e6824c", "fusion_lat": 0.0, "is_disabled": 0, "fusion_lon": 0.0}, {"name": "bdb4b4f7bfb185ea5fe6495a8b0946a7", "is_reserved": 0, "type": "electric_scooter", "rental_uris": {"ios": "https://dc.lft.to/lastmile_qr_scan", "android": "https://dc.lft.to/lastmile_qr_scan"}, "lat": 38.94619483333334, "lon": -77.02350966666667, "bike_id": "bdb4b4f7bfb185ea5fe6495a8b0946a7", "fusion_lat": 0.0, "is_disabled": 0, "fusion_lon": 0.0}, {"name": "79f1580dab5618e4549de4b372af8b60", "is_reserved": 0, "type": "electric_scooter", "rental_uris": {"ios": "https://dc.lft.to/lastmile_qr_scan", "android": "https://dc.lft.to/lastmile_qr_scan"}, "lat": 38.872439, "lon": -76.977263, "bike_id": "79f1580dab5618e4549de4b372af8b60", "fusion_lat": 0.0, "is_disabled": 0, "fusion_lon": 0.0}, {"name": "0f83fc4b9cfb538c8a0e13c916d7f99c", "is_reserved": 0, "type": "electric_scooter", "rental_uris": {"ios": "https://dc.lft.to/lastmile_qr_scan", "android": "https://dc.lft.to/lastmile_qr_scan"}, "lat": 38.925753666666665, "lon": -77.02143033333333, "bike_id": "0f83fc4b9cfb538c8a0e13c916d7f99c", "fusion_lat": 0.0, "is_disabled": 0, "fusion_lon": 0.0}, {"name": "3d99b9351d509bbc8f840767d2e79651", "is_reserved": 0, "type": "electric_scooter", "rental_uris": {"ios": "https://dc.lft.to/lastmile_qr_scan", "android": "https://dc.lft.to/lastmile_qr_scan"}, "lat": 38.86365583333333, "lon": -76.99063333333334, "bike_id": "3d99b9351d509bbc8f840767d2e79651", "fusion_lat": 0.0, "is_disabled": 0, "fusion_lon": 0.0}, {"name": "2c59fed4538f2fc3e7f0b23f9b60e05d", "is_reserved": 0, "type": "electric_scooter", "rental_uris": {"ios": "https://dc.lft.to/lastmile_qr_scan", "android": "https://dc.lft.to/lastmile_qr_scan"}, "lat": 38.93259366666667, "lon": -77.02936933333334, "bike_id": "2c59fed4538f2fc3e7f0b23f9b60e05d", "fusion_lat": 0.0, "is_disabled": 0, "fusion_lon": 0.0}, {"name": "db682358de08590b07ab891d8bbb2c00", "is_reserved": 0, "type": "electric_scooter", "rental_uris": {"ios": "https://dc.lft.to/lastmile_qr_scan", "android": "https://dc.lft.to/lastmile_qr_scan"}, "lat": 38.8755335, "lon": -77.00608733333334, "bike_id": "db682358de08590b07ab891d8bbb2c00", "fusion_lat": 0.0, "is_disabled": 0, "fusion_lon": 0.0}, {"name": "e27d7240f1e6fe1f1ba35abff26b0c25", "is_reserved": 0, "type": "electric_scooter", "rental_uris": {"ios": "https://dc.lft.to/lastmile_qr_scan", "android": "https://dc.lft.to/lastmile_qr_scan"}, "lat": 38.933469, "lon": -77.07256066666666, "bike_id": "e27d7240f1e6fe1f1ba35abff26b0c25", "fusion_lat": 0.0, "is_disabled": 0, "fusion_lon": 0.0}, {"name": "7a8535ea90d5e6aeaf2e21af21319504", "is_reserved": 0, "type": "electric_scooter", "rental_uris": {"ios": "https://dc.lft.to/lastmile_qr_scan", "android": "https://dc.lft.to/lastmile_qr_scan"}, "lat": 38.90052766666667, "lon": -77.00068333333333, "bike_id": "7a8535ea90d5e6aeaf2e21af21319504", "fusion_lat": 0.0, "is_disabled": 0, "fusion_lon": 0.0}, {"name": "7b418296b8d32585aa429ac21d46ad3f", "is_reserved": 0, "type": "electric_bike", "rental_uris": {"ios": "https://dc.lft.to/lastmile_qr_scan", "android": "https://dc.lft.to/lastmile_qr_scan"}, "lat": 38.90364616666667, "lon": -77.10597016666667, "bike_id": "7b418296b8d32585aa429ac21d46ad3f", "fusion_lat": 0.0, "is_disabled": 0, "fusion_lon": 0.0}, {"name": "be1ab11a56cfd4327d1f8f2aad5d8c70", "is_reserved": 0, "type": "electric_scooter", "rental_uris": {"ios": "https://dc.lft.to/lastmile_qr_scan", "android": "https://dc.lft.to/lastmile_qr_scan"}, "lat": 38.91364083333333, "lon": -77.04415433333334, "bike_id": "be1ab11a56cfd4327d1f8f2aad5d8c70", "fusion_lat": 0.0, "is_disabled": 0, "fusion_lon": 0.0}, {"name": "db8eac48c80f22cc0946f5ba63b1b6f9", "is_reserved": 0, "type": "electric_scooter", "rental_uris": {"ios": "https://dc.lft.to/lastmile_qr_scan", "android": "https://dc.lft.to/lastmile_qr_scan"}, "lat": 38.934879333333335, "lon": -77.0727515, "bike_id": "db8eac48c80f22cc0946f5ba63b1b6f9", "fusion_lat": 0.0, "is_disabled": 0, "fusion_lon": 0.0}, {"name": "9fa915708c3dcdfbac4f28acce278cf6", "is_reserved": 0, "type": "electric_scooter", "rental_uris": {"ios": "https://dc.lft.to/lastmile_qr_scan", "android": "https://dc.lft.to/lastmile_qr_scan"}, "lat": 38.91557316666667, "lon": -77.03174183333333, "bike_id": "9fa915708c3dcdfbac4f28acce278cf6", "fusion_lat": 0.0, "is_disabled": 0, "fusion_lon": 0.0}, {"name": "fbc9b95a95b2a5f5e101ca130efbd0b7", "is_reserved": 0, "type": "electric_scooter", "rental_uris": {"ios": "https://dc.lft.to/lastmile_qr_scan", "android": "https://dc.lft.to/lastmile_qr_scan"}, "lat": 38.9096215, "lon": -77.04546366666666, "bike_id": "fbc9b95a95b2a5f5e101ca130efbd0b7", "fusion_lat": 0.0, "is_disabled": 0, "fusion_lon": 0.0}, {"name": "a0fe4690a6c031ce3602c6714a255236", "is_reserved": 0, "type": "electric_scooter", "rental_uris": {"ios": "https://dc.lft.to/lastmile_qr_scan", "android": "https://dc.lft.to/lastmile_qr_scan"}, "lat": 38.923687666666666, "lon": -77.01818366666667, "bike_id": "a0fe4690a6c031ce3602c6714a255236", "fusion_lat": 0.0, "is_disabled": 0, "fusion_lon": 0.0}, {"name": "e87aa1a9bed93e6f0ed4cf453f189b86", "is_reserved": 0, "type": "electric_scooter", "rental_uris": {"ios": "https://dc.lft.to/lastmile_qr_scan", "android": "https://dc.lft.to/lastmile_qr_scan"}, "lat": 38.909712666666664, "lon": -77.033661, "bike_id": "e87aa1a9bed93e6f0ed4cf453f189b86", "fusion_lat": 0.0, "is_disabled": 0, "fusion_lon": 0.0}, {"name": "4cd1498a081bbd4f40ab983523c29780", "is_reserved": 0, "type": "electric_bike", "rental_uris": {"ios": "https://dc.lft.to/lastmile_qr_scan", "android": "https://dc.lft.to/lastmile_qr_scan"}, "lat": 38.962031, "lon": -77.03517083333334, "bike_id": "4cd1498a081bbd4f40ab983523c29780", "fusion_lat": 0.0, "is_disabled": 0, "fusion_lon": 0.0}, {"name": "038f3126c9bc21073006288aa72715b1", "is_reserved": 0, "type": "electric_scooter", "rental_uris": {"ios": "https://dc.lft.to/lastmile_qr_scan", "android": "https://dc.lft.to/lastmile_qr_scan"}, "lat": 38.90708716666666, "lon": -77.0238695, "bike_id": "038f3126c9bc21073006288aa72715b1", "fusion_lat": 0.0, "is_disabled": 0, "fusion_lon": 0.0}, {"name": "daef50516e68aae1e4622d7a4c919b25", "is_reserved": 0, "type": "electric_scooter", "rental_uris": {"ios": "https://dc.lft.to/lastmile_qr_scan", "android": "https://dc.lft.to/lastmile_qr_scan"}, "lat": 38.89776633333334, "lon": -77.0510295, "bike_id": "daef50516e68aae1e4622d7a4c919b25", "fusion_lat": 0.0, "is_disabled": 0, "fusion_lon": 0.0}, {"name": "450154aa31a14350a36f86f4cdbc1656", "is_reserved": 0, "type": "electric_scooter", "rental_uris": {"ios": "https://dc.lft.to/lastmile_qr_scan", "android": "https://dc.lft.to/lastmile_qr_scan"}, "lat": 38.873843, "lon": -77.00030733333334, "bike_id": "450154aa31a14350a36f86f4cdbc1656", "fusion_lat": 0.0, "is_disabled": 0, "fusion_lon": 0.0}, {"name": "4857ff1385cffe3ecab0756ed5cc9dac", "is_reserved": 0, "type": "electric_scooter", "rental_uris": {"ios": "https://dc.lft.to/lastmile_qr_scan", "android": "https://dc.lft.to/lastmile_qr_scan"}, "lat": 38.905718666666665, "lon": -77.04285683333333, "bike_id": "4857ff1385cffe3ecab0756ed5cc9dac", "fusion_lat": 0.0, "is_disabled": 0, "fusion_lon": 0.0}, {"name": "b29758c45dc1476a4a1e8749fd413d64", "is_reserved": 0, "type": "electric_scooter", "rental_uris": {"ios": "https://dc.lft.to/lastmile_qr_scan", "android": "https://dc.lft.to/lastmile_qr_scan"}, "lat": 38.90708266666667, "lon": -76.98692233333334, "bike_id": "b29758c45dc1476a4a1e8749fd413d64", "fusion_lat": 0.0, "is_disabled": 0, "fusion_lon": 0.0}, {"name": "3b00a59f2f14ca1fbf482cd49e87b999", "is_reserved": 0, "type": "electric_scooter", "rental_uris": {"ios": "https://dc.lft.to/lastmile_qr_scan", "android": "https://dc.lft.to/lastmile_qr_scan"}, "lat": 38.91316316666666, "lon": -77.039979, "bike_id": "3b00a59f2f14ca1fbf482cd49e87b999", "fusion_lat": 0.0, "is_disabled": 0, "fusion_lon": 0.0}, {"name": "9ef700bd75884c8cca87fb866822b205", "is_reserved": 0, "type": "electric_bike", "rental_uris": {"ios": "https://dc.lft.to/lastmile_qr_scan", "android": "https://dc.lft.to/lastmile_qr_scan"}, "lat": 38.910161333333335, "lon": -77.2280305, "bike_id": "9ef700bd75884c8cca87fb866822b205", "fusion_lat": 0.0, "is_disabled": 0, "fusion_lon": 0.0}, {"name": "8df67ce56fcaf7e4cad99983a27e8945", "is_reserved": 0, "type": "electric_scooter", "rental_uris": {"ios": "https://dc.lft.to/lastmile_qr_scan", "android": "https://dc.lft.to/lastmile_qr_scan"}, "lat": 38.91077116666666, "lon": -77.04126966666666, "bike_id": "8df67ce56fcaf7e4cad99983a27e8945", "fusion_lat": 0.0, "is_disabled": 0, "fusion_lon": 0.0}, {"name": "6df56120c64ddec831f52a68f9de7cf4", "is_reserved": 0, "type": "electric_scooter", "rental_uris": {"ios": "https://dc.lft.to/lastmile_qr_scan", "android": "https://dc.lft.to/lastmile_qr_scan"}, "lat": 38.91111866666667, "lon": -77.04831916666667, "bike_id": "6df56120c64ddec831f52a68f9de7cf4", "fusion_lat": 0.0, "is_disabled": 0, "fusion_lon": 0.0}, {"name": "33530145ec00062f8ef2ee6e00016ad1", "is_reserved": 0, "type": "electric_scooter", "rental_uris": {"ios": "https://dc.lft.to/lastmile_qr_scan", "android": "https://dc.lft.to/lastmile_qr_scan"}, "lat": 38.89082166666667, "lon": -76.988233, "bike_id": "33530145ec00062f8ef2ee6e00016ad1", "fusion_lat": 0.0, "is_disabled": 0, "fusion_lon": 0.0}, {"name": "1c2824a0aaaa95221b094ab5e8881c10", "is_reserved": 0, "type": "electric_scooter", "rental_uris": {"ios": "https://dc.lft.to/lastmile_qr_scan", "android": "https://dc.lft.to/lastmile_qr_scan"}, "lat": 38.91263083333333, "lon": -77.03999933333333, "bike_id": "1c2824a0aaaa95221b094ab5e8881c10", "fusion_lat": 0.0, "is_disabled": 0, "fusion_lon": 0.0}, {"name": "35e361aefa84b36be15bdd49ed98e42b", "is_reserved": 0, "type": "electric_scooter", "rental_uris": {"ios": "https://dc.lft.to/lastmile_qr_scan", "android": "https://dc.lft.to/lastmile_qr_scan"}, "lat": 38.915533833333335, "lon": -77.02971516666666, "bike_id": "35e361aefa84b36be15bdd49ed98e42b", "fusion_lat": 0.0, "is_disabled": 0, "fusion_lon": 0.0}, {"name": "820fb7033005c1b05ea3f6a2d3cd9e39", "is_reserved": 0, "type": "electric_scooter", "rental_uris": {"ios": "https://dc.lft.to/lastmile_qr_scan", "android": "https://dc.lft.to/lastmile_qr_scan"}, "lat": 38.8950175, "lon": -77.01126133333334, "bike_id": "820fb7033005c1b05ea3f6a2d3cd9e39", "fusion_lat": 0.0, "is_disabled": 0, "fusion_lon": 0.0}, {"name": "eb4e1a8a11089b99a83407035bcb6329", "is_reserved": 0, "type": "electric_scooter", "rental_uris": {"ios": "https://dc.lft.to/lastmile_qr_scan", "android": "https://dc.lft.to/lastmile_qr_scan"}, "lat": 38.91428616666666, "lon": -77.03219483333334, "bike_id": "eb4e1a8a11089b99a83407035bcb6329", "fusion_lat": 0.0, "is_disabled": 0, "fusion_lon": 0.0}, {"name": "07b5cb4013076419381774aaca40987c", "is_reserved": 0, "type": "electric_scooter", "rental_uris": {"ios": "https://dc.lft.to/lastmile_qr_scan", "android": "https://dc.lft.to/lastmile_qr_scan"}, "lat": 38.95723316666667, "lon": -77.00241133333333, "bike_id": "07b5cb4013076419381774aaca40987c", "fusion_lat": 0.0, "is_disabled": 0, "fusion_lon": 0.0}, {"name": "d22f790180c7c6763be3d8cd7ca53326", "is_reserved": 0, "type": "electric_scooter", "rental_uris": {"ios": "https://dc.lft.to/lastmile_qr_scan", "android": "https://dc.lft.to/lastmile_qr_scan"}, "lat": 38.862640166666665, "lon": -76.9954905, "bike_id": "d22f790180c7c6763be3d8cd7ca53326", "fusion_lat": 0.0, "is_disabled": 0, "fusion_lon": 0.0}, {"name": "1abd926e773ccdec23cff6d95f5d38f4", "is_reserved": 0, "type": "electric_scooter", "rental_uris": {"ios": "https://dc.lft.to/lastmile_qr_scan", "android": "https://dc.lft.to/lastmile_qr_scan"}, "lat": 38.97502516666667, "lon": -77.01696133333333, "bike_id": "1abd926e773ccdec23cff6d95f5d38f4", "fusion_lat": 0.0, "is_disabled": 0, "fusion_lon": 0.0}, {"name": "c11dd7a2937a98e93a929587c9a19335", "is_reserved": 0, "type": "electric_scooter", "rental_uris": {"ios": "https://dc.lft.to/lastmile_qr_scan", "android": "https://dc.lft.to/lastmile_qr_scan"}, "lat": 38.92103133333333, "lon": -76.9940915, "bike_id": "c11dd7a2937a98e93a929587c9a19335", "fusion_lat": 0.0, "is_disabled": 0, "fusion_lon": 0.0}, {"name": "37f829ec55d38bcf0a350ce492a6685b", "is_reserved": 0, "type": "electric_scooter", "rental_uris": {"ios": "https://dc.lft.to/lastmile_qr_scan", "android": "https://dc.lft.to/lastmile_qr_scan"}, "lat": 38.920880833333335, "lon": -77.02406116666667, "bike_id": "37f829ec55d38bcf0a350ce492a6685b", "fusion_lat": 0.0, "is_disabled": 0, "fusion_lon": 0.0}, {"name": "5235963c270b8c8a60308cbda6ba2393", "is_reserved": 0, "type": "electric_bike", "rental_uris": {"ios": "https://dc.lft.to/lastmile_qr_scan", "android": "https://dc.lft.to/lastmile_qr_scan"}, "lat": 38.951154333333335, "lon": -76.96922633333334, "bike_id": "5235963c270b8c8a60308cbda6ba2393", "fusion_lat": 0.0, "is_disabled": 0, "fusion_lon": 0.0}, {"name": "85e8f6e68961e30aa6b576d01cff70b3", "is_reserved": 0, "type": "electric_scooter", "rental_uris": {"ios": "https://dc.lft.to/lastmile_qr_scan", "android": "https://dc.lft.to/lastmile_qr_scan"}, "lat": 38.915541166666664, "lon": -77.033255, "bike_id": "85e8f6e68961e30aa6b576d01cff70b3", "fusion_lat": 0.0, "is_disabled": 0, "fusion_lon": 0.0}, {"name": "a42535c5df2d8668ccebab09b1e57387", "is_reserved": 0, "type": "electric_scooter", "rental_uris": {"ios": "https://dc.lft.to/lastmile_qr_scan", "android": "https://dc.lft.to/lastmile_qr_scan"}, "lat": 38.91433266666667, "lon": -77.01226033333333, "bike_id": "a42535c5df2d8668ccebab09b1e57387", "fusion_lat": 0.0, "is_disabled": 0, "fusion_lon": 0.0}, {"name": "8cd3e6d6683990483ab89d7f923665ed", "is_reserved": 0, "type": "electric_scooter", "rental_uris": {"ios": "https://dc.lft.to/lastmile_qr_scan", "android": "https://dc.lft.to/lastmile_qr_scan"}, "lat": 38.917033, "lon": -77.00964066666667, "bike_id": "8cd3e6d6683990483ab89d7f923665ed", "fusion_lat": 0.0, "is_disabled": 0, "fusion_lon": 0.0}, {"name": "a52f20223b05c8af38d78dc3a85f7848", "is_reserved": 0, "type": "electric_scooter", "rental_uris": {"ios": "https://dc.lft.to/lastmile_qr_scan", "android": "https://dc.lft.to/lastmile_qr_scan"}, "lat": 38.91826866666667, "lon": -77.05885333333333, "bike_id": "a52f20223b05c8af38d78dc3a85f7848", "fusion_lat": 0.0, "is_disabled": 0, "fusion_lon": 0.0}, {"name": "7390e4e0237c53f8cd78ff3bcdd0ca3c", "is_reserved": 0, "type": "electric_scooter", "rental_uris": {"ios": "https://dc.lft.to/lastmile_qr_scan", "android": "https://dc.lft.to/lastmile_qr_scan"}, "lat": 38.867013, "lon": -76.98402366666667, "bike_id": "7390e4e0237c53f8cd78ff3bcdd0ca3c", "fusion_lat": 0.0, "is_disabled": 0, "fusion_lon": 0.0}, {"name": "8eb578d39ebcf0f87d1304e00c14894f", "is_reserved": 0, "type": "electric_scooter", "rental_uris": {"ios": "https://dc.lft.to/lastmile_qr_scan", "android": "https://dc.lft.to/lastmile_qr_scan"}, "lat": 38.902788, "lon": -77.06126466666667, "bike_id": "8eb578d39ebcf0f87d1304e00c14894f", "fusion_lat": 0.0, "is_disabled": 0, "fusion_lon": 0.0}, {"name": "be9f4e433f628bb08ab22d58d00d7780", "is_reserved": 0, "type": "electric_scooter", "rental_uris": {"ios": "https://dc.lft.to/lastmile_qr_scan", "android": "https://dc.lft.to/lastmile_qr_scan"}, "lat": 38.905407333333336, "lon": -77.02188983333333, "bike_id": "be9f4e433f628bb08ab22d58d00d7780", "fusion_lat": 0.0, "is_disabled": 0, "fusion_lon": 0.0}, {"name": "e3f8473fbe7fc5b5f9c25bbd779233a4", "is_reserved": 0, "type": "electric_scooter", "rental_uris": {"ios": "https://dc.lft.to/lastmile_qr_scan", "android": "https://dc.lft.to/lastmile_qr_scan"}, "lat": 38.91003116666667, "lon": -77.0449705, "bike_id": "e3f8473fbe7fc5b5f9c25bbd779233a4", "fusion_lat": 0.0, "is_disabled": 0, "fusion_lon": 0.0}, {"name": "667a411366589cfbb5904d2dcdc89c85", "is_reserved": 0, "type": "electric_bike", "rental_uris": {"ios": "https://dc.lft.to/lastmile_qr_scan", "android": "https://dc.lft.to/lastmile_qr_scan"}, "lat": 38.944747666666665, "lon": -77.0229795, "bike_id": "667a411366589cfbb5904d2dcdc89c85", "fusion_lat": 0.0, "is_disabled": 0, "fusion_lon": 0.0}, {"name": "5e32fa030c4f0b40383d24fdc551c2f2", "is_reserved": 0, "type": "electric_scooter", "rental_uris": {"ios": "https://dc.lft.to/lastmile_qr_scan", "android": "https://dc.lft.to/lastmile_qr_scan"}, "lat": 38.90497033333333, "lon": -77.04331683333334, "bike_id": "5e32fa030c4f0b40383d24fdc551c2f2", "fusion_lat": 0.0, "is_disabled": 0, "fusion_lon": 0.0}, {"name": "c62b348078bbc1d5db430a4c8fde026f", "is_reserved": 0, "type": "electric_bike", "rental_uris": {"ios": "https://dc.lft.to/lastmile_qr_scan", "android": "https://dc.lft.to/lastmile_qr_scan"}, "lat": 38.852253833333336, "lon": -77.129587, "bike_id": "c62b348078bbc1d5db430a4c8fde026f", "fusion_lat": 0.0, "is_disabled": 0, "fusion_lon": 0.0}, {"name": "77ca757221f00a6eb9765fdb9fa43f2d", "is_reserved": 0, "type": "electric_scooter", "rental_uris": {"ios": "https://dc.lft.to/lastmile_qr_scan", "android": "https://dc.lft.to/lastmile_qr_scan"}, "lat": 38.91522, "lon": -77.01223983333334, "bike_id": "77ca757221f00a6eb9765fdb9fa43f2d", "fusion_lat": 0.0, "is_disabled": 0, "fusion_lon": 0.0}, {"name": "14ba95ff8905cd98c6dd0de721bc6dbc", "is_reserved": 0, "type": "electric_scooter", "rental_uris": {"ios": "https://dc.lft.to/lastmile_qr_scan", "android": "https://dc.lft.to/lastmile_qr_scan"}, "lat": 38.96082066666666, "lon": -77.02820666666666, "bike_id": "14ba95ff8905cd98c6dd0de721bc6dbc", "fusion_lat": 0.0, "is_disabled": 0, "fusion_lon": 0.0}, {"name": "9d4a922ef85108f70782d2cea6c9dd7d", "is_reserved": 0, "type": "electric_scooter", "rental_uris": {"ios": "https://dc.lft.to/lastmile_qr_scan", "android": "https://dc.lft.to/lastmile_qr_scan"}, "lat": 38.920288166666666, "lon": -77.044119, "bike_id": "9d4a922ef85108f70782d2cea6c9dd7d", "fusion_lat": 0.0, "is_disabled": 0, "fusion_lon": 0.0}, {"name": "1c5e1fb60eedf25eaf2752b2084d59bf", "is_reserved": 0, "type": "electric_scooter", "rental_uris": {"ios": "https://dc.lft.to/lastmile_qr_scan", "android": "https://dc.lft.to/lastmile_qr_scan"}, "lat": 38.9085805, "lon": -76.998005, "bike_id": "1c5e1fb60eedf25eaf2752b2084d59bf", "fusion_lat": 0.0, "is_disabled": 0, "fusion_lon": 0.0}, {"name": "27af07ccf80cc243d8f76de07f9ef3ca", "is_reserved": 0, "type": "electric_scooter", "rental_uris": {"ios": "https://dc.lft.to/lastmile_qr_scan", "android": "https://dc.lft.to/lastmile_qr_scan"}, "lat": 38.9154135, "lon": -76.98378116666666, "bike_id": "27af07ccf80cc243d8f76de07f9ef3ca", "fusion_lat": 0.0, "is_disabled": 0, "fusion_lon": 0.0}, {"name": "1ea7bb288a3a5af87181a5bf882521e1", "is_reserved": 0, "type": "electric_scooter", "rental_uris": {"ios": "https://dc.lft.to/lastmile_qr_scan", "android": "https://dc.lft.to/lastmile_qr_scan"}, "lat": 38.89855633333333, "lon": -77.05308733333334, "bike_id": "1ea7bb288a3a5af87181a5bf882521e1", "fusion_lat": 0.0, "is_disabled": 0, "fusion_lon": 0.0}, {"name": "4d96b0215627d9247af6cf187aff0c46", "is_reserved": 0, "type": "electric_scooter", "rental_uris": {"ios": "https://dc.lft.to/lastmile_qr_scan", "android": "https://dc.lft.to/lastmile_qr_scan"}, "lat": 38.910324833333334, "lon": -76.9856445, "bike_id": "4d96b0215627d9247af6cf187aff0c46", "fusion_lat": 0.0, "is_disabled": 0, "fusion_lon": 0.0}, {"name": "b894bebb99fd74d13d72dd11e1b46eb0", "is_reserved": 0, "type": "electric_scooter", "rental_uris": {"ios": "https://dc.lft.to/lastmile_qr_scan", "android": "https://dc.lft.to/lastmile_qr_scan"}, "lat": 38.92673716666667, "lon": -77.0075695, "bike_id": "b894bebb99fd74d13d72dd11e1b46eb0", "fusion_lat": 0.0, "is_disabled": 0, "fusion_lon": 0.0}, {"name": "66828de8efaead88a07fdf3fa123246e", "is_reserved": 0, "type": "electric_scooter", "rental_uris": {"ios": "https://dc.lft.to/lastmile_qr_scan", "android": "https://dc.lft.to/lastmile_qr_scan"},