{"data": {"bikes": [{"rental_uris": {"android": "https://dc.lft.to/lastmile_qr_scan", "ios": "https://dc.lft.to/lastmile_qr_scan"}, "fusion_lat": 0.0, "is_reserved": 0, "lat": 38.92598133333333, "name": "b905743712d1c6e4f04df48fbb156c7d", "bike_id": "b905743712d1c6e4f04df48fbb156c7d", "is_disabled": 0, "fusion_lon": 0.0, "type": "electric_scooter", "lon": -77.0215355}, {"rental_uris": {"android": "https://dc.lft.to/lastmile_qr_scan", "ios": "https://dc.lft.to/lastmile_qr_scan"}, "fusion_lat": 0.0, "is_reserved": 0, "lat": 38.879162666666666, "name": "62a458595bae9f98d2b9ecd840754bb0", "bike_id": "62a458595bae9f98d2b9ecd840754bb0", "is_disabled": 0, "fusion_lon": 0.0, "type": "electric_scooter", "lon": -77.02159183333333}, {"rental_uris": {"android": "https://dc.lft.to/lastmile_qr_scan", "ios": "https://dc.lft.to/lastmile_qr_scan"}, "fusion_lat": 0.0, "is_reserved": 0, "lat": 38.915497333333334, "name": "554759230277492e87b890113da4cf24", "bike_id": "554759230277492e87b890113da4cf24", "is_disabled": 0, "fusion_lon": 0.0, "type": "electric_scooter", "lon": -77.022038}, {"rental_uris": {"android": "https://dc.lft.to/lastmile_qr_scan", "ios": "https://dc.lft.to/lastmile_qr_scan"}, "fusion_lat": 0.0, "is_reserved": 0, "lat": 38.9164045, "name": "e71263d530c61e3359ab58b289e75e56", "bike_id": "e71263d530c61e3359ab58b289e75e56", "is_disabled": 0, "fusion_lon": 0.0, "type": "electric_scooter", "lon": -77.0102595}, {"rental_uris": {"android": "https://dc.lft.to/lastmile_qr_scan", "ios": "https://dc.lft.to/lastmile_qr_scan"}, "fusion_lat": 0.0, "is_reserved": 0, "lat": 38.905610333333335, "name": "cc5f477661ecfba4cfc5ceeb97db509a", "bike_id": "cc5f477661ecfba4cfc5ceeb97db509a", "is_disabled": 0, "fusion_lon": 0.0, "type": "electric_scooter", "lon": -77.00592366666666}, {"rental_uris": {"android": "https://dc.lft.to/lastmile_qr_scan", "ios": "https://dc.lft.to/lastmile_qr_scan"}, "fusion_lat": 0.0, "is_reserved": 0, "lat": 38.900792333333335, "name": "b29a54361bd4b40d384670bbb632df2a", "bike_id": "b29a54361bd4b40d384670bbb632df2a", "is_disabled": 0, "fusion_lon": 0.0, "type": "electric_scooter", "lon": -77.021778}, {"rental_uris": {"android": "https://dc.lft.to/lastmile_qr_scan", "ios": "https://dc.lft.to/lastmile_qr_scan"}, "fusion_lat": 0.0, "is_reserved": 0, "lat": 38.89298616666667, "name": "f9d27dfd23c564c9aae48e4ece2b6712", "bike_id": "f9d27dfd23c564c9aae48e4ece2b6712", "is_disabled": 0, "fusion_lon": 0.0, "type": "electric_scooter", "lon": -76.929958}, {"rental_uris": {"android": "https://dc.lft.to/lastmile_qr_scan", "ios": "https://dc.lft.to/lastmile_qr_scan"}, "fusion_lat": 0.0, "is_reserved": 0, "lat": 38.9078465, "name": "8cfbe0f69a1170e4eb9bf83d2cb39941", "bike_id": "8cfbe0f69a1170e4eb9bf83d2cb39941", "is_disabled": 0, "fusion_lon": 0.0, "type": "electric_scooter", "lon": -77.03063}, {"rental_uris": {"android": "https://dc.lft.to/lastmile_qr_scan", "ios": "https://dc.lft.to/lastmile_qr_scan"}, "fusion_lat": 0.0, "is_reserved": 0, "lat": 38.899932, "name": "26056b498399c77086207e18104924f7", "bike_id": "26056b498399c77086207e18104924f7", "is_disabled": 0, "fusion_lon": 0.0, "type": "electric_scooter", "lon": -77.00071066666666}, {"rental_uris": {"android": "https://dc.lft.to/lastmile_qr_scan", "ios": "https://dc.lft.to/lastmile_qr_scan"}, "fusion_lat": 0.0, "is_reserved": 0, "lat": 38.91582183333333, "name": "17177caa8868732475ef7c1bf953f0c7", "bike_id": "17177caa8868732475ef7c1bf953f0c7", "is_disabled": 0, "fusion_lon": 0.0, "type": "electric_scooter", "lon": -77.01234433333333}, {"rental_uris": {"android": "https://dc.lft.to/lastmile_qr_scan", "ios": "https://dc.lft.to/lastmile_qr_scan"}, "fusion_lat": 0.0, "is_reserved": 0, "lat": 38.9083135, "name": "b2f954ae54e8c4bbee019a34c87f02da", "bike_id": "b2f954ae54e8c4bbee019a34c87f02da", "is_disabled": 0, "fusion_lon": 0.0, "type": "electric_scooter", "lon": -76.9969545}, {"rental_uris": {"android": "https://dc.lft.to/lastmile_qr_scan", "ios": "https://dc.lft.to/lastmile_qr_scan"}, "fusion_lat": 0.0, "is_reserved": 0, "lat": 38.91172733333333, "name": "612915df0abf7f5c061e5ac08bb44ef4", "bike_id": "612915df0abf7f5c061e5ac08bb44ef4", "is_disabled": 0, "fusion_lon": 0.0, "type": "electric_scooter", "lon": -77.00459316666667}, {"rental_uris": {"android": "https://dc.lft.to/lastmile_qr_scan", "ios": "https://dc.lft.to/lastmile_qr_scan"}, "fusion_lat": 0.0, "is_reserved": 0, "lat": 38.8962155, "name": "f205c5f598a8e97a25d10ba8a19c0b9c", "bike_id": "f205c5f598a8e97a25d10ba8a19c0b9c", "is_disabled": 0, "fusion_lon": 0.0, "type": "electric_scooter", "lon": -76.97685016666667}, {"rental_uris": {"android": "https://dc.lft.to/lastmile_qr_scan", "ios": "https://dc.lft.to/lastmile_qr_scan"}, "fusion_lat": 0.0, "is_reserved": 0, "lat": 38.90245933333333, "name": "8d354c464ed652f7e08dbe57c6b1a2f3", "bike_id": "8d354c464ed652f7e08dbe57c6b1a2f3", "is_disabled": 0, "fusion_lon": 0.0, "type": "electric_scooter", "lon": -77.00190633333334}, {"rental_uris": {"android": "https://dc.lft.to/lastmile_qr_scan", "ios": "https://dc.lft.to/lastmile_qr_scan"}, "fusion_lat": 0.0, "is_reserved": 0, "lat": 38.909017666666664, "name": "f5f71786279b18f2b10b340dc8a72f72", "bike_id": "f5f71786279b18f2b10b340dc8a72f72", "is_disabled": 0, "fusion_lon": 0.0, "type": "electric_scooter", "lon": -76.9911935}, {"rental_uris": {"android": "https://dc.lft.to/lastmile_qr_scan", "ios": "https://dc.lft.to/lastmile_qr_scan"}, "fusion_lat": 0.0, "is_reserved": 0, "lat": 38.926104333333335, "name": "5eae3ff34629eda320f9dc54557fe40a", "bike_id": "5eae3ff34629eda320f9dc54557fe40a", "is_disabled": 0, "fusion_lon": 0.0, "type": "electric_scooter", "lon": -77.0216155}, {"rental_uris": {"android": "https://dc.lft.to/lastmile_qr_scan", "ios": "https://dc.lft.to/lastmile_qr_scan"}, "fusion_lat": 0.0, "is_reserved": 0, "lat": 38.8839355, "name": "cb143eade09eba3a05651fac080b3cd1", "bike_id": "cb143eade09eba3a05651fac080b3cd1", "is_disabled": 0, "fusion_lon": 0.0, "type": "electric_scooter", "lon": -76.93044333333333}, {"rental_uris": {"android": "https://dc.lft.to/lastmile_qr_scan", "ios": "https://dc.lft.to/lastmile_qr_scan"}, "fusion_lat": 0.0, "is_reserved": 0, "lat": 38.91693816666667, "name": "fd24ffc5ff985d1d003a948cdda7a7c5", "bike_id": "fd24ffc5ff985d1d003a948cdda7a7c5", "is_disabled": 0, "fusion_lon": 0.0, "type": "electric_scooter", "lon": -77.02308816666667}, {"rental_uris": {"android": "https://dc.lft.to/lastmile_qr_scan", "ios": "https://dc.lft.to/lastmile_qr_scan"}, "fusion_lat": 0.0, "is_reserved": 0, "lat": 38.90014766666667, "name": "ec817aed8412827085bd78ac7247bd1d", "bike_id": "ec817aed8412827085bd78ac7247bd1d", "is_disabled": 0, "fusion_lon": 0.0, "type": "electric_scooter", "lon": -76.93026616666667}, {"rental_uris": {"android": "https://dc.lft.to/lastmile_qr_scan", "ios": "https://dc.lft.to/lastmile_qr_scan"}, "fusion_lat": 0.0, "is_reserved": 0, "lat": 38.90118783333333, "name": "158a947d5e79303604d8c5d291bbf77d", "bike_id": "158a947d5e79303604d8c5d291bbf77d", "is_disabled": 0, "fusion_lon": 0.0, "type": "electric_scooter", "lon": -77.05000416666667}, {"rental_uris": {"android": "https://dc.lft.to/lastmile_qr_scan", "ios": "https://dc.lft.to/lastmile_qr_scan"}, "fusion_lat": 0.0, "is_reserved": 0, "lat": 38.91828616666667, "name": "2fd604efe199fd0f32e6ef110bb18224", "bike_id": "2fd604efe199fd0f32e6ef110bb18224", "is_disabled": 0, "fusion_lon": 0.0, "type": "electric_scooter", "lon": -77.04561016666666}, {"rental_uris": {"android": "https://dc.lft.to/lastmile_qr_scan", "ios": "https://dc.lft.to/lastmile_qr_scan"}, "fusion_lat": 0.0, "is_reserved": 0, "lat": 38.93857233333333, "name": "fdd58481537591684bc9762482a95a16", "bike_id": "fdd58481537591684bc9762482a95a16", "is_disabled": 0, "fusion_lon": 0.0, "type": "electric_scooter", "lon": -77.02479983333333}, {"rental_uris": {"android": "https://dc.lft.to/lastmile_qr_scan", "ios": "https://dc.lft.to/lastmile_qr_scan"}, "fusion_lat": 0.0, "is_reserved": 0, "lat": 38.93678516666667, "name": "9bccc9e827aaebb38822e2887b6ce744", "bike_id": "9bccc9e827aaebb38822e2887b6ce744", "is_disabled": 0, "fusion_lon": 0.0, "type": "electric_bike", "lon": -77.02413066666666}, {"rental_uris": {"android": "https://dc.lft.to/lastmile_qr_scan", "ios": "https://dc.lft.to/lastmile_qr_scan"}, "fusion_lat": 0.0, "is_reserved": 0, "lat": 38.9344425, "name": "8405e9fd3282066ebc70c2c6ba1288d9", "bike_id": "8405e9fd3282066ebc70c2c6ba1288d9", "is_disabled": 0, "fusion_lon": 0.0, "type": "electric_scooter", "lon": -77.029806}, {"rental_uris": {"android": "https://dc.lft.to/lastmile_qr_scan", "ios": "https://dc.lft.to/lastmile_qr_scan"}, "fusion_lat": 0.0, "is_reserved": 0, "lat": 38.924277333333336, "name": "f69b36127cb40a6408fa76f322b7f415", "bike_id": "f69b36127cb40a6408fa76f322b7f415", "is_disabled": 0, "fusion_lon": 0.0, "type": "electric_scooter", "lon": -77.03785116666667}, {"rental_uris": {"android": "https://dc.lft.to/lastmile_qr_scan", "ios": "https://dc.lft.to/lastmile_qr_scan"}, "fusion_lat": 0.0, "is_reserved": 0, "lat": 38.8804785, "name": "fe9e3773032d4aaec0cbbe9506bc7df9", "bike_id": "fe9e3773032d4aaec0cbbe9506bc7df9", "is_disabled": 0, "fusion_lon": 0.0, "type": "electric_scooter", "lon": -77.01173466666667}, {"rental_uris": {"android": "https://dc.lft.to/lastmile_qr_scan", "ios": "https://dc.lft.to/lastmile_qr_scan"}, "fusion_lat": 0.0, "is_reserved": 0, "lat": 38.93242133333333, "name": "c9372400408fb4659ea94c07b998edbe", "bike_id": "c9372400408fb4659ea94c07b998edbe", "is_disabled": 0, "fusion_lon": 0.0, "type": "electric_scooter", "lon": -77.03272366666667}, {"rental_uris": {"android": "https://dc.lft.to/lastmile_qr_scan", "ios": "https://dc.lft.to/lastmile_qr_scan"}, "fusion_lat": 0.0, "is_reserved": 0, "lat": 38.906051833333336, "name": "9f9487b911c30bba8c117bf19f6f78d3", "bike_id": "9f9487b911c30bba8c117bf19f6f78d3", "is_disabled": 0, "fusion_lon": 0.0, "type": "electric_bike", "lon": -77.12898483333333}, {"rental_uris": {"android": "https://dc.lft.to/lastmile_qr_scan", "ios": "https://dc.lft.to/lastmile_qr_scan"}, "fusion_lat": 0.0, "is_reserved": 0, "lat": 38.924596, "name": "d86d95f0ee5595162b4ece7ef3c9e8f4", "bike_id": "d86d95f0ee5595162b4ece7ef3c9e8f4", "is_disabled": 0, "fusion_lon": 0.0, "type": "electric_scooter", "lon": -76.99914883333334}, {"rental_uris": {"android": "https://dc.lft.to/lastmile_qr_scan", "ios": "https://dc.lft.to/lastmile_qr_scan"}, "fusion_lat": 0.0, "is_reserved": 0, "lat": 38.90057616666667, "name": "dd627d8bd153efa4dff454d4fd61bbde", "bike_id": "dd627d8bd153efa4dff454d4fd61bbde", "is_disabled": 0, "fusion_lon": 0.0, "type": "electric_scooter", "lon": -76.9868065}, {"rental_uris": {"android": "https://dc.lft.to/lastmile_qr_scan", "ios": "https://dc.lft.to/lastmile_qr_scan"}, "fusion_lat": 0.0, "is_reserved": 0, "lat": 38.86433733333333, "name": "d6deacaa87f6c51af75a20740bf94957", "bike_id": "d6deacaa87f6c51af75a20740bf94957", "is_disabled": 0, "fusion_lon": 0.0, "type": "electric_scooter", "lon": -76.99862716666667}, {"rental_uris": {"android": "https://dc.lft.to/lastmile_qr_scan", "ios": "https://dc.lft.to/lastmile_qr_scan"}, "fusion_lat": 0.0, "is_reserved": 0, "lat": 38.89794116666667, "name": "0bda89268ef9b981abd21a0042841f1c", "bike_id": "0bda89268ef9b981abd21a0042841f1c", "is_disabled": 0, "fusion_lon": 0.0, "type": "electric_scooter", "lon": -77.05484166666666}, {"rental_uris": {"android": "https://dc.lft.to/lastmile_qr_scan", "ios": "https://dc.lft.to/lastmile_qr_scan"}, "fusion_lat": 0.0, "is_reserved": 0, "lat": 38.8818555, "name": "9c7eaf0d2e1f3044a16b388bf0236936", "bike_id": "9c7eaf0d2e1f3044a16b388bf0236936", "is_disabled": 0, "fusion_lon": 0.0, "type": "electric_scooter", "lon": -76.99032466666667}, {"rental_uris": {"android": "https://dc.lft.to/lastmile_qr_scan", "ios": "https://dc.lft.to/lastmile_qr_scan"}, "fusion_lat": 0.0, "is_reserved": 0, "lat": 38.91844183333333, "name": "5d4b0813f2732b17069da16935b74ecf", "bike_id": "5d4b0813f2732b17069da16935b74ecf", "is_disabled": 0, "fusion_lon": 0.0, "type": "electric_scooter", "lon": -77.021807}, {"rental_uris": {"android": "https://dc.lft.to/lastmile_qr_scan", "ios": "https://dc.lft.to/lastmile_qr_scan"}, "fusion_lat": 0.0, "is_reserved": 0, "lat": 38.90907266666667, "name": "256f5d6fbab8de61c64decbfce191bd8", "bike_id": "256f5d6fbab8de61c64decbfce191bd8", "is_disabled": 0, "fusion_lon": 0.0, "type": "electric_scooter", "lon": -77.04418666666666}, {"rental_uris": {"android": "https://dc.lft.to/lastmile_qr_scan", "ios": "https://dc.lft.to/lastmile_qr_scan"}, "fusion_lat": 0.0, "is_reserved": 0, "lat": 38.9160845, "name": "997f0fdf8dbb1ad77538b343e1b56615", "bike_id": "997f0fdf8dbb1ad77538b343e1b56615", "is_disabled": 0, "fusion_lon": 0.0, "type": "electric_scooter", "lon": -77.022889}, {"rental_uris": {"android": "https://dc.lft.to/lastmile_qr_scan", "ios": "https://dc.lft.to/lastmile_qr_scan"}, "fusion_lat": 0.0, "is_reserved": 0, "lat": 38.8922135, "name": "307a78ec3fe22f36d1ded2abc155338d", "bike_id": "307a78ec3fe22f36d1ded2abc155338d", "is_disabled": 0, "fusion_lon": 0.0, "type": "electric_scooter", "lon": -77.039902}, {"rental_uris": {"android": "https://dc.lft.to/lastmile_qr_scan", "ios": "https://dc.lft.to/lastmile_qr_scan"}, "fusion_lat": 0.0, "is_reserved": 0, "lat": 38.87294166666667, "name": "a26e2a63dd8d9cb49efbcbb8506afb71", "bike_id": "a26e2a63dd8d9cb49efbcbb8506afb71", "is_disabled": 0, "fusion_lon": 0.0, "type": "electric_scooter", "lon": -77.002309}, {"rental_uris": {"android": "https://dc.lft.to/lastmile_qr_scan", "ios": "https://dc.lft.to/lastmile_qr_scan"}, "fusion_lat": 0.0, "is_reserved": 0, "lat": 38.922394833333335, "name": "52826bf8204d5073fa0e7cb377b7c5ba", "bike_id": "52826bf8204d5073fa0e7cb377b7c5ba", "is_disabled": 0, "fusion_lon": 0.0, "type": "electric_scooter", "lon": -77.03468666666667}, {"rental_uris": {"android": "https://dc.lft.to/lastmile_qr_scan", "ios": "https://dc.lft.to/lastmile_qr_scan"}, "fusion_lat": 0.0, "is_reserved": 0, "lat": 38.927322, "name": "b216dc85cfce9166da95bce220bcd242", "bike_id": "b216dc85cfce9166da95bce220bcd242", "is_disabled": 0, "fusion_lon": 0.0, "type": "electric_scooter", "lon": -77.022469}, {"rental_uris": {"android": "https://dc.lft.to/lastmile_qr_scan", "ios": "https://dc.lft.to/lastmile_qr_scan"}, "fusion_lat": 0.0, "is_reserved": 0, "lat": 38.91551366666667, "name": "41e4e90e801c3bb4b9a6f4b3fc1c680a", "bike_id": "41e4e90e801c3bb4b9a6f4b3fc1c680a", "is_disabled": 0, "fusion_lon": 0.0, "type": "electric_scooter", "lon": -77.036634}, {"rental_uris": {"android": "https://dc.lft.to/lastmile_qr_scan", "ios": "https://dc.lft.to/lastmile_qr_scan"}, "fusion_lat": 0.0, "is_reserved": 0, "lat": 38.92070566666666, "name": "75278d0addb981b87ee3864892404d5a", "bike_id": "75278d0addb981b87ee3864892404d5a", "is_disabled": 0, "fusion_lon": 0.0, "type": "electric_scooter", "lon": -77.02564083333333}, {"rental_uris": {"android": "https://dc.lft.to/lastmile_qr_scan", "ios": "https://dc.lft.to/lastmile_qr_scan"}, "fusion_lat": 0.0, "is_reserved": 0, "lat": 38.915374166666666, "name": "ec1ffd2cb2d427ac9f5e151ef1c7e020", "bike_id": "ec1ffd2cb2d427ac9f5e151ef1c7e020", "is_disabled": 0, "fusion_lon": 0.0, "type": "electric_scooter", "lon": -77.01228066666667}, {"rental_uris": {"android": "https://dc.lft.to/lastmile_qr_scan", "ios": "https://dc.lft.to/lastmile_qr_scan"}, "fusion_lat": 0.0, "is_reserved": 0, "lat": 38.88719833333333, "name": "a0dcdf8851670226bd7ca77af25005fe", "bike_id": "a0dcdf8851670226bd7ca77af25005fe", "is_disabled": 0, "fusion_lon": 0.0, "type": "electric_scooter", "lon": -76.99677483333333}, {"rental_uris": {"android": "https://dc.lft.to/lastmile_qr_scan", "ios": "https://dc.lft.to/lastmile_qr_scan"}, "fusion_lat": 0.0, "is_reserved": 0, "lat": 38.91254, "name": "bb33a4dfd3b9d7a4a06c86edd403d7a6", "bike_id": "bb33a4dfd3b9d7a4a06c86edd403d7a6", "is_disabled": 0, "fusion_lon": 0.0, "type": "electric_scooter", "lon": -77.03870066666667}, {"rental_uris": {"android": "https://dc.lft.to/lastmile_qr_scan", "ios": "https://dc.lft.to/lastmile_qr_scan"}, "fusion_lat": 0.0, "is_reserved": 0, "lat": 38.896251, "name": "685c25930f6bd051ed0e5e459b578632", "bike_id": "685c25930f6bd051ed0e5e459b578632", "is_disabled": 0, "fusion_lon": 0.0, "type": "electric_scooter", "lon": -77.03037733333333}, {"rental_uris": {"android": "https://dc.lft.to/lastmile_qr_scan", "ios": "https://dc.lft.to/lastmile_qr_scan"}, "fusion_lat": 0.0, "is_reserved": 0, "lat": 38.87911533333333, "name": "2b3cfef1fd399b84f57b7d433b405f87", "bike_id": "2b3cfef1fd399b84f57b7d433b405f87", "is_disabled": 0, "fusion_lon": 0.0, "type": "electric_scooter", "lon": -77.007178}, {"rental_uris": {"android": "https://dc.lft.to/lastmile_qr_scan", "ios": "https://dc.lft.to/lastmile_qr_scan"}, "fusion_lat": 0.0, "is_reserved": 0, "lat": 38.90187733333333, "name": "ad021834acaa825a8a7c01090f897968", "bike_id": "ad021834acaa825a8a7c01090f897968", "is_disabled": 0, "fusion_lon": 0.0, "type": "electric_scooter", "lon": -77.03383283333334}, {"rental_uris": {"android": "https://dc.lft.to/lastmile_qr_scan", "ios": "https://dc.lft.to/lastmile_qr_scan"}, "fusion_lat": 0.0, "is_reserved": 0, "lat": 38.910479, "name": "cd6582c996c7f226ac605235d4fab212", "bike_id": "cd6582c996c7f226ac605235d4fab212", "is_disabled": 0, "fusion_lon": 0.0, "type": "electric_scooter", "lon": -77.03844233333334}, {"rental_uris": {"android": "https://dc.lft.to/lastmile_qr_scan", "ios": "https://dc.lft.to/lastmile_qr_scan"}, "fusion_lat": 0.0, "is_reserved": 0, "lat": 38.944130666666666, "name": "f0e0e1b437f6b657c387b9fcbdbffcca", "bike_id": "f0e0e1b437f6b657c387b9fcbdbffcca", "is_disabled": 0, "fusion_lon": 0.0, "type": "electric_scooter", "lon": -77.06322683333333}, {"rental_uris": {"android": "https://dc.lft.to/lastmile_qr_scan", "ios": "https://dc.lft.to/lastmile_qr_scan"}, "fusion_lat": 0.0, "is_reserved": 0, "lat": 38.93241, "name": "4e5db52f3a4bf439ccea3346739d14e1", "bike_id": "4e5db52f3a4bf439ccea3346739d14e1", "is_disabled": 0, "fusion_lon": 0.0, "type": "electric_scooter", "lon": -77.03201416666667}, {"rental_uris": {"android": "https://dc.lft.to/lastmile_qr_scan", "ios": "https://dc.lft.to/lastmile_qr_scan"}, "fusion_lat": 0.0, "is_reserved": 0, "lat": 38.90276566666667, "name": "fad56a0aa905469bab42313f50c47b68", "bike_id": "fad56a0aa905469bab42313f50c47b68", "is_disabled": 0, "fusion_lon": 0.0, "type": "electric_scooter", "lon": -77.03207583333334}, {"rental_uris": {"android": "https://dc.lft.to/lastmile_qr_scan", "ios": "https://dc.lft.to/lastmile_qr_scan"}, "fusion_lat": 0.0, "is_reserved": 0, "lat": 38.88881966666667, "name": "4e9533dfe05669a5146a78576d81518c", "bike_id": "4e9533dfe05669a5146a78576d81518c", "is_disabled": 0, "fusion_lon": 0.0, "type": "electric_scooter", "lon": -76.99037016666666}, {"rental_uris": {"android": "https://dc.lft.to/lastmile_qr_scan", "ios": "https://dc.lft.to/lastmile_qr_scan"}, "fusion_lat": 0.0, "is_reserved": 0, "lat": 38.905545000000004, "name": "e6879b04e8e03ea271eb370706e33334", "bike_id": "e6879b04e8e03ea271eb370706e33334", "is_disabled": 0, "fusion_lon": 0.0, "type": "electric_scooter", "lon": -77.04077216666667}, {"rental_uris": {"android": "https://dc.lft.to/lastmile_qr_scan", "ios": "https://dc.lft.to/lastmile_qr_scan"}, "fusion_lat": 0.0, "is_reserved": 0, "lat": 38.89979533333333, "name": "c772abe6c4c00cda824d6440144da6ec", "bike_id": "c772abe6c4c00cda824d6440144da6ec", "is_disabled": 0, "fusion_lon": 0.0, "type": "electric_scooter", "lon": -77.02241183333334}, {"rental_uris": {"android": "https://dc.lft.to/lastmile_qr_scan", "ios": "https://dc.lft.to/lastmile_qr_scan"}, "fusion_lat": 0.0, "is_reserved": 0, "lat": 38.88769633333333, "name": "f84665f9435b841cf179f32ea2040827", "bike_id": "f84665f9435b841cf179f32ea2040827", "is_disabled": 0, "fusion_lon": 0.0, "type": "electric_scooter", "lon": -76.93266866666667}, {"rental_uris": {"android": "https://dc.lft.to/lastmile_qr_scan", "ios": "https://dc.lft.to/lastmile_qr_scan"}, "fusion_lat": 0.0, "is_reserved": 0, "lat": 38.912484666666664, "name": "292126747931e4baf9df161ee39a3563", "bike_id": "292126747931e4baf9df161ee39a3563", "is_disabled": 0, "fusion_lon": 0.0, "type": "electric_scooter", "lon": -77.0352095}, {"rental_uris": {"android": "https://dc.lft.to/lastmile_qr_scan", "ios": "https://dc.lft.to/lastmile_qr_scan"}, "fusion_lat": 0.0, "is_reserved": 0, "lat": 38.91909883333334, "name": "e88b50f4781bb982e7ba09ad5f37a479", "bike_id": "e88b50f4781bb982e7ba09ad5f37a479", "is_disabled": 0, "fusion_lon": 0.0, "type": "electric_scooter", "lon": -77.04173216666666}, {"rental_uris": {"android": "https://dc.lft.to/lastmile_qr_scan", "ios": "https://dc.lft.to/lastmile_qr_scan"}, "fusion_lat": 0.0, "is_reserved": 0, "lat": 38.941655833333336, "name": "4e7be815d47aa40eeaac9f8b03353bf9", "bike_id": "4e7be815d47aa40eeaac9f8b03353bf9", "is_disabled": 0, "fusion_lon": 0.0, "type": "electric_scooter", "lon": -77.02560166666666}, {"rental_uris": {"android": "https://dc.lft.to/lastmile_qr_scan", "ios": "https://dc.lft.to/lastmile_qr_scan"}, "fusion_lat": 0.0, "is_reserved": 0, "lat": 38.922394, "name": "d22958b2bba0bca3aae40957e53134d1", "bike_id": "d22958b2bba0bca3aae40957e53134d1", "is_disabled": 0, "fusion_lon": 0.0, "type": "electric_scooter", "lon": -77.0366485}, {"rental_uris": {"android": "https://dc.lft.to/lastmile_qr_scan", "ios": "https://dc.lft.to/lastmile_qr_scan"}, "fusion_lat": 0.0, "is_reserved": 0, "lat": 38.91325416666667, "name": "ab5cfb40e7dea480bac25f52b3952d4c", "bike_id": "ab5cfb40e7dea480bac25f52b3952d4c", "is_disabled": 0, "fusion_lon": 0.0, "type": "electric_scooter", "lon": -77.04727616666666}, {"rental_uris": {"android": "https://dc.lft.to/lastmile_qr_scan", "ios": "https://dc.lft.to/lastmile_qr_scan"}, "fusion_lat": 0.0, "is_reserved": 0, "lat": 38.89912283333334, "name": "cc90f9ccd9db5aa69aa1b7f3dab61a96", "bike_id": "cc90f9ccd9db5aa69aa1b7f3dab61a96", "is_disabled": 0, "fusion_lon": 0.0, "type": "electric_scooter", "lon": -76.93377316666667}, {"rental_uris": {"android": "https://dc.lft.to/lastmile_qr_scan", "ios": "https://dc.lft.to/lastmile_qr_scan"}, "fusion_lat": 0.0, "is_reserved": 0, "lat": 38.88549366666667, "name": "6e37f5e4776f4c0c4e65b18205cebbb8", "bike_id": "6e37f5e4776f4c0c4e65b18205cebbb8", "is_disabled": 0, "fusion_lon": 0.0, "type": "electric_scooter", "lon": -77.02178516666666}, {"rental_uris": {"android": "https://dc.lft.to/lastmile_qr_scan", "ios": "https://dc.lft.to/lastmile_qr_scan"}, "fusion_lat": 0.0, "is_reserved": 0, "lat": 38.954687, "name": "667f6a3df4b12dcf646cd5c166d71698", "bike_id": "667f6a3df4b12dcf646cd5c166d71698", "is_disabled": 0, "fusion_lon": 0.0, "type": "electric_scooter", "lon": -77.077699}, {"rental_uris": {"android": "https://dc.lft.to/lastmile_qr_scan", "ios": "https://dc.lft.to/lastmile_qr_scan"}, "fusion_lat": 0.0, "is_reserved": 0, "lat": 38.92928216666667, "name": "193e90037eaa67f8bc1a4efef1924e0e", "bike_id": "193e90037eaa67f8bc1a4efef1924e0e", "is_disabled": 0, "fusion_lon": 0.0, "type": "electric_scooter", "lon": -77.029669}, {"rental_uris": {"android": "https://dc.lft.to/lastmile_qr_scan", "ios": "https://dc.lft.to/lastmile_qr_scan"}, "fusion_lat": 0.0, "is_reserved": 0, "lat": 38.92063133333333, "name": "a45755dc8b756ca7d4d1f007f5c38f02", "bike_id": "a45755dc8b756ca7d4d1f007f5c38f02", "is_disabled": 0, "fusion_lon": 0.0, "type": "electric_scooter", "lon": -77.03465716666666}, {"rental_uris": {"android": "https://dc.lft.to/lastmile_qr_scan", "ios": "https://dc.lft.to/lastmile_qr_scan"}, "fusion_lat": 0.0, "is_reserved": 0, "lat": 38.93456583333333, "name": "d4a8e6c9858204ea2ca38ee3a352e6ee", "bike_id": "d4a8e6c9858204ea2ca38ee3a352e6ee", "is_disabled": 0, "fusion_lon": 0.0, "type": "electric_scooter", "lon": -77.02732783333333}, {"rental_uris": {"android": "https://dc.lft.to/lastmile_qr_scan", "ios": "https://dc.lft.to/lastmile_qr_scan"}, "fusion_lat": 0.0, "is_reserved": 0, "lat": 38.90579666666667, "name": "2de815ab6be4ea851f175df6298c2996", "bike_id": "2de815ab6be4ea851f175df6298c2996", "is_disabled": 0, "fusion_lon": 0.0, "type": "electric_scooter", "lon": -77.04235266666667}, {"rental_uris": {"android": "https://dc.lft.to/lastmile_qr_scan", "ios": "https://dc.lft.to/lastmile_qr_scan"}, "fusion_lat": 0.0, "is_reserved": 0, "lat": 38.904121333333336, "name": "3945fc7941668f12356b16303e2a03cc", "bike_id": "3945fc7941668f12356b16303e2a03cc", "is_disabled": 0, "fusion_lon": 0.0, "type": "electric_scooter", "lon": -77.02601033333333}, {"rental_uris": {"android": "https://dc.lft.to/lastmile_qr_scan", "ios": "https://dc.lft.to/lastmile_qr_scan"}, "fusion_lat": 0.0, "is_reserved": 0, "lat": 38.90914266666667, "name": "ab9e937b0f69f7cfcdf3245b1109569c", "bike_id": "ab9e937b0f69f7cfcdf3245b1109569c", "is_disabled": 0, "fusion_lon": 0.0, "type": "electric_scooter", "lon": -77.031024}, {"rental_uris": {"android": "https://dc.lft.to/lastmile_qr_scan", "ios": "https://dc.lft.to/lastmile_qr_scan"}, "fusion_lat": 0.0, "is_reserved": 0, "lat": 38.87889033333333, "name": "f34523a86989818c2cd6d58e9f36ba53", "bike_id": "f34523a86989818c2cd6d58e9f36ba53", "is_disabled": 0, "fusion_lon": 0.0, "type": "electric_scooter", "lon": -77.00607533333333}, {"rental_uris": {"android": "https://dc.lft.to/lastmile_qr_scan", "ios": "https://dc.lft.to/lastmile_qr_scan"}, "fusion_lat": 0.0, "is_reserved": 0, "lat": 38.883189, "name": "0314c312abec88e593bbd077156add8e", "bike_id": "0314c312abec88e593bbd077156add8e", "is_disabled": 0, "fusion_lon": 0.0, "type": "electric_scooter", "lon": -77.00197416666667}, {"rental_uris": {"android": "https://dc.lft.to/lastmile_qr_scan", "ios": "https://dc.lft.to/lastmile_qr_scan"}, "fusion_lat": 0.0, "is_reserved": 0, "lat": 38.8919475, "name": "00fd3f73954780403927c0fe74f5a4af", "bike_id": "00fd3f73954780403927c0fe74f5a4af", "is_disabled": 0, "fusion_lon": 0.0, "type": "electric_scooter", "lon": -76.99862283333333}, {"rental_uris": {"android": "https://dc.lft.to/lastmile_qr_scan", "ios": "https://dc.lft.to/lastmile_qr_scan"}, "fusion_lat": 0.0, "is_reserved": 0, "lat": 38.93962833333333, "name": "67ffebeee375cb617d82147a49a75cbb", "bike_id": "67ffebeee375cb617d82147a49a75cbb", "is_disabled": 0, "fusion_lon": 0.0, "type": "electric_scooter", "lon": -77.032851}, {"rental_uris": {"android": "https://dc.lft.to/lastmile_qr_scan", "ios": "https://dc.lft.to/lastmile_qr_scan"}, "fusion_lat": 0.0, "is_reserved": 0, "lat": 38.88003066666667, "name": "1a3b7160916ddf8462bd889a0c553dbc", "bike_id": "1a3b7160916ddf8462bd889a0c553dbc", "is_disabled": 0, "fusion_lon": 0.0, "type": "electric_scooter", "lon": -76.98412766666667}, {"rental_uris": {"android": "https://dc.lft.to/lastmile_qr_scan", "ios": "https://dc.lft.to/lastmile_qr_scan"}, "fusion_lat": 0.0, "is_reserved": 0, "lat": 38.96176883333333, "name": "f69c753cfa3a48f97d607d15797c082c", "bike_id": "f69c753cfa3a48f97d607d15797c082c", "is_disabled": 0, "fusion_lon": 0.0, "type": "electric_scooter", "lon": -77.02799766666666}, {"rental_uris": {"android": "https://dc.lft.to/lastmile_qr_scan", "ios": "https://dc.lft.to/lastmile_qr_scan"}, "fusion_lat": 0.0, "is_reserved": 0, "lat": 38.904815, "name": "66a633b6816c81142457682aaa53cb20", "bike_id": "66a633b6816c81142457682aaa53cb20", "is_disabled": 0, "fusion_lon": 0.0, "type": "electric_scooter", "lon": -77.00725633333333}, {"rental_uris": {"android": "https://dc.lft.to/lastmile_qr_scan", "ios": "https://dc.lft.to/lastmile_qr_scan"}, "fusion_lat": 0.0, "is_reserved": 0, "lat": 38.897624666666665, "name": "728a571ef193a9b1a5eb84e4b3d6119e", "bike_id": "728a571ef193a9b1a5eb84e4b3d6119e", "is_disabled": 0, "fusion_lon": 0.0, "type": "electric_scooter", "lon": -76.98557833333334}, {"rental_uris": {"android": "https://dc.lft.to/lastmile_qr_scan", "ios": "https://dc.lft.to/lastmile_qr_scan"}, "fusion_lat": 0.0, "is_reserved": 0, "lat": 38.90634633333333, "name": "e308178509bddbedf381ec7c46b7127d", "bike_id": "e308178509bddbedf381ec7c46b7127d", "is_disabled": 0, "fusion_lon": 0.0, "type": "electric_scooter", "lon": -77.04874133333334}, {"rental_uris": {"android": "https://dc.lft.to/lastmile_qr_scan", "ios": "https://dc.lft.to/lastmile_qr_scan"}, "fusion_lat": 0.0, "is_reserved": 0, "lat": 38.899141666666665, "name": "ff036e8499dc51a9cc4a7be4fe4248e0", "bike_id": "ff036e8499dc51a9cc4a7be4fe4248e0", "is_disabled": 0, "fusion_lon": 0.0, "type": "electric_scooter", "lon": -76.97840016666666}, {"rental_uris": {"android": "https://dc.lft.to/lastmile_qr_scan", "ios": "https://dc.lft.to/lastmile_qr_scan"}, "fusion_lat": 0.0, "is_reserved": 0, "lat": 38.917029, "name": "84be11ed8b28bfb2456ab533488a5bd0", "bike_id": "84be11ed8b28bfb2456ab533488a5bd0", "is_disabled": 0, "fusion_lon": 0.0, "type": "electric_scooter", "lon": -77.01075383333334}, {"rental_uris": {"android": "https://dc.lft.to/lastmile_qr_scan", "ios": "https://dc.lft.to/lastmile_qr_scan"}, "fusion_lat": 0.0, "is_reserved": 0, "lat": 38.95884933333333, "name": "b557fa3edcab15ce03f1e8a89e56f0c6", "bike_id": "b557fa3edcab15ce03f1e8a89e56f0c6", "is_disabled": 0, "fusion_lon": 0.0, "type": "electric_bike", "lon": -76.97046133333333}, {"rental_uris": {"android": "https://dc.lft.to/lastmile_qr_scan", "ios": "https://dc.lft.to/lastmile_qr_scan"}, "fusion_lat": 0.0, "is_reserved": 0, "lat": 38.93058216666667, "name": "c4646ae5bf5077427bc7429fb9934a1f", "bike_id": "c4646ae5bf5077427bc7429fb9934a1f", "is_disabled": 0, "fusion_lon": 0.0, "type": "electric_scooter", "lon": -77.03946583333334}, {"rental_uris": {"android": "https://dc.lft.to/lastmile_qr_scan", "ios": "https://dc.lft.to/lastmile_qr_scan"}, "fusion_lat": 0.0, "is_reserved": 0, "lat": 38.921072833333334, "name": "7596ed82c97248ed1e97fb2ef6aa14c4", "bike_id": "7596ed82c97248ed1e97fb2ef6aa14c4", "is_disabled": 0, "fusion_lon": 0.0, "type": "electric_scooter", "lon": -77.02521733333333}, {"rental_uris": {"android": "https://dc.lft.to/lastmile_qr_scan", "ios": "https://dc.lft.to/lastmile_qr_scan"}, "fusion_lat": 0.0, "is_reserved": 0, "lat": 38.905203, "name": "e344e1b7bfdd2c8d1d2a2038fc4cab7e", "bike_id": "e344e1b7bfdd2c8d1d2a2038fc4cab7e", "is_disabled": 0, "fusion_lon": 0.0, "type": "electric_scooter", "lon": -77.04329933333334}, {"rental_uris": {"android": "https://dc.lft.to/lastmile_qr_scan", "ios": "https://dc.lft.to/lastmile_qr_scan"}, "fusion_lat": 0.0, "is_reserved": 0, "lat": 38.890472333333335, "name": "a879fa305e7021c1fd07fa4ad00e8d62", "bike_id": "a879fa305e7021c1fd07fa4ad00e8d62", "is_disabled": 0, "fusion_lon": 0.0, "type": "electric_scooter", "lon": -76.93757833333333}, {"rental_uris": {"android": "https://dc.lft.to/lastmile_qr_scan", "ios": "https://dc.lft.to/lastmile_qr_scan"}, "fusion_lat": 0.0, "is_reserved": 0, "lat": 38.90117933333333, "name": "6d47c38fe782a5a981039d3145af1b89", "bike_id": "6d47c38fe782a5a981039d3145af1b89", "is_disabled": 0, "fusion_lon": 0.0, "type": "electric_scooter", "lon": -77.03695233333333}, {"rental_uris": {"android": "https://dc.lft.to/lastmile_qr_scan", "ios": "https://dc.lft.to/lastmile_qr_scan"}, "fusion_lat": 0.0, "is_reserved": 0, "lat": 38.9396325, "name": "1209b117fc541501d8f2f549cfda24fa", "bike_id": "1209b117fc541501d8f2f549cfda24fa", "is_disabled": 0, "fusion_lon": 0.0, "type": "electric_scooter", "lon": -77.03284416666666}, {"rental_uris": {"android": "https://dc.lft.to/lastmile_qr_scan", "ios": "https://dc.lft.to/lastmile_qr_scan"}, "fusion_lat": 0.0, "is_reserved": 0, "lat": 38.87932933333333, "name": "498c51a3487c86e901b3d3824837e64b", "bike_id": "498c51a3487c86e901b3d3824837e64b", "is_disabled": 0, "fusion_lon": 0.0, "type": "electric_scooter", "lon": -77.01027016666667}, {"rental_uris": {"android": "https://dc.lft.to/lastmile_qr_scan", "ios": "https://dc.lft.to/lastmile_qr_scan"}, "fusion_lat": 0.0, "is_reserved": 0, "lat": 38.918051166666665, "name": "c6a849acf21a0bdf03b09a57a6167f13", "bike_id": "c6a849acf21a0bdf03b09a57a6167f13", "is_disabled": 0, "fusion_lon": 0.0, "type": "electric_scooter", "lon": -77.02889433333333}, {"rental_uris": {"android": "https://dc.lft.to/lastmile_qr_scan", "ios": "https://dc.lft.to/lastmile_qr_scan"}, "fusion_lat": 0.0, "is_reserved": 0, "lat": 38.900020833333336, "name": "829b217fd878e4d0863792e69b0baf47", "bike_id": "829b217fd878e4d0863792e69b0baf47", "is_disabled": 0, "fusion_lon": 0.0, "type": "electric_scooter", "lon": -77.0409985}, {"rental_uris": {"android": "https://dc.lft.to/lastmile_qr_scan", "ios": "https://dc.lft.to/lastmile_qr_scan"}, "fusion_lat": 0.0, "is_reserved": 0, "lat": 38.90461533333333, "name": "be52f711d04d5cfbb9c3c793e01e75ef", "bike_id": "be52f711d04d5cfbb9c3c793e01e75ef", "is_disabled": 0, "fusion_lon": 0.0, "type": "electric_scooter", "lon": -77.06595516666667}, {"rental_uris": {"android": "https://dc.lft.to/lastmile_qr_scan", "ios": "https://dc.lft.to/lastmile_qr_scan"}, "fusion_lat": 0.0, "is_reserved": 0, "lat": 38.92245916666667, "name": "00e3139d52d48214f8ee218be3bc9d2f", "bike_id": "00e3139d52d48214f8ee218be3bc9d2f", "is_disabled": 0, "fusion_lon": 0.0, "type": "electric_scooter", "lon": -77.03072483333334}, {"rental_uris": {"android": "https://dc.lft.to/lastmile_qr_scan", "ios": "https://dc.lft.to/lastmile_qr_scan"}, "fusion_lat": 0.0, "is_reserved": 0, "lat": 38.902752166666666, "name": "c72ecfb437a71840348f87290959292f", "bike_id": "c72ecfb437a71840348f87290959292f", "is_disabled": 0, "fusion_lon": 0.0, "type": "electric_scooter", "lon": -77.03945033333333}, {"rental_uris": {"android": "https://dc.lft.to/lastmile_qr_scan", "ios": "https://dc.lft.to/lastmile_qr_scan"}, "fusion_lat": 0.0, "is_reserved": 0, "lat": 38.92602883333333, "name": "45a4789ca22fcbb0cea343594e10788a", "bike_id": "45a4789ca22fcbb0cea343594e10788a", "is_disabled": 0, "fusion_lon": 0.0, "type": "electric_scooter", "lon": -77.02159333333333}, {"rental_uris": {"android": "https://dc.lft.to/lastmile_qr_scan", "ios": "https://dc.lft.to/lastmile_qr_scan"}, "fusion_lat": 0.0, "is_reserved": 0, "lat": 38.946525333333334, "name": "8aa02affae8ed05fdd3ab84a3c7c62bb", "bike_id": "8aa02affae8ed05fdd3ab84a3c7c62bb", "is_disabled": 0, "fusion_lon": 0.0, "type": "electric_scooter", "lon": -77.06481683333334}, {"rental_uris": {"android": "https://dc.lft.to/lastmile_qr_scan", "ios": "https://dc.lft.to/lastmile_qr_scan"}, "fusion_lat": 0.0, "is_reserved": 0, "lat": 38.927773, "name": "b948f869387ea1254d3cb9efc41dc107", "bike_id": "b948f869387ea1254d3cb9efc41dc107", "is_disabled": 0, "fusion_lon": 0.0, "type": "electric_scooter", "lon": -77.027098}, {"rental_uris": {"android": "https://dc.lft.to/lastmile_qr_scan", "ios": "https://dc.lft.to/lastmile_qr_scan"}, "fusion_lat": 0.0, "is_reserved": 0, "lat": 38.877742833333336, "name": "ca05e03c48073e5858c556e43d68b416", "bike_id": "ca05e03c48073e5858c556e43d68b416", "is_disabled": 0, "fusion_lon": 0.0, "type": "electric_scooter", "lon": -76.983674}, {"rental_uris": {"android": "https://dc.lft.to/lastmile_qr_scan", "ios": "https://dc.lft.to/lastmile_qr_scan"}, "fusion_lat": 0.0, "is_reserved": 0, "lat": 38.897846333333334, "name": "d199459b1d26552ad47840ad46f23097", "bike_id": "d199459b1d26552ad47840ad46f23097", "is_disabled": 0, "fusion_lon": 0.0, "type": "electric_scooter", "lon": -77.016836}, {"rental_uris": {"android": "https://dc.lft.to/lastmile_qr_scan", "ios": "https://dc.lft.to/lastmile_qr_scan"}, "fusion_lat": 0.0, "is_reserved": 0, "lat": 38.950199166666664, "name": "e42686be73ebdead32887c5d84a18c7a", "bike_id": "e42686be73ebdead32887c5d84a18c7a", "is_disabled": 0, "fusion_lon": 0.0, "type": "electric_bike", "lon": -76.9710315}, {"rental_uris": {"android": "https://dc.lft.to/lastmile_qr_scan", "ios": "https://dc.lft.to/lastmile_qr_scan"}, "fusion_lat": 0.0, "is_reserved": 0, "lat": 38.933599, "name": "6c346a6d3c9c7639f3ed8b73092f0b64", "bike_id": "6c346a6d3c9c7639f3ed8b73092f0b64", "is_disabled": 0, "fusion_lon": 0.0, "type": "electric_scooter", "lon": -77.02421983333333}, {"rental_uris": {"android": "https://dc.lft.to/lastmile_qr_scan", "ios": "https://dc.lft.to/lastmile_qr_scan"}, "fusion_lat": 0.0, "is_reserved": 0, "lat": 38.919033, "name": "faba11875df5d795d76d9e1c26eae9e0", "bike_id": "faba11875df5d795d76d9e1c26eae9e0", "is_disabled": 0, "fusion_lon": 0.0, "type": "electric_scooter", "lon": -77.02057416666666}, {"rental_uris": {"android": "https://dc.lft.to/lastmile_qr_scan", "ios": "https://dc.lft.to/lastmile_qr_scan"}, "fusion_lat": 0.0, "is_reserved": 0, "lat": 38.9126845, "name": "c8ddfe5232ef60519e3c2db08d4f3ac4", "bike_id": "c8ddfe5232ef60519e3c2db08d4f3ac4", "is_disabled": 0, "fusion_lon": 0.0, "type": "electric_scooter", "lon": -77.00797833333333}, {"rental_uris": {"android": "https://dc.lft.to/lastmile_qr_scan", "ios": "https://dc.lft.to/lastmile_qr_scan"}, "fusion_lat": 0.0, "is_reserved": 0, "lat": 38.857836, "name": "50e0cd6d9b28a7a071c0c394d36e80ea", "bike_id": "50e0cd6d9b28a7a071c0c394d36e80ea", "is_disabled": 0, "fusion_lon": 0.0, "type": "electric_bike", "lon": -76.98761983333333}, {"rental_uris": {"android": "https://dc.lft.to/lastmile_qr_scan", "ios": "https://dc.lft.to/lastmile_qr_scan"}, "fusion_lat": 0.0, "is_reserved": 0, "lat": 38.9260075, "name": "e8b24f991e5235325a5de241166795c7", "bike_id": "e8b24f991e5235325a5de241166795c7", "is_disabled": 0, "fusion_lon": 0.0, "type": "electric_scooter", "lon": -77.02155383333333}, {"rental_uris": {"android": "https://dc.lft.to/lastmile_qr_scan", "ios": "https://dc.lft.to/lastmile_qr_scan"}, "fusion_lat": 0.0, "is_reserved": 0, "lat": 38.8302775, "name": "a1dd177a32f79c29c4b6f83243b6f110", "bike_id": "a1dd177a32f79c29c4b6f83243b6f110", "is_disabled": 0, "fusion_lon": 0.0, "type": "electric_bike", "lon": -77.083783}, {"rental_uris": {"android": "https://dc.lft.to/lastmile_qr_scan", "ios": "https://dc.lft.to/lastmile_qr_scan"}, "fusion_lat": 0.0, "is_reserved": 0, "lat": 38.9205735, "name": "9838535a7b6c5e48f0cb074b865ad379", "bike_id": "9838535a7b6c5e48f0cb074b865ad379", "is_disabled": 0, "fusion_lon": 0.0, "type": "electric_scooter", "lon": -77.024358}, {"rental_uris": {"android": "https://dc.lft.to/lastmile_qr_scan", "ios": "https://dc.lft.to/lastmile_qr_scan"}, "fusion_lat": 0.0, "is_reserved": 0, "lat": 38.916351666666664, "name": "9e516bde2663b7fcb82bf67c7c8a74e7", "bike_id": "9e516bde2663b7fcb82bf67c7c8a74e7", "is_disabled": 0, "fusion_lon": 0.0, "type": "electric_scooter", "lon": -77.01060783333334}, {"rental_uris": {"android": "https://dc.lft.to/lastmile_qr_scan", "ios": "https://dc.lft.to/lastmile_qr_scan"}, "fusion_lat": 0.0, "is_reserved": 0, "lat": 38.904983333333334, "name": "c959ceedd3d5cb8326cc0f2b9d06adc9", "bike_id": "c959ceedd3d5cb8326cc0f2b9d06adc9", "is_disabled": 0, "fusion_lon": 0.0, "type": "electric_scooter", "lon": -76.9802885}, {"rental_uris": {"android": "https://dc.lft.to/lastmile_qr_scan", "ios": "https://dc.lft.to/lastmile_qr_scan"}, "fusion_lat": 0.0, "is_reserved": 0, "lat": 38.924678666666665, "name": "16d228db0d3b4a26f2d0d3d68b743cbf", "bike_id": "16d228db0d3b4a26f2d0d3d68b743cbf", "is_disabled": 0, "fusion_lon": 0.0, "type": "electric_scooter", "lon": -77.02111866666667}, {"rental_uris": {"android": "https://dc.lft.to/lastmile_qr_scan", "ios": "https://dc.lft.to/lastmile_qr_scan"}, "fusion_lat": 0.0, "is_reserved": 0, "lat": 38.92244866666667, "name": "d2a9f678afbd0f1450f4086016d77016", "bike_id": "d2a9f678afbd0f1450f4086016d77016", "is_disabled": 0, "fusion_lon": 0.0, "type": "electric_scooter", "lon": -77.0308425}, {"rental_uris": {"android": "https://dc.lft.to/lastmile_qr_scan", "ios": "https://dc.lft.to/lastmile_qr_scan"}, "fusion_lat": 0.0, "is_reserved": 0, "lat": 38.8945685, "name": "8a27a6036b477ae40949c2a5fe9d25f2", "bike_id": "8a27a6036b477ae40949c2a5fe9d25f2", "is_disabled": 0, "fusion_lon": 0.0, "type": "electric_bike", "lon": -77.19132266666666}, {"rental_uris": {"android": "https://dc.lft.to/lastmile_qr_scan", "ios": "https://dc.lft.to/lastmile_qr_scan"}, "fusion_lat": 0.0, "is_reserved": 0, "lat": 38.90034166666667, "name": "35010b131fbd1dd266acdf7ba1a9a9c0", "bike_id": "35010b131fbd1dd266acdf7ba1a9a9c0", "is_disabled": 0, "fusion_lon": 0.0, "type": "electric_scooter", "lon": -76.9965035}, {"rental_uris": {"android": "https://dc.lft.to/lastmile_qr_scan", "ios": "https://dc.lft.to/lastmile_qr_scan"}, "fusion_lat": 0.0, "is_reserved": 0, "lat": 38.9497615, "name": "c9054fd05121010c54defa84fff2e00e", "bike_id": "c9054fd05121010c54defa84fff2e00e", "is_disabled": 0, "fusion_lon": 0.0, "type": "electric_scooter", "lon": -77.0245825}, {"rental_uris": {"android": "https://dc.lft.to/lastmile_qr_scan", "ios": "https://dc.lft.to/lastmile_qr_scan"}, "fusion_lat": 0.0, "is_reserved": 0, "lat": 38.936711833333334, "name": "515109663a545e06b248af1c812c3e68", "bike_id": "515109663a545e06b248af1c812c3e68", "is_disabled": 0, "fusion_lon": 0.0, "type": "electric_bike", "lon": -76.98991966666667}, {"rental_uris": {"android": "https://dc.lft.to/lastmile_qr_scan", "ios": "https://dc.lft.to/lastmile_qr_scan"}, "fusion_lat": 0.0, "is_reserved": 0, "lat": 38.897286333333334, "name": "0cdcc41a527aa2a4ad0dae81c1064436", "bike_id": "0cdcc41a527aa2a4ad0dae81c1064436", "is_disabled": 0, "fusion_lon": 0.0, "type": "electric_scooter", "lon": -76.94701583333334}, {"rental_uris": {"android": "https://dc.lft.to/lastmile_qr_scan", "ios": "https://dc.lft.to/lastmile_qr_scan"}, "fusion_lat": 0.0, "is_reserved": 0, "lat": 38.896738666666664, "name": "66f1b7092b698fafd051c8ff4a921314", "bike_id": "66f1b7092b698fafd051c8ff4a921314", "is_disabled": 0, "fusion_lon": 0.0, "type": "electric_scooter", "lon": -76.94730883333334}, {"rental_uris": {"android": "https://dc.lft.to/lastmile_qr_scan", "ios": "https://dc.lft.to/lastmile_qr_scan"}, "fusion_lat": 0.0, "is_reserved": 0, "lat": 38.88386066666666, "name": "65f624588163fa23ff0657753ae74769", "bike_id": "65f624588163fa23ff0657753ae74769", "is_disabled": 0, "fusion_lon": 0.0, "type": "electric_scooter", "lon": -76.93045933333333}, {"rental_uris": {"android": "https://dc.lft.to/lastmile_qr_scan", "ios": "https://dc.lft.to/lastmile_qr_scan"}, "fusion_lat": 0.0, "is_reserved": 0, "lat": 38.898113, "name": "7abbbc880287a0b4e60c47d9fb83d151", "bike_id": "7abbbc880287a0b4e60c47d9fb83d151", "is_disabled": 0, "fusion_lon": 0.0, "type": "electric_scooter", "lon": -77.0512675}, {"rental_uris": {"android": "https://dc.lft.to/lastmile_qr_scan", "ios": "https://dc.lft.to/lastmile_qr_scan"}, "fusion_lat": 0.0, "is_reserved": 0, "lat": 38.9057095, "name": "cb55c4ad6b12ae1261405e9316dcd5cd", "bike_id": "cb55c4ad6b12ae1261405e9316dcd5cd", "is_disabled": 0, "fusion_lon": 0.0, "type": "electric_scooter", "lon": -77.006021}, {"rental_uris": {"android": "https://dc.lft.to/lastmile_qr_scan", "ios": "https://dc.lft.to/lastmile_qr_scan"}, "fusion_lat": 0.0, "is_reserved": 0, "lat": 38.92543283333333, "name": "36cf0c5faab44627f6d56c45596e9635", "bike_id": "36cf0c5faab44627f6d56c45596e9635", "is_disabled": 0, "fusion_lon": 0.0, "type": "electric_scooter", "lon": -77.03410133333334}, {"rental_uris": {"android": "https://dc.lft.to/lastmile_qr_scan", "ios": "https://dc.lft.to/lastmile_qr_scan"}, "fusion_lat": 0.0, "is_reserved": 0, "lat": 38.908208333333334, "name": "5be220447fb7ff8185096f52ae67583a", "bike_id": "5be220447fb7ff8185096f52ae67583a", "is_disabled": 0, "fusion_lon": 0.0, "type": "electric_scooter", "lon": -77.03352183333334}, {"rental_uris": {"android": "https://dc.lft.to/lastmile_qr_scan", "ios": "https://dc.lft.to/lastmile_qr_scan"}, "fusion_lat": 0.0, "is_reserved": 0, "lat": 38.88301666666667, "name": "a914dbbaeb371e775ffb6ed6425012f2", "bike_id": "a914dbbaeb371e775ffb6ed6425012f2", "is_disabled": 0, "fusion_lon": 0.0, "type": "electric_scooter", "lon": -76.94858933333333}, {"rental_uris": {"android": "https://dc.lft.to/lastmile_qr_scan", "ios": "https://dc.lft.to/lastmile_qr_scan"}, "fusion_lat": 0.0, "is_reserved": 0, "lat": 38.900331333333334, "name": "fe69497d66de3157171378e7fc86ad70", "bike_id": "fe69497d66de3157171378e7fc86ad70", "is_disabled": 0, "fusion_lon": 0.0, "type": "electric_scooter", "lon": -77.02933166666666}, {"rental_uris": {"android": "https://dc.lft.to/lastmile_qr_scan", "ios": "https://dc.lft.to/lastmile_qr_scan"}, "fusion_lat": 0.0, "is_reserved": 0, "lat": 38.92653716666667, "name": "c7a309ddf1c1e843c27239dd7127d1d2", "bike_id": "c7a309ddf1c1e843c27239dd7127d1d2", "is_disabled": 0, "fusion_lon": 0.0, "type": "electric_scooter", "lon": -76.99745066666667}, {"rental_uris": {"android": "https://dc.lft.to/lastmile_qr_scan", "ios": "https://dc.lft.to/lastmile_qr_scan"}, "fusion_lat": 0.0, "is_reserved": 0, "lat": 38.89803666666667, "name": "c6fa450c404ac385619cbb14281c573b", "bike_id": "c6fa450c404ac385619cbb14281c573b", "is_disabled": 0, "fusion_lon": 0.0, "type": "electric_scooter", "lon": -77.03241983333334}, {"rental_uris": {"android": "https://dc.lft.to/lastmile_qr_scan", "ios": "https://dc.lft.to/lastmile_qr_scan"}, "fusion_lat": 0.0, "is_reserved": 0, "lat": 38.90385216666667, "name": "83055b55e663116f768e52eb1f9edb44", "bike_id": "83055b55e663116f768e52eb1f9edb44", "is_disabled": 0, "fusion_lon": 0.0, "type": "electric_scooter", "lon": -77.068572}, {"rental_uris": {"android": "https://dc.lft.to/lastmile_qr_scan", "ios": "https://dc.lft.to/lastmile_qr_scan"}, "fusion_lat": 0.0, "is_reserved": 0, "lat": 38.900379, "name": "2b00890cef5a16a4eb3231c43bc7bd0f", "bike_id": "2b00890cef5a16a4eb3231c43bc7bd0f", "is_disabled": 0, "fusion_lon": 0.0, "type": "electric_scooter", "lon": -76.9882685}, {"rental_uris": {"android": "https://dc.lft.to/lastmile_qr_scan", "ios": "https://dc.lft.to/lastmile_qr_scan"}, "fusion_lat": 0.0, "is_reserved": 0, "lat": 38.919673333333336, "name": "d788adb226c4becd7b2a6c85db25c8e5", "bike_id": "d788adb226c4becd7b2a6c85db25c8e5", "is_disabled": 0, "fusion_lon": 0.0, "type": "electric_scooter", "lon": -77.07102333333333}, {"rental_uris": {"android": "https://dc.lft.to/lastmile_qr_scan", "ios": "https://dc.lft.to/lastmile_qr_scan"}, "fusion_lat": 0.0, "is_reserved": 0, "lat": 38.918118166666666, "name": "9808658e5141ab54fdd113b6e83d0934", "bike_id": "9808658e5141ab54fdd113b6e83d0934", "is_disabled": 0, "fusion_lon": 0.0, "type": "electric_scooter", "lon": -77.0288705}, {"rental_uris": {"android": "https://dc.lft.to/lastmile_qr_scan", "ios": "https://dc.lft.to/lastmile_qr_scan"}, "fusion_lat": 0.0, "is_reserved": 0, "lat": 38.895578666666665, "name": "e71850cdbc579f050f5d1c01aa988dfa", "bike_id": "e71850cdbc579f050f5d1c01aa988dfa", "is_disabled": 0, "fusion_lon": 0.0, "type": "electric_scooter", "lon": -77.01119966666667}, {"rental_uris": {"android": "https://dc.lft.to/lastmile_qr_scan", "ios": "https://dc.lft.to/lastmile_qr_scan"}, "fusion_lat": 0.0, "is_reserved": 0, "lat": 38.9088315, "name": "943a2aa41cda4e880d90d1be91479322", "bike_id": "943a2aa41cda4e880d90d1be91479322", "is_disabled": 0, "fusion_lon": 0.0, "type": "electric_scooter", "lon": -77.04392}, {"rental_uris": {"android": "https://dc.lft.to/lastmile_qr_scan", "ios": "https://dc.lft.to/lastmile_qr_scan"}, "fusion_lat": 0.0, "is_reserved": 0, "lat": 38.917015666666664, "name": "6a8e3890c2e73f868cfb479744506d08", "bike_id": "6a8e3890c2e73f868cfb479744506d08", "is_disabled": 0, "fusion_lon": 0.0, "type": "electric_scooter", "lon": -77.01077116666667}, {"rental_uris": {"android": "https://dc.lft.to/lastmile_qr_scan", "ios": "https://dc.lft.to/lastmile_qr_scan"}, "fusion_lat": 0.0, "is_reserved": 0, "lat": 38.89497, "name": "851b39012cae96d112835684fc4ac5fe", "bike_id": "851b39012cae96d112835684fc4ac5fe", "is_disabled": 0, "fusion_lon": 0.0, "type": "electric_scooter", "lon": -77.046337}, {"rental_uris": {"android": "https://dc.lft.to/lastmile_qr_scan", "ios": "https://dc.lft.to/lastmile_qr_scan"}, "fusion_lat": 0.0, "is_reserved": 0, "lat": 38.9232745, "name": "ba9dc6cea200bb0f157949916773e0a7", "bike_id": "ba9dc6cea200bb0f157949916773e0a7", "is_disabled": 0, "fusion_lon": 0.0, "type": "electric_scooter", "lon": -77.05676133333333}, {"rental_uris": {"android": "https://dc.lft.to/lastmile_qr_scan", "ios": "https://dc.lft.to/lastmile_qr_scan"}, "fusion_lat": 0.0, "is_reserved": 0, "lat": 38.90637616666667, "name": "d8e5e4ce11c3891ca4c2607e45cb1931", "bike_id": "d8e5e4ce11c3891ca4c2607e45cb1931", "is_disabled": 0, "fusion_lon": 0.0, "type": "electric_scooter", "lon": -77.00744666666667}, {"rental_uris": {"android": "https://dc.lft.to/lastmile_qr_scan", "ios": "https://dc.lft.to/lastmile_qr_scan"}, "fusion_lat": 0.0, "is_reserved": 0, "lat": 38.91621116666666, "name": "0777ad1bf9828e8ea91191d424d4f3ff", "bike_id": "0777ad1bf9828e8ea91191d424d4f3ff", "is_disabled": 0, "fusion_lon": 0.0, "type": "electric_scooter", "lon": -77.04814916666666}, {"rental_uris": {"android": "https://dc.lft.to/lastmile_qr_scan", "ios": "https://dc.lft.to/lastmile_qr_scan"}, "fusion_lat": 0.0, "is_reserved": 0, "lat": 38.90393316666667, "name": "ea0669594e9fdf7e0cb88f8cca547ce3", "bike_id": "ea0669594e9fdf7e0cb88f8cca547ce3", "is_disabled": 0, "fusion_lon": 0.0, "type": "electric_scooter", "lon": -77.01768483333333}, {"rental_uris": {"android": "https://dc.lft.to/lastmile_qr_scan", "ios": "https://dc.lft.to/lastmile_qr_scan"}, "fusion_lat": 0.0, "is_reserved": 0, "lat": 38.92127833333333, "name": "9bb2718bd70bcc2f15a4982b72f2d4d4", "bike_id": "9bb2718bd70bcc2f15a4982b72f2d4d4", "is_disabled": 0, "fusion_lon": 0.0, "type": "electric_scooter", "lon": -77.03683066666666}, {"rental_uris": {"android": "https://dc.lft.to/lastmile_qr_scan", "ios": "https://dc.lft.to/lastmile_qr_scan"}, "fusion_lat": 0.0, "is_reserved": 0, "lat": 38.87179666666667, "name": "cfd93a31140a1bd2ef464ae93864990c", "bike_id": "cfd93a31140a1bd2ef464ae93864990c", "is_disabled": 0, "fusion_lon": 0.0, "type": "electric_scooter", "lon": -77.0061255}, {"rental_uris": {"android": "https://dc.lft.to/lastmile_qr_scan", "ios": "https://dc.lft.to/lastmile_qr_scan"}, "fusion_lat": 0.0, "is_reserved": 0, "lat": 38.918017666666664, "name": "333d513a756af6caa42a922a38ec7042", "bike_id": "333d513a756af6caa42a922a38ec7042", "is_disabled": 0, "fusion_lon": 0.0, "type": "electric_scooter", "lon": -77.033105}, {"rental_uris": {"android": "https://dc.lft.to/lastmile_qr_scan", "ios": "https://dc.lft.to/lastmile_qr_scan"}, "fusion_lat": 0.0, "is_reserved": 0, "lat": 38.92072983333333, "name": "3c8e19d39e225a35286887b193d7085d", "bike_id": "3c8e19d39e225a35286887b193d7085d", "is_disabled": 0, "fusion_lon": 0.0, "type": "electric_scooter", "lon": -77.02316483333334}, {"rental_uris": {"android": "https://dc.lft.to/lastmile_qr_scan", "ios": "https://dc.lft.to/lastmile_qr_scan"}, "fusion_lat": 0.0, "is_reserved": 0, "lat": 38.913232666666666, "name": "7f5a0b2e427bd89221c57aaf4acbf88d", "bike_id": "7f5a0b2e427bd89221c57aaf4acbf88d", "is_disabled": 0, "fusion_lon": 0.0, "type": "electric_scooter", "lon": -77.01154083333333}, {"rental_uris": {"android": "https://dc.lft.to/lastmile_qr_scan", "ios": "https://dc.lft.to/lastmile_qr_scan"}, "fusion_lat": 0.0, "is_reserved": 0, "lat": 38.910331166666666, "name": "0f3de84455e033c87092c817351ad573", "bike_id": "0f3de84455e033c87092c817351ad573", "is_disabled": 0, "fusion_lon": 0.0, "type": "electric_scooter", "lon": -77.02926516666666}, {"rental_uris": {"android": "https://dc.lft.to/lastmile_qr_scan", "ios": "https://dc.lft.to/lastmile_qr_scan"}, "fusion_lat": 0.0, "is_reserved": 0, "lat": 38.9420475, "name": "1cb0a99e9165fe5acf240cff88dde2c6", "bike_id": "1cb0a99e9165fe5acf240cff88dde2c6", "is_disabled": 0, "fusion_lon": 0.0, "type": "electric_scooter", "lon": -77.02376516666666}, {"rental_uris": {"android": "https://dc.lft.to/lastmile_qr_scan", "ios": "https://dc.lft.to/lastmile_qr_scan"}, "fusion_lat": 0.0, "is_reserved": 0, "lat": 38.9047705, "name": "7cdf8924b178040642111678034b2d7a", "bike_id": "7cdf8924b178040642111678034b2d7a", "is_disabled": 0, "fusion_lon": 0.0, "type": "electric_scooter", "lon": -77.0358335}, {"rental_uris": {"android": "https://dc.lft.to/lastmile_qr_scan", "ios": "https://dc.lft.to/lastmile_qr_scan"}, "fusion_lat": 0.0, "is_reserved": 0, "lat": 38.89727116666667, "name": "268c1f5e575bc736c6d2417473e07c78", "bike_id": "268c1f5e575bc736c6d2417473e07c78", "is_disabled": 0, "fusion_lon": 0.0, "type": "electric_scooter", "lon": -77.05528916666667}, {"rental_uris": {"android": "https://dc.lft.to/lastmile_qr_scan", "ios": "https://dc.lft.to/lastmile_qr_scan"}, "fusion_lat": 0.0, "is_reserved": 0, "lat": 38.90233683333334, "name": "ad94a511a11c28ce6cfcf0ee82414920", "bike_id": "ad94a511a11c28ce6cfcf0ee82414920", "is_disabled": 0, "fusion_lon": 0.0, "type": "electric_scooter", "lon": -77.01829383333333}, {"rental_uris": {"android": "https://dc.lft.to/lastmile_qr_scan", "ios": "https://dc.lft.to/lastmile_qr_scan"}, "fusion_lat": 0.0, "is_reserved": 0, "lat": 38.932637166666666, "name": "396172eba1fed47b95bb4a23c10a680e", "bike_id": "396172eba1fed47b95bb4a23c10a680e", "is_disabled": 0, "fusion_lon": 0.0, "type": "electric_scooter", "lon": -77.02093916666666}, {"rental_uris": {"android": "https://dc.lft.to/lastmile_qr_scan", "ios": "https://dc.lft.to/lastmile_qr_scan"}, "fusion_lat": 0.0, "is_reserved": 0, "lat": 38.905677833333336, "name": "c9dbdbef40eff51dc94d341940f0fd79", "bike_id": "c9dbdbef40eff51dc94d341940f0fd79", "is_disabled": 0, "fusion_lon": 0.0, "type": "electric_scooter", "lon": -77.04671716666667}, {"rental_uris": {"android": "https://dc.lft.to/lastmile_qr_scan", "ios": "https://dc.lft.to/lastmile_qr_scan"}, "fusion_lat": 0.0, "is_reserved": 0, "lat": 38.9135145, "name": "aa9b68285d6e8ea85057b00b9387eaf2", "bike_id": "aa9b68285d6e8ea85057b00b9387eaf2", "is_disabled": 0, "fusion_lon": 0.0, "type": "electric_scooter", "lon": -77.03360583333334}, {"rental_uris": {"android": "https://dc.lft.to/lastmile_qr_scan", "ios": "https://dc.lft.to/lastmile_qr_scan"}, "fusion_lat": 0.0, "is_reserved": 0, "lat": 38.876595, "name": "af392f7d01053d230cacd23dcde8c067", "bike_id": "af392f7d01053d230cacd23dcde8c067", "is_disabled": 0, "fusion_lon": 0.0, "type": "electric_scooter", "lon": -76.9932195}, {"rental_uris": {"android": "https://dc.lft.to/lastmile_qr_scan", "ios": "https://dc.lft.to/lastmile_qr_scan"}, "fusion_lat": 0.0, "is_reserved": 0, "lat": 38.9575325, "name": "10f69adb22b9a021e78fc269160a1fc7", "bike_id": "10f69adb22b9a021e78fc269160a1fc7", "is_disabled": 0, "fusion_lon": 0.0, "type": "electric_scooter", "lon": -77.009156}, {"rental_uris": {"android": "https://dc.lft.to/lastmile_qr_scan", "ios": "https://dc.lft.to/lastmile_qr_scan"}, "fusion_lat": 0.0, "is_reserved": 0, "lat": 38.911681, "name": "ab8d82690d1b6f48e6d281586c463dd9", "bike_id": "ab8d82690d1b6f48e6d281586c463dd9", "is_disabled": 0, "fusion_lon": 0.0, "type": "electric_scooter", "lon": -77.066273}, {"rental_uris": {"android": "https://dc.lft.to/lastmile_qr_scan", "ios": "https://dc.lft.to/lastmile_qr_scan"}, "fusion_lat": 0.0, "is_reserved": 0, "lat": 38.982202666666666, "name": "c1d0738c1cd32b79371ba4613f96006c", "bike_id": "c1d0738c1cd32b79371ba4613f96006c", "is_disabled": 0, "fusion_lon": 0.0, "type": "electric_scooter", "lon": -77.02644366666667}, {"rental_uris": {"android": "https://dc.lft.to/lastmile_qr_scan", "ios": "https://dc.lft.to/lastmile_qr_scan"}, "fusion_lat": 0.0, "is_reserved": 0, "lat": 38.9249095, "name": "b4f0beb97c4dae017cb43e569740fa5f", "bike_id": "b4f0beb97c4dae017cb43e569740fa5f", "is_disabled": 0, "fusion_lon": 0.0, "type": "electric_scooter", "lon": -77.02164616666667}, {"rental_uris": {"android": "https://dc.lft.to/lastmile_qr_scan", "ios": "https://dc.lft.to/lastmile_qr_scan"}, "fusion_lat": 0.0, "is_reserved": 0, "lat": 38.902366666666666, "name": "21d952083b9fcbf353fce06b6d19b188", "bike_id": "21d952083b9fcbf353fce06b6d19b188", "is_disabled": 0, "fusion_lon": 0.0, "type": "electric_scooter", "lon": -77.00201233333334}, {"rental_uris": {"android": "https://dc.lft.to/lastmile_qr_scan", "ios": "https://dc.lft.to/lastmile_qr_scan"}, "fusion_lat": 0.0, "is_reserved": 0, "lat": 38.944101, "name": "1d0f9c81262d9960e8d6f4d3c909606d", "bike_id": "1d0f9c81262d9960e8d6f4d3c909606d", "is_disabled": 0, "fusion_lon": 0.0, "type": "electric_scooter", "lon": -77.0632055}, {"rental_uris": {"android": "https://dc.lft.to/lastmile_qr_scan", "ios": "https://dc.lft.to/lastmile_qr_scan"}, "fusion_lat": 0.0, "is_reserved": 0, "lat": 38.885135, "name": "8f045231187c04db411f2e766dfa6bf8", "bike_id": "8f045231187c04db411f2e766dfa6bf8", "is_disabled": 0, "fusion_lon": 0.0, "type": "electric_scooter", "lon": -76.99680433333333}, {"rental_uris": {"android": "https://dc.lft.to/lastmile_qr_scan", "ios": "https://dc.lft.to/lastmile_qr_scan"}, "fusion_lat": 0.0, "is_reserved": 0, "lat": 38.92392783333333, "name": "194ee54fae83278380ce27ee89351c16", "bike_id": "194ee54fae83278380ce27ee89351c16", "is_disabled": 0, "fusion_lon": 0.0, "type": "electric_scooter", "lon": -77.03659983333333}, {"rental_uris": {"android": "https://dc.lft.to/lastmile_qr_scan", "ios": "https://dc.lft.to/lastmile_qr_scan"}, "fusion_lat": 0.0, "is_reserved": 0, "lat": 38.89234966666667, "name": "88c84d73cab5121dfde5a833b999f94e", "bike_id": "88c84d73cab5121dfde5a833b999f94e", "is_disabled": 0, "fusion_lon": 0.0, "type": "electric_scooter", "lon": -77.02383916666666}, {"rental_uris": {"android": "https://dc.lft.to/lastmile_qr_scan", "ios": "https://dc.lft.to/lastmile_qr_scan"}, "fusion_lat": 0.0, "is_reserved": 0, "lat": 38.921687666666664, "name": "99427d06c92823b575bccd7fc0dd129a", "bike_id": "99427d06c92823b575bccd7fc0dd129a", "is_disabled": 0, "fusion_lon": 0.0, "type": "electric_scooter", "lon": -77.02671733333334}, {"rental_uris": {"android": "https://dc.lft.to/lastmile_qr_scan", "ios": "https://dc.lft.to/lastmile_qr_scan"}, "fusion_lat": 0.0, "is_reserved": 0, "lat": 38.9435745, "name": "127ff04f3a628fb59a26e5e8b980618b", "bike_id": "127ff04f3a628fb59a26e5e8b980618b", "is_disabled": 0, "fusion_lon": 0.0, "type": "electric_scooter", "lon": -77.06130883333333}, {"rental_uris": {"android": "https://dc.lft.to/lastmile_qr_scan", "ios": "https://dc.lft.to/lastmile_qr_scan"}, "fusion_lat": 0.0, "is_reserved": 0, "lat": 38.9221295, "name": "6fa1a3f394ee036a53241460ee333b74", "bike_id": "6fa1a3f394ee036a53241460ee333b74", "is_disabled": 0, "fusion_lon": 0.0, "type": "electric_scooter", "lon": -77.02663566666666}, {"rental_uris": {"android": "https://dc.lft.to/lastmile_qr_scan", "ios": "https://dc.lft.to/lastmile_qr_scan"}, "fusion_lat": 0.0, "is_reserved": 0, "lat": 38.915463833333334, "name": "0d99d8eed4b38bf9e116633f720c8795", "bike_id": "0d99d8eed4b38bf9e116633f720c8795", "is_disabled": 0, "fusion_lon": 0.0, "type": "electric_scooter", "lon": -77.02201566666666}, {"rental_uris": {"android": "https://dc.lft.to/lastmile_qr_scan", "ios": "https://dc.lft.to/lastmile_qr_scan"}, "fusion_lat": 0.0, "is_reserved": 0, "lat": 38.924268166666664, "name": "bb74b415426cdf200838a7bbe7d0a0cc", "bike_id": "bb74b415426cdf200838a7bbe7d0a0cc", "is_disabled": 0, "fusion_lon": 0.0, "type": "electric_scooter", "lon": -77.04245983333334}, {"rental_uris": {"android": "https://dc.lft.to/lastmile_qr_scan", "ios": "https://dc.lft.to/lastmile_qr_scan"}, "fusion_lat": 0.0, "is_reserved": 0, "lat": 38.90974466666667, "name": "aa99e8b8bdd14e60af9398d212c4b4ce", "bike_id": "aa99e8b8bdd14e60af9398d212c4b4ce", "is_disabled": 0, "fusion_lon": 0.0, "type": "electric_scooter", "lon": -77.0258435}, {"rental_uris": {"android": "https://dc.lft.to/lastmile_qr_scan", "ios": "https://dc.lft.to/lastmile_qr_scan"}, "fusion_lat": 0.0, "is_reserved": 0, "lat": 38.892215, "name": "b17ad33ad64cae5f1017f8470bd32e99", "bike_id": "b17ad33ad64cae5f1017f8470bd32e99", "is_disabled": 0, "fusion_lon": 0.0, "type": "electric_scooter", "lon": -77.022314}, {"rental_uris": {"android": "https://dc.lft.to/lastmile_qr_scan", "ios": "https://dc.lft.to/lastmile_qr_scan"}, "fusion_lat": 0.0, "is_reserved": 0, "lat": 38.922803, "name": "f5a5d6fc6597f3a94c5e622cc86cecda", "bike_id": "f5a5d6fc6597f3a94c5e622cc86cecda", "is_disabled": 0, "fusion_lon": 0.0, "type": "electric_scooter", "lon": -77.036573}, {"rental_uris": {"android": "https://dc.lft.to/lastmile_qr_scan", "ios": "https://dc.lft.to/lastmile_qr_scan"}, "fusion_lat": 0.0, "is_reserved": 0, "lat": 38.902306833333334, "name": "9bc711912d248d3fc268b251b43876d8", "bike_id": "9bc711912d248d3fc268b251b43876d8", "is_disabled": 0, "fusion_lon": 0.0, "type": "electric_scooter", "lon": -77.03959316666666}, {"rental_uris": {"android": "https://dc.lft.to/lastmile_qr_scan", "ios": "https://dc.lft.to/lastmile_qr_scan"}, "fusion_lat": 0.0, "is_reserved": 0, "lat": 38.91487583333333, "name": "5525ba773c94dccd5dbfa2af20800fed", "bike_id": "5525ba773c94dccd5dbfa2af20800fed", "is_disabled": 0, "fusion_lon": 0.0, "type": "electric_scooter", "lon": -77.0185585}, {"rental_uris": {"android": "https://dc.lft.to/lastmile_qr_scan", "ios": "https://dc.lft.to/lastmile_qr_scan"}, "fusion_lat": 0.0, "is_reserved": 0, "lat": 38.9294655, "name": "334754fa1d06669cdd4f3d60b9bb20e4", "bike_id": "334754fa1d06669cdd4f3d60b9bb20e4", "is_disabled": 0, "fusion_lon": 0.0, "type": "electric_scooter", "lon": -77.00409766666667}, {"rental_uris": {"android": "https://dc.lft.to/lastmile_qr_scan", "ios": "https://dc.lft.to/lastmile_qr_scan"}, "fusion_lat": 0.0, "is_reserved": 0, "lat": 38.88724083333334, "name": "41c362a7332de6ca1f7647160d84a14c", "bike_id": "41c362a7332de6ca1f7647160d84a14c", "is_disabled": 0, "fusion_lon": 0.0, "type": "electric_scooter", "lon": -76.9835815}, {"rental_uris": {"android": "https://dc.lft.to/lastmile_qr_scan", "ios": "https://dc.lft.to/lastmile_qr_scan"}, "fusion_lat": 0.0, "is_reserved": 0, "lat": 38.9181815, "name": "29b751f6258223e7190f7ded40acdc5d", "bike_id": "29b751f6258223e7190f7ded40acdc5d", "is_disabled": 0, "fusion_lon": 0.0, "type": "electric_scooter", "lon": -77.030321}, {"rental_uris": {"android": "https://dc.lft.to/lastmile_qr_scan", "ios": "https://dc.lft.to/lastmile_qr_scan"}, "fusion_lat": 0.0, "is_reserved": 0, "lat": 38.900691, "name": "c2df26a4ba170a8f904f6ae17b63f190", "bike_id": "c2df26a4ba170a8f904f6ae17b63f190", "is_disabled": 0, "fusion_lon": 0.0, "type": "electric_scooter", "lon": -76.92744450000001}, {"rental_uris": {"android": "https://dc.lft.to/lastmile_qr_scan", "ios": "https://dc.lft.to/lastmile_qr_scan"}, "fusion_lat": 0.0, "is_reserved": 0, "lat": 38.898282, "name": "5317e6616477a8a36320911c6dadad8c", "bike_id": "5317e6616477a8a36320911c6dadad8c", "is_disabled": 0, "fusion_lon": 0.0, "type": "electric_scooter", "lon": -77.02808666666667}, {"rental_uris": {"android": "https://dc.lft.to/lastmile_qr_scan", "ios": "https://dc.lft.to/lastmile_qr_scan"}, "fusion_lat": 0.0, "is_reserved": 0, "lat": 38.89352516666667, "name": "6ede7b94c9707b9cb1c930edd715de18", "bike_id": "6ede7b94c9707b9cb1c930edd715de18", "is_disabled": 0, "fusion_lon": 0.0, "type": "electric_scooter", "lon": -77.00335866666667}, {"rental_uris": {"android": "https://dc.lft.to/lastmile_qr_scan", "ios": "https://dc.lft.to/lastmile_qr_scan"}, "fusion_lat": 0.0, "is_reserved": 0, "lat": 38.8872385, "name": "86fa4c4d51df9c823ce099c700f0a278", "bike_id": "86fa4c4d51df9c823ce099c700f0a278", "is_disabled": 0, "fusion_lon": 0.0, "type": "electric_scooter", "lon": -76.99682283333334}, {"rental_uris": {"android": "https://dc.lft.to/lastmile_qr_scan", "ios": "https://dc.lft.to/lastmile_qr_scan"}, "fusion_lat": 0.0, "is_reserved": 0, "lat": 38.937357, "name": "45b43daa3ac9ae5d8e0e19f21d981c84", "bike_id": "45b43daa3ac9ae5d8e0e19f21d981c84", "is_disabled": 0, "fusion_lon": 0.0, "type": "electric_scooter", "lon": -77.032707}, {"rental_uris": {"android": "https://dc.lft.to/lastmile_qr_scan", "ios": "https://dc.lft.to/lastmile_qr_scan"}, "fusion_lat": 0.0, "is_reserved": 0, "lat": 38.877652499999996, "name": "164b22a88fee841f3aeb38476e260045", "bike_id": "164b22a88fee841f3aeb38476e260045", "is_disabled": 0, "fusion_lon": 0.0, "type": "electric_scooter", "lon": -77.00322483333333}, {"rental_uris": {"android": "https://dc.lft.to/lastmile_qr_scan", "ios": "https://dc.lft.to/lastmile_qr_scan"}, "fusion_lat": 0.0, "is_reserved": 0, "lat": 38.85435116666667, "name": "3e424a1d8e8a04ade2187aeaa3f0c714", "bike_id": "3e424a1d8e8a04ade2187aeaa3f0c714", "is_disabled": 0, "fusion_lon": 0.0, "type": "electric_bike", "lon": -77.08322233333334}, {"rental_uris": {"android": "https://dc.lft.to/lastmile_qr_scan", "ios": "https://dc.lft.to/lastmile_qr_scan"}, "fusion_lat": 0.0, "is_reserved": 0, "lat": 39.0211595, "name": "e1aabccd675a0ea404cac2f7269df949", "bike_id": "e1aabccd675a0ea404cac2f7269df949", "is_disabled": 0, "fusion_lon": 0.0, "type": "electric_bike", "lon": -77.04500566666667}, {"rental_uris": {"android": "https://dc.lft.to/lastmile_qr_scan", "ios": "https://dc.lft.to/lastmile_qr_scan"}, "fusion_lat": 0.0, "is_reserved": 0, "lat": 38.93692733333334, "name": "856ce920518e9553c82a2f484a3aee36", "bike_id": "856ce920518e9553c82a2f484a3aee36", "is_disabled": 0, "fusion_lon": 0.0, "type": "electric_scooter", "lon": -77.02717316666667}, {"rental_uris": {"android": "https://dc.lft.to/lastmile_qr_scan", "ios": "https://dc.lft.to/lastmile_qr_scan"}, "fusion_lat": 0.0, "is_reserved": 0, "lat": 38.916422, "name": "1787205248c1804163c4cd14e8345a80", "bike_id": "1787205248c1804163c4cd14e8345a80", "is_disabled": 0, "fusion_lon": 0.0, "type": "electric_scooter", "lon": -77.03205233333334}, {"rental_uris": {"android": "https://dc.lft.to/lastmile_qr_scan", "ios": "https://dc.lft.to/lastmile_qr_scan"}, "fusion_lat": 0.0, "is_reserved": 0, "lat": 38.925201666666666, "name": "5a50ec5bae0fe2cfe97b2e5af2d1ca9f", "bike_id": "5a50ec5bae0fe2cfe97b2e5af2d1ca9f", "is_disabled": 0, "fusion_lon": 0.0, "type": "electric_scooter", "lon": -77.05056283333333}, {"rental_uris": {"android": "https://dc.lft.to/lastmile_qr_scan", "ios": "https://dc.lft.to/lastmile_qr_scan"}, "fusion_lat": 0.0, "is_reserved": 0, "lat": 38.906441, "name": "b3c7802ffdd39ca2635cd29e2028a838", "bike_id": "b3c7802ffdd39ca2635cd29e2028a838", "is_disabled": 0, "fusion_lon": 0.0, "type": "electric_scooter", "lon": -77.01433533333334}, {"rental_uris": {"android": "https://dc.lft.to/lastmile_qr_scan", "ios": "https://dc.lft.to/lastmile_qr_scan"}, "fusion_lat": 0.0, "is_reserved": 0, "lat": 38.92049866666667, "name": "e814231d7cce17f6f8f50dde62f58f30", "bike_id": "e814231d7cce17f6f8f50dde62f58f30", "is_disabled": 0, "fusion_lon": 0.0, "type": "electric_scooter", "lon": -77.03290166666666}, {"rental_uris": {"android": "https://dc.lft.to/lastmile_qr_scan", "ios": "https://dc.lft.to/lastmile_qr_scan"}, "fusion_lat": 0.0, "is_reserved": 0, "lat": 38.9374645, "name": "1f4c9383feca8d9c00ec1accdad26c96", "bike_id": "1f4c9383feca8d9c00ec1accdad26c96", "is_disabled": 0, "fusion_lon": 0.0, "type": "electric_scooter", "lon": -77.03431933333333}, {"rental_uris": {"android": "https://dc.lft.to/lastmile_qr_scan", "ios": "https://dc.lft.to/lastmile_qr_scan"}, "fusion_lat": 0.0, "is_reserved": 0, "lat": 38.93060233333333, "name": "e962cb5081cd58187d1b8ec258067c65", "bike_id": "e962cb5081cd58187d1b8ec258067c65", "is_disabled": 0, "fusion_lon": 0.0, "type": "electric_scooter", "lon": -77.02326283333333}, {"rental_uris": {"android": "https://dc.lft.to/lastmile_qr_scan", "ios": "https://dc.lft.to/lastmile_qr_scan"}, "fusion_lat": 0.0, "is_reserved": 0, "lat": 38.90222716666667, "name": "fa24896b408e26c6579cd64e7a171454", "bike_id": "fa24896b408e26c6579cd64e7a171454", "is_disabled": 0, "fusion_lon": 0.0, "type": "electric_scooter", "lon": -77.03959333333333}, {"rental_uris": {"android": "https://dc.lft.to/lastmile_qr_scan", "ios": "https://dc.lft.to/lastmile_qr_scan"}, "fusion_lat": 0.0, "is_reserved": 0, "lat": 38.904137, "name": "7f5eb27183ba743e8e6aa4a18b6801f4", "bike_id": "7f5eb27183ba743e8e6aa4a18b6801f4", "is_disabled": 0, "fusion_lon": 0.0, "type": "electric_scooter", "lon": -77.02605433333333}, {"rental_uris": {"android": "https://dc.lft.to/lastmile_qr_scan", "ios": "https://dc.lft.to/lastmile_qr_scan"}, "fusion_lat": 0.0, "is_reserved": 0, "lat": 38.92675066666666, "name": "28b24b291f8232fe7e4eae559255544e", "bike_id": "28b24b291f8232fe7e4eae559255544e", "is_disabled": 0, "fusion_lon": 0.0, "type": "electric_scooter", "lon": -77.00749033333334}, {"rental_uris": {"android": "https://dc.lft.to/lastmile_qr_scan", "ios": "https://dc.lft.to/lastmile_qr_scan"}, "fusion_lat": 0.0, "is_reserved": 0, "lat": 38.895439333333336, "name": "8496dbf6e37dac344e598f31312b4c2f", "bike_id": "8496dbf6e37dac344e598f31312b4c2f", "is_disabled": 0, "fusion_lon": 0.0, "type": "electric_scooter", "lon": -76.98339433333334}, {"rental_uris": {"android": "https://dc.lft.to/lastmile_qr_scan", "ios": "https://dc.lft.to/lastmile_qr_scan"}, "fusion_lat": 0.0, "is_reserved": 0, "lat": 38.92296366666667, "name": "1038ad31d8a7f48eb966607098358968", "bike_id": "1038ad31d8a7f48eb966607098358968", "is_disabled": 0, "fusion_lon": 0.0, "type": "electric_scooter", "lon": -77.041485}, {"rental_uris": {"android": "https://dc.lft.to/lastmile_qr_scan", "ios": "https://dc.lft.to/lastmile_qr_scan"}, "fusion_lat": 0.0, "is_reserved": 0, "lat": 38.917814166666666, "name": "4e72f832d42a29710111207a7cc60cbc", "bike_id": "4e72f832d42a29710111207a7cc60cbc", "is_disabled": 0, "fusion_lon": 0.0, "type": "electric_scooter", "lon": -77.03444916666666}, {"rental_uris": {"android": "https://dc.lft.to/lastmile_qr_scan", "ios": "https://dc.lft.to/lastmile_qr_scan"}, "fusion_lat": 0.0, "is_reserved": 0, "lat": 38.918374166666666, "name": "09f2c8054c458346ae1d69b76cab9e00", "bike_id": "09f2c8054c458346ae1d69b76cab9e00", "is_disabled": 0, "fusion_lon": 0.0, "type": "electric_scooter", "lon": -77.02281583333334}, {"rental_uris": {"android": "https://dc.lft.to/lastmile_qr_scan", "ios": "https://dc.lft.to/lastmile_qr_scan"}, "fusion_lat": 0.0, "is_reserved": 0, "lat": 38.959034, "name": "2dbef36d4e4a7a7a6a760c4eeec9d0ae", "bike_id": "2dbef36d4e4a7a7a6a760c4eeec9d0ae", "is_disabled": 0, "fusion_lon": 0.0, "type": "electric_bike", "lon": -76.92525033333334}, {"rental_uris": {"android": "https://dc.lft.to/lastmile_qr_scan", "ios": "https://dc.lft.to/lastmile_qr_scan"}, "fusion_lat": 0.0, "is_reserved": 0, "lat": 38.920116666666665, "name": "43adb54efd812489b3f9cb2b6514e17c", "bike_id": "43adb54efd812489b3f9cb2b6514e17c", "is_disabled": 0, "fusion_lon": 0.0, "type": "electric_scooter", "lon": -77.0315575}, {"rental_uris": {"android": "https://dc.lft.to/lastmile_qr_scan", "ios": "https://dc.lft.to/lastmile_qr_scan"}, "fusion_lat": 0.0, "is_reserved": 0, "lat": 38.91339383333333, "name": "d5189824b208d772b78207e118fdc716", "bike_id": "d5189824b208d772b78207e118fdc716", "is_disabled": 0, "fusion_lon": 0.0, "type": "electric_scooter", "lon": -77.0320025}, {"rental_uris": {"android": "https://dc.lft.to/lastmile_qr_scan", "ios": "https://dc.lft.to/lastmile_qr_scan"}, "fusion_lat": 0.0, "is_reserved": 0, "lat": 38.930051166666665, "name": "c4e0366275d49880cb5e8e7ea3250f80", "bike_id": "c4e0366275d49880cb5e8e7ea3250f80", "is_disabled": 0, "fusion_lon": 0.0, "type": "electric_scooter", "lon": -77.032743}, {"rental_uris": {"android": "https://dc.lft.to/lastmile_qr_scan", "ios": "https://dc.lft.to/lastmile_qr_scan"}, "fusion_lat": 0.0, "is_reserved": 0, "lat": 38.932454166666666, "name": "5ab0b3549b2d67a2f0c4db05afd00ea6", "bike_id": "5ab0b3549b2d67a2f0c4db05afd00ea6", "is_disabled": 0, "fusion_lon": 0.0, "type": "electric_scooter", "lon": -77.03276016666666}, {"rental_uris": {"android": "https://dc.lft.to/lastmile_qr_scan", "ios": "https://dc.lft.to/lastmile_qr_scan"}, "fusion_lat": 0.0, "is_reserved": 0, "lat": 38.9480065, "name": "78a3de01134755108441eac59c0061ab", "bike_id": "78a3de01134755108441eac59c0061ab", "is_disabled": 0, "fusion_lon": 0.0, "type": "electric_bike", "lon": -76.94245433333333}, {"rental_uris": {"android": "https://dc.lft.to/lastmile_qr_scan", "ios": "https://dc.lft.to/lastmile_qr_scan"}, "fusion_lat": 0.0, "is_reserved": 0, "lat": 38.918220166666664, "name": "73f2383c2caf118f3800f2c79c2da2d2", "bike_id": "73f2383c2caf118f3800f2c79c2da2d2", "is_disabled": 0, "fusion_lon": 0.0, "type": "electric_scooter", "lon": -77.03158983333333}, {"rental_uris": {"android": "https://dc.lft.to/lastmile_qr_scan", "ios": "https://dc.lft.to/lastmile_qr_scan"}, "fusion_lat": 0.0, "is_reserved": 0, "lat": 38.9237095, "name": "c71c5aa8d8bc074afe3dfcb026ff3f96", "bike_id": "c71c5aa8d8bc074afe3dfcb026ff3f96", "is_disabled": 0, "fusion_lon": 0.0, "type": "electric_scooter", "lon": -77.02984283333333}, {"rental_uris": {"android": "https://dc.lft.to/lastmile_qr_scan", "ios": "https://dc.lft.to/lastmile_qr_scan"}, "fusion_lat": 0.0, "is_reserved": 0, "lat": 38.9251645, "name": "ebd297ae8db37f01f1ff301a7fd56bb6", "bike_id": "ebd297ae8db37f01f1ff301a7fd56bb6", "is_disabled": 0, "fusion_lon": 0.0, "type": "electric_scooter", "lon": -77.03798066666667}, {"rental_uris": {"android": "https://dc.lft.to/lastmile_qr_scan", "ios": "https://dc.lft.to/lastmile_qr_scan"}, "fusion_lat": 0.0, "is_reserved": 0, "lat": 38.862843166666664, "name": "7714321617d7e3252526d0b2e1ea4644", "bike_id": "7714321617d7e3252526d0b2e1ea4644", "is_disabled": 0, "fusion_lon": 0.0, "type": "electric_bike", "lon": -76.98011333333334}, {"rental_uris": {"android": "https://dc.lft.to/lastmile_qr_scan", "ios": "https://dc.lft.to/lastmile_qr_scan"}, "fusion_lat": 0.0, "is_reserved": 0, "lat": 38.91547766666667, "name": "8f391b0caaa71393d8ee015a9bcac047", "bike_id": "8f391b0caaa71393d8ee015a9bcac047", "is_disabled": 0, "fusion_lon": 0.0, "type": "electric_scooter", "lon": -77.041752}, {"rental_uris": {"android": "https://dc.lft.to/lastmile_qr_scan", "ios": "https://dc.lft.to/lastmile_qr_scan"}, "fusion_lat": 0.0, "is_reserved": 0, "lat": 38.907280166666666, "name": "58a6c7e525158eb037517538f56ed82f", "bike_id": "58a6c7e525158eb037517538f56ed82f", "is_disabled": 0, "fusion_lon": 0.0, "type": "electric_scooter", "lon": -77.03307083333333}, {"rental_uris": {"android": "https://dc.lft.to/lastmile_qr_scan", "ios": "https://dc.lft.to/lastmile_qr_scan"}, "fusion_lat": 0.0, "is_reserved": 0, "lat": 39.01089616666667, "name": "3518c7912ff9bae6177717ea6090b144", "bike_id": "3518c7912ff9bae6177717ea6090b144", "is_disabled": 0, "fusion_lon": 0.0, "type": "electric_bike", "lon": -77.049531}, {"rental_uris": {"android": "https://dc.lft.to/lastmile_qr_scan", "ios": "https://dc.lft.to/lastmile_qr_scan"}, "fusion_lat": 0.0, "is_reserved": 0, "lat": 38.920650333333334, "name": "f05a3c66b9d24c64e11cf9cd77d64e6a", "bike_id": "f05a3c66b9d24c64e11cf9cd77d64e6a", "is_disabled": 0, "fusion_lon": 0.0, "type": "electric_scooter", "lon": -77.0241805}, {"rental_uris": {"android": "https://dc.lft.to/lastmile_qr_scan", "ios": "https://dc.lft.to/lastmile_qr_scan"}, "fusion_lat": 0.0, "is_reserved": 0, "lat": 38.857935499999996, "name": "f0db04581f5842b6b364685491f97655", "bike_id": "f0db04581f5842b6b364685491f97655", "is_disabled": 0, "fusion_lon": 0.0, "type": "electric_bike", "lon": -76.98753883333333}, {"rental_uris": {"android": "https://dc.lft.to/lastmile_qr_scan", "ios": "https://dc.lft.to/lastmile_qr_scan"}, "fusion_lat": 0.0, "is_reserved": 0, "lat": 38.88502116666667, "name": "24fc29e98424d6a02b0f1bb3b36b1501", "bike_id": "24fc29e98424d6a02b0f1bb3b36b1501", "is_disabled": 0, "fusion_lon": 0.0, "type": "electric_scooter", "lon": -77.00221666666667}, {"rental_uris": {"android": "https://dc.lft.to/lastmile_qr_scan", "ios": "https://dc.lft.to/lastmile_qr_scan"}, "fusion_lat": 0.0, "is_reserved": 0, "lat": 38.924446833333334, "name": "1ca1ba8435ca186dcd6f7e1ff996d61a", "bike_id": "1ca1ba8435ca186dcd6f7e1ff996d61a", "is_disabled": 0, "fusion_lon": 0.0, "type": "electric_scooter", "lon": -76.996669}, {"rental_uris": {"android": "https://dc.lft.to/lastmile_qr_scan", "ios": "https://dc.lft.to/lastmile_qr_scan"}, "fusion_lat": 0.0, "is_reserved": 0, "lat": 38.906355166666664, "name": "e5552c08007e9808814a51131a97e6d6", "bike_id": "e5552c08007e9808814a51131a97e6d6", "is_disabled": 0, "fusion_lon": 0.0, "type": "electric_scooter", "lon": -77.05321116666667}, {"rental_uris": {"android": "https://dc.lft.to/lastmile_qr_scan", "ios": "https://dc.lft.to/lastmile_qr_scan"}, "fusion_lat": 0.0, "is_reserved": 0, "lat": 38.922351, "name": "5faf15f319dd2154c7aff7bdfd18d023", "bike_id": "5faf15f319dd2154c7aff7bdfd18d023", "is_disabled": 0, "fusion_lon": 0.0, "type": "electric_scooter", "lon": -77.035197}, {"rental_uris": {"android": "https://dc.lft.to/lastmile_qr_scan", "ios": "https://dc.lft.to/lastmile_qr_scan"}, "fusion_lat": 0.0, "is_reserved": 0, "lat": 38.9223895, "name": "3221a6c6335307fc0ddb7cbd3cc065e2", "bike_id": "3221a6c6335307fc0ddb7cbd3cc065e2", "is_disabled": 0, "fusion_lon": 0.0, "type": "electric_scooter", "lon": -77.03667383333334}, {"rental_uris": {"android": "https://dc.lft.to/lastmile_qr_scan", "ios": "https://dc.lft.to/lastmile_qr_scan"}, "fusion_lat": 0.0, "is_reserved": 0, "lat": 38.80386433333334, "name": "7faa05b4faf3a5704028040882513e5b", "bike_id": "7faa05b4faf3a5704028040882513e5b", "is_disabled": 0, "fusion_lon": 0.0, "type": "electric_bike", "lon": -76.98814233333333}, {"rental_uris": {"android": "https://dc.lft.to/lastmile_qr_scan", "ios": "https://dc.lft.to/lastmile_qr_scan"}, "fusion_lat": 0.0, "is_reserved": 0, "lat": 38.9182345, "name": "d2a6d6172c5e49aefe49e317def54aad", "bike_id": "d2a6d6172c5e49aefe49e317def54aad", "is_disabled": 0, "fusion_lon": 0.0, "type": "electric_scooter", "lon": -77.03183466666667}, {"rental_uris": {"android": "https://dc.lft.to/lastmile_qr_scan", "ios": "https://dc.lft.to/lastmile_qr_scan"}, "fusion_lat": 0.0, "is_reserved": 0, "lat": 38.89533083333333, "name": "d8ba06f34e5faace58200b612b8ea9a8", "bike_id": "d8ba06f34e5faace58200b612b8ea9a8", "is_disabled": 0, "fusion_lon": 0.0, "type": "electric_scooter", "lon": -76.948884}, {"rental_uris": {"android": "https://dc.lft.to/lastmile_qr_scan", "ios": "https://dc.lft.to/lastmile_qr_scan"}, "fusion_lat": 0.0, "is_reserved": 0, "lat": 38.89501216666667, "name": "acbd2a1f2ac9b6c5e1ec8d86da04239f", "bike_id": "acbd2a1f2ac9b6c5e1ec8d86da04239f", "is_disabled": 0, "fusion_lon": 0.0, "type": "electric_scooter", "lon": -76.93481216666666}, {"rental_uris": {"android": "https://dc.lft.to/lastmile_qr_scan", "ios": "https://dc.lft.to/lastmile_qr_scan"}, "fusion_lat": 0.0, "is_reserved": 0, "lat": 38.89365166666666, "name": "63037cb1b168d06c17b6967275a32641", "bike_id": "63037cb1b168d06c17b6967275a32641", "is_disabled": 0, "fusion_lon": 0.0, "type": "electric_scooter", "lon": -76.9359805}, {"rental_uris": {"android": "https://dc.lft.to/lastmile_qr_scan", "ios": "https://dc.lft.to/lastmile_qr_scan"}, "fusion_lat": 0.0, "is_reserved": 0, "lat": 38.89224633333333, "name": "fd3602c54bb83cf31772f495e65fe075", "bike_id": "fd3602c54bb83cf31772f495e65fe075", "is_disabled": 0, "fusion_lon": 0.0, "type": "electric_scooter", "lon": -77.04084016666667}, {"rental_uris": {"android": "https://dc.lft.to/lastmile_qr_scan", "ios": "https://dc.lft.to/lastmile_qr_scan"}, "fusion_lat": 0.0, "is_reserved": 0, "lat": 38.8666025, "name": "f6f3e9093565e2d3a9f6b7c3ce03271a", "bike_id": "f6f3e9093565e2d3a9f6b7c3ce03271a", "is_disabled": 0, "fusion_lon": 0.0, "type": "electric_scooter", "lon": -76.9791415}, {"rental_uris": {"android": "https://dc.lft.to/lastmile_qr_scan", "ios": "https://dc.lft.to/lastmile_qr_scan"}, "fusion_lat": 0.0, "is_reserved": 0, "lat": 38.913261, "name": "6d1f0cb1124faf2f7312f40349d6026b", "bike_id": "6d1f0cb1124faf2f7312f40349d6026b", "is_disabled": 0, "fusion_lon": 0.0, "type": "electric_scooter", "lon": -77.01661233333333}, {"rental_uris": {"android": "https://dc.lft.to/lastmile_qr_scan", "ios": "https://dc.lft.to/lastmile_qr_scan"}, "fusion_lat": 0.0, "is_reserved": 0, "lat": 38.9648745, "name": "dd0a77375aeee3b86bd508c31a89b54c", "bike_id": "dd0a77375aeee3b86bd508c31a89b54c", "is_disabled": 0, "fusion_lon": 0.0, "type": "electric_bike", "lon": -77.02417116666666}, {"rental_uris": {"android": "https://dc.lft.to/lastmile_qr_scan", "ios": "https://dc.lft.to/lastmile_qr_scan"}, "fusion_lat": 0.0, "is_reserved": 0, "lat": 38.90072833333333, "name": "6921c36e7a5216e0049fbd261dfa5726", "bike_id": "6921c36e7a5216e0049fbd261dfa5726", "is_disabled": 0, "fusion_lon": 0.0, "type": "electric_scooter", "lon": -77.04913766666667}, {"rental_uris": {"android": "https://dc.lft.to/lastmile_qr_scan", "ios": "https://dc.lft.to/lastmile_qr_scan"}, "fusion_lat": 0.0, "is_reserved": 0, "lat": 38.902024833333336, "name": "6a6d2384c58b502b311e9f998d40eead", "bike_id": "6a6d2384c58b502b311e9f998d40eead", "is_disabled": 0, "fusion_lon": 0.0, "type": "electric_scooter", "lon": -77.0218015}, {"rental_uris": {"android": "https://dc.lft.to/lastmile_qr_scan", "ios": "https://dc.lft.to/lastmile_qr_scan"}, "fusion_lat": 0.0, "is_reserved": 0, "lat": 38.92319966666667, "name": "c8ecdeaaa54a7cecd15c0a42638e02b8", "bike_id": "c8ecdeaaa54a7cecd15c0a42638e02b8", "is_disabled": 0, "fusion_lon": 0.0, "type": "electric_scooter", "lon": -77.02119383333333}, {"rental_uris": {"android": "https://dc.lft.to/lastmile_qr_scan", "ios": "https://dc.lft.to/lastmile_qr_scan"}, "fusion_lat": 0.0, "is_reserved": 0, "lat": 38.898482666666666, "name": "71178590e9e4cb62e55d10403c02b90b", "bike_id": "71178590e9e4cb62e55d10403c02b90b", "is_disabled": 0, "fusion_lon": 0.0, "type": "electric_scooter", "lon": -77.02220233333334}, {"rental_uris": {"android": "https://dc.lft.to/lastmile_qr_scan", "ios": "https://dc.lft.to/lastmile_qr_scan"}, "fusion_lat": 0.0, "is_reserved": 0, "lat": 38.93602283333333, "name": "1b52c0db0095fd9e52b8653965c66ae5", "bike_id": "1b52c0db0095fd9e52b8653965c66ae5", "is_disabled": 0, "fusion_lon": 0.0, "type": "electric_scooter", "lon": -77.05598783333333}, {"rental_uris": {"android": "https://dc.lft.to/lastmile_qr_scan", "ios": "https://dc.lft.to/lastmile_qr_scan"}, "fusion_lat": 0.0, "is_reserved": 0, "lat": 38.894808166666664, "name": "a7d766f8a8a6b1e104dd24d0a27c290e", "bike_id": "a7d766f8a8a6b1e104dd24d0a27c290e", "is_disabled": 0, "fusion_lon": 0.0, "type": "electric_scooter", "lon": -77.0193195}, {"rental_uris": {"android": "https://dc.lft.to/lastmile_qr_scan", "ios": "https://dc.lft.to/lastmile_qr_scan"}, "fusion_lat": 0.0, "is_reserved": 0, "lat": 38.88724883333333, "name": "07df0194cebbf129a642c6ef66dd3427", "bike_id": "07df0194cebbf129a642c6ef66dd3427", "is_disabled": 0, "fusion_lon": 0.0, "type": "electric_scooter", "lon": -76.98380316666666}, {"rental_uris": {"android": "https://dc.lft.to/lastmile_qr_scan", "ios": "https://dc.lft.to/lastmile_qr_scan"}, "fusion_lat": 0.0, "is_reserved": 0, "lat": 38.958530333333336, "name": "9533032d03fb17db025caa92a52ea885", "bike_id": "9533032d03fb17db025caa92a52ea885", "is_disabled": 0, "fusion_lon": 0.0, "type": "electric_scooter", "lon": -77.00310316666666}, {"rental_uris": {"android": "https://dc.lft.to/lastmile_qr_scan", "ios": "https://dc.lft.to/lastmile_qr_scan"}, "fusion_lat": 0.0, "is_reserved": 0, "lat": 38.918828, "name": "36cc5dc3f44e60f81380e56fa3550a21", "bike_id": "36cc5dc3f44e60f81380e56fa3550a21", "is_disabled": 0, "fusion_lon": 0.0, "type": "electric_scooter", "lon": -77.04176083333333}, {"rental_uris": {"android": "https://dc.lft.to/lastmile_qr_scan", "ios": "https://dc.lft.to/lastmile_qr_scan"}, "fusion_lat": 0.0, "is_reserved": 0, "lat": 38.975213, "name": "d70001ce3b5fe28d13dce39b4cd423fd", "bike_id": "d70001ce3b5fe28d13dce39b4cd423fd", "is_disabled": 0, "fusion_lon": 0.0, "type": "electric_bike", "lon": -77.016879}, {"rental_uris": {"android": "https://dc.lft.to/lastmile_qr_scan", "ios": "https://dc.lft.to/lastmile_qr_scan"}, "fusion_lat": 0.0, "is_reserved": 0, "lat": 38.85789, "name": "8e28a1b2efec9bd17f0011d519709b82", "bike_id": "8e28a1b2efec9bd17f0011d519709b82", "is_disabled": 0, "fusion_lon": 0.0, "type": "electric_bike", "lon": -77.099629}, {"rental_uris": {"android": "https://dc.lft.to/lastmile_qr_scan", "ios": "https://dc.lft.to/lastmile_qr_scan"}, "fusion_lat": 0.0, "is_reserved": 0, "lat": 38.91419066666667, "name": "b93d055dfcfb9baf9e4ae817ea8b95c6", "bike_id": "b93d055dfcfb9baf9e4ae817ea8b95c6", "is_disabled": 0, "fusion_lon": 0.0, "type": "electric_scooter", "lon": -77.03174466666667}, {"rental_uris": {"android": "https://dc.lft.to/lastmile_qr_scan", "ios": "https://dc.lft.to/lastmile_qr_scan"}, "fusion_lat": 0.0, "is_reserved": 0, "lat": 38.944739166666665, "name": "36bcaa796f59bd11fffc856c2db71ebd", "bike_id": "36bcaa796f59bd11fffc856c2db71ebd", "is_disabled": 0, "fusion_lon": 0.0, "type": "electric_bike", "lon": -76.986902}, {"rental_uris": {"android": "https://dc.lft.to/lastmile_qr_scan", "ios": "https://dc.lft.to/lastmile_qr_scan"}, "fusion_lat": 0.0, "is_reserved": 0, "lat": 38.99414066666667, "name": "f80d101025b7ac70e7b53481231303b7", "bike_id": "f80d101025b7ac70e7b53481231303b7", "is_disabled": 0, "fusion_lon": 0.0, "type": "electric_bike", "lon": -77.0180225}, {"rental_uris": {"android": "https://dc.lft.to/lastmile_qr_scan", "ios": "https://dc.lft.to/lastmile_qr_scan"}, "fusion_lat": 0.0, "is_reserved": 0, "lat": 38.90589833333333, "name": "caa836196f755a9d2e5179d933a8bf7d", "bike_id": "caa836196f755a9d2e5179d933a8bf7d", "is_disabled": 0, "fusion_lon": 0.0, "type": "electric_scooter", "lon": -77.01620433333333}, {"rental_uris": {"android": "https://dc.lft.to/lastmile_qr_scan", "ios": "https://dc.lft.to/lastmile_qr_scan"}, "fusion_lat": 0.0, "is_reserved": 0, "lat": 38.92499333333333, "name": "2b00a0007e44da072d275af44c2f2b5f", "bike_id": "2b00a0007e44da072d275af44c2f2b5f", "is_disabled": 0, "fusion_lon": 0.0, "type": "electric_scooter", "lon": -77.024071}, {"rental_uris": {"android": "https://dc.lft.to/lastmile_qr_scan", "ios": "https://dc.lft.to/lastmile_qr_scan"}, "fusion_lat": 0.0, "is_reserved": 0, "lat": 38.946508, "name": "cc49294d485e6d0073e39a7f33bd9d03", "bike_id": "cc49294d485e6d0073e39a7f33bd9d03", "is_disabled": 0, "fusion_lon": 0.0, "type": "electric_scooter", "lon": -77.064796}, {"rental_uris": {"android": "https://dc.lft.to/lastmile_qr_scan", "ios": "https://dc.lft.to/lastmile_qr_scan"}, "fusion_lat": 0.0, "is_reserved": 0, "lat": 38.940415, "name": "be0c39c16142775039f767ce437f9e6a", "bike_id": "be0c39c16142775039f767ce437f9e6a", "is_disabled": 0, "fusion_lon": 0.0, "type": "electric_scooter", "lon": -77.02905866666667}, {"rental_uris": {"android": "https://dc.lft.to/lastmile_qr_scan", "ios": "https://dc.lft.to/lastmile_qr_scan"}, "fusion_lat": 0.0, "is_reserved": 0, "lat": 38.899657166666664, "name": "e584d6df583f8e84574c4254872af2ad", "bike_id": "e584d6df583f8e84574c4254872af2ad", "is_disabled": 0, "fusion_lon": 0.0, "type": "electric_scooter", "lon": -77.02238066666666}, {"rental_uris": {"android": "https://dc.lft.to/lastmile_qr_scan", "ios": "https://dc.lft.to/lastmile_qr_scan"}, "fusion_lat": 0.0, "is_reserved": 0, "lat": 38.8768985, "name": "8b707377ce7adfc698aa314fc29dc285", "bike_id": "8b707377ce7adfc698aa314fc29dc285", "is_disabled": 0, "fusion_lon": 0.0, "type": "electric_scooter", "lon": -77.01532916666666}, {"rental_uris": {"android": "https://dc.lft.to/lastmile_qr_scan", "ios": "https://dc.lft.to/lastmile_qr_scan"}, "fusion_lat": 0.0, "is_reserved": 0, "lat": 38.8948035, "name": "78e30e6510dadaa9c206db2ed206c3ce", "bike_id": "78e30e6510dadaa9c206db2ed206c3ce", "is_disabled": 0, "fusion_lon": 0.0, "type": "electric_scooter", "lon": -76.99493083333333}, {"rental_uris": {"android": "https://dc.lft.to/lastmile_qr_scan", "ios": "https://dc.lft.to/lastmile_qr_scan"}, "fusion_lat": 0.0, "is_reserved": 0, "lat": 38.897161833333335, "name": "1c0c801fcba143eb8e24efffcb2aad12", "bike_id": "1c0c801fcba143eb8e24efffcb2aad12", "is_disabled": 0, "fusion_lon": 0.0, "type": "electric_scooter", "lon": -77.01295216666666}, {"rental_uris": {"android": "https://dc.lft.to/lastmile_qr_scan", "ios": "https://dc.lft.to/lastmile_qr_scan"}, "fusion_lat": 0.0, "is_reserved": 0, "lat": 38.838608666666666, "name": "f1e53172c5574df113821a3092653c03", "bike_id": "f1e53172c5574df113821a3092653c03", "is_disabled": 0, "fusion_lon": 0.0, "type": "electric_bike", "lon": -76.99698483333333}, {"rental_uris": {"android": "https://dc.lft.to/lastmile_qr_scan", "ios": "https://dc.lft.to/lastmile_qr_scan"}, "fusion_lat": 0.0, "is_reserved": 0, "lat": 38.918365333333334, "name": "34303ecbed654e6dabd8cbe665132cc7", "bike_id": "34303ecbed654e6dabd8cbe665132cc7", "is_disabled": 0, "fusion_lon": 0.0, "type": "electric_scooter", "lon": -77.02444983333334}, {"rental_uris": {"android": "https://dc.lft.to/lastmile_qr_scan", "ios": "https://dc.lft.to/lastmile_qr_scan"}, "fusion_lat": 0.0, "is_reserved": 0, "lat": 38.89233566666667, "name": "9525edb0e1b5929cb50fde1dfc5cd900", "bike_id": "9525edb0e1b5929cb50fde1dfc5cd900", "is_disabled": 0, "fusion_lon": 0.0, "type": "electric_scooter", "lon": -77.03207916666666}, {"rental_uris": {"android": "https://dc.lft.to/lastmile_qr_scan", "ios": "https://dc.lft.to/lastmile_qr_scan"}, "fusion_lat": 0.0, "is_reserved": 0, "lat": 38.927864, "name": "0eb732f047e1e9deb1f5dba5b350427c", "bike_id": "0eb732f047e1e9deb1f5dba5b350427c", "is_disabled": 0, "fusion_lon": 0.0, "type": "electric_scooter", "lon": -77.03086083333334}, {"rental_uris": {"android": "https://dc.lft.to/lastmile_qr_scan", "ios": "https://dc.lft.to/lastmile_qr_scan"}, "fusion_lat": 0.0, "is_reserved": 0, "lat": 38.91979383333333, "name": "107024b05983605d370c070844631dbf", "bike_id": "107024b05983605d370c070844631dbf", "is_disabled": 0, "fusion_lon": 0.0, "type": "electric_scooter", "lon": -77.033145}, {"rental_uris": {"android": "https://dc.lft.to/lastmile_qr_scan", "ios": "https://dc.lft.to/lastmile_qr_scan"}, "fusion_lat": 0.0, "is_reserved": 0, "lat": 38.83541266666667, "name": "e26f73522b431d7a5d301f29ee377129", "bike_id": "e26f73522b431d7a5d301f29ee377129", "is_disabled": 0, "fusion_lon": 0.0, "type": "electric_bike", "lon": -77.00758066666667}, {"rental_uris": {"android": "https://dc.lft.to/lastmile_qr_scan", "ios": "https://dc.lft.to/lastmile_qr_scan"}, "fusion_lat": 0.0, "is_reserved": 0, "lat": 38.909673, "name": "ad8ab329ccd0098e1fcb2c390d2b4777", "bike_id": "ad8ab329ccd0098e1fcb2c390d2b4777", "is_disabled": 0, "fusion_lon": 0.0, "type": "electric_scooter", "lon": -77.04445266666667}, {"rental_uris": {"android": "https://dc.lft.to/lastmile_qr_scan", "ios": "https://dc.lft.to/lastmile_qr_scan"}, "fusion_lat": 0.0, "is_reserved": 0, "lat": 38.90648366666667, "name": "a2d3f8a988da2fba78c88884da7939a1", "bike_id": "a2d3f8a988da2fba78c88884da7939a1", "is_disabled": 0, "fusion_lon": 0.0, "type": "electric_scooter", "lon": -77.05322}, {"rental_uris": {"android": "https://dc.lft.to/lastmile_qr_scan", "ios": "https://dc.lft.to/lastmile_qr_scan"}, "fusion_lat": 0.0, "is_reserved": 0, "lat": 38.89710766666666, "name": "0cd12e38ab66f1ae837926761d82e6a2", "bike_id": "0cd12e38ab66f1ae837926761d82e6a2", "is_disabled": 0, "fusion_lon": 0.0, "type": "electric_scooter", "lon": -77.026594}, {"rental_uris": {"android": "https://dc.lft.to/lastmile_qr_scan", "ios": "https://dc.lft.to/lastmile_qr_scan"}, "fusion_lat": 0.0, "is_reserved": 0, "lat": 38.904816, "name": "3604275b8e7c35cdd74c98578da7f943", "bike_id": "3604275b8e7c35cdd74c98578da7f943", "is_disabled": 0, "fusion_lon": 0.0, "type": "electric_scooter", "lon": -77.04875183333333}, {"rental_uris": {"android": "https://dc.lft.to/lastmile_qr_scan", "ios": "https://dc.lft.to/lastmile_qr_scan"}, "fusion_lat": 0.0, "is_reserved": 0, "lat": 38.92436133333333, "name": "559abec3add8dd8f23e2230e6273ba6b", "bike_id": "559abec3add8dd8f23e2230e6273ba6b", "is_disabled": 0, "fusion_lon": 0.0, "type": "electric_scooter", "lon": -77.00071183333333}, {"rental_uris": {"android": "https://dc.lft.to/lastmile_qr_scan", "ios": "https://dc.lft.to/lastmile_qr_scan"}, "fusion_lat": 0.0, "is_reserved": 0, "lat": 38.90885333333333, "name": "dcd424bd732781fd7b51b52511db6f2d", "bike_id": "dcd424bd732781fd7b51b52511db6f2d", "is_disabled": 0, "fusion_lon": 0.0, "type": "electric_scooter", "lon": -77.072616}, {"rental_uris": {"android": "https://dc.lft.to/lastmile_qr_scan", "ios": "https://dc.lft.to/lastmile_qr_scan"}, "fusion_lat": 0.0, "is_reserved": 0, "lat": 38.953504833333334, "name": "7f4aee26e6604c8714effedf8b2808e9", "bike_id": "7f4aee26e6604c8714effedf8b2808e9", "is_disabled": 0, "fusion_lon": 0.0, "type": "electric_bike", "lon": -76.98094516666667}, {"rental_uris": {"android": "https://dc.lft.to/lastmile_qr_scan", "ios": "https://dc.lft.to/lastmile_qr_scan"}, "fusion_lat": 0.0, "is_reserved": 0, "lat": 38.917781, "name": "771f4a1df4cee6e112e31fcd160256e4", "bike_id": "771f4a1df4cee6e112e31fcd160256e4", "is_disabled": 0, "fusion_lon": 0.0, "type": "electric_scooter", "lon": -77.023062}, {"rental_uris": {"android": "https://dc.lft.to/lastmile_qr_scan", "ios": "https://dc.lft.to/lastmile_qr_scan"}, "fusion_lat": 0.0, "is_reserved": 0, "lat": 38.903459, "name": "d587eb42ac05bef20525882a70905ad0", "bike_id": "d587eb42ac05bef20525882a70905ad0", "is_disabled": 0, "fusion_lon": 0.0, "type": "electric_scooter", "lon": -76.9861805}, {"rental_uris": {"android": "https://dc.lft.to/lastmile_qr_scan", "ios": "https://dc.lft.to/lastmile_qr_scan"}, "fusion_lat": 0.0, "is_reserved": 0, "lat": 38.937549, "name": "ce766707177c4efb81eb076ac617e3be", "bike_id": "ce766707177c4efb81eb076ac617e3be", "is_disabled": 0, "fusion_lon": 0.0, "type": "electric_scooter", "lon": -77.02475133333333}, {"rental_uris": {"android": "https://dc.lft.to/lastmile_qr_scan", "ios": "https://dc.lft.to/lastmile_qr_scan"}, "fusion_lat": 0.0, "is_reserved": 0, "lat": 38.900714, "name": "a26434627241e2ad8b51468f52fc251e", "bike_id": "a26434627241e2ad8b51468f52fc251e", "is_disabled": 0, "fusion_lon": 0.0, "type": "electric_scooter", "lon": -77.02621383333333}, {"rental_uris": {"android": "https://dc.lft.to/lastmile_qr_scan", "ios": "https://dc.lft.to/lastmile_qr_scan"}, "fusion_lat": 0.0, "is_reserved": 0, "lat": 38.922075666666665, "name": "beff818a653ef064ab0a57f6ad7b1db8", "bike_id": "beff818a653ef064ab0a57f6ad7b1db8", "is_disabled": 0, "fusion_lon": 0.0, "type": "electric_scooter", "lon": -77.03755666666666}, {"rental_uris": {"android": "https://dc.lft.to/lastmile_qr_scan", "ios": "https://dc.lft.to/lastmile_qr_scan"}, "fusion_lat": 0.0, "is_reserved": 0, "lat": 38.899634666666664, "name": "86014c18974ec88e69ecdc26be990801", "bike_id": "86014c18974ec88e69ecdc26be990801", "is_disabled": 0, "fusion_lon": 0.0, "type": "electric_scooter", "lon": -77.016085}, {"rental_uris": {"android": "https://dc.lft.to/lastmile_qr_scan", "ios": "https://dc.lft.to/lastmile_qr_scan"}, "fusion_lat": 0.0, "is_reserved": 0, "lat": 38.875416666666666, "name": "ee3dffea71054906c82b8d89ff7217e6", "bike_id": "ee3dffea71054906c82b8d89ff7217e6", "is_disabled": 0, "fusion_lon": 0.0, "type": "electric_scooter", "lon": -77.017484}, {"rental_uris": {"android": "https://dc.lft.to/lastmile_qr_scan", "ios": "https://dc.lft.to/lastmile_qr_scan"}, "fusion_lat": 0.0, "is_reserved": 0, "lat": 38.97368733333333, "name": "1a3b24db2b7a7a45d2ae918b2e70e771", "bike_id": "1a3b24db2b7a7a45d2ae918b2e70e771", "is_disabled": 0, "fusion_lon": 0.0, "type": "electric_scooter", "lon": -77.02672533333333}, {"rental_uris": {"android": "https://dc.lft.to/lastmile_qr_scan", "ios": "https://dc.lft.to/lastmile_qr_scan"}, "fusion_lat": 0.0, "is_reserved": 0, "lat": 38.893043666666664, "name": "2c6559c182f425b0f0cd4fa94e824a09", "bike_id": "2c6559c182f425b0f0cd4fa94e824a09", "is_disabled": 0, "fusion_lon": 0.0, "type": "electric_scooter", "lon": -76.93971733333333}, {"rental_uris": {"android": "https://dc.lft.to/lastmile_qr_scan", "ios": "https://dc.lft.to/lastmile_qr_scan"}, "fusion_lat": 0.0, "is_reserved": 0, "lat": 38.91269366666667, "name": "8a52ef243c859491a06609f350107ab9", "bike_id": "8a52ef243c859491a06609f350107ab9", "is_disabled": 0, "fusion_lon": 0.0, "type": "electric_scooter", "lon": -77.02216433333334}, {"rental_uris": {"android": "https://dc.lft.to/lastmile_qr_scan", "ios": "https://dc.lft.to/lastmile_qr_scan"}, "fusion_lat": 0.0, "is_reserved": 0, "lat": 38.905877333333336, "name": "97cd1bb2e8a78404c3a70d3e80b65ca8", "bike_id": "97cd1bb2e8a78404c3a70d3e80b65ca8", "is_disabled": 0, "fusion_lon": 0.0, "type": "electric_scooter", "lon": -77.02184066666666}, {"rental_uris": {"android": "https://dc.lft.to/lastmile_qr_scan", "ios": "https://dc.lft.to/lastmile_qr_scan"}, "fusion_lat": 0.0, "is_reserved": 0, "lat": 38.917670666666666, "name": "e35efd7a45c65a3627e3408e34e722ba", "bike_id": "e35efd7a45c65a3627e3408e34e722ba", "is_disabled": 0, "fusion_lon": 0.0, "type": "electric_scooter", "lon": -77.04748066666667}, {"rental_uris": {"android": "https://dc.lft.to/lastmile_qr_scan", "ios": "https://dc.lft.to/lastmile_qr_scan"}, "fusion_lat": 0.0, "is_reserved": 0, "lat": 38.9285115, "name": "77186c7363c701e383a30eaff8f1d3c4", "bike_id": "77186c7363c701e383a30eaff8f1d3c4", "is_disabled": 0, "fusion_lon": 0.0, "type": "electric_scooter", "lon": -77.03422733333333}, {"rental_uris": {"android": "https://dc.lft.to/lastmile_qr_scan", "ios": "https://dc.lft.to/lastmile_qr_scan"}, "fusion_lat": 0.0, "is_reserved": 0, "lat": 38.915537, "name": "68daa836063cbe52740766267dec4491", "bike_id": "68daa836063cbe52740766267dec4491", "is_disabled": 0, "fusion_lon": 0.0, "type": "electric_scooter", "lon": -77.04010416666667}, {"rental_uris": {"android": "https://dc.lft.to/lastmile_qr_scan", "ios": "https://dc.lft.to/lastmile_qr_scan"}, "fusion_lat": 0.0, "is_reserved": 0, "lat": 38.923969166666666, "name": "4d69cb5fb4e2cfae3732b638998289ca", "bike_id": "4d69cb5fb4e2cfae3732b638998289ca", "is_disabled": 0, "fusion_lon": 0.0, "type": "electric_scooter", "lon": -77.03662}, {"rental_uris": {"android": "https://dc.lft.to/lastmile_qr_scan", "ios": "https://dc.lft.to/lastmile_qr_scan"}, "fusion_lat": 0.0, "is_reserved": 0, "lat": 38.90737266666667, "name": "e45432ff71c569fabfc1a6fc3de978d6", "bike_id": "e45432ff71c569fabfc1a6fc3de978d6", "is_disabled": 0, "fusion_lon": 0.0, "type": "electric_scooter", "lon": -76.93484383333333}, {"rental_uris": {"android": "https://dc.lft.to/lastmile_qr_scan", "ios": "https://dc.lft.to/lastmile_qr_scan"}, "fusion_lat": 0.0, "is_reserved": 0, "lat": 38.90154316666667, "name": "057fd5eac34bc09c12f2ea0b7c46bb90", "bike_id": "057fd5eac34bc09c12f2ea0b7c46bb90", "is_disabled": 0, "fusion_lon": 0.0, "type": "electric_scooter", "lon": -77.046735}, {"rental_uris": {"android": "https://dc.lft.to/lastmile_qr_scan", "ios": "https://dc.lft.to/lastmile_qr_scan"}, "fusion_lat": 0.0, "is_reserved": 0, "lat": 38.91204616666667, "name": "87f0cb481b97c0128f320c1367009dfe", "bike_id": "87f0cb481b97c0128f320c1367009dfe", "is_disabled": 0, "fusion_lon": 0.0, "type": "electric_scooter", "lon": -77.03837183333333}, {"rental_uris": {"android": "https://dc.lft.to/lastmile_qr_scan", "ios": "https://dc.lft.to/lastmile_qr_scan"}, "fusion_lat": 0.0, "is_reserved": 0, "lat": 38.900245166666664, "name": "7abdbfbfb890deedd2d8534e5a3944d1", "bike_id": "7abdbfbfb890deedd2d8534e5a3944d1", "is_disabled": 0, "fusion_lon": 0.0, "type": "electric_scooter", "lon": -76.99851633333333}, {"rental_uris": {"android": "https://dc.lft.to/lastmile_qr_scan", "ios": "https://dc.lft.to/lastmile_qr_scan"}, "fusion_lat": 0.0, "is_reserved": 0, "lat": 38.92418383333333, "name": "9f03265282be6a696c293b784a56f491", "bike_id": "9f03265282be6a696c293b784a56f491", "is_disabled": 0, "fusion_lon": 0.0, "type": "electric_scooter", "lon": -77.03516833333333}, {"rental_uris": {"android": "https://dc.lft.to/lastmile_qr_scan", "ios": "https://dc.lft.to/lastmile_qr_scan"}, "fusion_lat": 0.0, "is_reserved": 0, "lat": 38.915597166666664, "name": "b0707ff587158e527f512e6e555c0a82", "bike_id": "b0707ff587158e527f512e6e555c0a82", "is_disabled": 0, "fusion_lon": 0.0, "type": "electric_scooter", "lon": -77.03132983333333}, {"rental_uris": {"android": "https://dc.lft.to/lastmile_qr_scan", "ios": "https://dc.lft.to/lastmile_qr_scan"}, "fusion_lat": 0.0, "is_reserved": 0, "lat": 38.93703033333333, "name": "e42ef73723ecfe72774c1d3c7e7b3d99", "bike_id": "e42ef73723ecfe72774c1d3c7e7b3d99", "is_disabled": 0, "fusion_lon": 0.0, "type": "electric_scooter", "lon": -77.05602633333334},