{"data": {"bikes": [{"type": "electric_scooter", "name": "d785f0c3daacf21c72dab0fe6501368b", "rental_uris": {"ios": "https://dc.lft.to/lastmile_qr_scan", "android": "https://dc.lft.to/lastmile_qr_scan"}, "fusion_lon": 0.0, "lat": 38.92462366666667, "is_disabled": 0, "bike_id": "d785f0c3daacf21c72dab0fe6501368b", "fusion_lat": 0.0, "is_reserved": 0, "lon": -77.05229783333333}, {"type": "electric_scooter", "name": "2a6cb1baa918e016b2542d628e5eeb18", "rental_uris": {"ios": "https://dc.lft.to/lastmile_qr_scan", "android": "https://dc.lft.to/lastmile_qr_scan"}, "fusion_lon": 0.0, "lat": 38.8655245, "is_disabled": 0, "bike_id": "2a6cb1baa918e016b2542d628e5eeb18", "fusion_lat": 0.0, "is_reserved": 0, "lon": -76.97859333333334}, {"type": "electric_scooter", "name": "5694cd5a72bc82d1cb88adf83fdd476b", "rental_uris": {"ios": "https://dc.lft.to/lastmile_qr_scan", "android": "https://dc.lft.to/lastmile_qr_scan"}, "fusion_lon": 0.0, "lat": 38.930535, "is_disabled": 0, "bike_id": "5694cd5a72bc82d1cb88adf83fdd476b", "fusion_lat": 0.0, "is_reserved": 0, "lon": -77.01862383333334}, {"type": "electric_scooter", "name": "f76aae32223c40c6b73a85a33ec63cff", "rental_uris": {"ios": "https://dc.lft.to/lastmile_qr_scan", "android": "https://dc.lft.to/lastmile_qr_scan"}, "fusion_lon": 0.0, "lat": 38.90373966666667, "is_disabled": 0, "bike_id": "f76aae32223c40c6b73a85a33ec63cff", "fusion_lat": 0.0, "is_reserved": 0, "lon": -77.01647566666666}, {"type": "electric_bike", "name": "41e684a17a1242d8cbc703c5eb8eed6d", "rental_uris": {"ios": "https://dc.lft.to/lastmile_qr_scan", "android": "https://dc.lft.to/lastmile_qr_scan"}, "fusion_lon": 0.0, "lat": 38.796944833333335, "is_disabled": 0, "bike_id": "41e684a17a1242d8cbc703c5eb8eed6d", "fusion_lat": 0.0, "is_reserved": 0, "lon": -77.00371416666667}, {"type": "electric_scooter", "name": "155a0387da0a504805ef75e754a997c0", "rental_uris": {"ios": "https://dc.lft.to/lastmile_qr_scan", "android": "https://dc.lft.to/lastmile_qr_scan"}, "fusion_lon": 0.0, "lat": 38.91847466666667, "is_disabled": 0, "bike_id": "155a0387da0a504805ef75e754a997c0", "fusion_lat": 0.0, "is_reserved": 0, "lon": -77.02600683333333}, {"type": "electric_bike", "name": "990dc5c48a7a1d497c26cae8ed740236", "rental_uris": {"ios": "https://dc.lft.to/lastmile_qr_scan", "android": "https://dc.lft.to/lastmile_qr_scan"}, "fusion_lon": 0.0, "lat": 38.892101333333336, "is_disabled": 0, "bike_id": "990dc5c48a7a1d497c26cae8ed740236", "fusion_lat": 0.0, "is_reserved": 0, "lon": -76.96024583333333}, {"type": "electric_scooter", "name": "8b2e87d6bee4f25aec605298a7f57d39", "rental_uris": {"ios": "https://dc.lft.to/lastmile_qr_scan", "android": "https://dc.lft.to/lastmile_qr_scan"}, "fusion_lon": 0.0, "lat": 38.88399616666667, "is_disabled": 0, "bike_id": "8b2e87d6bee4f25aec605298a7f57d39", "fusion_lat": 0.0, "is_reserved": 0, "lon": -76.98613433333334}, {"type": "electric_scooter", "name": "1a419b5f68e8f6c8027c78a7b978ef79", "rental_uris": {"ios": "https://dc.lft.to/lastmile_qr_scan", "android": "https://dc.lft.to/lastmile_qr_scan"}, "fusion_lon": 0.0, "lat": 38.916956, "is_disabled": 0, "bike_id": "1a419b5f68e8f6c8027c78a7b978ef79", "fusion_lat": 0.0, "is_reserved": 0, "lon": -77.02988316666666}, {"type": "electric_scooter", "name": "82bd4d0404fb52696cc57150a49ae932", "rental_uris": {"ios": "https://dc.lft.to/lastmile_qr_scan", "android": "https://dc.lft.to/lastmile_qr_scan"}, "fusion_lon": 0.0, "lat": 38.92191483333333, "is_disabled": 0, "bike_id": "82bd4d0404fb52696cc57150a49ae932", "fusion_lat": 0.0, "is_reserved": 0, "lon": -77.01836016666667}, {"type": "electric_scooter", "name": "9421fae2f43b703e2c1914cb66db9518", "rental_uris": {"ios": "https://dc.lft.to/lastmile_qr_scan", "android": "https://dc.lft.to/lastmile_qr_scan"}, "fusion_lon": 0.0, "lat": 38.92435866666667, "is_disabled": 0, "bike_id": "9421fae2f43b703e2c1914cb66db9518", "fusion_lat": 0.0, "is_reserved": 0, "lon": -77.03405}, {"type": "electric_scooter", "name": "0f849e92b64c33fb16dfeafdf8ec808b", "rental_uris": {"ios": "https://dc.lft.to/lastmile_qr_scan", "android": "https://dc.lft.to/lastmile_qr_scan"}, "fusion_lon": 0.0, "lat": 38.89942533333333, "is_disabled": 0, "bike_id": "0f849e92b64c33fb16dfeafdf8ec808b", "fusion_lat": 0.0, "is_reserved": 0, "lon": -76.98161683333333}, {"type": "electric_scooter", "name": "49ae97777e30786f2fa40298e8db8a3b", "rental_uris": {"ios": "https://dc.lft.to/lastmile_qr_scan", "android": "https://dc.lft.to/lastmile_qr_scan"}, "fusion_lon": 0.0, "lat": 38.88716066666667, "is_disabled": 0, "bike_id": "49ae97777e30786f2fa40298e8db8a3b", "fusion_lat": 0.0, "is_reserved": 0, "lon": -76.99686266666667}, {"type": "electric_scooter", "name": "53cfb15a752b3282f6d4f6c396f4f3ae", "rental_uris": {"ios": "https://dc.lft.to/lastmile_qr_scan", "android": "https://dc.lft.to/lastmile_qr_scan"}, "fusion_lon": 0.0, "lat": 38.884199833333334, "is_disabled": 0, "bike_id": "53cfb15a752b3282f6d4f6c396f4f3ae", "fusion_lat": 0.0, "is_reserved": 0, "lon": -76.95761166666666}, {"type": "electric_scooter", "name": "c1f7f79b8facfed4437a6ac994c24c18", "rental_uris": {"ios": "https://dc.lft.to/lastmile_qr_scan", "android": "https://dc.lft.to/lastmile_qr_scan"}, "fusion_lon": 0.0, "lat": 38.9261265, "is_disabled": 0, "bike_id": "c1f7f79b8facfed4437a6ac994c24c18", "fusion_lat": 0.0, "is_reserved": 0, "lon": -77.02170933333333}, {"type": "electric_scooter", "name": "ddb5f99fd221e87b715ca7f8876d05e6", "rental_uris": {"ios": "https://dc.lft.to/lastmile_qr_scan", "android": "https://dc.lft.to/lastmile_qr_scan"}, "fusion_lon": 0.0, "lat": 38.919869166666665, "is_disabled": 0, "bike_id": "ddb5f99fd221e87b715ca7f8876d05e6", "fusion_lat": 0.0, "is_reserved": 0, "lon": -76.973073}, {"type": "electric_scooter", "name": "872bf5c88a620f3de6f95197ddf9a59e", "rental_uris": {"ios": "https://dc.lft.to/lastmile_qr_scan", "android": "https://dc.lft.to/lastmile_qr_scan"}, "fusion_lon": 0.0, "lat": 38.91567966666667, "is_disabled": 0, "bike_id": "872bf5c88a620f3de6f95197ddf9a59e", "fusion_lat": 0.0, "is_reserved": 0, "lon": -77.0229005}, {"type": "electric_scooter", "name": "99711669da9ff4a7611d255f57a143ff", "rental_uris": {"ios": "https://dc.lft.to/lastmile_qr_scan", "android": "https://dc.lft.to/lastmile_qr_scan"}, "fusion_lon": 0.0, "lat": 38.92953816666667, "is_disabled": 0, "bike_id": "99711669da9ff4a7611d255f57a143ff", "fusion_lat": 0.0, "is_reserved": 0, "lon": -77.04403216666667}, {"type": "electric_scooter", "name": "c181bdc6384a61031750c06f48db11b3", "rental_uris": {"ios": "https://dc.lft.to/lastmile_qr_scan", "android": "https://dc.lft.to/lastmile_qr_scan"}, "fusion_lon": 0.0, "lat": 38.920442, "is_disabled": 0, "bike_id": "c181bdc6384a61031750c06f48db11b3", "fusion_lat": 0.0, "is_reserved": 0, "lon": -77.02576116666667}, {"type": "electric_scooter", "name": "7c24f343457796a9266df57b88bd7ee8", "rental_uris": {"ios": "https://dc.lft.to/lastmile_qr_scan", "android": "https://dc.lft.to/lastmile_qr_scan"}, "fusion_lon": 0.0, "lat": 38.855485333333334, "is_disabled": 0, "bike_id": "7c24f343457796a9266df57b88bd7ee8", "fusion_lat": 0.0, "is_reserved": 0, "lon": -76.98753166666667}, {"type": "electric_scooter", "name": "8ae06f62423235b4eee718b23d5b9205", "rental_uris": {"ios": "https://dc.lft.to/lastmile_qr_scan", "android": "https://dc.lft.to/lastmile_qr_scan"}, "fusion_lon": 0.0, "lat": 38.92296133333333, "is_disabled": 0, "bike_id": "8ae06f62423235b4eee718b23d5b9205", "fusion_lat": 0.0, "is_reserved": 0, "lon": -77.042697}, {"type": "electric_scooter", "name": "e23a479d26dd84cd201c929d2a1ab025", "rental_uris": {"ios": "https://dc.lft.to/lastmile_qr_scan", "android": "https://dc.lft.to/lastmile_qr_scan"}, "fusion_lon": 0.0, "lat": 38.897380166666665, "is_disabled": 0, "bike_id": "e23a479d26dd84cd201c929d2a1ab025", "fusion_lat": 0.0, "is_reserved": 0, "lon": -77.0092085}, {"type": "electric_scooter", "name": "cc43467f4621eee08e9c1a371d84ac6a", "rental_uris": {"ios": "https://dc.lft.to/lastmile_qr_scan", "android": "https://dc.lft.to/lastmile_qr_scan"}, "fusion_lon": 0.0, "lat": 38.906076, "is_disabled": 0, "bike_id": "cc43467f4621eee08e9c1a371d84ac6a", "fusion_lat": 0.0, "is_reserved": 0, "lon": -77.00361116666667}, {"type": "electric_bike", "name": "ada4c947c495d66e38883b6164cfd333", "rental_uris": {"ios": "https://dc.lft.to/lastmile_qr_scan", "android": "https://dc.lft.to/lastmile_qr_scan"}, "fusion_lon": 0.0, "lat": 38.84085833333334, "is_disabled": 0, "bike_id": "ada4c947c495d66e38883b6164cfd333", "fusion_lat": 0.0, "is_reserved": 0, "lon": -76.97028833333333}, {"type": "electric_scooter", "name": "4406624a6dc6266e5e2a17d0b03c0994", "rental_uris": {"ios": "https://dc.lft.to/lastmile_qr_scan", "android": "https://dc.lft.to/lastmile_qr_scan"}, "fusion_lon": 0.0, "lat": 38.917037666666666, "is_disabled": 0, "bike_id": "4406624a6dc6266e5e2a17d0b03c0994", "fusion_lat": 0.0, "is_reserved": 0, "lon": -77.03222266666667}, {"type": "electric_scooter", "name": "f62920c35173cc2818446112e0c95374", "rental_uris": {"ios": "https://dc.lft.to/lastmile_qr_scan", "android": "https://dc.lft.to/lastmile_qr_scan"}, "fusion_lon": 0.0, "lat": 38.8973455, "is_disabled": 0, "bike_id": "f62920c35173cc2818446112e0c95374", "fusion_lat": 0.0, "is_reserved": 0, "lon": -77.043423}, {"type": "electric_scooter", "name": "23e9df7c648a2ef16ec58be847c2f6d4", "rental_uris": {"ios": "https://dc.lft.to/lastmile_qr_scan", "android": "https://dc.lft.to/lastmile_qr_scan"}, "fusion_lon": 0.0, "lat": 38.901125, "is_disabled": 0, "bike_id": "23e9df7c648a2ef16ec58be847c2f6d4", "fusion_lat": 0.0, "is_reserved": 0, "lon": -77.0448385}, {"type": "electric_scooter", "name": "2f7e199c7f98d7f51f14b223b3307716", "rental_uris": {"ios": "https://dc.lft.to/lastmile_qr_scan", "android": "https://dc.lft.to/lastmile_qr_scan"}, "fusion_lon": 0.0, "lat": 38.92503633333333, "is_disabled": 0, "bike_id": "2f7e199c7f98d7f51f14b223b3307716", "fusion_lat": 0.0, "is_reserved": 0, "lon": -77.0023115}, {"type": "electric_scooter", "name": "b1592e0318772e4fee4017bd0dc8973d", "rental_uris": {"ios": "https://dc.lft.to/lastmile_qr_scan", "android": "https://dc.lft.to/lastmile_qr_scan"}, "fusion_lon": 0.0, "lat": 38.90929916666666, "is_disabled": 0, "bike_id": "b1592e0318772e4fee4017bd0dc8973d", "fusion_lat": 0.0, "is_reserved": 0, "lon": -77.02817933333333}, {"type": "electric_bike", "name": "f3a517f8493cd94b80333cd38ec964f6", "rental_uris": {"ios": "https://dc.lft.to/lastmile_qr_scan", "android": "https://dc.lft.to/lastmile_qr_scan"}, "fusion_lon": 0.0, "lat": 38.883538333333334, "is_disabled": 0, "bike_id": "f3a517f8493cd94b80333cd38ec964f6", "fusion_lat": 0.0, "is_reserved": 0, "lon": -76.9822185}, {"type": "electric_scooter", "name": "d0453ae5b2fbead29f5e650c56acbbe6", "rental_uris": {"ios": "https://dc.lft.to/lastmile_qr_scan", "android": "https://dc.lft.to/lastmile_qr_scan"}, "fusion_lon": 0.0, "lat": 38.91005716666667, "is_disabled": 0, "bike_id": "d0453ae5b2fbead29f5e650c56acbbe6", "fusion_lat": 0.0, "is_reserved": 0, "lon": -77.02209116666667}, {"type": "electric_scooter", "name": "ae200ba3a3e872e187ef1eeae0c02624", "rental_uris": {"ios": "https://dc.lft.to/lastmile_qr_scan", "android": "https://dc.lft.to/lastmile_qr_scan"}, "fusion_lon": 0.0, "lat": 38.886345166666665, "is_disabled": 0, "bike_id": "ae200ba3a3e872e187ef1eeae0c02624", "fusion_lat": 0.0, "is_reserved": 0, "lon": -76.92583216666667}, {"type": "electric_bike", "name": "c46b844df4ae625f2543c859b0b71032", "rental_uris": {"ios": "https://dc.lft.to/lastmile_qr_scan", "android": "https://dc.lft.to/lastmile_qr_scan"}, "fusion_lon": 0.0, "lat": 38.855114666666665, "is_disabled": 0, "bike_id": "c46b844df4ae625f2543c859b0b71032", "fusion_lat": 0.0, "is_reserved": 0, "lon": -77.10539316666667}, {"type": "electric_scooter", "name": "0e367516a81b97b4a5ce310aa7c48fc5", "rental_uris": {"ios": "https://dc.lft.to/lastmile_qr_scan", "android": "https://dc.lft.to/lastmile_qr_scan"}, "fusion_lon": 0.0, "lat": 38.89221333333333, "is_disabled": 0, "bike_id": "0e367516a81b97b4a5ce310aa7c48fc5", "fusion_lat": 0.0, "is_reserved": 0, "lon": -77.048053}, {"type": "electric_scooter", "name": "802c29307ca289b105a08248fab70e9c", "rental_uris": {"ios": "https://dc.lft.to/lastmile_qr_scan", "android": "https://dc.lft.to/lastmile_qr_scan"}, "fusion_lon": 0.0, "lat": 38.927527833333336, "is_disabled": 0, "bike_id": "802c29307ca289b105a08248fab70e9c", "fusion_lat": 0.0, "is_reserved": 0, "lon": -77.0327265}, {"type": "electric_scooter", "name": "c8226b85b2471daeea48c10015de8eec", "rental_uris": {"ios": "https://dc.lft.to/lastmile_qr_scan", "android": "https://dc.lft.to/lastmile_qr_scan"}, "fusion_lon": 0.0, "lat": 38.876082, "is_disabled": 0, "bike_id": "c8226b85b2471daeea48c10015de8eec", "fusion_lat": 0.0, "is_reserved": 0, "lon": -76.96565866666667}, {"type": "electric_scooter", "name": "b4a31d5bd656ec04eba8be2bbf543f3c", "rental_uris": {"ios": "https://dc.lft.to/lastmile_qr_scan", "android": "https://dc.lft.to/lastmile_qr_scan"}, "fusion_lon": 0.0, "lat": 38.920481, "is_disabled": 0, "bike_id": "b4a31d5bd656ec04eba8be2bbf543f3c", "fusion_lat": 0.0, "is_reserved": 0, "lon": -77.0021}, {"type": "electric_scooter", "name": "7d043b8234c376b97f9ea3816334d4b7", "rental_uris": {"ios": "https://dc.lft.to/lastmile_qr_scan", "android": "https://dc.lft.to/lastmile_qr_scan"}, "fusion_lon": 0.0, "lat": 38.907325666666665, "is_disabled": 0, "bike_id": "7d043b8234c376b97f9ea3816334d4b7", "fusion_lat": 0.0, "is_reserved": 0, "lon": -77.025385}, {"type": "electric_scooter", "name": "435d4758c3e6af74e06bb6ca6dd9350f", "rental_uris": {"ios": "https://dc.lft.to/lastmile_qr_scan", "android": "https://dc.lft.to/lastmile_qr_scan"}, "fusion_lon": 0.0, "lat": 38.89171316666667, "is_disabled": 0, "bike_id": "435d4758c3e6af74e06bb6ca6dd9350f", "fusion_lat": 0.0, "is_reserved": 0, "lon": -76.99945833333334}, {"type": "electric_scooter", "name": "bafbadb5823ecc748a9436943b5fea10", "rental_uris": {"ios": "https://dc.lft.to/lastmile_qr_scan", "android": "https://dc.lft.to/lastmile_qr_scan"}, "fusion_lon": 0.0, "lat": 38.90185, "is_disabled": 0, "bike_id": "bafbadb5823ecc748a9436943b5fea10", "fusion_lat": 0.0, "is_reserved": 0, "lon": -76.9290025}, {"type": "electric_scooter", "name": "154be85ffa6d537109180cb005537cc5", "rental_uris": {"ios": "https://dc.lft.to/lastmile_qr_scan", "android": "https://dc.lft.to/lastmile_qr_scan"}, "fusion_lon": 0.0, "lat": 38.90235066666666, "is_disabled": 0, "bike_id": "154be85ffa6d537109180cb005537cc5", "fusion_lat": 0.0, "is_reserved": 0, "lon": -77.00200216666667}, {"type": "electric_scooter", "name": "1975c7ac51a470d8eddbaac07936d6aa", "rental_uris": {"ios": "https://dc.lft.to/lastmile_qr_scan", "android": "https://dc.lft.to/lastmile_qr_scan"}, "fusion_lon": 0.0, "lat": 38.932021166666665, "is_disabled": 0, "bike_id": "1975c7ac51a470d8eddbaac07936d6aa", "fusion_lat": 0.0, "is_reserved": 0, "lon": -77.0366735}, {"type": "electric_scooter", "name": "c83f6dddf10be578b68236b5a02c90c8", "rental_uris": {"ios": "https://dc.lft.to/lastmile_qr_scan", "android": "https://dc.lft.to/lastmile_qr_scan"}, "fusion_lon": 0.0, "lat": 38.9282335, "is_disabled": 0, "bike_id": "c83f6dddf10be578b68236b5a02c90c8", "fusion_lat": 0.0, "is_reserved": 0, "lon": -77.05440633333333}, {"type": "electric_scooter", "name": "cdf5f860a5081a0d561d39a4afb251d1", "rental_uris": {"ios": "https://dc.lft.to/lastmile_qr_scan", "android": "https://dc.lft.to/lastmile_qr_scan"}, "fusion_lon": 0.0, "lat": 38.90645683333334, "is_disabled": 0, "bike_id": "cdf5f860a5081a0d561d39a4afb251d1", "fusion_lat": 0.0, "is_reserved": 0, "lon": -77.0103295}, {"type": "electric_scooter", "name": "30d5bffc14b2904ebc458794f310aef4", "rental_uris": {"ios": "https://dc.lft.to/lastmile_qr_scan", "android": "https://dc.lft.to/lastmile_qr_scan"}, "fusion_lon": 0.0, "lat": 38.91614583333333, "is_disabled": 0, "bike_id": "30d5bffc14b2904ebc458794f310aef4", "fusion_lat": 0.0, "is_reserved": 0, "lon": -77.03146183333334}, {"type": "electric_scooter", "name": "aa4e18ad63ea0fc6033cf77cbdc5d671", "rental_uris": {"ios": "https://dc.lft.to/lastmile_qr_scan", "android": "https://dc.lft.to/lastmile_qr_scan"}, "fusion_lon": 0.0, "lat": 38.92863783333333, "is_disabled": 0, "bike_id": "aa4e18ad63ea0fc6033cf77cbdc5d671", "fusion_lat": 0.0, "is_reserved": 0, "lon": -77.02903516666667}, {"type": "electric_scooter", "name": "13f4762974e34ee0119f0a9f3bdabc69", "rental_uris": {"ios": "https://dc.lft.to/lastmile_qr_scan", "android": "https://dc.lft.to/lastmile_qr_scan"}, "fusion_lon": 0.0, "lat": 38.9392965, "is_disabled": 0, "bike_id": "13f4762974e34ee0119f0a9f3bdabc69", "fusion_lat": 0.0, "is_reserved": 0, "lon": -77.02794583333333}, {"type": "electric_scooter", "name": "52d4acbf429406894d083f9c2b8d813a", "rental_uris": {"ios": "https://dc.lft.to/lastmile_qr_scan", "android": "https://dc.lft.to/lastmile_qr_scan"}, "fusion_lon": 0.0, "lat": 38.87682083333333, "is_disabled": 0, "bike_id": "52d4acbf429406894d083f9c2b8d813a", "fusion_lat": 0.0, "is_reserved": 0, "lon": -77.00423266666667}, {"type": "electric_scooter", "name": "f793517fa6aff9267ec40d7a29722d34", "rental_uris": {"ios": "https://dc.lft.to/lastmile_qr_scan", "android": "https://dc.lft.to/lastmile_qr_scan"}, "fusion_lon": 0.0, "lat": 38.92066716666667, "is_disabled": 0, "bike_id": "f793517fa6aff9267ec40d7a29722d34", "fusion_lat": 0.0, "is_reserved": 0, "lon": -77.03211533333334}, {"type": "electric_scooter", "name": "175b9a6ac665312db6c40912b0ce333d", "rental_uris": {"ios": "https://dc.lft.to/lastmile_qr_scan", "android": "https://dc.lft.to/lastmile_qr_scan"}, "fusion_lon": 0.0, "lat": 38.9343125, "is_disabled": 0, "bike_id": "175b9a6ac665312db6c40912b0ce333d", "fusion_lat": 0.0, "is_reserved": 0, "lon": -77.05586883333334}, {"type": "electric_bike", "name": "83bc065e86e449f3b932e6aefc0613e0", "rental_uris": {"ios": "https://dc.lft.to/lastmile_qr_scan", "android": "https://dc.lft.to/lastmile_qr_scan"}, "fusion_lon": 0.0, "lat": 38.8645235, "is_disabled": 0, "bike_id": "83bc065e86e449f3b932e6aefc0613e0", "fusion_lat": 0.0, "is_reserved": 0, "lon": -77.10682866666667}, {"type": "electric_scooter", "name": "b75163f226b470ac12b09bf5f61cd634", "rental_uris": {"ios": "https://dc.lft.to/lastmile_qr_scan", "android": "https://dc.lft.to/lastmile_qr_scan"}, "fusion_lon": 0.0, "lat": 38.89534316666666, "is_disabled": 0, "bike_id": "b75163f226b470ac12b09bf5f61cd634", "fusion_lat": 0.0, "is_reserved": 0, "lon": -77.0484085}, {"type": "electric_scooter", "name": "f9d14f4899e15a9134de14e5797c566c", "rental_uris": {"ios": "https://dc.lft.to/lastmile_qr_scan", "android": "https://dc.lft.to/lastmile_qr_scan"}, "fusion_lon": 0.0, "lat": 38.87664216666667, "is_disabled": 0, "bike_id": "f9d14f4899e15a9134de14e5797c566c", "fusion_lat": 0.0, "is_reserved": 0, "lon": -77.016127}, {"type": "electric_scooter", "name": "82dd2cffa35d3c44904494e1a8e54841", "rental_uris": {"ios": "https://dc.lft.to/lastmile_qr_scan", "android": "https://dc.lft.to/lastmile_qr_scan"}, "fusion_lon": 0.0, "lat": 38.876823333333334, "is_disabled": 0, "bike_id": "82dd2cffa35d3c44904494e1a8e54841", "fusion_lat": 0.0, "is_reserved": 0, "lon": -77.00421633333333}, {"type": "electric_scooter", "name": "8955980daf2feb16f6d97fbecdf4ba3b", "rental_uris": {"ios": "https://dc.lft.to/lastmile_qr_scan", "android": "https://dc.lft.to/lastmile_qr_scan"}, "fusion_lon": 0.0, "lat": 38.90875116666667, "is_disabled": 0, "bike_id": "8955980daf2feb16f6d97fbecdf4ba3b", "fusion_lat": 0.0, "is_reserved": 0, "lon": -77.0268985}, {"type": "electric_scooter", "name": "077394a86d56211739a36f02d4213e86", "rental_uris": {"ios": "https://dc.lft.to/lastmile_qr_scan", "android": "https://dc.lft.to/lastmile_qr_scan"}, "fusion_lon": 0.0, "lat": 38.919200333333336, "is_disabled": 0, "bike_id": "077394a86d56211739a36f02d4213e86", "fusion_lat": 0.0, "is_reserved": 0, "lon": -77.00982433333333}, {"type": "electric_scooter", "name": "86089479be04af8991d2bf9384b45a50", "rental_uris": {"ios": "https://dc.lft.to/lastmile_qr_scan", "android": "https://dc.lft.to/lastmile_qr_scan"}, "fusion_lon": 0.0, "lat": 38.88745466666667, "is_disabled": 0, "bike_id": "86089479be04af8991d2bf9384b45a50", "fusion_lat": 0.0, "is_reserved": 0, "lon": -77.02843866666667}, {"type": "electric_scooter", "name": "973a693b81c01953fcae749409f05eca", "rental_uris": {"ios": "https://dc.lft.to/lastmile_qr_scan", "android": "https://dc.lft.to/lastmile_qr_scan"}, "fusion_lon": 0.0, "lat": 38.941592166666666, "is_disabled": 0, "bike_id": "973a693b81c01953fcae749409f05eca", "fusion_lat": 0.0, "is_reserved": 0, "lon": -77.09269666666667}, {"type": "electric_scooter", "name": "96c56d016a28e25fd636a70b7c4f7281", "rental_uris": {"ios": "https://dc.lft.to/lastmile_qr_scan", "android": "https://dc.lft.to/lastmile_qr_scan"}, "fusion_lon": 0.0, "lat": 38.90975483333333, "is_disabled": 0, "bike_id": "96c56d016a28e25fd636a70b7c4f7281", "fusion_lat": 0.0, "is_reserved": 0, "lon": -77.03186233333334}, {"type": "electric_scooter", "name": "3b2b042602a9b952748f7cff7a0d25e5", "rental_uris": {"ios": "https://dc.lft.to/lastmile_qr_scan", "android": "https://dc.lft.to/lastmile_qr_scan"}, "fusion_lon": 0.0, "lat": 38.9205085, "is_disabled": 0, "bike_id": "3b2b042602a9b952748f7cff7a0d25e5", "fusion_lat": 0.0, "is_reserved": 0, "lon": -77.04188133333334}, {"type": "electric_bike", "name": "3d097732401bae7f09446fd12c2dedfd", "rental_uris": {"ios": "https://dc.lft.to/lastmile_qr_scan", "android": "https://dc.lft.to/lastmile_qr_scan"}, "fusion_lon": 0.0, "lat": 38.92215733333333, "is_disabled": 0, "bike_id": "3d097732401bae7f09446fd12c2dedfd", "fusion_lat": 0.0, "is_reserved": 0, "lon": -77.20139216666666}, {"type": "electric_bike", "name": "ca85cf3f9c1739797d9e0c53089825ab", "rental_uris": {"ios": "https://dc.lft.to/lastmile_qr_scan", "android": "https://dc.lft.to/lastmile_qr_scan"}, "fusion_lon": 0.0, "lat": 38.95692283333333, "is_disabled": 0, "bike_id": "ca85cf3f9c1739797d9e0c53089825ab", "fusion_lat": 0.0, "is_reserved": 0, "lon": -77.02400916666667}, {"type": "electric_scooter", "name": "87020d220564b0d0d00d3e67d3bf6cd9", "rental_uris": {"ios": "https://dc.lft.to/lastmile_qr_scan", "android": "https://dc.lft.to/lastmile_qr_scan"}, "fusion_lon": 0.0, "lat": 38.89216583333334, "is_disabled": 0, "bike_id": "87020d220564b0d0d00d3e67d3bf6cd9", "fusion_lat": 0.0, "is_reserved": 0, "lon": -76.9957265}, {"type": "electric_scooter", "name": "48fe1b80e91b20cf266f1dbb1052915e", "rental_uris": {"ios": "https://dc.lft.to/lastmile_qr_scan", "android": "https://dc.lft.to/lastmile_qr_scan"}, "fusion_lon": 0.0, "lat": 38.884421, "is_disabled": 0, "bike_id": "48fe1b80e91b20cf266f1dbb1052915e", "fusion_lat": 0.0, "is_reserved": 0, "lon": -77.025054}, {"type": "electric_scooter", "name": "f0664e904444fea91671f6d59bf9d50d", "rental_uris": {"ios": "https://dc.lft.to/lastmile_qr_scan", "android": "https://dc.lft.to/lastmile_qr_scan"}, "fusion_lon": 0.0, "lat": 38.91549883333333, "is_disabled": 0, "bike_id": "f0664e904444fea91671f6d59bf9d50d", "fusion_lat": 0.0, "is_reserved": 0, "lon": -77.038512}, {"type": "electric_scooter", "name": "0b912bd1137f270715e95b6ccf06cd6c", "rental_uris": {"ios": "https://dc.lft.to/lastmile_qr_scan", "android": "https://dc.lft.to/lastmile_qr_scan"}, "fusion_lon": 0.0, "lat": 38.90028083333333, "is_disabled": 0, "bike_id": "0b912bd1137f270715e95b6ccf06cd6c", "fusion_lat": 0.0, "is_reserved": 0, "lon": -76.98698016666667}, {"type": "electric_scooter", "name": "be6b43dae477972934cc5d43c8d9b5bd", "rental_uris": {"ios": "https://dc.lft.to/lastmile_qr_scan", "android": "https://dc.lft.to/lastmile_qr_scan"}, "fusion_lon": 0.0, "lat": 38.906658, "is_disabled": 0, "bike_id": "be6b43dae477972934cc5d43c8d9b5bd", "fusion_lat": 0.0, "is_reserved": 0, "lon": -77.02708933333334}, {"type": "electric_scooter", "name": "1516478599fce374c762472b05ded3aa", "rental_uris": {"ios": "https://dc.lft.to/lastmile_qr_scan", "android": "https://dc.lft.to/lastmile_qr_scan"}, "fusion_lon": 0.0, "lat": 38.9210235, "is_disabled": 0, "bike_id": "1516478599fce374c762472b05ded3aa", "fusion_lat": 0.0, "is_reserved": 0, "lon": -77.04378066666666}, {"type": "electric_scooter", "name": "d7246acca9bd5742c0cd93462f91c7c0", "rental_uris": {"ios": "https://dc.lft.to/lastmile_qr_scan", "android": "https://dc.lft.to/lastmile_qr_scan"}, "fusion_lon": 0.0, "lat": 38.928084, "is_disabled": 0, "bike_id": "d7246acca9bd5742c0cd93462f91c7c0", "fusion_lat": 0.0, "is_reserved": 0, "lon": -77.0140565}, {"type": "electric_scooter", "name": "21b1b13c41ccfb672300e2c263513e2f", "rental_uris": {"ios": "https://dc.lft.to/lastmile_qr_scan", "android": "https://dc.lft.to/lastmile_qr_scan"}, "fusion_lon": 0.0, "lat": 38.9282865, "is_disabled": 0, "bike_id": "21b1b13c41ccfb672300e2c263513e2f", "fusion_lat": 0.0, "is_reserved": 0, "lon": -77.05440883333333}, {"type": "electric_scooter", "name": "7ee5d24b066f0bb8723edc084e5ca3a4", "rental_uris": {"ios": "https://dc.lft.to/lastmile_qr_scan", "android": "https://dc.lft.to/lastmile_qr_scan"}, "fusion_lon": 0.0, "lat": 38.9240435, "is_disabled": 0, "bike_id": "7ee5d24b066f0bb8723edc084e5ca3a4", "fusion_lat": 0.0, "is_reserved": 0, "lon": -77.025631}, {"type": "electric_scooter", "name": "e1d6a6056174ac9fb05a6d1a80f78d30", "rental_uris": {"ios": "https://dc.lft.to/lastmile_qr_scan", "android": "https://dc.lft.to/lastmile_qr_scan"}, "fusion_lon": 0.0, "lat": 38.92301366666667, "is_disabled": 0, "bike_id": "e1d6a6056174ac9fb05a6d1a80f78d30", "fusion_lat": 0.0, "is_reserved": 0, "lon": -77.041763}, {"type": "electric_scooter", "name": "758f28f75ce5eccef06f7b82144daa00", "rental_uris": {"ios": "https://dc.lft.to/lastmile_qr_scan", "android": "https://dc.lft.to/lastmile_qr_scan"}, "fusion_lon": 0.0, "lat": 38.96030916666667, "is_disabled": 0, "bike_id": "758f28f75ce5eccef06f7b82144daa00", "fusion_lat": 0.0, "is_reserved": 0, "lon": -77.07192533333334}, {"type": "electric_scooter", "name": "38cc09408e435ee575be1090c19fc5aa", "rental_uris": {"ios": "https://dc.lft.to/lastmile_qr_scan", "android": "https://dc.lft.to/lastmile_qr_scan"}, "fusion_lon": 0.0, "lat": 38.921159, "is_disabled": 0, "bike_id": "38cc09408e435ee575be1090c19fc5aa", "fusion_lat": 0.0, "is_reserved": 0, "lon": -77.04391366666667}, {"type": "electric_scooter", "name": "955f544b34ad220148b7a232a7d554e7", "rental_uris": {"ios": "https://dc.lft.to/lastmile_qr_scan", "android": "https://dc.lft.to/lastmile_qr_scan"}, "fusion_lon": 0.0, "lat": 38.898765166666664, "is_disabled": 0, "bike_id": "955f544b34ad220148b7a232a7d554e7", "fusion_lat": 0.0, "is_reserved": 0, "lon": -77.03282716666666}, {"type": "electric_scooter", "name": "bad1edc1350e9c1ecb15bbc1ae14a78b", "rental_uris": {"ios": "https://dc.lft.to/lastmile_qr_scan", "android": "https://dc.lft.to/lastmile_qr_scan"}, "fusion_lon": 0.0, "lat": 38.8846105, "is_disabled": 0, "bike_id": "bad1edc1350e9c1ecb15bbc1ae14a78b", "fusion_lat": 0.0, "is_reserved": 0, "lon": -76.9497805}, {"type": "electric_scooter", "name": "7f04e5b2890e64e4ab33076abdd082b6", "rental_uris": {"ios": "https://dc.lft.to/lastmile_qr_scan", "android": "https://dc.lft.to/lastmile_qr_scan"}, "fusion_lon": 0.0, "lat": 38.883140833333336, "is_disabled": 0, "bike_id": "7f04e5b2890e64e4ab33076abdd082b6", "fusion_lat": 0.0, "is_reserved": 0, "lon": -77.017671}, {"type": "electric_scooter", "name": "3f3e0cb910b18f85369c19139f35e8d9", "rental_uris": {"ios": "https://dc.lft.to/lastmile_qr_scan", "android": "https://dc.lft.to/lastmile_qr_scan"}, "fusion_lon": 0.0, "lat": 38.936742, "is_disabled": 0, "bike_id": "3f3e0cb910b18f85369c19139f35e8d9", "fusion_lat": 0.0, "is_reserved": 0, "lon": -77.03590533333333}, {"type": "electric_scooter", "name": "4624ac7621434eaad17ddfba74066fb1", "rental_uris": {"ios": "https://dc.lft.to/lastmile_qr_scan", "android": "https://dc.lft.to/lastmile_qr_scan"}, "fusion_lon": 0.0, "lat": 38.90221533333333, "is_disabled": 0, "bike_id": "4624ac7621434eaad17ddfba74066fb1", "fusion_lat": 0.0, "is_reserved": 0, "lon": -77.045831}, {"type": "electric_scooter", "name": "bffff94820dfa63f8f88a792c22b3604", "rental_uris": {"ios": "https://dc.lft.to/lastmile_qr_scan", "android": "https://dc.lft.to/lastmile_qr_scan"}, "fusion_lon": 0.0, "lat": 38.917105166666666, "is_disabled": 0, "bike_id": "bffff94820dfa63f8f88a792c22b3604", "fusion_lat": 0.0, "is_reserved": 0, "lon": -77.03475766666666}, {"type": "electric_scooter", "name": "79ed4472d88e92c53d767f8b02d6048f", "rental_uris": {"ios": "https://dc.lft.to/lastmile_qr_scan", "android": "https://dc.lft.to/lastmile_qr_scan"}, "fusion_lon": 0.0, "lat": 38.920428, "is_disabled": 0, "bike_id": "79ed4472d88e92c53d767f8b02d6048f", "fusion_lat": 0.0, "is_reserved": 0, "lon": -77.016775}, {"type": "electric_scooter", "name": "21a9b0d42526d70dee7efb02107d4feb", "rental_uris": {"ios": "https://dc.lft.to/lastmile_qr_scan", "android": "https://dc.lft.to/lastmile_qr_scan"}, "fusion_lon": 0.0, "lat": 38.91638366666667, "is_disabled": 0, "bike_id": "21a9b0d42526d70dee7efb02107d4feb", "fusion_lat": 0.0, "is_reserved": 0, "lon": -77.04786383333334}, {"type": "electric_scooter", "name": "7ae2422f7af21d5733247f90ff55df29", "rental_uris": {"ios": "https://dc.lft.to/lastmile_qr_scan", "android": "https://dc.lft.to/lastmile_qr_scan"}, "fusion_lon": 0.0, "lat": 38.900815, "is_disabled": 0, "bike_id": "7ae2422f7af21d5733247f90ff55df29", "fusion_lat": 0.0, "is_reserved": 0, "lon": -77.05062483333333}, {"type": "electric_scooter", "name": "ebaaa9dba4114a0f46b3c89a4dc0d476", "rental_uris": {"ios": "https://dc.lft.to/lastmile_qr_scan", "android": "https://dc.lft.to/lastmile_qr_scan"}, "fusion_lon": 0.0, "lat": 38.89510466666667, "is_disabled": 0, "bike_id": "ebaaa9dba4114a0f46b3c89a4dc0d476", "fusion_lat": 0.0, "is_reserved": 0, "lon": -77.0221055}, {"type": "electric_scooter", "name": "b8c3b738b2ef08769740fc5be0a4f040", "rental_uris": {"ios": "https://dc.lft.to/lastmile_qr_scan", "android": "https://dc.lft.to/lastmile_qr_scan"}, "fusion_lon": 0.0, "lat": 38.909701166666665, "is_disabled": 0, "bike_id": "b8c3b738b2ef08769740fc5be0a4f040", "fusion_lat": 0.0, "is_reserved": 0, "lon": -77.038695}, {"type": "electric_scooter", "name": "2d13afab0992e6c9d4fac159a31bd649", "rental_uris": {"ios": "https://dc.lft.to/lastmile_qr_scan", "android": "https://dc.lft.to/lastmile_qr_scan"}, "fusion_lon": 0.0, "lat": 38.881781833333335, "is_disabled": 0, "bike_id": "2d13afab0992e6c9d4fac159a31bd649", "fusion_lat": 0.0, "is_reserved": 0, "lon": -76.95900816666666}, {"type": "electric_scooter", "name": "24d48446597de52202a2fd25bd4187fc", "rental_uris": {"ios": "https://dc.lft.to/lastmile_qr_scan", "android": "https://dc.lft.to/lastmile_qr_scan"}, "fusion_lon": 0.0, "lat": 38.89788333333333, "is_disabled": 0, "bike_id": "24d48446597de52202a2fd25bd4187fc", "fusion_lat": 0.0, "is_reserved": 0, "lon": -77.02728733333333}, {"type": "electric_scooter", "name": "73052e350efe0822f4b28efc06424b23", "rental_uris": {"ios": "https://dc.lft.to/lastmile_qr_scan", "android": "https://dc.lft.to/lastmile_qr_scan"}, "fusion_lon": 0.0, "lat": 38.936000666666665, "is_disabled": 0, "bike_id": "73052e350efe0822f4b28efc06424b23", "fusion_lat": 0.0, "is_reserved": 0, "lon": -77.03806683333333}, {"type": "electric_scooter", "name": "69f11f2143b9ea6380a5c8b5ed650f8d", "rental_uris": {"ios": "https://dc.lft.to/lastmile_qr_scan", "android": "https://dc.lft.to/lastmile_qr_scan"}, "fusion_lon": 0.0, "lat": 38.91990933333334, "is_disabled": 0, "bike_id": "69f11f2143b9ea6380a5c8b5ed650f8d", "fusion_lat": 0.0, "is_reserved": 0, "lon": -76.97303933333333}, {"type": "electric_scooter", "name": "27df772bc52d71b01507a8e57c280981", "rental_uris": {"ios": "https://dc.lft.to/lastmile_qr_scan", "android": "https://dc.lft.to/lastmile_qr_scan"}, "fusion_lon": 0.0, "lat": 38.9317545, "is_disabled": 0, "bike_id": "27df772bc52d71b01507a8e57c280981", "fusion_lat": 0.0, "is_reserved": 0, "lon": -77.042983}, {"type": "electric_scooter", "name": "cbb46c4bf016f5b77fe7cb5e3159fd43", "rental_uris": {"ios": "https://dc.lft.to/lastmile_qr_scan", "android": "https://dc.lft.to/lastmile_qr_scan"}, "fusion_lon": 0.0, "lat": 38.903953666666666, "is_disabled": 0, "bike_id": "cbb46c4bf016f5b77fe7cb5e3159fd43", "fusion_lat": 0.0, "is_reserved": 0, "lon": -76.984643}, {"type": "electric_scooter", "name": "27ccb8c2238dc02ed4e4ea378431573c", "rental_uris": {"ios": "https://dc.lft.to/lastmile_qr_scan", "android": "https://dc.lft.to/lastmile_qr_scan"}, "fusion_lon": 0.0, "lat": 38.924306, "is_disabled": 0, "bike_id": "27ccb8c2238dc02ed4e4ea378431573c", "fusion_lat": 0.0, "is_reserved": 0, "lon": -77.04251816666667}, {"type": "electric_scooter", "name": "ebd3abea2786e1e43369a822633a5756", "rental_uris": {"ios": "https://dc.lft.to/lastmile_qr_scan", "android": "https://dc.lft.to/lastmile_qr_scan"}, "fusion_lon": 0.0, "lat": 38.916968833333335, "is_disabled": 0, "bike_id": "ebd3abea2786e1e43369a822633a5756", "fusion_lat": 0.0, "is_reserved": 0, "lon": -77.0323315}, {"type": "electric_scooter", "name": "da887ca369d729ffbddd919d33d96d40", "rental_uris": {"ios": "https://dc.lft.to/lastmile_qr_scan", "android": "https://dc.lft.to/lastmile_qr_scan"}, "fusion_lon": 0.0, "lat": 38.921420166666664, "is_disabled": 0, "bike_id": "da887ca369d729ffbddd919d33d96d40", "fusion_lat": 0.0, "is_reserved": 0, "lon": -77.019241}, {"type": "electric_scooter", "name": "e47e69d92ded6e133aaadca5fc53660f", "rental_uris": {"ios": "https://dc.lft.to/lastmile_qr_scan", "android": "https://dc.lft.to/lastmile_qr_scan"}, "fusion_lon": 0.0, "lat": 38.90419633333333, "is_disabled": 0, "bike_id": "e47e69d92ded6e133aaadca5fc53660f", "fusion_lat": 0.0, "is_reserved": 0, "lon": -77.04362216666667}, {"type": "electric_scooter", "name": "021e0786d23d8daa9c88eb501878fda7", "rental_uris": {"ios": "https://dc.lft.to/lastmile_qr_scan", "android": "https://dc.lft.to/lastmile_qr_scan"}, "fusion_lon": 0.0, "lat": 38.92297583333333, "is_disabled": 0, "bike_id": "021e0786d23d8daa9c88eb501878fda7", "fusion_lat": 0.0, "is_reserved": 0, "lon": -77.04178933333333}, {"type": "electric_scooter", "name": "4af12001b2402c81b8a58011d31b737d", "rental_uris": {"ios": "https://dc.lft.to/lastmile_qr_scan", "android": "https://dc.lft.to/lastmile_qr_scan"}, "fusion_lon": 0.0, "lat": 38.914365, "is_disabled": 0, "bike_id": "4af12001b2402c81b8a58011d31b737d", "fusion_lat": 0.0, "is_reserved": 0, "lon": -77.02200216666667}, {"type": "electric_scooter", "name": "5933cc43112ef900a68b545430a17cb3", "rental_uris": {"ios": "https://dc.lft.to/lastmile_qr_scan", "android": "https://dc.lft.to/lastmile_qr_scan"}, "fusion_lon": 0.0, "lat": 38.82218183333333, "is_disabled": 0, "bike_id": "5933cc43112ef900a68b545430a17cb3", "fusion_lat": 0.0, "is_reserved": 0, "lon": -77.0018615}, {"type": "electric_scooter", "name": "25dafa9df585f9c42e2d9fefe07e81cc", "rental_uris": {"ios": "https://dc.lft.to/lastmile_qr_scan", "android": "https://dc.lft.to/lastmile_qr_scan"}, "fusion_lon": 0.0, "lat": 38.91909316666667, "is_disabled": 0, "bike_id": "25dafa9df585f9c42e2d9fefe07e81cc", "fusion_lat": 0.0, "is_reserved": 0, "lon": -77.03174233333333}, {"type": "electric_bike", "name": "73e9fb7c57adf8ca28bb1a037f1ddbde", "rental_uris": {"ios": "https://dc.lft.to/lastmile_qr_scan", "android": "https://dc.lft.to/lastmile_qr_scan"}, "fusion_lon": 0.0, "lat": 38.951690666666664, "is_disabled": 0, "bike_id": "73e9fb7c57adf8ca28bb1a037f1ddbde", "fusion_lat": 0.0, "is_reserved": 0, "lon": -77.03165383333334}, {"type": "electric_scooter", "name": "a7047b190fcd8dbdc00d0d28571151b2", "rental_uris": {"ios": "https://dc.lft.to/lastmile_qr_scan", "android": "https://dc.lft.to/lastmile_qr_scan"}, "fusion_lon": 0.0, "lat": 38.923722166666664, "is_disabled": 0, "bike_id": "a7047b190fcd8dbdc00d0d28571151b2", "fusion_lat": 0.0, "is_reserved": 0, "lon": -77.031355}, {"type": "electric_scooter", "name": "7daccb12ddcce8750b8437bbccadbc74", "rental_uris": {"ios": "https://dc.lft.to/lastmile_qr_scan", "android": "https://dc.lft.to/lastmile_qr_scan"}, "fusion_lon": 0.0, "lat": 38.899887, "is_disabled": 0, "bike_id": "7daccb12ddcce8750b8437bbccadbc74", "fusion_lat": 0.0, "is_reserved": 0, "lon": -76.9843655}, {"type": "electric_bike", "name": "5eb414ab1e66af896a8876234e875cb1", "rental_uris": {"ios": "https://dc.lft.to/lastmile_qr_scan", "android": "https://dc.lft.to/lastmile_qr_scan"}, "fusion_lon": 0.0, "lat": 38.99418983333333, "is_disabled": 0, "bike_id": "5eb414ab1e66af896a8876234e875cb1", "fusion_lat": 0.0, "is_reserved": 0, "lon": -77.07695983333333}, {"type": "electric_scooter", "name": "f153cab080c303b0362672433a130e96", "rental_uris": {"ios": "https://dc.lft.to/lastmile_qr_scan", "android": "https://dc.lft.to/lastmile_qr_scan"}, "fusion_lon": 0.0, "lat": 38.9282865, "is_disabled": 0, "bike_id": "f153cab080c303b0362672433a130e96", "fusion_lat": 0.0, "is_reserved": 0, "lon": -77.05970933333333}, {"type": "electric_bike", "name": "001b3ed54fd799265437464ab4dd05fb", "rental_uris": {"ios": "https://dc.lft.to/lastmile_qr_scan", "android": "https://dc.lft.to/lastmile_qr_scan"}, "fusion_lon": 0.0, "lat": 39.0360805, "is_disabled": 0, "bike_id": "001b3ed54fd799265437464ab4dd05fb", "fusion_lat": 0.0, "is_reserved": 0, "lon": -77.055426}, {"type": "electric_scooter", "name": "4f69bdefe4fe02cddd0af8abd7313d4d", "rental_uris": {"ios": "https://dc.lft.to/lastmile_qr_scan", "android": "https://dc.lft.to/lastmile_qr_scan"}, "fusion_lon": 0.0, "lat": 38.936742, "is_disabled": 0, "bike_id": "4f69bdefe4fe02cddd0af8abd7313d4d", "fusion_lat": 0.0, "is_reserved": 0, "lon": -77.035894}, {"type": "electric_scooter", "name": "aaf014bda75bc540ca978dec1771700f", "rental_uris": {"ios": "https://dc.lft.to/lastmile_qr_scan", "android": "https://dc.lft.to/lastmile_qr_scan"}, "fusion_lon": 0.0, "lat": 38.92968966666667, "is_disabled": 0, "bike_id": "aaf014bda75bc540ca978dec1771700f", "fusion_lat": 0.0, "is_reserved": 0, "lon": -77.03182366666667}, {"type": "electric_scooter", "name": "72a91d669ef41d3179e0eb049ca33d18", "rental_uris": {"ios": "https://dc.lft.to/lastmile_qr_scan", "android": "https://dc.lft.to/lastmile_qr_scan"}, "fusion_lon": 0.0, "lat": 38.924391, "is_disabled": 0, "bike_id": "72a91d669ef41d3179e0eb049ca33d18", "fusion_lat": 0.0, "is_reserved": 0, "lon": -77.033772}, {"type": "electric_scooter", "name": "16371b54a2ea30c188a8b26f438e1e4a", "rental_uris": {"ios": "https://dc.lft.to/lastmile_qr_scan", "android": "https://dc.lft.to/lastmile_qr_scan"}, "fusion_lon": 0.0, "lat": 38.8986645, "is_disabled": 0, "bike_id": "16371b54a2ea30c188a8b26f438e1e4a", "fusion_lat": 0.0, "is_reserved": 0, "lon": -77.04166383333333}, {"type": "electric_scooter", "name": "1e713fbb38e4208ff0495d7628173fbf", "rental_uris": {"ios": "https://dc.lft.to/lastmile_qr_scan", "android": "https://dc.lft.to/lastmile_qr_scan"}, "fusion_lon": 0.0, "lat": 38.920284, "is_disabled": 0, "bike_id": "1e713fbb38e4208ff0495d7628173fbf", "fusion_lat": 0.0, "is_reserved": 0, "lon": -77.0179025}, {"type": "electric_scooter", "name": "b0c9940cf8a930eaa6d520a063e6951b", "rental_uris": {"ios": "https://dc.lft.to/lastmile_qr_scan", "android": "https://dc.lft.to/lastmile_qr_scan"}, "fusion_lon": 0.0, "lat": 38.924097833333335, "is_disabled": 0, "bike_id": "b0c9940cf8a930eaa6d520a063e6951b", "fusion_lat": 0.0, "is_reserved": 0, "lon": -77.04460283333333}, {"type": "electric_scooter", "name": "98c11b1650646ebc3fe79027038832c2", "rental_uris": {"ios": "https://dc.lft.to/lastmile_qr_scan", "android": "https://dc.lft.to/lastmile_qr_scan"}, "fusion_lon": 0.0, "lat": 38.90523566666667, "is_disabled": 0, "bike_id": "98c11b1650646ebc3fe79027038832c2", "fusion_lat": 0.0, "is_reserved": 0, "lon": -77.04759266666667}, {"type": "electric_bike", "name": "79833fe9aa939bb309f7fed06e35171d", "rental_uris": {"ios": "https://dc.lft.to/lastmile_qr_scan", "android": "https://dc.lft.to/lastmile_qr_scan"}, "fusion_lon": 0.0, "lat": 38.807535666666666, "is_disabled": 0, "bike_id": "79833fe9aa939bb309f7fed06e35171d", "fusion_lat": 0.0, "is_reserved": 0, "lon": -77.09454733333334}, {"type": "electric_scooter", "name": "7807f63ef84e90379236089f9ef6a603", "rental_uris": {"ios": "https://dc.lft.to/lastmile_qr_scan", "android": "https://dc.lft.to/lastmile_qr_scan"}, "fusion_lon": 0.0, "lat": 38.88721533333333, "is_disabled": 0, "bike_id": "7807f63ef84e90379236089f9ef6a603", "fusion_lat": 0.0, "is_reserved": 0, "lon": -76.99686883333334}, {"type": "electric_scooter", "name": "593b063c412eae59018490fa2555f22e", "rental_uris": {"ios": "https://dc.lft.to/lastmile_qr_scan", "android": "https://dc.lft.to/lastmile_qr_scan"}, "fusion_lon": 0.0, "lat": 38.926831166666666, "is_disabled": 0, "bike_id": "593b063c412eae59018490fa2555f22e", "fusion_lat": 0.0, "is_reserved": 0, "lon": -77.014766}, {"type": "electric_scooter", "name": "3b0283881db202d2841780a5d970b7d3", "rental_uris": {"ios": "https://dc.lft.to/lastmile_qr_scan", "android": "https://dc.lft.to/lastmile_qr_scan"}, "fusion_lon": 0.0, "lat": 38.93236233333333, "is_disabled": 0, "bike_id": "3b0283881db202d2841780a5d970b7d3", "fusion_lat": 0.0, "is_reserved": 0, "lon": -77.03419416666667}, {"type": "electric_scooter", "name": "c48869f7a9f946642a15d762e7000dda", "rental_uris": {"ios": "https://dc.lft.to/lastmile_qr_scan", "android": "https://dc.lft.to/lastmile_qr_scan"}, "fusion_lon": 0.0, "lat": 38.920425, "is_disabled": 0, "bike_id": "c48869f7a9f946642a15d762e7000dda", "fusion_lat": 0.0, "is_reserved": 0, "lon": -77.017889}, {"type": "electric_scooter", "name": "3658c881f4f01ecea6b184b652f70b96", "rental_uris": {"ios": "https://dc.lft.to/lastmile_qr_scan", "android": "https://dc.lft.to/lastmile_qr_scan"}, "fusion_lon": 0.0, "lat": 38.921088, "is_disabled": 0, "bike_id": "3658c881f4f01ecea6b184b652f70b96", "fusion_lat": 0.0, "is_reserved": 0, "lon": -77.0241005}, {"type": "electric_bike", "name": "d8ab0e912ef16488ec82b6c38630cf29", "rental_uris": {"ios": "https://dc.lft.to/lastmile_qr_scan", "android": "https://dc.lft.to/lastmile_qr_scan"}, "fusion_lon": 0.0, "lat": 38.896170833333336, "is_disabled": 0, "bike_id": "d8ab0e912ef16488ec82b6c38630cf29", "fusion_lat": 0.0, "is_reserved": 0, "lon": -76.90741016666666}, {"type": "electric_scooter", "name": "3c6fac468c6e21aadf7b636acc94a73b", "rental_uris": {"ios": "https://dc.lft.to/lastmile_qr_scan", "android": "https://dc.lft.to/lastmile_qr_scan"}, "fusion_lon": 0.0, "lat": 38.9103355, "is_disabled": 0, "bike_id": "3c6fac468c6e21aadf7b636acc94a73b", "fusion_lat": 0.0, "is_reserved": 0, "lon": -77.02927966666667}, {"type": "electric_scooter", "name": "e359856b4a27e9c4223a37e444fb18b2", "rental_uris": {"ios": "https://dc.lft.to/lastmile_qr_scan", "android": "https://dc.lft.to/lastmile_qr_scan"}, "fusion_lon": 0.0, "lat": 38.92047733333333, "is_disabled": 0, "bike_id": "e359856b4a27e9c4223a37e444fb18b2", "fusion_lat": 0.0, "is_reserved": 0, "lon": -77.04185133333333}, {"type": "electric_scooter", "name": "cb03ce2beafaf9a5f13471cf0e9cca12", "rental_uris": {"ios": "https://dc.lft.to/lastmile_qr_scan", "android": "https://dc.lft.to/lastmile_qr_scan"}, "fusion_lon": 0.0, "lat": 38.9044945, "is_disabled": 0, "bike_id": "cb03ce2beafaf9a5f13471cf0e9cca12", "fusion_lat": 0.0, "is_reserved": 0, "lon": -77.0189655}, {"type": "electric_scooter", "name": "47c62dc15b3f48e5a7272f37a09274f3", "rental_uris": {"ios": "https://dc.lft.to/lastmile_qr_scan", "android": "https://dc.lft.to/lastmile_qr_scan"}, "fusion_lon": 0.0, "lat": 38.902716166666664, "is_disabled": 0, "bike_id": "47c62dc15b3f48e5a7272f37a09274f3", "fusion_lat": 0.0, "is_reserved": 0, "lon": -77.035168}, {"type": "electric_scooter", "name": "6c0e04e6f2ec6f9f4f211201cc62f866", "rental_uris": {"ios": "https://dc.lft.to/lastmile_qr_scan", "android": "https://dc.lft.to/lastmile_qr_scan"}, "fusion_lon": 0.0, "lat": 38.898278, "is_disabled": 0, "bike_id": "6c0e04e6f2ec6f9f4f211201cc62f866", "fusion_lat": 0.0, "is_reserved": 0, "lon": -77.00745666666667}, {"type": "electric_scooter", "name": "cf8b195ea6e4cf77756bcefc9ee91384", "rental_uris": {"ios": "https://dc.lft.to/lastmile_qr_scan", "android": "https://dc.lft.to/lastmile_qr_scan"}, "fusion_lon": 0.0, "lat": 38.892235166666666, "is_disabled": 0, "bike_id": "cf8b195ea6e4cf77756bcefc9ee91384", "fusion_lat": 0.0, "is_reserved": 0, "lon": -77.03339016666666}, {"type": "electric_scooter", "name": "3f0553a6b5f0853ff382ac08c12c1409", "rental_uris": {"ios": "https://dc.lft.to/lastmile_qr_scan", "android": "https://dc.lft.to/lastmile_qr_scan"}, "fusion_lon": 0.0, "lat": 38.90154033333334, "is_disabled": 0, "bike_id": "3f0553a6b5f0853ff382ac08c12c1409", "fusion_lat": 0.0, "is_reserved": 0, "lon": -77.01335433333334}, {"type": "electric_scooter", "name": "0bcdbf9b5e5ade59d2cdf4ecd4f03bf7", "rental_uris": {"ios": "https://dc.lft.to/lastmile_qr_scan", "android": "https://dc.lft.to/lastmile_qr_scan"}, "fusion_lon": 0.0, "lat": 38.91233283333333, "is_disabled": 0, "bike_id": "0bcdbf9b5e5ade59d2cdf4ecd4f03bf7", "fusion_lat": 0.0, "is_reserved": 0, "lon": -76.98787233333333}, {"type": "electric_scooter", "name": "cac1a270ca7dfa64185e6f6af9e13d10", "rental_uris": {"ios": "https://dc.lft.to/lastmile_qr_scan", "android": "https://dc.lft.to/lastmile_qr_scan"}, "fusion_lon": 0.0, "lat": 38.9297395, "is_disabled": 0, "bike_id": "cac1a270ca7dfa64185e6f6af9e13d10", "fusion_lat": 0.0, "is_reserved": 0, "lon": -77.05502916666667}, {"type": "electric_scooter", "name": "a23502f9bd05604396b8352f34daf382", "rental_uris": {"ios": "https://dc.lft.to/lastmile_qr_scan", "android": "https://dc.lft.to/lastmile_qr_scan"}, "fusion_lon": 0.0, "lat": 38.89222566666667, "is_disabled": 0, "bike_id": "a23502f9bd05604396b8352f34daf382", "fusion_lat": 0.0, "is_reserved": 0, "lon": -77.04376633333334}, {"type": "electric_bike", "name": "476107d93dbd950bc153c6b257e91758", "rental_uris": {"ios": "https://dc.lft.to/lastmile_qr_scan", "android": "https://dc.lft.to/lastmile_qr_scan"}, "fusion_lon": 0.0, "lat": 38.859002333333336, "is_disabled": 0, "bike_id": "476107d93dbd950bc153c6b257e91758", "fusion_lat": 0.0, "is_reserved": 0, "lon": -77.09542233333333}, {"type": "electric_scooter", "name": "a55cf4230638705adb7b2bba776da673", "rental_uris": {"ios": "https://dc.lft.to/lastmile_qr_scan", "android": "https://dc.lft.to/lastmile_qr_scan"}, "fusion_lon": 0.0, "lat": 38.91327966666667, "is_disabled": 0, "bike_id": "a55cf4230638705adb7b2bba776da673", "fusion_lat": 0.0, "is_reserved": 0, "lon": -77.031747}, {"type": "electric_scooter", "name": "a06b808ae677dfa63b43cfeb284af0ee", "rental_uris": {"ios": "https://dc.lft.to/lastmile_qr_scan", "android": "https://dc.lft.to/lastmile_qr_scan"}, "fusion_lon": 0.0, "lat": 38.936083333333336, "is_disabled": 0, "bike_id": "a06b808ae677dfa63b43cfeb284af0ee", "fusion_lat": 0.0, "is_reserved": 0, "lon": -77.058575}, {"type": "electric_scooter", "name": "402fcad2a663f1090da9d59703fff3db", "rental_uris": {"ios": "https://dc.lft.to/lastmile_qr_scan", "android": "https://dc.lft.to/lastmile_qr_scan"}, "fusion_lon": 0.0, "lat": 38.865016833333335, "is_disabled": 0, "bike_id": "402fcad2a663f1090da9d59703fff3db", "fusion_lat": 0.0, "is_reserved": 0, "lon": -76.99001616666666}, {"type": "electric_scooter", "name": "956b7d26deb55b55159441bb6b8daf6b", "rental_uris": {"ios": "https://dc.lft.to/lastmile_qr_scan", "android": "https://dc.lft.to/lastmile_qr_scan"}, "fusion_lon": 0.0, "lat": 38.89790166666667, "is_disabled": 0, "bike_id": "956b7d26deb55b55159441bb6b8daf6b", "fusion_lat": 0.0, "is_reserved": 0, "lon": -76.93117816666667}, {"type": "electric_scooter", "name": "baabe0316b1b7abacf2a96db47e25c5e", "rental_uris": {"ios": "https://dc.lft.to/lastmile_qr_scan", "android": "https://dc.lft.to/lastmile_qr_scan"}, "fusion_lon": 0.0, "lat": 38.915647, "is_disabled": 0, "bike_id": "baabe0316b1b7abacf2a96db47e25c5e", "fusion_lat": 0.0, "is_reserved": 0, "lon": -77.02356283333333}, {"type": "electric_scooter", "name": "8e991e27f23096a1bb696034a76044ea", "rental_uris": {"ios": "https://dc.lft.to/lastmile_qr_scan", "android": "https://dc.lft.to/lastmile_qr_scan"}, "fusion_lon": 0.0, "lat": 38.91109866666667, "is_disabled": 0, "bike_id": "8e991e27f23096a1bb696034a76044ea", "fusion_lat": 0.0, "is_reserved": 0, "lon": -77.03830183333334}, {"type": "electric_scooter", "name": "ea3aa3147201f2ed9ed0577db0262a11", "rental_uris": {"ios": "https://dc.lft.to/lastmile_qr_scan", "android": "https://dc.lft.to/lastmile_qr_scan"}, "fusion_lon": 0.0, "lat": 38.919209333333335, "is_disabled": 0, "bike_id": "ea3aa3147201f2ed9ed0577db0262a11", "fusion_lat": 0.0, "is_reserved": 0, "lon": -77.03179466666667}, {"type": "electric_scooter", "name": "726f822e18b5d960a897937cfc651903", "rental_uris": {"ios": "https://dc.lft.to/lastmile_qr_scan", "android": "https://dc.lft.to/lastmile_qr_scan"}, "fusion_lon": 0.0, "lat": 38.914595166666665, "is_disabled": 0, "bike_id": "726f822e18b5d960a897937cfc651903", "fusion_lat": 0.0, "is_reserved": 0, "lon": -77.046362}, {"type": "electric_scooter", "name": "dd9deaa7d2d04126f2ea88a4158cd75e", "rental_uris": {"ios": "https://dc.lft.to/lastmile_qr_scan", "android": "https://dc.lft.to/lastmile_qr_scan"}, "fusion_lon": 0.0, "lat": 38.90267133333333, "is_disabled": 0, "bike_id": "dd9deaa7d2d04126f2ea88a4158cd75e", "fusion_lat": 0.0, "is_reserved": 0, "lon": -77.05320933333333}, {"type": "electric_scooter", "name": "8953fd6729f591c0d60aba5dcab99b88", "rental_uris": {"ios": "https://dc.lft.to/lastmile_qr_scan", "android": "https://dc.lft.to/lastmile_qr_scan"}, "fusion_lon": 0.0, "lat": 38.9084765, "is_disabled": 0, "bike_id": "8953fd6729f591c0d60aba5dcab99b88", "fusion_lat": 0.0, "is_reserved": 0, "lon": -76.99799933333334}, {"type": "electric_scooter", "name": "91ae6f89eb1bdcc189041b56418f9c7d", "rental_uris": {"ios": "https://dc.lft.to/lastmile_qr_scan", "android": "https://dc.lft.to/lastmile_qr_scan"}, "fusion_lon": 0.0, "lat": 38.90662, "is_disabled": 0, "bike_id": "91ae6f89eb1bdcc189041b56418f9c7d", "fusion_lat": 0.0, "is_reserved": 0, "lon": -77.07177166666666}, {"type": "electric_scooter", "name": "1d0b9f4358f2234bd942f72ca5deb0d1", "rental_uris": {"ios": "https://dc.lft.to/lastmile_qr_scan", "android": "https://dc.lft.to/lastmile_qr_scan"}, "fusion_lon": 0.0, "lat": 38.912993166666666, "is_disabled": 0, "bike_id": "1d0b9f4358f2234bd942f72ca5deb0d1", "fusion_lat": 0.0, "is_reserved": 0, "lon": -77.03186033333333}, {"type": "electric_scooter", "name": "4dc37b26bed5fb70991339e2881544fe", "rental_uris": {"ios": "https://dc.lft.to/lastmile_qr_scan", "android": "https://dc.lft.to/lastmile_qr_scan"}, "fusion_lon": 0.0, "lat": 38.88745133333333, "is_disabled": 0, "bike_id": "4dc37b26bed5fb70991339e2881544fe", "fusion_lat": 0.0, "is_reserved": 0, "lon": -77.0212205}, {"type": "electric_scooter", "name": "df1888d01ed179cdeb8942ea4ec57f0a", "rental_uris": {"ios": "https://dc.lft.to/lastmile_qr_scan", "android": "https://dc.lft.to/lastmile_qr_scan"}, "fusion_lon": 0.0, "lat": 38.917137, "is_disabled": 0, "bike_id": "df1888d01ed179cdeb8942ea4ec57f0a", "fusion_lat": 0.0, "is_reserved": 0, "lon": -77.008867}, {"type": "electric_bike", "name": "4f79a55919b965d99d5c3cc28303dde8", "rental_uris": {"ios": "https://dc.lft.to/lastmile_qr_scan", "android": "https://dc.lft.to/lastmile_qr_scan"}, "fusion_lon": 0.0, "lat": 38.95630766666667, "is_disabled": 0, "bike_id": "4f79a55919b965d99d5c3cc28303dde8", "fusion_lat": 0.0, "is_reserved": 0, "lon": -77.02319883333334}, {"type": "electric_scooter", "name": "6a21f986aab618cf45bdc89e9d437ac4", "rental_uris": {"ios": "https://dc.lft.to/lastmile_qr_scan", "android": "https://dc.lft.to/lastmile_qr_scan"}, "fusion_lon": 0.0, "lat": 38.91822033333333, "is_disabled": 0, "bike_id": "6a21f986aab618cf45bdc89e9d437ac4", "fusion_lat": 0.0, "is_reserved": 0, "lon": -77.0417225}, {"type": "electric_scooter", "name": "ab2feca93de264fe9e60748111ce732d", "rental_uris": {"ios": "https://dc.lft.to/lastmile_qr_scan", "android": "https://dc.lft.to/lastmile_qr_scan"}, "fusion_lon": 0.0, "lat": 38.92066616666666, "is_disabled": 0, "bike_id": "ab2feca93de264fe9e60748111ce732d", "fusion_lat": 0.0, "is_reserved": 0, "lon": -77.02462516666667}, {"type": "electric_scooter", "name": "b2ea41755107af429898e7113831b8c4", "rental_uris": {"ios": "https://dc.lft.to/lastmile_qr_scan", "android": "https://dc.lft.to/lastmile_qr_scan"}, "fusion_lon": 0.0, "lat": 38.8779045, "is_disabled": 0, "bike_id": "b2ea41755107af429898e7113831b8c4", "fusion_lat": 0.0, "is_reserved": 0, "lon": -77.00123433333333}, {"type": "electric_scooter", "name": "d90af534f38070135ae0ce091a6768a8", "rental_uris": {"ios": "https://dc.lft.to/lastmile_qr_scan", "android": "https://dc.lft.to/lastmile_qr_scan"}, "fusion_lon": 0.0, "lat": 38.90139966666667, "is_disabled": 0, "bike_id": "d90af534f38070135ae0ce091a6768a8", "fusion_lat": 0.0, "is_reserved": 0, "lon": -77.06076616666667}, {"type": "electric_scooter", "name": "d4d12331e119836c708a87dc82805861", "rental_uris": {"ios": "https://dc.lft.to/lastmile_qr_scan", "android": "https://dc.lft.to/lastmile_qr_scan"}, "fusion_lon": 0.0, "lat": 38.90391116666667, "is_disabled": 0, "bike_id": "d4d12331e119836c708a87dc82805861", "fusion_lat": 0.0, "is_reserved": 0, "lon": -77.031747}, {"type": "electric_bike", "name": "091c51075099e397c545ca90621ccdc2", "rental_uris": {"ios": "https://dc.lft.to/lastmile_qr_scan", "android": "https://dc.lft.to/lastmile_qr_scan"}, "fusion_lon": 0.0, "lat": 38.88404, "is_disabled": 0, "bike_id": "091c51075099e397c545ca90621ccdc2", "fusion_lat": 0.0, "is_reserved": 0, "lon": -76.9541575}, {"type": "electric_scooter", "name": "bbcda43988fb0ac402b0fb4c4a6bdbd3", "rental_uris": {"ios": "https://dc.lft.to/lastmile_qr_scan", "android": "https://dc.lft.to/lastmile_qr_scan"}, "fusion_lon": 0.0, "lat": 38.90570566666667, "is_disabled": 0, "bike_id": "bbcda43988fb0ac402b0fb4c4a6bdbd3", "fusion_lat": 0.0, "is_reserved": 0, "lon": -77.0039905}, {"type": "electric_bike", "name": "e05692bd5d61267c17c46db2ebacdeb3", "rental_uris": {"ios": "https://dc.lft.to/lastmile_qr_scan", "android": "https://dc.lft.to/lastmile_qr_scan"}, "fusion_lon": 0.0, "lat": 39.01076533333333, "is_disabled": 0, "bike_id": "e05692bd5d61267c17c46db2ebacdeb3", "fusion_lat": 0.0, "is_reserved": 0, "lon": -76.91065016666667}, {"type": "electric_scooter", "name": "67137bf70361009bedee189995a707fa", "rental_uris": {"ios": "https://dc.lft.to/lastmile_qr_scan", "android": "https://dc.lft.to/lastmile_qr_scan"}, "fusion_lon": 0.0, "lat": 38.91119666666667, "is_disabled": 0, "bike_id": "67137bf70361009bedee189995a707fa", "fusion_lat": 0.0, "is_reserved": 0, "lon": -77.03309016666667}, {"type": "electric_scooter", "name": "5115dbf311185dab858672c4ccda3109", "rental_uris": {"ios": "https://dc.lft.to/lastmile_qr_scan", "android": "https://dc.lft.to/lastmile_qr_scan"}, "fusion_lon": 0.0, "lat": 38.935071, "is_disabled": 0, "bike_id": "5115dbf311185dab858672c4ccda3109", "fusion_lat": 0.0, "is_reserved": 0, "lon": -77.05831716666667}, {"type": "electric_scooter", "name": "b31cd47bd6407e9ac325b7701bc18a06", "rental_uris": {"ios": "https://dc.lft.to/lastmile_qr_scan", "android": "https://dc.lft.to/lastmile_qr_scan"}, "fusion_lon": 0.0, "lat": 38.89841366666667, "is_disabled": 0, "bike_id": "b31cd47bd6407e9ac325b7701bc18a06", "fusion_lat": 0.0, "is_reserved": 0, "lon": -77.01265683333334}, {"type": "electric_scooter", "name": "87500776c587ab9b23847facc9665689", "rental_uris": {"ios": "https://dc.lft.to/lastmile_qr_scan", "android": "https://dc.lft.to/lastmile_qr_scan"}, "fusion_lon": 0.0, "lat": 38.933162333333335, "is_disabled": 0, "bike_id": "87500776c587ab9b23847facc9665689", "fusion_lat": 0.0, "is_reserved": 0, "lon": -77.03416533333333}, {"type": "electric_scooter", "name": "8488373553ea57271d012ee4705188ce", "rental_uris": {"ios": "https://dc.lft.to/lastmile_qr_scan", "android": "https://dc.lft.to/lastmile_qr_scan"}, "fusion_lon": 0.0, "lat": 38.93247516666667, "is_disabled": 0, "bike_id": "8488373553ea57271d012ee4705188ce", "fusion_lat": 0.0, "is_reserved": 0, "lon": -77.032695}, {"type": "electric_scooter", "name": "1035095950e6ccca519093c964f598c9", "rental_uris": {"ios": "https://dc.lft.to/lastmile_qr_scan", "android": "https://dc.lft.to/lastmile_qr_scan"}, "fusion_lon": 0.0, "lat": 38.905596, "is_disabled": 0, "bike_id": "1035095950e6ccca519093c964f598c9", "fusion_lat": 0.0, "is_reserved": 0, "lon": -77.00730966666667}, {"type": "electric_bike", "name": "03d911db49c10a03be6d6d1dcb807f09", "rental_uris": {"ios": "https://dc.lft.to/lastmile_qr_scan", "android": "https://dc.lft.to/lastmile_qr_scan"}, "fusion_lon": 0.0, "lat": 38.89726016666667, "is_disabled": 0, "bike_id": "03d911db49c10a03be6d6d1dcb807f09", "fusion_lat": 0.0, "is_reserved": 0, "lon": -76.97344083333333}, {"type": "electric_scooter", "name": "1c4d411668abc9e92c76c7510c06e547", "rental_uris": {"ios": "https://dc.lft.to/lastmile_qr_scan", "android": "https://dc.lft.to/lastmile_qr_scan"}, "fusion_lon": 0.0, "lat": 38.928593, "is_disabled": 0, "bike_id": "1c4d411668abc9e92c76c7510c06e547", "fusion_lat": 0.0, "is_reserved": 0, "lon": -77.0328435}, {"type": "electric_scooter", "name": "0cb6248d7871691b7e303bfe0fd7b0f2", "rental_uris": {"ios": "https://dc.lft.to/lastmile_qr_scan", "android": "https://dc.lft.to/lastmile_qr_scan"}, "fusion_lon": 0.0, "lat": 38.93245616666667, "is_disabled": 0, "bike_id": "0cb6248d7871691b7e303bfe0fd7b0f2", "fusion_lat": 0.0, "is_reserved": 0, "lon": -77.03871533333333}, {"type": "electric_scooter", "name": "f26a7c94c1b0cae5571cd99753969db7", "rental_uris": {"ios": "https://dc.lft.to/lastmile_qr_scan", "android": "https://dc.lft.to/lastmile_qr_scan"}, "fusion_lon": 0.0, "lat": 38.876794833333335, "is_disabled": 0, "bike_id": "f26a7c94c1b0cae5571cd99753969db7", "fusion_lat": 0.0, "is_reserved": 0, "lon": -77.00751816666667}, {"type": "electric_scooter", "name": "af72cb79316f61460fe48ee25e7c4cfa", "rental_uris": {"ios": "https://dc.lft.to/lastmile_qr_scan", "android": "https://dc.lft.to/lastmile_qr_scan"}, "fusion_lon": 0.0, "lat": 38.89837266666667, "is_disabled": 0, "bike_id": "af72cb79316f61460fe48ee25e7c4cfa", "fusion_lat": 0.0, "is_reserved": 0, "lon": -77.01877066666667}, {"type": "electric_scooter", "name": "dbdfe22cfd0df03f725b0995cf10ad74", "rental_uris": {"ios": "https://dc.lft.to/lastmile_qr_scan", "android": "https://dc.lft.to/lastmile_qr_scan"}, "fusion_lon": 0.0, "lat": 38.900286, "is_disabled": 0, "bike_id": "dbdfe22cfd0df03f725b0995cf10ad74", "fusion_lat": 0.0, "is_reserved": 0, "lon": -76.98725133333333}, {"type": "electric_scooter", "name": "155022515a11b7fbd02b646da91b535f", "rental_uris": {"ios": "https://dc.lft.to/lastmile_qr_scan", "android": "https://dc.lft.to/lastmile_qr_scan"}, "fusion_lon": 0.0, "lat": 38.91042483333333, "is_disabled": 0, "bike_id": "155022515a11b7fbd02b646da91b535f", "fusion_lat": 0.0, "is_reserved": 0, "lon": -77.01028616666666}, {"type": "electric_scooter", "name": "e84aef3bff2113161a5f51a4d8612c40", "rental_uris": {"ios": "https://dc.lft.to/lastmile_qr_scan", "android": "https://dc.lft.to/lastmile_qr_scan"}, "fusion_lon": 0.0, "lat": 38.912309666666665, "is_disabled": 0, "bike_id": "e84aef3bff2113161a5f51a4d8612c40", "fusion_lat": 0.0, "is_reserved": 0, "lon": -77.04871966666667}, {"type": "electric_scooter", "name": "844799b6debfe32e2ee636d378ea7b25", "rental_uris": {"ios": "https://dc.lft.to/lastmile_qr_scan", "android": "https://dc.lft.to/lastmile_qr_scan"}, "fusion_lon": 0.0, "lat": 38.91682266666667, "is_disabled": 0, "bike_id": "844799b6debfe32e2ee636d378ea7b25", "fusion_lat": 0.0, "is_reserved": 0, "lon": -77.0295605}, {"type": "electric_scooter", "name": "57bbb80e0f46719041300b9e0e100982", "rental_uris": {"ios": "https://dc.lft.to/lastmile_qr_scan", "android": "https://dc.lft.to/lastmile_qr_scan"}, "fusion_lon": 0.0, "lat": 38.930803166666664, "is_disabled": 0, "bike_id": "57bbb80e0f46719041300b9e0e100982", "fusion_lat": 0.0, "is_reserved": 0, "lon": -77.02805233333333}, {"type": "electric_scooter", "name": "5d99d6cb869c9dba7c7006f21c29c3d9", "rental_uris": {"ios": "https://dc.lft.to/lastmile_qr_scan", "android": "https://dc.lft.to/lastmile_qr_scan"}, "fusion_lon": 0.0, "lat": 38.92467466666667, "is_disabled": 0, "bike_id": "5d99d6cb869c9dba7c7006f21c29c3d9", "fusion_lat": 0.0, "is_reserved": 0, "lon": -77.02205833333333}, {"type": "electric_scooter", "name": "0e3c1e3f92e39425b2481bac2860419d", "rental_uris": {"ios": "https://dc.lft.to/lastmile_qr_scan", "android": "https://dc.lft.to/lastmile_qr_scan"}, "fusion_lon": 0.0, "lat": 38.910674666666665, "is_disabled": 0, "bike_id": "0e3c1e3f92e39425b2481bac2860419d", "fusion_lat": 0.0, "is_reserved": 0, "lon": -77.00388766666667}, {"type": "electric_bike", "name": "73d7c24793c36d76c94adcb03c9ba3a6", "rental_uris": {"ios": "https://dc.lft.to/lastmile_qr_scan", "android": "https://dc.lft.to/lastmile_qr_scan"}, "fusion_lon": 0.0, "lat": 38.8576865, "is_disabled": 0, "bike_id": "73d7c24793c36d76c94adcb03c9ba3a6", "fusion_lat": 0.0, "is_reserved": 0, "lon": -76.98768816666667}, {"type": "electric_scooter", "name": "d726e05590346c3eb75e192c447fa6e6", "rental_uris": {"ios": "https://dc.lft.to/lastmile_qr_scan", "android": "https://dc.lft.to/lastmile_qr_scan"}, "fusion_lon": 0.0, "lat": 38.91693583333333, "is_disabled": 0, "bike_id": "d726e05590346c3eb75e192c447fa6e6", "fusion_lat": 0.0, "is_reserved": 0, "lon": -77.04109316666667}, {"type": "electric_scooter", "name": "875fedb7b2d08efc21c8a313cd21795a", "rental_uris": {"ios": "https://dc.lft.to/lastmile_qr_scan", "android": "https://dc.lft.to/lastmile_qr_scan"}, "fusion_lon": 0.0, "lat": 38.886956, "is_disabled": 0, "bike_id": "875fedb7b2d08efc21c8a313cd21795a", "fusion_lat": 0.0, "is_reserved": 0, "lon": -76.97635266666667}, {"type": "electric_scooter", "name": "929d46efc8b6d7d67124bb3bf3e888d3", "rental_uris": {"ios": "https://dc.lft.to/lastmile_qr_scan", "android": "https://dc.lft.to/lastmile_qr_scan"}, "fusion_lon": 0.0, "lat": 38.917032666666664, "is_disabled": 0, "bike_id": "929d46efc8b6d7d67124bb3bf3e888d3", "fusion_lat": 0.0, "is_reserved": 0, "lon": -77.04172966666667}, {"type": "electric_scooter", "name": "260a9f669c5eebb0f0206e4f0294a936", "rental_uris": {"ios": "https://dc.lft.to/lastmile_qr_scan", "android": "https://dc.lft.to/lastmile_qr_scan"}, "fusion_lon": 0.0, "lat": 38.929458833333335, "is_disabled": 0, "bike_id": "260a9f669c5eebb0f0206e4f0294a936", "fusion_lat": 0.0, "is_reserved": 0, "lon": -77.01887083333334}, {"type": "electric_scooter", "name": "9981018cc7aae96daccb38f6d28a7b48", "rental_uris": {"ios": "https://dc.lft.to/lastmile_qr_scan", "android": "https://dc.lft.to/lastmile_qr_scan"}, "fusion_lon": 0.0, "lat": 38.903914, "is_disabled": 0, "bike_id": "9981018cc7aae96daccb38f6d28a7b48", "fusion_lat": 0.0, "is_reserved": 0, "lon": -77.0317395}, {"type": "electric_scooter", "name": "efc9707c16189cdae66e32c31af40d1c", "rental_uris": {"ios": "https://dc.lft.to/lastmile_qr_scan", "android": "https://dc.lft.to/lastmile_qr_scan"}, "fusion_lon": 0.0, "lat": 38.90501033333334, "is_disabled": 0, "bike_id": "efc9707c16189cdae66e32c31af40d1c", "fusion_lat": 0.0, "is_reserved": 0, "lon": -77.04355483333333}, {"type": "electric_scooter", "name": "abe39bb28aefe1b20ca8992a595b152f", "rental_uris": {"ios": "https://dc.lft.to/lastmile_qr_scan", "android": "https://dc.lft.to/lastmile_qr_scan"}, "fusion_lon": 0.0, "lat": 38.905651, "is_disabled": 0, "bike_id": "abe39bb28aefe1b20ca8992a595b152f", "fusion_lat": 0.0, "is_reserved": 0, "lon": -77.024118}, {"type": "electric_scooter", "name": "57ab28a2714c1df402a60b708e4a9206", "rental_uris": {"ios": "https://dc.lft.to/lastmile_qr_scan", "android": "https://dc.lft.to/lastmile_qr_scan"}, "fusion_lon": 0.0, "lat": 38.9002925, "is_disabled": 0, "bike_id": "57ab28a2714c1df402a60b708e4a9206", "fusion_lat": 0.0, "is_reserved": 0, "lon": -77.04035666666667}, {"type": "electric_bike", "name": "9816205f7ca9ac7012448b57ef42de96", "rental_uris": {"ios": "https://dc.lft.to/lastmile_qr_scan", "android": "https://dc.lft.to/lastmile_qr_scan"}, "fusion_lon": 0.0, "lat": 38.97058083333334, "is_disabled": 0, "bike_id": "9816205f7ca9ac7012448b57ef42de96", "fusion_lat": 0.0, "is_reserved": 0, "lon": -76.93614316666667}, {"type": "electric_scooter", "name": "c0e90841a29a70a6c3e2b690b617003a", "rental_uris": {"ios": "https://dc.lft.to/lastmile_qr_scan", "android": "https://dc.lft.to/lastmile_qr_scan"}, "fusion_lon": 0.0, "lat": 38.89726683333333, "is_disabled": 0, "bike_id": "c0e90841a29a70a6c3e2b690b617003a", "fusion_lat": 0.0, "is_reserved": 0, "lon": -77.05523933333333}, {"type": "electric_scooter", "name": "b2169a4384c8210818fea2507b2cdfb7", "rental_uris": {"ios": "https://dc.lft.to/lastmile_qr_scan", "android": "https://dc.lft.to/lastmile_qr_scan"}, "fusion_lon": 0.0, "lat": 38.902680833333335, "is_disabled": 0, "bike_id": "b2169a4384c8210818fea2507b2cdfb7", "fusion_lat": 0.0, "is_reserved": 0, "lon": -77.03040433333334}, {"type": "electric_scooter", "name": "843e35dbfa862715696ea818ca2202a9", "rental_uris": {"ios": "https://dc.lft.to/lastmile_qr_scan", "android": "https://dc.lft.to/lastmile_qr_scan"}, "fusion_lon": 0.0, "lat": 38.91885216666667, "is_disabled": 0, "bike_id": "843e35dbfa862715696ea818ca2202a9", "fusion_lat": 0.0, "is_reserved": 0, "lon": -77.00343983333333}, {"type": "electric_scooter", "name": "9af45ad4126612da06b9d3bc9b50a665", "rental_uris": {"ios": "https://dc.lft.to/lastmile_qr_scan", "android": "https://dc.lft.to/lastmile_qr_scan"}, "fusion_lon": 0.0, "lat": 38.879533, "is_disabled": 0, "bike_id": "9af45ad4126612da06b9d3bc9b50a665", "fusion_lat": 0.0, "is_reserved": 0, "lon": -77.0236895}, {"type": "electric_scooter", "name": "2c5bedb4f1ea2e7bc12e81c57902dd8b", "rental_uris": {"ios": "https://dc.lft.to/lastmile_qr_scan", "android": "https://dc.lft.to/lastmile_qr_scan"}, "fusion_lon": 0.0, "lat": 38.92366966666667, "is_disabled": 0, "bike_id": "2c5bedb4f1ea2e7bc12e81c57902dd8b", "fusion_lat": 0.0, "is_reserved": 0, "lon": -77.02124233333333}, {"type": "electric_scooter", "name": "18c171e4da7b800b702b574d94b9045c", "rental_uris": {"ios": "https://dc.lft.to/lastmile_qr_scan", "android": "https://dc.lft.to/lastmile_qr_scan"}, "fusion_lon": 0.0, "lat": 38.925829, "is_disabled": 0, "bike_id": "18c171e4da7b800b702b574d94b9045c", "fusion_lat": 0.0, "is_reserved": 0, "lon": -77.03780483333334}, {"type": "electric_bike", "name": "0572878aafb0074be5f2a124563bcb70", "rental_uris": {"ios": "https://dc.lft.to/lastmile_qr_scan", "android": "https://dc.lft.to/lastmile_qr_scan"}, "fusion_lon": 0.0, "lat": 38.937735333333336, "is_disabled": 0, "bike_id": "0572878aafb0074be5f2a124563bcb70", "fusion_lat": 0.0, "is_reserved": 0, "lon": -77.01913083333334}, {"type": "electric_scooter", "name": "2972f6429d525101c08a8a8374554a9b", "rental_uris": {"ios": "https://dc.lft.to/lastmile_qr_scan", "android": "https://dc.lft.to/lastmile_qr_scan"}, "fusion_lon": 0.0, "lat": 38.89728783333333, "is_disabled": 0, "bike_id": "2972f6429d525101c08a8a8374554a9b", "fusion_lat": 0.0, "is_reserved": 0, "lon": -77.00992466666666}, {"type": "electric_scooter", "name": "5be5d3cb7c5cb517515d5d6b0cbb55a5", "rental_uris": {"ios": "https://dc.lft.to/lastmile_qr_scan", "android": "https://dc.lft.to/lastmile_qr_scan"}, "fusion_lon": 0.0, "lat": 38.932822, "is_disabled": 0, "bike_id": "5be5d3cb7c5cb517515d5d6b0cbb55a5", "fusion_lat": 0.0, "is_reserved": 0, "lon": -77.02543416666667}, {"type": "electric_scooter", "name": "7155b18d1e39fe1a31a7725147d8d822", "rental_uris": {"ios": "https://dc.lft.to/lastmile_qr_scan", "android": "https://dc.lft.to/lastmile_qr_scan"}, "fusion_lon": 0.0, "lat": 38.936628166666665, "is_disabled": 0, "bike_id": "7155b18d1e39fe1a31a7725147d8d822", "fusion_lat": 0.0, "is_reserved": 0, "lon": -77.03634883333334}, {"type": "electric_scooter", "name": "54bb755e71683330a7eed740f1593b99", "rental_uris": {"ios": "https://dc.lft.to/lastmile_qr_scan", "android": "https://dc.lft.to/lastmile_qr_scan"}, "fusion_lon": 0.0, "lat": 38.922838166666665, "is_disabled": 0, "bike_id": "54bb755e71683330a7eed740f1593b99", "fusion_lat": 0.0, "is_reserved": 0, "lon": -77.032009}, {"type": "electric_scooter", "name": "3a823ec4d62c60d7ae15b154325413b2", "rental_uris": {"ios": "https://dc.lft.to/lastmile_qr_scan", "android": "https://dc.lft.to/lastmile_qr_scan"}, "fusion_lon": 0.0, "lat": 38.929526833333334, "is_disabled": 0, "bike_id": "3a823ec4d62c60d7ae15b154325413b2", "fusion_lat": 0.0, "is_reserved": 0, "lon": -77.018423}, {"type": "electric_scooter", "name": "6d236dda033650b8ab1d76bb9282884e", "rental_uris": {"ios": "https://dc.lft.to/lastmile_qr_scan", "android": "https://dc.lft.to/lastmile_qr_scan"}, "fusion_lon": 0.0, "lat": 38.9236585, "is_disabled": 0, "bike_id": "6d236dda033650b8ab1d76bb9282884e", "fusion_lat": 0.0, "is_reserved": 0, "lon": -77.019558}, {"type": "electric_scooter", "name": "ee9d78fd14eb78e9d5268cb5662c410d", "rental_uris": {"ios": "https://dc.lft.to/lastmile_qr_scan", "android": "https://dc.lft.to/lastmile_qr_scan"}, "fusion_lon": 0.0, "lat": 38.935363, "is_disabled": 0, "bike_id": "ee9d78fd14eb78e9d5268cb5662c410d", "fusion_lat": 0.0, "is_reserved": 0, "lon": -77.02350266666667}, {"type": "electric_scooter", "name": "051897e15662babdd71574758ccd84b5", "rental_uris": {"ios": "https://dc.lft.to/lastmile_qr_scan", "android": "https://dc.lft.to/lastmile_qr_scan"}, "fusion_lon": 0.0, "lat": 38.92320516666667, "is_disabled": 0, "bike_id": "051897e15662babdd71574758ccd84b5", "fusion_lat": 0.0, "is_reserved": 0, "lon": -77.02968833333334}, {"type": "electric_scooter", "name": "af099852f8a7e1dda1908f530bb827b6", "rental_uris": {"ios": "https://dc.lft.to/lastmile_qr_scan", "android": "https://dc.lft.to/lastmile_qr_scan"}, "fusion_lon": 0.0, "lat": 38.897423333333336, "is_disabled": 0, "bike_id": "af099852f8a7e1dda1908f530bb827b6", "fusion_lat": 0.0, "is_reserved": 0, "lon": -77.04550066666667}, {"type": "electric_bike", "name": "8d126aa61a6d4d5d250f8b63d53be143", "rental_uris": {"ios": "https://dc.lft.to/lastmile_qr_scan", "android": "https://dc.lft.to/lastmile_qr_scan"}, "fusion_lon": 0.0, "lat": 38.99055666666667, "is_disabled": 0, "bike_id": "8d126aa61a6d4d5d250f8b63d53be143", "fusion_lat": 0.0, "is_reserved": 0, "lon": -77.03866033333334}, {"type": "electric_scooter", "name": "091230e85da9bcc5a63090f816729c63", "rental_uris": {"ios": "https://dc.lft.to/lastmile_qr_scan", "android": "https://dc.lft.to/lastmile_qr_scan"}, "fusion_lon": 0.0, "lat": 38.886381666666665, "is_disabled": 0, "bike_id": "091230e85da9bcc5a63090f816729c63", "fusion_lat": 0.0, "is_reserved": 0, "lon": -77.01491433333334}, {"type": "electric_bike", "name": "39926560c6ccb8bcf65bea805f2b8cd2", "rental_uris": {"ios": "https://dc.lft.to/lastmile_qr_scan", "android": "https://dc.lft.to/lastmile_qr_scan"}, "fusion_lon": 0.0, "lat": 38.835474166666664, "is_disabled": 0, "bike_id": "39926560c6ccb8bcf65bea805f2b8cd2", "fusion_lat": 0.0, "is_reserved": 0, "lon": -76.98728083333333}, {"type": "electric_scooter", "name": "bdcdfdee161c0b8bdb961a0de4cdaad4", "rental_uris": {"ios": "https://dc.lft.to/lastmile_qr_scan", "android": "https://dc.lft.to/lastmile_qr_scan"}, "fusion_lon": 0.0, "lat": 38.84394833333333, "is_disabled": 0, "bike_id": "bdcdfdee161c0b8bdb961a0de4cdaad4", "fusion_lat": 0.0, "is_reserved": 0, "lon": -76.989546}, {"type": "electric_scooter", "name": "eb51192d2776f848e3c6304a4b024a94", "rental_uris": {"ios": "https://dc.lft.to/lastmile_qr_scan", "android": "https://dc.lft.to/lastmile_qr_scan"}, "fusion_lon": 0.0, "lat": 38.91662616666667, "is_disabled": 0, "bike_id": "eb51192d2776f848e3c6304a4b024a94", "fusion_lat": 0.0, "is_reserved": 0, "lon": -77.02699233333334}, {"type": "electric_scooter", "name": "77791dfa37e5e4c320efacfaeb928050", "rental_uris": {"ios": "https://dc.lft.to/lastmile_qr_scan", "android": "https://dc.lft.to/lastmile_qr_scan"}, "fusion_lon": 0.0, "lat": 38.927567, "is_disabled": 0, "bike_id": "77791dfa37e5e4c320efacfaeb928050", "fusion_lat": 0.0, "is_reserved": 0, "lon": -77.03271783333334}, {"type": "electric_scooter", "name": "4343359ed39197db9f72dd5ee3517a57", "rental_uris": {"ios": "https://dc.lft.to/lastmile_qr_scan", "android": "https://dc.lft.to/lastmile_qr_scan"}, "fusion_lon": 0.0, "lat": 38.934295666666664, "is_disabled": 0, "bike_id": "4343359ed39197db9f72dd5ee3517a57", "fusion_lat": 0.0, "is_reserved": 0, "lon": -77.04001783333334}, {"type": "electric_scooter", "name": "6c2fb2a91d4d7b8ffee1d94935fb0f3d", "rental_uris": {"ios": "https://dc.lft.to/lastmile_qr_scan", "android": "https://dc.lft.to/lastmile_qr_scan"}, "fusion_lon": 0.0, "lat": 38.9078, "is_disabled": 0, "bike_id": "6c2fb2a91d4d7b8ffee1d94935fb0f3d", "fusion_lat": 0.0, "is_reserved": 0, "lon": -77.04218633333333}, {"type": "electric_scooter", "name": "344543ed82baae6951f83f54bdf52ae5", "rental_uris": {"ios": "https://dc.lft.to/lastmile_qr_scan", "android": "https://dc.lft.to/lastmile_qr_scan"}, "fusion_lon": 0.0, "lat": 38.928458166666665, "is_disabled": 0, "bike_id": "344543ed82baae6951f83f54bdf52ae5", "fusion_lat": 0.0, "is_reserved": 0, "lon": -77.03659616666667}, {"type": "electric_scooter", "name": "8e46594d1bb2cca97dbcd4b343cf01a9", "rental_uris": {"ios": "https://dc.lft.to/lastmile_qr_scan", "android": "https://dc.lft.to/lastmile_qr_scan"}, "fusion_lon": 0.0, "lat": 38.912439666666664, "is_disabled": 0, "bike_id": "8e46594d1bb2cca97dbcd4b343cf01a9", "fusion_lat": 0.0, "is_reserved": 0, "lon": -77.0450745}, {"type": "electric_bike", "name": "fa271ac7496427619657872348d7315e", "rental_uris": {"ios": "https://dc.lft.to/lastmile_qr_scan", "android": "https://dc.lft.to/lastmile_qr_scan"}, "fusion_lon": 0.0, "lat": 38.818977333333336, "is_disabled": 0, "bike_id": "fa271ac7496427619657872348d7315e", "fusion_lat": 0.0, "is_reserved": 0, "lon": -77.12876383333334}, {"type": "electric_scooter", "name": "3f6f60ed7fc400f554b969b5a17ccf7b", "rental_uris": {"ios": "https://dc.lft.to/lastmile_qr_scan", "android": "https://dc.lft.to/lastmile_qr_scan"}, "fusion_lon": 0.0, "lat": 38.911076666666666, "is_disabled": 0, "bike_id": "3f6f60ed7fc400f554b969b5a17ccf7b", "fusion_lat": 0.0, "is_reserved": 0, "lon": -77.04229666666667}, {"type": "electric_scooter", "name": "f3ee0eb1daad6869aa835dea4ad31d36", "rental_uris": {"ios": "https://dc.lft.to/lastmile_qr_scan", "android": "https://dc.lft.to/lastmile_qr_scan"}, "fusion_lon": 0.0, "lat": 38.877555, "is_disabled": 0, "bike_id": "f3ee0eb1daad6869aa835dea4ad31d36", "fusion_lat": 0.0, "is_reserved": 0, "lon": -77.00710133333334}, {"type": "electric_bike", "name": "d078502ccd3ef56f809947b9a1a5c52a", "rental_uris": {"ios": "https://dc.lft.to/lastmile_qr_scan", "android": "https://dc.lft.to/lastmile_qr_scan"}, "fusion_lon": 0.0, "lat": 38.87134866666667, "is_disabled": 0, "bike_id": "d078502ccd3ef56f809947b9a1a5c52a", "fusion_lat": 0.0, "is_reserved": 0, "lon": -77.100274}, {"type": "electric_scooter", "name": "3146e360d49b553c7719bd1e75c2f4ce", "rental_uris": {"ios": "https://dc.lft.to/lastmile_qr_scan", "android": "https://dc.lft.to/lastmile_qr_scan"}, "fusion_lon": 0.0, "lat": 38.920275, "is_disabled": 0, "bike_id": "3146e360d49b553c7719bd1e75c2f4ce", "fusion_lat": 0.0, "is_reserved": 0, "lon": -77.01286933333333}, {"type": "electric_scooter", "name": "e1439fe84e1a1b010c8dc1b2199d4564", "rental_uris": {"ios": "https://dc.lft.to/lastmile_qr_scan", "android": "https://dc.lft.to/lastmile_qr_scan"}, "fusion_lon": 0.0, "lat": 38.89222983333333, "is_disabled": 0, "bike_id": "e1439fe84e1a1b010c8dc1b2199d4564", "fusion_lat": 0.0, "is_reserved": 0, "lon": -77.04771783333334}, {"type": "electric_scooter", "name": "fc6d9123de8ff69930a51c59105b6c62", "rental_uris": {"ios": "https://dc.lft.to/lastmile_qr_scan", "android": "https://dc.lft.to/lastmile_qr_scan"}, "fusion_lon": 0.0, "lat": 38.92317633333333, "is_disabled": 0, "bike_id": "fc6d9123de8ff69930a51c59105b6c62", "fusion_lat": 0.0, "is_reserved": 0, "lon": -77.04185866666667}, {"type": "electric_scooter", "name": "f896f46037789632652ba48237015d2a", "rental_uris": {"ios": "https://dc.lft.to/lastmile_qr_scan", "android": "https://dc.lft.to/lastmile_qr_scan"}, "fusion_lon": 0.0, "lat": 38.8996725, "is_disabled": 0, "bike_id": "f896f46037789632652ba48237015d2a", "fusion_lat": 0.0, "is_reserved": 0, "lon": -77.04168216666666}, {"type": "electric_scooter", "name": "667da3c65a0906f7fe60f068e8767cd4", "rental_uris": {"ios": "https://dc.lft.to/lastmile_qr_scan", "android": "https://dc.lft.to/lastmile_qr_scan"}, "fusion_lon": 0.0, "lat": 38.89218733333333, "is_disabled": 0, "bike_id": "667da3c65a0906f7fe60f068e8767cd4", "fusion_lat": 0.0, "is_reserved": 0, "lon": -77.04515983333333}, {"type": "electric_scooter", "name": "c01fda342ab2441644c1efd2efd9bdac", "rental_uris": {"ios": "https://dc.lft.to/lastmile_qr_scan", "android": "https://dc.lft.to/lastmile_qr_scan"}, "fusion_lon": 0.0, "lat": 38.88254283333333, "is_disabled": 0, "bike_id": "c01fda342ab2441644c1efd2efd9bdac", "fusion_lat": 0.0, "is_reserved": 0, "lon": -76.99489}, {"type": "electric_scooter", "name": "ee8f18d6cfec5135a53495b7b229181c", "rental_uris": {"ios": "https://dc.lft.to/lastmile_qr_scan", "android": "https://dc.lft.to/lastmile_qr_scan"}, "fusion_lon": 0.0, "lat": 38.86556483333333, "is_disabled": 0, "bike_id": "ee8f18d6cfec5135a53495b7b229181c", "fusion_lat": 0.0, "is_reserved": 0, "lon": -76.98354466666666}, {"type": "electric_scooter", "name": "f935ae5c8ae27b35692d73fa422ecfe9", "rental_uris": {"ios": "https://dc.lft.to/lastmile_qr_scan", "android": "https://dc.lft.to/lastmile_qr_scan"}, "fusion_lon": 0.0, "lat": 38.911103, "is_disabled": 0, "bike_id": "f935ae5c8ae27b35692d73fa422ecfe9", "fusion_lat": 0.0, "is_reserved": 0, "lon": -77.03828516666667}, {"type": "electric_scooter", "name": "97ec8d11570fc9fbc874b4b3f735640b", "rental_uris": {"ios": "https://dc.lft.to/lastmile_qr_scan", "android": "https://dc.lft.to/lastmile_qr_scan"}, "fusion_lon": 0.0, "lat": 38.917044, "is_disabled": 0, "bike_id": "97ec8d11570fc9fbc874b4b3f735640b", "fusion_lat": 0.0, "is_reserved": 0, "lon": -77.0303685}, {"type": "electric_scooter", "name": "3c288e069b9a2ca415a4d83979a296c9", "rental_uris": {"ios": "https://dc.lft.to/lastmile_qr_scan", "android": "https://dc.lft.to/lastmile_qr_scan"}, "fusion_lon": 0.0, "lat": 38.92766366666667, "is_disabled": 0, "bike_id": "3c288e069b9a2ca415a4d83979a296c9", "fusion_lat": 0.0, "is_reserved": 0, "lon": -77.0267715}, {"type": "electric_scooter", "name": "9f3f02482022f2d7791e1560825b7701", "rental_uris": {"ios": "https://dc.lft.to/lastmile_qr_scan", "android": "https://dc.lft.to/lastmile_qr_scan"}, "fusion_lon": 0.0, "lat": 38.90136233333333, "is_disabled": 0, "bike_id": "9f3f02482022f2d7791e1560825b7701", "fusion_lat": 0.0, "is_reserved": 0, "lon": -77.035642}, {"type": "electric_scooter", "name": "fa21f70271d9478545fbed9720b914d2", "rental_uris": {"ios": "https://dc.lft.to/lastmile_qr_scan", "android": "https://dc.lft.to/lastmile_qr_scan"}, "fusion_lon": 0.0, "lat": 38.91332533333333, "is_disabled": 0, "bike_id": "fa21f70271d9478545fbed9720b914d2", "fusion_lat": 0.0, "is_reserved": 0, "lon": -77.0316775}, {"type": "electric_scooter", "name": "b6a11aafc60604fb5e85b02c756de21e", "rental_uris": {"ios": "https://dc.lft.to/lastmile_qr_scan", "android": "https://dc.lft.to/lastmile_qr_scan"}, "fusion_lon": 0.0, "lat": 38.94462433333333, "is_disabled": 0, "bike_id": "b6a11aafc60604fb5e85b02c756de21e", "fusion_lat": 0.0, "is_reserved": 0, "lon": -77.0065745}, {"type": "electric_scooter", "name": "650de40d8012a907eb63b9d930522e43", "rental_uris": {"ios": "https://dc.lft.to/lastmile_qr_scan", "android": "https://dc.lft.to/lastmile_qr_scan"}, "fusion_lon": 0.0, "lat": 38.91170433333333, "is_disabled": 0, "bike_id": "650de40d8012a907eb63b9d930522e43", "fusion_lat": 0.0, "is_reserved": 0, "lon": -77.060933}, {"type": "electric_scooter", "name": "bda666fc549dacac61c7ee34b3a415e6", "rental_uris": {"ios": "https://dc.lft.to/lastmile_qr_scan", "android": "https://dc.lft.to/lastmile_qr_scan"}, "fusion_lon": 0.0, "lat": 38.92163266666667, "is_disabled": 0, "bike_id": "bda666fc549dacac61c7ee34b3a415e6", "fusion_lat": 0.0, "is_reserved": 0, "lon": -77.03378833333333}, {"type": "electric_scooter", "name": "b70d03a0f2d6aab9454e785c5c200a26", "rental_uris": {"ios": "https://dc.lft.to/lastmile_qr_scan", "android": "https://dc.lft.to/lastmile_qr_scan"}, "fusion_lon": 0.0, "lat": 38.90869083333333, "is_disabled": 0, "bike_id": "b70d03a0f2d6aab9454e785c5c200a26", "fusion_lat": 0.0, "is_reserved": 0, "lon": -76.933377}, {"type": "electric_scooter", "name": "9dc9bc519f59d4990ce1977f96d134f5", "rental_uris": {"ios": "https://dc.lft.to/lastmile_qr_scan", "android": "https://dc.lft.to/lastmile_qr_scan"}, "fusion_lon": 0.0, "lat": 38.906637333333336, "is_disabled": 0, "bike_id": "9dc9bc519f59d4990ce1977f96d134f5", "fusion_lat": 0.0, "is_reserved": 0, "lon": -77.0270995}, {"type": "electric_scooter", "name": "5ee7b8518d305cb4c90983adf7fa625e", "rental_uris": {"ios": "https://dc.lft.to/lastmile_qr_scan", "android": "https://dc.lft.to/lastmile_qr_scan"}, "fusion_lon": 0.0, "lat": 38.90788533333333, "is_disabled": 0, "bike_id": "5ee7b8518d305cb4c90983adf7fa625e", "fusion_lat": 0.0, "is_reserved": 0, "lon": -76.994192}, {"type": "electric_scooter", "name": "ff2c711caf82a591b4582b30b1995161", "rental_uris": {"ios": "https://dc.lft.to/lastmile_qr_scan", "android": "https://dc.lft.to/lastmile_qr_scan"}, "fusion_lon": 0.0, "lat": 38.9336125, "is_disabled": 0, "bike_id": "ff2c711caf82a591b4582b30b1995161", "fusion_lat": 0.0, "is_reserved": 0, "lon": -77.02855366666667}, {"type": "electric_scooter", "name": "f98b6866b85686f6eb6cf414bbbef93d", "rental_uris": {"ios": "https://dc.lft.to/lastmile_qr_scan", "android": "https://dc.lft.to/lastmile_qr_scan"}, "fusion_lon": 0.0, "lat": 38.90634166666667, "is_disabled": 0, "bike_id": "f98b6866b85686f6eb6cf414bbbef93d", "fusion_lat": 0.0, "is_reserved": 0, "lon": -77.035467}, {"type": "electric_scooter", "name": "50142b077d47daf0aed56ca143a85e95", "rental_uris": {"ios": "https://dc.lft.to/lastmile_qr_scan", "android": "https://dc.lft.to/lastmile_qr_scan"}, "fusion_lon": 0.0, "lat": 38.88511066666667, "is_disabled": 0, "bike_id": "50142b077d47daf0aed56ca143a85e95", "fusion_lat": 0.0, "is_reserved": 0, "lon": -77.01508016666666}, {"type": "electric_bike", "name": "6511fe875ce55d1aa6f2e2c3e8f80dfa", "rental_uris": {"ios": "https://dc.lft.to/lastmile_qr_scan", "android": "https://dc.lft.to/lastmile_qr_scan"}, "fusion_lon": 0.0, "lat": 38.813279666666666, "is_disabled": 0, "bike_id": "6511fe875ce55d1aa6f2e2c3e8f80dfa", "fusion_lat": 0.0, "is_reserved": 0, "lon": -77.05091616666667}, {"type": "electric_bike", "name": "9bcba8fa5ce266da81b18ee8d733a77b", "rental_uris": {"ios": "https://dc.lft.to/lastmile_qr_scan", "android": "https://dc.lft.to/lastmile_qr_scan"}, "fusion_lon": 0.0, "lat": 38.931904333333335, "is_disabled": 0, "bike_id": "9bcba8fa5ce266da81b18ee8d733a77b", "fusion_lat": 0.0, "is_reserved": 0, "lon": -77.22926366666667}, {"type": "electric_bike", "name": "baf103650be186fa8e9e7725f3ffea27", "rental_uris": {"ios": "https://dc.lft.to/lastmile_qr_scan", "android": "https://dc.lft.to/lastmile_qr_scan"}, "fusion_lon": 0.0, "lat": 38.84990666666667, "is_disabled": 0, "bike_id": "baf103650be186fa8e9e7725f3ffea27", "fusion_lat": 0.0, "is_reserved": 0, "lon": -77.09759533333333}, {"type": "electric_scooter", "name": "0ad2e588c4e7df22758f83ce4922c83c", "rental_uris": {"ios": "https://dc.lft.to/lastmile_qr_scan", "android": "https://dc.lft.to/lastmile_qr_scan"}, "fusion_lon": 0.0, "lat": 38.920782, "is_disabled": 0, "bike_id": "0ad2e588c4e7df22758f83ce4922c83c", "fusion_lat": 0.0, "is_reserved": 0, "lon": -76.99726433333333}, {"type": "electric_scooter", "name": "49405a64ba2c4881c33b4fe024585552", "rental_uris": {"ios": "https://dc.lft.to/lastmile_qr_scan", "android": "https://dc.lft.to/lastmile_qr_scan"}, "fusion_lon": 0.0, "lat": 38.8836325, "is_disabled": 0, "bike_id": "49405a64ba2c4881c33b4fe024585552", "fusion_lat": 0.0, "is_reserved": 0, "lon": -77.0199615}, {"type": "electric_scooter", "name": "c91efb5110471c3277e550e572cd2a32", "rental_uris": {"ios": "https://dc.lft.to/lastmile_qr_scan", "android": "https://dc.lft.to/lastmile_qr_scan"}, "fusion_lon": 0.0, "lat": 38.905678333333334, "is_disabled": 0, "bike_id": "c91efb5110471c3277e550e572cd2a32", "fusion_lat": 0.0, "is_reserved": 0, "lon": -77.02415566666667}, {"type": "electric_scooter", "name": "78759bb23a1523011e4700d3a9fc9893", "rental_uris": {"ios": "https://dc.lft.to/lastmile_qr_scan", "android": "https://dc.lft.to/lastmile_qr_scan"}, "fusion_lon": 0.0, "lat": 38.882997833333334, "is_disabled": 0, "bike_id": "78759bb23a1523011e4700d3a9fc9893", "fusion_lat": 0.0, "is_reserved": 0, "lon": -77.024776}, {"type": "electric_scooter", "name": "f9bd98395fafb6541d31dd2fe119bb47", "rental_uris": {"ios": "https://dc.lft.to/lastmile_qr_scan", "android": "https://dc.lft.to/lastmile_qr_scan"}, "fusion_lon": 0.0, "lat": 38.917071166666666, "is_disabled": 0, "bike_id": "f9bd98395fafb6541d31dd2fe119bb47", "fusion_lat": 0.0, "is_reserved": 0, "lon": -77.04148283333333}, {"type": "electric_scooter", "name": "0692444fa286ba757506867135617b7f", "rental_uris": {"ios": "https://dc.lft.to/lastmile_qr_scan", "android": "https://dc.lft.to/lastmile_qr_scan"}, "fusion_lon": 0.0, "lat": 38.913559666666664, "is_disabled": 0, "bike_id": "0692444fa286ba757506867135617b7f", "fusion_lat": 0.0, "is_reserved": 0, "lon": -77.0343205}, {"type": "electric_scooter", "name": "1754e164114b7f393b1566046befc03f", "rental_uris": {"ios": "https://dc.lft.to/lastmile_qr_scan", "android": "https://dc.lft.to/lastmile_qr_scan"}, "fusion_lon": 0.0, "lat": 38.916715833333335, "is_disabled": 0, "bike_id": "1754e164114b7f393b1566046befc03f", "fusion_lat": 0.0, "is_reserved": 0, "lon": -77.03688966666667}, {"type": "electric_scooter", "name": "0d0dae610dca8731d221c911704df954", "rental_uris": {"ios": "https://dc.lft.to/lastmile_qr_scan", "android": "https://dc.lft.to/lastmile_qr_scan"}, "fusion_lon": 0.0, "lat": 38.923067833333334, "is_disabled": 0, "bike_id": "0d0dae610dca8731d221c911704df954", "fusion_lat": 0.0, "is_reserved": 0, "lon": -77.02445466666667}, {"type": "electric_scooter", "name": "772e5fc57c61c858ad0bb71f39d3f11d", "rental_uris": {"ios": "https://dc.lft.to/lastmile_qr_scan", "android": "https://dc.lft.to/lastmile_qr_scan"}, "fusion_lon": 0.0, "lat": 38.90126083333333, "is_disabled": 0, "bike_id": "772e5fc57c61c858ad0bb71f39d3f11d", "fusion_lat": 0.0, "is_reserved": 0, "lon": -77.01782616666667}, {"type": "electric_scooter", "name": "9b5160fc94fef8bdeb5563ebabbb2c21", "rental_uris": {"ios": "https://dc.lft.to/lastmile_qr_scan", "android": "https://dc.lft.to/lastmile_qr_scan"}, "fusion_lon": 0.0, "lat": 38.866789, "is_disabled": 0, "bike_id": "9b5160fc94fef8bdeb5563ebabbb2c21", "fusion_lat": 0.0, "is_reserved": 0, "lon": -76.98567066666666}, {"type": "electric_scooter", "name": "501118406630b23bba064fbf8720ac76", "rental_uris": {"ios": "https://dc.lft.to/lastmile_qr_scan", "android": "https://dc.lft.to/lastmile_qr_scan"}, "fusion_lon": 0.0, "lat": 38.90854783333333, "is_disabled": 0, "bike_id": "501118406630b23bba064fbf8720ac76", "fusion_lat": 0.0, "is_reserved": 0, "lon": -76.9979835}, {"type": "electric_scooter", "name": "1f9a847e1a1c161553aec0e08fb14b4d", "rental_uris": {"ios": "https://dc.lft.to/lastmile_qr_scan", "android": "https://dc.lft.to/lastmile_qr_scan"}, "fusion_lon": 0.0, "lat": 38.923630833333334, "is_disabled": 0, "bike_id": "1f9a847e1a1c161553aec0e08fb14b4d", "fusion_lat": 0.0, "is_reserved": 0, "lon": -77.05031133333334}, {"type": "electric_scooter", "name": "d8a4932612f957ede585b2453d1e0fdf", "rental_uris": {"ios": "https://dc.lft.to/lastmile_qr_scan", "android": "https://dc.lft.to/lastmile_qr_scan"}, "fusion_lon": 0.0, "lat": 38.89320633333333, "is_disabled": 0, "bike_id": "d8a4932612f957ede585b2453d1e0fdf", "fusion_lat": 0.0, "is_reserved": 0, "lon": -77.02230283333333}, {"type": "electric_scooter", "name": "5abb1ae828038888aa497dacf9de176f", "rental_uris": {"ios": "https://dc.lft.to/lastmile_qr_scan", "android": "https://dc.lft.to/lastmile_qr_scan"}, "fusion_lon": 0.0, "lat": 38.876709, "is_disabled": 0, "bike_id": "5abb1ae828038888aa497dacf9de176f", "fusion_lat": 0.0, "is_reserved": 0, "lon": -77.00418566666667}, {"type": "electric_scooter", "name": "abf79817718d56f11904bdd5398af81f", "rental_uris": {"ios": "https://dc.lft.to/lastmile_qr_scan", "android": "https://dc.lft.to/lastmile_qr_scan"}, "fusion_lon": 0.0, "lat": 38.92464616666667, "is_disabled": 0, "bike_id": "abf79817718d56f11904bdd5398af81f", "fusion_lat": 0.0, "is_reserved": 0, "lon": -76.99030333333333}, {"type": "electric_bike", "name": "e0ee2610ecafde49f65f4f30f177951c", "rental_uris": {"ios": "https://dc.lft.to/lastmile_qr_scan", "android": "https://dc.lft.to/lastmile_qr_scan"}, "fusion_lon": 0.0, "lat": 38.9619455, "is_disabled": 0, "bike_id": "e0ee2610ecafde49f65f4f30f177951c", "fusion_lat": 0.0, "is_reserved": 0, "lon": -77.000783}, {"type": "electric_bike", "name": "6f5fdda066aa643394581497bb9a1ce1", "rental_uris": {"ios": "https://dc.lft.to/lastmile_qr_scan", "android": "https://dc.lft.to/lastmile_qr_scan"}, "fusion_lon": 0.0, "lat": 38.99096483333334, "is_disabled": 0, "bike_id": "6f5fdda066aa643394581497bb9a1ce1", "fusion_lat": 0.0, "is_reserved": 0, "lon": -76.99367683333334}, {"type": "electric_scooter", "name": "edfd1fd58e61db8e8f694dda738ff0f6", "rental_uris": {"ios": "https://dc.lft.to/lastmile_qr_scan", "android": "https://dc.lft.to/lastmile_qr_scan"}, "fusion_lon": 0.0, "lat": 38.899686833333334, "is_disabled": 0, "bike_id": "edfd1fd58e61db8e8f694dda738ff0f6", "fusion_lat": 0.0, "is_reserved": 0, "lon": -76.9948465}, {"type": "electric_scooter", "name": "59c282a7b7d0100e93aa241532cf1137", "rental_uris": {"ios": "https://dc.lft.to/lastmile_qr_scan", "android": "https://dc.lft.to/lastmile_qr_scan"}, "fusion_lon": 0.0, "lat": 38.926741166666666, "is_disabled": 0, "bike_id": "59c282a7b7d0100e93aa241532cf1137", "fusion_lat": 0.0, "is_reserved": 0, "lon": -77.01514116666667}, {"type": "electric_scooter", "name": "47170af83c955b030acb9290f5863f5e", "rental_uris": {"ios": "https://dc.lft.to/lastmile_qr_scan", "android": "https://dc.lft.to/lastmile_qr_scan"}, "fusion_lon": 0.0, "lat": 38.908030833333335, "is_disabled": 0, "bike_id": "47170af83c955b030acb9290f5863f5e", "fusion_lat": 0.0, "is_reserved": 0, "lon": -77.0435985}, {"type": "electric_bike", "name": "7850455b073c7d0706a0fa557412d128", "rental_uris": {"ios": "https://dc.lft.to/lastmile_qr_scan", "android": "https://dc.lft.to/lastmile_qr_scan"}, "fusion_lon": 0.0, "lat": 38.89899283333333, "is_disabled": 0, "bike_id": "7850455b073c7d0706a0fa557412d128", "fusion_lat": 0.0, "is_reserved": 0, "lon": -77.09616016666666}, {"type": "electric_scooter", "name": "a61787386114c5922579a48a2bf6faad", "rental_uris": {"ios": "https://dc.lft.to/lastmile_qr_scan", "android": "https://dc.lft.to/lastmile_qr_scan"}, "fusion_lon": 0.0, "lat": 38.895976, "is_disabled": 0, "bike_id": "a61787386114c5922579a48a2bf6faad", "fusion_lat": 0.0, "is_reserved": 0, "lon": -77.0093105}, {"type": "electric_scooter", "name": "f7d3ab15a9fea5417de115ca65ef2a94", "rental_uris": {"ios": "https://dc.lft.to/lastmile_qr_scan", "android": "https://dc.lft.to/lastmile_qr_scan"}, "fusion_lon": 0.0, "lat": 38.902431666666665, "is_disabled": 0, "bike_id": "f7d3ab15a9fea5417de115ca65ef2a94", "fusion_lat": 0.0, "is_reserved": 0, "lon": -77.02486183333333}, {"type": "electric_scooter", "name": "44522a1f573d819076602181ca223569", "rental_uris": {"ios": "https://dc.lft.to/lastmile_qr_scan", "android": "https://dc.lft.to/lastmile_qr_scan"}, "fusion_lon": 0.0, "lat": 38.863878166666666, "is_disabled": 0, "bike_id": "44522a1f573d819076602181ca223569", "fusion_lat": 0.0, "is_reserved": 0, "lon": -76.99039883333333}, {"type": "electric_bike", "name": "b847a72dde8eaac0e80dac8e3261d51f", "rental_uris": {"ios": "https://dc.lft.to/lastmile_qr_scan", "android": "https://dc.lft.to/lastmile_qr_scan"}, "fusion_lon": 0.0, "lat": 38.88398516666667, "is_disabled": 0, "bike_id": "b847a72dde8eaac0e80dac8e3261d51f", "fusion_lat": 0.0, "is_reserved": 0, "lon": -76.9605135}, {"type": "electric_scooter", "name": "eb2a69fcd5967e4dd202272565a8e508", "rental_uris": {"ios": "https://dc.lft.to/lastmile_qr_scan", "android": "https://dc.lft.to/lastmile_qr_scan"}, "fusion_lon": 0.0, "lat": 38.909471833333335, "is_disabled": 0, "bike_id": "eb2a69fcd5967e4dd202272565a8e508", "fusion_lat": 0.0, "is_reserved": 0, "lon": -77.06442166666666}, {"type": "electric_scooter", "name": "0b34c7e75d195bc003f2f04c336c2fec", "rental_uris": {"ios": "https://dc.lft.to/lastmile_qr_scan", "android": "https://dc.lft.to/lastmile_qr_scan"}, "fusion_lon": 0.0, "lat": 38.8972855, "is_disabled": 0, "bike_id": "0b34c7e75d195bc003f2f04c336c2fec", "fusion_lat": 0.0, "is_reserved": 0, "lon": -76.9470445}, {"type": "electric_scooter", "name": "f78d802bb41a6fd7473974eaebe57fd3", "rental_uris": {"ios": "https://dc.lft.to/lastmile_qr_scan", "android": "https://dc.lft.to/lastmile_qr_scan"}, "fusion_lon": 0.0, "lat": 38.92852083333333, "is_disabled": 0, "bike_id": "f78d802bb41a6fd7473974eaebe57fd3", "fusion_lat": 0.0, "is_reserved": 0, "lon": -77.034951}, {"type": "electric_scooter", "name": "125f28f6d5190064762536bd5480e9f6", "rental_uris": {"ios": "https://dc.lft.to/lastmile_qr_scan", "android": "https://dc.lft.to/lastmile_qr_scan"}, "fusion_lon": 0.0, "lat": 38.85720516666667, "is_disabled": 0, "bike_id": "125f28f6d5190064762536bd5480e9f6", "fusion_lat": 0.0, "is_reserved": 0, "lon": -76.9809895}, {"type": "electric_scooter", "name": "a4799f4a6eeccb0fe41e4d9708a36941", "rental_uris": {"ios": "https://dc.lft.to/lastmile_qr_scan", "android": "https://dc.lft.to/lastmile_qr_scan"}, "fusion_lon": 0.0, "lat": 38.89613466666667, "is_disabled": 0, "bike_id": "a4799f4a6eeccb0fe41e4d9708a36941", "fusion_lat": 0.0, "is_reserved": 0, "lon": -77.02147566666666}, {"type": "electric_scooter", "name": "b1d490a6c0c3cf7f765416ba20dc8fc3", "rental_uris": {"ios": "https://dc.lft.to/lastmile_qr_scan", "android": "https://dc.lft.to/lastmile_qr_scan"}, "fusion_lon": 0.0, "lat": 38.90673016666667, "is_disabled": 0, "bike_id": "b1d490a6c0c3cf7f765416ba20dc8fc3", "fusion_lat": 0.0, "is_reserved": 0, "lon": -77.0378735}, {"type": "electric_scooter", "name": "6091751a3cad12fe288e3145908e4c46", "rental_uris": {"ios": "https://dc.lft.to/lastmile_qr_scan", "android": "https://dc.lft.to/lastmile_qr_scan"}, "fusion_lon": 0.0, "lat": 38.912552166666664, "is_disabled": 0, "bike_id": "6091751a3cad12fe288e3145908e4c46", "fusion_lat": 0.0, "is_reserved": 0, "lon": -77.04737283333333}, {"type": "electric_scooter", "name": "c9324fc303fef9f1b1a40a3120c05302", "rental_uris": {"ios": "https://dc.lft.to/lastmile_qr_scan", "android": "https://dc.lft.to/lastmile_qr_scan"}, "fusion_lon": 0.0, "lat": 38.9274275, "is_disabled": 0, "bike_id": "c9324fc303fef9f1b1a40a3120c05302", "fusion_lat": 0.0, "is_reserved": 0, "lon": -77.0253295}, {"type": "electric_scooter", "name": "41fe37265375518c5d8dbcaed1578665", "rental_uris": {"ios": "https://dc.lft.to/lastmile_qr_scan", "android": "https://dc.lft.to/lastmile_qr_scan"}, "fusion_lon": 0.0, "lat": 38.896702, "is_disabled": 0, "bike_id": "41fe37265375518c5d8dbcaed1578665", "fusion_lat": 0.0, "is_reserved": 0, "lon": -77.0321195}, {"type": "electric_scooter", "name": "8fa1e04c1af3129cdf3c36470e92d6ff", "rental_uris": {"ios": "https://dc.lft.to/lastmile_qr_scan", "android": "https://dc.lft.to/lastmile_qr_scan"}, "fusion_lon": 0.0, "lat": 38.91707183333333, "is_disabled": 0, "bike_id": "8fa1e04c1af3129cdf3c36470e92d6ff", "fusion_lat": 0.0, "is_reserved": 0, "lon": -77.02401666666667}, {"type": "electric_scooter", "name": "b3bef64380c1822c5e070dfb678ba73b", "rental_uris": {"ios": "https://dc.lft.to/lastmile_qr_scan", "android": "https://dc.lft.to/lastmile_qr_scan"}, "fusion_lon": 0.0, "lat": 38.939031666666665, "is_disabled": 0, "bike_id": "b3bef64380c1822c5e070dfb678ba73b", "fusion_lat": 0.0, "is_reserved": 0, "lon": -77.03342966666666}, {"type": "electric_scooter", "name": "0d4d625e10c1f838cb2434c04178355d", "rental_uris": {"ios": "https://dc.lft.to/lastmile_qr_scan", "android": "https://dc.lft.to/lastmile_qr_scan"}, "fusion_lon": 0.0, "lat": 38.88420083333333, "is_disabled": 0, "bike_id": "0d4d625e10c1f838cb2434c04178355d", "fusion_lat": 0.0, "is_reserved": 0, "lon": -77.01516833333334}, {"type": "electric_scooter", "name": "a0a6f312da6eca5a11c70edb176e98df", "rental_uris": {"ios": "https://dc.lft.to/lastmile_qr_scan", "android": "https://dc.lft.to/lastmile_qr_scan"}, "fusion_lon": 0.0, "lat": 38.900282833333335, "is_disabled": 0, "bike_id": "a0a6f312da6eca5a11c70edb176e98df", "fusion_lat": 0.0, "is_reserved": 0, "lon": -76.98751033333333}, {"type": "electric_scooter", "name": "2eb07b8e87ae013ada231982e126a6d0", "rental_uris": {"ios": "https://dc.lft.to/lastmile_qr_scan", "android": "https://dc.lft.to/lastmile_qr_scan"}, "fusion_lon": 0.0, "lat": 38.94129783333333, "is_disabled": 0, "bike_id": "2eb07b8e87ae013ada231982e126a6d0", "fusion_lat": 0.0, "is_reserved": 0, "lon": -77.0154445}, {"type": "electric_scooter", "name": "7e5d57c0c9bd1493361acd459d303bbe", "rental_uris": {"ios": "https://dc.lft.to/lastmile_qr_scan", "android": "https://dc.lft.to/lastmile_qr_scan"}, "fusion_lon": 0.0, "lat": 38.921512666666665, "is_disabled": 0, "bike_id": "7e5d57c0c9bd1493361acd459d303bbe", "fusion_lat": 0.0, "is_reserved": 0, "lon": -77.032308}, {"type": "electric_scooter", "name": "78991e074e785fe7b952f1fc0364bc07", "rental_uris": {"ios": "https://dc.lft.to/lastmile_qr_scan", "android": "https://dc.lft.to/lastmile_qr_scan"}, "fusion_lon": 0.0, "lat": 38.92515733333333, "is_disabled": 0, "bike_id": "78991e074e785fe7b952f1fc0364bc07", "fusion_lat": 0.0, "is_reserved": 0, "lon": -77.05128966666666}, {"type": "electric_scooter", "name": "61080258391ab8ac2d74d46d03ca4980", "rental_uris": {"ios": "https://dc.lft.to/lastmile_qr_scan", "android": "https://dc.lft.to/lastmile_qr_scan"}, "fusion_lon": 0.0, "lat": 38.893596, "is_disabled": 0, "bike_id": "61080258391ab8ac2d74d46d03ca4980", "fusion_lat": 0.0, "is_reserved": 0, "lon": -77.01974}, {"type": "electric_scooter", "name": "83b5f5d10f527c7f602ac524b1b2c4f5", "rental_uris": {"ios": "https://dc.lft.to/lastmile_qr_scan", "android": "https://dc.lft.to/lastmile_qr_scan"}, "fusion_lon": 0.0, "lat": 38.88950716666667, "is_disabled": 0, "bike_id": "83b5f5d10f527c7f602ac524b1b2c4f5", "fusion_lat": 0.0, "is_reserved": 0, "lon": -76.99161366666667}, {"type": "electric_scooter", "name": "3615097fd77c512329170bacab8b1422", "rental_uris": {"ios": "https://dc.lft.to/lastmile_qr_scan", "android": "https://dc.lft.to/lastmile_qr_scan"}, "fusion_lon": 0.0, "lat": 38.9273905, "is_disabled": 0, "bike_id": "3615097fd77c512329170bacab8b1422", "fusion_lat": 0.0, "is_reserved": 0, "lon": -77.02319866666667}, {"type": "electric_scooter", "name": "9ff01b9b56ac035316de66eb0c35dcc1", "rental_uris": {"ios": "https://dc.lft.to/lastmile_qr_scan", "android": "https://dc.lft.to/lastmile_qr_scan"}, "fusion_lon": 0.0, "lat": 38.90168166666667, "is_disabled": 0, "bike_id": "9ff01b9b56ac035316de66eb0c35dcc1", "fusion_lat": 0.0, "is_reserved": 0, "lon": -76.98076983333333}, {"type": "electric_scooter", "name": "64d074f76f45cd2335f05a49e0fc05ff", "rental_uris": {"ios": "https://dc.lft.to/lastmile_qr_scan", "android": "https://dc.lft.to/lastmile_qr_scan"}, "fusion_lon": 0.0, "lat": 38.919593666666664, "is_disabled": 0, "bike_id": "64d074f76f45cd2335f05a49e0fc05ff", "fusion_lat": 0.0, "is_reserved": 0, "lon": -77.02390233333334}, {"type": "electric_scooter", "name": "8e983255ec579c9f99ee43a21b577b1a", "rental_uris": {"ios": "https://dc.lft.to/lastmile_qr_scan", "android": "https://dc.lft.to/lastmile_qr_scan"}, "fusion_lon": 0.0, "lat": 38.926709, "is_disabled": 0, "bike_id": "8e983255ec579c9f99ee43a21b577b1a", "fusion_lat": 0.0, "is_reserved": 0, "lon": -77.029241},