{"data": {"bikes": [{"is_reserved": 0, "type": "electric_scooter", "bike_id": "22441cecb14b1162d8469cbb89161329", "lat": 38.90091833333334, "lon": -77.04951783333334, "rental_uris": {"android": "https://dc.lft.to/lastmile_qr_scan", "ios": "https://dc.lft.to/lastmile_qr_scan"}, "is_disabled": 0, "fusion_lat": 0.0, "name": "22441cecb14b1162d8469cbb89161329", "fusion_lon": 0.0}, {"is_reserved": 0, "type": "electric_scooter", "bike_id": "a511e7322a33dac473aaaaf5a73aa853", "lat": 38.899756, "lon": -77.02711633333334, "rental_uris": {"android": "https://dc.lft.to/lastmile_qr_scan", "ios": "https://dc.lft.to/lastmile_qr_scan"}, "is_disabled": 0, "fusion_lat": 0.0, "name": "a511e7322a33dac473aaaaf5a73aa853", "fusion_lon": 0.0}, {"is_reserved": 0, "type": "electric_bike", "bike_id": "2a8fe4156a59db55f8cffc35704958a3", "lat": 38.883435666666664, "lon": -76.93627166666667, "rental_uris": {"android": "https://dc.lft.to/lastmile_qr_scan", "ios": "https://dc.lft.to/lastmile_qr_scan"}, "is_disabled": 0, "fusion_lat": 0.0, "name": "2a8fe4156a59db55f8cffc35704958a3", "fusion_lon": 0.0}, {"is_reserved": 0, "type": "electric_scooter", "bike_id": "3f48b662386ab33064a71b0c0be52a55", "lat": 38.9038065, "lon": -77.037777, "rental_uris": {"android": "https://dc.lft.to/lastmile_qr_scan", "ios": "https://dc.lft.to/lastmile_qr_scan"}, "is_disabled": 0, "fusion_lat": 0.0, "name": "3f48b662386ab33064a71b0c0be52a55", "fusion_lon": 0.0}, {"is_reserved": 0, "type": "electric_scooter", "bike_id": "5ee39c008155911ec9b45c4b2ff09e76", "lat": 38.914077, "lon": -77.03173766666667, "rental_uris": {"android": "https://dc.lft.to/lastmile_qr_scan", "ios": "https://dc.lft.to/lastmile_qr_scan"}, "is_disabled": 0, "fusion_lat": 0.0, "name": "5ee39c008155911ec9b45c4b2ff09e76", "fusion_lon": 0.0}, {"is_reserved": 0, "type": "electric_scooter", "bike_id": "50d60bb2f586bd52715b0e2c4b321c10", "lat": 38.93456066666667, "lon": -77.029502, "rental_uris": {"android": "https://dc.lft.to/lastmile_qr_scan", "ios": "https://dc.lft.to/lastmile_qr_scan"}, "is_disabled": 0, "fusion_lat": 0.0, "name": "50d60bb2f586bd52715b0e2c4b321c10", "fusion_lon": 0.0}, {"is_reserved": 0, "type": "electric_scooter", "bike_id": "afe54f454315c9e682ceacb2915cd467", "lat": 38.923054, "lon": -77.03034716666667, "rental_uris": {"android": "https://dc.lft.to/lastmile_qr_scan", "ios": "https://dc.lft.to/lastmile_qr_scan"}, "is_disabled": 0, "fusion_lat": 0.0, "name": "afe54f454315c9e682ceacb2915cd467", "fusion_lon": 0.0}, {"is_reserved": 0, "type": "electric_scooter", "bike_id": "38abf72c5bf56a95c1b65e666b29cfb6", "lat": 38.90359516666667, "lon": -77.03195483333333, "rental_uris": {"android": "https://dc.lft.to/lastmile_qr_scan", "ios": "https://dc.lft.to/lastmile_qr_scan"}, "is_disabled": 0, "fusion_lat": 0.0, "name": "38abf72c5bf56a95c1b65e666b29cfb6", "fusion_lon": 0.0}, {"is_reserved": 0, "type": "electric_scooter", "bike_id": "a3b313ea0b8a1388a37500dbb902cc2a", "lat": 38.92383616666667, "lon": -77.029547, "rental_uris": {"android": "https://dc.lft.to/lastmile_qr_scan", "ios": "https://dc.lft.to/lastmile_qr_scan"}, "is_disabled": 0, "fusion_lat": 0.0, "name": "a3b313ea0b8a1388a37500dbb902cc2a", "fusion_lon": 0.0}, {"is_reserved": 0, "type": "electric_scooter", "bike_id": "25d48d464e016a6c824c945386ca86bf", "lat": 38.8924365, "lon": -77.0334395, "rental_uris": {"android": "https://dc.lft.to/lastmile_qr_scan", "ios": "https://dc.lft.to/lastmile_qr_scan"}, "is_disabled": 0, "fusion_lat": 0.0, "name": "25d48d464e016a6c824c945386ca86bf", "fusion_lon": 0.0}, {"is_reserved": 0, "type": "electric_scooter", "bike_id": "298f906ba07ab239d481ce9c56de190b", "lat": 38.938757, "lon": -77.03211166666667, "rental_uris": {"android": "https://dc.lft.to/lastmile_qr_scan", "ios": "https://dc.lft.to/lastmile_qr_scan"}, "is_disabled": 0, "fusion_lat": 0.0, "name": "298f906ba07ab239d481ce9c56de190b", "fusion_lon": 0.0}, {"is_reserved": 0, "type": "electric_scooter", "bike_id": "e73cc6f77fe126e94ec2d6f7e95a9339", "lat": 38.917855833333334, "lon": -77.046793, "rental_uris": {"android": "https://dc.lft.to/lastmile_qr_scan", "ios": "https://dc.lft.to/lastmile_qr_scan"}, "is_disabled": 0, "fusion_lat": 0.0, "name": "e73cc6f77fe126e94ec2d6f7e95a9339", "fusion_lon": 0.0}, {"is_reserved": 0, "type": "electric_scooter", "bike_id": "15e94d4de3e9e8d90ce4471c53f92f5c", "lat": 38.922290333333336, "lon": -77.018287, "rental_uris": {"android": "https://dc.lft.to/lastmile_qr_scan", "ios": "https://dc.lft.to/lastmile_qr_scan"}, "is_disabled": 0, "fusion_lat": 0.0, "name": "15e94d4de3e9e8d90ce4471c53f92f5c", "fusion_lon": 0.0}, {"is_reserved": 0, "type": "electric_scooter", "bike_id": "32a42da6224115976602c972d461ab41", "lat": 38.925500166666666, "lon": -76.99956033333333, "rental_uris": {"android": "https://dc.lft.to/lastmile_qr_scan", "ios": "https://dc.lft.to/lastmile_qr_scan"}, "is_disabled": 0, "fusion_lat": 0.0, "name": "32a42da6224115976602c972d461ab41", "fusion_lon": 0.0}, {"is_reserved": 0, "type": "electric_scooter", "bike_id": "a01cba93c301651c03dda40b9a42b967", "lat": 38.903833, "lon": -77.031485, "rental_uris": {"android": "https://dc.lft.to/lastmile_qr_scan", "ios": "https://dc.lft.to/lastmile_qr_scan"}, "is_disabled": 0, "fusion_lat": 0.0, "name": "a01cba93c301651c03dda40b9a42b967", "fusion_lon": 0.0}, {"is_reserved": 0, "type": "electric_scooter", "bike_id": "95b8d4f3e14b82ec588f37c2099e245a", "lat": 38.93112816666667, "lon": -77.03841333333334, "rental_uris": {"android": "https://dc.lft.to/lastmile_qr_scan", "ios": "https://dc.lft.to/lastmile_qr_scan"}, "is_disabled": 0, "fusion_lat": 0.0, "name": "95b8d4f3e14b82ec588f37c2099e245a", "fusion_lon": 0.0}, {"is_reserved": 0, "type": "electric_scooter", "bike_id": "eced45bb55d3d638960f9e8698d1f947", "lat": 38.900856833333336, "lon": -77.0161875, "rental_uris": {"android": "https://dc.lft.to/lastmile_qr_scan", "ios": "https://dc.lft.to/lastmile_qr_scan"}, "is_disabled": 0, "fusion_lat": 0.0, "name": "eced45bb55d3d638960f9e8698d1f947", "fusion_lon": 0.0}, {"is_reserved": 0, "type": "electric_scooter", "bike_id": "3aef9a58af5ce7d58f001ea07e39065b", "lat": 38.89654816666667, "lon": -77.0120095, "rental_uris": {"android": "https://dc.lft.to/lastmile_qr_scan", "ios": "https://dc.lft.to/lastmile_qr_scan"}, "is_disabled": 0, "fusion_lat": 0.0, "name": "3aef9a58af5ce7d58f001ea07e39065b", "fusion_lon": 0.0}, {"is_reserved": 0, "type": "electric_scooter", "bike_id": "c0cb5ef80d5ad686f0d423a8b17e5545", "lat": 38.90869816666667, "lon": -77.06404416666666, "rental_uris": {"android": "https://dc.lft.to/lastmile_qr_scan", "ios": "https://dc.lft.to/lastmile_qr_scan"}, "is_disabled": 0, "fusion_lat": 0.0, "name": "c0cb5ef80d5ad686f0d423a8b17e5545", "fusion_lon": 0.0}, {"is_reserved": 0, "type": "electric_scooter", "bike_id": "5b83d13b36db598ce44b77a4a1bfc1c3", "lat": 38.920077, "lon": -77.031714, "rental_uris": {"android": "https://dc.lft.to/lastmile_qr_scan", "ios": "https://dc.lft.to/lastmile_qr_scan"}, "is_disabled": 0, "fusion_lat": 0.0, "name": "5b83d13b36db598ce44b77a4a1bfc1c3", "fusion_lon": 0.0}, {"is_reserved": 0, "type": "electric_scooter", "bike_id": "887b8b3afc9cf95968fd2d5dd2eb6970", "lat": 38.911171, "lon": -77.01907066666666, "rental_uris": {"android": "https://dc.lft.to/lastmile_qr_scan", "ios": "https://dc.lft.to/lastmile_qr_scan"}, "is_disabled": 0, "fusion_lat": 0.0, "name": "887b8b3afc9cf95968fd2d5dd2eb6970", "fusion_lon": 0.0}, {"is_reserved": 0, "type": "electric_scooter", "bike_id": "a4672e33237f0efc4632d8cd47776053", "lat": 38.9051055, "lon": -77.04823216666666, "rental_uris": {"android": "https://dc.lft.to/lastmile_qr_scan", "ios": "https://dc.lft.to/lastmile_qr_scan"}, "is_disabled": 0, "fusion_lat": 0.0, "name": "a4672e33237f0efc4632d8cd47776053", "fusion_lon": 0.0}, {"is_reserved": 0, "type": "electric_scooter", "bike_id": "d8362db1ad8c8d6c02dcb7bbc1da9cbc", "lat": 38.90125533333333, "lon": -77.016283, "rental_uris": {"android": "https://dc.lft.to/lastmile_qr_scan", "ios": "https://dc.lft.to/lastmile_qr_scan"}, "is_disabled": 0, "fusion_lat": 0.0, "name": "d8362db1ad8c8d6c02dcb7bbc1da9cbc", "fusion_lon": 0.0}, {"is_reserved": 0, "type": "electric_scooter", "bike_id": "35e00cd08391f47f906e80a408dad0ae", "lat": 38.911175666666665, "lon": -77.04842933333333, "rental_uris": {"android": "https://dc.lft.to/lastmile_qr_scan", "ios": "https://dc.lft.to/lastmile_qr_scan"}, "is_disabled": 0, "fusion_lat": 0.0, "name": "35e00cd08391f47f906e80a408dad0ae", "fusion_lon": 0.0}, {"is_reserved": 0, "type": "electric_scooter", "bike_id": "0edbd2bf9ce59097c6e2a0d8053bff2f", "lat": 38.898349833333334, "lon": -77.04811083333334, "rental_uris": {"android": "https://dc.lft.to/lastmile_qr_scan", "ios": "https://dc.lft.to/lastmile_qr_scan"}, "is_disabled": 0, "fusion_lat": 0.0, "name": "0edbd2bf9ce59097c6e2a0d8053bff2f", "fusion_lon": 0.0}, {"is_reserved": 0, "type": "electric_scooter", "bike_id": "07e5eb75abf93e5793c67c9cfce7c5b9", "lat": 38.874721, "lon": -77.00559933333334, "rental_uris": {"android": "https://dc.lft.to/lastmile_qr_scan", "ios": "https://dc.lft.to/lastmile_qr_scan"}, "is_disabled": 0, "fusion_lat": 0.0, "name": "07e5eb75abf93e5793c67c9cfce7c5b9", "fusion_lon": 0.0}, {"is_reserved": 0, "type": "electric_bike", "bike_id": "f1d733be6727284575a9eb38730bf389", "lat": 38.91704433333334, "lon": -77.05724116666667, "rental_uris": {"android": "https://dc.lft.to/lastmile_qr_scan", "ios": "https://dc.lft.to/lastmile_qr_scan"}, "is_disabled": 0, "fusion_lat": 0.0, "name": "f1d733be6727284575a9eb38730bf389", "fusion_lon": 0.0}, {"is_reserved": 0, "type": "electric_bike", "bike_id": "faceecd6c20bc782c30514b7ce638df6", "lat": 38.920709333333335, "lon": -76.99585133333333, "rental_uris": {"android": "https://dc.lft.to/lastmile_qr_scan", "ios": "https://dc.lft.to/lastmile_qr_scan"}, "is_disabled": 0, "fusion_lat": 0.0, "name": "faceecd6c20bc782c30514b7ce638df6", "fusion_lon": 0.0}, {"is_reserved": 0, "type": "electric_scooter", "bike_id": "1f3ef142eed30f1d5373857c2cb26996", "lat": 38.917602333333335, "lon": -77.00458416666666, "rental_uris": {"android": "https://dc.lft.to/lastmile_qr_scan", "ios": "https://dc.lft.to/lastmile_qr_scan"}, "is_disabled": 0, "fusion_lat": 0.0, "name": "1f3ef142eed30f1d5373857c2cb26996", "fusion_lon": 0.0}, {"is_reserved": 0, "type": "electric_scooter", "bike_id": "84f079a155b502845592a548a96df6d3", "lat": 38.926864, "lon": -77.0323915, "rental_uris": {"android": "https://dc.lft.to/lastmile_qr_scan", "ios": "https://dc.lft.to/lastmile_qr_scan"}, "is_disabled": 0, "fusion_lat": 0.0, "name": "84f079a155b502845592a548a96df6d3", "fusion_lon": 0.0}, {"is_reserved": 0, "type": "electric_scooter", "bike_id": "1230a29768ed9ac34170f562973141a9", "lat": 38.882964333333334, "lon": -77.02382833333333, "rental_uris": {"android": "https://dc.lft.to/lastmile_qr_scan", "ios": "https://dc.lft.to/lastmile_qr_scan"}, "is_disabled": 0, "fusion_lat": 0.0, "name": "1230a29768ed9ac34170f562973141a9", "fusion_lon": 0.0}, {"is_reserved": 0, "type": "electric_bike", "bike_id": "5d419bb22b733db3b378f6db27cbb9e4", "lat": 38.92036916666667, "lon": -76.9796, "rental_uris": {"android": "https://dc.lft.to/lastmile_qr_scan", "ios": "https://dc.lft.to/lastmile_qr_scan"}, "is_disabled": 0, "fusion_lat": 0.0, "name": "5d419bb22b733db3b378f6db27cbb9e4", "fusion_lon": 0.0}, {"is_reserved": 0, "type": "electric_scooter", "bike_id": "b28e9b881f6f6662b70d721f32be525c", "lat": 38.912212, "lon": -77.046331, "rental_uris": {"android": "https://dc.lft.to/lastmile_qr_scan", "ios": "https://dc.lft.to/lastmile_qr_scan"}, "is_disabled": 0, "fusion_lat": 0.0, "name": "b28e9b881f6f6662b70d721f32be525c", "fusion_lon": 0.0}, {"is_reserved": 0, "type": "electric_scooter", "bike_id": "a12cef84e3f9c12a2a8cc8c9b9248e45", "lat": 38.908458333333336, "lon": -77.06339933333334, "rental_uris": {"android": "https://dc.lft.to/lastmile_qr_scan", "ios": "https://dc.lft.to/lastmile_qr_scan"}, "is_disabled": 0, "fusion_lat": 0.0, "name": "a12cef84e3f9c12a2a8cc8c9b9248e45", "fusion_lon": 0.0}, {"is_reserved": 0, "type": "electric_scooter", "bike_id": "028035447d0e53e253982fd0de959954", "lat": 38.92134433333333, "lon": -77.0458315, "rental_uris": {"android": "https://dc.lft.to/lastmile_qr_scan", "ios": "https://dc.lft.to/lastmile_qr_scan"}, "is_disabled": 0, "fusion_lat": 0.0, "name": "028035447d0e53e253982fd0de959954", "fusion_lon": 0.0}, {"is_reserved": 0, "type": "electric_scooter", "bike_id": "71755771574ca2952a6479b030f06e61", "lat": 38.900402166666666, "lon": -76.9915735, "rental_uris": {"android": "https://dc.lft.to/lastmile_qr_scan", "ios": "https://dc.lft.to/lastmile_qr_scan"}, "is_disabled": 0, "fusion_lat": 0.0, "name": "71755771574ca2952a6479b030f06e61", "fusion_lon": 0.0}, {"is_reserved": 0, "type": "electric_scooter", "bike_id": "c269d87baf573fd1e6ba18dc133727a5", "lat": 38.9466015, "lon": -77.032819, "rental_uris": {"android": "https://dc.lft.to/lastmile_qr_scan", "ios": "https://dc.lft.to/lastmile_qr_scan"}, "is_disabled": 0, "fusion_lat": 0.0, "name": "c269d87baf573fd1e6ba18dc133727a5", "fusion_lon": 0.0}, {"is_reserved": 0, "type": "electric_scooter", "bike_id": "c92e8e2380d7f3d50745a817a660f403", "lat": 38.91763916666667, "lon": -77.01492016666667, "rental_uris": {"android": "https://dc.lft.to/lastmile_qr_scan", "ios": "https://dc.lft.to/lastmile_qr_scan"}, "is_disabled": 0, "fusion_lat": 0.0, "name": "c92e8e2380d7f3d50745a817a660f403", "fusion_lon": 0.0}, {"is_reserved": 0, "type": "electric_scooter", "bike_id": "88c914dd576d5568dbff2af78fe50eae", "lat": 38.852263666666666, "lon": -76.9943175, "rental_uris": {"android": "https://dc.lft.to/lastmile_qr_scan", "ios": "https://dc.lft.to/lastmile_qr_scan"}, "is_disabled": 0, "fusion_lat": 0.0, "name": "88c914dd576d5568dbff2af78fe50eae", "fusion_lon": 0.0}, {"is_reserved": 0, "type": "electric_scooter", "bike_id": "aede0cc766b5985c4c2b9ce25db9f0ed", "lat": 38.90288683333333, "lon": -77.00220316666666, "rental_uris": {"android": "https://dc.lft.to/lastmile_qr_scan", "ios": "https://dc.lft.to/lastmile_qr_scan"}, "is_disabled": 0, "fusion_lat": 0.0, "name": "aede0cc766b5985c4c2b9ce25db9f0ed", "fusion_lon": 0.0}, {"is_reserved": 0, "type": "electric_scooter", "bike_id": "391f4263c0cc35d9afc1d60401c16fc4", "lat": 38.9060935, "lon": -77.009112, "rental_uris": {"android": "https://dc.lft.to/lastmile_qr_scan", "ios": "https://dc.lft.to/lastmile_qr_scan"}, "is_disabled": 0, "fusion_lat": 0.0, "name": "391f4263c0cc35d9afc1d60401c16fc4", "fusion_lon": 0.0}, {"is_reserved": 0, "type": "electric_scooter", "bike_id": "09b834c17a48c528bf46aa1a66bf732f", "lat": 38.89913416666667, "lon": -76.9336395, "rental_uris": {"android": "https://dc.lft.to/lastmile_qr_scan", "ios": "https://dc.lft.to/lastmile_qr_scan"}, "is_disabled": 0, "fusion_lat": 0.0, "name": "09b834c17a48c528bf46aa1a66bf732f", "fusion_lon": 0.0}, {"is_reserved": 0, "type": "electric_scooter", "bike_id": "043d1c6f5281190ffa87e4af15cb7c9d", "lat": 38.938899666666664, "lon": -77.03259366666667, "rental_uris": {"android": "https://dc.lft.to/lastmile_qr_scan", "ios": "https://dc.lft.to/lastmile_qr_scan"}, "is_disabled": 0, "fusion_lat": 0.0, "name": "043d1c6f5281190ffa87e4af15cb7c9d", "fusion_lon": 0.0}, {"is_reserved": 0, "type": "electric_scooter", "bike_id": "6ec5ffeb52a7fa6fa9bace47fe6cb104", "lat": 38.915615, "lon": -77.0211805, "rental_uris": {"android": "https://dc.lft.to/lastmile_qr_scan", "ios": "https://dc.lft.to/lastmile_qr_scan"}, "is_disabled": 0, "fusion_lat": 0.0, "name": "6ec5ffeb52a7fa6fa9bace47fe6cb104", "fusion_lon": 0.0}, {"is_reserved": 0, "type": "electric_scooter", "bike_id": "e3b939184a069cbd29bdb54df5810dfa", "lat": 38.897141500000004, "lon": -77.0079895, "rental_uris": {"android": "https://dc.lft.to/lastmile_qr_scan", "ios": "https://dc.lft.to/lastmile_qr_scan"}, "is_disabled": 0, "fusion_lat": 0.0, "name": "e3b939184a069cbd29bdb54df5810dfa", "fusion_lon": 0.0}, {"is_reserved": 0, "type": "electric_scooter", "bike_id": "81cccbd7bdd27176b8a59506e664b438", "lat": 38.90044616666667, "lon": -77.0401005, "rental_uris": {"android": "https://dc.lft.to/lastmile_qr_scan", "ios": "https://dc.lft.to/lastmile_qr_scan"}, "is_disabled": 0, "fusion_lat": 0.0, "name": "81cccbd7bdd27176b8a59506e664b438", "fusion_lon": 0.0}, {"is_reserved": 0, "type": "electric_scooter", "bike_id": "8fa702b26a53d78ae0d9289808fc12c0", "lat": 38.94042833333334, "lon": -77.02905516666667, "rental_uris": {"android": "https://dc.lft.to/lastmile_qr_scan", "ios": "https://dc.lft.to/lastmile_qr_scan"}, "is_disabled": 0, "fusion_lat": 0.0, "name": "8fa702b26a53d78ae0d9289808fc12c0", "fusion_lon": 0.0}, {"is_reserved": 0, "type": "electric_scooter", "bike_id": "1bff633e7ddaf41dd31e7ccc63c51e8b", "lat": 38.927349, "lon": -77.032705, "rental_uris": {"android": "https://dc.lft.to/lastmile_qr_scan", "ios": "https://dc.lft.to/lastmile_qr_scan"}, "is_disabled": 0, "fusion_lat": 0.0, "name": "1bff633e7ddaf41dd31e7ccc63c51e8b", "fusion_lon": 0.0}, {"is_reserved": 0, "type": "electric_scooter", "bike_id": "ad8f3fba13afb9ab9591f387ae8c5465", "lat": 38.874901666666666, "lon": -77.00036716666666, "rental_uris": {"android": "https://dc.lft.to/lastmile_qr_scan", "ios": "https://dc.lft.to/lastmile_qr_scan"}, "is_disabled": 0, "fusion_lat": 0.0, "name": "ad8f3fba13afb9ab9591f387ae8c5465", "fusion_lon": 0.0}, {"is_reserved": 0, "type": "electric_scooter", "bike_id": "f99da122a1a58c232a783c93d42e2d0e", "lat": 38.9227585, "lon": -77.04021116666667, "rental_uris": {"android": "https://dc.lft.to/lastmile_qr_scan", "ios": "https://dc.lft.to/lastmile_qr_scan"}, "is_disabled": 0, "fusion_lat": 0.0, "name": "f99da122a1a58c232a783c93d42e2d0e", "fusion_lon": 0.0}, {"is_reserved": 0, "type": "electric_scooter", "bike_id": "d652b9230d3483fe22713d9733042538", "lat": 38.914116666666665, "lon": -77.02839116666667, "rental_uris": {"android": "https://dc.lft.to/lastmile_qr_scan", "ios": "https://dc.lft.to/lastmile_qr_scan"}, "is_disabled": 0, "fusion_lat": 0.0, "name": "d652b9230d3483fe22713d9733042538", "fusion_lon": 0.0}, {"is_reserved": 0, "type": "electric_scooter", "bike_id": "32dfe2bd6547bc2436998dd6e738d0ba", "lat": 38.8863035, "lon": -77.01532116666667, "rental_uris": {"android": "https://dc.lft.to/lastmile_qr_scan", "ios": "https://dc.lft.to/lastmile_qr_scan"}, "is_disabled": 0, "fusion_lat": 0.0, "name": "32dfe2bd6547bc2436998dd6e738d0ba", "fusion_lon": 0.0}, {"is_reserved": 0, "type": "electric_scooter", "bike_id": "4021c3d2f629e5b4aba0fa54c0337d2f", "lat": 38.913027166666666, "lon": -76.98465783333333, "rental_uris": {"android": "https://dc.lft.to/lastmile_qr_scan", "ios": "https://dc.lft.to/lastmile_qr_scan"}, "is_disabled": 0, "fusion_lat": 0.0, "name": "4021c3d2f629e5b4aba0fa54c0337d2f", "fusion_lon": 0.0}, {"is_reserved": 0, "type": "electric_scooter", "bike_id": "ef11868116ff0e7abc6e307cf289cb3d", "lat": 38.92610966666667, "lon": -77.051844, "rental_uris": {"android": "https://dc.lft.to/lastmile_qr_scan", "ios": "https://dc.lft.to/lastmile_qr_scan"}, "is_disabled": 0, "fusion_lat": 0.0, "name": "ef11868116ff0e7abc6e307cf289cb3d", "fusion_lon": 0.0}, {"is_reserved": 0, "type": "electric_scooter", "bike_id": "32abf0b68ce96ef5451259afc6210494", "lat": 38.8851115, "lon": -77.01115083333333, "rental_uris": {"android": "https://dc.lft.to/lastmile_qr_scan", "ios": "https://dc.lft.to/lastmile_qr_scan"}, "is_disabled": 0, "fusion_lat": 0.0, "name": "32abf0b68ce96ef5451259afc6210494", "fusion_lon": 0.0}, {"is_reserved": 0, "type": "electric_scooter", "bike_id": "f95f25db80dcd970c8febee90f80197e", "lat": 38.88607566666667, "lon": -77.00401766666667, "rental_uris": {"android": "https://dc.lft.to/lastmile_qr_scan", "ios": "https://dc.lft.to/lastmile_qr_scan"}, "is_disabled": 0, "fusion_lat": 0.0, "name": "f95f25db80dcd970c8febee90f80197e", "fusion_lon": 0.0}, {"is_reserved": 0, "type": "electric_bike", "bike_id": "e0bbd46b5a690b4d5c0384d07092f96f", "lat": 38.991035, "lon": -76.88154383333334, "rental_uris": {"android": "https://dc.lft.to/lastmile_qr_scan", "ios": "https://dc.lft.to/lastmile_qr_scan"}, "is_disabled": 0, "fusion_lat": 0.0, "name": "e0bbd46b5a690b4d5c0384d07092f96f", "fusion_lon": 0.0}, {"is_reserved": 0, "type": "electric_scooter", "bike_id": "303af1b5c4e09b19d25df599d462da03", "lat": 38.924811, "lon": -77.02922166666667, "rental_uris": {"android": "https://dc.lft.to/lastmile_qr_scan", "ios": "https://dc.lft.to/lastmile_qr_scan"}, "is_disabled": 0, "fusion_lat": 0.0, "name": "303af1b5c4e09b19d25df599d462da03", "fusion_lon": 0.0}, {"is_reserved": 0, "type": "electric_scooter", "bike_id": "c3016f37ea86284800540786b692137a", "lat": 38.9420085, "lon": -77.02519033333333, "rental_uris": {"android": "https://dc.lft.to/lastmile_qr_scan", "ios": "https://dc.lft.to/lastmile_qr_scan"}, "is_disabled": 0, "fusion_lat": 0.0, "name": "c3016f37ea86284800540786b692137a", "fusion_lon": 0.0}, {"is_reserved": 0, "type": "electric_bike", "bike_id": "130c6617e5d4f4a3239beeb2f5c3c7fa", "lat": 38.843347666666666, "lon": -76.9974245, "rental_uris": {"android": "https://dc.lft.to/lastmile_qr_scan", "ios": "https://dc.lft.to/lastmile_qr_scan"}, "is_disabled": 0, "fusion_lat": 0.0, "name": "130c6617e5d4f4a3239beeb2f5c3c7fa", "fusion_lon": 0.0}, {"is_reserved": 0, "type": "electric_scooter", "bike_id": "a914af46bc1af6a7bf257a37a6a4e297", "lat": 38.90835116666667, "lon": -76.98718616666666, "rental_uris": {"android": "https://dc.lft.to/lastmile_qr_scan", "ios": "https://dc.lft.to/lastmile_qr_scan"}, "is_disabled": 0, "fusion_lat": 0.0, "name": "a914af46bc1af6a7bf257a37a6a4e297", "fusion_lon": 0.0}, {"is_reserved": 0, "type": "electric_scooter", "bike_id": "287b085092ad3fa1cd3724195245fd6b", "lat": 38.90805316666667, "lon": -77.03634233333334, "rental_uris": {"android": "https://dc.lft.to/lastmile_qr_scan", "ios": "https://dc.lft.to/lastmile_qr_scan"}, "is_disabled": 0, "fusion_lat": 0.0, "name": "287b085092ad3fa1cd3724195245fd6b", "fusion_lon": 0.0}, {"is_reserved": 0, "type": "electric_bike", "bike_id": "7ccc0b426137c548fbc30b49f4a87551", "lat": 38.808668, "lon": -77.11258633333334, "rental_uris": {"android": "https://dc.lft.to/lastmile_qr_scan", "ios": "https://dc.lft.to/lastmile_qr_scan"}, "is_disabled": 0, "fusion_lat": 0.0, "name": "7ccc0b426137c548fbc30b49f4a87551", "fusion_lon": 0.0}, {"is_reserved": 0, "type": "electric_scooter", "bike_id": "ff178dd2b15ff8b869e102f1a0c58d06", "lat": 38.9040255, "lon": -77.01845216666666, "rental_uris": {"android": "https://dc.lft.to/lastmile_qr_scan", "ios": "https://dc.lft.to/lastmile_qr_scan"}, "is_disabled": 0, "fusion_lat": 0.0, "name": "ff178dd2b15ff8b869e102f1a0c58d06", "fusion_lon": 0.0}, {"is_reserved": 0, "type": "electric_bike", "bike_id": "7dbe101a720856b22d636fbd3c1bca09", "lat": 38.94967066666667, "lon": -76.96100866666667, "rental_uris": {"android": "https://dc.lft.to/lastmile_qr_scan", "ios": "https://dc.lft.to/lastmile_qr_scan"}, "is_disabled": 0, "fusion_lat": 0.0, "name": "7dbe101a720856b22d636fbd3c1bca09", "fusion_lon": 0.0}, {"is_reserved": 0, "type": "electric_scooter", "bike_id": "8f5e4cab995a7ec9eb204050c69f7f69", "lat": 38.9051745, "lon": -77.05667, "rental_uris": {"android": "https://dc.lft.to/lastmile_qr_scan", "ios": "https://dc.lft.to/lastmile_qr_scan"}, "is_disabled": 0, "fusion_lat": 0.0, "name": "8f5e4cab995a7ec9eb204050c69f7f69", "fusion_lon": 0.0}, {"is_reserved": 0, "type": "electric_scooter", "bike_id": "48ca47bd1cca9dfa13a00758008978fe", "lat": 38.914226166666666, "lon": -77.03177533333333, "rental_uris": {"android": "https://dc.lft.to/lastmile_qr_scan", "ios": "https://dc.lft.to/lastmile_qr_scan"}, "is_disabled": 0, "fusion_lat": 0.0, "name": "48ca47bd1cca9dfa13a00758008978fe", "fusion_lon": 0.0}, {"is_reserved": 0, "type": "electric_scooter", "bike_id": "95f2e4f5f4416add2af08010d630229c", "lat": 38.9325585, "lon": -77.03282166666666, "rental_uris": {"android": "https://dc.lft.to/lastmile_qr_scan", "ios": "https://dc.lft.to/lastmile_qr_scan"}, "is_disabled": 0, "fusion_lat": 0.0, "name": "95f2e4f5f4416add2af08010d630229c", "fusion_lon": 0.0}, {"is_reserved": 0, "type": "electric_scooter", "bike_id": "cd9725efd320ab7f2fd165d7a93a867b", "lat": 38.9008895, "lon": -77.05740666666667, "rental_uris": {"android": "https://dc.lft.to/lastmile_qr_scan", "ios": "https://dc.lft.to/lastmile_qr_scan"}, "is_disabled": 0, "fusion_lat": 0.0, "name": "cd9725efd320ab7f2fd165d7a93a867b", "fusion_lon": 0.0}, {"is_reserved": 0, "type": "electric_scooter", "bike_id": "115503d3ecaa78133b958bef5795b552", "lat": 38.8935425, "lon": -77.02824733333334, "rental_uris": {"android": "https://dc.lft.to/lastmile_qr_scan", "ios": "https://dc.lft.to/lastmile_qr_scan"}, "is_disabled": 0, "fusion_lat": 0.0, "name": "115503d3ecaa78133b958bef5795b552", "fusion_lon": 0.0}, {"is_reserved": 0, "type": "electric_scooter", "bike_id": "d3bb83f9b88aa1b6cad5ba8374de2e25", "lat": 38.871624, "lon": -77.01321516666667, "rental_uris": {"android": "https://dc.lft.to/lastmile_qr_scan", "ios": "https://dc.lft.to/lastmile_qr_scan"}, "is_disabled": 0, "fusion_lat": 0.0, "name": "d3bb83f9b88aa1b6cad5ba8374de2e25", "fusion_lon": 0.0}, {"is_reserved": 0, "type": "electric_scooter", "bike_id": "055031fb83dbff13000364af719c8f85", "lat": 38.911171, "lon": -77.04356833333334, "rental_uris": {"android": "https://dc.lft.to/lastmile_qr_scan", "ios": "https://dc.lft.to/lastmile_qr_scan"}, "is_disabled": 0, "fusion_lat": 0.0, "name": "055031fb83dbff13000364af719c8f85", "fusion_lon": 0.0}, {"is_reserved": 0, "type": "electric_bike", "bike_id": "06d9571f455f762b9223483a8939547d", "lat": 38.9005365, "lon": -76.97787366666667, "rental_uris": {"android": "https://dc.lft.to/lastmile_qr_scan", "ios": "https://dc.lft.to/lastmile_qr_scan"}, "is_disabled": 0, "fusion_lat": 0.0, "name": "06d9571f455f762b9223483a8939547d", "fusion_lon": 0.0}, {"is_reserved": 0, "type": "electric_scooter", "bike_id": "3d140aaca988d0dc0096714b7cd0f721", "lat": 38.8726745, "lon": -77.01717766666667, "rental_uris": {"android": "https://dc.lft.to/lastmile_qr_scan", "ios": "https://dc.lft.to/lastmile_qr_scan"}, "is_disabled": 0, "fusion_lat": 0.0, "name": "3d140aaca988d0dc0096714b7cd0f721", "fusion_lon": 0.0}, {"is_reserved": 0, "type": "electric_scooter", "bike_id": "446439c415c16a11bfea3dd02a95081b", "lat": 38.9069345, "lon": -77.05625566666667, "rental_uris": {"android": "https://dc.lft.to/lastmile_qr_scan", "ios": "https://dc.lft.to/lastmile_qr_scan"}, "is_disabled": 0, "fusion_lat": 0.0, "name": "446439c415c16a11bfea3dd02a95081b", "fusion_lon": 0.0}, {"is_reserved": 0, "type": "electric_scooter", "bike_id": "3f1a2b6e63e36aa641bc70535ee3f59b", "lat": 38.917144666666665, "lon": -77.03861666666667, "rental_uris": {"android": "https://dc.lft.to/lastmile_qr_scan", "ios": "https://dc.lft.to/lastmile_qr_scan"}, "is_disabled": 0, "fusion_lat": 0.0, "name": "3f1a2b6e63e36aa641bc70535ee3f59b", "fusion_lon": 0.0}, {"is_reserved": 0, "type": "electric_scooter", "bike_id": "ca5d9d5ce8190cbca66d7c255871b817", "lat": 38.900286, "lon": -76.99812566666667, "rental_uris": {"android": "https://dc.lft.to/lastmile_qr_scan", "ios": "https://dc.lft.to/lastmile_qr_scan"}, "is_disabled": 0, "fusion_lat": 0.0, "name": "ca5d9d5ce8190cbca66d7c255871b817", "fusion_lon": 0.0}, {"is_reserved": 0, "type": "electric_scooter", "bike_id": "409404a8177bd64213ebf81cc66802d3", "lat": 38.906855666666665, "lon": -77.0626095, "rental_uris": {"android": "https://dc.lft.to/lastmile_qr_scan", "ios": "https://dc.lft.to/lastmile_qr_scan"}, "is_disabled": 0, "fusion_lat": 0.0, "name": "409404a8177bd64213ebf81cc66802d3", "fusion_lon": 0.0}, {"is_reserved": 0, "type": "electric_scooter", "bike_id": "c6a751b3889a659988a86ce2472925ee", "lat": 38.874997666666665, "lon": -77.00047033333334, "rental_uris": {"android": "https://dc.lft.to/lastmile_qr_scan", "ios": "https://dc.lft.to/lastmile_qr_scan"}, "is_disabled": 0, "fusion_lat": 0.0, "name": "c6a751b3889a659988a86ce2472925ee", "fusion_lon": 0.0}, {"is_reserved": 0, "type": "electric_scooter", "bike_id": "bb94d763edf5fb5f5f2cddf5cc874a56", "lat": 38.899687, "lon": -77.027053, "rental_uris": {"android": "https://dc.lft.to/lastmile_qr_scan", "ios": "https://dc.lft.to/lastmile_qr_scan"}, "is_disabled": 0, "fusion_lat": 0.0, "name": "bb94d763edf5fb5f5f2cddf5cc874a56", "fusion_lon": 0.0}, {"is_reserved": 0, "type": "electric_scooter", "bike_id": "31e3114e2a801f8c014f37bd79189562", "lat": 38.935294666666664, "lon": -77.02488133333334, "rental_uris": {"android": "https://dc.lft.to/lastmile_qr_scan", "ios": "https://dc.lft.to/lastmile_qr_scan"}, "is_disabled": 0, "fusion_lat": 0.0, "name": "31e3114e2a801f8c014f37bd79189562", "fusion_lon": 0.0}, {"is_reserved": 0, "type": "electric_bike", "bike_id": "6d1887a449a23b4d5179d4add6a4a944", "lat": 38.89450383333333, "lon": -77.01999466666666, "rental_uris": {"android": "https://dc.lft.to/lastmile_qr_scan", "ios": "https://dc.lft.to/lastmile_qr_scan"}, "is_disabled": 0, "fusion_lat": 0.0, "name": "6d1887a449a23b4d5179d4add6a4a944", "fusion_lon": 0.0}, {"is_reserved": 0, "type": "electric_scooter", "bike_id": "7fd6cdda314a3c02fe305a004b634a97", "lat": 38.916281, "lon": -77.01575, "rental_uris": {"android": "https://dc.lft.to/lastmile_qr_scan", "ios": "https://dc.lft.to/lastmile_qr_scan"}, "is_disabled": 0, "fusion_lat": 0.0, "name": "7fd6cdda314a3c02fe305a004b634a97", "fusion_lon": 0.0}, {"is_reserved": 0, "type": "electric_scooter", "bike_id": "6686f25af2be0867b2b770a80b6e7b16", "lat": 38.93548166666667, "lon": -77.02428116666667, "rental_uris": {"android": "https://dc.lft.to/lastmile_qr_scan", "ios": "https://dc.lft.to/lastmile_qr_scan"}, "is_disabled": 0, "fusion_lat": 0.0, "name": "6686f25af2be0867b2b770a80b6e7b16", "fusion_lon": 0.0}, {"is_reserved": 0, "type": "electric_scooter", "bike_id": "cc72ccff9b53ae60f24048a991dd88d8", "lat": 38.96647933333333, "lon": -77.00891916666667, "rental_uris": {"android": "https://dc.lft.to/lastmile_qr_scan", "ios": "https://dc.lft.to/lastmile_qr_scan"}, "is_disabled": 0, "fusion_lat": 0.0, "name": "cc72ccff9b53ae60f24048a991dd88d8", "fusion_lon": 0.0}, {"is_reserved": 0, "type": "electric_bike", "bike_id": "de926661649b3406faf54973d90e9e68", "lat": 38.99544066666667, "lon": -77.07462133333334, "rental_uris": {"android": "https://dc.lft.to/lastmile_qr_scan", "ios": "https://dc.lft.to/lastmile_qr_scan"}, "is_disabled": 0, "fusion_lat": 0.0, "name": "de926661649b3406faf54973d90e9e68", "fusion_lon": 0.0}, {"is_reserved": 0, "type": "electric_scooter", "bike_id": "eb35a6be23bc1398ec996630f2464db0", "lat": 38.931885666666666, "lon": -77.02832116666667, "rental_uris": {"android": "https://dc.lft.to/lastmile_qr_scan", "ios": "https://dc.lft.to/lastmile_qr_scan"}, "is_disabled": 0, "fusion_lat": 0.0, "name": "eb35a6be23bc1398ec996630f2464db0", "fusion_lon": 0.0}, {"is_reserved": 0, "type": "electric_scooter", "bike_id": "ab3ad17e370e4ba6fa009b0eaababe13", "lat": 38.9182745, "lon": -77.04157, "rental_uris": {"android": "https://dc.lft.to/lastmile_qr_scan", "ios": "https://dc.lft.to/lastmile_qr_scan"}, "is_disabled": 0, "fusion_lat": 0.0, "name": "ab3ad17e370e4ba6fa009b0eaababe13", "fusion_lon": 0.0}, {"is_reserved": 0, "type": "electric_scooter", "bike_id": "9e01aa77fb7fa5424a5d68f9d497e58a", "lat": 38.9526555, "lon": -77.02399533333333, "rental_uris": {"android": "https://dc.lft.to/lastmile_qr_scan", "ios": "https://dc.lft.to/lastmile_qr_scan"}, "is_disabled": 0, "fusion_lat": 0.0, "name": "9e01aa77fb7fa5424a5d68f9d497e58a", "fusion_lon": 0.0}, {"is_reserved": 0, "type": "electric_scooter", "bike_id": "8fd7c46520d1e3e9674ac636af68171f", "lat": 38.917081833333334, "lon": -77.03469683333333, "rental_uris": {"android": "https://dc.lft.to/lastmile_qr_scan", "ios": "https://dc.lft.to/lastmile_qr_scan"}, "is_disabled": 0, "fusion_lat": 0.0, "name": "8fd7c46520d1e3e9674ac636af68171f", "fusion_lon": 0.0}, {"is_reserved": 0, "type": "electric_scooter", "bike_id": "5d2dbf12b69467fbfb580eeb7377b1e0", "lat": 38.905348833333335, "lon": -77.05840983333333, "rental_uris": {"android": "https://dc.lft.to/lastmile_qr_scan", "ios": "https://dc.lft.to/lastmile_qr_scan"}, "is_disabled": 0, "fusion_lat": 0.0, "name": "5d2dbf12b69467fbfb580eeb7377b1e0", "fusion_lon": 0.0}, {"is_reserved": 0, "type": "electric_bike", "bike_id": "d5d252d2b605b209e5987d7a41c9aae6", "lat": 38.823382333333335, "lon": -77.05819433333333, "rental_uris": {"android": "https://dc.lft.to/lastmile_qr_scan", "ios": "https://dc.lft.to/lastmile_qr_scan"}, "is_disabled": 0, "fusion_lat": 0.0, "name": "d5d252d2b605b209e5987d7a41c9aae6", "fusion_lon": 0.0}, {"is_reserved": 0, "type": "electric_scooter", "bike_id": "4cfb032f50a8351a7b6d026a98d4a439", "lat": 38.9225785, "lon": -77.03660066666667, "rental_uris": {"android": "https://dc.lft.to/lastmile_qr_scan", "ios": "https://dc.lft.to/lastmile_qr_scan"}, "is_disabled": 0, "fusion_lat": 0.0, "name": "4cfb032f50a8351a7b6d026a98d4a439", "fusion_lon": 0.0}, {"is_reserved": 0, "type": "electric_scooter", "bike_id": "97d172a1e80a32b659357a09804f21a7", "lat": 38.902454, "lon": -77.01638283333334, "rental_uris": {"android": "https://dc.lft.to/lastmile_qr_scan", "ios": "https://dc.lft.to/lastmile_qr_scan"}, "is_disabled": 0, "fusion_lat": 0.0, "name": "97d172a1e80a32b659357a09804f21a7", "fusion_lon": 0.0}, {"is_reserved": 0, "type": "electric_bike", "bike_id": "d4c5214ebab5e11a63e66ef72b754623", "lat": 38.88389816666667, "lon": -76.95446983333333, "rental_uris": {"android": "https://dc.lft.to/lastmile_qr_scan", "ios": "https://dc.lft.to/lastmile_qr_scan"}, "is_disabled": 0, "fusion_lat": 0.0, "name": "d4c5214ebab5e11a63e66ef72b754623", "fusion_lon": 0.0}, {"is_reserved": 0, "type": "electric_scooter", "bike_id": "30a95f9a9dda3ed90d6ea12fda56b201", "lat": 38.90759166666667, "lon": -76.99876283333333, "rental_uris": {"android": "https://dc.lft.to/lastmile_qr_scan", "ios": "https://dc.lft.to/lastmile_qr_scan"}, "is_disabled": 0, "fusion_lat": 0.0, "name": "30a95f9a9dda3ed90d6ea12fda56b201", "fusion_lon": 0.0}, {"is_reserved": 0, "type": "electric_scooter", "bike_id": "8d70e6044921a4da9fb4a5d2be8dc539", "lat": 38.900029833333335, "lon": -77.00671083333333, "rental_uris": {"android": "https://dc.lft.to/lastmile_qr_scan", "ios": "https://dc.lft.to/lastmile_qr_scan"}, "is_disabled": 0, "fusion_lat": 0.0, "name": "8d70e6044921a4da9fb4a5d2be8dc539", "fusion_lon": 0.0}, {"is_reserved": 0, "type": "electric_scooter", "bike_id": "189f1d650c0912606a078cc963d1937c", "lat": 38.933501, "lon": -77.02422916666667, "rental_uris": {"android": "https://dc.lft.to/lastmile_qr_scan", "ios": "https://dc.lft.to/lastmile_qr_scan"}, "is_disabled": 0, "fusion_lat": 0.0, "name": "189f1d650c0912606a078cc963d1937c", "fusion_lon": 0.0}, {"is_reserved": 0, "type": "electric_bike", "bike_id": "caae4d8ad7cf6dbe9eab334bbe32c8e3", "lat": 38.899367833333336, "lon": -77.02158566666667, "rental_uris": {"android": "https://dc.lft.to/lastmile_qr_scan", "ios": "https://dc.lft.to/lastmile_qr_scan"}, "is_disabled": 0, "fusion_lat": 0.0, "name": "caae4d8ad7cf6dbe9eab334bbe32c8e3", "fusion_lon": 0.0}, {"is_reserved": 0, "type": "electric_bike", "bike_id": "24007f56078311b782eebb48a18efcdb", "lat": 38.83234316666667, "lon": -76.94623866666667, "rental_uris": {"android": "https://dc.lft.to/lastmile_qr_scan", "ios": "https://dc.lft.to/lastmile_qr_scan"}, "is_disabled": 0, "fusion_lat": 0.0, "name": "24007f56078311b782eebb48a18efcdb", "fusion_lon": 0.0}, {"is_reserved": 0, "type": "electric_scooter", "bike_id": "11f95b1652da14f76212de90df133e7c", "lat": 38.91257366666667, "lon": -77.02664383333334, "rental_uris": {"android": "https://dc.lft.to/lastmile_qr_scan", "ios": "https://dc.lft.to/lastmile_qr_scan"}, "is_disabled": 0, "fusion_lat": 0.0, "name": "11f95b1652da14f76212de90df133e7c", "fusion_lon": 0.0}, {"is_reserved": 0, "type": "electric_scooter", "bike_id": "2ee976c6606d1a5542ff2b71d65c0d8f", "lat": 38.89222133333333, "lon": -77.02228283333334, "rental_uris": {"android": "https://dc.lft.to/lastmile_qr_scan", "ios": "https://dc.lft.to/lastmile_qr_scan"}, "is_disabled": 0, "fusion_lat": 0.0, "name": "2ee976c6606d1a5542ff2b71d65c0d8f", "fusion_lon": 0.0}, {"is_reserved": 0, "type": "electric_scooter", "bike_id": "1328dcefb8efda18f977a0c8f0aaa5d5", "lat": 38.86580216666667, "lon": -76.99035716666667, "rental_uris": {"android": "https://dc.lft.to/lastmile_qr_scan", "ios": "https://dc.lft.to/lastmile_qr_scan"}, "is_disabled": 0, "fusion_lat": 0.0, "name": "1328dcefb8efda18f977a0c8f0aaa5d5", "fusion_lon": 0.0}, {"is_reserved": 0, "type": "electric_scooter", "bike_id": "6c20e43bbd427bb3457a3b3f1808706b", "lat": 38.89598866666667, "lon": -76.92988516666666, "rental_uris": {"android": "https://dc.lft.to/lastmile_qr_scan", "ios": "https://dc.lft.to/lastmile_qr_scan"}, "is_disabled": 0, "fusion_lat": 0.0, "name": "6c20e43bbd427bb3457a3b3f1808706b", "fusion_lon": 0.0}, {"is_reserved": 0, "type": "electric_bike", "bike_id": "91cd170c69f1e054044a295d03389a95", "lat": 38.949113833333335, "lon": -77.02420383333333, "rental_uris": {"android": "https://dc.lft.to/lastmile_qr_scan", "ios": "https://dc.lft.to/lastmile_qr_scan"}, "is_disabled": 0, "fusion_lat": 0.0, "name": "91cd170c69f1e054044a295d03389a95", "fusion_lon": 0.0}, {"is_reserved": 0, "type": "electric_scooter", "bike_id": "41ee0939cbe1edc7dad7beae6e3a353b", "lat": 38.905388333333335, "lon": -76.98839233333334, "rental_uris": {"android": "https://dc.lft.to/lastmile_qr_scan", "ios": "https://dc.lft.to/lastmile_qr_scan"}, "is_disabled": 0, "fusion_lat": 0.0, "name": "41ee0939cbe1edc7dad7beae6e3a353b", "fusion_lon": 0.0}, {"is_reserved": 0, "type": "electric_scooter", "bike_id": "c0435dfaed51c8af9dc2f46916b5655d", "lat": 38.90261433333333, "lon": -77.01726633333334, "rental_uris": {"android": "https://dc.lft.to/lastmile_qr_scan", "ios": "https://dc.lft.to/lastmile_qr_scan"}, "is_disabled": 0, "fusion_lat": 0.0, "name": "c0435dfaed51c8af9dc2f46916b5655d", "fusion_lon": 0.0}, {"is_reserved": 0, "type": "electric_scooter", "bike_id": "934ed9292f5286f07f83d1d37fda94db", "lat": 38.909849333333334, "lon": -77.03198016666667, "rental_uris": {"android": "https://dc.lft.to/lastmile_qr_scan", "ios": "https://dc.lft.to/lastmile_qr_scan"}, "is_disabled": 0, "fusion_lat": 0.0, "name": "934ed9292f5286f07f83d1d37fda94db", "fusion_lon": 0.0}, {"is_reserved": 0, "type": "electric_bike", "bike_id": "01836816b28b356e4db33f59fbd01490", "lat": 38.90981933333333, "lon": -76.98519516666667, "rental_uris": {"android": "https://dc.lft.to/lastmile_qr_scan", "ios": "https://dc.lft.to/lastmile_qr_scan"}, "is_disabled": 0, "fusion_lat": 0.0, "name": "01836816b28b356e4db33f59fbd01490", "fusion_lon": 0.0}, {"is_reserved": 0, "type": "electric_scooter", "bike_id": "2d4becf1a0278dc7c2e22a96b73d1ad4", "lat": 38.92028916666667, "lon": -77.02716933333333, "rental_uris": {"android": "https://dc.lft.to/lastmile_qr_scan", "ios": "https://dc.lft.to/lastmile_qr_scan"}, "is_disabled": 0, "fusion_lat": 0.0, "name": "2d4becf1a0278dc7c2e22a96b73d1ad4", "fusion_lon": 0.0}, {"is_reserved": 0, "type": "electric_scooter", "bike_id": "2f1d99db083da99ec335fd41541894aa", "lat": 38.93039383333333, "lon": -77.02969366666666, "rental_uris": {"android": "https://dc.lft.to/lastmile_qr_scan", "ios": "https://dc.lft.to/lastmile_qr_scan"}, "is_disabled": 0, "fusion_lat": 0.0, "name": "2f1d99db083da99ec335fd41541894aa", "fusion_lon": 0.0}, {"is_reserved": 0, "type": "electric_scooter", "bike_id": "c56b8c7182d1556ae4643d399b461237", "lat": 38.91705366666667, "lon": -77.02435016666666, "rental_uris": {"android": "https://dc.lft.to/lastmile_qr_scan", "ios": "https://dc.lft.to/lastmile_qr_scan"}, "is_disabled": 0, "fusion_lat": 0.0, "name": "c56b8c7182d1556ae4643d399b461237", "fusion_lon": 0.0}, {"is_reserved": 0, "type": "electric_scooter", "bike_id": "c894ef98620b5ce85aee5b3bd2df704c", "lat": 38.9177915, "lon": -77.0474485, "rental_uris": {"android": "https://dc.lft.to/lastmile_qr_scan", "ios": "https://dc.lft.to/lastmile_qr_scan"}, "is_disabled": 0, "fusion_lat": 0.0, "name": "c894ef98620b5ce85aee5b3bd2df704c", "fusion_lon": 0.0}, {"is_reserved": 0, "type": "electric_scooter", "bike_id": "970038621217c11d59973455fdff1ace", "lat": 38.906099833333336, "lon": -77.06447566666667, "rental_uris": {"android": "https://dc.lft.to/lastmile_qr_scan", "ios": "https://dc.lft.to/lastmile_qr_scan"}, "is_disabled": 0, "fusion_lat": 0.0, "name": "970038621217c11d59973455fdff1ace", "fusion_lon": 0.0}, {"is_reserved": 0, "type": "electric_scooter", "bike_id": "4583c56abc815f51a702b39227405edd", "lat": 38.90402183333333, "lon": -77.004319, "rental_uris": {"android": "https://dc.lft.to/lastmile_qr_scan", "ios": "https://dc.lft.to/lastmile_qr_scan"}, "is_disabled": 0, "fusion_lat": 0.0, "name": "4583c56abc815f51a702b39227405edd", "fusion_lon": 0.0}, {"is_reserved": 0, "type": "electric_scooter", "bike_id": "cd66e06d4dddeb8febf98763dd024637", "lat": 38.897001333333336, "lon": -77.05028466666667, "rental_uris": {"android": "https://dc.lft.to/lastmile_qr_scan", "ios": "https://dc.lft.to/lastmile_qr_scan"}, "is_disabled": 0, "fusion_lat": 0.0, "name": "cd66e06d4dddeb8febf98763dd024637", "fusion_lon": 0.0}, {"is_reserved": 0, "type": "electric_scooter", "bike_id": "7c7b7880cc7b1ad4c8a36f0cf804c723", "lat": 38.86491916666667, "lon": -76.97747083333333, "rental_uris": {"android": "https://dc.lft.to/lastmile_qr_scan", "ios": "https://dc.lft.to/lastmile_qr_scan"}, "is_disabled": 0, "fusion_lat": 0.0, "name": "7c7b7880cc7b1ad4c8a36f0cf804c723", "fusion_lon": 0.0}, {"is_reserved": 0, "type": "electric_scooter", "bike_id": "fbb180af46d76b130e5119a6d1a4d420", "lat": 38.89475633333333, "lon": -76.99570466666667, "rental_uris": {"android": "https://dc.lft.to/lastmile_qr_scan", "ios": "https://dc.lft.to/lastmile_qr_scan"}, "is_disabled": 0, "fusion_lat": 0.0, "name": "fbb180af46d76b130e5119a6d1a4d420", "fusion_lon": 0.0}, {"is_reserved": 0, "type": "electric_scooter", "bike_id": "a1809ae0463ad3ccf7c2defc05468d50", "lat": 38.929385, "lon": -77.037527, "rental_uris": {"android": "https://dc.lft.to/lastmile_qr_scan", "ios": "https://dc.lft.to/lastmile_qr_scan"}, "is_disabled": 0, "fusion_lat": 0.0, "name": "a1809ae0463ad3ccf7c2defc05468d50", "fusion_lon": 0.0}, {"is_reserved": 0, "type": "electric_scooter", "bike_id": "42047373eca1b8c3e3b6e64efd6f269e", "lat": 38.89353083333334, "lon": -77.01733083333333, "rental_uris": {"android": "https://dc.lft.to/lastmile_qr_scan", "ios": "https://dc.lft.to/lastmile_qr_scan"}, "is_disabled": 0, "fusion_lat": 0.0, "name": "42047373eca1b8c3e3b6e64efd6f269e", "fusion_lon": 0.0}, {"is_reserved": 0, "type": "electric_scooter", "bike_id": "199004d221febc072796bccc67deee3a", "lat": 38.88529583333333, "lon": -76.99710266666666, "rental_uris": {"android": "https://dc.lft.to/lastmile_qr_scan", "ios": "https://dc.lft.to/lastmile_qr_scan"}, "is_disabled": 0, "fusion_lat": 0.0, "name": "199004d221febc072796bccc67deee3a", "fusion_lon": 0.0}, {"is_reserved": 0, "type": "electric_scooter", "bike_id": "81569d3117fe822e438372a615e14aef", "lat": 38.90588283333334, "lon": -77.0410295, "rental_uris": {"android": "https://dc.lft.to/lastmile_qr_scan", "ios": "https://dc.lft.to/lastmile_qr_scan"}, "is_disabled": 0, "fusion_lat": 0.0, "name": "81569d3117fe822e438372a615e14aef", "fusion_lon": 0.0}, {"is_reserved": 0, "type": "electric_scooter", "bike_id": "e3ab37c135cb5b1fc82bbcbb16fa842a", "lat": 38.88158766666667, "lon": -77.02752083333333, "rental_uris": {"android": "https://dc.lft.to/lastmile_qr_scan", "ios": "https://dc.lft.to/lastmile_qr_scan"}, "is_disabled": 0, "fusion_lat": 0.0, "name": "e3ab37c135cb5b1fc82bbcbb16fa842a", "fusion_lon": 0.0}, {"is_reserved": 0, "type": "electric_scooter", "bike_id": "8544aced0b7eaaa92d2cef6ed30c1bcb", "lat": 38.92048916666667, "lon": -77.02577616666666, "rental_uris": {"android": "https://dc.lft.to/lastmile_qr_scan", "ios": "https://dc.lft.to/lastmile_qr_scan"}, "is_disabled": 0, "fusion_lat": 0.0, "name": "8544aced0b7eaaa92d2cef6ed30c1bcb", "fusion_lon": 0.0}, {"is_reserved": 0, "type": "electric_bike", "bike_id": "6eae6eda18b0043bd570b73ab81cb70a", "lat": 38.91732016666667, "lon": -77.0175, "rental_uris": {"android": "https://dc.lft.to/lastmile_qr_scan", "ios": "https://dc.lft.to/lastmile_qr_scan"}, "is_disabled": 0, "fusion_lat": 0.0, "name": "6eae6eda18b0043bd570b73ab81cb70a", "fusion_lon": 0.0}, {"is_reserved": 0, "type": "electric_scooter", "bike_id": "2af963e6a3b48323dafbafcc0f877fb6", "lat": 38.898977333333335, "lon": -77.03335816666667, "rental_uris": {"android": "https://dc.lft.to/lastmile_qr_scan", "ios": "https://dc.lft.to/lastmile_qr_scan"}, "is_disabled": 0, "fusion_lat": 0.0, "name": "2af963e6a3b48323dafbafcc0f877fb6", "fusion_lon": 0.0}, {"is_reserved": 0, "type": "electric_scooter", "bike_id": "f6aec96daaaeb73cf700402c9338d57e", "lat": 38.89804683333333, "lon": -76.995073, "rental_uris": {"android": "https://dc.lft.to/lastmile_qr_scan", "ios": "https://dc.lft.to/lastmile_qr_scan"}, "is_disabled": 0, "fusion_lat": 0.0, "name": "f6aec96daaaeb73cf700402c9338d57e", "fusion_lon": 0.0}, {"is_reserved": 0, "type": "electric_scooter", "bike_id": "8379568df3dc97f9b4d9a57cb090ad14", "lat": 38.918267166666666, "lon": -77.045265, "rental_uris": {"android": "https://dc.lft.to/lastmile_qr_scan", "ios": "https://dc.lft.to/lastmile_qr_scan"}, "is_disabled": 0, "fusion_lat": 0.0, "name": "8379568df3dc97f9b4d9a57cb090ad14", "fusion_lon": 0.0}, {"is_reserved": 0, "type": "electric_bike", "bike_id": "34b40aed2809ceddfa671af001df7b5d", "lat": 38.9211715, "lon": -76.98881583333333, "rental_uris": {"android": "https://dc.lft.to/lastmile_qr_scan", "ios": "https://dc.lft.to/lastmile_qr_scan"}, "is_disabled": 0, "fusion_lat": 0.0, "name": "34b40aed2809ceddfa671af001df7b5d", "fusion_lon": 0.0}, {"is_reserved": 0, "type": "electric_scooter", "bike_id": "2c77229458e6b9fea5f98d9950fafac2", "lat": 38.92157516666666, "lon": -77.03328083333334, "rental_uris": {"android": "https://dc.lft.to/lastmile_qr_scan", "ios": "https://dc.lft.to/lastmile_qr_scan"}, "is_disabled": 0, "fusion_lat": 0.0, "name": "2c77229458e6b9fea5f98d9950fafac2", "fusion_lon": 0.0}, {"is_reserved": 0, "type": "electric_scooter", "bike_id": "0b9c88b74d55c3665dde1a6f096edb9a", "lat": 38.90768116666667, "lon": -77.00753183333333, "rental_uris": {"android": "https://dc.lft.to/lastmile_qr_scan", "ios": "https://dc.lft.to/lastmile_qr_scan"}, "is_disabled": 0, "fusion_lat": 0.0, "name": "0b9c88b74d55c3665dde1a6f096edb9a", "fusion_lon": 0.0}, {"is_reserved": 0, "type": "electric_bike", "bike_id": "bc770303d5b31ceb47eb1c36a1d9a4c0", "lat": 38.958467166666665, "lon": -76.98584916666667, "rental_uris": {"android": "https://dc.lft.to/lastmile_qr_scan", "ios": "https://dc.lft.to/lastmile_qr_scan"}, "is_disabled": 0, "fusion_lat": 0.0, "name": "bc770303d5b31ceb47eb1c36a1d9a4c0", "fusion_lon": 0.0}, {"is_reserved": 0, "type": "electric_scooter", "bike_id": "016c6b0f3e8dd33a743a06fff21ac466", "lat": 38.9266865, "lon": -77.0080285, "rental_uris": {"android": "https://dc.lft.to/lastmile_qr_scan", "ios": "https://dc.lft.to/lastmile_qr_scan"}, "is_disabled": 0, "fusion_lat": 0.0, "name": "016c6b0f3e8dd33a743a06fff21ac466", "fusion_lon": 0.0}, {"is_reserved": 0, "type": "electric_scooter", "bike_id": "bd44740c67bf1ad3ba44327440bb5894", "lat": 38.9244785, "lon": -77.020296, "rental_uris": {"android": "https://dc.lft.to/lastmile_qr_scan", "ios": "https://dc.lft.to/lastmile_qr_scan"}, "is_disabled": 0, "fusion_lat": 0.0, "name": "bd44740c67bf1ad3ba44327440bb5894", "fusion_lon": 0.0}, {"is_reserved": 0, "type": "electric_scooter", "bike_id": "86ec93c74cf1c866621bf8e03839c277", "lat": 38.94180716666666, "lon": -77.02565633333333, "rental_uris": {"android": "https://dc.lft.to/lastmile_qr_scan", "ios": "https://dc.lft.to/lastmile_qr_scan"}, "is_disabled": 0, "fusion_lat": 0.0, "name": "86ec93c74cf1c866621bf8e03839c277", "fusion_lon": 0.0}, {"is_reserved": 0, "type": "electric_scooter", "bike_id": "0bfe1c87c51e00ee3218055e61d63a1f", "lat": 38.907261166666665, "lon": -77.04753633333333, "rental_uris": {"android": "https://dc.lft.to/lastmile_qr_scan", "ios": "https://dc.lft.to/lastmile_qr_scan"}, "is_disabled": 0, "fusion_lat": 0.0, "name": "0bfe1c87c51e00ee3218055e61d63a1f", "fusion_lon": 0.0}, {"is_reserved": 0, "type": "electric_scooter", "bike_id": "9ba71d03fd7b900b668bb5bc728fc338", "lat": 38.91920983333333, "lon": -77.03583066666667, "rental_uris": {"android": "https://dc.lft.to/lastmile_qr_scan", "ios": "https://dc.lft.to/lastmile_qr_scan"}, "is_disabled": 0, "fusion_lat": 0.0, "name": "9ba71d03fd7b900b668bb5bc728fc338", "fusion_lon": 0.0}, {"is_reserved": 0, "type": "electric_scooter", "bike_id": "53e4f04ac4cc639c4e42f56cb3683656", "lat": 38.8990115, "lon": -77.033406, "rental_uris": {"android": "https://dc.lft.to/lastmile_qr_scan", "ios": "https://dc.lft.to/lastmile_qr_scan"}, "is_disabled": 0, "fusion_lat": 0.0, "name": "53e4f04ac4cc639c4e42f56cb3683656", "fusion_lon": 0.0}, {"is_reserved": 0, "type": "electric_scooter", "bike_id": "48439720247d0f46a463926aead42b68", "lat": 38.8899625, "lon": -77.00149383333333, "rental_uris": {"android": "https://dc.lft.to/lastmile_qr_scan", "ios": "https://dc.lft.to/lastmile_qr_scan"}, "is_disabled": 0, "fusion_lat": 0.0, "name": "48439720247d0f46a463926aead42b68", "fusion_lon": 0.0}, {"is_reserved": 0, "type": "electric_bike", "bike_id": "4e7ce9475ac21a9421ef265f56f4970a", "lat": 38.9122695, "lon": -77.06597783333333, "rental_uris": {"android": "https://dc.lft.to/lastmile_qr_scan", "ios": "https://dc.lft.to/lastmile_qr_scan"}, "is_disabled": 0, "fusion_lat": 0.0, "name": "4e7ce9475ac21a9421ef265f56f4970a", "fusion_lon": 0.0}, {"is_reserved": 0, "type": "electric_bike", "bike_id": "e7fa7e8f10c28a5d7cc4166a9fd90877", "lat": 38.91584866666667, "lon": -77.0450535, "rental_uris": {"android": "https://dc.lft.to/lastmile_qr_scan", "ios": "https://dc.lft.to/lastmile_qr_scan"}, "is_disabled": 0, "fusion_lat": 0.0, "name": "e7fa7e8f10c28a5d7cc4166a9fd90877", "fusion_lon": 0.0}, {"is_reserved": 0, "type": "electric_scooter", "bike_id": "6e7f888561e871c3faf7321bcbb612ce", "lat": 38.956286, "lon": -77.02779766666667, "rental_uris": {"android": "https://dc.lft.to/lastmile_qr_scan", "ios": "https://dc.lft.to/lastmile_qr_scan"}, "is_disabled": 0, "fusion_lat": 0.0, "name": "6e7f888561e871c3faf7321bcbb612ce", "fusion_lon": 0.0}, {"is_reserved": 0, "type": "electric_scooter", "bike_id": "e26c4aa0cbb424f91448ac77fc5f75ac", "lat": 38.90719466666667, "lon": -77.04506733333334, "rental_uris": {"android": "https://dc.lft.to/lastmile_qr_scan", "ios": "https://dc.lft.to/lastmile_qr_scan"}, "is_disabled": 0, "fusion_lat": 0.0, "name": "e26c4aa0cbb424f91448ac77fc5f75ac", "fusion_lon": 0.0}, {"is_reserved": 0, "type": "electric_scooter", "bike_id": "365f21708798751556e15cb954827588", "lat": 38.9145215, "lon": -77.0020865, "rental_uris": {"android": "https://dc.lft.to/lastmile_qr_scan", "ios": "https://dc.lft.to/lastmile_qr_scan"}, "is_disabled": 0, "fusion_lat": 0.0, "name": "365f21708798751556e15cb954827588", "fusion_lon": 0.0}, {"is_reserved": 0, "type": "electric_scooter", "bike_id": "03b3add8bd65c3d51124ebd54bc49ad3", "lat": 38.93390983333333, "lon": -77.02383333333333, "rental_uris": {"android": "https://dc.lft.to/lastmile_qr_scan", "ios": "https://dc.lft.to/lastmile_qr_scan"}, "is_disabled": 0, "fusion_lat": 0.0, "name": "03b3add8bd65c3d51124ebd54bc49ad3", "fusion_lon": 0.0}, {"is_reserved": 0, "type": "electric_scooter", "bike_id": "2ae0128486aed79b6485bcb41188f60e", "lat": 38.910996, "lon": -77.050665, "rental_uris": {"android": "https://dc.lft.to/lastmile_qr_scan", "ios": "https://dc.lft.to/lastmile_qr_scan"}, "is_disabled": 0, "fusion_lat": 0.0, "name": "2ae0128486aed79b6485bcb41188f60e", "fusion_lon": 0.0}, {"is_reserved": 0, "type": "electric_scooter", "bike_id": "1423ba66682ac33c4ccc3cc924b1097b", "lat": 38.905634, "lon": -77.04164666666667, "rental_uris": {"android": "https://dc.lft.to/lastmile_qr_scan", "ios": "https://dc.lft.to/lastmile_qr_scan"}, "is_disabled": 0, "fusion_lat": 0.0, "name": "1423ba66682ac33c4ccc3cc924b1097b", "fusion_lon": 0.0}, {"is_reserved": 0, "type": "electric_scooter", "bike_id": "da0dd39bc7d2cf20666a10769dd9c1b8", "lat": 38.92774883333333, "lon": -77.02779033333333, "rental_uris": {"android": "https://dc.lft.to/lastmile_qr_scan", "ios": "https://dc.lft.to/lastmile_qr_scan"}, "is_disabled": 0, "fusion_lat": 0.0, "name": "da0dd39bc7d2cf20666a10769dd9c1b8", "fusion_lon": 0.0}, {"is_reserved": 0, "type": "electric_scooter", "bike_id": "2fdc05f030ab86aadd74549bf041d4d4", "lat": 38.923225333333335, "lon": -77.02899866666667, "rental_uris": {"android": "https://dc.lft.to/lastmile_qr_scan", "ios": "https://dc.lft.to/lastmile_qr_scan"}, "is_disabled": 0, "fusion_lat": 0.0, "name": "2fdc05f030ab86aadd74549bf041d4d4", "fusion_lon": 0.0}, {"is_reserved": 0, "type": "electric_scooter", "bike_id": "01d37b7e537ac343efb77416bdf485b8", "lat": 38.93403033333333, "lon": -77.03269583333334, "rental_uris": {"android": "https://dc.lft.to/lastmile_qr_scan", "ios": "https://dc.lft.to/lastmile_qr_scan"}, "is_disabled": 0, "fusion_lat": 0.0, "name": "01d37b7e537ac343efb77416bdf485b8", "fusion_lon": 0.0}, {"is_reserved": 0, "type": "electric_scooter", "bike_id": "85272b4ac7350938507dcb49c0f1c979", "lat": 38.905294833333336, "lon": -77.06704783333333, "rental_uris": {"android": "https://dc.lft.to/lastmile_qr_scan", "ios": "https://dc.lft.to/lastmile_qr_scan"}, "is_disabled": 0, "fusion_lat": 0.0, "name": "85272b4ac7350938507dcb49c0f1c979", "fusion_lon": 0.0}, {"is_reserved": 0, "type": "electric_scooter", "bike_id": "676b1999c2c56f5ae958cfe234abe50b", "lat": 38.8864495, "lon": -76.99623666666666, "rental_uris": {"android": "https://dc.lft.to/lastmile_qr_scan", "ios": "https://dc.lft.to/lastmile_qr_scan"}, "is_disabled": 0, "fusion_lat": 0.0, "name": "676b1999c2c56f5ae958cfe234abe50b", "fusion_lon": 0.0}, {"is_reserved": 0, "type": "electric_scooter", "bike_id": "4edd70cdf5d164e4b5529e1254102bc7", "lat": 38.9277235, "lon": -77.02779133333334, "rental_uris": {"android": "https://dc.lft.to/lastmile_qr_scan", "ios": "https://dc.lft.to/lastmile_qr_scan"}, "is_disabled": 0, "fusion_lat": 0.0, "name": "4edd70cdf5d164e4b5529e1254102bc7", "fusion_lon": 0.0}, {"is_reserved": 0, "type": "electric_scooter", "bike_id": "358735426b43150d47e7aaab04b6a523", "lat": 38.89439633333333, "lon": -76.98091166666667, "rental_uris": {"android": "https://dc.lft.to/lastmile_qr_scan", "ios": "https://dc.lft.to/lastmile_qr_scan"}, "is_disabled": 0, "fusion_lat": 0.0, "name": "358735426b43150d47e7aaab04b6a523", "fusion_lon": 0.0}, {"is_reserved": 0, "type": "electric_scooter", "bike_id": "2cfcca563e5a67e72dd4c3d9776ac71c", "lat": 38.910287833333335, "lon": -77.00755516666666, "rental_uris": {"android": "https://dc.lft.to/lastmile_qr_scan", "ios": "https://dc.lft.to/lastmile_qr_scan"}, "is_disabled": 0, "fusion_lat": 0.0, "name": "2cfcca563e5a67e72dd4c3d9776ac71c", "fusion_lon": 0.0}, {"is_reserved": 0, "type": "electric_scooter", "bike_id": "973da0f5c3cad99a935e0fb90631d494", "lat": 38.90423, "lon": -77.02597533333334, "rental_uris": {"android": "https://dc.lft.to/lastmile_qr_scan", "ios": "https://dc.lft.to/lastmile_qr_scan"}, "is_disabled": 0, "fusion_lat": 0.0, "name": "973da0f5c3cad99a935e0fb90631d494", "fusion_lon": 0.0}, {"is_reserved": 0, "type": "electric_scooter", "bike_id": "fcf351aafb75950b5d307b93aeca5c43", "lat": 38.88771116666667, "lon": -76.93265116666667, "rental_uris": {"android": "https://dc.lft.to/lastmile_qr_scan", "ios": "https://dc.lft.to/lastmile_qr_scan"}, "is_disabled": 0, "fusion_lat": 0.0, "name": "fcf351aafb75950b5d307b93aeca5c43", "fusion_lon": 0.0}, {"is_reserved": 0, "type": "electric_scooter", "bike_id": "37b2059145266f3c858a1faeb5fa95f3", "lat": 38.93670016666667, "lon": -77.02456933333333, "rental_uris": {"android": "https://dc.lft.to/lastmile_qr_scan", "ios": "https://dc.lft.to/lastmile_qr_scan"}, "is_disabled": 0, "fusion_lat": 0.0, "name": "37b2059145266f3c858a1faeb5fa95f3", "fusion_lon": 0.0}, {"is_reserved": 0, "type": "electric_scooter", "bike_id": "ba728e4301105026be94a11d7136e621", "lat": 38.93189566666667, "lon": -77.02629066666667, "rental_uris": {"android": "https://dc.lft.to/lastmile_qr_scan", "ios": "https://dc.lft.to/lastmile_qr_scan"}, "is_disabled": 0, "fusion_lat": 0.0, "name": "ba728e4301105026be94a11d7136e621", "fusion_lon": 0.0}, {"is_reserved": 0, "type": "electric_scooter", "bike_id": "dcb8935bd74a9be3f9261f1de23dc90d", "lat": 38.905166333333334, "lon": -76.99569383333333, "rental_uris": {"android": "https://dc.lft.to/lastmile_qr_scan", "ios": "https://dc.lft.to/lastmile_qr_scan"}, "is_disabled": 0, "fusion_lat": 0.0, "name": "dcb8935bd74a9be3f9261f1de23dc90d", "fusion_lon": 0.0}, {"is_reserved": 0, "type": "electric_scooter", "bike_id": "99c6ac63ee10a0bdb1c5a493e81b17fd", "lat": 38.9211415, "lon": -77.03927816666666, "rental_uris": {"android": "https://dc.lft.to/lastmile_qr_scan", "ios": "https://dc.lft.to/lastmile_qr_scan"}, "is_disabled": 0, "fusion_lat": 0.0, "name": "99c6ac63ee10a0bdb1c5a493e81b17fd", "fusion_lon": 0.0}, {"is_reserved": 0, "type": "electric_scooter", "bike_id": "2f12985c7e809826db69dd582c22e31d", "lat": 38.900230666666666, "lon": -77.04084983333334, "rental_uris": {"android": "https://dc.lft.to/lastmile_qr_scan", "ios": "https://dc.lft.to/lastmile_qr_scan"}, "is_disabled": 0, "fusion_lat": 0.0, "name": "2f12985c7e809826db69dd582c22e31d", "fusion_lon": 0.0}, {"is_reserved": 0, "type": "electric_bike", "bike_id": "9b18a898ee7ab1fa8ddadc034ec32f95", "lat": 38.93210066666666, "lon": -77.02246483333333, "rental_uris": {"android": "https://dc.lft.to/lastmile_qr_scan", "ios": "https://dc.lft.to/lastmile_qr_scan"}, "is_disabled": 0, "fusion_lat": 0.0, "name": "9b18a898ee7ab1fa8ddadc034ec32f95", "fusion_lon": 0.0}, {"is_reserved": 0, "type": "electric_scooter", "bike_id": "b163797fc8638ab93dc03475628d65ad", "lat": 38.896505166666664, "lon": -77.03304016666667, "rental_uris": {"android": "https://dc.lft.to/lastmile_qr_scan", "ios": "https://dc.lft.to/lastmile_qr_scan"}, "is_disabled": 0, "fusion_lat": 0.0, "name": "b163797fc8638ab93dc03475628d65ad", "fusion_lon": 0.0}, {"is_reserved": 0, "type": "electric_scooter", "bike_id": "18440128638f67f504e4cd58b1302fc9", "lat": 38.95959116666667, "lon": -77.07262633333333, "rental_uris": {"android": "https://dc.lft.to/lastmile_qr_scan", "ios": "https://dc.lft.to/lastmile_qr_scan"}, "is_disabled": 0, "fusion_lat": 0.0, "name": "18440128638f67f504e4cd58b1302fc9", "fusion_lon": 0.0}, {"is_reserved": 0, "type": "electric_scooter", "bike_id": "8345b7cdafccc45fdd8c283ac5def71d", "lat": 38.889149833333335, "lon": -76.993783, "rental_uris": {"android": "https://dc.lft.to/lastmile_qr_scan", "ios": "https://dc.lft.to/lastmile_qr_scan"}, "is_disabled": 0, "fusion_lat": 0.0, "name": "8345b7cdafccc45fdd8c283ac5def71d", "fusion_lon": 0.0}, {"is_reserved": 0, "type": "electric_scooter", "bike_id": "224a071808a58216aef3d334058145e5", "lat": 38.8820095, "lon": -77.00605233333333, "rental_uris": {"android": "https://dc.lft.to/lastmile_qr_scan", "ios": "https://dc.lft.to/lastmile_qr_scan"}, "is_disabled": 0, "fusion_lat": 0.0, "name": "224a071808a58216aef3d334058145e5", "fusion_lon": 0.0}, {"is_reserved": 0, "type": "electric_scooter", "bike_id": "679ea6a6ae938fc9e2d7c29665773289", "lat": 38.9191575, "lon": -76.9986, "rental_uris": {"android": "https://dc.lft.to/lastmile_qr_scan", "ios": "https://dc.lft.to/lastmile_qr_scan"}, "is_disabled": 0, "fusion_lat": 0.0, "name": "679ea6a6ae938fc9e2d7c29665773289", "fusion_lon": 0.0}, {"is_reserved": 0, "type": "electric_scooter", "bike_id": "0d641fc6751cc18f37aaaed4566a241a", "lat": 38.920518666666666, "lon": -77.03203233333333, "rental_uris": {"android": "https://dc.lft.to/lastmile_qr_scan", "ios": "https://dc.lft.to/lastmile_qr_scan"}, "is_disabled": 0, "fusion_lat": 0.0, "name": "0d641fc6751cc18f37aaaed4566a241a", "fusion_lon": 0.0}, {"is_reserved": 0, "type": "electric_scooter", "bike_id": "ac9834d778079f16b6229fc06ef0dc74", "lat": 38.886902666666664, "lon": -77.02003666666667, "rental_uris": {"android": "https://dc.lft.to/lastmile_qr_scan", "ios": "https://dc.lft.to/lastmile_qr_scan"}, "is_disabled": 0, "fusion_lat": 0.0, "name": "ac9834d778079f16b6229fc06ef0dc74", "fusion_lon": 0.0}, {"is_reserved": 0, "type": "electric_scooter", "bike_id": "7cbc25cbb510deaaf1a1c14677fd8405", "lat": 38.91829933333333, "lon": -77.02590016666667, "rental_uris": {"android": "https://dc.lft.to/lastmile_qr_scan", "ios": "https://dc.lft.to/lastmile_qr_scan"}, "is_disabled": 0, "fusion_lat": 0.0, "name": "7cbc25cbb510deaaf1a1c14677fd8405", "fusion_lon": 0.0}, {"is_reserved": 0, "type": "electric_scooter", "bike_id": "7b443fa9cfff419adff3578fbe3c26ba", "lat": 38.881289, "lon": -77.01977566666666, "rental_uris": {"android": "https://dc.lft.to/lastmile_qr_scan", "ios": "https://dc.lft.to/lastmile_qr_scan"}, "is_disabled": 0, "fusion_lat": 0.0, "name": "7b443fa9cfff419adff3578fbe3c26ba", "fusion_lon": 0.0}, {"is_reserved": 0, "type": "electric_bike", "bike_id": "032adb0d8dac38f34a210815039a1e34", "lat": 38.894597166666664, "lon": -77.19130333333334, "rental_uris": {"android": "https://dc.lft.to/lastmile_qr_scan", "ios": "https://dc.lft.to/lastmile_qr_scan"}, "is_disabled": 0, "fusion_lat": 0.0, "name": "032adb0d8dac38f34a210815039a1e34", "fusion_lon": 0.0}, {"is_reserved": 0, "type": "electric_scooter", "bike_id": "34d98eb78e0814e449526b5d72067a06", "lat": 38.90372633333333, "lon": -77.05442666666667, "rental_uris": {"android": "https://dc.lft.to/lastmile_qr_scan", "ios": "https://dc.lft.to/lastmile_qr_scan"}, "is_disabled": 0, "fusion_lat": 0.0, "name": "34d98eb78e0814e449526b5d72067a06", "fusion_lon": 0.0}, {"is_reserved": 0, "type": "electric_scooter", "bike_id": "6d5b6c87b0089bf31917ae042037fb8a", "lat": 38.8838755, "lon": -76.93042016666666, "rental_uris": {"android": "https://dc.lft.to/lastmile_qr_scan", "ios": "https://dc.lft.to/lastmile_qr_scan"}, "is_disabled": 0, "fusion_lat": 0.0, "name": "6d5b6c87b0089bf31917ae042037fb8a", "fusion_lon": 0.0}, {"is_reserved": 0, "type": "electric_scooter", "bike_id": "6b95f698db18e71aa818d68b3ef5a406", "lat": 38.910798, "lon": -77.02405033333334, "rental_uris": {"android": "https://dc.lft.to/lastmile_qr_scan", "ios": "https://dc.lft.to/lastmile_qr_scan"}, "is_disabled": 0, "fusion_lat": 0.0, "name": "6b95f698db18e71aa818d68b3ef5a406", "fusion_lon": 0.0}, {"is_reserved": 0, "type": "electric_scooter", "bike_id": "7ee20af5d7ee975304d75326f70f20eb", "lat": 38.93360283333333, "lon": -77.03417366666666, "rental_uris": {"android": "https://dc.lft.to/lastmile_qr_scan", "ios": "https://dc.lft.to/lastmile_qr_scan"}, "is_disabled": 0, "fusion_lat": 0.0, "name": "7ee20af5d7ee975304d75326f70f20eb", "fusion_lon": 0.0}, {"is_reserved": 0, "type": "electric_scooter", "bike_id": "02f4d479acecb3e5d06cc32e0cd9eb82", "lat": 38.9066795, "lon": -77.076452, "rental_uris": {"android": "https://dc.lft.to/lastmile_qr_scan", "ios": "https://dc.lft.to/lastmile_qr_scan"}, "is_disabled": 0, "fusion_lat": 0.0, "name": "02f4d479acecb3e5d06cc32e0cd9eb82", "fusion_lon": 0.0}, {"is_reserved": 0, "type": "electric_scooter", "bike_id": "353efb39e0306f8e54c0b35d5c6825aa", "lat": 38.93379266666667, "lon": -77.04542883333333, "rental_uris": {"android": "https://dc.lft.to/lastmile_qr_scan", "ios": "https://dc.lft.to/lastmile_qr_scan"}, "is_disabled": 0, "fusion_lat": 0.0, "name": "353efb39e0306f8e54c0b35d5c6825aa", "fusion_lon": 0.0}, {"is_reserved": 0, "type": "electric_scooter", "bike_id": "6bb3fc897d13141a895fc006483f5489", "lat": 38.907988, "lon": -77.04291816666667, "rental_uris": {"android": "https://dc.lft.to/lastmile_qr_scan", "ios": "https://dc.lft.to/lastmile_qr_scan"}, "is_disabled": 0, "fusion_lat": 0.0, "name": "6bb3fc897d13141a895fc006483f5489", "fusion_lon": 0.0}, {"is_reserved": 0, "type": "electric_scooter", "bike_id": "0267a71dc11a73f76738ff5ee2aa3906", "lat": 38.901427, "lon": -77.03355183333333, "rental_uris": {"android": "https://dc.lft.to/lastmile_qr_scan", "ios": "https://dc.lft.to/lastmile_qr_scan"}, "is_disabled": 0, "fusion_lat": 0.0, "name": "0267a71dc11a73f76738ff5ee2aa3906", "fusion_lon": 0.0}, {"is_reserved": 0, "type": "electric_scooter", "bike_id": "5371aa5caf73bcec6f00e2644f799cf4", "lat": 38.88425633333333, "lon": -77.0256255, "rental_uris": {"android": "https://dc.lft.to/lastmile_qr_scan", "ios": "https://dc.lft.to/lastmile_qr_scan"}, "is_disabled": 0, "fusion_lat": 0.0, "name": "5371aa5caf73bcec6f00e2644f799cf4", "fusion_lon": 0.0}, {"is_reserved": 0, "type": "electric_scooter", "bike_id": "3625d6a1c7f63168fd29b6ee58e5f081", "lat": 38.9303715, "lon": -77.08317566666666, "rental_uris": {"android": "https://dc.lft.to/lastmile_qr_scan", "ios": "https://dc.lft.to/lastmile_qr_scan"}, "is_disabled": 0, "fusion_lat": 0.0, "name": "3625d6a1c7f63168fd29b6ee58e5f081", "fusion_lon": 0.0}, {"is_reserved": 0, "type": "electric_scooter", "bike_id": "6a7651ed1241ae1d2752dcfd9cad6cd9", "lat": 38.898308166666666, "lon": -77.0483065, "rental_uris": {"android": "https://dc.lft.to/lastmile_qr_scan", "ios": "https://dc.lft.to/lastmile_qr_scan"}, "is_disabled": 0, "fusion_lat": 0.0, "name": "6a7651ed1241ae1d2752dcfd9cad6cd9", "fusion_lon": 0.0}, {"is_reserved": 0, "type": "electric_scooter", "bike_id": "0c5cddf2ced4e653ff91a867b70553e5", "lat": 38.906284166666666, "lon": -77.032961, "rental_uris": {"android": "https://dc.lft.to/lastmile_qr_scan", "ios": "https://dc.lft.to/lastmile_qr_scan"}, "is_disabled": 0, "fusion_lat": 0.0, "name": "0c5cddf2ced4e653ff91a867b70553e5", "fusion_lon": 0.0}, {"is_reserved": 0, "type": "electric_scooter", "bike_id": "9a949f7ffe780be02b6ab941d2d057ca", "lat": 38.913349833333335, "lon": -77.0422595, "rental_uris": {"android": "https://dc.lft.to/lastmile_qr_scan", "ios": "https://dc.lft.to/lastmile_qr_scan"}, "is_disabled": 0, "fusion_lat": 0.0, "name": "9a949f7ffe780be02b6ab941d2d057ca", "fusion_lon": 0.0}, {"is_reserved": 0, "type": "electric_scooter", "bike_id": "9f0026f44397246c902ce6c3953a9c67", "lat": 38.92811233333333, "lon": -77.0298295, "rental_uris": {"android": "https://dc.lft.to/lastmile_qr_scan", "ios": "https://dc.lft.to/lastmile_qr_scan"}, "is_disabled": 0, "fusion_lat": 0.0, "name": "9f0026f44397246c902ce6c3953a9c67", "fusion_lon": 0.0}, {"is_reserved": 0, "type": "electric_scooter", "bike_id": "a70e69392f4f7584a7c8d96f54849916", "lat": 38.92130483333333, "lon": -77.03194466666666, "rental_uris": {"android": "https://dc.lft.to/lastmile_qr_scan", "ios": "https://dc.lft.to/lastmile_qr_scan"}, "is_disabled": 0, "fusion_lat": 0.0, "name": "a70e69392f4f7584a7c8d96f54849916", "fusion_lon": 0.0}, {"is_reserved": 0, "type": "electric_scooter", "bike_id": "9f8059cb6e83933c62259cf9d0ef3faf", "lat": 38.93979266666667, "lon": -77.0547695, "rental_uris": {"android": "https://dc.lft.to/lastmile_qr_scan", "ios": "https://dc.lft.to/lastmile_qr_scan"}, "is_disabled": 0, "fusion_lat": 0.0, "name": "9f8059cb6e83933c62259cf9d0ef3faf", "fusion_lon": 0.0}, {"is_reserved": 0, "type": "electric_scooter", "bike_id": "91a57a746ab9499128f67a25acfcc0f0", "lat": 38.9102525, "lon": -77.04253733333333, "rental_uris": {"android": "https://dc.lft.to/lastmile_qr_scan", "ios": "https://dc.lft.to/lastmile_qr_scan"}, "is_disabled": 0, "fusion_lat": 0.0, "name": "91a57a746ab9499128f67a25acfcc0f0", "fusion_lon": 0.0}, {"is_reserved": 0, "type": "electric_scooter", "bike_id": "d82138ba70ebb9b5013d36e53b942fab", "lat": 38.92650833333333, "lon": -77.02694833333334, "rental_uris": {"android": "https://dc.lft.to/lastmile_qr_scan", "ios": "https://dc.lft.to/lastmile_qr_scan"}, "is_disabled": 0, "fusion_lat": 0.0, "name": "d82138ba70ebb9b5013d36e53b942fab", "fusion_lon": 0.0}, {"is_reserved": 0, "type": "electric_scooter", "bike_id": "c91914fdef9a4f963d0199889b7659a9", "lat": 38.920116, "lon": -77.042011, "rental_uris": {"android": "https://dc.lft.to/lastmile_qr_scan", "ios": "https://dc.lft.to/lastmile_qr_scan"}, "is_disabled": 0, "fusion_lat": 0.0, "name": "c91914fdef9a4f963d0199889b7659a9", "fusion_lon": 0.0}, {"is_reserved": 0, "type": "electric_scooter", "bike_id": "a4ccc63af142fd2ecd959824fccb9f17", "lat": 38.87501066666667, "lon": -77.0004975, "rental_uris": {"android": "https://dc.lft.to/lastmile_qr_scan", "ios": "https://dc.lft.to/lastmile_qr_scan"}, "is_disabled": 0, "fusion_lat": 0.0, "name": "a4ccc63af142fd2ecd959824fccb9f17", "fusion_lon": 0.0}, {"is_reserved": 0, "type": "electric_bike", "bike_id": "2e6c76eb89edf2c1c4ce37d983516e9e", "lat": 38.9069545, "lon": -76.952536, "rental_uris": {"android": "https://dc.lft.to/lastmile_qr_scan", "ios": "https://dc.lft.to/lastmile_qr_scan"}, "is_disabled": 0, "fusion_lat": 0.0, "name": "2e6c76eb89edf2c1c4ce37d983516e9e", "fusion_lon": 0.0}, {"is_reserved": 0, "type": "electric_scooter", "bike_id": "7392cd0149d641d32b9d2e4810c2f46c", "lat": 38.90969166666667, "lon": -77.02127883333333, "rental_uris": {"android": "https://dc.lft.to/lastmile_qr_scan", "ios": "https://dc.lft.to/lastmile_qr_scan"}, "is_disabled": 0, "fusion_lat": 0.0, "name": "7392cd0149d641d32b9d2e4810c2f46c", "fusion_lon": 0.0}, {"is_reserved": 0, "type": "electric_scooter", "bike_id": "773e0f8dd89b9937af8659d3b50861b8", "lat": 38.8954675, "lon": -76.9833625, "rental_uris": {"android": "https://dc.lft.to/lastmile_qr_scan", "ios": "https://dc.lft.to/lastmile_qr_scan"}, "is_disabled": 0, "fusion_lat": 0.0, "name": "773e0f8dd89b9937af8659d3b50861b8", "fusion_lon": 0.0}, {"is_reserved": 0, "type": "electric_scooter", "bike_id": "5df9c277e2a88c532c0959fe44d65f4f", "lat": 38.912673833333336, "lon": -77.031419, "rental_uris": {"android": "https://dc.lft.to/lastmile_qr_scan", "ios": "https://dc.lft.to/lastmile_qr_scan"}, "is_disabled": 0, "fusion_lat": 0.0, "name": "5df9c277e2a88c532c0959fe44d65f4f", "fusion_lon": 0.0}, {"is_reserved": 0, "type": "electric_scooter", "bike_id": "98a9309e695979341b217fec1af4ff6f", "lat": 38.94032883333333, "lon": -77.0252605, "rental_uris": {"android": "https://dc.lft.to/lastmile_qr_scan", "ios": "https://dc.lft.to/lastmile_qr_scan"}, "is_disabled": 0, "fusion_lat": 0.0, "name": "98a9309e695979341b217fec1af4ff6f", "fusion_lon": 0.0}, {"is_reserved": 0, "type": "electric_scooter", "bike_id": "09f38768aed3d6de5f27156274a33fdc", "lat": 38.920081333333336, "lon": -77.04192083333334, "rental_uris": {"android": "https://dc.lft.to/lastmile_qr_scan", "ios": "https://dc.lft.to/lastmile_qr_scan"}, "is_disabled": 0, "fusion_lat": 0.0, "name": "09f38768aed3d6de5f27156274a33fdc", "fusion_lon": 0.0}, {"is_reserved": 0, "type": "electric_bike", "bike_id": "8e819e2f98dd255ca740f03434879712", "lat": 38.97316283333333, "lon": -76.99484, "rental_uris": {"android": "https://dc.lft.to/lastmile_qr_scan", "ios": "https://dc.lft.to/lastmile_qr_scan"}, "is_disabled": 0, "fusion_lat": 0.0, "name": "8e819e2f98dd255ca740f03434879712", "fusion_lon": 0.0}, {"is_reserved": 0, "type": "electric_scooter", "bike_id": "25c7dc970ad8ab91cca1102da9367a13", "lat": 38.903875166666666, "lon": -77.03729033333333, "rental_uris": {"android": "https://dc.lft.to/lastmile_qr_scan", "ios": "https://dc.lft.to/lastmile_qr_scan"}, "is_disabled": 0, "fusion_lat": 0.0, "name": "25c7dc970ad8ab91cca1102da9367a13", "fusion_lon": 0.0}, {"is_reserved": 0, "type": "electric_scooter", "bike_id": "8fd2e39c4cd63a37263854228a099512", "lat": 38.9172335, "lon": -77.022058, "rental_uris": {"android": "https://dc.lft.to/lastmile_qr_scan", "ios": "https://dc.lft.to/lastmile_qr_scan"}, "is_disabled": 0, "fusion_lat": 0.0, "name": "8fd2e39c4cd63a37263854228a099512", "fusion_lon": 0.0}, {"is_reserved": 0, "type": "electric_scooter", "bike_id": "2cf9d3d1d36dd1fa08aa29950981d17f", "lat": 38.91415933333333, "lon": -77.02247166666666, "rental_uris": {"android": "https://dc.lft.to/lastmile_qr_scan", "ios": "https://dc.lft.to/lastmile_qr_scan"}, "is_disabled": 0, "fusion_lat": 0.0, "name": "2cf9d3d1d36dd1fa08aa29950981d17f", "fusion_lon": 0.0}, {"is_reserved": 0, "type": "electric_scooter", "bike_id": "f881a47279329168affaa580917fdd44", "lat": 38.8965945, "lon": -77.01185033333333, "rental_uris": {"android": "https://dc.lft.to/lastmile_qr_scan", "ios": "https://dc.lft.to/lastmile_qr_scan"}, "is_disabled": 0, "fusion_lat": 0.0, "name": "f881a47279329168affaa580917fdd44", "fusion_lon": 0.0}, {"is_reserved": 0, "type": "electric_scooter", "bike_id": "c8da6fc4f6e276d2fbe2db64280efc50", "lat": 38.93595233333333, "lon": -77.03372233333333, "rental_uris": {"android": "https://dc.lft.to/lastmile_qr_scan", "ios": "https://dc.lft.to/lastmile_qr_scan"}, "is_disabled": 0, "fusion_lat": 0.0, "name": "c8da6fc4f6e276d2fbe2db64280efc50", "fusion_lon": 0.0}, {"is_reserved": 0, "type": "electric_scooter", "bike_id": "f615eeb2c854011cd5827c9d638733b3", "lat": 38.9141495, "lon": -77.02427566666667, "rental_uris": {"android": "https://dc.lft.to/lastmile_qr_scan", "ios": "https://dc.lft.to/lastmile_qr_scan"}, "is_disabled": 0, "fusion_lat": 0.0, "name": "f615eeb2c854011cd5827c9d638733b3", "fusion_lon": 0.0}, {"is_reserved": 0, "type": "electric_scooter", "bike_id": "202ca689cfd33bd0e9222e19829fae50", "lat": 38.899155, "lon": -76.979936, "rental_uris": {"android": "https://dc.lft.to/lastmile_qr_scan", "ios": "https://dc.lft.to/lastmile_qr_scan"}, "is_disabled": 0, "fusion_lat": 0.0, "name": "202ca689cfd33bd0e9222e19829fae50", "fusion_lon": 0.0}, {"is_reserved": 0, "type": "electric_scooter", "bike_id": "41fea60e30c9a29a63f5e85113a436e1", "lat": 38.874733666666664, "lon": -77.003368, "rental_uris": {"android": "https://dc.lft.to/lastmile_qr_scan", "ios": "https://dc.lft.to/lastmile_qr_scan"}, "is_disabled": 0, "fusion_lat": 0.0, "name": "41fea60e30c9a29a63f5e85113a436e1", "fusion_lon": 0.0}, {"is_reserved": 0, "type": "electric_scooter", "bike_id": "021e16a6c8895862e515998e2b3e41f7", "lat": 38.8812385, "lon": -77.01977733333334, "rental_uris": {"android": "https://dc.lft.to/lastmile_qr_scan", "ios": "https://dc.lft.to/lastmile_qr_scan"}, "is_disabled": 0, "fusion_lat": 0.0, "name": "021e16a6c8895862e515998e2b3e41f7", "fusion_lon": 0.0}, {"is_reserved": 0, "type": "electric_scooter", "bike_id": "f5553685a5a7cf5cd7592b6111793ef7", "lat": 38.901137166666665, "lon": -77.04980916666666, "rental_uris": {"android": "https://dc.lft.to/lastmile_qr_scan", "ios": "https://dc.lft.to/lastmile_qr_scan"}, "is_disabled": 0, "fusion_lat": 0.0, "name": "f5553685a5a7cf5cd7592b6111793ef7", "fusion_lon": 0.0}, {"is_reserved": 0, "type": "electric_bike", "bike_id": "cc067c989171d34e7ba8b5c0dd5eccba", "lat": 38.867563833333335, "lon": -76.94532416666667, "rental_uris": {"android": "https://dc.lft.to/lastmile_qr_scan", "ios": "https://dc.lft.to/lastmile_qr_scan"}, "is_disabled": 0, "fusion_lat": 0.0, "name": "cc067c989171d34e7ba8b5c0dd5eccba", "fusion_lon": 0.0}, {"is_reserved": 0, "type": "electric_scooter", "bike_id": "affa56cec14926eeabfff49685ead642", "lat": 38.9203755, "lon": -76.98547316666667, "rental_uris": {"android": "https://dc.lft.to/lastmile_qr_scan", "ios": "https://dc.lft.to/lastmile_qr_scan"}, "is_disabled": 0, "fusion_lat": 0.0, "name": "affa56cec14926eeabfff49685ead642", "fusion_lon": 0.0}, {"is_reserved": 0, "type": "electric_bike", "bike_id": "aa2de7f017feb6ec19845903fa7f4ef3", "lat": 38.9320665, "lon": -77.0233965, "rental_uris": {"android": "https://dc.lft.to/lastmile_qr_scan", "ios": "https://dc.lft.to/lastmile_qr_scan"}, "is_disabled": 0, "fusion_lat": 0.0, "name": "aa2de7f017feb6ec19845903fa7f4ef3", "fusion_lon": 0.0}, {"is_reserved": 0, "type": "electric_bike", "bike_id": "0da45b55be6ee0dc4a9398e22df54d8d", "lat": 38.89206033333333, "lon": -77.07011216666666, "rental_uris": {"android": "https://dc.lft.to/lastmile_qr_scan", "ios": "https://dc.lft.to/lastmile_qr_scan"}, "is_disabled": 0, "fusion_lat": 0.0, "name": "0da45b55be6ee0dc4a9398e22df54d8d", "fusion_lon": 0.0}, {"is_reserved": 0, "type": "electric_scooter", "bike_id": "224987578994e84c8d7492646869fea2", "lat": 38.905768, "lon": -77.01852533333333, "rental_uris": {"android": "https://dc.lft.to/lastmile_qr_scan", "ios": "https://dc.lft.to/lastmile_qr_scan"}, "is_disabled": 0, "fusion_lat": 0.0, "name": "224987578994e84c8d7492646869fea2", "fusion_lon": 0.0}, {"is_reserved": 0, "type": "electric_scooter", "bike_id": "bae1f2da2898298d1a9e017837b01d94", "lat": 38.912696333333336, "lon": -77.018375, "rental_uris": {"android": "https://dc.lft.to/lastmile_qr_scan", "ios": "https://dc.lft.to/lastmile_qr_scan"}, "is_disabled": 0, "fusion_lat": 0.0, "name": "bae1f2da2898298d1a9e017837b01d94", "fusion_lon": 0.0}, {"is_reserved": 0, "type": "electric_scooter", "bike_id": "1b88090bda2d1a480df85d4219b48253", "lat": 38.9191895, "lon": -77.009921, "rental_uris": {"android": "https://dc.lft.to/lastmile_qr_scan", "ios": "https://dc.lft.to/lastmile_qr_scan"}, "is_disabled": 0, "fusion_lat": 0.0, "name": "1b88090bda2d1a480df85d4219b48253", "fusion_lon": 0.0}, {"is_reserved": 0, "type": "electric_scooter", "bike_id": "7a4e433a50be80492fe900c5e5be8ff8", "lat": 38.88773483333333, "lon": -76.93264583333334, "rental_uris": {"android": "https://dc.lft.to/lastmile_qr_scan", "ios": "https://dc.lft.to/lastmile_qr_scan"}, "is_disabled": 0, "fusion_lat": 0.0, "name": "7a4e433a50be80492fe900c5e5be8ff8", "fusion_lon": 0.0}, {"is_reserved": 0, "type": "electric_scooter", "bike_id": "8f8d19619f98c5c10291dd0cfad1adc7", "lat": 38.914106833333335, "lon": -77.03226633333334, "rental_uris": {"android": "https://dc.lft.to/lastmile_qr_scan", "ios": "https://dc.lft.to/lastmile_qr_scan"}, "is_disabled": 0, "fusion_lat": 0.0, "name": "8f8d19619f98c5c10291dd0cfad1adc7", "fusion_lon": 0.0}, {"is_reserved": 0, "type": "electric_scooter", "bike_id": "e729b715e012fcb1e0b5206e569a4c7b", "lat": 38.90464266666667, "lon": -77.03071933333334, "rental_uris": {"android": "https://dc.lft.to/lastmile_qr_scan", "ios": "https://dc.lft.to/lastmile_qr_scan"}, "is_disabled": 0, "fusion_lat": 0.0, "name": "e729b715e012fcb1e0b5206e569a4c7b", "fusion_lon": 0.0}, {"is_reserved": 0, "type": "electric_scooter", "bike_id": "962612987de7974833c3e819a5c27614", "lat": 38.9346295, "lon": -77.03497066666667, "rental_uris": {"android": "https://dc.lft.to/lastmile_qr_scan", "ios": "https://dc.lft.to/lastmile_qr_scan"}, "is_disabled": 0, "fusion_lat": 0.0, "name": "962612987de7974833c3e819a5c27614", "fusion_lon": 0.0}, {"is_reserved": 0, "type": "electric_scooter", "bike_id": "7ec5612057f50f0010c7a906cbb2563b", "lat": 38.897323, "lon": -76.9951685, "rental_uris": {"android": "https://dc.lft.to/lastmile_qr_scan", "ios": "https://dc.lft.to/lastmile_qr_scan"}, "is_disabled": 0, "fusion_lat": 0.0, "name": "7ec5612057f50f0010c7a906cbb2563b", "fusion_lon": 0.0}, {"is_reserved": 0, "type": "electric_bike", "bike_id": "664a6dfcbf07116e466798b47f7d7fec", "lat": 38.82433916666667, "lon": -77.12037383333333, "rental_uris": {"android": "https://dc.lft.to/lastmile_qr_scan", "ios": "https://dc.lft.to/lastmile_qr_scan"}, "is_disabled": 0, "fusion_lat": 0.0, "name": "664a6dfcbf07116e466798b47f7d7fec", "fusion_lon": 0.0}, {"is_reserved": 0, "type": "electric_scooter", "bike_id": "83e94dfc1d4c7d110e6117731a3b9f13", "lat": 38.93499966666667, "lon": -77.02720983333333, "rental_uris": {"android": "https://dc.lft.to/lastmile_qr_scan", "ios": "https://dc.lft.to/lastmile_qr_scan"}, "is_disabled": 0, "fusion_lat": 0.0, "name": "83e94dfc1d4c7d110e6117731a3b9f13", "fusion_lon": 0.0}, {"is_reserved": 0, "type": "electric_bike", "bike_id": "4d4b623b8ac0e662aa68241e3ea21e0b", "lat": 38.84508316666667, "lon": -76.99352366666666, "rental_uris": {"android": "https://dc.lft.to/lastmile_qr_scan", "ios": "https://dc.lft.to/lastmile_qr_scan"}, "is_disabled": 0, "fusion_lat": 0.0, "name": "4d4b623b8ac0e662aa68241e3ea21e0b", "fusion_lon": 0.0}, {"is_reserved": 0, "type": "electric_scooter", "bike_id": "d76e496b97fc0b737b9d330943394749", "lat": 38.9222, "lon": -77.0296525, "rental_uris": {"android": "https://dc.lft.to/lastmile_qr_scan", "ios": "https://dc.lft.to/lastmile_qr_scan"}, "is_disabled": 0, "fusion_lat": 0.0, "name": "d76e496b97fc0b737b9d330943394749", "fusion_lon": 0.0}, {"is_reserved": 0, "type": "electric_scooter", "bike_id": "1a8587b5f4c875f76c3a371e57a24442", "lat": 38.9073425, "lon": -77.007069, "rental_uris": {"android": "https://dc.lft.to/lastmile_qr_scan", "ios": "https://dc.lft.to/lastmile_qr_scan"}, "is_disabled": 0, "fusion_lat": 0.0, "name": "1a8587b5f4c875f76c3a371e57a24442", "fusion_lon": 0.0}, {"is_reserved": 0, "type": "electric_scooter", "bike_id": "a094fb87b8567e8c501bc7658fef6109", "lat": 38.91205766666667, "lon": -77.03204683333334, "rental_uris": {"android": "https://dc.lft.to/lastmile_qr_scan", "ios": "https://dc.lft.to/lastmile_qr_scan"}, "is_disabled": 0, "fusion_lat": 0.0, "name": "a094fb87b8567e8c501bc7658fef6109", "fusion_lon": 0.0}, {"is_reserved": 0, "type": "electric_bike", "bike_id": "84f2c8b420c5d5a6515bb4ad8213d322", "lat": 38.901097, "lon": -77.0316795, "rental_uris": {"android": "https://dc.lft.to/lastmile_qr_scan", "ios": "https://dc.lft.to/lastmile_qr_scan"}, "is_disabled": 0, "fusion_lat": 0.0, "name": "84f2c8b420c5d5a6515bb4ad8213d322", "fusion_lon": 0.0}, {"is_reserved": 0, "type": "electric_scooter", "bike_id": "7fdcd35579d55d259efda00a77e76837", "lat": 38.92577083333333, "lon": -76.99483483333333, "rental_uris": {"android": "https://dc.lft.to/lastmile_qr_scan", "ios": "https://dc.lft.to/lastmile_qr_scan"}, "is_disabled": 0, "fusion_lat": 0.0, "name": "7fdcd35579d55d259efda00a77e76837", "fusion_lon": 0.0}, {"is_reserved": 0, "type": "electric_scooter", "bike_id": "2914d3bd356d1d88a04a266c92e48e9c", "lat": 38.96025316666667, "lon": -77.07154616666666, "rental_uris": {"android": "https://dc.lft.to/lastmile_qr_scan", "ios": "https://dc.lft.to/lastmile_qr_scan"}, "is_disabled": 0, "fusion_lat": 0.0, "name": "2914d3bd356d1d88a04a266c92e48e9c", "fusion_lon": 0.0}, {"is_reserved": 0, "type": "electric_scooter", "bike_id": "4e478047d227ab74b5d01645824997e8", "lat": 38.898109833333336, "lon": -77.02396433333334, "rental_uris": {"android": "https://dc.lft.to/lastmile_qr_scan", "ios": "https://dc.lft.to/lastmile_qr_scan"}, "is_disabled": 0, "fusion_lat": 0.0, "name": "4e478047d227ab74b5d01645824997e8", "fusion_lon": 0.0}, {"is_reserved": 0, "type": "electric_bike", "bike_id": "f3816be7aaa526419bec2cb102e54d84", "lat": 38.94480516666667, "lon": -76.98692116666666, "rental_uris": {"android": "https://dc.lft.to/lastmile_qr_scan", "ios": "https://dc.lft.to/lastmile_qr_scan"}, "is_disabled": 0, "fusion_lat": 0.0, "name": "f3816be7aaa526419bec2cb102e54d84", "fusion_lon": 0.0}, {"is_reserved": 0, "type": "electric_scooter", "bike_id": "edde29030ec7b024d580d2e16684f86d", "lat": 38.933596333333334, "lon": -77.0342855, "rental_uris": {"android": "https://dc.lft.to/lastmile_qr_scan", "ios": "https://dc.lft.to/lastmile_qr_scan"}, "is_disabled": 0, "fusion_lat": 0.0, "name": "edde29030ec7b024d580d2e16684f86d", "fusion_lon": 0.0}, {"is_reserved": 0, "type": "electric_scooter", "bike_id": "efe4c0b5d852786d7df93aea69627d5f", "lat": 38.91923383333334, "lon": -77.048077, "rental_uris": {"android": "https://dc.lft.to/lastmile_qr_scan", "ios": "https://dc.lft.to/lastmile_qr_scan"}, "is_disabled": 0, "fusion_lat": 0.0, "name": "efe4c0b5d852786d7df93aea69627d5f", "fusion_lon": 0.0}, {"is_reserved": 0, "type": "electric_scooter", "bike_id": "6f57b0257d768bcfc3258125cd81756b", "lat": 38.9313465, "lon": -77.02309, "rental_uris": {"android": "https://dc.lft.to/lastmile_qr_scan", "ios": "https://dc.lft.to/lastmile_qr_scan"}, "is_disabled": 0, "fusion_lat": 0.0, "name": "6f57b0257d768bcfc3258125cd81756b", "fusion_lon": 0.0}, {"is_reserved": 0, "type": "electric_bike", "bike_id": "66c4b5831c038612763b4bee81d956c4", "lat": 38.80261683333333, "lon": -77.12173816666666, "rental_uris": {"android": "https://dc.lft.to/lastmile_qr_scan", "ios": "https://dc.lft.to/lastmile_qr_scan"}, "is_disabled": 0, "fusion_lat": 0.0, "name": "66c4b5831c038612763b4bee81d956c4", "fusion_lon": 0.0}, {"is_reserved": 0, "type": "electric_scooter", "bike_id": "e6ab9b9d24e5b2636ab648a6276bee2e", "lat": 38.918908333333334, "lon": -77.03456466666667, "rental_uris": {"android": "https://dc.lft.to/lastmile_qr_scan", "ios": "https://dc.lft.to/lastmile_qr_scan"}, "is_disabled": 0, "fusion_lat": 0.0, "name": "e6ab9b9d24e5b2636ab648a6276bee2e", "fusion_lon": 0.0}, {"is_reserved": 0, "type": "electric_scooter", "bike_id": "80a3beec35aa2e92c507ba8a514fc5ec", "lat": 38.910489166666665, "lon": -77.01513133333333, "rental_uris": {"android": "https://dc.lft.to/lastmile_qr_scan", "ios": "https://dc.lft.to/lastmile_qr_scan"}, "is_disabled": 0, "fusion_lat": 0.0, "name": "80a3beec35aa2e92c507ba8a514fc5ec", "fusion_lon": 0.0}, {"is_reserved": 0, "type": "electric_scooter", "bike_id": "ab6b58d5814a58c32d2b1632b9dd50be", "lat": 38.926028333333335, "lon": -77.05710166666667, "rental_uris": {"android": "https://dc.lft.to/lastmile_qr_scan", "ios": "https://dc.lft.to/lastmile_qr_scan"}, "is_disabled": 0, "fusion_lat": 0.0, "name": "ab6b58d5814a58c32d2b1632b9dd50be", "fusion_lon": 0.0}, {"is_reserved": 0, "type": "electric_scooter", "bike_id": "d7ea2d0087c8887e16329a12ce77f9a6", "lat": 38.949837333333335, "lon": -77.024418, "rental_uris": {"android": "https://dc.lft.to/lastmile_qr_scan", "ios": "https://dc.lft.to/lastmile_qr_scan"}, "is_disabled": 0, "fusion_lat": 0.0, "name": "d7ea2d0087c8887e16329a12ce77f9a6", "fusion_lon": 0.0}, {"is_reserved": 0, "type": "electric_bike", "bike_id": "1906afe52f27528f3ca912d2d166e105", "lat": 38.95153116666667, "lon": -76.93333616666666, "rental_uris": {"android": "https://dc.lft.to/lastmile_qr_scan", "ios": "https://dc.lft.to/lastmile_qr_scan"}, "is_disabled": 0, "fusion_lat": 0.0, "name": "1906afe52f27528f3ca912d2d166e105", "fusion_lon": 0.0}, {"is_reserved": 0, "type": "electric_bike", "bike_id": "4ef46c324059d9f5dc8f796509dcc63e", "lat": 39.00005816666667, "lon": -76.9180235, "rental_uris": {"android": "https://dc.lft.to/lastmile_qr_scan", "ios": "https://dc.lft.to/lastmile_qr_scan"}, "is_disabled": 0, "fusion_lat": 0.0, "name": "4ef46c324059d9f5dc8f796509dcc63e", "fusion_lon": 0.0}, {"is_reserved": 0, "type": "electric_bike", "bike_id": "313fa4959be30b83969754c4a0db6afa", "lat": 38.91651566666667, "lon": -77.0213415, "rental_uris": {"android": "https://dc.lft.to/lastmile_qr_scan", "ios": "https://dc.lft.to/lastmile_qr_scan"}, "is_disabled": 0, "fusion_lat": 0.0, "name": "313fa4959be30b83969754c4a0db6afa", "fusion_lon": 0.0}, {"is_reserved": 0, "type": "electric_scooter", "bike_id": "9ecde38744b7b3d2f77d6c49f028c74b", "lat": 38.917221, "lon": -77.03837383333334, "rental_uris": {"android": "https://dc.lft.to/lastmile_qr_scan", "ios": "https://dc.lft.to/lastmile_qr_scan"}, "is_disabled": 0, "fusion_lat": 0.0, "name": "9ecde38744b7b3d2f77d6c49f028c74b", "fusion_lon": 0.0}, {"is_reserved": 0, "type": "electric_scooter", "bike_id": "1cc85303aa5a98cf7e51fe9ca1aab047", "lat": 38.923481333333335, "lon": -77.03296033333334, "rental_uris": {"android": "https://dc.lft.to/lastmile_qr_scan", "ios": "https://dc.lft.to/lastmile_qr_scan"}, "is_disabled": 0, "fusion_lat": 0.0, "name": "1cc85303aa5a98cf7e51fe9ca1aab047", "fusion_lon": 0.0}, {"is_reserved": 0, "type": "electric_bike", "bike_id": "c80ab284c936955508c2d1401d885db8", "lat": 38.874257666666665, "lon": -77.08574, "rental_uris": {"android": "https://dc.lft.to/lastmile_qr_scan", "ios": "https://dc.lft.to/lastmile_qr_scan"}, "is_disabled": 0, "fusion_lat": 0.0, "name": "c80ab284c936955508c2d1401d885db8", "fusion_lon": 0.0}, {"is_reserved": 0, "type": "electric_bike", "bike_id": "36cc8eb8135b218ac0aa3bc01a3d200a", "lat": 39.011007166666666, "lon": -77.04956066666666, "rental_uris": {"android": "https://dc.lft.to/lastmile_qr_scan", "ios": "https://dc.lft.to/lastmile_qr_scan"}, "is_disabled": 0, "fusion_lat": 0.0, "name": "36cc8eb8135b218ac0aa3bc01a3d200a", "fusion_lon": 0.0}, {"is_reserved": 0, "type": "electric_scooter", "bike_id": "392d8543eafc058b445b239a2bc97edc", "lat": 38.91911266666666, "lon": -76.97479433333334, "rental_uris": {"android": "https://dc.lft.to/lastmile_qr_scan", "ios": "https://dc.lft.to/lastmile_qr_scan"}, "is_disabled": 0, "fusion_lat": 0.0, "name": "392d8543eafc058b445b239a2bc97edc", "fusion_lon": 0.0}, {"is_reserved": 0, "type": "electric_scooter", "bike_id": "964661e7d088b7755deadd7c3f859717", "lat": 38.9026665, "lon": -77.03143266666666, "rental_uris": {"android": "https://dc.lft.to/lastmile_qr_scan", "ios": "https://dc.lft.to/lastmile_qr_scan"}, "is_disabled": 0, "fusion_lat": 0.0, "name": "964661e7d088b7755deadd7c3f859717", "fusion_lon": 0.0}, {"is_reserved": 0, "type": "electric_bike", "bike_id": "8def1b4cc45b22e1ba5763283664c70c", "lat": 38.863349666666664, "lon": -76.987308, "rental_uris": {"android": "https://dc.lft.to/lastmile_qr_scan", "ios": "https://dc.lft.to/lastmile_qr_scan"}, "is_disabled": 0, "fusion_lat": 0.0, "name": "8def1b4cc45b22e1ba5763283664c70c", "fusion_lon": 0.0}, {"is_reserved": 0, "type": "electric_scooter", "bike_id": "55676052abf91e19c022617b0d59b423", "lat": 38.9008545, "lon": -76.980081, "rental_uris": {"android": "https://dc.lft.to/lastmile_qr_scan", "ios": "https://dc.lft.to/lastmile_qr_scan"}, "is_disabled": 0, "fusion_lat": 0.0, "name": "55676052abf91e19c022617b0d59b423", "fusion_lon": 0.0}, {"is_reserved": 0, "type": "electric_scooter", "bike_id": "af103397a45fde02a8c39527e338ec45", "lat": 38.89506983333333, "lon": -76.934747, "rental_uris": {"android": "https://dc.lft.to/lastmile_qr_scan", "ios": "https://dc.lft.to/lastmile_qr_scan"}, "is_disabled": 0, "fusion_lat": 0.0, "name": "af103397a45fde02a8c39527e338ec45", "fusion_lon": 0.0}, {"is_reserved": 0, "type": "electric_scooter", "bike_id": "992470f4caa5c3d524037f049071801f", "lat": 38.9237825, "lon": -77.03135416666667, "rental_uris": {"android": "https://dc.lft.to/lastmile_qr_scan", "ios": "https://dc.lft.to/lastmile_qr_scan"}, "is_disabled": 0, "fusion_lat": 0.0, "name": "992470f4caa5c3d524037f049071801f", "fusion_lon": 0.0}, {"is_reserved": 0, "type": "electric_bike", "bike_id": "d15b7d0ce73764f114f5948ddc191c9a", "lat": 38.936693, "lon": -77.0342675, "rental_uris": {"android": "https://dc.lft.to/lastmile_qr_scan", "ios": "https://dc.lft.to/lastmile_qr_scan"}, "is_disabled": 0, "fusion_lat": 0.0, "name": "d15b7d0ce73764f114f5948ddc191c9a", "fusion_lon": 0.0}, {"is_reserved": 0, "type": "electric_scooter", "bike_id": "0e0c7e01368f364f90eabb1bbd32e3d7", "lat": 38.908497833333335, "lon": -77.02059816666667, "rental_uris": {"android": "https://dc.lft.to/lastmile_qr_scan", "ios": "https://dc.lft.to/lastmile_qr_scan"}, "is_disabled": 0, "fusion_lat": 0.0, "name": "0e0c7e01368f364f90eabb1bbd32e3d7", "fusion_lon": 0.0}, {"is_reserved": 0, "type": "electric_scooter", "bike_id": "7e822f00ae2d6b3bd40dcc3702446e08", "lat": 38.911358666666665, "lon": -76.98467633333334, "rental_uris": {"android": "https://dc.lft.to/lastmile_qr_scan", "ios": "https://dc.lft.to/lastmile_qr_scan"}, "is_disabled": 0, "fusion_lat": 0.0, "name": "7e822f00ae2d6b3bd40dcc3702446e08", "fusion_lon": 0.0}, {"is_reserved": 0, "type": "electric_scooter", "bike_id": "77da499ca09784fce7cecb6ee5f433a0", "lat": 38.89641433333333, "lon": -77.026026, "rental_uris": {"android": "https://dc.lft.to/lastmile_qr_scan", "ios": "https://dc.lft.to/lastmile_qr_scan"}, "is_disabled": 0, "fusion_lat": 0.0, "name": "77da499ca09784fce7cecb6ee5f433a0", "fusion_lon": 0.0}, {"is_reserved": 0, "type": "electric_bike", "bike_id": "42c87f88251ecf7d62c0a9224f66f402", "lat": 39.042416833333334, "lon": -76.99733566666667, "rental_uris": {"android": "https://dc.lft.to/lastmile_qr_scan", "ios": "https://dc.lft.to/lastmile_qr_scan"}, "is_disabled": 0, "fusion_lat": 0.0, "name": "42c87f88251ecf7d62c0a9224f66f402", "fusion_lon": 0.0}, {"is_reserved": 0, "type": "electric_bike", "bike_id": "8da6be90ea19f724ffcaf942f1fef32f", "lat": 38.97341333333333, "lon": -76.9958965, "rental_uris": {"android": "https://dc.lft.to/lastmile_qr_scan", "ios": "https://dc.lft.to/lastmile_qr_scan"}, "is_disabled": 0, "fusion_lat": 0.0, "name": "8da6be90ea19f724ffcaf942f1fef32f", "fusion_lon": 0.0}, {"is_reserved": 0, "type": "electric_scooter", "bike_id": "22c33c57358f954c063d38718aaf42ac", "lat": 38.912662, "lon": -77.01765283333333, "rental_uris": {"android": "https://dc.lft.to/lastmile_qr_scan", "ios": "https://dc.lft.to/lastmile_qr_scan"}, "is_disabled": 0, "fusion_lat": 0.0, "name": "22c33c57358f954c063d38718aaf42ac", "fusion_lon": 0.0}, {"is_reserved": 0, "type": "electric_scooter", "bike_id": "a115278c84c1f36c752471aad7d82ec2", "lat": 38.8747585, "lon": -77.003371, "rental_uris": {"android": "https://dc.lft.to/lastmile_qr_scan", "ios": "https://dc.lft.to/lastmile_qr_scan"}, "is_disabled": 0, "fusion_lat": 0.0, "name": "a115278c84c1f36c752471aad7d82ec2", "fusion_lon": 0.0}, {"is_reserved": 0, "type": "electric_scooter", "bike_id": "b62795cad7052fb640edd830c7a14dc8", "lat": 38.91877183333333, "lon": -77.04306366666667, "rental_uris": {"android": "https://dc.lft.to/lastmile_qr_scan", "ios": "https://dc.lft.to/lastmile_qr_scan"}, "is_disabled": 0, "fusion_lat": 0.0, "name": "b62795cad7052fb640edd830c7a14dc8", "fusion_lon": 0.0}, {"is_reserved": 0, "type": "electric_scooter", "bike_id": "b7a3c9d6879a239fc32ed1fbdc0bf832", "lat": 38.902523333333335, "lon": -77.03192483333333, "rental_uris": {"android": "https://dc.lft.to/lastmile_qr_scan", "ios": "https://dc.lft.to/lastmile_qr_scan"}, "is_disabled": 0, "fusion_lat": 0.0, "name": "b7a3c9d6879a239fc32ed1fbdc0bf832", "fusion_lon": 0.0}, {"is_reserved": 0, "type": "electric_scooter", "bike_id": "2aaccd9d2d0bd278015728ec5268f4dd", "lat": 38.922046, "lon": -77.020365, "rental_uris": {"android": "https://dc.lft.to/lastmile_qr_scan", "ios": "https://dc.lft.to/lastmile_qr_scan"}, "is_disabled": 0, "fusion_lat": 0.0, "name": "2aaccd9d2d0bd278015728ec5268f4dd", "fusion_lon": 0.0}, {"is_reserved": 0, "type": "electric_scooter", "bike_id": "5677ee9cddb9e0917cf1e224f1c7bb45", "lat": 38.91194316666667, "lon": -77.00254583333333, "rental_uris": {"android": "https://dc.lft.to/lastmile_qr_scan", "ios": "https://dc.lft.to/lastmile_qr_scan"}, "is_disabled": 0, "fusion_lat": 0.0, "name": "5677ee9cddb9e0917cf1e224f1c7bb45", "fusion_lon": 0.0}, {"is_reserved": 0, "type": "electric_scooter", "bike_id": "343165a8ea3144379633be2bc2ea2c61", "lat": 38.918826833333334, "lon": -77.0431505, "rental_uris": {"android": "https://dc.lft.to/lastmile_qr_scan", "ios": "https://dc.lft.to/lastmile_qr_scan"}, "is_disabled": 0, "fusion_lat": 0.0, "name": "343165a8ea3144379633be2bc2ea2c61", "fusion_lon": 0.0}, {"is_reserved": 0, "type": "electric_scooter", "bike_id": "8a1a57449e09f69b5d1ee1a4ad0bfa5a", "lat": 38.9170535, "lon": -77.024148, "rental_uris": {"android": "https://dc.lft.to/lastmile_qr_scan", "ios": "https://dc.lft.to/lastmile_qr_scan"}, "is_disabled": 0, "fusion_lat": 0.0, "name": "8a1a57449e09f69b5d1ee1a4ad0bfa5a", "fusion_lon": 0.0}, {"is_reserved": 0, "type": "electric_scooter", "bike_id": "a589b1011d9dba0bb7e639ff256c4378", "lat": 38.90425333333334, "lon": -77.0487965, "rental_uris": {"android": "https://dc.lft.to/lastmile_qr_scan", "ios": "https://dc.lft.to/lastmile_qr_scan"}, "is_disabled": 0, "fusion_lat": 0.0, "name": "a589b1011d9dba0bb7e639ff256c4378", "fusion_lon": 0.0}, {"is_reserved": 0, "type": "electric_scooter", "bike_id": "7a89c5597fecd48fdbf6b40ed6d2297f", "lat": 38.910181666666666, "lon": -76.99371116666667, "rental_uris": {"android": "https://dc.lft.to/lastmile_qr_scan", "ios": "https://dc.lft.to/lastmile_qr_scan"}, "is_disabled": 0, "fusion_lat": 0.0, "name": "7a89c5597fecd48fdbf6b40ed6d2297f", "fusion_lon": 0.0}, {"is_reserved": 0, "type": "electric_bike", "bike_id": "fcb39782609ee5661ebf5f5c9787474c", "lat": 38.99938316666667, "lon": -77.05132616666667, "rental_uris": {"android": "https://dc.lft.to/lastmile_qr_scan", "ios": "https://dc.lft.to/lastmile_qr_scan"}, "is_disabled": 0, "fusion_lat": 0.0, "name": "fcb39782609ee5661ebf5f5c9787474c", "fusion_lon": 0.0}, {"is_reserved": 0, "type": "electric_bike", "bike_id": "f7eb54256769b610cdd8f4a61cc38ff6", "lat": 38.97271116666667, "lon": -77.14970033333333, "rental_uris": {"android": "https://dc.lft.to/lastmile_qr_scan", "ios": "https://dc.lft.to/lastmile_qr_scan"}, "is_disabled": 0, "fusion_lat": 0.0, "name": "f7eb54256769b610cdd8f4a61cc38ff6", "fusion_lon": 0.0}, {"is_reserved": 0, "type": "electric_scooter", "bike_id": "cbc4e893e59dfddc157df8e7d542a88a", "lat": 38.900400166666664, "lon": -76.99155366666666, "rental_uris": {"android": "https://dc.lft.to/lastmile_qr_scan", "ios": "https://dc.lft.to/lastmile_qr_scan"}, "is_disabled": 0, "fusion_lat": 0.0, "name": "cbc4e893e59dfddc157df8e7d542a88a", "fusion_lon": 0.0}, {"is_reserved": 0, "type": "electric_scooter", "bike_id": "8f81dd25cc166c2824b0e7ef92e42502", "lat": 38.898436833333335, "lon": -77.012868, "rental_uris": {"android": "https://dc.lft.to/lastmile_qr_scan", "ios": "https://dc.lft.to/lastmile_qr_scan"}, "is_disabled": 0, "fusion_lat": 0.0, "name": "8f81dd25cc166c2824b0e7ef92e42502", "fusion_lon": 0.0}, {"is_reserved": 0, "type": "electric_scooter", "bike_id": "083c536de8ab10d32c888b348dea6f76", "lat": 38.923398, "lon": -77.0189665, "rental_uris": {"android": "https://dc.lft.to/lastmile_qr_scan", "ios": "https://dc.lft.to/lastmile_qr_scan"}, "is_disabled": 0, "fusion_lat": 0.0, "name": "083c536de8ab10d32c888b348dea6f76", "fusion_lon": 0.0}, {"is_reserved": 0, "type": "electric_scooter", "bike_id": "d18f964e69e9880f9a614d38d4d9f886", "lat": 38.90740433333333, "lon": -77.038611, "rental_uris": {"android": "https://dc.lft.to/lastmile_qr_scan", "ios": "https://dc.lft.to/lastmile_qr_scan"}, "is_disabled": 0, "fusion_lat": 0.0, "name": "d18f964e69e9880f9a614d38d4d9f886", "fusion_lon": 0.0}, {"is_reserved": 0, "type": "electric_scooter", "bike_id": "0b556985efc7366eb4963c393dff51b0", "lat": 38.906837333333335, "lon": -77.04156583333334, "rental_uris": {"android": "https://dc.lft.to/lastmile_qr_scan", "ios": "https://dc.lft.to/lastmile_qr_scan"}, "is_disabled": 0, "fusion_lat": 0.0, "name": "0b556985efc7366eb4963c393dff51b0", "fusion_lon": 0.0}, {"is_reserved": 0, "type": "electric_scooter", "bike_id": "a9e8cd8c1112287d6e64319cf1962cf8", "lat": 38.91588433333333, "lon": -77.0123375, "rental_uris": {"android": "https://dc.lft.to/lastmile_qr_scan", "ios": "https://dc.lft.to/lastmile_qr_scan"}, "is_disabled": 0, "fusion_lat": 0.0, "name": "a9e8cd8c1112287d6e64319cf1962cf8", "fusion_lon": 0.0}, {"is_reserved": 0, "type": "electric_scooter", "bike_id": "bc9033c25eb713a8f6710dacb1b8670c", "lat": 38.89970916666667, "lon": -77.02709683333333, "rental_uris": {"android": "https://dc.lft.to/lastmile_qr_scan", "ios": "https://dc.lft.to/lastmile_qr_scan"}, "is_disabled": 0, "fusion_lat": 0.0, "name": "bc9033c25eb713a8f6710dacb1b8670c", "fusion_lon": 0.0}, {"is_reserved": 0, "type": "electric_scooter", "bike_id": "ff0aefa1f419ace53b68e50f7db93802", "lat": 38.918079666666664, "lon": -77.032079, "rental_uris": {"android": "https://dc.lft.to/lastmile_qr_scan", "ios": "https://dc.lft.to/lastmile_qr_scan"}, "is_disabled": 0, "fusion_lat": 0.0, "name": "ff0aefa1f419ace53b68e50f7db93802", "fusion_lon": 0.0}, {"is_reserved": 0, "type": "electric_scooter", "bike_id": "a494382a730ae35fe41fc339c5cb82eb", "lat": 38.910801166666666, "lon": -77.041674, "rental_uris": {"android": "https://dc.lft.to/lastmile_qr_scan", "ios": "https://dc.lft.to/lastmile_qr_scan"}, "is_disabled": 0, "fusion_lat": 0.0, "name": "a494382a730ae35fe41fc339c5cb82eb", "fusion_lon": 0.0}, {"is_reserved": 0, "type": "electric_scooter", "bike_id": "4fd289e60fb31bb0b0ba27f48cf5c1cc", "lat": 38.874712, "lon": -77.00336983333334, "rental_uris": {"android": "https://dc.lft.to/lastmile_qr_scan", "ios": "https://dc.lft.to/lastmile_qr_scan"}, "is_disabled": 0, "fusion_lat": 0.0, "name": "4fd289e60fb31bb0b0ba27f48cf5c1cc", "fusion_lon": 0.0},