{"data": {"bikes": [{"fusion_lat": 0.0, "name": "2b6eb2dd74b702c8686b3992ec4b76de", "is_disabled": 0, "rental_uris": {"android": "https://dc.lft.to/lastmile_qr_scan", "ios": "https://dc.lft.to/lastmile_qr_scan"}, "fusion_lon": 0.0, "lat": 38.87630716666666, "bike_id": "2b6eb2dd74b702c8686b3992ec4b76de", "type": "electric_scooter", "is_reserved": 0, "lon": -77.00125033333333}, {"fusion_lat": 0.0, "name": "8c38a94edff6d78f1767db7ec974260a", "is_disabled": 0, "rental_uris": {"android": "https://dc.lft.to/lastmile_qr_scan", "ios": "https://dc.lft.to/lastmile_qr_scan"}, "fusion_lon": 0.0, "lat": 38.90643466666667, "bike_id": "8c38a94edff6d78f1767db7ec974260a", "type": "electric_scooter", "is_reserved": 0, "lon": -77.014173}, {"fusion_lat": 0.0, "name": "317a0f6a196a1527257bb2b1c0481322", "is_disabled": 0, "rental_uris": {"android": "https://dc.lft.to/lastmile_qr_scan", "ios": "https://dc.lft.to/lastmile_qr_scan"}, "fusion_lon": 0.0, "lat": 38.9062225, "bike_id": "317a0f6a196a1527257bb2b1c0481322", "type": "electric_scooter", "is_reserved": 0, "lon": -77.0504625}, {"fusion_lat": 0.0, "name": "061292a50526fb99aa81ab1fb0c39f87", "is_disabled": 0, "rental_uris": {"android": "https://dc.lft.to/lastmile_qr_scan", "ios": "https://dc.lft.to/lastmile_qr_scan"}, "fusion_lon": 0.0, "lat": 38.908653666666666, "bike_id": "061292a50526fb99aa81ab1fb0c39f87", "type": "electric_scooter", "is_reserved": 0, "lon": -77.009296}, {"fusion_lat": 0.0, "name": "81cde233562ae6f3bd3c04846cd6d653", "is_disabled": 0, "rental_uris": {"android": "https://dc.lft.to/lastmile_qr_scan", "ios": "https://dc.lft.to/lastmile_qr_scan"}, "fusion_lon": 0.0, "lat": 38.92895566666667, "bike_id": "81cde233562ae6f3bd3c04846cd6d653", "type": "electric_bike", "is_reserved": 0, "lon": -77.03283766666667}, {"fusion_lat": 0.0, "name": "fb54f35f985bb590438a5824ff76d3a4", "is_disabled": 0, "rental_uris": {"android": "https://dc.lft.to/lastmile_qr_scan", "ios": "https://dc.lft.to/lastmile_qr_scan"}, "fusion_lon": 0.0, "lat": 38.92611466666666, "bike_id": "fb54f35f985bb590438a5824ff76d3a4", "type": "electric_scooter", "is_reserved": 0, "lon": -77.04147933333333}, {"fusion_lat": 0.0, "name": "d696566e7d1dc12b20575ad412ba73d5", "is_disabled": 0, "rental_uris": {"android": "https://dc.lft.to/lastmile_qr_scan", "ios": "https://dc.lft.to/lastmile_qr_scan"}, "fusion_lon": 0.0, "lat": 38.919584666666665, "bike_id": "d696566e7d1dc12b20575ad412ba73d5", "type": "electric_bike", "is_reserved": 0, "lon": -77.101077}, {"fusion_lat": 0.0, "name": "17259438e517a4492f618290f48c9bd1", "is_disabled": 0, "rental_uris": {"android": "https://dc.lft.to/lastmile_qr_scan", "ios": "https://dc.lft.to/lastmile_qr_scan"}, "fusion_lon": 0.0, "lat": 38.92219333333333, "bike_id": "17259438e517a4492f618290f48c9bd1", "type": "electric_scooter", "is_reserved": 0, "lon": -76.983731}, {"fusion_lat": 0.0, "name": "38a9be478e9b2a6a5d3e7a4249c4f051", "is_disabled": 0, "rental_uris": {"android": "https://dc.lft.to/lastmile_qr_scan", "ios": "https://dc.lft.to/lastmile_qr_scan"}, "fusion_lon": 0.0, "lat": 38.93547316666667, "bike_id": "38a9be478e9b2a6a5d3e7a4249c4f051", "type": "electric_scooter", "is_reserved": 0, "lon": -77.0325805}, {"fusion_lat": 0.0, "name": "961018acd89000d018692c1518d8b3aa", "is_disabled": 0, "rental_uris": {"android": "https://dc.lft.to/lastmile_qr_scan", "ios": "https://dc.lft.to/lastmile_qr_scan"}, "fusion_lon": 0.0, "lat": 38.925292666666664, "bike_id": "961018acd89000d018692c1518d8b3aa", "type": "electric_scooter", "is_reserved": 0, "lon": -77.05560666666666}, {"fusion_lat": 0.0, "name": "46b7ab65bb3c15e942c14c105a54e548", "is_disabled": 0, "rental_uris": {"android": "https://dc.lft.to/lastmile_qr_scan", "ios": "https://dc.lft.to/lastmile_qr_scan"}, "fusion_lon": 0.0, "lat": 38.9005965, "bike_id": "46b7ab65bb3c15e942c14c105a54e548", "type": "electric_scooter", "is_reserved": 0, "lon": -76.93383083333333}, {"fusion_lat": 0.0, "name": "ad84746b4cbf58cc78a291407e67c82b", "is_disabled": 0, "rental_uris": {"android": "https://dc.lft.to/lastmile_qr_scan", "ios": "https://dc.lft.to/lastmile_qr_scan"}, "fusion_lon": 0.0, "lat": 38.919144833333334, "bike_id": "ad84746b4cbf58cc78a291407e67c82b", "type": "electric_scooter", "is_reserved": 0, "lon": -77.035795}, {"fusion_lat": 0.0, "name": "c977de7aabac30ebccfde1463b0c4326", "is_disabled": 0, "rental_uris": {"android": "https://dc.lft.to/lastmile_qr_scan", "ios": "https://dc.lft.to/lastmile_qr_scan"}, "fusion_lon": 0.0, "lat": 38.956256, "bike_id": "c977de7aabac30ebccfde1463b0c4326", "type": "electric_scooter", "is_reserved": 0, "lon": -77.02833683333333}, {"fusion_lat": 0.0, "name": "04b07b77bd1336ff9a55c7488f42b78a", "is_disabled": 0, "rental_uris": {"android": "https://dc.lft.to/lastmile_qr_scan", "ios": "https://dc.lft.to/lastmile_qr_scan"}, "fusion_lon": 0.0, "lat": 38.903462166666664, "bike_id": "04b07b77bd1336ff9a55c7488f42b78a", "type": "electric_scooter", "is_reserved": 0, "lon": -77.0316095}, {"fusion_lat": 0.0, "name": "8970c92dc54f745572ccd99245b8c782", "is_disabled": 0, "rental_uris": {"android": "https://dc.lft.to/lastmile_qr_scan", "ios": "https://dc.lft.to/lastmile_qr_scan"}, "fusion_lon": 0.0, "lat": 38.857790666666666, "bike_id": "8970c92dc54f745572ccd99245b8c782", "type": "electric_scooter", "is_reserved": 0, "lon": -76.9729765}, {"fusion_lat": 0.0, "name": "9c22fe36ec0cbcadc837e03ffbd9c162", "is_disabled": 0, "rental_uris": {"android": "https://dc.lft.to/lastmile_qr_scan", "ios": "https://dc.lft.to/lastmile_qr_scan"}, "fusion_lon": 0.0, "lat": 38.906480333333334, "bike_id": "9c22fe36ec0cbcadc837e03ffbd9c162", "type": "electric_scooter", "is_reserved": 0, "lon": -77.02946533333333}, {"fusion_lat": 0.0, "name": "72f8d3a8f56debbb1b7b9381af6c9916", "is_disabled": 0, "rental_uris": {"android": "https://dc.lft.to/lastmile_qr_scan", "ios": "https://dc.lft.to/lastmile_qr_scan"}, "fusion_lon": 0.0, "lat": 38.91941883333333, "bike_id": "72f8d3a8f56debbb1b7b9381af6c9916", "type": "electric_scooter", "is_reserved": 0, "lon": -77.02477133333333}, {"fusion_lat": 0.0, "name": "6b8665cf76d1cb50fe39c7632aa3d817", "is_disabled": 0, "rental_uris": {"android": "https://dc.lft.to/lastmile_qr_scan", "ios": "https://dc.lft.to/lastmile_qr_scan"}, "fusion_lon": 0.0, "lat": 38.9038385, "bike_id": "6b8665cf76d1cb50fe39c7632aa3d817", "type": "electric_scooter", "is_reserved": 0, "lon": -77.0613795}, {"fusion_lat": 0.0, "name": "fa72e3bead5f52661dd2d0cba39a35f1", "is_disabled": 0, "rental_uris": {"android": "https://dc.lft.to/lastmile_qr_scan", "ios": "https://dc.lft.to/lastmile_qr_scan"}, "fusion_lon": 0.0, "lat": 38.900592, "bike_id": "fa72e3bead5f52661dd2d0cba39a35f1", "type": "electric_scooter", "is_reserved": 0, "lon": -77.04811383333333}, {"fusion_lat": 0.0, "name": "c68563e83100202b1235cff4bff31eaa", "is_disabled": 0, "rental_uris": {"android": "https://dc.lft.to/lastmile_qr_scan", "ios": "https://dc.lft.to/lastmile_qr_scan"}, "fusion_lon": 0.0, "lat": 38.84506616666667, "bike_id": "c68563e83100202b1235cff4bff31eaa", "type": "electric_bike", "is_reserved": 0, "lon": -76.99354566666666}, {"fusion_lat": 0.0, "name": "aeea4301910aed1d74c08aef16707fe2", "is_disabled": 0, "rental_uris": {"android": "https://dc.lft.to/lastmile_qr_scan", "ios": "https://dc.lft.to/lastmile_qr_scan"}, "fusion_lon": 0.0, "lat": 38.886643, "bike_id": "aeea4301910aed1d74c08aef16707fe2", "type": "electric_scooter", "is_reserved": 0, "lon": -77.02832666666667}, {"fusion_lat": 0.0, "name": "388adbda2f713c0fee7727e204ba87d5", "is_disabled": 0, "rental_uris": {"android": "https://dc.lft.to/lastmile_qr_scan", "ios": "https://dc.lft.to/lastmile_qr_scan"}, "fusion_lon": 0.0, "lat": 38.907889833333336, "bike_id": "388adbda2f713c0fee7727e204ba87d5", "type": "electric_scooter", "is_reserved": 0, "lon": -77.03202933333333}, {"fusion_lat": 0.0, "name": "78820d3c095562e0da8d6f7e2ed4604d", "is_disabled": 0, "rental_uris": {"android": "https://dc.lft.to/lastmile_qr_scan", "ios": "https://dc.lft.to/lastmile_qr_scan"}, "fusion_lon": 0.0, "lat": 38.907020333333335, "bike_id": "78820d3c095562e0da8d6f7e2ed4604d", "type": "electric_scooter", "is_reserved": 0, "lon": -76.98697916666667}, {"fusion_lat": 0.0, "name": "a1372401c9d84a9e4d35f9064d154fc8", "is_disabled": 0, "rental_uris": {"android": "https://dc.lft.to/lastmile_qr_scan", "ios": "https://dc.lft.to/lastmile_qr_scan"}, "fusion_lon": 0.0, "lat": 38.9261525, "bike_id": "a1372401c9d84a9e4d35f9064d154fc8", "type": "electric_scooter", "is_reserved": 0, "lon": -77.02162233333334}, {"fusion_lat": 0.0, "name": "7f61c3b36f0c6cf77423010d08af08f5", "is_disabled": 0, "rental_uris": {"android": "https://dc.lft.to/lastmile_qr_scan", "ios": "https://dc.lft.to/lastmile_qr_scan"}, "fusion_lon": 0.0, "lat": 38.887206, "bike_id": "7f61c3b36f0c6cf77423010d08af08f5", "type": "electric_scooter", "is_reserved": 0, "lon": -76.9968875}, {"fusion_lat": 0.0, "name": "8b81aab9954c17a147072ecb7fb645c5", "is_disabled": 0, "rental_uris": {"android": "https://dc.lft.to/lastmile_qr_scan", "ios": "https://dc.lft.to/lastmile_qr_scan"}, "fusion_lon": 0.0, "lat": 38.92437116666667, "bike_id": "8b81aab9954c17a147072ecb7fb645c5", "type": "electric_scooter", "is_reserved": 0, "lon": -77.03408516666667}, {"fusion_lat": 0.0, "name": "fffbb62ad65898c9e253d46746a71933", "is_disabled": 0, "rental_uris": {"android": "https://dc.lft.to/lastmile_qr_scan", "ios": "https://dc.lft.to/lastmile_qr_scan"}, "fusion_lon": 0.0, "lat": 38.932578666666664, "bike_id": "fffbb62ad65898c9e253d46746a71933", "type": "electric_scooter", "is_reserved": 0, "lon": -77.06619783333333}, {"fusion_lat": 0.0, "name": "b8795541b1b87bbbe9296100686ebe3d", "is_disabled": 0, "rental_uris": {"android": "https://dc.lft.to/lastmile_qr_scan", "ios": "https://dc.lft.to/lastmile_qr_scan"}, "fusion_lon": 0.0, "lat": 38.892237333333334, "bike_id": "b8795541b1b87bbbe9296100686ebe3d", "type": "electric_scooter", "is_reserved": 0, "lon": -77.03178433333333}, {"fusion_lat": 0.0, "name": "85a83eb928939de6639b2573ad0e20f8", "is_disabled": 0, "rental_uris": {"android": "https://dc.lft.to/lastmile_qr_scan", "ios": "https://dc.lft.to/lastmile_qr_scan"}, "fusion_lon": 0.0, "lat": 38.93707333333333, "bike_id": "85a83eb928939de6639b2573ad0e20f8", "type": "electric_scooter", "is_reserved": 0, "lon": -77.0611005}, {"fusion_lat": 0.0, "name": "6aa3a7e2c6c0ec80eeeabf5e56871996", "is_disabled": 0, "rental_uris": {"android": "https://dc.lft.to/lastmile_qr_scan", "ios": "https://dc.lft.to/lastmile_qr_scan"}, "fusion_lon": 0.0, "lat": 38.9172365, "bike_id": "6aa3a7e2c6c0ec80eeeabf5e56871996", "type": "electric_scooter", "is_reserved": 0, "lon": -77.03856766666667}, {"fusion_lat": 0.0, "name": "53504788da39a36d8f2a6cd46b17eb5c", "is_disabled": 0, "rental_uris": {"android": "https://dc.lft.to/lastmile_qr_scan", "ios": "https://dc.lft.to/lastmile_qr_scan"}, "fusion_lon": 0.0, "lat": 38.890078, "bike_id": "53504788da39a36d8f2a6cd46b17eb5c", "type": "electric_scooter", "is_reserved": 0, "lon": -76.93747133333333}, {"fusion_lat": 0.0, "name": "bc9c2171a095d814a07f57520550586c", "is_disabled": 0, "rental_uris": {"android": "https://dc.lft.to/lastmile_qr_scan", "ios": "https://dc.lft.to/lastmile_qr_scan"}, "fusion_lon": 0.0, "lat": 38.945177, "bike_id": "bc9c2171a095d814a07f57520550586c", "type": "electric_scooter", "is_reserved": 0, "lon": -77.03891233333333}, {"fusion_lat": 0.0, "name": "e7878157a6b22895c5af2a5db0ad02d2", "is_disabled": 0, "rental_uris": {"android": "https://dc.lft.to/lastmile_qr_scan", "ios": "https://dc.lft.to/lastmile_qr_scan"}, "fusion_lon": 0.0, "lat": 38.93259666666667, "bike_id": "e7878157a6b22895c5af2a5db0ad02d2", "type": "electric_scooter", "is_reserved": 0, "lon": -77.03267516666666}, {"fusion_lat": 0.0, "name": "b8dfaf21c05d300b0e9452ad3855133a", "is_disabled": 0, "rental_uris": {"android": "https://dc.lft.to/lastmile_qr_scan", "ios": "https://dc.lft.to/lastmile_qr_scan"}, "fusion_lon": 0.0, "lat": 38.92431933333334, "bike_id": "b8dfaf21c05d300b0e9452ad3855133a", "type": "electric_scooter", "is_reserved": 0, "lon": -77.05183933333333}, {"fusion_lat": 0.0, "name": "753e57f11929226560122892e91be21a", "is_disabled": 0, "rental_uris": {"android": "https://dc.lft.to/lastmile_qr_scan", "ios": "https://dc.lft.to/lastmile_qr_scan"}, "fusion_lon": 0.0, "lat": 38.901741333333334, "bike_id": "753e57f11929226560122892e91be21a", "type": "electric_scooter", "is_reserved": 0, "lon": -77.02136533333334}, {"fusion_lat": 0.0, "name": "93029769f06055fe5815040d8599f795", "is_disabled": 0, "rental_uris": {"android": "https://dc.lft.to/lastmile_qr_scan", "ios": "https://dc.lft.to/lastmile_qr_scan"}, "fusion_lon": 0.0, "lat": 38.9396955, "bike_id": "93029769f06055fe5815040d8599f795", "type": "electric_scooter", "is_reserved": 0, "lon": -77.03259683333333}, {"fusion_lat": 0.0, "name": "c5119e96b740cb3f9e47c90e8425f8c2", "is_disabled": 0, "rental_uris": {"android": "https://dc.lft.to/lastmile_qr_scan", "ios": "https://dc.lft.to/lastmile_qr_scan"}, "fusion_lon": 0.0, "lat": 38.86253683333333, "bike_id": "c5119e96b740cb3f9e47c90e8425f8c2", "type": "electric_scooter", "is_reserved": 0, "lon": -76.995128}, {"fusion_lat": 0.0, "name": "eac1439bd8530a6d84c806056317ee0a", "is_disabled": 0, "rental_uris": {"android": "https://dc.lft.to/lastmile_qr_scan", "ios": "https://dc.lft.to/lastmile_qr_scan"}, "fusion_lon": 0.0, "lat": 38.899446833333336, "bike_id": "eac1439bd8530a6d84c806056317ee0a", "type": "electric_scooter", "is_reserved": 0, "lon": -76.98164183333333}, {"fusion_lat": 0.0, "name": "e931b9d6dca59ba8380a5508a49e36c0", "is_disabled": 0, "rental_uris": {"android": "https://dc.lft.to/lastmile_qr_scan", "ios": "https://dc.lft.to/lastmile_qr_scan"}, "fusion_lon": 0.0, "lat": 38.91614233333333, "bike_id": "e931b9d6dca59ba8380a5508a49e36c0", "type": "electric_scooter", "is_reserved": 0, "lon": -77.01123516666667}, {"fusion_lat": 0.0, "name": "7161dccc7b1f01bd3c5760eb0892b770", "is_disabled": 0, "rental_uris": {"android": "https://dc.lft.to/lastmile_qr_scan", "ios": "https://dc.lft.to/lastmile_qr_scan"}, "fusion_lon": 0.0, "lat": 38.88715283333333, "bike_id": "7161dccc7b1f01bd3c5760eb0892b770", "type": "electric_scooter", "is_reserved": 0, "lon": -77.02204216666667}, {"fusion_lat": 0.0, "name": "8ad26e5f24cbd0e8d033ccd91acf25ac", "is_disabled": 0, "rental_uris": {"android": "https://dc.lft.to/lastmile_qr_scan", "ios": "https://dc.lft.to/lastmile_qr_scan"}, "fusion_lon": 0.0, "lat": 38.90928366666667, "bike_id": "8ad26e5f24cbd0e8d033ccd91acf25ac", "type": "electric_scooter", "is_reserved": 0, "lon": -77.045751}, {"fusion_lat": 0.0, "name": "6450f51bcbcab5ac8e33ac0a1ec153f8", "is_disabled": 0, "rental_uris": {"android": "https://dc.lft.to/lastmile_qr_scan", "ios": "https://dc.lft.to/lastmile_qr_scan"}, "fusion_lon": 0.0, "lat": 38.90407533333333, "bike_id": "6450f51bcbcab5ac8e33ac0a1ec153f8", "type": "electric_scooter", "is_reserved": 0, "lon": -77.06785433333333}, {"fusion_lat": 0.0, "name": "7517554733a4cd22a5cd0b0f08ffbfdb", "is_disabled": 0, "rental_uris": {"android": "https://dc.lft.to/lastmile_qr_scan", "ios": "https://dc.lft.to/lastmile_qr_scan"}, "fusion_lon": 0.0, "lat": 38.907215, "bike_id": "7517554733a4cd22a5cd0b0f08ffbfdb", "type": "electric_scooter", "is_reserved": 0, "lon": -77.04344566666667}, {"fusion_lat": 0.0, "name": "17556367bbe4896ef8a94034a75e4ae4", "is_disabled": 0, "rental_uris": {"android": "https://dc.lft.to/lastmile_qr_scan", "ios": "https://dc.lft.to/lastmile_qr_scan"}, "fusion_lon": 0.0, "lat": 38.911267333333335, "bike_id": "17556367bbe4896ef8a94034a75e4ae4", "type": "electric_scooter", "is_reserved": 0, "lon": -77.02198433333334}, {"fusion_lat": 0.0, "name": "49ded03aca7a3e6083cbab8bf4cf9079", "is_disabled": 0, "rental_uris": {"android": "https://dc.lft.to/lastmile_qr_scan", "ios": "https://dc.lft.to/lastmile_qr_scan"}, "fusion_lon": 0.0, "lat": 38.8988735, "bike_id": "49ded03aca7a3e6083cbab8bf4cf9079", "type": "electric_scooter", "is_reserved": 0, "lon": -77.02182933333333}, {"fusion_lat": 0.0, "name": "703a5538f6a2493b513d93f972c06042", "is_disabled": 0, "rental_uris": {"android": "https://dc.lft.to/lastmile_qr_scan", "ios": "https://dc.lft.to/lastmile_qr_scan"}, "fusion_lon": 0.0, "lat": 38.89824866666667, "bike_id": "703a5538f6a2493b513d93f972c06042", "type": "electric_scooter", "is_reserved": 0, "lon": -77.02695383333334}, {"fusion_lat": 0.0, "name": "49b0bf4c1b74e03407533d854d4cb580", "is_disabled": 0, "rental_uris": {"android": "https://dc.lft.to/lastmile_qr_scan", "ios": "https://dc.lft.to/lastmile_qr_scan"}, "fusion_lon": 0.0, "lat": 38.88492883333333, "bike_id": "49b0bf4c1b74e03407533d854d4cb580", "type": "electric_scooter", "is_reserved": 0, "lon": -77.0072765}, {"fusion_lat": 0.0, "name": "adfa4f49c58312381017932545818f2d", "is_disabled": 0, "rental_uris": {"android": "https://dc.lft.to/lastmile_qr_scan", "ios": "https://dc.lft.to/lastmile_qr_scan"}, "fusion_lon": 0.0, "lat": 38.90081933333333, "bike_id": "adfa4f49c58312381017932545818f2d", "type": "electric_scooter", "is_reserved": 0, "lon": -77.021593}, {"fusion_lat": 0.0, "name": "ab99b7660c94ef61d11d9ec0b8d02539", "is_disabled": 0, "rental_uris": {"android": "https://dc.lft.to/lastmile_qr_scan", "ios": "https://dc.lft.to/lastmile_qr_scan"}, "fusion_lon": 0.0, "lat": 38.9286015, "bike_id": "ab99b7660c94ef61d11d9ec0b8d02539", "type": "electric_scooter", "is_reserved": 0, "lon": -77.03100066666667}, {"fusion_lat": 0.0, "name": "c4a28be28a227fedd65f6b7a602fc1a4", "is_disabled": 0, "rental_uris": {"android": "https://dc.lft.to/lastmile_qr_scan", "ios": "https://dc.lft.to/lastmile_qr_scan"}, "fusion_lon": 0.0, "lat": 38.92045666666667, "bike_id": "c4a28be28a227fedd65f6b7a602fc1a4", "type": "electric_scooter", "is_reserved": 0, "lon": -77.0481605}, {"fusion_lat": 0.0, "name": "6ad4ec0a52a8b5b92e3d069b859c5599", "is_disabled": 0, "rental_uris": {"android": "https://dc.lft.to/lastmile_qr_scan", "ios": "https://dc.lft.to/lastmile_qr_scan"}, "fusion_lon": 0.0, "lat": 38.9290475, "bike_id": "6ad4ec0a52a8b5b92e3d069b859c5599", "type": "electric_scooter", "is_reserved": 0, "lon": -77.06409766666667}, {"fusion_lat": 0.0, "name": "81395c50b869c61e2ffe5249798ee2bd", "is_disabled": 0, "rental_uris": {"android": "https://dc.lft.to/lastmile_qr_scan", "ios": "https://dc.lft.to/lastmile_qr_scan"}, "fusion_lon": 0.0, "lat": 38.91760433333334, "bike_id": "81395c50b869c61e2ffe5249798ee2bd", "type": "electric_scooter", "is_reserved": 0, "lon": -77.02705316666666}, {"fusion_lat": 0.0, "name": "6d9069d1284ed73e82b57aa1c32c0b43", "is_disabled": 0, "rental_uris": {"android": "https://dc.lft.to/lastmile_qr_scan", "ios": "https://dc.lft.to/lastmile_qr_scan"}, "fusion_lon": 0.0, "lat": 38.91454233333333, "bike_id": "6d9069d1284ed73e82b57aa1c32c0b43", "type": "electric_scooter", "is_reserved": 0, "lon": -77.02195716666667}, {"fusion_lat": 0.0, "name": "f7e2ead3550ec3365e38bcfa074375fa", "is_disabled": 0, "rental_uris": {"android": "https://dc.lft.to/lastmile_qr_scan", "ios": "https://dc.lft.to/lastmile_qr_scan"}, "fusion_lon": 0.0, "lat": 38.905513, "bike_id": "f7e2ead3550ec3365e38bcfa074375fa", "type": "electric_scooter", "is_reserved": 0, "lon": -77.04924}, {"fusion_lat": 0.0, "name": "e680a701e5863dd9a75bcf941d6eb79b", "is_disabled": 0, "rental_uris": {"android": "https://dc.lft.to/lastmile_qr_scan", "ios": "https://dc.lft.to/lastmile_qr_scan"}, "fusion_lon": 0.0, "lat": 38.95962983333333, "bike_id": "e680a701e5863dd9a75bcf941d6eb79b", "type": "electric_bike", "is_reserved": 0, "lon": -76.98164666666666}, {"fusion_lat": 0.0, "name": "60b7c04677b59065f6c1c66067df0544", "is_disabled": 0, "rental_uris": {"android": "https://dc.lft.to/lastmile_qr_scan", "ios": "https://dc.lft.to/lastmile_qr_scan"}, "fusion_lon": 0.0, "lat": 38.898930166666666, "bike_id": "60b7c04677b59065f6c1c66067df0544", "type": "electric_scooter", "is_reserved": 0, "lon": -76.93364683333333}, {"fusion_lat": 0.0, "name": "a292bbff6f8099f4396c3e28670820b6", "is_disabled": 0, "rental_uris": {"android": "https://dc.lft.to/lastmile_qr_scan", "ios": "https://dc.lft.to/lastmile_qr_scan"}, "fusion_lon": 0.0, "lat": 38.936165, "bike_id": "a292bbff6f8099f4396c3e28670820b6", "type": "electric_scooter", "is_reserved": 0, "lon": -77.031984}, {"fusion_lat": 0.0, "name": "e143ef62716772c880fdd1807968ee85", "is_disabled": 0, "rental_uris": {"android": "https://dc.lft.to/lastmile_qr_scan", "ios": "https://dc.lft.to/lastmile_qr_scan"}, "fusion_lon": 0.0, "lat": 38.91945583333333, "bike_id": "e143ef62716772c880fdd1807968ee85", "type": "electric_scooter", "is_reserved": 0, "lon": -77.0319495}, {"fusion_lat": 0.0, "name": "b2842da03bd2958f3add8594bab44886", "is_disabled": 0, "rental_uris": {"android": "https://dc.lft.to/lastmile_qr_scan", "ios": "https://dc.lft.to/lastmile_qr_scan"}, "fusion_lon": 0.0, "lat": 38.92721683333333, "bike_id": "b2842da03bd2958f3add8594bab44886", "type": "electric_scooter", "is_reserved": 0, "lon": -77.0601155}, {"fusion_lat": 0.0, "name": "1624eec21389b971eff91832913f9f87", "is_disabled": 0, "rental_uris": {"android": "https://dc.lft.to/lastmile_qr_scan", "ios": "https://dc.lft.to/lastmile_qr_scan"}, "fusion_lon": 0.0, "lat": 38.90971316666667, "bike_id": "1624eec21389b971eff91832913f9f87", "type": "electric_scooter", "is_reserved": 0, "lon": -77.046461}, {"fusion_lat": 0.0, "name": "9f4688f48d121be01cd72f5379bbc88c", "is_disabled": 0, "rental_uris": {"android": "https://dc.lft.to/lastmile_qr_scan", "ios": "https://dc.lft.to/lastmile_qr_scan"}, "fusion_lon": 0.0, "lat": 38.988179, "bike_id": "9f4688f48d121be01cd72f5379bbc88c", "type": "electric_bike", "is_reserved": 0, "lon": -77.02649083333333}, {"fusion_lat": 0.0, "name": "e6934ad4c3afcdac8577088840fce7b3", "is_disabled": 0, "rental_uris": {"android": "https://dc.lft.to/lastmile_qr_scan", "ios": "https://dc.lft.to/lastmile_qr_scan"}, "fusion_lon": 0.0, "lat": 38.875699, "bike_id": "e6934ad4c3afcdac8577088840fce7b3", "type": "electric_scooter", "is_reserved": 0, "lon": -77.0093615}, {"fusion_lat": 0.0, "name": "f5caf79f75107b228c7eb5e9749b1325", "is_disabled": 0, "rental_uris": {"android": "https://dc.lft.to/lastmile_qr_scan", "ios": "https://dc.lft.to/lastmile_qr_scan"}, "fusion_lon": 0.0, "lat": 38.90685216666667, "bike_id": "f5caf79f75107b228c7eb5e9749b1325", "type": "electric_scooter", "is_reserved": 0, "lon": -77.026942}, {"fusion_lat": 0.0, "name": "3cc3e26f381fc5a554d39170825bc99c", "is_disabled": 0, "rental_uris": {"android": "https://dc.lft.to/lastmile_qr_scan", "ios": "https://dc.lft.to/lastmile_qr_scan"}, "fusion_lon": 0.0, "lat": 38.88891366666667, "bike_id": "3cc3e26f381fc5a554d39170825bc99c", "type": "electric_scooter", "is_reserved": 0, "lon": -77.01506916666666}, {"fusion_lat": 0.0, "name": "264e243b0169a04757335534389eaee4", "is_disabled": 0, "rental_uris": {"android": "https://dc.lft.to/lastmile_qr_scan", "ios": "https://dc.lft.to/lastmile_qr_scan"}, "fusion_lon": 0.0, "lat": 38.89732766666667, "bike_id": "264e243b0169a04757335534389eaee4", "type": "electric_scooter", "is_reserved": 0, "lon": -77.022164}, {"fusion_lat": 0.0, "name": "1fcdd09a333422c20bff6eefcdf1a07b", "is_disabled": 0, "rental_uris": {"android": "https://dc.lft.to/lastmile_qr_scan", "ios": "https://dc.lft.to/lastmile_qr_scan"}, "fusion_lon": 0.0, "lat": 38.9491665, "bike_id": "1fcdd09a333422c20bff6eefcdf1a07b", "type": "electric_scooter", "is_reserved": 0, "lon": -77.01857383333333}, {"fusion_lat": 0.0, "name": "e720101701327c14987f4e0abaa5e308", "is_disabled": 0, "rental_uris": {"android": "https://dc.lft.to/lastmile_qr_scan", "ios": "https://dc.lft.to/lastmile_qr_scan"}, "fusion_lon": 0.0, "lat": 38.90275583333333, "bike_id": "e720101701327c14987f4e0abaa5e308", "type": "electric_scooter", "is_reserved": 0, "lon": -77.0344335}, {"fusion_lat": 0.0, "name": "cb0debdadc59924f15f2efebc2944a37", "is_disabled": 0, "rental_uris": {"android": "https://dc.lft.to/lastmile_qr_scan", "ios": "https://dc.lft.to/lastmile_qr_scan"}, "fusion_lon": 0.0, "lat": 38.927922333333335, "bike_id": "cb0debdadc59924f15f2efebc2944a37", "type": "electric_scooter", "is_reserved": 0, "lon": -76.95559966666667}, {"fusion_lat": 0.0, "name": "bab5f74dfab7198696166ab9e1da43bf", "is_disabled": 0, "rental_uris": {"android": "https://dc.lft.to/lastmile_qr_scan", "ios": "https://dc.lft.to/lastmile_qr_scan"}, "fusion_lon": 0.0, "lat": 38.9048295, "bike_id": "bab5f74dfab7198696166ab9e1da43bf", "type": "electric_scooter", "is_reserved": 0, "lon": -76.94955483333334}, {"fusion_lat": 0.0, "name": "8c0c429c8f5cbcdd0b32323d636da310", "is_disabled": 0, "rental_uris": {"android": "https://dc.lft.to/lastmile_qr_scan", "ios": "https://dc.lft.to/lastmile_qr_scan"}, "fusion_lon": 0.0, "lat": 38.897537166666666, "bike_id": "8c0c429c8f5cbcdd0b32323d636da310", "type": "electric_scooter", "is_reserved": 0, "lon": -77.03215616666667}, {"fusion_lat": 0.0, "name": "d8c7b370fc860fb2041392f7ed121fe3", "is_disabled": 0, "rental_uris": {"android": "https://dc.lft.to/lastmile_qr_scan", "ios": "https://dc.lft.to/lastmile_qr_scan"}, "fusion_lon": 0.0, "lat": 38.92447383333333, "bike_id": "d8c7b370fc860fb2041392f7ed121fe3", "type": "electric_scooter", "is_reserved": 0, "lon": -77.05246033333333}, {"fusion_lat": 0.0, "name": "c0087f2eb3b28694fbf70b794eaf5120", "is_disabled": 0, "rental_uris": {"android": "https://dc.lft.to/lastmile_qr_scan", "ios": "https://dc.lft.to/lastmile_qr_scan"}, "fusion_lon": 0.0, "lat": 38.882475, "bike_id": "c0087f2eb3b28694fbf70b794eaf5120", "type": "electric_bike", "is_reserved": 0, "lon": -76.96259366666666}, {"fusion_lat": 0.0, "name": "be2c9a0b70b6301931851d56352bff9e", "is_disabled": 0, "rental_uris": {"android": "https://dc.lft.to/lastmile_qr_scan", "ios": "https://dc.lft.to/lastmile_qr_scan"}, "fusion_lon": 0.0, "lat": 38.892855, "bike_id": "be2c9a0b70b6301931851d56352bff9e", "type": "electric_scooter", "is_reserved": 0, "lon": -76.98306583333333}, {"fusion_lat": 0.0, "name": "085afc3d09655abf6be2676388a9b774", "is_disabled": 0, "rental_uris": {"android": "https://dc.lft.to/lastmile_qr_scan", "ios": "https://dc.lft.to/lastmile_qr_scan"}, "fusion_lon": 0.0, "lat": 38.905470333333334, "bike_id": "085afc3d09655abf6be2676388a9b774", "type": "electric_scooter", "is_reserved": 0, "lon": -77.04745616666666}, {"fusion_lat": 0.0, "name": "20add0e09001539814180f089370ece5", "is_disabled": 0, "rental_uris": {"android": "https://dc.lft.to/lastmile_qr_scan", "ios": "https://dc.lft.to/lastmile_qr_scan"}, "fusion_lon": 0.0, "lat": 38.92019883333333, "bike_id": "20add0e09001539814180f089370ece5", "type": "electric_scooter", "is_reserved": 0, "lon": -77.03136833333333}, {"fusion_lat": 0.0, "name": "c2423a4cf35abadca1b3fa06342870e2", "is_disabled": 0, "rental_uris": {"android": "https://dc.lft.to/lastmile_qr_scan", "ios": "https://dc.lft.to/lastmile_qr_scan"}, "fusion_lon": 0.0, "lat": 38.91882966666667, "bike_id": "c2423a4cf35abadca1b3fa06342870e2", "type": "electric_scooter", "is_reserved": 0, "lon": -77.03488166666666}, {"fusion_lat": 0.0, "name": "58998d5dd15fc60aba257034f9ea6c9c", "is_disabled": 0, "rental_uris": {"android": "https://dc.lft.to/lastmile_qr_scan", "ios": "https://dc.lft.to/lastmile_qr_scan"}, "fusion_lon": 0.0, "lat": 38.92069933333333, "bike_id": "58998d5dd15fc60aba257034f9ea6c9c", "type": "electric_scooter", "is_reserved": 0, "lon": -77.0021565}, {"fusion_lat": 0.0, "name": "aa35cfc512cb4b4dc2a2ea3c523a848a", "is_disabled": 0, "rental_uris": {"android": "https://dc.lft.to/lastmile_qr_scan", "ios": "https://dc.lft.to/lastmile_qr_scan"}, "fusion_lon": 0.0, "lat": 38.906466, "bike_id": "aa35cfc512cb4b4dc2a2ea3c523a848a", "type": "electric_scooter", "is_reserved": 0, "lon": -77.01799283333334}, {"fusion_lat": 0.0, "name": "362031ce16901064bd6dc54822cbb693", "is_disabled": 0, "rental_uris": {"android": "https://dc.lft.to/lastmile_qr_scan", "ios": "https://dc.lft.to/lastmile_qr_scan"}, "fusion_lon": 0.0, "lat": 38.9092015, "bike_id": "362031ce16901064bd6dc54822cbb693", "type": "electric_scooter", "is_reserved": 0, "lon": -77.03292383333333}, {"fusion_lat": 0.0, "name": "d631a5be03d3c62b820866b5b33b991a", "is_disabled": 0, "rental_uris": {"android": "https://dc.lft.to/lastmile_qr_scan", "ios": "https://dc.lft.to/lastmile_qr_scan"}, "fusion_lon": 0.0, "lat": 38.94231416666667, "bike_id": "d631a5be03d3c62b820866b5b33b991a", "type": "electric_bike", "is_reserved": 0, "lon": -77.01386666666667}, {"fusion_lat": 0.0, "name": "a79271f8dd2f1548d9df03ae17f0f202", "is_disabled": 0, "rental_uris": {"android": "https://dc.lft.to/lastmile_qr_scan", "ios": "https://dc.lft.to/lastmile_qr_scan"}, "fusion_lon": 0.0, "lat": 38.935979, "bike_id": "a79271f8dd2f1548d9df03ae17f0f202", "type": "electric_scooter", "is_reserved": 0, "lon": -77.02285116666667}, {"fusion_lat": 0.0, "name": "179f3fdf38497370b4c58702e341929e", "is_disabled": 0, "rental_uris": {"android": "https://dc.lft.to/lastmile_qr_scan", "ios": "https://dc.lft.to/lastmile_qr_scan"}, "fusion_lon": 0.0, "lat": 38.8994715, "bike_id": "179f3fdf38497370b4c58702e341929e", "type": "electric_scooter", "is_reserved": 0, "lon": -77.02411283333333}, {"fusion_lat": 0.0, "name": "ae08c5c992ba08c54f93be248b46ac90", "is_disabled": 0, "rental_uris": {"android": "https://dc.lft.to/lastmile_qr_scan", "ios": "https://dc.lft.to/lastmile_qr_scan"}, "fusion_lon": 0.0, "lat": 38.92792416666666, "bike_id": "ae08c5c992ba08c54f93be248b46ac90", "type": "electric_scooter", "is_reserved": 0, "lon": -77.03200833333334}, {"fusion_lat": 0.0, "name": "fcfb4c91271d42c977b77235400d437c", "is_disabled": 0, "rental_uris": {"android": "https://dc.lft.to/lastmile_qr_scan", "ios": "https://dc.lft.to/lastmile_qr_scan"}, "fusion_lon": 0.0, "lat": 38.90379433333333, "bike_id": "fcfb4c91271d42c977b77235400d437c", "type": "electric_scooter", "is_reserved": 0, "lon": -77.0184875}, {"fusion_lat": 0.0, "name": "dd6c8e90ac96e5e60c03239c860e533d", "is_disabled": 0, "rental_uris": {"android": "https://dc.lft.to/lastmile_qr_scan", "ios": "https://dc.lft.to/lastmile_qr_scan"}, "fusion_lon": 0.0, "lat": 38.804945000000004, "bike_id": "dd6c8e90ac96e5e60c03239c860e533d", "type": "electric_bike", "is_reserved": 0, "lon": -77.10162433333333}, {"fusion_lat": 0.0, "name": "3b33cf978a6f38df883cc1543bfc6ded", "is_disabled": 0, "rental_uris": {"android": "https://dc.lft.to/lastmile_qr_scan", "ios": "https://dc.lft.to/lastmile_qr_scan"}, "fusion_lon": 0.0, "lat": 38.912993, "bike_id": "3b33cf978a6f38df883cc1543bfc6ded", "type": "electric_scooter", "is_reserved": 0, "lon": -77.04873416666666}, {"fusion_lat": 0.0, "name": "d3a2a28704eb479320548ccd4a297e9b", "is_disabled": 0, "rental_uris": {"android": "https://dc.lft.to/lastmile_qr_scan", "ios": "https://dc.lft.to/lastmile_qr_scan"}, "fusion_lon": 0.0, "lat": 38.92500833333333, "bike_id": "d3a2a28704eb479320548ccd4a297e9b", "type": "electric_scooter", "is_reserved": 0, "lon": -77.021419}, {"fusion_lat": 0.0, "name": "cb00eaab515a7abf6eb2f898bbc87f6a", "is_disabled": 0, "rental_uris": {"android": "https://dc.lft.to/lastmile_qr_scan", "ios": "https://dc.lft.to/lastmile_qr_scan"}, "fusion_lon": 0.0, "lat": 38.86166633333333, "bike_id": "cb00eaab515a7abf6eb2f898bbc87f6a", "type": "electric_scooter", "is_reserved": 0, "lon": -76.98369016666666}, {"fusion_lat": 0.0, "name": "56176a2a66b31ab5b08240c028e85e2a", "is_disabled": 0, "rental_uris": {"android": "https://dc.lft.to/lastmile_qr_scan", "ios": "https://dc.lft.to/lastmile_qr_scan"}, "fusion_lon": 0.0, "lat": 38.917682166666665, "bike_id": "56176a2a66b31ab5b08240c028e85e2a", "type": "electric_scooter", "is_reserved": 0, "lon": -77.036374}, {"fusion_lat": 0.0, "name": "5efa2ff13fe3e29ab73b234c59725813", "is_disabled": 0, "rental_uris": {"android": "https://dc.lft.to/lastmile_qr_scan", "ios": "https://dc.lft.to/lastmile_qr_scan"}, "fusion_lon": 0.0, "lat": 38.919654666666666, "bike_id": "5efa2ff13fe3e29ab73b234c59725813", "type": "electric_scooter", "is_reserved": 0, "lon": -77.070849}, {"fusion_lat": 0.0, "name": "fd880f995a15e834963a57e923909567", "is_disabled": 0, "rental_uris": {"android": "https://dc.lft.to/lastmile_qr_scan", "ios": "https://dc.lft.to/lastmile_qr_scan"}, "fusion_lon": 0.0, "lat": 38.938158666666666, "bike_id": "fd880f995a15e834963a57e923909567", "type": "electric_scooter", "is_reserved": 0, "lon": -77.06019266666667}, {"fusion_lat": 0.0, "name": "d5a01c922d3c014b1913c2e8a83ffc34", "is_disabled": 0, "rental_uris": {"android": "https://dc.lft.to/lastmile_qr_scan", "ios": "https://dc.lft.to/lastmile_qr_scan"}, "fusion_lon": 0.0, "lat": 38.924921166666664, "bike_id": "d5a01c922d3c014b1913c2e8a83ffc34", "type": "electric_scooter", "is_reserved": 0, "lon": -77.051124}, {"fusion_lat": 0.0, "name": "c6822537af82a8b195a12846041fb688", "is_disabled": 0, "rental_uris": {"android": "https://dc.lft.to/lastmile_qr_scan", "ios": "https://dc.lft.to/lastmile_qr_scan"}, "fusion_lon": 0.0, "lat": 38.933938833333336, "bike_id": "c6822537af82a8b195a12846041fb688", "type": "electric_scooter", "is_reserved": 0, "lon": -77.05774666666667}, {"fusion_lat": 0.0, "name": "1001d5ea86b56d202a20f01f269e4904", "is_disabled": 0, "rental_uris": {"android": "https://dc.lft.to/lastmile_qr_scan", "ios": "https://dc.lft.to/lastmile_qr_scan"}, "fusion_lon": 0.0, "lat": 38.907748166666664, "bike_id": "1001d5ea86b56d202a20f01f269e4904", "type": "electric_scooter", "is_reserved": 0, "lon": -77.03853916666667}, {"fusion_lat": 0.0, "name": "9ca1193b7c47c8bbd53fb972c8b4dec6", "is_disabled": 0, "rental_uris": {"android": "https://dc.lft.to/lastmile_qr_scan", "ios": "https://dc.lft.to/lastmile_qr_scan"}, "fusion_lon": 0.0, "lat": 38.90216183333333, "bike_id": "9ca1193b7c47c8bbd53fb972c8b4dec6", "type": "electric_scooter", "is_reserved": 0, "lon": -76.99506316666667}, {"fusion_lat": 0.0, "name": "f21ce82034a8571e23874fc50c802138", "is_disabled": 0, "rental_uris": {"android": "https://dc.lft.to/lastmile_qr_scan", "ios": "https://dc.lft.to/lastmile_qr_scan"}, "fusion_lon": 0.0, "lat": 38.86514716666667, "bike_id": "f21ce82034a8571e23874fc50c802138", "type": "electric_bike", "is_reserved": 0, "lon": -77.129346}, {"fusion_lat": 0.0, "name": "9d2b2f58be15bd9dcd6b6c8cbbb969fe", "is_disabled": 0, "rental_uris": {"android": "https://dc.lft.to/lastmile_qr_scan", "ios": "https://dc.lft.to/lastmile_qr_scan"}, "fusion_lon": 0.0, "lat": 38.907223, "bike_id": "9d2b2f58be15bd9dcd6b6c8cbbb969fe", "type": "electric_scooter", "is_reserved": 0, "lon": -77.02378916666666}, {"fusion_lat": 0.0, "name": "44e6dbd41677e90d5dee3a4c0ad459a2", "is_disabled": 0, "rental_uris": {"android": "https://dc.lft.to/lastmile_qr_scan", "ios": "https://dc.lft.to/lastmile_qr_scan"}, "fusion_lon": 0.0, "lat": 38.92906766666667, "bike_id": "44e6dbd41677e90d5dee3a4c0ad459a2", "type": "electric_scooter", "is_reserved": 0, "lon": -77.02348783333333}, {"fusion_lat": 0.0, "name": "87ce01fc2bf617743adcc70bdd4d7430", "is_disabled": 0, "rental_uris": {"android": "https://dc.lft.to/lastmile_qr_scan", "ios": "https://dc.lft.to/lastmile_qr_scan"}, "fusion_lon": 0.0, "lat": 38.901541, "bike_id": "87ce01fc2bf617743adcc70bdd4d7430", "type": "electric_scooter", "is_reserved": 0, "lon": -76.93064016666666}, {"fusion_lat": 0.0, "name": "200ad4de961790044cdeeea333365f0d", "is_disabled": 0, "rental_uris": {"android": "https://dc.lft.to/lastmile_qr_scan", "ios": "https://dc.lft.to/lastmile_qr_scan"}, "fusion_lon": 0.0, "lat": 38.90591916666666, "bike_id": "200ad4de961790044cdeeea333365f0d", "type": "electric_scooter", "is_reserved": 0, "lon": -77.04435866666667}, {"fusion_lat": 0.0, "name": "fcaf2537ec70a3b27548c1066b9df8b0", "is_disabled": 0, "rental_uris": {"android": "https://dc.lft.to/lastmile_qr_scan", "ios": "https://dc.lft.to/lastmile_qr_scan"}, "fusion_lon": 0.0, "lat": 38.91689366666667, "bike_id": "fcaf2537ec70a3b27548c1066b9df8b0", "type": "electric_scooter", "is_reserved": 0, "lon": -77.0374685}, {"fusion_lat": 0.0, "name": "88bd7fdd872499d6e7b9c3e79e096bd5", "is_disabled": 0, "rental_uris": {"android": "https://dc.lft.to/lastmile_qr_scan", "ios": "https://dc.lft.to/lastmile_qr_scan"}, "fusion_lon": 0.0, "lat": 38.890369666666665, "bike_id": "88bd7fdd872499d6e7b9c3e79e096bd5", "type": "electric_scooter", "is_reserved": 0, "lon": -77.02974966666666}, {"fusion_lat": 0.0, "name": "a3fe5c90589def9738b3cc213eb7821a", "is_disabled": 0, "rental_uris": {"android": "https://dc.lft.to/lastmile_qr_scan", "ios": "https://dc.lft.to/lastmile_qr_scan"}, "fusion_lon": 0.0, "lat": 38.973462166666664, "bike_id": "a3fe5c90589def9738b3cc213eb7821a", "type": "electric_bike", "is_reserved": 0, "lon": -77.01798066666667}, {"fusion_lat": 0.0, "name": "d18dfcf1c834dd3502a072614bd2fbe9", "is_disabled": 0, "rental_uris": {"android": "https://dc.lft.to/lastmile_qr_scan", "ios": "https://dc.lft.to/lastmile_qr_scan"}, "fusion_lon": 0.0, "lat": 38.92678683333333, "bike_id": "d18dfcf1c834dd3502a072614bd2fbe9", "type": "electric_scooter", "is_reserved": 0, "lon": -77.02790933333333}, {"fusion_lat": 0.0, "name": "4cab97c12ca0cbd9b04a6afaa238eaed", "is_disabled": 0, "rental_uris": {"android": "https://dc.lft.to/lastmile_qr_scan", "ios": "https://dc.lft.to/lastmile_qr_scan"}, "fusion_lon": 0.0, "lat": 38.90683533333333, "bike_id": "4cab97c12ca0cbd9b04a6afaa238eaed", "type": "electric_bike", "is_reserved": 0, "lon": -76.9449345}, {"fusion_lat": 0.0, "name": "6fc20cd9fddce03ab69b5e408c2b96cc", "is_disabled": 0, "rental_uris": {"android": "https://dc.lft.to/lastmile_qr_scan", "ios": "https://dc.lft.to/lastmile_qr_scan"}, "fusion_lon": 0.0, "lat": 38.911178, "bike_id": "6fc20cd9fddce03ab69b5e408c2b96cc", "type": "electric_scooter", "is_reserved": 0, "lon": -77.004325}, {"fusion_lat": 0.0, "name": "cd9e7f27d65f1b86fc669743408776c0", "is_disabled": 0, "rental_uris": {"android": "https://dc.lft.to/lastmile_qr_scan", "ios": "https://dc.lft.to/lastmile_qr_scan"}, "fusion_lon": 0.0, "lat": 38.9846165, "bike_id": "cd9e7f27d65f1b86fc669743408776c0", "type": "electric_bike", "is_reserved": 0, "lon": -76.97055666666667}, {"fusion_lat": 0.0, "name": "3531553e92accf7c69c767e35f52b3bb", "is_disabled": 0, "rental_uris": {"android": "https://dc.lft.to/lastmile_qr_scan", "ios": "https://dc.lft.to/lastmile_qr_scan"}, "fusion_lon": 0.0, "lat": 38.88768, "bike_id": "3531553e92accf7c69c767e35f52b3bb", "type": "electric_scooter", "is_reserved": 0, "lon": -76.9774575}, {"fusion_lat": 0.0, "name": "a4e12cf61eb2533c2474db552fc1af52", "is_disabled": 0, "rental_uris": {"android": "https://dc.lft.to/lastmile_qr_scan", "ios": "https://dc.lft.to/lastmile_qr_scan"}, "fusion_lon": 0.0, "lat": 38.917171833333335, "bike_id": "a4e12cf61eb2533c2474db552fc1af52", "type": "electric_scooter", "is_reserved": 0, "lon": -77.03223466666667}, {"fusion_lat": 0.0, "name": "65e549778fa9bf7420c8520a65eab031", "is_disabled": 0, "rental_uris": {"android": "https://dc.lft.to/lastmile_qr_scan", "ios": "https://dc.lft.to/lastmile_qr_scan"}, "fusion_lon": 0.0, "lat": 38.9166545, "bike_id": "65e549778fa9bf7420c8520a65eab031", "type": "electric_scooter", "is_reserved": 0, "lon": -77.03854066666666}, {"fusion_lat": 0.0, "name": "51a1afdbacf711ab89b9ce06215a196c", "is_disabled": 0, "rental_uris": {"android": "https://dc.lft.to/lastmile_qr_scan", "ios": "https://dc.lft.to/lastmile_qr_scan"}, "fusion_lon": 0.0, "lat": 38.8861225, "bike_id": "51a1afdbacf711ab89b9ce06215a196c", "type": "electric_scooter", "is_reserved": 0, "lon": -77.0155935}, {"fusion_lat": 0.0, "name": "1c9e07eff2aaa1b685042789035142d7", "is_disabled": 0, "rental_uris": {"android": "https://dc.lft.to/lastmile_qr_scan", "ios": "https://dc.lft.to/lastmile_qr_scan"}, "fusion_lon": 0.0, "lat": 38.9027255, "bike_id": "1c9e07eff2aaa1b685042789035142d7", "type": "electric_bike", "is_reserved": 0, "lon": -77.0374345}, {"fusion_lat": 0.0, "name": "e668decc5843772a04582e286dfbfcac", "is_disabled": 0, "rental_uris": {"android": "https://dc.lft.to/lastmile_qr_scan", "ios": "https://dc.lft.to/lastmile_qr_scan"}, "fusion_lon": 0.0, "lat": 38.892332, "bike_id": "e668decc5843772a04582e286dfbfcac", "type": "electric_scooter", "is_reserved": 0, "lon": -77.01714016666666}, {"fusion_lat": 0.0, "name": "65189d955b0a30cc909fdcb1ec0befff", "is_disabled": 0, "rental_uris": {"android": "https://dc.lft.to/lastmile_qr_scan", "ios": "https://dc.lft.to/lastmile_qr_scan"}, "fusion_lon": 0.0, "lat": 38.8963655, "bike_id": "65189d955b0a30cc909fdcb1ec0befff", "type": "electric_scooter", "is_reserved": 0, "lon": -77.00922983333334}, {"fusion_lat": 0.0, "name": "80f67ff6cbe0ca6fdf78535bd0694dba", "is_disabled": 0, "rental_uris": {"android": "https://dc.lft.to/lastmile_qr_scan", "ios": "https://dc.lft.to/lastmile_qr_scan"}, "fusion_lon": 0.0, "lat": 38.909736333333335, "bike_id": "80f67ff6cbe0ca6fdf78535bd0694dba", "type": "electric_scooter", "is_reserved": 0, "lon": -77.0089715}, {"fusion_lat": 0.0, "name": "61043873162de17471027cd07858c32d", "is_disabled": 0, "rental_uris": {"android": "https://dc.lft.to/lastmile_qr_scan", "ios": "https://dc.lft.to/lastmile_qr_scan"}, "fusion_lon": 0.0, "lat": 38.85463766666667, "bike_id": "61043873162de17471027cd07858c32d", "type": "electric_scooter", "is_reserved": 0, "lon": -76.972269}, {"fusion_lat": 0.0, "name": "1bd729ff70b73ba824932b0e225d4a14", "is_disabled": 0, "rental_uris": {"android": "https://dc.lft.to/lastmile_qr_scan", "ios": "https://dc.lft.to/lastmile_qr_scan"}, "fusion_lon": 0.0, "lat": 38.88476716666667, "bike_id": "1bd729ff70b73ba824932b0e225d4a14", "type": "electric_scooter", "is_reserved": 0, "lon": -76.99606216666666}, {"fusion_lat": 0.0, "name": "c9a8096c021edf7ef4cdabeba05f19f8", "is_disabled": 0, "rental_uris": {"android": "https://dc.lft.to/lastmile_qr_scan", "ios": "https://dc.lft.to/lastmile_qr_scan"}, "fusion_lon": 0.0, "lat": 38.963705166666664, "bike_id": "c9a8096c021edf7ef4cdabeba05f19f8", "type": "electric_scooter", "is_reserved": 0, "lon": -77.020534}, {"fusion_lat": 0.0, "name": "35fca3964122f064a85505cf20401023", "is_disabled": 0, "rental_uris": {"android": "https://dc.lft.to/lastmile_qr_scan", "ios": "https://dc.lft.to/lastmile_qr_scan"}, "fusion_lon": 0.0, "lat": 38.928507833333335, "bike_id": "35fca3964122f064a85505cf20401023", "type": "electric_scooter", "is_reserved": 0, "lon": -77.02439866666667}, {"fusion_lat": 0.0, "name": "c95c6288481015f81e268b3b81158d31", "is_disabled": 0, "rental_uris": {"android": "https://dc.lft.to/lastmile_qr_scan", "ios": "https://dc.lft.to/lastmile_qr_scan"}, "fusion_lon": 0.0, "lat": 38.92134166666666, "bike_id": "c95c6288481015f81e268b3b81158d31", "type": "electric_scooter", "is_reserved": 0, "lon": -77.00960633333334}, {"fusion_lat": 0.0, "name": "1eb1364ae0b58f3a4d31c55283d7374d", "is_disabled": 0, "rental_uris": {"android": "https://dc.lft.to/lastmile_qr_scan", "ios": "https://dc.lft.to/lastmile_qr_scan"}, "fusion_lon": 0.0, "lat": 38.887672, "bike_id": "1eb1364ae0b58f3a4d31c55283d7374d", "type": "electric_scooter", "is_reserved": 0, "lon": -76.97750133333334}, {"fusion_lat": 0.0, "name": "0a9b9748f8cfd062b146c2a19e073766", "is_disabled": 0, "rental_uris": {"android": "https://dc.lft.to/lastmile_qr_scan", "ios": "https://dc.lft.to/lastmile_qr_scan"}, "fusion_lon": 0.0, "lat": 38.87375633333333, "bike_id": "0a9b9748f8cfd062b146c2a19e073766", "type": "electric_scooter", "is_reserved": 0, "lon": -77.00096833333333}, {"fusion_lat": 0.0, "name": "b7d399ab2aff2c640bcf15c44a7ac529", "is_disabled": 0, "rental_uris": {"android": "https://dc.lft.to/lastmile_qr_scan", "ios": "https://dc.lft.to/lastmile_qr_scan"}, "fusion_lon": 0.0, "lat": 38.8770465, "bike_id": "b7d399ab2aff2c640bcf15c44a7ac529", "type": "electric_scooter", "is_reserved": 0, "lon": -77.01763283333334}, {"fusion_lat": 0.0, "name": "a9412e9262b4925f3ac2dcb4eebbe124", "is_disabled": 0, "rental_uris": {"android": "https://dc.lft.to/lastmile_qr_scan", "ios": "https://dc.lft.to/lastmile_qr_scan"}, "fusion_lon": 0.0, "lat": 38.933832, "bike_id": "a9412e9262b4925f3ac2dcb4eebbe124", "type": "electric_scooter", "is_reserved": 0, "lon": -77.026857}, {"fusion_lat": 0.0, "name": "965b8fc3a2785924cc8e0e87eb404c2c", "is_disabled": 0, "rental_uris": {"android": "https://dc.lft.to/lastmile_qr_scan", "ios": "https://dc.lft.to/lastmile_qr_scan"}, "fusion_lon": 0.0, "lat": 38.92178466666667, "bike_id": "965b8fc3a2785924cc8e0e87eb404c2c", "type": "electric_scooter", "is_reserved": 0, "lon": -76.99792466666666}, {"fusion_lat": 0.0, "name": "bdcd8b40a8cda8d662b2071a29ffc24c", "is_disabled": 0, "rental_uris": {"android": "https://dc.lft.to/lastmile_qr_scan", "ios": "https://dc.lft.to/lastmile_qr_scan"}, "fusion_lon": 0.0, "lat": 38.90512566666666, "bike_id": "bdcd8b40a8cda8d662b2071a29ffc24c", "type": "electric_scooter", "is_reserved": 0, "lon": -77.0687385}, {"fusion_lat": 0.0, "name": "5c9530b9c0e6b6b73463ea860ff91330", "is_disabled": 0, "rental_uris": {"android": "https://dc.lft.to/lastmile_qr_scan", "ios": "https://dc.lft.to/lastmile_qr_scan"}, "fusion_lon": 0.0, "lat": 38.912622166666665, "bike_id": "5c9530b9c0e6b6b73463ea860ff91330", "type": "electric_scooter", "is_reserved": 0, "lon": -77.04923066666667}, {"fusion_lat": 0.0, "name": "253015423f1cb7476d124274ba7c33e7", "is_disabled": 0, "rental_uris": {"android": "https://dc.lft.to/lastmile_qr_scan", "ios": "https://dc.lft.to/lastmile_qr_scan"}, "fusion_lon": 0.0, "lat": 38.89003133333333, "bike_id": "253015423f1cb7476d124274ba7c33e7", "type": "electric_scooter", "is_reserved": 0, "lon": -76.937436}, {"fusion_lat": 0.0, "name": "1b3f928e48a780a38d2774d69a47d961", "is_disabled": 0, "rental_uris": {"android": "https://dc.lft.to/lastmile_qr_scan", "ios": "https://dc.lft.to/lastmile_qr_scan"}, "fusion_lon": 0.0, "lat": 38.913628833333334, "bike_id": "1b3f928e48a780a38d2774d69a47d961", "type": "electric_scooter", "is_reserved": 0, "lon": -77.04873216666667}, {"fusion_lat": 0.0, "name": "0524b8a0484dc81e27468070224a91cc", "is_disabled": 0, "rental_uris": {"android": "https://dc.lft.to/lastmile_qr_scan", "ios": "https://dc.lft.to/lastmile_qr_scan"}, "fusion_lon": 0.0, "lat": 38.904546333333336, "bike_id": "0524b8a0484dc81e27468070224a91cc", "type": "electric_scooter", "is_reserved": 0, "lon": -77.03362483333333}, {"fusion_lat": 0.0, "name": "60bcaf891ce9411dcba0d4331bf64370", "is_disabled": 0, "rental_uris": {"android": "https://dc.lft.to/lastmile_qr_scan", "ios": "https://dc.lft.to/lastmile_qr_scan"}, "fusion_lon": 0.0, "lat": 38.9102885, "bike_id": "60bcaf891ce9411dcba0d4331bf64370", "type": "electric_scooter", "is_reserved": 0, "lon": -77.01514883333333}, {"fusion_lat": 0.0, "name": "f67525eea49f0e43b7371e45de1b8c41", "is_disabled": 0, "rental_uris": {"android": "https://dc.lft.to/lastmile_qr_scan", "ios": "https://dc.lft.to/lastmile_qr_scan"}, "fusion_lon": 0.0, "lat": 38.887479666666664, "bike_id": "f67525eea49f0e43b7371e45de1b8c41", "type": "electric_scooter", "is_reserved": 0, "lon": -77.02573266666667}, {"fusion_lat": 0.0, "name": "7f8f5f16046618c90cdf7bf50e976023", "is_disabled": 0, "rental_uris": {"android": "https://dc.lft.to/lastmile_qr_scan", "ios": "https://dc.lft.to/lastmile_qr_scan"}, "fusion_lon": 0.0, "lat": 38.898668666666666, "bike_id": "7f8f5f16046618c90cdf7bf50e976023", "type": "electric_scooter", "is_reserved": 0, "lon": -77.02774016666666}, {"fusion_lat": 0.0, "name": "65b7eef3a24830a10dcc35c86c4c7ee1", "is_disabled": 0, "rental_uris": {"android": "https://dc.lft.to/lastmile_qr_scan", "ios": "https://dc.lft.to/lastmile_qr_scan"}, "fusion_lon": 0.0, "lat": 38.9240415, "bike_id": "65b7eef3a24830a10dcc35c86c4c7ee1", "type": "electric_scooter", "is_reserved": 0, "lon": -77.02412933333333}, {"fusion_lat": 0.0, "name": "4506bd0e19e12721bd20c21d6d47321a", "is_disabled": 0, "rental_uris": {"android": "https://dc.lft.to/lastmile_qr_scan", "ios": "https://dc.lft.to/lastmile_qr_scan"}, "fusion_lon": 0.0, "lat": 38.91693883333333, "bike_id": "4506bd0e19e12721bd20c21d6d47321a", "type": "electric_scooter", "is_reserved": 0, "lon": -77.03588983333333}, {"fusion_lat": 0.0, "name": "beed4ba7b82db9c2caf5fbf152258e81", "is_disabled": 0, "rental_uris": {"android": "https://dc.lft.to/lastmile_qr_scan", "ios": "https://dc.lft.to/lastmile_qr_scan"}, "fusion_lon": 0.0, "lat": 39.05635133333333, "bike_id": "beed4ba7b82db9c2caf5fbf152258e81", "type": "electric_bike", "is_reserved": 0, "lon": -77.125249}, {"fusion_lat": 0.0, "name": "6dcfe6a847d36ed832b0a021ab8b376f", "is_disabled": 0, "rental_uris": {"android": "https://dc.lft.to/lastmile_qr_scan", "ios": "https://dc.lft.to/lastmile_qr_scan"}, "fusion_lon": 0.0, "lat": 38.91616366666667, "bike_id": "6dcfe6a847d36ed832b0a021ab8b376f", "type": "electric_scooter", "is_reserved": 0, "lon": -77.0295785}, {"fusion_lat": 0.0, "name": "4f4c86732e4b00dcf18018a6fe95d3db", "is_disabled": 0, "rental_uris": {"android": "https://dc.lft.to/lastmile_qr_scan", "ios": "https://dc.lft.to/lastmile_qr_scan"}, "fusion_lon": 0.0, "lat": 38.912180166666666, "bike_id": "4f4c86732e4b00dcf18018a6fe95d3db", "type": "electric_scooter", "is_reserved": 0, "lon": -77.01210316666666}, {"fusion_lat": 0.0, "name": "fd3648a58f41b1a83802d35b32b91bca", "is_disabled": 0, "rental_uris": {"android": "https://dc.lft.to/lastmile_qr_scan", "ios": "https://dc.lft.to/lastmile_qr_scan"}, "fusion_lon": 0.0, "lat": 38.927928333333334, "bike_id": "fd3648a58f41b1a83802d35b32b91bca", "type": "electric_scooter", "is_reserved": 0, "lon": -77.0315275}, {"fusion_lat": 0.0, "name": "e8f467d62c61c949df70377f9747dcb1", "is_disabled": 0, "rental_uris": {"android": "https://dc.lft.to/lastmile_qr_scan", "ios": "https://dc.lft.to/lastmile_qr_scan"}, "fusion_lon": 0.0, "lat": 38.90502766666667, "bike_id": "e8f467d62c61c949df70377f9747dcb1", "type": "electric_scooter", "is_reserved": 0, "lon": -77.06111266666667}, {"fusion_lat": 0.0, "name": "6c22d4b8d8e95aef7fe4ed73808984c4", "is_disabled": 0, "rental_uris": {"android": "https://dc.lft.to/lastmile_qr_scan", "ios": "https://dc.lft.to/lastmile_qr_scan"}, "fusion_lon": 0.0, "lat": 38.889483, "bike_id": "6c22d4b8d8e95aef7fe4ed73808984c4", "type": "electric_scooter", "is_reserved": 0, "lon": -76.991654}, {"fusion_lat": 0.0, "name": "5768f804906fb0a74ba21a84889d7fd6", "is_disabled": 0, "rental_uris": {"android": "https://dc.lft.to/lastmile_qr_scan", "ios": "https://dc.lft.to/lastmile_qr_scan"}, "fusion_lon": 0.0, "lat": 38.9183315, "bike_id": "5768f804906fb0a74ba21a84889d7fd6", "type": "electric_scooter", "is_reserved": 0, "lon": -77.02304316666667}, {"fusion_lat": 0.0, "name": "d5b37515f74c5b767541cfe833b3a835", "is_disabled": 0, "rental_uris": {"android": "https://dc.lft.to/lastmile_qr_scan", "ios": "https://dc.lft.to/lastmile_qr_scan"}, "fusion_lon": 0.0, "lat": 38.91118216666667, "bike_id": "d5b37515f74c5b767541cfe833b3a835", "type": "electric_scooter", "is_reserved": 0, "lon": -77.04232233333333}, {"fusion_lat": 0.0, "name": "627c3f61032e8750853ea9a62bd86b9e", "is_disabled": 0, "rental_uris": {"android": "https://dc.lft.to/lastmile_qr_scan", "ios": "https://dc.lft.to/lastmile_qr_scan"}, "fusion_lon": 0.0, "lat": 38.928725666666665, "bike_id": "627c3f61032e8750853ea9a62bd86b9e", "type": "electric_scooter", "is_reserved": 0, "lon": -77.026689}, {"fusion_lat": 0.0, "name": "043ff1ccfc6492c6c221b739686ec350", "is_disabled": 0, "rental_uris": {"android": "https://dc.lft.to/lastmile_qr_scan", "ios": "https://dc.lft.to/lastmile_qr_scan"}, "fusion_lon": 0.0, "lat": 38.9387685, "bike_id": "043ff1ccfc6492c6c221b739686ec350", "type": "electric_scooter", "is_reserved": 0, "lon": -77.02920116666667}, {"fusion_lat": 0.0, "name": "3509b3463c7b7537a4f4b894234b7bd5", "is_disabled": 0, "rental_uris": {"android": "https://dc.lft.to/lastmile_qr_scan", "ios": "https://dc.lft.to/lastmile_qr_scan"}, "fusion_lon": 0.0, "lat": 38.9244225, "bike_id": "3509b3463c7b7537a4f4b894234b7bd5", "type": "electric_scooter", "is_reserved": 0, "lon": -77.03404366666666}, {"fusion_lat": 0.0, "name": "99fb843531b30065e3c072a6ee473231", "is_disabled": 0, "rental_uris": {"android": "https://dc.lft.to/lastmile_qr_scan", "ios": "https://dc.lft.to/lastmile_qr_scan"}, "fusion_lon": 0.0, "lat": 38.9057075, "bike_id": "99fb843531b30065e3c072a6ee473231", "type": "electric_scooter", "is_reserved": 0, "lon": -77.0249035}, {"fusion_lat": 0.0, "name": "8c9120b9904a8b635f089f24d81409b6", "is_disabled": 0, "rental_uris": {"android": "https://dc.lft.to/lastmile_qr_scan", "ios": "https://dc.lft.to/lastmile_qr_scan"}, "fusion_lon": 0.0, "lat": 38.93425933333333, "bike_id": "8c9120b9904a8b635f089f24d81409b6", "type": "electric_scooter", "is_reserved": 0, "lon": -77.040003}, {"fusion_lat": 0.0, "name": "4c30af8814ba646d20b9a1329d8b9a6c", "is_disabled": 0, "rental_uris": {"android": "https://dc.lft.to/lastmile_qr_scan", "ios": "https://dc.lft.to/lastmile_qr_scan"}, "fusion_lon": 0.0, "lat": 38.931131, "bike_id": "4c30af8814ba646d20b9a1329d8b9a6c", "type": "electric_scooter", "is_reserved": 0, "lon": -77.02142233333333}, {"fusion_lat": 0.0, "name": "dc8661c7437cb851011ba02df456846b", "is_disabled": 0, "rental_uris": {"android": "https://dc.lft.to/lastmile_qr_scan", "ios": "https://dc.lft.to/lastmile_qr_scan"}, "fusion_lon": 0.0, "lat": 38.93579366666667, "bike_id": "dc8661c7437cb851011ba02df456846b", "type": "electric_scooter", "is_reserved": 0, "lon": -77.02128366666666}, {"fusion_lat": 0.0, "name": "d19fa9251262cd83a55d7998d8476a06", "is_disabled": 0, "rental_uris": {"android": "https://dc.lft.to/lastmile_qr_scan", "ios": "https://dc.lft.to/lastmile_qr_scan"}, "fusion_lon": 0.0, "lat": 38.920862166666666, "bike_id": "d19fa9251262cd83a55d7998d8476a06", "type": "electric_scooter", "is_reserved": 0, "lon": -77.07374416666667}, {"fusion_lat": 0.0, "name": "f9876948214b439eda9c306fea1878f9", "is_disabled": 0, "rental_uris": {"android": "https://dc.lft.to/lastmile_qr_scan", "ios": "https://dc.lft.to/lastmile_qr_scan"}, "fusion_lon": 0.0, "lat": 38.917836333333334, "bike_id": "f9876948214b439eda9c306fea1878f9", "type": "electric_scooter", "is_reserved": 0, "lon": -77.02695583333333}, {"fusion_lat": 0.0, "name": "938f26a01d26143bffec001cc9f2f148", "is_disabled": 0, "rental_uris": {"android": "https://dc.lft.to/lastmile_qr_scan", "ios": "https://dc.lft.to/lastmile_qr_scan"}, "fusion_lon": 0.0, "lat": 38.909733833333334, "bike_id": "938f26a01d26143bffec001cc9f2f148", "type": "electric_scooter", "is_reserved": 0, "lon": -77.02185183333333}, {"fusion_lat": 0.0, "name": "7e64239cbaa8b93afbe24c9ac66ac059", "is_disabled": 0, "rental_uris": {"android": "https://dc.lft.to/lastmile_qr_scan", "ios": "https://dc.lft.to/lastmile_qr_scan"}, "fusion_lon": 0.0, "lat": 38.8984675, "bike_id": "7e64239cbaa8b93afbe24c9ac66ac059", "type": "electric_scooter", "is_reserved": 0, "lon": -77.02634866666666}, {"fusion_lat": 0.0, "name": "fb33dfa49cea9810feabf595b4f0e12d", "is_disabled": 0, "rental_uris": {"android": "https://dc.lft.to/lastmile_qr_scan", "ios": "https://dc.lft.to/lastmile_qr_scan"}, "fusion_lon": 0.0, "lat": 38.956326833333335, "bike_id": "fb33dfa49cea9810feabf595b4f0e12d", "type": "electric_scooter", "is_reserved": 0, "lon": -77.03304}, {"fusion_lat": 0.0, "name": "6631fab0802964825f98335481d907f0", "is_disabled": 0, "rental_uris": {"android": "https://dc.lft.to/lastmile_qr_scan", "ios": "https://dc.lft.to/lastmile_qr_scan"}, "fusion_lon": 0.0, "lat": 38.9574665, "bike_id": "6631fab0802964825f98335481d907f0", "type": "electric_bike", "is_reserved": 0, "lon": -76.97254216666667}, {"fusion_lat": 0.0, "name": "fd664099138bad6c42f732b21fc17e80", "is_disabled": 0, "rental_uris": {"android": "https://dc.lft.to/lastmile_qr_scan", "ios": "https://dc.lft.to/lastmile_qr_scan"}, "fusion_lon": 0.0, "lat": 38.906917, "bike_id": "fd664099138bad6c42f732b21fc17e80", "type": "electric_bike", "is_reserved": 0, "lon": -77.0824015}, {"fusion_lat": 0.0, "name": "351f0ecb9ddb37346ce6989a8d7b41a7", "is_disabled": 0, "rental_uris": {"android": "https://dc.lft.to/lastmile_qr_scan", "ios": "https://dc.lft.to/lastmile_qr_scan"}, "fusion_lon": 0.0, "lat": 38.898332, "bike_id": "351f0ecb9ddb37346ce6989a8d7b41a7", "type": "electric_scooter", "is_reserved": 0, "lon": -77.03182066666666}, {"fusion_lat": 0.0, "name": "d46d15ff8bbab6cd46ea4bbf6c2a6dc1", "is_disabled": 0, "rental_uris": {"android": "https://dc.lft.to/lastmile_qr_scan", "ios": "https://dc.lft.to/lastmile_qr_scan"}, "fusion_lon": 0.0, "lat": 38.892480666666664, "bike_id": "d46d15ff8bbab6cd46ea4bbf6c2a6dc1", "type": "electric_scooter", "is_reserved": 0, "lon": -77.03186966666667}, {"fusion_lat": 0.0, "name": "48a857dc67c8ea42749c2d3a5f4cc56c", "is_disabled": 0, "rental_uris": {"android": "https://dc.lft.to/lastmile_qr_scan", "ios": "https://dc.lft.to/lastmile_qr_scan"}, "fusion_lon": 0.0, "lat": 38.920541666666665, "bike_id": "48a857dc67c8ea42749c2d3a5f4cc56c", "type": "electric_scooter", "is_reserved": 0, "lon": -77.04186383333334}, {"fusion_lat": 0.0, "name": "69ed344c1be7f708c962b637643deadc", "is_disabled": 0, "rental_uris": {"android": "https://dc.lft.to/lastmile_qr_scan", "ios": "https://dc.lft.to/lastmile_qr_scan"}, "fusion_lon": 0.0, "lat": 38.950697, "bike_id": "69ed344c1be7f708c962b637643deadc", "type": "electric_bike", "is_reserved": 0, "lon": -77.07225983333333}, {"fusion_lat": 0.0, "name": "0ccf65ca9b9f14b882de7af25d7c3f10", "is_disabled": 0, "rental_uris": {"android": "https://dc.lft.to/lastmile_qr_scan", "ios": "https://dc.lft.to/lastmile_qr_scan"}, "fusion_lon": 0.0, "lat": 38.95881516666667, "bike_id": "0ccf65ca9b9f14b882de7af25d7c3f10", "type": "electric_bike", "is_reserved": 0, "lon": -76.97050016666667}, {"fusion_lat": 0.0, "name": "1ac7c7ffd82addbc37baebe0dc85ac53", "is_disabled": 0, "rental_uris": {"android": "https://dc.lft.to/lastmile_qr_scan", "ios": "https://dc.lft.to/lastmile_qr_scan"}, "fusion_lon": 0.0, "lat": 38.90010266666667, "bike_id": "1ac7c7ffd82addbc37baebe0dc85ac53", "type": "electric_scooter", "is_reserved": 0, "lon": -77.04488333333333}, {"fusion_lat": 0.0, "name": "a1005e25572d4776a903bd20c61aaffb", "is_disabled": 0, "rental_uris": {"android": "https://dc.lft.to/lastmile_qr_scan", "ios": "https://dc.lft.to/lastmile_qr_scan"}, "fusion_lon": 0.0, "lat": 38.9147195, "bike_id": "a1005e25572d4776a903bd20c61aaffb", "type": "electric_scooter", "is_reserved": 0, "lon": -77.021788}, {"fusion_lat": 0.0, "name": "3bc6b1a07350d89e9818eca1cbac35fa", "is_disabled": 0, "rental_uris": {"android": "https://dc.lft.to/lastmile_qr_scan", "ios": "https://dc.lft.to/lastmile_qr_scan"}, "fusion_lon": 0.0, "lat": 38.9276285, "bike_id": "3bc6b1a07350d89e9818eca1cbac35fa", "type": "electric_scooter", "is_reserved": 0, "lon": -77.0161825}, {"fusion_lat": 0.0, "name": "2459515f7a890fc2bdc133d7ad080932", "is_disabled": 0, "rental_uris": {"android": "https://dc.lft.to/lastmile_qr_scan", "ios": "https://dc.lft.to/lastmile_qr_scan"}, "fusion_lon": 0.0, "lat": 38.9052565, "bike_id": "2459515f7a890fc2bdc133d7ad080932", "type": "electric_scooter", "is_reserved": 0, "lon": -77.06246216666666}, {"fusion_lat": 0.0, "name": "6d15900e8fd8b87268040ad6d2df75c4", "is_disabled": 0, "rental_uris": {"android": "https://dc.lft.to/lastmile_qr_scan", "ios": "https://dc.lft.to/lastmile_qr_scan"}, "fusion_lon": 0.0, "lat": 38.91661033333333, "bike_id": "6d15900e8fd8b87268040ad6d2df75c4", "type": "electric_scooter", "is_reserved": 0, "lon": -77.03853633333334}, {"fusion_lat": 0.0, "name": "8686883a8456eecd3d76310b52af0c40", "is_disabled": 0, "rental_uris": {"android": "https://dc.lft.to/lastmile_qr_scan", "ios": "https://dc.lft.to/lastmile_qr_scan"}, "fusion_lon": 0.0, "lat": 38.925993166666665, "bike_id": "8686883a8456eecd3d76310b52af0c40", "type": "electric_scooter", "is_reserved": 0, "lon": -77.0215415}, {"fusion_lat": 0.0, "name": "9e1fd2a98021b164ba22ed9ea3e00ef0", "is_disabled": 0, "rental_uris": {"android": "https://dc.lft.to/lastmile_qr_scan", "ios": "https://dc.lft.to/lastmile_qr_scan"}, "fusion_lon": 0.0, "lat": 38.90732833333333, "bike_id": "9e1fd2a98021b164ba22ed9ea3e00ef0", "type": "electric_scooter", "is_reserved": 0, "lon": -77.03862033333333}, {"fusion_lat": 0.0, "name": "ad6123bc7ef1ac51e38df9f0d682b3d0", "is_disabled": 0, "rental_uris": {"android": "https://dc.lft.to/lastmile_qr_scan", "ios": "https://dc.lft.to/lastmile_qr_scan"}, "fusion_lon": 0.0, "lat": 38.878979, "bike_id": "ad6123bc7ef1ac51e38df9f0d682b3d0", "type": "electric_scooter", "is_reserved": 0, "lon": -77.0136295}, {"fusion_lat": 0.0, "name": "193f8c2dd883dd2ad14598429d01c501", "is_disabled": 0, "rental_uris": {"android": "https://dc.lft.to/lastmile_qr_scan", "ios": "https://dc.lft.to/lastmile_qr_scan"}, "fusion_lon": 0.0, "lat": 38.9132515, "bike_id": "193f8c2dd883dd2ad14598429d01c501", "type": "electric_scooter", "is_reserved": 0, "lon": -77.05028283333333}, {"fusion_lat": 0.0, "name": "4ea51a572f84b3f689b56e352a596f04", "is_disabled": 0, "rental_uris": {"android": "https://dc.lft.to/lastmile_qr_scan", "ios": "https://dc.lft.to/lastmile_qr_scan"}, "fusion_lon": 0.0, "lat": 38.944085666666666, "bike_id": "4ea51a572f84b3f689b56e352a596f04", "type": "electric_scooter", "is_reserved": 0, "lon": -77.0320175}, {"fusion_lat": 0.0, "name": "457d9e98fb0bebf5b58741935146acd5", "is_disabled": 0, "rental_uris": {"android": "https://dc.lft.to/lastmile_qr_scan", "ios": "https://dc.lft.to/lastmile_qr_scan"}, "fusion_lon": 0.0, "lat": 38.898277666666665, "bike_id": "457d9e98fb0bebf5b58741935146acd5", "type": "electric_scooter", "is_reserved": 0, "lon": -76.9465185}, {"fusion_lat": 0.0, "name": "e5326d5731c4b9a7c773dd4f628322cb", "is_disabled": 0, "rental_uris": {"android": "https://dc.lft.to/lastmile_qr_scan", "ios": "https://dc.lft.to/lastmile_qr_scan"}, "fusion_lon": 0.0, "lat": 38.92330783333333, "bike_id": "e5326d5731c4b9a7c773dd4f628322cb", "type": "electric_scooter", "is_reserved": 0, "lon": -77.04302216666666}, {"fusion_lat": 0.0, "name": "eeb8120194983bf3677abd92353645f7", "is_disabled": 0, "rental_uris": {"android": "https://dc.lft.to/lastmile_qr_scan", "ios": "https://dc.lft.to/lastmile_qr_scan"}, "fusion_lon": 0.0, "lat": 38.9037835, "bike_id": "eeb8120194983bf3677abd92353645f7", "type": "electric_scooter", "is_reserved": 0, "lon": -77.0176695}, {"fusion_lat": 0.0, "name": "fee69e0b5ce01e958868b2b6beb77c23", "is_disabled": 0, "rental_uris": {"android": "https://dc.lft.to/lastmile_qr_scan", "ios": "https://dc.lft.to/lastmile_qr_scan"}, "fusion_lon": 0.0, "lat": 38.8979135, "bike_id": "fee69e0b5ce01e958868b2b6beb77c23", "type": "electric_scooter", "is_reserved": 0, "lon": -77.0119865}, {"fusion_lat": 0.0, "name": "e41ee770d6393e7c7f8448185a563149", "is_disabled": 0, "rental_uris": {"android": "https://dc.lft.to/lastmile_qr_scan", "ios": "https://dc.lft.to/lastmile_qr_scan"}, "fusion_lon": 0.0, "lat": 38.9133655, "bike_id": "e41ee770d6393e7c7f8448185a563149", "type": "electric_scooter", "is_reserved": 0, "lon": -77.04270566666666}, {"fusion_lat": 0.0, "name": "29df94ebddf98ef5e79fa53769dd41a5", "is_disabled": 0, "rental_uris": {"android": "https://dc.lft.to/lastmile_qr_scan", "ios": "https://dc.lft.to/lastmile_qr_scan"}, "fusion_lon": 0.0, "lat": 38.9289535, "bike_id": "29df94ebddf98ef5e79fa53769dd41a5", "type": "electric_bike", "is_reserved": 0, "lon": -77.23179333333333}, {"fusion_lat": 0.0, "name": "9012705c052a5d36de0139e86b92d35a", "is_disabled": 0, "rental_uris": {"android": "https://dc.lft.to/lastmile_qr_scan", "ios": "https://dc.lft.to/lastmile_qr_scan"}, "fusion_lon": 0.0, "lat": 38.90844933333333, "bike_id": "9012705c052a5d36de0139e86b92d35a", "type": "electric_scooter", "is_reserved": 0, "lon": -77.026962}, {"fusion_lat": 0.0, "name": "d4351eb71fd625f6f1eb6497f21dc1b7", "is_disabled": 0, "rental_uris": {"android": "https://dc.lft.to/lastmile_qr_scan", "ios": "https://dc.lft.to/lastmile_qr_scan"}, "fusion_lon": 0.0, "lat": 38.952881, "bike_id": "d4351eb71fd625f6f1eb6497f21dc1b7", "type": "electric_scooter", "is_reserved": 0, "lon": -77.0687055}, {"fusion_lat": 0.0, "name": "6025b255b5cf47e1b3dc7471587e593b", "is_disabled": 0, "rental_uris": {"android": "https://dc.lft.to/lastmile_qr_scan", "ios": "https://dc.lft.to/lastmile_qr_scan"}, "fusion_lon": 0.0, "lat": 38.9171485, "bike_id": "6025b255b5cf47e1b3dc7471587e593b", "type": "electric_scooter", "is_reserved": 0, "lon": -77.03414983333333}, {"fusion_lat": 0.0, "name": "fcb345d7175500ff1c102452d05c1960", "is_disabled": 0, "rental_uris": {"android": "https://dc.lft.to/lastmile_qr_scan", "ios": "https://dc.lft.to/lastmile_qr_scan"}, "fusion_lon": 0.0, "lat": 38.956404666666664, "bike_id": "fcb345d7175500ff1c102452d05c1960", "type": "electric_scooter", "is_reserved": 0, "lon": -77.02410016666667}, {"fusion_lat": 0.0, "name": "7eba25157c9b9a960cff3250872fdbfa", "is_disabled": 0, "rental_uris": {"android": "https://dc.lft.to/lastmile_qr_scan", "ios": "https://dc.lft.to/lastmile_qr_scan"}, "fusion_lon": 0.0, "lat": 38.89530216666667, "bike_id": "7eba25157c9b9a960cff3250872fdbfa", "type": "electric_scooter", "is_reserved": 0, "lon": -77.01199933333334}, {"fusion_lat": 0.0, "name": "0d2d0e62aef21e1c3900699583124452", "is_disabled": 0, "rental_uris": {"android": "https://dc.lft.to/lastmile_qr_scan", "ios": "https://dc.lft.to/lastmile_qr_scan"}, "fusion_lon": 0.0, "lat": 38.87550783333333, "bike_id": "0d2d0e62aef21e1c3900699583124452", "type": "electric_scooter", "is_reserved": 0, "lon": -77.005662}, {"fusion_lat": 0.0, "name": "cdb3488461ebcc02352aceb81b968816", "is_disabled": 0, "rental_uris": {"android": "https://dc.lft.to/lastmile_qr_scan", "ios": "https://dc.lft.to/lastmile_qr_scan"}, "fusion_lon": 0.0, "lat": 38.90473166666666, "bike_id": "cdb3488461ebcc02352aceb81b968816", "type": "electric_scooter", "is_reserved": 0, "lon": -77.0071125}, {"fusion_lat": 0.0, "name": "70083bd0268a6116be20e16e048fe362", "is_disabled": 0, "rental_uris": {"android": "https://dc.lft.to/lastmile_qr_scan", "ios": "https://dc.lft.to/lastmile_qr_scan"}, "fusion_lon": 0.0, "lat": 38.89065166666666, "bike_id": "70083bd0268a6116be20e16e048fe362", "type": "electric_scooter", "is_reserved": 0, "lon": -76.94454816666666}, {"fusion_lat": 0.0, "name": "6e4a4d2afcb2b3a3c9d4cd0f724dadd3", "is_disabled": 0, "rental_uris": {"android": "https://dc.lft.to/lastmile_qr_scan", "ios": "https://dc.lft.to/lastmile_qr_scan"}, "fusion_lon": 0.0, "lat": 38.9119325, "bike_id": "6e4a4d2afcb2b3a3c9d4cd0f724dadd3", "type": "electric_scooter", "is_reserved": 0, "lon": -77.038585}, {"fusion_lat": 0.0, "name": "74fa97d734c6c92a8e3700e5765fa705", "is_disabled": 0, "rental_uris": {"android": "https://dc.lft.to/lastmile_qr_scan", "ios": "https://dc.lft.to/lastmile_qr_scan"}, "fusion_lon": 0.0, "lat": 38.91388533333333, "bike_id": "74fa97d734c6c92a8e3700e5765fa705", "type": "electric_scooter", "is_reserved": 0, "lon": -77.03323916666666}, {"fusion_lat": 0.0, "name": "6175a89826b3343eae375fe2ceebae6e", "is_disabled": 0, "rental_uris": {"android": "https://dc.lft.to/lastmile_qr_scan", "ios": "https://dc.lft.to/lastmile_qr_scan"}, "fusion_lon": 0.0, "lat": 38.89902566666667, "bike_id": "6175a89826b3343eae375fe2ceebae6e", "type": "electric_scooter", "is_reserved": 0, "lon": -77.05675766666667}, {"fusion_lat": 0.0, "name": "e2033b84dfc2321f71e9f4f5725bc321", "is_disabled": 0, "rental_uris": {"android": "https://dc.lft.to/lastmile_qr_scan", "ios": "https://dc.lft.to/lastmile_qr_scan"}, "fusion_lon": 0.0, "lat": 38.8917015, "bike_id": "e2033b84dfc2321f71e9f4f5725bc321", "type": "electric_scooter", "is_reserved": 0, "lon": -76.99462833333334}, {"fusion_lat": 0.0, "name": "a4c445c6c3770a1ebe6992272733f786", "is_disabled": 0, "rental_uris": {"android": "https://dc.lft.to/lastmile_qr_scan", "ios": "https://dc.lft.to/lastmile_qr_scan"}, "fusion_lon": 0.0, "lat": 38.931987, "bike_id": "a4c445c6c3770a1ebe6992272733f786", "type": "electric_scooter", "is_reserved": 0, "lon": -77.02795833333333}, {"fusion_lat": 0.0, "name": "d7a9785ee3726c60d9fd59680edce2b1", "is_disabled": 0, "rental_uris": {"android": "https://dc.lft.to/lastmile_qr_scan", "ios": "https://dc.lft.to/lastmile_qr_scan"}, "fusion_lon": 0.0, "lat": 38.899216, "bike_id": "d7a9785ee3726c60d9fd59680edce2b1", "type": "electric_scooter", "is_reserved": 0, "lon": -77.0036715}, {"fusion_lat": 0.0, "name": "68e1d39fe43842c3009a88e453c458c9", "is_disabled": 0, "rental_uris": {"android": "https://dc.lft.to/lastmile_qr_scan", "ios": "https://dc.lft.to/lastmile_qr_scan"}, "fusion_lon": 0.0, "lat": 38.925177166666664, "bike_id": "68e1d39fe43842c3009a88e453c458c9", "type": "electric_scooter", "is_reserved": 0, "lon": -76.99571016666667}, {"fusion_lat": 0.0, "name": "811fc5f45fb3f8b2e01468104eb27356", "is_disabled": 0, "rental_uris": {"android": "https://dc.lft.to/lastmile_qr_scan", "ios": "https://dc.lft.to/lastmile_qr_scan"}, "fusion_lon": 0.0, "lat": 38.97255666666667, "bike_id": "811fc5f45fb3f8b2e01468104eb27356", "type": "electric_bike", "is_reserved": 0, "lon": -76.992741}, {"fusion_lat": 0.0, "name": "e126a6837ed858c15e02369027fed284", "is_disabled": 0, "rental_uris": {"android": "https://dc.lft.to/lastmile_qr_scan", "ios": "https://dc.lft.to/lastmile_qr_scan"}, "fusion_lon": 0.0, "lat": 38.8993725, "bike_id": "e126a6837ed858c15e02369027fed284", "type": "electric_scooter", "is_reserved": 0, "lon": -76.99730633333333}, {"fusion_lat": 0.0, "name": "de125237bd842fc1b33e79d2e362cf61", "is_disabled": 0, "rental_uris": {"android": "https://dc.lft.to/lastmile_qr_scan", "ios": "https://dc.lft.to/lastmile_qr_scan"}, "fusion_lon": 0.0, "lat": 38.896827, "bike_id": "de125237bd842fc1b33e79d2e362cf61", "type": "electric_scooter", "is_reserved": 0, "lon": -77.051313}, {"fusion_lat": 0.0, "name": "f117812800bbeb1f02dfef3529ac6e0b", "is_disabled": 0, "rental_uris": {"android": "https://dc.lft.to/lastmile_qr_scan", "ios": "https://dc.lft.to/lastmile_qr_scan"}, "fusion_lon": 0.0, "lat": 38.92357533333333, "bike_id": "f117812800bbeb1f02dfef3529ac6e0b", "type": "electric_scooter", "is_reserved": 0, "lon": -77.032304}, {"fusion_lat": 0.0, "name": "f690e19445577095df9c0c7391c27548", "is_disabled": 0, "rental_uris": {"android": "https://dc.lft.to/lastmile_qr_scan", "ios": "https://dc.lft.to/lastmile_qr_scan"}, "fusion_lon": 0.0, "lat": 38.924507166666665, "bike_id": "f690e19445577095df9c0c7391c27548", "type": "electric_scooter", "is_reserved": 0, "lon": -77.00879466666666}, {"fusion_lat": 0.0, "name": "75d1937cba920d533cc9c4384520b52e", "is_disabled": 0, "rental_uris": {"android": "https://dc.lft.to/lastmile_qr_scan", "ios": "https://dc.lft.to/lastmile_qr_scan"}, "fusion_lon": 0.0, "lat": 38.907456, "bike_id": "75d1937cba920d533cc9c4384520b52e", "type": "electric_scooter", "is_reserved": 0, "lon": -77.07159383333334}, {"fusion_lat": 0.0, "name": "b6165ed7f4039ac6596bd6b761fd2dd5", "is_disabled": 0, "rental_uris": {"android": "https://dc.lft.to/lastmile_qr_scan", "ios": "https://dc.lft.to/lastmile_qr_scan"}, "fusion_lon": 0.0, "lat": 38.88307133333333, "bike_id": "b6165ed7f4039ac6596bd6b761fd2dd5", "type": "electric_scooter", "is_reserved": 0, "lon": -77.01386433333333}, {"fusion_lat": 0.0, "name": "ae3e3bec0010d185eabf3ce01450e535", "is_disabled": 0, "rental_uris": {"android": "https://dc.lft.to/lastmile_qr_scan", "ios": "https://dc.lft.to/lastmile_qr_scan"}, "fusion_lon": 0.0, "lat": 38.9023825, "bike_id": "ae3e3bec0010d185eabf3ce01450e535", "type": "electric_scooter", "is_reserved": 0, "lon": -77.04375933333333}, {"fusion_lat": 0.0, "name": "a5a204fb856535c0bc5cd018563fd55d", "is_disabled": 0, "rental_uris": {"android": "https://dc.lft.to/lastmile_qr_scan", "ios": "https://dc.lft.to/lastmile_qr_scan"}, "fusion_lon": 0.0, "lat": 39.039031, "bike_id": "a5a204fb856535c0bc5cd018563fd55d", "type": "electric_bike", "is_reserved": 0, "lon": -77.050331}, {"fusion_lat": 0.0, "name": "4ed34ee9f09065ce9e8a97799855a0d9", "is_disabled": 0, "rental_uris": {"android": "https://dc.lft.to/lastmile_qr_scan", "ios": "https://dc.lft.to/lastmile_qr_scan"}, "fusion_lon": 0.0, "lat": 38.92321366666667, "bike_id": "4ed34ee9f09065ce9e8a97799855a0d9", "type": "electric_scooter", "is_reserved": 0, "lon": -77.02966066666667}, {"fusion_lat": 0.0, "name": "8968960842397ca475b0f19065208235", "is_disabled": 0, "rental_uris": {"android": "https://dc.lft.to/lastmile_qr_scan", "ios": "https://dc.lft.to/lastmile_qr_scan"}, "fusion_lon": 0.0, "lat": 38.95832333333333, "bike_id": "8968960842397ca475b0f19065208235", "type": "electric_bike", "is_reserved": 0, "lon": -77.015114}, {"fusion_lat": 0.0, "name": "7d8d17314e848c89ce87a0a72402adeb", "is_disabled": 0, "rental_uris": {"android": "https://dc.lft.to/lastmile_qr_scan", "ios": "https://dc.lft.to/lastmile_qr_scan"}, "fusion_lon": 0.0, "lat": 38.984747166666665, "bike_id": "7d8d17314e848c89ce87a0a72402adeb", "type": "electric_scooter", "is_reserved": 0, "lon": -77.02644016666666}, {"fusion_lat": 0.0, "name": "37dfb9bb435d346d5ee57c345f59118d", "is_disabled": 0, "rental_uris": {"android": "https://dc.lft.to/lastmile_qr_scan", "ios": "https://dc.lft.to/lastmile_qr_scan"}, "fusion_lon": 0.0, "lat": 38.921669666666666, "bike_id": "37dfb9bb435d346d5ee57c345f59118d", "type": "electric_scooter", "is_reserved": 0, "lon": -77.03657933333334}, {"fusion_lat": 0.0, "name": "38ae0c3e432aeebedc0dca4a3158485d", "is_disabled": 0, "rental_uris": {"android": "https://dc.lft.to/lastmile_qr_scan", "ios": "https://dc.lft.to/lastmile_qr_scan"}, "fusion_lon": 0.0, "lat": 38.91700683333333, "bike_id": "38ae0c3e432aeebedc0dca4a3158485d", "type": "electric_scooter", "is_reserved": 0, "lon": -77.02734466666666}, {"fusion_lat": 0.0, "name": "edabb0530b16215a667a6bead67edd9e", "is_disabled": 0, "rental_uris": {"android": "https://dc.lft.to/lastmile_qr_scan", "ios": "https://dc.lft.to/lastmile_qr_scan"}, "fusion_lon": 0.0, "lat": 38.91639083333333, "bike_id": "edabb0530b16215a667a6bead67edd9e", "type": "electric_scooter", "is_reserved": 0, "lon": -77.027958}, {"fusion_lat": 0.0, "name": "f868b5aba1051520fb20becd3d7729e5", "is_disabled": 0, "rental_uris": {"android": "https://dc.lft.to/lastmile_qr_scan", "ios": "https://dc.lft.to/lastmile_qr_scan"}, "fusion_lon": 0.0, "lat": 38.9530485, "bike_id": "f868b5aba1051520fb20becd3d7729e5", "type": "electric_scooter", "is_reserved": 0, "lon": -76.99892733333333}, {"fusion_lat": 0.0, "name": "0b5634a8e9c60e08ef914f2f3da68ef4", "is_disabled": 0, "rental_uris": {"android": "https://dc.lft.to/lastmile_qr_scan", "ios": "https://dc.lft.to/lastmile_qr_scan"}, "fusion_lon": 0.0, "lat": 38.920071666666665, "bike_id": "0b5634a8e9c60e08ef914f2f3da68ef4", "type": "electric_scooter", "is_reserved": 0, "lon": -77.02186116666667}, {"fusion_lat": 0.0, "name": "7dae243483ac1b091ac8cc91d323b80e", "is_disabled": 0, "rental_uris": {"android": "https://dc.lft.to/lastmile_qr_scan", "ios": "https://dc.lft.to/lastmile_qr_scan"}, "fusion_lon": 0.0, "lat": 38.918443333333336, "bike_id": "7dae243483ac1b091ac8cc91d323b80e", "type": "electric_scooter", "is_reserved": 0, "lon": -76.9654105}, {"fusion_lat": 0.0, "name": "99c61c13654414e63e42130d69f9d05d", "is_disabled": 0, "rental_uris": {"android": "https://dc.lft.to/lastmile_qr_scan", "ios": "https://dc.lft.to/lastmile_qr_scan"}, "fusion_lon": 0.0, "lat": 38.91815316666667, "bike_id": "99c61c13654414e63e42130d69f9d05d", "type": "electric_scooter", "is_reserved": 0, "lon": -77.00260016666667}, {"fusion_lat": 0.0, "name": "9ca8193137fc26ce64ef7fb15882ace4", "is_disabled": 0, "rental_uris": {"android": "https://dc.lft.to/lastmile_qr_scan", "ios": "https://dc.lft.to/lastmile_qr_scan"}, "fusion_lon": 0.0, "lat": 38.8876405, "bike_id": "9ca8193137fc26ce64ef7fb15882ace4", "type": "electric_scooter", "is_reserved": 0, "lon": -76.9946205}, {"fusion_lat": 0.0, "name": "b6aece1f4497a3869c0b39da6f707de5", "is_disabled": 0, "rental_uris": {"android": "https://dc.lft.to/lastmile_qr_scan", "ios": "https://dc.lft.to/lastmile_qr_scan"}, "fusion_lon": 0.0, "lat": 38.90721583333333, "bike_id": "b6aece1f4497a3869c0b39da6f707de5", "type": "electric_scooter", "is_reserved": 0, "lon": -77.04348766666666}, {"fusion_lat": 0.0, "name": "4a3f0d49a59c0a70bfbc3b461ba9f9de", "is_disabled": 0, "rental_uris": {"android": "https://dc.lft.to/lastmile_qr_scan", "ios": "https://dc.lft.to/lastmile_qr_scan"}, "fusion_lon": 0.0, "lat": 38.8733135, "bike_id": "4a3f0d49a59c0a70bfbc3b461ba9f9de", "type": "electric_bike", "is_reserved": 0, "lon": -77.0821605}, {"fusion_lat": 0.0, "name": "f44884f47762c2c0a8dba451caf87b08", "is_disabled": 0, "rental_uris": {"android": "https://dc.lft.to/lastmile_qr_scan", "ios": "https://dc.lft.to/lastmile_qr_scan"}, "fusion_lon": 0.0, "lat": 38.906165, "bike_id": "f44884f47762c2c0a8dba451caf87b08", "type": "electric_scooter", "is_reserved": 0, "lon": -77.02406083333334}, {"fusion_lat": 0.0, "name": "afaf6540b5d76af61bcaaf2d089a13c2", "is_disabled": 0, "rental_uris": {"android": "https://dc.lft.to/lastmile_qr_scan", "ios": "https://dc.lft.to/lastmile_qr_scan"}, "fusion_lon": 0.0, "lat": 38.9141955, "bike_id": "afaf6540b5d76af61bcaaf2d089a13c2", "type": "electric_scooter", "is_reserved": 0, "lon": -77.03176666666667}, {"fusion_lat": 0.0, "name": "2adf3adf1430dbc78afe841bf5f528d5", "is_disabled": 0, "rental_uris": {"android": "https://dc.lft.to/lastmile_qr_scan", "ios": "https://dc.lft.to/lastmile_qr_scan"}, "fusion_lon": 0.0, "lat": 38.919302, "bike_id": "2adf3adf1430dbc78afe841bf5f528d5", "type": "electric_scooter", "is_reserved": 0, "lon": -77.07073316666667}, {"fusion_lat": 0.0, "name": "ba71bf2b1ab38f63c2b3effd74d3bad6", "is_disabled": 0, "rental_uris": {"android": "https://dc.lft.to/lastmile_qr_scan", "ios": "https://dc.lft.to/lastmile_qr_scan"}, "fusion_lon": 0.0, "lat": 38.800169833333335, "bike_id": "ba71bf2b1ab38f63c2b3effd74d3bad6", "type": "electric_bike", "is_reserved": 0, "lon": -77.054815}, {"fusion_lat": 0.0, "name": "5b391638c56102cffa10b9530d60f970", "is_disabled": 0, "rental_uris": {"android": "https://dc.lft.to/lastmile_qr_scan", "ios": "https://dc.lft.to/lastmile_qr_scan"}, "fusion_lon": 0.0, "lat": 38.9047945, "bike_id": "5b391638c56102cffa10b9530d60f970", "type": "electric_scooter", "is_reserved": 0, "lon": -77.0436395}, {"fusion_lat": 0.0, "name": "c04d640bcfdc626b9afd154ddd32c7a0", "is_disabled": 0, "rental_uris": {"android": "https://dc.lft.to/lastmile_qr_scan", "ios": "https://dc.lft.to/lastmile_qr_scan"}, "fusion_lon": 0.0, "lat": 38.93008566666666, "bike_id": "c04d640bcfdc626b9afd154ddd32c7a0", "type": "electric_scooter", "is_reserved": 0, "lon": -77.03270833333333}, {"fusion_lat": 0.0, "name": "8cb48bb4cc281631b82bb12b5a31e692", "is_disabled": 0, "rental_uris": {"android": "https://dc.lft.to/lastmile_qr_scan", "ios": "https://dc.lft.to/lastmile_qr_scan"}, "fusion_lon": 0.0, "lat": 38.96190133333333, "bike_id": "8cb48bb4cc281631b82bb12b5a31e692", "type": "electric_bike", "is_reserved": 0, "lon": -77.052647}, {"fusion_lat": 0.0, "name": "701155a0f6cd4ebb54bcedd3c14950d7", "is_disabled": 0, "rental_uris": {"android": "https://dc.lft.to/lastmile_qr_scan", "ios": "https://dc.lft.to/lastmile_qr_scan"}, "fusion_lon": 0.0, "lat": 38.90865183333333, "bike_id": "701155a0f6cd4ebb54bcedd3c14950d7", "type": "electric_scooter", "is_reserved": 0, "lon": -77.04293433333333}, {"fusion_lat": 0.0, "name": "fca8221cef39c91885ba31801e343a40", "is_disabled": 0, "rental_uris": {"android": "https://dc.lft.to/lastmile_qr_scan", "ios": "https://dc.lft.to/lastmile_qr_scan"}, "fusion_lon": 0.0, "lat": 38.91126366666667, "bike_id": "fca8221cef39c91885ba31801e343a40", "type": "electric_scooter", "is_reserved": 0, "lon": -77.02094816666667}, {"fusion_lat": 0.0, "name": "ba6783a47cb40aaef00a6802ef71784f", "is_disabled": 0, "rental_uris": {"android": "https://dc.lft.to/lastmile_qr_scan", "ios": "https://dc.lft.to/lastmile_qr_scan"}, "fusion_lon": 0.0, "lat": 38.896924, "bike_id": "ba6783a47cb40aaef00a6802ef71784f", "type": "electric_scooter", "is_reserved": 0, "lon": -77.043336}, {"fusion_lat": 0.0, "name": "dbe701b2ed62de808a04b661becd1c15", "is_disabled": 0, "rental_uris": {"android": "https://dc.lft.to/lastmile_qr_scan", "ios": "https://dc.lft.to/lastmile_qr_scan"}, "fusion_lon": 0.0, "lat": 38.89113416666667, "bike_id": "dbe701b2ed62de808a04b661becd1c15", "type": "electric_scooter", "is_reserved": 0, "lon": -76.94382116666667}, {"fusion_lat": 0.0, "name": "f5eca6a4e91ce111be7c5a4c4464a9f6", "is_disabled": 0, "rental_uris": {"android": "https://dc.lft.to/lastmile_qr_scan", "ios": "https://dc.lft.to/lastmile_qr_scan"}, "fusion_lon": 0.0, "lat": 38.9306295, "bike_id": "f5eca6a4e91ce111be7c5a4c4464a9f6", "type": "electric_scooter", "is_reserved": 0, "lon": -77.04055316666667}, {"fusion_lat": 0.0, "name": "933df5d19b5f47c4bfb7181a61844c6e", "is_disabled": 0, "rental_uris": {"android": "https://dc.lft.to/lastmile_qr_scan", "ios": "https://dc.lft.to/lastmile_qr_scan"}, "fusion_lon": 0.0, "lat": 38.969893166666665, "bike_id": "933df5d19b5f47c4bfb7181a61844c6e", "type": "electric_scooter", "is_reserved": 0, "lon": -77.01160533333334}, {"fusion_lat": 0.0, "name": "0099283f445ad1f4a11a963f8e76a474", "is_disabled": 0, "rental_uris": {"android": "https://dc.lft.to/lastmile_qr_scan", "ios": "https://dc.lft.to/lastmile_qr_scan"}, "fusion_lon": 0.0, "lat": 38.89736166666667, "bike_id": "0099283f445ad1f4a11a963f8e76a474", "type": "electric_bike", "is_reserved": 0, "lon": -76.92046316666666}, {"fusion_lat": 0.0, "name": "b10f98caa53f883d1a18e6520b984822", "is_disabled": 0, "rental_uris": {"android": "https://dc.lft.to/lastmile_qr_scan", "ios": "https://dc.lft.to/lastmile_qr_scan"}, "fusion_lon": 0.0, "lat": 38.911707, "bike_id": "b10f98caa53f883d1a18e6520b984822", "type": "electric_scooter", "is_reserved": 0, "lon": -77.0044565}, {"fusion_lat": 0.0, "name": "63f6124595338e560a26054ea1032242", "is_disabled": 0, "rental_uris": {"android": "https://dc.lft.to/lastmile_qr_scan", "ios": "https://dc.lft.to/lastmile_qr_scan"}, "fusion_lon": 0.0, "lat": 38.97461783333333, "bike_id": "63f6124595338e560a26054ea1032242", "type": "electric_scooter", "is_reserved": 0, "lon": -77.01319966666667}, {"fusion_lat": 0.0, "name": "ea155a3e7f475e4cc99900081365e3f4", "is_disabled": 0, "rental_uris": {"android": "https://dc.lft.to/lastmile_qr_scan", "ios": "https://dc.lft.to/lastmile_qr_scan"}, "fusion_lon": 0.0, "lat": 38.911041833333336, "bike_id": "ea155a3e7f475e4cc99900081365e3f4", "type": "electric_scooter", "is_reserved": 0, "lon": -77.027695}, {"fusion_lat": 0.0, "name": "7f9b869f029f39785931d773eeb3f389", "is_disabled": 0, "rental_uris": {"android": "https://dc.lft.to/lastmile_qr_scan", "ios": "https://dc.lft.to/lastmile_qr_scan"}, "fusion_lon": 0.0, "lat": 38.9090015, "bike_id": "7f9b869f029f39785931d773eeb3f389", "type": "electric_scooter", "is_reserved": 0, "lon": -77.07270616666666}, {"fusion_lat": 0.0, "name": "56515630b5525e8d7146587bc29726d1", "is_disabled": 0, "rental_uris": {"android": "https://dc.lft.to/lastmile_qr_scan", "ios": "https://dc.lft.to/lastmile_qr_scan"}, "fusion_lon": 0.0, "lat": 38.915538833333336, "bike_id": "56515630b5525e8d7146587bc29726d1", "type": "electric_scooter", "is_reserved": 0, "lon": -77.032564}, {"fusion_lat": 0.0, "name": "de13502d056b1a7a106f7916973294ef", "is_disabled": 0, "rental_uris": {"android": "https://dc.lft.to/lastmile_qr_scan", "ios": "https://dc.lft.to/lastmile_qr_scan"}, "fusion_lon": 0.0, "lat": 38.90661266666667, "bike_id": "de13502d056b1a7a106f7916973294ef", "type": "electric_scooter", "is_reserved": 0, "lon": -77.00904566666667}, {"fusion_lat": 0.0, "name": "85979915d4a2ba4540481ddbb563e2c1", "is_disabled": 0, "rental_uris": {"android": "https://dc.lft.to/lastmile_qr_scan", "ios": "https://dc.lft.to/lastmile_qr_scan"}, "fusion_lon": 0.0, "lat": 38.9839185, "bike_id": "85979915d4a2ba4540481ddbb563e2c1", "type": "electric_scooter", "is_reserved": 0, "lon": -77.02631566666666}, {"fusion_lat": 0.0, "name": "9f99df9ff266ecf96951364d9ac18fa1", "is_disabled": 0, "rental_uris": {"android": "https://dc.lft.to/lastmile_qr_scan", "ios": "https://dc.lft.to/lastmile_qr_scan"}, "fusion_lon": 0.0, "lat": 38.927914333333334, "bike_id": "9f99df9ff266ecf96951364d9ac18fa1", "type": "electric_scooter", "is_reserved": 0, "lon": -76.99561516666667}, {"fusion_lat": 0.0, "name": "b4824f4abc270bd5b7a39d38ee06d0b9", "is_disabled": 0, "rental_uris": {"android": "https://dc.lft.to/lastmile_qr_scan", "ios": "https://dc.lft.to/lastmile_qr_scan"}, "fusion_lon": 0.0, "lat": 38.927926166666666, "bike_id": "b4824f4abc270bd5b7a39d38ee06d0b9", "type": "electric_scooter", "is_reserved": 0, "lon": -77.03250933333334}, {"fusion_lat": 0.0, "name": "6df26342154dfd9e9d5144160c64b440", "is_disabled": 0, "rental_uris": {"android": "https://dc.lft.to/lastmile_qr_scan", "ios": "https://dc.lft.to/lastmile_qr_scan"}, "fusion_lon": 0.0, "lat": 38.914161166666666, "bike_id": "6df26342154dfd9e9d5144160c64b440", "type": "electric_scooter", "is_reserved": 0, "lon": -77.03809916666667}, {"fusion_lat": 0.0, "name": "ee644def3772e2d5e2c1a14fa9c5af2e", "is_disabled": 0, "rental_uris": {"android": "https://dc.lft.to/lastmile_qr_scan", "ios": "https://dc.lft.to/lastmile_qr_scan"}, "fusion_lon": 0.0, "lat": 38.902572666666664, "bike_id": "ee644def3772e2d5e2c1a14fa9c5af2e", "type": "electric_scooter", "is_reserved": 0, "lon": -77.0275775}, {"fusion_lat": 0.0, "name": "da72271e0cabd4b7afb98ac2b6abaae1", "is_disabled": 0, "rental_uris": {"android": "https://dc.lft.to/lastmile_qr_scan", "ios": "https://dc.lft.to/lastmile_qr_scan"}, "fusion_lon": 0.0, "lat": 38.94523483333333, "bike_id": "da72271e0cabd4b7afb98ac2b6abaae1", "type": "electric_scooter", "is_reserved": 0, "lon": -77.0227225}, {"fusion_lat": 0.0, "name": "869f8688c2e1031d5e6d5bc97bfd9d6d", "is_disabled": 0, "rental_uris": {"android": "https://dc.lft.to/lastmile_qr_scan", "ios": "https://dc.lft.to/lastmile_qr_scan"}, "fusion_lon": 0.0, "lat": 38.91906733333333, "bike_id": "869f8688c2e1031d5e6d5bc97bfd9d6d", "type": "electric_scooter", "is_reserved": 0, "lon": -77.0121975}, {"fusion_lat": 0.0, "name": "3062ed5296bb7032e38442b8030a55e6", "is_disabled": 0, "rental_uris": {"android": "https://dc.lft.to/lastmile_qr_scan", "ios": "https://dc.lft.to/lastmile_qr_scan"}, "fusion_lon": 0.0, "lat": 38.871626, "bike_id": "3062ed5296bb7032e38442b8030a55e6", "type": "electric_scooter", "is_reserved": 0, "lon": -76.97740683333333}, {"fusion_lat": 0.0, "name": "62f10637bc69dcea6e88a7c6af577bc8", "is_disabled": 0, "rental_uris": {"android": "https://dc.lft.to/lastmile_qr_scan", "ios": "https://dc.lft.to/lastmile_qr_scan"}, "fusion_lon": 0.0, "lat": 38.921508333333335, "bike_id": "62f10637bc69dcea6e88a7c6af577bc8", "type": "electric_scooter", "is_reserved": 0, "lon": -77.03868683333333}, {"fusion_lat": 0.0, "name": "f2189150ce2b33de847546303619cfdf", "is_disabled": 0, "rental_uris": {"android": "https://dc.lft.to/lastmile_qr_scan", "ios": "https://dc.lft.to/lastmile_qr_scan"}, "fusion_lon": 0.0, "lat": 38.93610366666667, "bike_id": "f2189150ce2b33de847546303619cfdf", "type": "electric_scooter", "is_reserved": 0, "lon": -77.0818135}, {"fusion_lat": 0.0, "name": "7b63562770f2d557728ed47e9b63cbf6", "is_disabled": 0, "rental_uris": {"android": "https://dc.lft.to/lastmile_qr_scan", "ios": "https://dc.lft.to/lastmile_qr_scan"}, "fusion_lon": 0.0, "lat": 38.898747, "bike_id": "7b63562770f2d557728ed47e9b63cbf6", "type": "electric_scooter", "is_reserved": 0, "lon": -76.93186716666666}, {"fusion_lat": 0.0, "name": "f6668a3121351df5b7bd4fb9357e883d", "is_disabled": 0, "rental_uris": {"android": "https://dc.lft.to/lastmile_qr_scan", "ios": "https://dc.lft.to/lastmile_qr_scan"}, "fusion_lon": 0.0, "lat": 38.862421, "bike_id": "f6668a3121351df5b7bd4fb9357e883d", "type": "electric_scooter", "is_reserved": 0, "lon": -76.99498533333333}, {"fusion_lat": 0.0, "name": "ab5a5913ed453d6c03b4cccf6f2483f1", "is_disabled": 0, "rental_uris": {"android": "https://dc.lft.to/lastmile_qr_scan", "ios": "https://dc.lft.to/lastmile_qr_scan"}, "fusion_lon": 0.0, "lat": 38.88340783333334, "bike_id": "ab5a5913ed453d6c03b4cccf6f2483f1", "type": "electric_scooter", "is_reserved": 0, "lon": -77.0174175}, {"fusion_lat": 0.0, "name": "7680dd1cdcb8f844c0499a6fed4f09fd", "is_disabled": 0, "rental_uris": {"android": "https://dc.lft.to/lastmile_qr_scan", "ios": "https://dc.lft.to/lastmile_qr_scan"}, "fusion_lon": 0.0, "lat": 38.900056166666666, "bike_id": "7680dd1cdcb8f844c0499a6fed4f09fd", "type": "electric_scooter", "is_reserved": 0, "lon": -77.03337566666667}, {"fusion_lat": 0.0, "name": "2bf9959b8ab4f2d0a6ab63874c5bf8c6", "is_disabled": 0, "rental_uris": {"android": "https://dc.lft.to/lastmile_qr_scan", "ios": "https://dc.lft.to/lastmile_qr_scan"}, "fusion_lon": 0.0, "lat": 38.908227833333335, "bike_id": "2bf9959b8ab4f2d0a6ab63874c5bf8c6", "type": "electric_scooter", "is_reserved": 0, "lon": -77.0343165}, {"fusion_lat": 0.0, "name": "ec0eb0b958152be837a8762aae9e994e", "is_disabled": 0, "rental_uris": {"android": "https://dc.lft.to/lastmile_qr_scan", "ios": "https://dc.lft.to/lastmile_qr_scan"}, "fusion_lon": 0.0, "lat": 38.873938333333335, "bike_id": "ec0eb0b958152be837a8762aae9e994e", "type": "electric_scooter", "is_reserved": 0, "lon": -77.00007383333333}, {"fusion_lat": 0.0, "name": "699be9f95f0fe512f2cdaa180bfb8c84", "is_disabled": 0, "rental_uris": {"android": "https://dc.lft.to/lastmile_qr_scan", "ios": "https://dc.lft.to/lastmile_qr_scan"}, "fusion_lon": 0.0, "lat": 38.91695566666667, "bike_id": "699be9f95f0fe512f2cdaa180bfb8c84", "type": "electric_scooter", "is_reserved": 0, "lon": -77.028966}, {"fusion_lat": 0.0, "name": "4c7e867b28e72648d18970e59252d26b", "is_disabled": 0, "rental_uris": {"android": "https://dc.lft.to/lastmile_qr_scan", "ios": "https://dc.lft.to/lastmile_qr_scan"}, "fusion_lon": 0.0, "lat": 38.92744533333333, "bike_id": "4c7e867b28e72648d18970e59252d26b", "type": "electric_scooter", "is_reserved": 0, "lon": -77.02433083333334}, {"fusion_lat": 0.0, "name": "06facd83d2b20a3372d171da1f96398f", "is_disabled": 0, "rental_uris": {"android": "https://dc.lft.to/lastmile_qr_scan", "ios": "https://dc.lft.to/lastmile_qr_scan"}, "fusion_lon": 0.0, "lat": 39.0525685, "bike_id": "06facd83d2b20a3372d171da1f96398f", "type": "electric_bike", "is_reserved": 0, "lon": -77.08068616666667}, {"fusion_lat": 0.0, "name": "3bd341b0537702457aac3849f773bfe2", "is_disabled": 0, "rental_uris": {"android": "https://dc.lft.to/lastmile_qr_scan", "ios": "https://dc.lft.to/lastmile_qr_scan"}, "fusion_lon": 0.0, "lat": 38.899392, "bike_id": "3bd341b0537702457aac3849f773bfe2", "type": "electric_scooter", "is_reserved": 0, "lon": -77.0035645}, {"fusion_lat": 0.0, "name": "10910ef59aa1fd21e96f3457f79a9d37", "is_disabled": 0, "rental_uris": {"android": "https://dc.lft.to/lastmile_qr_scan", "ios": "https://dc.lft.to/lastmile_qr_scan"}, "fusion_lon": 0.0, "lat": 38.883249666666664, "bike_id": "10910ef59aa1fd21e96f3457f79a9d37", "type": "electric_scooter", "is_reserved": 0, "lon": -77.017691}, {"fusion_lat": 0.0, "name": "c27c82db1b59a6fe33793aea76f76569", "is_disabled": 0, "rental_uris": {"android": "https://dc.lft.to/lastmile_qr_scan", "ios": "https://dc.lft.to/lastmile_qr_scan"}, "fusion_lon": 0.0, "lat": 38.89619916666667, "bike_id": "c27c82db1b59a6fe33793aea76f76569", "type": "electric_scooter", "is_reserved": 0, "lon": -77.0091815}, {"fusion_lat": 0.0, "name": "b39d7a2939d1c89b257cf37167b02981", "is_disabled": 0, "rental_uris": {"android": "https://dc.lft.to/lastmile_qr_scan", "ios": "https://dc.lft.to/lastmile_qr_scan"}, "fusion_lon": 0.0, "lat": 38.9352585, "bike_id": "b39d7a2939d1c89b257cf37167b02981", "type": "electric_scooter", "is_reserved": 0, "lon": -77.07265366666667}, {"fusion_lat": 0.0, "name": "ef21adb43a89ac7fe39c57b1f244a295", "is_disabled": 0, "rental_uris": {"android": "https://dc.lft.to/lastmile_qr_scan", "ios": "https://dc.lft.to/lastmile_qr_scan"}, "fusion_lon": 0.0, "lat": 38.91105566666667, "bike_id": "ef21adb43a89ac7fe39c57b1f244a295", "type": "electric_scooter", "is_reserved": 0, "lon": -77.003745}, {"fusion_lat": 0.0, "name": "52fac8535e36fc93989548093ea14799", "is_disabled": 0, "rental_uris": {"android": "https://dc.lft.to/lastmile_qr_scan", "ios": "https://dc.lft.to/lastmile_qr_scan"}, "fusion_lon": 0.0, "lat": 38.892064, "bike_id": "52fac8535e36fc93989548093ea14799", "type": "electric_scooter", "is_reserved": 0, "lon": -76.97704133333333}, {"fusion_lat": 0.0, "name": "3eaa75bdb831a10d67ba2b9dcedd2eaa", "is_disabled": 0, "rental_uris": {"android": "https://dc.lft.to/lastmile_qr_scan", "ios": "https://dc.lft.to/lastmile_qr_scan"}, "fusion_lon": 0.0, "lat": 38.922525666666665, "bike_id": "3eaa75bdb831a10d67ba2b9dcedd2eaa", "type": "electric_scooter", "is_reserved": 0, "lon": -77.01844283333334}, {"fusion_lat": 0.0, "name": "5fc5436bbcffcc975294bc42ff6852f9", "is_disabled": 0, "rental_uris": {"android": "https://dc.lft.to/lastmile_qr_scan", "ios": "https://dc.lft.to/lastmile_qr_scan"}, "fusion_lon": 0.0, "lat": 38.90532983333333, "bike_id": "5fc5436bbcffcc975294bc42ff6852f9", "type": "electric_scooter", "is_reserved": 0, "lon": -77.056591}, {"fusion_lat": 0.0, "name": "4a2b029641b213d150df0a1cbe4f2c78", "is_disabled": 0, "rental_uris": {"android": "https://dc.lft.to/lastmile_qr_scan", "ios": "https://dc.lft.to/lastmile_qr_scan"}, "fusion_lon": 0.0, "lat": 38.90717383333333, "bike_id": "4a2b029641b213d150df0a1cbe4f2c78", "type": "electric_scooter", "is_reserved": 0, "lon": -77.051376}, {"fusion_lat": 0.0, "name": "0b48e8c10608a1a2d174f4b09dc1e983", "is_disabled": 0, "rental_uris": {"android": "https://dc.lft.to/lastmile_qr_scan", "ios": "https://dc.lft.to/lastmile_qr_scan"}, "fusion_lon": 0.0, "lat": 38.887414166666666, "bike_id": "0b48e8c10608a1a2d174f4b09dc1e983", "type": "electric_scooter", "is_reserved": 0, "lon": -77.02209266666667}, {"fusion_lat": 0.0, "name": "920a35b2cc1543200175516e56721223", "is_disabled": 0, "rental_uris": {"android": "https://dc.lft.to/lastmile_qr_scan", "ios": "https://dc.lft.to/lastmile_qr_scan"}, "fusion_lon": 0.0, "lat": 38.86211566666667, "bike_id": "920a35b2cc1543200175516e56721223", "type": "electric_bike", "is_reserved": 0, "lon": -76.9957285}, {"fusion_lat": 0.0, "name": "30c40a43c8f8dada05d3ce459487b00f", "is_disabled": 0, "rental_uris": {"android": "https://dc.lft.to/lastmile_qr_scan", "ios": "https://dc.lft.to/lastmile_qr_scan"}, "fusion_lon": 0.0, "lat": 38.90410333333333, "bike_id": "30c40a43c8f8dada05d3ce459487b00f", "type": "electric_scooter", "is_reserved": 0, "lon": -76.9732845}, {"fusion_lat": 0.0, "name": "c01040c85943e44eadbc51afebf661a8", "is_disabled": 0, "rental_uris": {"android": "https://dc.lft.to/lastmile_qr_scan", "ios": "https://dc.lft.to/lastmile_qr_scan"}, "fusion_lon": 0.0, "lat": 38.89909566666667, "bike_id": "c01040c85943e44eadbc51afebf661a8", "type": "electric_scooter", "is_reserved": 0, "lon": -77.041728}, {"fusion_lat": 0.0, "name": "4e9cea21305d429ee0933a2b353b5651", "is_disabled": 0, "rental_uris": {"android": "https://dc.lft.to/lastmile_qr_scan", "ios": "https://dc.lft.to/lastmile_qr_scan"}, "fusion_lon": 0.0, "lat": 38.87765516666666, "bike_id": "4e9cea21305d429ee0933a2b353b5651", "type": "electric_scooter", "is_reserved": 0, "lon": -76.99382583333333}, {"fusion_lat": 0.0, "name": "b0573765ae6ceeed0de1f452c88579d5", "is_disabled": 0, "rental_uris": {"android": "https://dc.lft.to/lastmile_qr_scan", "ios": "https://dc.lft.to/lastmile_qr_scan"}, "fusion_lon": 0.0, "lat": 38.93302416666667, "bike_id": "b0573765ae6ceeed0de1f452c88579d5", "type": "electric_scooter", "is_reserved": 0, "lon": -77.03089683333333}, {"fusion_lat": 0.0, "name": "1a30b3a5ed2136af9e10a40c390ca7f7", "is_disabled": 0, "rental_uris": {"android": "https://dc.lft.to/lastmile_qr_scan", "ios": "https://dc.lft.to/lastmile_qr_scan"}, "fusion_lon": 0.0, "lat": 38.905743333333334, "bike_id": "1a30b3a5ed2136af9e10a40c390ca7f7", "type": "electric_scooter", "is_reserved": 0, "lon": -77.0385215}, {"fusion_lat": 0.0, "name": "3d982732af236e1bc0dc19d6ea82d1b8", "is_disabled": 0, "rental_uris": {"android": "https://dc.lft.to/lastmile_qr_scan", "ios": "https://dc.lft.to/lastmile_qr_scan"}, "fusion_lon": 0.0, "lat": 38.90038883333333, "bike_id": "3d982732af236e1bc0dc19d6ea82d1b8", "type": "electric_scooter", "is_reserved": 0, "lon": -77.03995633333334}, {"fusion_lat": 0.0, "name": "9327208c0f3e66b898f494206021dcd1", "is_disabled": 0, "rental_uris": {"android": "https://dc.lft.to/lastmile_qr_scan", "ios": "https://dc.lft.to/lastmile_qr_scan"}, "fusion_lon": 0.0, "lat": 38.9282225, "bike_id": "9327208c0f3e66b898f494206021dcd1", "type": "electric_scooter", "is_reserved": 0, "lon": -77.05461066666666}, {"fusion_lat": 0.0, "name": "f541e7099821efd0e92586d720e8e54e", "is_disabled": 0, "rental_uris": {"android": "https://dc.lft.to/lastmile_qr_scan", "ios": "https://dc.lft.to/lastmile_qr_scan"}, "fusion_lon": 0.0, "lat": 38.91954833333333, "bike_id": "f541e7099821efd0e92586d720e8e54e", "type": "electric_scooter", "is_reserved": 0, "lon": -77.02485733333333}, {"fusion_lat": 0.0, "name": "a12a227b19ff5ed40fc239309ee5cef4", "is_disabled": 0, "rental_uris": {"android": "https://dc.lft.to/lastmile_qr_scan", "ios": "https://dc.lft.to/lastmile_qr_scan"}, "fusion_lon": 0.0, "lat": 38.9174485, "bike_id": "a12a227b19ff5ed40fc239309ee5cef4", "type": "electric_scooter", "is_reserved": 0, "lon": -77.068305}, {"fusion_lat": 0.0, "name": "ca99477f8f463bd525f06729da72ab6f", "is_disabled": 0, "rental_uris": {"android": "https://dc.lft.to/lastmile_qr_scan", "ios": "https://dc.lft.to/lastmile_qr_scan"}, "fusion_lon": 0.0, "lat": 38.887451666666664, "bike_id": "ca99477f8f463bd525f06729da72ab6f", "type": "electric_scooter", "is_reserved": 0, "lon": -77.02230033333333}, {"fusion_lat": 0.0, "name": "03fdcff30ec875cb68695f05affdf6f2", "is_disabled": 0, "rental_uris": {"android": "https://dc.lft.to/lastmile_qr_scan", "ios": "https://dc.lft.to/lastmile_qr_scan"}, "fusion_lon": 0.0, "lat": 38.913177, "bike_id": "03fdcff30ec875cb68695f05affdf6f2", "type": "electric_scooter", "is_reserved": 0, "lon": -77.02136466666667}, {"fusion_lat": 0.0, "name": "bf64873f248e78a4743f2f982355c9bb", "is_disabled": 0, "rental_uris": {"android": "https://dc.lft.to/lastmile_qr_scan", "ios": "https://dc.lft.to/lastmile_qr_scan"}, "fusion_lon": 0.0, "lat": 38.91553066666667, "bike_id": "bf64873f248e78a4743f2f982355c9bb", "type": "electric_scooter", "is_reserved": 0, "lon": -77.0322715}, {"fusion_lat": 0.0, "name": "fa788f7437a9fba6c3736101933e9603", "is_disabled": 0, "rental_uris": {"android": "https://dc.lft.to/lastmile_qr_scan", "ios": "https://dc.lft.to/lastmile_qr_scan"}, "fusion_lon": 0.0, "lat": 38.92417183333333, "bike_id": "fa788f7437a9fba6c3736101933e9603", "type": "electric_scooter", "is_reserved": 0, "lon": -77.0196095}, {"fusion_lat": 0.0, "name": "0431a4de18550e7a79f34cd59d41c3a0", "is_disabled": 0, "rental_uris": {"android": "https://dc.lft.to/lastmile_qr_scan", "ios": "https://dc.lft.to/lastmile_qr_scan"}, "fusion_lon": 0.0, "lat": 38.90010983333333, "bike_id": "0431a4de18550e7a79f34cd59d41c3a0", "type": "electric_scooter", "is_reserved": 0, "lon": -76.9881145}, {"fusion_lat": 0.0, "name": "ace47ce748940dabf52118d06df8a365", "is_disabled": 0, "rental_uris": {"android": "https://dc.lft.to/lastmile_qr_scan", "ios": "https://dc.lft.to/lastmile_qr_scan"}, "fusion_lon": 0.0, "lat": 38.9156735, "bike_id": "ace47ce748940dabf52118d06df8a365", "type": "electric_scooter", "is_reserved": 0, "lon": -77.03153216666666}, {"fusion_lat": 0.0, "name": "6eeae85161e5975007d33e9e53296186", "is_disabled": 0, "rental_uris": {"android": "https://dc.lft.to/lastmile_qr_scan", "ios": "https://dc.lft.to/lastmile_qr_scan"}, "fusion_lon": 0.0, "lat": 38.939415833333335, "bike_id": "6eeae85161e5975007d33e9e53296186", "type": "electric_scooter", "is_reserved": 0, "lon": -77.03328333333333}, {"fusion_lat": 0.0, "name": "ff6a6f078ccd67c4c21e6e3ddd280d97", "is_disabled": 0, "rental_uris": {"android": "https://dc.lft.to/lastmile_qr_scan", "ios": "https://dc.lft.to/lastmile_qr_scan"}, "fusion_lon": 0.0, "lat": 38.90392166666667, "bike_id": "ff6a6f078ccd67c4c21e6e3ddd280d97", "type": "electric_scooter", "is_reserved": 0, "lon": -76.9900515}, {"fusion_lat": 0.0, "name": "b21faa17f5fe04bf087a537e0d1c8760", "is_disabled": 0, "rental_uris": {"android": "https://dc.lft.to/lastmile_qr_scan", "ios": "https://dc.lft.to/lastmile_qr_scan"},