{"data": {"bikes": [{"lat": 38.88105933333333, "fusion_lat": 0.0, "type": "electric_scooter", "bike_id": "ec2f3e7a6fce93db90b4ac41d155796e", "rental_uris": {"ios": "https://dc.lft.to/lastmile_qr_scan", "android": "https://dc.lft.to/lastmile_qr_scan"}, "fusion_lon": 0.0, "lon": -77.01674383333334, "name": "ec2f3e7a6fce93db90b4ac41d155796e", "is_reserved": 0, "is_disabled": 0}, {"lat": 38.895413166666664, "fusion_lat": 0.0, "type": "electric_scooter", "bike_id": "04aa1e10d9c04bd941a738d200473c58", "rental_uris": {"ios": "https://dc.lft.to/lastmile_qr_scan", "android": "https://dc.lft.to/lastmile_qr_scan"}, "fusion_lon": 0.0, "lon": -76.94955533333334, "name": "04aa1e10d9c04bd941a738d200473c58", "is_reserved": 0, "is_disabled": 0}, {"lat": 38.92411533333333, "fusion_lat": 0.0, "type": "electric_scooter", "bike_id": "6840f00ffa12441aa6cfa1e019b9927d", "rental_uris": {"ios": "https://dc.lft.to/lastmile_qr_scan", "android": "https://dc.lft.to/lastmile_qr_scan"}, "fusion_lon": 0.0, "lon": -77.05172166666667, "name": "6840f00ffa12441aa6cfa1e019b9927d", "is_reserved": 0, "is_disabled": 0}, {"lat": 38.86037016666667, "fusion_lat": 0.0, "type": "electric_bike", "bike_id": "aa37641b3cb0e43fc8fa840e9f8c57ae", "rental_uris": {"ios": "https://dc.lft.to/lastmile_qr_scan", "android": "https://dc.lft.to/lastmile_qr_scan"}, "fusion_lon": 0.0, "lon": -77.09381066666667, "name": "aa37641b3cb0e43fc8fa840e9f8c57ae", "is_reserved": 0, "is_disabled": 0}, {"lat": 38.807615166666665, "fusion_lat": 0.0, "type": "electric_bike", "bike_id": "ab0fe8b416a88515f7dfe0345e18d6d5", "rental_uris": {"ios": "https://dc.lft.to/lastmile_qr_scan", "android": "https://dc.lft.to/lastmile_qr_scan"}, "fusion_lon": 0.0, "lon": -77.12984333333333, "name": "ab0fe8b416a88515f7dfe0345e18d6d5", "is_reserved": 0, "is_disabled": 0}, {"lat": 38.88178966666667, "fusion_lat": 0.0, "type": "electric_scooter", "bike_id": "5b7fc20d1e71f3d28af3440c700a4b4d", "rental_uris": {"ios": "https://dc.lft.to/lastmile_qr_scan", "android": "https://dc.lft.to/lastmile_qr_scan"}, "fusion_lon": 0.0, "lon": -76.99257316666667, "name": "5b7fc20d1e71f3d28af3440c700a4b4d", "is_reserved": 0, "is_disabled": 0}, {"lat": 38.904281, "fusion_lat": 0.0, "type": "electric_scooter", "bike_id": "047a022ed008a86230e02931f22db174", "rental_uris": {"ios": "https://dc.lft.to/lastmile_qr_scan", "android": "https://dc.lft.to/lastmile_qr_scan"}, "fusion_lon": 0.0, "lon": -77.01985566666667, "name": "047a022ed008a86230e02931f22db174", "is_reserved": 0, "is_disabled": 0}, {"lat": 38.92712, "fusion_lat": 0.0, "type": "electric_scooter", "bike_id": "e056fe9f0347b3c6a825d8767c74270f", "rental_uris": {"ios": "https://dc.lft.to/lastmile_qr_scan", "android": "https://dc.lft.to/lastmile_qr_scan"}, "fusion_lon": 0.0, "lon": -77.03820066666667, "name": "e056fe9f0347b3c6a825d8767c74270f", "is_reserved": 0, "is_disabled": 0}, {"lat": 38.898491166666666, "fusion_lat": 0.0, "type": "electric_scooter", "bike_id": "aa638f12d4a93573e1f63bdac7435216", "rental_uris": {"ios": "https://dc.lft.to/lastmile_qr_scan", "android": "https://dc.lft.to/lastmile_qr_scan"}, "fusion_lon": 0.0, "lon": -76.9425515, "name": "aa638f12d4a93573e1f63bdac7435216", "is_reserved": 0, "is_disabled": 0}, {"lat": 38.920627333333336, "fusion_lat": 0.0, "type": "electric_scooter", "bike_id": "b0f667feb82a64bcd51fd76b6758ea7c", "rental_uris": {"ios": "https://dc.lft.to/lastmile_qr_scan", "android": "https://dc.lft.to/lastmile_qr_scan"}, "fusion_lon": 0.0, "lon": -77.02411033333334, "name": "b0f667feb82a64bcd51fd76b6758ea7c", "is_reserved": 0, "is_disabled": 0}, {"lat": 38.90375066666667, "fusion_lat": 0.0, "type": "electric_scooter", "bike_id": "23b21f508ec2693de21a1562832f1ba4", "rental_uris": {"ios": "https://dc.lft.to/lastmile_qr_scan", "android": "https://dc.lft.to/lastmile_qr_scan"}, "fusion_lon": 0.0, "lon": -77.04469383333333, "name": "23b21f508ec2693de21a1562832f1ba4", "is_reserved": 0, "is_disabled": 0}, {"lat": 38.92287983333333, "fusion_lat": 0.0, "type": "electric_scooter", "bike_id": "8f1ad18fd62dc3d382c6c46ee5ae3d82", "rental_uris": {"ios": "https://dc.lft.to/lastmile_qr_scan", "android": "https://dc.lft.to/lastmile_qr_scan"}, "fusion_lon": 0.0, "lon": -77.0224415, "name": "8f1ad18fd62dc3d382c6c46ee5ae3d82", "is_reserved": 0, "is_disabled": 0}, {"lat": 38.91113716666667, "fusion_lat": 0.0, "type": "electric_scooter", "bike_id": "e58610e4d0a9c9ecef9c2c64d033d3be", "rental_uris": {"ios": "https://dc.lft.to/lastmile_qr_scan", "android": "https://dc.lft.to/lastmile_qr_scan"}, "fusion_lon": 0.0, "lon": -77.04539716666666, "name": "e58610e4d0a9c9ecef9c2c64d033d3be", "is_reserved": 0, "is_disabled": 0}, {"lat": 38.908244333333336, "fusion_lat": 0.0, "type": "electric_scooter", "bike_id": "86259c4b54c318492f603d12ce14e3df", "rental_uris": {"ios": "https://dc.lft.to/lastmile_qr_scan", "android": "https://dc.lft.to/lastmile_qr_scan"}, "fusion_lon": 0.0, "lon": -77.04340533333334, "name": "86259c4b54c318492f603d12ce14e3df", "is_reserved": 0, "is_disabled": 0}, {"lat": 38.8753525, "fusion_lat": 0.0, "type": "electric_scooter", "bike_id": "a11b42109173eba8503d2eea6a3867ec", "rental_uris": {"ios": "https://dc.lft.to/lastmile_qr_scan", "android": "https://dc.lft.to/lastmile_qr_scan"}, "fusion_lon": 0.0, "lon": -77.0050785, "name": "a11b42109173eba8503d2eea6a3867ec", "is_reserved": 0, "is_disabled": 0}, {"lat": 38.9094065, "fusion_lat": 0.0, "type": "electric_scooter", "bike_id": "d4612e7c005f83a07c376620090853d1", "rental_uris": {"ios": "https://dc.lft.to/lastmile_qr_scan", "android": "https://dc.lft.to/lastmile_qr_scan"}, "fusion_lon": 0.0, "lon": -77.0320255, "name": "d4612e7c005f83a07c376620090853d1", "is_reserved": 0, "is_disabled": 0}, {"lat": 38.929840166666665, "fusion_lat": 0.0, "type": "electric_scooter", "bike_id": "b78d38e6e20a924a340accae3bb3a30f", "rental_uris": {"ios": "https://dc.lft.to/lastmile_qr_scan", "android": "https://dc.lft.to/lastmile_qr_scan"}, "fusion_lon": 0.0, "lon": -77.03657983333333, "name": "b78d38e6e20a924a340accae3bb3a30f", "is_reserved": 0, "is_disabled": 0}, {"lat": 38.8922355, "fusion_lat": 0.0, "type": "electric_scooter", "bike_id": "205aebb9c535dc0b78b3db24aea0412a", "rental_uris": {"ios": "https://dc.lft.to/lastmile_qr_scan", "android": "https://dc.lft.to/lastmile_qr_scan"}, "fusion_lon": 0.0, "lon": -77.04198516666666, "name": "205aebb9c535dc0b78b3db24aea0412a", "is_reserved": 0, "is_disabled": 0}, {"lat": 38.89555583333333, "fusion_lat": 0.0, "type": "electric_scooter", "bike_id": "792ed2f4cb1acf9270a0584404c223fb", "rental_uris": {"ios": "https://dc.lft.to/lastmile_qr_scan", "android": "https://dc.lft.to/lastmile_qr_scan"}, "fusion_lon": 0.0, "lon": -76.94875133333333, "name": "792ed2f4cb1acf9270a0584404c223fb", "is_reserved": 0, "is_disabled": 0}, {"lat": 38.9072945, "fusion_lat": 0.0, "type": "electric_scooter", "bike_id": "a9e87d7c7543883ad73afc483df9ad61", "rental_uris": {"ios": "https://dc.lft.to/lastmile_qr_scan", "android": "https://dc.lft.to/lastmile_qr_scan"}, "fusion_lon": 0.0, "lon": -77.02968016666667, "name": "a9e87d7c7543883ad73afc483df9ad61", "is_reserved": 0, "is_disabled": 0}, {"lat": 38.90822383333333, "fusion_lat": 0.0, "type": "electric_scooter", "bike_id": "d736a559a39b73c9ff09ab05067d5250", "rental_uris": {"ios": "https://dc.lft.to/lastmile_qr_scan", "android": "https://dc.lft.to/lastmile_qr_scan"}, "fusion_lon": 0.0, "lon": -77.0355095, "name": "d736a559a39b73c9ff09ab05067d5250", "is_reserved": 0, "is_disabled": 0}, {"lat": 38.9041355, "fusion_lat": 0.0, "type": "electric_scooter", "bike_id": "f85c5628741a05503edf1c25131ec71d", "rental_uris": {"ios": "https://dc.lft.to/lastmile_qr_scan", "android": "https://dc.lft.to/lastmile_qr_scan"}, "fusion_lon": 0.0, "lon": -77.02956316666666, "name": "f85c5628741a05503edf1c25131ec71d", "is_reserved": 0, "is_disabled": 0}, {"lat": 38.91185216666667, "fusion_lat": 0.0, "type": "electric_scooter", "bike_id": "0ece9ae0dc4c106976a0ecc95e7b6497", "rental_uris": {"ios": "https://dc.lft.to/lastmile_qr_scan", "android": "https://dc.lft.to/lastmile_qr_scan"}, "fusion_lon": 0.0, "lon": -77.019991, "name": "0ece9ae0dc4c106976a0ecc95e7b6497", "is_reserved": 0, "is_disabled": 0}, {"lat": 38.90829216666667, "fusion_lat": 0.0, "type": "electric_scooter", "bike_id": "225f15c3fda1a996804851b99ea07ec1", "rental_uris": {"ios": "https://dc.lft.to/lastmile_qr_scan", "android": "https://dc.lft.to/lastmile_qr_scan"}, "fusion_lon": 0.0, "lon": -77.03629183333334, "name": "225f15c3fda1a996804851b99ea07ec1", "is_reserved": 0, "is_disabled": 0}, {"lat": 38.94454433333333, "fusion_lat": 0.0, "type": "electric_scooter", "bike_id": "d6f5663e04d7890c9f32619136dc055e", "rental_uris": {"ios": "https://dc.lft.to/lastmile_qr_scan", "android": "https://dc.lft.to/lastmile_qr_scan"}, "fusion_lon": 0.0, "lon": -77.06351416666666, "name": "d6f5663e04d7890c9f32619136dc055e", "is_reserved": 0, "is_disabled": 0}, {"lat": 38.892716666666665, "fusion_lat": 0.0, "type": "electric_scooter", "bike_id": "600abe7a514991ef20caedbb831b8e7f", "rental_uris": {"ios": "https://dc.lft.to/lastmile_qr_scan", "android": "https://dc.lft.to/lastmile_qr_scan"}, "fusion_lon": 0.0, "lon": -77.00356166666667, "name": "600abe7a514991ef20caedbb831b8e7f", "is_reserved": 0, "is_disabled": 0}, {"lat": 38.924544166666664, "fusion_lat": 0.0, "type": "electric_scooter", "bike_id": "4da1558cb76b6faf201426d8edd94e55", "rental_uris": {"ios": "https://dc.lft.to/lastmile_qr_scan", "android": "https://dc.lft.to/lastmile_qr_scan"}, "fusion_lon": 0.0, "lon": -77.03992866666667, "name": "4da1558cb76b6faf201426d8edd94e55", "is_reserved": 0, "is_disabled": 0}, {"lat": 38.895553666666665, "fusion_lat": 0.0, "type": "electric_scooter", "bike_id": "cd17b6486281eccea218a438d26ad476", "rental_uris": {"ios": "https://dc.lft.to/lastmile_qr_scan", "android": "https://dc.lft.to/lastmile_qr_scan"}, "fusion_lon": 0.0, "lon": -76.98225233333334, "name": "cd17b6486281eccea218a438d26ad476", "is_reserved": 0, "is_disabled": 0}, {"lat": 38.910277666666666, "fusion_lat": 0.0, "type": "electric_scooter", "bike_id": "6b04c570b3c80d90ee2ea77dc68dd5ec", "rental_uris": {"ios": "https://dc.lft.to/lastmile_qr_scan", "android": "https://dc.lft.to/lastmile_qr_scan"}, "fusion_lon": 0.0, "lon": -77.02933283333333, "name": "6b04c570b3c80d90ee2ea77dc68dd5ec", "is_reserved": 0, "is_disabled": 0}, {"lat": 38.925018666666666, "fusion_lat": 0.0, "type": "electric_scooter", "bike_id": "1e68b5f48192ff896bcf549680324be3", "rental_uris": {"ios": "https://dc.lft.to/lastmile_qr_scan", "android": "https://dc.lft.to/lastmile_qr_scan"}, "fusion_lon": 0.0, "lon": -77.02145883333333, "name": "1e68b5f48192ff896bcf549680324be3", "is_reserved": 0, "is_disabled": 0}, {"lat": 38.91768733333333, "fusion_lat": 0.0, "type": "electric_scooter", "bike_id": "73050e3e57a714fb86f77913b353c3c8", "rental_uris": {"ios": "https://dc.lft.to/lastmile_qr_scan", "android": "https://dc.lft.to/lastmile_qr_scan"}, "fusion_lon": 0.0, "lon": -77.02310316666667, "name": "73050e3e57a714fb86f77913b353c3c8", "is_reserved": 0, "is_disabled": 0}, {"lat": 38.900343166666666, "fusion_lat": 0.0, "type": "electric_scooter", "bike_id": "ac1446cbfb25ddc323964dc66a2ce663", "rental_uris": {"ios": "https://dc.lft.to/lastmile_qr_scan", "android": "https://dc.lft.to/lastmile_qr_scan"}, "fusion_lon": 0.0, "lon": -76.98960116666666, "name": "ac1446cbfb25ddc323964dc66a2ce663", "is_reserved": 0, "is_disabled": 0}, {"lat": 38.80984383333333, "fusion_lat": 0.0, "type": "electric_bike", "bike_id": "7ca3a1fc3fd60915781905143124b647", "rental_uris": {"ios": "https://dc.lft.to/lastmile_qr_scan", "android": "https://dc.lft.to/lastmile_qr_scan"}, "fusion_lon": 0.0, "lon": -77.07660266666667, "name": "7ca3a1fc3fd60915781905143124b647", "is_reserved": 0, "is_disabled": 0}, {"lat": 38.929606, "fusion_lat": 0.0, "type": "electric_scooter", "bike_id": "6b6852b62456b1d709a0df7b26a20f31", "rental_uris": {"ios": "https://dc.lft.to/lastmile_qr_scan", "android": "https://dc.lft.to/lastmile_qr_scan"}, "fusion_lon": 0.0, "lon": -76.991578, "name": "6b6852b62456b1d709a0df7b26a20f31", "is_reserved": 0, "is_disabled": 0}, {"lat": 38.841286333333336, "fusion_lat": 0.0, "type": "electric_bike", "bike_id": "3de7a1614715c86fe0cecb622d00918b", "rental_uris": {"ios": "https://dc.lft.to/lastmile_qr_scan", "android": "https://dc.lft.to/lastmile_qr_scan"}, "fusion_lon": 0.0, "lon": -77.06307483333333, "name": "3de7a1614715c86fe0cecb622d00918b", "is_reserved": 0, "is_disabled": 0}, {"lat": 38.916568, "fusion_lat": 0.0, "type": "electric_scooter", "bike_id": "4c23662a0bd82053b744b395c21d3384", "rental_uris": {"ios": "https://dc.lft.to/lastmile_qr_scan", "android": "https://dc.lft.to/lastmile_qr_scan"}, "fusion_lon": 0.0, "lon": -77.02475516666667, "name": "4c23662a0bd82053b744b395c21d3384", "is_reserved": 0, "is_disabled": 0}, {"lat": 38.9199425, "fusion_lat": 0.0, "type": "electric_scooter", "bike_id": "488ccc882b6a41e42aa484803567c9b5", "rental_uris": {"ios": "https://dc.lft.to/lastmile_qr_scan", "android": "https://dc.lft.to/lastmile_qr_scan"}, "fusion_lon": 0.0, "lon": -77.03218833333334, "name": "488ccc882b6a41e42aa484803567c9b5", "is_reserved": 0, "is_disabled": 0}, {"lat": 38.90058666666667, "fusion_lat": 0.0, "type": "electric_scooter", "bike_id": "a7463f8c955e6451b7fec2fb2ff27639", "rental_uris": {"ios": "https://dc.lft.to/lastmile_qr_scan", "android": "https://dc.lft.to/lastmile_qr_scan"}, "fusion_lon": 0.0, "lon": -77.01678916666667, "name": "a7463f8c955e6451b7fec2fb2ff27639", "is_reserved": 0, "is_disabled": 0}, {"lat": 38.89881916666667, "fusion_lat": 0.0, "type": "electric_scooter", "bike_id": "d23513c6d21e9cc9218ec7155dd55338", "rental_uris": {"ios": "https://dc.lft.to/lastmile_qr_scan", "android": "https://dc.lft.to/lastmile_qr_scan"}, "fusion_lon": 0.0, "lon": -77.0535825, "name": "d23513c6d21e9cc9218ec7155dd55338", "is_reserved": 0, "is_disabled": 0}, {"lat": 38.92817333333333, "fusion_lat": 0.0, "type": "electric_scooter", "bike_id": "074f696069a53fe6aee70d0a736d6f4d", "rental_uris": {"ios": "https://dc.lft.to/lastmile_qr_scan", "android": "https://dc.lft.to/lastmile_qr_scan"}, "fusion_lon": 0.0, "lon": -77.05390266666667, "name": "074f696069a53fe6aee70d0a736d6f4d", "is_reserved": 0, "is_disabled": 0}, {"lat": 38.90693133333333, "fusion_lat": 0.0, "type": "electric_scooter", "bike_id": "49a0bd2d18a474f136f89dc9b9291c35", "rental_uris": {"ios": "https://dc.lft.to/lastmile_qr_scan", "android": "https://dc.lft.to/lastmile_qr_scan"}, "fusion_lon": 0.0, "lon": -76.99978616666667, "name": "49a0bd2d18a474f136f89dc9b9291c35", "is_reserved": 0, "is_disabled": 0}, {"lat": 38.910248333333335, "fusion_lat": 0.0, "type": "electric_scooter", "bike_id": "9d24fbd1aafa496f02640ad34e5e356b", "rental_uris": {"ios": "https://dc.lft.to/lastmile_qr_scan", "android": "https://dc.lft.to/lastmile_qr_scan"}, "fusion_lon": 0.0, "lon": -77.02935816666667, "name": "9d24fbd1aafa496f02640ad34e5e356b", "is_reserved": 0, "is_disabled": 0}, {"lat": 38.91416483333333, "fusion_lat": 0.0, "type": "electric_scooter", "bike_id": "1eb76c53280100a073a841d067a834ca", "rental_uris": {"ios": "https://dc.lft.to/lastmile_qr_scan", "android": "https://dc.lft.to/lastmile_qr_scan"}, "fusion_lon": 0.0, "lon": -77.03543683333334, "name": "1eb76c53280100a073a841d067a834ca", "is_reserved": 0, "is_disabled": 0}, {"lat": 38.901603, "fusion_lat": 0.0, "type": "electric_scooter", "bike_id": "6501792fe73c4c15a22cc2b1afbabe09", "rental_uris": {"ios": "https://dc.lft.to/lastmile_qr_scan", "android": "https://dc.lft.to/lastmile_qr_scan"}, "fusion_lon": 0.0, "lon": -77.01595216666666, "name": "6501792fe73c4c15a22cc2b1afbabe09", "is_reserved": 0, "is_disabled": 0}, {"lat": 38.913230666666664, "fusion_lat": 0.0, "type": "electric_scooter", "bike_id": "8a1c5583761c7b9f6ad670dd5639cc1a", "rental_uris": {"ios": "https://dc.lft.to/lastmile_qr_scan", "android": "https://dc.lft.to/lastmile_qr_scan"}, "fusion_lon": 0.0, "lon": -77.03659616666667, "name": "8a1c5583761c7b9f6ad670dd5639cc1a", "is_reserved": 0, "is_disabled": 0}, {"lat": 38.871006666666666, "fusion_lat": 0.0, "type": "electric_scooter", "bike_id": "cc76883661476a722b482607f5a61240", "rental_uris": {"ios": "https://dc.lft.to/lastmile_qr_scan", "android": "https://dc.lft.to/lastmile_qr_scan"}, "fusion_lon": 0.0, "lon": -76.9420255, "name": "cc76883661476a722b482607f5a61240", "is_reserved": 0, "is_disabled": 0}, {"lat": 39.00481083333333, "fusion_lat": 0.0, "type": "electric_bike", "bike_id": "da2285f39a56c19c7d375aeec6714dd8", "rental_uris": {"ios": "https://dc.lft.to/lastmile_qr_scan", "android": "https://dc.lft.to/lastmile_qr_scan"}, "fusion_lon": 0.0, "lon": -77.02187, "name": "da2285f39a56c19c7d375aeec6714dd8", "is_reserved": 0, "is_disabled": 0}, {"lat": 38.83145366666667, "fusion_lat": 0.0, "type": "electric_bike", "bike_id": "64f568092a2fea00ce5488e999d49ec3", "rental_uris": {"ios": "https://dc.lft.to/lastmile_qr_scan", "android": "https://dc.lft.to/lastmile_qr_scan"}, "fusion_lon": 0.0, "lon": -76.99402583333334, "name": "64f568092a2fea00ce5488e999d49ec3", "is_reserved": 0, "is_disabled": 0}, {"lat": 38.906724, "fusion_lat": 0.0, "type": "electric_scooter", "bike_id": "83813bbe5d5591e0a17a6ad1bb802ca2", "rental_uris": {"ios": "https://dc.lft.to/lastmile_qr_scan", "android": "https://dc.lft.to/lastmile_qr_scan"}, "fusion_lon": 0.0, "lon": -77.03798216666667, "name": "83813bbe5d5591e0a17a6ad1bb802ca2", "is_reserved": 0, "is_disabled": 0}, {"lat": 38.8922, "fusion_lat": 0.0, "type": "electric_scooter", "bike_id": "f929a245056505fc18acfe3ca12f0808", "rental_uris": {"ios": "https://dc.lft.to/lastmile_qr_scan", "android": "https://dc.lft.to/lastmile_qr_scan"}, "fusion_lon": 0.0, "lon": -77.0316785, "name": "f929a245056505fc18acfe3ca12f0808", "is_reserved": 0, "is_disabled": 0}, {"lat": 38.909726, "fusion_lat": 0.0, "type": "electric_scooter", "bike_id": "544368079f2ebe39ad45af4da50146ff", "rental_uris": {"ios": "https://dc.lft.to/lastmile_qr_scan", "android": "https://dc.lft.to/lastmile_qr_scan"}, "fusion_lon": 0.0, "lon": -77.02384083333334, "name": "544368079f2ebe39ad45af4da50146ff", "is_reserved": 0, "is_disabled": 0}, {"lat": 38.92238866666667, "fusion_lat": 0.0, "type": "electric_scooter", "bike_id": "7ef85da1b080ecf55a52860f70ff84ec", "rental_uris": {"ios": "https://dc.lft.to/lastmile_qr_scan", "android": "https://dc.lft.to/lastmile_qr_scan"}, "fusion_lon": 0.0, "lon": -77.04486583333333, "name": "7ef85da1b080ecf55a52860f70ff84ec", "is_reserved": 0, "is_disabled": 0}, {"lat": 38.89251133333333, "fusion_lat": 0.0, "type": "electric_scooter", "bike_id": "f65c8e2b908e48dd778d7adabdae147c", "rental_uris": {"ios": "https://dc.lft.to/lastmile_qr_scan", "android": "https://dc.lft.to/lastmile_qr_scan"}, "fusion_lon": 0.0, "lon": -76.98834983333333, "name": "f65c8e2b908e48dd778d7adabdae147c", "is_reserved": 0, "is_disabled": 0}, {"lat": 38.9367645, "fusion_lat": 0.0, "type": "electric_scooter", "bike_id": "01ab5479b93a888c36833f2845a4cf20", "rental_uris": {"ios": "https://dc.lft.to/lastmile_qr_scan", "android": "https://dc.lft.to/lastmile_qr_scan"}, "fusion_lon": 0.0, "lon": -77.03588616666667, "name": "01ab5479b93a888c36833f2845a4cf20", "is_reserved": 0, "is_disabled": 0}, {"lat": 38.917387833333336, "fusion_lat": 0.0, "type": "electric_scooter", "bike_id": "6ec32b86bc148152aa20e64776630cc3", "rental_uris": {"ios": "https://dc.lft.to/lastmile_qr_scan", "android": "https://dc.lft.to/lastmile_qr_scan"}, "fusion_lon": 0.0, "lon": -77.01690016666667, "name": "6ec32b86bc148152aa20e64776630cc3", "is_reserved": 0, "is_disabled": 0}, {"lat": 38.94283383333333, "fusion_lat": 0.0, "type": "electric_scooter", "bike_id": "ab07c3338ed60cdf76685159ca9b2fa5", "rental_uris": {"ios": "https://dc.lft.to/lastmile_qr_scan", "android": "https://dc.lft.to/lastmile_qr_scan"}, "fusion_lon": 0.0, "lon": -77.02940316666667, "name": "ab07c3338ed60cdf76685159ca9b2fa5", "is_reserved": 0, "is_disabled": 0}, {"lat": 38.886348, "fusion_lat": 0.0, "type": "electric_scooter", "bike_id": "7051a070087b005b0606f3ae32887bcd", "rental_uris": {"ios": "https://dc.lft.to/lastmile_qr_scan", "android": "https://dc.lft.to/lastmile_qr_scan"}, "fusion_lon": 0.0, "lon": -77.02828716666667, "name": "7051a070087b005b0606f3ae32887bcd", "is_reserved": 0, "is_disabled": 0}, {"lat": 38.94979033333333, "fusion_lat": 0.0, "type": "electric_scooter", "bike_id": "e18cfdae7a37bae31272a2d7d7ed9ded", "rental_uris": {"ios": "https://dc.lft.to/lastmile_qr_scan", "android": "https://dc.lft.to/lastmile_qr_scan"}, "fusion_lon": 0.0, "lon": -77.02982133333333, "name": "e18cfdae7a37bae31272a2d7d7ed9ded", "is_reserved": 0, "is_disabled": 0}, {"lat": 38.9076555, "fusion_lat": 0.0, "type": "electric_scooter", "bike_id": "139f71c0c619024cd9b709fa355a8de3", "rental_uris": {"ios": "https://dc.lft.to/lastmile_qr_scan", "android": "https://dc.lft.to/lastmile_qr_scan"}, "fusion_lon": 0.0, "lon": -77.00117516666667, "name": "139f71c0c619024cd9b709fa355a8de3", "is_reserved": 0, "is_disabled": 0}, {"lat": 38.91780633333333, "fusion_lat": 0.0, "type": "electric_scooter", "bike_id": "5e65760226c482e7347a1d1749f25a63", "rental_uris": {"ios": "https://dc.lft.to/lastmile_qr_scan", "android": "https://dc.lft.to/lastmile_qr_scan"}, "fusion_lon": 0.0, "lon": -77.023073, "name": "5e65760226c482e7347a1d1749f25a63", "is_reserved": 0, "is_disabled": 0}, {"lat": 38.9072585, "fusion_lat": 0.0, "type": "electric_scooter", "bike_id": "6e896b0bada9f4b5ff31dff415444e83", "rental_uris": {"ios": "https://dc.lft.to/lastmile_qr_scan", "android": "https://dc.lft.to/lastmile_qr_scan"}, "fusion_lon": 0.0, "lon": -77.04155433333334, "name": "6e896b0bada9f4b5ff31dff415444e83", "is_reserved": 0, "is_disabled": 0}, {"lat": 38.91031, "fusion_lat": 0.0, "type": "electric_scooter", "bike_id": "9dd204c9e5dc4e247f8ddfcf8df4eddc", "rental_uris": {"ios": "https://dc.lft.to/lastmile_qr_scan", "android": "https://dc.lft.to/lastmile_qr_scan"}, "fusion_lon": 0.0, "lon": -77.04650233333334, "name": "9dd204c9e5dc4e247f8ddfcf8df4eddc", "is_reserved": 0, "is_disabled": 0}, {"lat": 38.9106205, "fusion_lat": 0.0, "type": "electric_scooter", "bike_id": "ffcece297ad47e10a6a777688878045e", "rental_uris": {"ios": "https://dc.lft.to/lastmile_qr_scan", "android": "https://dc.lft.to/lastmile_qr_scan"}, "fusion_lon": 0.0, "lon": -77.02177983333333, "name": "ffcece297ad47e10a6a777688878045e", "is_reserved": 0, "is_disabled": 0}, {"lat": 38.92056766666666, "fusion_lat": 0.0, "type": "electric_scooter", "bike_id": "800649235cead06d82bc102991b05dcc", "rental_uris": {"ios": "https://dc.lft.to/lastmile_qr_scan", "android": "https://dc.lft.to/lastmile_qr_scan"}, "fusion_lon": 0.0, "lon": -77.0434385, "name": "800649235cead06d82bc102991b05dcc", "is_reserved": 0, "is_disabled": 0}, {"lat": 38.91495616666667, "fusion_lat": 0.0, "type": "electric_scooter", "bike_id": "ff0087bb82f77dfbc1535eeba51b59ba", "rental_uris": {"ios": "https://dc.lft.to/lastmile_qr_scan", "android": "https://dc.lft.to/lastmile_qr_scan"}, "fusion_lon": 0.0, "lon": -76.98369383333333, "name": "ff0087bb82f77dfbc1535eeba51b59ba", "is_reserved": 0, "is_disabled": 0}, {"lat": 38.91746166666667, "fusion_lat": 0.0, "type": "electric_scooter", "bike_id": "6e78868c252fcbe75c41799115a578cc", "rental_uris": {"ios": "https://dc.lft.to/lastmile_qr_scan", "android": "https://dc.lft.to/lastmile_qr_scan"}, "fusion_lon": 0.0, "lon": -77.01220366666666, "name": "6e78868c252fcbe75c41799115a578cc", "is_reserved": 0, "is_disabled": 0}, {"lat": 38.89237416666667, "fusion_lat": 0.0, "type": "electric_scooter", "bike_id": "4eb5b3e32e93bfd0ca25ff194383661a", "rental_uris": {"ios": "https://dc.lft.to/lastmile_qr_scan", "android": "https://dc.lft.to/lastmile_qr_scan"}, "fusion_lon": 0.0, "lon": -77.00294466666666, "name": "4eb5b3e32e93bfd0ca25ff194383661a", "is_reserved": 0, "is_disabled": 0}, {"lat": 38.997788666666665, "fusion_lat": 0.0, "type": "electric_bike", "bike_id": "c5bc113a43bc600c8fa30cfe053bcb1c", "rental_uris": {"ios": "https://dc.lft.to/lastmile_qr_scan", "android": "https://dc.lft.to/lastmile_qr_scan"}, "fusion_lon": 0.0, "lon": -77.0471625, "name": "c5bc113a43bc600c8fa30cfe053bcb1c", "is_reserved": 0, "is_disabled": 0}, {"lat": 38.9196245, "fusion_lat": 0.0, "type": "electric_scooter", "bike_id": "aad822d4768349cf23e8a75e2ecac8cb", "rental_uris": {"ios": "https://dc.lft.to/lastmile_qr_scan", "android": "https://dc.lft.to/lastmile_qr_scan"}, "fusion_lon": 0.0, "lon": -77.014905, "name": "aad822d4768349cf23e8a75e2ecac8cb", "is_reserved": 0, "is_disabled": 0}, {"lat": 38.924178, "fusion_lat": 0.0, "type": "electric_bike", "bike_id": "68b25d7855200a341398a911392f833a", "rental_uris": {"ios": "https://dc.lft.to/lastmile_qr_scan", "android": "https://dc.lft.to/lastmile_qr_scan"}, "fusion_lon": 0.0, "lon": -77.05062216666667, "name": "68b25d7855200a341398a911392f833a", "is_reserved": 0, "is_disabled": 0}, {"lat": 38.920278333333336, "fusion_lat": 0.0, "type": "electric_scooter", "bike_id": "85a8633f269b3d595d4671fdd6989618", "rental_uris": {"ios": "https://dc.lft.to/lastmile_qr_scan", "android": "https://dc.lft.to/lastmile_qr_scan"}, "fusion_lon": 0.0, "lon": -77.07161916666666, "name": "85a8633f269b3d595d4671fdd6989618", "is_reserved": 0, "is_disabled": 0}, {"lat": 38.887357333333334, "fusion_lat": 0.0, "type": "electric_scooter", "bike_id": "a3f02365e0b846ba44b7a8146b1baa28", "rental_uris": {"ios": "https://dc.lft.to/lastmile_qr_scan", "android": "https://dc.lft.to/lastmile_qr_scan"}, "fusion_lon": 0.0, "lon": -77.031748, "name": "a3f02365e0b846ba44b7a8146b1baa28", "is_reserved": 0, "is_disabled": 0}, {"lat": 38.944042833333334, "fusion_lat": 0.0, "type": "electric_bike", "bike_id": "41d6d7916eaa6318d6cdfdb812c79a44", "rental_uris": {"ios": "https://dc.lft.to/lastmile_qr_scan", "android": "https://dc.lft.to/lastmile_qr_scan"}, "fusion_lon": 0.0, "lon": -77.05519, "name": "41d6d7916eaa6318d6cdfdb812c79a44", "is_reserved": 0, "is_disabled": 0}, {"lat": 38.912694333333334, "fusion_lat": 0.0, "type": "electric_scooter", "bike_id": "da245dc54bb610919fd6563b1ac425f1", "rental_uris": {"ios": "https://dc.lft.to/lastmile_qr_scan", "android": "https://dc.lft.to/lastmile_qr_scan"}, "fusion_lon": 0.0, "lon": -77.0221455, "name": "da245dc54bb610919fd6563b1ac425f1", "is_reserved": 0, "is_disabled": 0}, {"lat": 38.89187883333334, "fusion_lat": 0.0, "type": "electric_scooter", "bike_id": "bac352518b333b7d875fe0087fb79ed4", "rental_uris": {"ios": "https://dc.lft.to/lastmile_qr_scan", "android": "https://dc.lft.to/lastmile_qr_scan"}, "fusion_lon": 0.0, "lon": -77.03183166666666, "name": "bac352518b333b7d875fe0087fb79ed4", "is_reserved": 0, "is_disabled": 0}, {"lat": 38.9269715, "fusion_lat": 0.0, "type": "electric_scooter", "bike_id": "f11aa37d840e1622c6526ed205d234a4", "rental_uris": {"ios": "https://dc.lft.to/lastmile_qr_scan", "android": "https://dc.lft.to/lastmile_qr_scan"}, "fusion_lon": 0.0, "lon": -77.035712, "name": "f11aa37d840e1622c6526ed205d234a4", "is_reserved": 0, "is_disabled": 0}, {"lat": 38.93281533333333, "fusion_lat": 0.0, "type": "electric_scooter", "bike_id": "606c5d13f802e1564e3c2014fd200eb5", "rental_uris": {"ios": "https://dc.lft.to/lastmile_qr_scan", "android": "https://dc.lft.to/lastmile_qr_scan"}, "fusion_lon": 0.0, "lon": -77.040851, "name": "606c5d13f802e1564e3c2014fd200eb5", "is_reserved": 0, "is_disabled": 0}, {"lat": 38.87820833333333, "fusion_lat": 0.0, "type": "electric_scooter", "bike_id": "38d9ad5887406f13f48ff1c36397cd24", "rental_uris": {"ios": "https://dc.lft.to/lastmile_qr_scan", "android": "https://dc.lft.to/lastmile_qr_scan"}, "fusion_lon": 0.0, "lon": -77.01751283333333, "name": "38d9ad5887406f13f48ff1c36397cd24", "is_reserved": 0, "is_disabled": 0}, {"lat": 38.887435833333335, "fusion_lat": 0.0, "type": "electric_scooter", "bike_id": "60ef3219e87b48b6333c3bdcbe31dd8b", "rental_uris": {"ios": "https://dc.lft.to/lastmile_qr_scan", "android": "https://dc.lft.to/lastmile_qr_scan"}, "fusion_lon": 0.0, "lon": -76.93261583333333, "name": "60ef3219e87b48b6333c3bdcbe31dd8b", "is_reserved": 0, "is_disabled": 0}, {"lat": 38.92724316666666, "fusion_lat": 0.0, "type": "electric_scooter", "bike_id": "85e1ef32207fa8bd8da3d3207a04eb7a", "rental_uris": {"ios": "https://dc.lft.to/lastmile_qr_scan", "android": "https://dc.lft.to/lastmile_qr_scan"}, "fusion_lon": 0.0, "lon": -77.02782016666667, "name": "85e1ef32207fa8bd8da3d3207a04eb7a", "is_reserved": 0, "is_disabled": 0}, {"lat": 38.89041183333333, "fusion_lat": 0.0, "type": "electric_scooter", "bike_id": "cd8b78b24f71b2a365e34487fc0525bc", "rental_uris": {"ios": "https://dc.lft.to/lastmile_qr_scan", "android": "https://dc.lft.to/lastmile_qr_scan"}, "fusion_lon": 0.0, "lon": -76.93755116666667, "name": "cd8b78b24f71b2a365e34487fc0525bc", "is_reserved": 0, "is_disabled": 0}, {"lat": 38.9287995, "fusion_lat": 0.0, "type": "electric_scooter", "bike_id": "985797a7f8a7256a4800d9803a8ecc9a", "rental_uris": {"ios": "https://dc.lft.to/lastmile_qr_scan", "android": "https://dc.lft.to/lastmile_qr_scan"}, "fusion_lon": 0.0, "lon": -77.03480233333333, "name": "985797a7f8a7256a4800d9803a8ecc9a", "is_reserved": 0, "is_disabled": 0}, {"lat": 38.92445283333333, "fusion_lat": 0.0, "type": "electric_scooter", "bike_id": "bc0e83e35b174e3396711502033bf07d", "rental_uris": {"ios": "https://dc.lft.to/lastmile_qr_scan", "android": "https://dc.lft.to/lastmile_qr_scan"}, "fusion_lon": 0.0, "lon": -77.033306, "name": "bc0e83e35b174e3396711502033bf07d", "is_reserved": 0, "is_disabled": 0}, {"lat": 38.9229095, "fusion_lat": 0.0, "type": "electric_scooter", "bike_id": "b353533dabd5edf3480741a6360f0b89", "rental_uris": {"ios": "https://dc.lft.to/lastmile_qr_scan", "android": "https://dc.lft.to/lastmile_qr_scan"}, "fusion_lon": 0.0, "lon": -77.02962266666667, "name": "b353533dabd5edf3480741a6360f0b89", "is_reserved": 0, "is_disabled": 0}, {"lat": 38.924648833333336, "fusion_lat": 0.0, "type": "electric_scooter", "bike_id": "b0b2cc169573174cc32b53fd849f3c67", "rental_uris": {"ios": "https://dc.lft.to/lastmile_qr_scan", "android": "https://dc.lft.to/lastmile_qr_scan"}, "fusion_lon": 0.0, "lon": -77.039063, "name": "b0b2cc169573174cc32b53fd849f3c67", "is_reserved": 0, "is_disabled": 0}, {"lat": 38.96838983333333, "fusion_lat": 0.0, "type": "electric_bike", "bike_id": "2d5b6a9bf61380bfe4a1abf27d22541f", "rental_uris": {"ios": "https://dc.lft.to/lastmile_qr_scan", "android": "https://dc.lft.to/lastmile_qr_scan"}, "fusion_lon": 0.0, "lon": -77.00599866666667, "name": "2d5b6a9bf61380bfe4a1abf27d22541f", "is_reserved": 0, "is_disabled": 0}, {"lat": 38.94630516666667, "fusion_lat": 0.0, "type": "electric_scooter", "bike_id": "9334eaf75cc63ae972a77831e6741f85", "rental_uris": {"ios": "https://dc.lft.to/lastmile_qr_scan", "android": "https://dc.lft.to/lastmile_qr_scan"}, "fusion_lon": 0.0, "lon": -77.03945916666666, "name": "9334eaf75cc63ae972a77831e6741f85", "is_reserved": 0, "is_disabled": 0}, {"lat": 38.89222616666667, "fusion_lat": 0.0, "type": "electric_scooter", "bike_id": "a257b9ef25d72d089ccf41583e48cf37", "rental_uris": {"ios": "https://dc.lft.to/lastmile_qr_scan", "android": "https://dc.lft.to/lastmile_qr_scan"}, "fusion_lon": 0.0, "lon": -77.04335383333333, "name": "a257b9ef25d72d089ccf41583e48cf37", "is_reserved": 0, "is_disabled": 0}, {"lat": 38.916853333333336, "fusion_lat": 0.0, "type": "electric_scooter", "bike_id": "3e046b3cdb61c74b4e59e423b6473432", "rental_uris": {"ios": "https://dc.lft.to/lastmile_qr_scan", "android": "https://dc.lft.to/lastmile_qr_scan"}, "fusion_lon": 0.0, "lon": -77.02389366666667, "name": "3e046b3cdb61c74b4e59e423b6473432", "is_reserved": 0, "is_disabled": 0}, {"lat": 38.949774833333336, "fusion_lat": 0.0, "type": "electric_scooter", "bike_id": "d921fd929044555d8aef4c717cc0619a", "rental_uris": {"ios": "https://dc.lft.to/lastmile_qr_scan", "android": "https://dc.lft.to/lastmile_qr_scan"}, "fusion_lon": 0.0, "lon": -77.06654333333333, "name": "d921fd929044555d8aef4c717cc0619a", "is_reserved": 0, "is_disabled": 0}, {"lat": 38.872445666666664, "fusion_lat": 0.0, "type": "electric_bike", "bike_id": "93f265806aa1e1b8c268bacf5a2769cb", "rental_uris": {"ios": "https://dc.lft.to/lastmile_qr_scan", "android": "https://dc.lft.to/lastmile_qr_scan"}, "fusion_lon": 0.0, "lon": -77.00879083333334, "name": "93f265806aa1e1b8c268bacf5a2769cb", "is_reserved": 0, "is_disabled": 0}, {"lat": 38.92771316666666, "fusion_lat": 0.0, "type": "electric_scooter", "bike_id": "f6a718840641bcbb04f06bc20778931f", "rental_uris": {"ios": "https://dc.lft.to/lastmile_qr_scan", "android": "https://dc.lft.to/lastmile_qr_scan"}, "fusion_lon": 0.0, "lon": -76.973391, "name": "f6a718840641bcbb04f06bc20778931f", "is_reserved": 0, "is_disabled": 0}, {"lat": 38.892225333333336, "fusion_lat": 0.0, "type": "electric_scooter", "bike_id": "640b14cc7299abfb40637be24ad92bb4", "rental_uris": {"ios": "https://dc.lft.to/lastmile_qr_scan", "android": "https://dc.lft.to/lastmile_qr_scan"}, "fusion_lon": 0.0, "lon": -77.04368966666667, "name": "640b14cc7299abfb40637be24ad92bb4", "is_reserved": 0, "is_disabled": 0}, {"lat": 38.905758, "fusion_lat": 0.0, "type": "electric_scooter", "bike_id": "6267b9fc5dc0e0f35757b25e6ae19bb9", "rental_uris": {"ios": "https://dc.lft.to/lastmile_qr_scan", "android": "https://dc.lft.to/lastmile_qr_scan"}, "fusion_lon": 0.0, "lon": -77.022043, "name": "6267b9fc5dc0e0f35757b25e6ae19bb9", "is_reserved": 0, "is_disabled": 0}, {"lat": 38.902080833333336, "fusion_lat": 0.0, "type": "electric_scooter", "bike_id": "0e9f4e1856e14f379c3666b7dc008a1e", "rental_uris": {"ios": "https://dc.lft.to/lastmile_qr_scan", "android": "https://dc.lft.to/lastmile_qr_scan"}, "fusion_lon": 0.0, "lon": -77.05146683333334, "name": "0e9f4e1856e14f379c3666b7dc008a1e", "is_reserved": 0, "is_disabled": 0}, {"lat": 38.906611833333336, "fusion_lat": 0.0, "type": "electric_scooter", "bike_id": "c5b71acac7a7745510260e3490511fdb", "rental_uris": {"ios": "https://dc.lft.to/lastmile_qr_scan", "android": "https://dc.lft.to/lastmile_qr_scan"}, "fusion_lon": 0.0, "lon": -77.02709916666667, "name": "c5b71acac7a7745510260e3490511fdb", "is_reserved": 0, "is_disabled": 0}, {"lat": 38.925034333333336, "fusion_lat": 0.0, "type": "electric_bike", "bike_id": "b8e96e9cf33b923252b509435a40d208", "rental_uris": {"ios": "https://dc.lft.to/lastmile_qr_scan", "android": "https://dc.lft.to/lastmile_qr_scan"}, "fusion_lon": 0.0, "lon": -77.233444, "name": "b8e96e9cf33b923252b509435a40d208", "is_reserved": 0, "is_disabled": 0}, {"lat": 38.95680266666667, "fusion_lat": 0.0, "type": "electric_scooter", "bike_id": "e69f2bbc84f1f2b7d4ae37568e6ed2db", "rental_uris": {"ios": "https://dc.lft.to/lastmile_qr_scan", "android": "https://dc.lft.to/lastmile_qr_scan"}, "fusion_lon": 0.0, "lon": -77.01355216666667, "name": "e69f2bbc84f1f2b7d4ae37568e6ed2db", "is_reserved": 0, "is_disabled": 0}, {"lat": 38.9363025, "fusion_lat": 0.0, "type": "electric_scooter", "bike_id": "b7d0ab9c36ccf3c64871c7e9d9887359", "rental_uris": {"ios": "https://dc.lft.to/lastmile_qr_scan", "android": "https://dc.lft.to/lastmile_qr_scan"}, "fusion_lon": 0.0, "lon": -77.05876633333334, "name": "b7d0ab9c36ccf3c64871c7e9d9887359", "is_reserved": 0, "is_disabled": 0}, {"lat": 38.87657016666667, "fusion_lat": 0.0, "type": "electric_scooter", "bike_id": "51da55cd7657ceb1cc593db0f34a3857", "rental_uris": {"ios": "https://dc.lft.to/lastmile_qr_scan", "android": "https://dc.lft.to/lastmile_qr_scan"}, "fusion_lon": 0.0, "lon": -77.00288716666667, "name": "51da55cd7657ceb1cc593db0f34a3857", "is_reserved": 0, "is_disabled": 0}, {"lat": 38.9419565, "fusion_lat": 0.0, "type": "electric_scooter", "bike_id": "4baef9e283281b7218612409f7a6525d", "rental_uris": {"ios": "https://dc.lft.to/lastmile_qr_scan", "android": "https://dc.lft.to/lastmile_qr_scan"}, "fusion_lon": 0.0, "lon": -77.02477066666667, "name": "4baef9e283281b7218612409f7a6525d", "is_reserved": 0, "is_disabled": 0}, {"lat": 38.90424266666667, "fusion_lat": 0.0, "type": "electric_scooter", "bike_id": "94123b2f75ef7e2bb3ad5354f5ffdc86", "rental_uris": {"ios": "https://dc.lft.to/lastmile_qr_scan", "android": "https://dc.lft.to/lastmile_qr_scan"}, "fusion_lon": 0.0, "lon": -77.05333066666667, "name": "94123b2f75ef7e2bb3ad5354f5ffdc86", "is_reserved": 0, "is_disabled": 0}, {"lat": 38.87390033333333, "fusion_lat": 0.0, "type": "electric_scooter", "bike_id": "d237a8fe4cd80278d4efd8fa84a1d180", "rental_uris": {"ios": "https://dc.lft.to/lastmile_qr_scan", "android": "https://dc.lft.to/lastmile_qr_scan"}, "fusion_lon": 0.0, "lon": -77.00032616666667, "name": "d237a8fe4cd80278d4efd8fa84a1d180", "is_reserved": 0, "is_disabled": 0}, {"lat": 38.91843766666667, "fusion_lat": 0.0, "type": "electric_scooter", "bike_id": "d4399fded08b3aea6e143277a4064ca3", "rental_uris": {"ios": "https://dc.lft.to/lastmile_qr_scan", "android": "https://dc.lft.to/lastmile_qr_scan"}, "fusion_lon": 0.0, "lon": -77.02299116666667, "name": "d4399fded08b3aea6e143277a4064ca3", "is_reserved": 0, "is_disabled": 0}, {"lat": 38.928956, "fusion_lat": 0.0, "type": "electric_scooter", "bike_id": "da647596fefaebdb7715eea72544241d", "rental_uris": {"ios": "https://dc.lft.to/lastmile_qr_scan", "android": "https://dc.lft.to/lastmile_qr_scan"}, "fusion_lon": 0.0, "lon": -77.03294083333333, "name": "da647596fefaebdb7715eea72544241d", "is_reserved": 0, "is_disabled": 0}, {"lat": 38.93879, "fusion_lat": 0.0, "type": "electric_scooter", "bike_id": "0c4fd3a62c1ba253fe83940c17f9cda5", "rental_uris": {"ios": "https://dc.lft.to/lastmile_qr_scan", "android": "https://dc.lft.to/lastmile_qr_scan"}, "fusion_lon": 0.0, "lon": -77.02481733333333, "name": "0c4fd3a62c1ba253fe83940c17f9cda5", "is_reserved": 0, "is_disabled": 0}, {"lat": 38.93096966666667, "fusion_lat": 0.0, "type": "electric_scooter", "bike_id": "7d10d91a2885327c1fb2fee4b79c6ae4", "rental_uris": {"ios": "https://dc.lft.to/lastmile_qr_scan", "android": "https://dc.lft.to/lastmile_qr_scan"}, "fusion_lon": 0.0, "lon": -77.02664133333333, "name": "7d10d91a2885327c1fb2fee4b79c6ae4", "is_reserved": 0, "is_disabled": 0}, {"lat": 38.91352966666667, "fusion_lat": 0.0, "type": "electric_scooter", "bike_id": "6f0f64f8b5c73b33606107061fbdb1ac", "rental_uris": {"ios": "https://dc.lft.to/lastmile_qr_scan", "android": "https://dc.lft.to/lastmile_qr_scan"}, "fusion_lon": 0.0, "lon": -77.043487, "name": "6f0f64f8b5c73b33606107061fbdb1ac", "is_reserved": 0, "is_disabled": 0}, {"lat": 38.91415166666667, "fusion_lat": 0.0, "type": "electric_scooter", "bike_id": "c44c078201bb935048df0557c39b66f8", "rental_uris": {"ios": "https://dc.lft.to/lastmile_qr_scan", "android": "https://dc.lft.to/lastmile_qr_scan"}, "fusion_lon": 0.0, "lon": -77.02237666666667, "name": "c44c078201bb935048df0557c39b66f8", "is_reserved": 0, "is_disabled": 0}, {"lat": 38.896139166666664, "fusion_lat": 0.0, "type": "electric_scooter", "bike_id": "df82129c28a608459fa7deac57d1d2fb", "rental_uris": {"ios": "https://dc.lft.to/lastmile_qr_scan", "android": "https://dc.lft.to/lastmile_qr_scan"}, "fusion_lon": 0.0, "lon": -77.0234995, "name": "df82129c28a608459fa7deac57d1d2fb", "is_reserved": 0, "is_disabled": 0}, {"lat": 38.918699, "fusion_lat": 0.0, "type": "electric_scooter", "bike_id": "ace4481360c46ff07032626e86190e29", "rental_uris": {"ios": "https://dc.lft.to/lastmile_qr_scan", "android": "https://dc.lft.to/lastmile_qr_scan"}, "fusion_lon": 0.0, "lon": -77.04760933333333, "name": "ace4481360c46ff07032626e86190e29", "is_reserved": 0, "is_disabled": 0}, {"lat": 38.9343665, "fusion_lat": 0.0, "type": "electric_scooter", "bike_id": "466981a6328143320535b5b3cd83dcd7", "rental_uris": {"ios": "https://dc.lft.to/lastmile_qr_scan", "android": "https://dc.lft.to/lastmile_qr_scan"}, "fusion_lon": 0.0, "lon": -77.0453815, "name": "466981a6328143320535b5b3cd83dcd7", "is_reserved": 0, "is_disabled": 0}, {"lat": 38.90362983333333, "fusion_lat": 0.0, "type": "electric_scooter", "bike_id": "48ee692440d67a215a7bbd56ba8f63a9", "rental_uris": {"ios": "https://dc.lft.to/lastmile_qr_scan", "android": "https://dc.lft.to/lastmile_qr_scan"}, "fusion_lon": 0.0, "lon": -77.01741216666667, "name": "48ee692440d67a215a7bbd56ba8f63a9", "is_reserved": 0, "is_disabled": 0}, {"lat": 38.956248333333335, "fusion_lat": 0.0, "type": "electric_scooter", "bike_id": "fd7f3fd0c462fa8de07b19db81bd7620", "rental_uris": {"ios": "https://dc.lft.to/lastmile_qr_scan", "android": "https://dc.lft.to/lastmile_qr_scan"}, "fusion_lon": 0.0, "lon": -77.02431166666666, "name": "fd7f3fd0c462fa8de07b19db81bd7620", "is_reserved": 0, "is_disabled": 0}, {"lat": 38.909225666666664, "fusion_lat": 0.0, "type": "electric_scooter", "bike_id": "270d1f23897a58399b255cefd1f59d60", "rental_uris": {"ios": "https://dc.lft.to/lastmile_qr_scan", "android": "https://dc.lft.to/lastmile_qr_scan"}, "fusion_lon": 0.0, "lon": -77.07270383333334, "name": "270d1f23897a58399b255cefd1f59d60", "is_reserved": 0, "is_disabled": 0}, {"lat": 38.919251, "fusion_lat": 0.0, "type": "electric_scooter", "bike_id": "a7fd5fe77e3f3249c104e609402e2a48", "rental_uris": {"ios": "https://dc.lft.to/lastmile_qr_scan", "android": "https://dc.lft.to/lastmile_qr_scan"}, "fusion_lon": 0.0, "lon": -77.025032, "name": "a7fd5fe77e3f3249c104e609402e2a48", "is_reserved": 0, "is_disabled": 0}, {"lat": 38.92260016666667, "fusion_lat": 0.0, "type": "electric_scooter", "bike_id": "036d89f467eaf930478748f3a93aebe6", "rental_uris": {"ios": "https://dc.lft.to/lastmile_qr_scan", "android": "https://dc.lft.to/lastmile_qr_scan"}, "fusion_lon": 0.0, "lon": -77.03854916666667, "name": "036d89f467eaf930478748f3a93aebe6", "is_reserved": 0, "is_disabled": 0}, {"lat": 38.90264333333333, "fusion_lat": 0.0, "type": "electric_scooter", "bike_id": "b2f492894362f47f0a8a04b96e060cda", "rental_uris": {"ios": "https://dc.lft.to/lastmile_qr_scan", "android": "https://dc.lft.to/lastmile_qr_scan"}, "fusion_lon": 0.0, "lon": -77.05314983333334, "name": "b2f492894362f47f0a8a04b96e060cda", "is_reserved": 0, "is_disabled": 0}, {"lat": 38.89228966666667, "fusion_lat": 0.0, "type": "electric_scooter", "bike_id": "252b0c7a181bb0d01c773788880d2fc1", "rental_uris": {"ios": "https://dc.lft.to/lastmile_qr_scan", "android": "https://dc.lft.to/lastmile_qr_scan"}, "fusion_lon": 0.0, "lon": -77.04897283333334, "name": "252b0c7a181bb0d01c773788880d2fc1", "is_reserved": 0, "is_disabled": 0}, {"lat": 38.905713, "fusion_lat": 0.0, "type": "electric_scooter", "bike_id": "0b720daeb21f6b1e8a61fcde667af617", "rental_uris": {"ios": "https://dc.lft.to/lastmile_qr_scan", "android": "https://dc.lft.to/lastmile_qr_scan"}, "fusion_lon": 0.0, "lon": -77.03434616666667, "name": "0b720daeb21f6b1e8a61fcde667af617", "is_reserved": 0, "is_disabled": 0}, {"lat": 38.9384375, "fusion_lat": 0.0, "type": "electric_scooter", "bike_id": "e38d5e798995523060bb5eb99129d645", "rental_uris": {"ios": "https://dc.lft.to/lastmile_qr_scan", "android": "https://dc.lft.to/lastmile_qr_scan"}, "fusion_lon": 0.0, "lon": -77.0338525, "name": "e38d5e798995523060bb5eb99129d645", "is_reserved": 0, "is_disabled": 0}, {"lat": 38.863318166666666, "fusion_lat": 0.0, "type": "electric_bike", "bike_id": "b95ce9b6f77937d64da5d8ea238fed45", "rental_uris": {"ios": "https://dc.lft.to/lastmile_qr_scan", "android": "https://dc.lft.to/lastmile_qr_scan"}, "fusion_lon": 0.0, "lon": -76.98723683333333, "name": "b95ce9b6f77937d64da5d8ea238fed45", "is_reserved": 0, "is_disabled": 0}, {"lat": 38.921234166666665, "fusion_lat": 0.0, "type": "electric_bike", "bike_id": "fc7f718ff30832f12dc6ddba452d6532", "rental_uris": {"ios": "https://dc.lft.to/lastmile_qr_scan", "android": "https://dc.lft.to/lastmile_qr_scan"}, "fusion_lon": 0.0, "lon": -77.2367715, "name": "fc7f718ff30832f12dc6ddba452d6532", "is_reserved": 0, "is_disabled": 0}, {"lat": 38.94396366666667, "fusion_lat": 0.0, "type": "electric_scooter", "bike_id": "4d77077b47bac81f4b934192f3f5f2b1", "rental_uris": {"ios": "https://dc.lft.to/lastmile_qr_scan", "android": "https://dc.lft.to/lastmile_qr_scan"}, "fusion_lon": 0.0, "lon": -77.03583683333333, "name": "4d77077b47bac81f4b934192f3f5f2b1", "is_reserved": 0, "is_disabled": 0}, {"lat": 38.8766795, "fusion_lat": 0.0, "type": "electric_scooter", "bike_id": "98e8a56502297742a1b28bf6263b2e15", "rental_uris": {"ios": "https://dc.lft.to/lastmile_qr_scan", "android": "https://dc.lft.to/lastmile_qr_scan"}, "fusion_lon": 0.0, "lon": -77.00304866666667, "name": "98e8a56502297742a1b28bf6263b2e15", "is_reserved": 0, "is_disabled": 0}, {"lat": 38.90126816666667, "fusion_lat": 0.0, "type": "electric_scooter", "bike_id": "81dd3bb1528a725d8a245833c20980d1", "rental_uris": {"ios": "https://dc.lft.to/lastmile_qr_scan", "android": "https://dc.lft.to/lastmile_qr_scan"}, "fusion_lon": 0.0, "lon": -77.02584983333334, "name": "81dd3bb1528a725d8a245833c20980d1", "is_reserved": 0, "is_disabled": 0}, {"lat": 38.89995666666667, "fusion_lat": 0.0, "type": "electric_scooter", "bike_id": "63377b3363369772e20c3c4abfd27545", "rental_uris": {"ios": "https://dc.lft.to/lastmile_qr_scan", "android": "https://dc.lft.to/lastmile_qr_scan"}, "fusion_lon": 0.0, "lon": -77.0235975, "name": "63377b3363369772e20c3c4abfd27545", "is_reserved": 0, "is_disabled": 0}, {"lat": 38.91496883333333, "fusion_lat": 0.0, "type": "electric_scooter", "bike_id": "415d76a0b7eb42587fe4b055e0287caf", "rental_uris": {"ios": "https://dc.lft.to/lastmile_qr_scan", "android": "https://dc.lft.to/lastmile_qr_scan"}, "fusion_lon": 0.0, "lon": -77.01998216666667, "name": "415d76a0b7eb42587fe4b055e0287caf", "is_reserved": 0, "is_disabled": 0}, {"lat": 38.891973166666666, "fusion_lat": 0.0, "type": "electric_scooter", "bike_id": "e1e7e8f46f94dca459e9fd428ca2a318", "rental_uris": {"ios": "https://dc.lft.to/lastmile_qr_scan", "android": "https://dc.lft.to/lastmile_qr_scan"}, "fusion_lon": 0.0, "lon": -77.02378483333334, "name": "e1e7e8f46f94dca459e9fd428ca2a318", "is_reserved": 0, "is_disabled": 0}, {"lat": 38.900160166666666, "fusion_lat": 0.0, "type": "electric_scooter", "bike_id": "be7c6bb895ec082b0dacbfda27582bc2", "rental_uris": {"ios": "https://dc.lft.to/lastmile_qr_scan", "android": "https://dc.lft.to/lastmile_qr_scan"}, "fusion_lon": 0.0, "lon": -76.99628666666666, "name": "be7c6bb895ec082b0dacbfda27582bc2", "is_reserved": 0, "is_disabled": 0}, {"lat": 38.922443333333334, "fusion_lat": 0.0, "type": "electric_scooter", "bike_id": "10d35ec0f152b8b3092c2ec06b22dc02", "rental_uris": {"ios": "https://dc.lft.to/lastmile_qr_scan", "android": "https://dc.lft.to/lastmile_qr_scan"}, "fusion_lon": 0.0, "lon": -77.01952266666666, "name": "10d35ec0f152b8b3092c2ec06b22dc02", "is_reserved": 0, "is_disabled": 0}, {"lat": 38.91244366666667, "fusion_lat": 0.0, "type": "electric_scooter", "bike_id": "2b4bd334b65421e7fb8d80f0f6051ce3", "rental_uris": {"ios": "https://dc.lft.to/lastmile_qr_scan", "android": "https://dc.lft.to/lastmile_qr_scan"}, "fusion_lon": 0.0, "lon": -77.04069316666667, "name": "2b4bd334b65421e7fb8d80f0f6051ce3", "is_reserved": 0, "is_disabled": 0}, {"lat": 38.93284033333333, "fusion_lat": 0.0, "type": "electric_scooter", "bike_id": "3cf15cf8cc063d1fe5b279bb9b55c70b", "rental_uris": {"ios": "https://dc.lft.to/lastmile_qr_scan", "android": "https://dc.lft.to/lastmile_qr_scan"}, "fusion_lon": 0.0, "lon": -76.98439533333334, "name": "3cf15cf8cc063d1fe5b279bb9b55c70b", "is_reserved": 0, "is_disabled": 0}, {"lat": 38.91202933333334, "fusion_lat": 0.0, "type": "electric_scooter", "bike_id": "7ec125ccbafcdfffced6f28b7ef20643", "rental_uris": {"ios": "https://dc.lft.to/lastmile_qr_scan", "android": "https://dc.lft.to/lastmile_qr_scan"}, "fusion_lon": 0.0, "lon": -77.01890783333333, "name": "7ec125ccbafcdfffced6f28b7ef20643", "is_reserved": 0, "is_disabled": 0}, {"lat": 38.9276195, "fusion_lat": 0.0, "type": "electric_scooter", "bike_id": "9b4305a321343df4d97908d8c4eb714e", "rental_uris": {"ios": "https://dc.lft.to/lastmile_qr_scan", "android": "https://dc.lft.to/lastmile_qr_scan"}, "fusion_lon": 0.0, "lon": -77.05270083333333, "name": "9b4305a321343df4d97908d8c4eb714e", "is_reserved": 0, "is_disabled": 0}, {"lat": 38.902740666666666, "fusion_lat": 0.0, "type": "electric_scooter", "bike_id": "8f779e866086645c62331b2d7a451871", "rental_uris": {"ios": "https://dc.lft.to/lastmile_qr_scan", "android": "https://dc.lft.to/lastmile_qr_scan"}, "fusion_lon": 0.0, "lon": -77.01818033333333, "name": "8f779e866086645c62331b2d7a451871", "is_reserved": 0, "is_disabled": 0}, {"lat": 38.94702683333333, "fusion_lat": 0.0, "type": "electric_scooter", "bike_id": "4194c425a3d410a48baa20a662176c3b", "rental_uris": {"ios": "https://dc.lft.to/lastmile_qr_scan", "android": "https://dc.lft.to/lastmile_qr_scan"}, "fusion_lon": 0.0, "lon": -77.01938733333333, "name": "4194c425a3d410a48baa20a662176c3b", "is_reserved": 0, "is_disabled": 0}, {"lat": 38.91181483333333, "fusion_lat": 0.0, "type": "electric_scooter", "bike_id": "eba36c302b7bcc3a41844cff4c6913bd", "rental_uris": {"ios": "https://dc.lft.to/lastmile_qr_scan", "android": "https://dc.lft.to/lastmile_qr_scan"}, "fusion_lon": 0.0, "lon": -77.01698033333334, "name": "eba36c302b7bcc3a41844cff4c6913bd", "is_reserved": 0, "is_disabled": 0}, {"lat": 38.91402083333333, "fusion_lat": 0.0, "type": "electric_scooter", "bike_id": "22447ddad99f5a60b2b6e89aec33ac17", "rental_uris": {"ios": "https://dc.lft.to/lastmile_qr_scan", "android": "https://dc.lft.to/lastmile_qr_scan"}, "fusion_lon": 0.0, "lon": -77.01013633333334, "name": "22447ddad99f5a60b2b6e89aec33ac17", "is_reserved": 0, "is_disabled": 0}, {"lat": 38.91135283333333, "fusion_lat": 0.0, "type": "electric_scooter", "bike_id": "c6dccc7b6afef249786d12ec111a6941", "rental_uris": {"ios": "https://dc.lft.to/lastmile_qr_scan", "android": "https://dc.lft.to/lastmile_qr_scan"}, "fusion_lon": 0.0, "lon": -77.05267816666667, "name": "c6dccc7b6afef249786d12ec111a6941", "is_reserved": 0, "is_disabled": 0}, {"lat": 38.9206765, "fusion_lat": 0.0, "type": "electric_scooter", "bike_id": "87c63eb2e0d4df8f6763f401b4b851d9", "rental_uris": {"ios": "https://dc.lft.to/lastmile_qr_scan", "android": "https://dc.lft.to/lastmile_qr_scan"}, "fusion_lon": 0.0, "lon": -77.02380316666667, "name": "87c63eb2e0d4df8f6763f401b4b851d9", "is_reserved": 0, "is_disabled": 0}, {"lat": 38.93251383333333, "fusion_lat": 0.0, "type": "electric_scooter", "bike_id": "1c0458123d929f7436b425942c9ca1ab", "rental_uris": {"ios": "https://dc.lft.to/lastmile_qr_scan", "android": "https://dc.lft.to/lastmile_qr_scan"}, "fusion_lon": 0.0, "lon": -77.03280216666667, "name": "1c0458123d929f7436b425942c9ca1ab", "is_reserved": 0, "is_disabled": 0}, {"lat": 38.898904, "fusion_lat": 0.0, "type": "electric_scooter", "bike_id": "b760026271c71b390990c4faf7914417", "rental_uris": {"ios": "https://dc.lft.to/lastmile_qr_scan", "android": "https://dc.lft.to/lastmile_qr_scan"}, "fusion_lon": 0.0, "lon": -76.93170866666667, "name": "b760026271c71b390990c4faf7914417", "is_reserved": 0, "is_disabled": 0}, {"lat": 38.921913, "fusion_lat": 0.0, "type": "electric_scooter", "bike_id": "84e4072982feba006059c52d40aac2f3", "rental_uris": {"ios": "https://dc.lft.to/lastmile_qr_scan", "android": "https://dc.lft.to/lastmile_qr_scan"}, "fusion_lon": 0.0, "lon": -77.04256216666667, "name": "84e4072982feba006059c52d40aac2f3", "is_reserved": 0, "is_disabled": 0}, {"lat": 38.9308415, "fusion_lat": 0.0, "type": "electric_scooter", "bike_id": "1749961d4399ab6d359859daa83ffaa9", "rental_uris": {"ios": "https://dc.lft.to/lastmile_qr_scan", "android": "https://dc.lft.to/lastmile_qr_scan"}, "fusion_lon": 0.0, "lon": -76.99612266666666, "name": "1749961d4399ab6d359859daa83ffaa9", "is_reserved": 0, "is_disabled": 0}, {"lat": 38.9027705, "fusion_lat": 0.0, "type": "electric_scooter", "bike_id": "6f2c86c2061b472dde69aa30da2ca423", "rental_uris": {"ios": "https://dc.lft.to/lastmile_qr_scan", "android": "https://dc.lft.to/lastmile_qr_scan"}, "fusion_lon": 0.0, "lon": -77.06278683333333, "name": "6f2c86c2061b472dde69aa30da2ca423", "is_reserved": 0, "is_disabled": 0}, {"lat": 38.931874666666666, "fusion_lat": 0.0, "type": "electric_scooter", "bike_id": "0d886d0083c995ce9f7a66909a49458c", "rental_uris": {"ios": "https://dc.lft.to/lastmile_qr_scan", "android": "https://dc.lft.to/lastmile_qr_scan"}, "fusion_lon": 0.0, "lon": -77.0430525, "name": "0d886d0083c995ce9f7a66909a49458c", "is_reserved": 0, "is_disabled": 0}, {"lat": 38.92225, "fusion_lat": 0.0, "type": "electric_scooter", "bike_id": "f46fa2d6bb23cebf060eb15ad56100c2", "rental_uris": {"ios": "https://dc.lft.to/lastmile_qr_scan", "android": "https://dc.lft.to/lastmile_qr_scan"}, "fusion_lon": 0.0, "lon": -77.04334766666666, "name": "f46fa2d6bb23cebf060eb15ad56100c2", "is_reserved": 0, "is_disabled": 0}, {"lat": 38.904696333333334, "fusion_lat": 0.0, "type": "electric_scooter", "bike_id": "3a4c511be3f043ea2b5988419398cf16", "rental_uris": {"ios": "https://dc.lft.to/lastmile_qr_scan", "android": "https://dc.lft.to/lastmile_qr_scan"}, "fusion_lon": 0.0, "lon": -76.99506766666667, "name": "3a4c511be3f043ea2b5988419398cf16", "is_reserved": 0, "is_disabled": 0}, {"lat": 38.922412333333334, "fusion_lat": 0.0, "type": "electric_scooter", "bike_id": "e79941e62c8f80801e6f98f6fbf1b5ea", "rental_uris": {"ios": "https://dc.lft.to/lastmile_qr_scan", "android": "https://dc.lft.to/lastmile_qr_scan"}, "fusion_lon": 0.0, "lon": -77.018299, "name": "e79941e62c8f80801e6f98f6fbf1b5ea", "is_reserved": 0, "is_disabled": 0}, {"lat": 38.91158633333333, "fusion_lat": 0.0, "type": "electric_scooter", "bike_id": "49ac4693cf01138c222c59cdf654262b", "rental_uris": {"ios": "https://dc.lft.to/lastmile_qr_scan", "android": "https://dc.lft.to/lastmile_qr_scan"}, "fusion_lon": 0.0, "lon": -77.01978266666667, "name": "49ac4693cf01138c222c59cdf654262b", "is_reserved": 0, "is_disabled": 0}, {"lat": 38.9188965, "fusion_lat": 0.0, "type": "electric_scooter", "bike_id": "ee3b9032a6af492f6f4e947630d17cb2", "rental_uris": {"ios": "https://dc.lft.to/lastmile_qr_scan", "android": "https://dc.lft.to/lastmile_qr_scan"}, "fusion_lon": 0.0, "lon": -77.0382775, "name": "ee3b9032a6af492f6f4e947630d17cb2", "is_reserved": 0, "is_disabled": 0}, {"lat": 38.93474, "fusion_lat": 0.0, "type": "electric_scooter", "bike_id": "fd6efe18258dc1dd2ae76b83bb6e83c9", "rental_uris": {"ios": "https://dc.lft.to/lastmile_qr_scan", "android": "https://dc.lft.to/lastmile_qr_scan"}, "fusion_lon": 0.0, "lon": -77.07279816666667, "name": "fd6efe18258dc1dd2ae76b83bb6e83c9", "is_reserved": 0, "is_disabled": 0}, {"lat": 38.92298683333333, "fusion_lat": 0.0, "type": "electric_scooter", "bike_id": "f7a2feedadc7f00af8cbed70e0eca6a5", "rental_uris": {"ios": "https://dc.lft.to/lastmile_qr_scan", "android": "https://dc.lft.to/lastmile_qr_scan"}, "fusion_lon": 0.0, "lon": -77.023262, "name": "f7a2feedadc7f00af8cbed70e0eca6a5", "is_reserved": 0, "is_disabled": 0}, {"lat": 38.879598, "fusion_lat": 0.0, "type": "electric_scooter", "bike_id": "e2830b3df47bb168dc62458aec32e2d4", "rental_uris": {"ios": "https://dc.lft.to/lastmile_qr_scan", "android": "https://dc.lft.to/lastmile_qr_scan"}, "fusion_lon": 0.0, "lon": -76.99506116666667, "name": "e2830b3df47bb168dc62458aec32e2d4", "is_reserved": 0, "is_disabled": 0}, {"lat": 38.899265666666665, "fusion_lat": 0.0, "type": "electric_scooter", "bike_id": "fbeccf679722b196cae8732bc1e77763", "rental_uris": {"ios": "https://dc.lft.to/lastmile_qr_scan", "android": "https://dc.lft.to/lastmile_qr_scan"}, "fusion_lon": 0.0, "lon": -77.02952216666667, "name": "fbeccf679722b196cae8732bc1e77763", "is_reserved": 0, "is_disabled": 0}, {"lat": 38.942934666666666, "fusion_lat": 0.0, "type": "electric_scooter", "bike_id": "de595cae86c923860338a8d68cc225c2", "rental_uris": {"ios": "https://dc.lft.to/lastmile_qr_scan", "android": "https://dc.lft.to/lastmile_qr_scan"}, "fusion_lon": 0.0, "lon": -77.02168733333333, "name": "de595cae86c923860338a8d68cc225c2", "is_reserved": 0, "is_disabled": 0}, {"lat": 38.88657883333333, "fusion_lat": 0.0, "type": "electric_scooter", "bike_id": "06462b1a3c7f6c3c075f0c183ba6572b", "rental_uris": {"ios": "https://dc.lft.to/lastmile_qr_scan", "android": "https://dc.lft.to/lastmile_qr_scan"}, "fusion_lon": 0.0, "lon": -77.03386883333333, "name": "06462b1a3c7f6c3c075f0c183ba6572b", "is_reserved": 0, "is_disabled": 0}, {"lat": 38.881136, "fusion_lat": 0.0, "type": "electric_scooter", "bike_id": "0d405dc9eec8c4e961accd06d7d99021", "rental_uris": {"ios": "https://dc.lft.to/lastmile_qr_scan", "android": "https://dc.lft.to/lastmile_qr_scan"}, "fusion_lon": 0.0, "lon": -77.016801, "name": "0d405dc9eec8c4e961accd06d7d99021", "is_reserved": 0, "is_disabled": 0}, {"lat": 38.8708205, "fusion_lat": 0.0, "type": "electric_scooter", "bike_id": "58548904cc7ab1273dbc57067f17d69b", "rental_uris": {"ios": "https://dc.lft.to/lastmile_qr_scan", "android": "https://dc.lft.to/lastmile_qr_scan"}, "fusion_lon": 0.0, "lon": -77.01185566666666, "name": "58548904cc7ab1273dbc57067f17d69b", "is_reserved": 0, "is_disabled": 0}, {"lat": 38.92042983333333, "fusion_lat": 0.0, "type": "electric_scooter", "bike_id": "3697ed2c0ae29221f62b23ec6ac9c7b7", "rental_uris": {"ios": "https://dc.lft.to/lastmile_qr_scan", "android": "https://dc.lft.to/lastmile_qr_scan"}, "fusion_lon": 0.0, "lon": -77.0181325, "name": "3697ed2c0ae29221f62b23ec6ac9c7b7", "is_reserved": 0, "is_disabled": 0}, {"lat": 38.878802, "fusion_lat": 0.0, "type": "electric_scooter", "bike_id": "7de97445f8e72a727efe2c68482fd01b", "rental_uris": {"ios": "https://dc.lft.to/lastmile_qr_scan", "android": "https://dc.lft.to/lastmile_qr_scan"}, "fusion_lon": 0.0, "lon": -77.02319633333333, "name": "7de97445f8e72a727efe2c68482fd01b", "is_reserved": 0, "is_disabled": 0}, {"lat": 38.917315333333335, "fusion_lat": 0.0, "type": "electric_scooter", "bike_id": "0999df8245b1532101930d041f2355e2", "rental_uris": {"ios": "https://dc.lft.to/lastmile_qr_scan", "android": "https://dc.lft.to/lastmile_qr_scan"}, "fusion_lon": 0.0, "lon": -77.02896416666667, "name": "0999df8245b1532101930d041f2355e2", "is_reserved": 0, "is_disabled": 0}, {"lat": 38.912696, "fusion_lat": 0.0, "type": "electric_scooter", "bike_id": "c40eac23cfd8c5b57efb4a9dcbfad849", "rental_uris": {"ios": "https://dc.lft.to/lastmile_qr_scan", "android": "https://dc.lft.to/lastmile_qr_scan"}, "fusion_lon": 0.0, "lon": -77.03164083333333, "name": "c40eac23cfd8c5b57efb4a9dcbfad849", "is_reserved": 0, "is_disabled": 0}, {"lat": 38.9363285, "fusion_lat": 0.0, "type": "electric_scooter", "bike_id": "3859031879977c77daa19ac7a4c22dfb", "rental_uris": {"ios": "https://dc.lft.to/lastmile_qr_scan", "android": "https://dc.lft.to/lastmile_qr_scan"}, "fusion_lon": 0.0, "lon": -77.05879366666667, "name": "3859031879977c77daa19ac7a4c22dfb", "is_reserved": 0, "is_disabled": 0}, {"lat": 38.907373666666665, "fusion_lat": 0.0, "type": "electric_scooter", "bike_id": "4585f40f1ad11312044c2b20321c67f7", "rental_uris": {"ios": "https://dc.lft.to/lastmile_qr_scan", "android": "https://dc.lft.to/lastmile_qr_scan"}, "fusion_lon": 0.0, "lon": -77.03534566666667, "name": "4585f40f1ad11312044c2b20321c67f7", "is_reserved": 0, "is_disabled": 0}, {"lat": 39.08621266666667, "fusion_lat": 0.0, "type": "electric_bike", "bike_id": "b874c2fcac321de79700485699faea86", "rental_uris": {"ios": "https://dc.lft.to/lastmile_qr_scan", "android": "https://dc.lft.to/lastmile_qr_scan"}, "fusion_lon": 0.0, "lon": -77.152594, "name": "b874c2fcac321de79700485699faea86", "is_reserved": 0, "is_disabled": 0}, {"lat": 38.857719, "fusion_lat": 0.0, "type": "electric_bike", "bike_id": "9b9d8f4a165aeb55de3ed9ae775debcc", "rental_uris": {"ios": "https://dc.lft.to/lastmile_qr_scan", "android": "https://dc.lft.to/lastmile_qr_scan"}, "fusion_lon": 0.0, "lon": -76.98770533333334, "name": "9b9d8f4a165aeb55de3ed9ae775debcc", "is_reserved": 0, "is_disabled": 0}, {"lat": 38.90703966666667, "fusion_lat": 0.0, "type": "electric_scooter", "bike_id": "7c74d43113c649a4095ed4aa4514f564", "rental_uris": {"ios": "https://dc.lft.to/lastmile_qr_scan", "android": "https://dc.lft.to/lastmile_qr_scan"}, "fusion_lon": 0.0, "lon": -76.98854066666667, "name": "7c74d43113c649a4095ed4aa4514f564", "is_reserved": 0, "is_disabled": 0}, {"lat": 38.872854333333336, "fusion_lat": 0.0, "type": "electric_bike", "bike_id": "436068a96029460daa864d913ac4e25c", "rental_uris": {"ios": "https://dc.lft.to/lastmile_qr_scan", "android": "https://dc.lft.to/lastmile_qr_scan"}, "fusion_lon": 0.0, "lon": -77.23321883333334, "name": "436068a96029460daa864d913ac4e25c", "is_reserved": 0, "is_disabled": 0}, {"lat": 38.91406516666667, "fusion_lat": 0.0, "type": "electric_scooter", "bike_id": "dfe6507dba57e8eef0001a3f200e0391", "rental_uris": {"ios": "https://dc.lft.to/lastmile_qr_scan", "android": "https://dc.lft.to/lastmile_qr_scan"}, "fusion_lon": 0.0, "lon": -77.03906433333333, "name": "dfe6507dba57e8eef0001a3f200e0391", "is_reserved": 0, "is_disabled": 0}, {"lat": 38.915661666666665, "fusion_lat": 0.0, "type": "electric_scooter", "bike_id": "2cfc53dbde9d04f6bfee87f3c7892b9d", "rental_uris": {"ios": "https://dc.lft.to/lastmile_qr_scan", "android": "https://dc.lft.to/lastmile_qr_scan"}, "fusion_lon": 0.0, "lon": -77.02518183333333, "name": "2cfc53dbde9d04f6bfee87f3c7892b9d", "is_reserved": 0, "is_disabled": 0}, {"lat": 38.937583333333336, "fusion_lat": 0.0, "type": "electric_scooter", "bike_id": "2b849dec394bf8aaf902c81fb6a59ed4", "rental_uris": {"ios": "https://dc.lft.to/lastmile_qr_scan", "android": "https://dc.lft.to/lastmile_qr_scan"}, "fusion_lon": 0.0, "lon": -77.032838, "name": "2b849dec394bf8aaf902c81fb6a59ed4", "is_reserved": 0, "is_disabled": 0}, {"lat": 38.89935666666667, "fusion_lat": 0.0, "type": "electric_scooter", "bike_id": "106b4acb1f7af0d7a191f3c435e256a9", "rental_uris": {"ios": "https://dc.lft.to/lastmile_qr_scan", "android": "https://dc.lft.to/lastmile_qr_scan"}, "fusion_lon": 0.0, "lon": -77.04090833333333, "name": "106b4acb1f7af0d7a191f3c435e256a9", "is_reserved": 0, "is_disabled": 0}, {"lat": 38.88125633333333, "fusion_lat": 0.0, "type": "electric_scooter", "bike_id": "fd7e6c348d17638c316d59e3616aff7d", "rental_uris": {"ios": "https://dc.lft.to/lastmile_qr_scan", "android": "https://dc.lft.to/lastmile_qr_scan"}, "fusion_lon": 0.0, "lon": -77.00135766666666, "name": "fd7e6c348d17638c316d59e3616aff7d", "is_reserved": 0, "is_disabled": 0}, {"lat": 38.91698, "fusion_lat": 0.0, "type": "electric_scooter", "bike_id": "aeae91e6a457165848aba2afe938f2ae", "rental_uris": {"ios": "https://dc.lft.to/lastmile_qr_scan", "android": "https://dc.lft.to/lastmile_qr_scan"}, "fusion_lon": 0.0, "lon": -77.031521, "name": "aeae91e6a457165848aba2afe938f2ae", "is_reserved": 0, "is_disabled": 0}, {"lat": 38.92005316666667, "fusion_lat": 0.0, "type": "electric_scooter", "bike_id": "f2c3135697fc250275c01c2f546f3e8c", "rental_uris": {"ios": "https://dc.lft.to/lastmile_qr_scan", "android": "https://dc.lft.to/lastmile_qr_scan"}, "fusion_lon": 0.0, "lon": -77.02408566666666, "name": "f2c3135697fc250275c01c2f546f3e8c", "is_reserved": 0, "is_disabled": 0}, {"lat": 38.901974333333335, "fusion_lat": 0.0, "type": "electric_scooter", "bike_id": "00b5bee96c2bdb7729789a84031dee70", "rental_uris": {"ios": "https://dc.lft.to/lastmile_qr_scan", "android": "https://dc.lft.to/lastmile_qr_scan"}, "fusion_lon": 0.0, "lon": -77.02203633333333, "name": "00b5bee96c2bdb7729789a84031dee70", "is_reserved": 0, "is_disabled": 0}, {"lat": 38.917688, "fusion_lat": 0.0, "type": "electric_scooter", "bike_id": "e7fb4877d529b11f65b1222a09451646", "rental_uris": {"ios": "https://dc.lft.to/lastmile_qr_scan", "android": "https://dc.lft.to/lastmile_qr_scan"}, "fusion_lon": 0.0, "lon": -77.04063133333334, "name": "e7fb4877d529b11f65b1222a09451646", "is_reserved": 0, "is_disabled": 0}, {"lat": 38.92525766666667, "fusion_lat": 0.0, "type": "electric_scooter", "bike_id": "4980fecd26eaaaa8a07efdb891ca3d34", "rental_uris": {"ios": "https://dc.lft.to/lastmile_qr_scan", "android": "https://dc.lft.to/lastmile_qr_scan"}, "fusion_lon": 0.0, "lon": -76.99641383333334, "name": "4980fecd26eaaaa8a07efdb891ca3d34", "is_reserved": 0, "is_disabled": 0}, {"lat": 38.8665735, "fusion_lat": 0.0, "type": "electric_scooter", "bike_id": "37dbafcc881a752698bbe4c8148f2edd", "rental_uris": {"ios": "https://dc.lft.to/lastmile_qr_scan", "android": "https://dc.lft.to/lastmile_qr_scan"}, "fusion_lon": 0.0, "lon": -76.98897516666666, "name": "37dbafcc881a752698bbe4c8148f2edd", "is_reserved": 0, "is_disabled": 0}, {"lat": 38.934700166666666, "fusion_lat": 0.0, "type": "electric_scooter", "bike_id": "2e8b6d937c589f1f86f77fe3153d6c38", "rental_uris": {"ios": "https://dc.lft.to/lastmile_qr_scan", "android": "https://dc.lft.to/lastmile_qr_scan"}, "fusion_lon": 0.0, "lon": -77.0414385, "name": "2e8b6d937c589f1f86f77fe3153d6c38", "is_reserved": 0, "is_disabled": 0}, {"lat": 38.93308833333333, "fusion_lat": 0.0, "type": "electric_scooter", "bike_id": "d82e1dec187b261e5742fee747655101", "rental_uris": {"ios": "https://dc.lft.to/lastmile_qr_scan", "android": "https://dc.lft.to/lastmile_qr_scan"}, "fusion_lon": 0.0, "lon": -77.03266983333333, "name": "d82e1dec187b261e5742fee747655101", "is_reserved": 0, "is_disabled": 0}, {"lat": 38.885140666666665, "fusion_lat": 0.0, "type": "electric_scooter", "bike_id": "7a09501f0c4cfe56830f089f2a73d090", "rental_uris": {"ios": "https://dc.lft.to/lastmile_qr_scan", "android": "https://dc.lft.to/lastmile_qr_scan"}, "fusion_lon": 0.0, "lon": -76.952596, "name": "7a09501f0c4cfe56830f089f2a73d090", "is_reserved": 0, "is_disabled": 0}, {"lat": 38.899482666666664, "fusion_lat": 0.0, "type": "electric_scooter", "bike_id": "4d9933ca29116851bd89bfe1732fd717", "rental_uris": {"ios": "https://dc.lft.to/lastmile_qr_scan", "android": "https://dc.lft.to/lastmile_qr_scan"}, "fusion_lon": 0.0, "lon": -77.04012983333334, "name": "4d9933ca29116851bd89bfe1732fd717", "is_reserved": 0, "is_disabled": 0}, {"lat": 38.92079, "fusion_lat": 0.0, "type": "electric_scooter", "bike_id": "d0a4684d26c6b3d36a9fb74199eb3f70", "rental_uris": {"ios": "https://dc.lft.to/lastmile_qr_scan", "android": "https://dc.lft.to/lastmile_qr_scan"}, "fusion_lon": 0.0, "lon": -77.02511233333334, "name": "d0a4684d26c6b3d36a9fb74199eb3f70", "is_reserved": 0, "is_disabled": 0}, {"lat": 38.92467833333333, "fusion_lat": 0.0, "type": "electric_scooter", "bike_id": "9c218471c59cc2d850a0eb85e90aeb3b", "rental_uris": {"ios": "https://dc.lft.to/lastmile_qr_scan", "android": "https://dc.lft.to/lastmile_qr_scan"}, "fusion_lon": 0.0, "lon": -77.04021933333334, "name": "9c218471c59cc2d850a0eb85e90aeb3b", "is_reserved": 0, "is_disabled": 0}, {"lat": 38.92935283333333, "fusion_lat": 0.0, "type": "electric_scooter", "bike_id": "0775f71c688ded4d65c76e3509454800", "rental_uris": {"ios": "https://dc.lft.to/lastmile_qr_scan", "android": "https://dc.lft.to/lastmile_qr_scan"}, "fusion_lon": 0.0, "lon": -77.032593, "name": "0775f71c688ded4d65c76e3509454800", "is_reserved": 0, "is_disabled": 0}, {"lat": 38.89605266666667, "fusion_lat": 0.0, "type": "electric_scooter", "bike_id": "150fe565b39d9b4791d401764c1976b6", "rental_uris": {"ios": "https://dc.lft.to/lastmile_qr_scan", "android": "https://dc.lft.to/lastmile_qr_scan"}, "fusion_lon": 0.0, "lon": -77.04461333333333, "name": "150fe565b39d9b4791d401764c1976b6", "is_reserved": 0, "is_disabled": 0}, {"lat": 38.91834166666666, "fusion_lat": 0.0, "type": "electric_scooter", "bike_id": "d2d7e323d86fdd3cfee7dc5aa68779b4", "rental_uris": {"ios": "https://dc.lft.to/lastmile_qr_scan", "android": "https://dc.lft.to/lastmile_qr_scan"}, "fusion_lon": 0.0, "lon": -77.05881816666667, "name": "d2d7e323d86fdd3cfee7dc5aa68779b4", "is_reserved": 0, "is_disabled": 0}, {"lat": 38.94331666666667, "fusion_lat": 0.0, "type": "electric_scooter", "bike_id": "63536c80d1491e2d997d5c86f9a79006", "rental_uris": {"ios": "https://dc.lft.to/lastmile_qr_scan", "android": "https://dc.lft.to/lastmile_qr_scan"}, "fusion_lon": 0.0, "lon": -77.05951666666667, "name": "63536c80d1491e2d997d5c86f9a79006", "is_reserved": 0, "is_disabled": 0}, {"lat": 38.905004166666664, "fusion_lat": 0.0, "type": "electric_bike", "bike_id": "437ee15deefd55c7fa3a5c57f581a82f", "rental_uris": {"ios": "https://dc.lft.to/lastmile_qr_scan", "android": "https://dc.lft.to/lastmile_qr_scan"}, "fusion_lon": 0.0, "lon": -76.97444433333334, "name": "437ee15deefd55c7fa3a5c57f581a82f", "is_reserved": 0, "is_disabled": 0}, {"lat": 38.92410116666667, "fusion_lat": 0.0, "type": "electric_bike", "bike_id": "adc2f0bd3f2602ebf90b8726654186e8", "rental_uris": {"ios": "https://dc.lft.to/lastmile_qr_scan", "android": "https://dc.lft.to/lastmile_qr_scan"}, "fusion_lon": 0.0, "lon": -77.03555683333333, "name": "adc2f0bd3f2602ebf90b8726654186e8", "is_reserved": 0, "is_disabled": 0}, {"lat": 38.956271, "fusion_lat": 0.0, "type": "electric_scooter", "bike_id": "ffe3a268fd8e06553198786dd556f81b", "rental_uris": {"ios": "https://dc.lft.to/lastmile_qr_scan", "android": "https://dc.lft.to/lastmile_qr_scan"}, "fusion_lon": 0.0, "lon": -77.0283585, "name": "ffe3a268fd8e06553198786dd556f81b", "is_reserved": 0, "is_disabled": 0}, {"lat": 38.78462533333333, "fusion_lat": 0.0, "type": "electric_bike", "bike_id": "9a2a42fafd9e739b8aedd49970994f0a", "rental_uris": {"ios": "https://dc.lft.to/lastmile_qr_scan", "android": "https://dc.lft.to/lastmile_qr_scan"}, "fusion_lon": 0.0, "lon": -77.01643366666667, "name": "9a2a42fafd9e739b8aedd49970994f0a", "is_reserved": 0, "is_disabled": 0}, {"lat": 38.90863516666667, "fusion_lat": 0.0, "type": "electric_scooter", "bike_id": "cd8e33da8830d3a009149aa27cead0b4", "rental_uris": {"ios": "https://dc.lft.to/lastmile_qr_scan", "android": "https://dc.lft.to/lastmile_qr_scan"}, "fusion_lon": 0.0, "lon": -77.01870866666667, "name": "cd8e33da8830d3a009149aa27cead0b4", "is_reserved": 0, "is_disabled": 0}, {"lat": 38.88367433333333, "fusion_lat": 0.0, "type": "electric_scooter", "bike_id": "94634a499c9a6c4c4d5d692bce0e16c1", "rental_uris": {"ios": "https://dc.lft.to/lastmile_qr_scan", "android": "https://dc.lft.to/lastmile_qr_scan"}, "fusion_lon": 0.0, "lon": -76.995088, "name": "94634a499c9a6c4c4d5d692bce0e16c1", "is_reserved": 0, "is_disabled": 0}, {"lat": 38.90999733333334, "fusion_lat": 0.0, "type": "electric_scooter", "bike_id": "2712d5ff34c9ffa9e74b75375522e7d6", "rental_uris": {"ios": "https://dc.lft.to/lastmile_qr_scan", "android": "https://dc.lft.to/lastmile_qr_scan"}, "fusion_lon": 0.0, "lon": -76.98615433333333, "name": "2712d5ff34c9ffa9e74b75375522e7d6", "is_reserved": 0, "is_disabled": 0}, {"lat": 38.904701, "fusion_lat": 0.0, "type": "electric_scooter", "bike_id": "dbc5cfb14009ecd9726f50376447c5c6", "rental_uris": {"ios": "https://dc.lft.to/lastmile_qr_scan", "android": "https://dc.lft.to/lastmile_qr_scan"}, "fusion_lon": 0.0, "lon": -77.02938516666667, "name": "dbc5cfb14009ecd9726f50376447c5c6", "is_reserved": 0, "is_disabled": 0}, {"lat": 38.919293333333336, "fusion_lat": 0.0, "type": "electric_scooter", "bike_id": "bd50327bec40be54513903608e3d9be0", "rental_uris": {"ios": "https://dc.lft.to/lastmile_qr_scan", "android": "https://dc.lft.to/lastmile_qr_scan"}, "fusion_lon": 0.0, "lon": -77.04478433333334, "name": "bd50327bec40be54513903608e3d9be0", "is_reserved": 0, "is_disabled": 0}, {"lat": 38.92355633333333, "fusion_lat": 0.0, "type": "electric_scooter", "bike_id": "6be1d453109ef593d3580d725ba2e530", "rental_uris": {"ios": "https://dc.lft.to/lastmile_qr_scan", "android": "https://dc.lft.to/lastmile_qr_scan"}, "fusion_lon": 0.0, "lon": -77.05426966666667, "name": "6be1d453109ef593d3580d725ba2e530", "is_reserved": 0, "is_disabled": 0}, {"lat": 38.940227666666665, "fusion_lat": 0.0, "type": "electric_bike", "bike_id": "66a276cd1f155294df8d59b8ec85273f", "rental_uris": {"ios": "https://dc.lft.to/lastmile_qr_scan", "android": "https://dc.lft.to/lastmile_qr_scan"}, "fusion_lon": 0.0, "lon": -76.97610433333334, "name": "66a276cd1f155294df8d59b8ec85273f", "is_reserved": 0, "is_disabled": 0}, {"lat": 38.914902, "fusion_lat": 0.0, "type": "electric_scooter", "bike_id": "759561ad7a3ac879b00520b863f6d71e", "rental_uris": {"ios": "https://dc.lft.to/lastmile_qr_scan", "android": "https://dc.lft.to/lastmile_qr_scan"}, "fusion_lon": 0.0, "lon": -77.04257066666666, "name": "759561ad7a3ac879b00520b863f6d71e", "is_reserved": 0, "is_disabled": 0}, {"lat": 38.891846666666666, "fusion_lat": 0.0, "type": "electric_scooter", "bike_id": "9cc57fa1375cb6f90dbdacbb809fd6a5", "rental_uris": {"ios": "https://dc.lft.to/lastmile_qr_scan", "android": "https://dc.lft.to/lastmile_qr_scan"}, "fusion_lon": 0.0, "lon": -77.00335433333333, "name": "9cc57fa1375cb6f90dbdacbb809fd6a5", "is_reserved": 0, "is_disabled": 0}, {"lat": 38.92340183333334, "fusion_lat": 0.0, "type": "electric_scooter", "bike_id": "22e4cbd1d9be872a4ee1b19021cf58f1", "rental_uris": {"ios": "https://dc.lft.to/lastmile_qr_scan", "android": "https://dc.lft.to/lastmile_qr_scan"}, "fusion_lon": 0.0, "lon": -77.0473905, "name": "22e4cbd1d9be872a4ee1b19021cf58f1", "is_reserved": 0, "is_disabled": 0}, {"lat": 38.927430333333334, "fusion_lat": 0.0, "type": "electric_scooter", "bike_id": "d647357f24745d4dbfe5d60ee2026915", "rental_uris": {"ios": "https://dc.lft.to/lastmile_qr_scan", "android": "https://dc.lft.to/lastmile_qr_scan"}, "fusion_lon": 0.0, "lon": -76.9955995, "name": "d647357f24745d4dbfe5d60ee2026915", "is_reserved": 0, "is_disabled": 0}, {"lat": 38.926576, "fusion_lat": 0.0, "type": "electric_scooter", "bike_id": "e0ac38cc295dc9cc23283bf4b58e9bdf", "rental_uris": {"ios": "https://dc.lft.to/lastmile_qr_scan", "android": "https://dc.lft.to/lastmile_qr_scan"}, "fusion_lon": 0.0, "lon": -77.04313816666667, "name": "e0ac38cc295dc9cc23283bf4b58e9bdf", "is_reserved": 0, "is_disabled": 0}, {"lat": 38.93376133333334, "fusion_lat": 0.0, "type": "electric_scooter", "bike_id": "a883475fe3b076e2ec331c9dc0a0f7c6", "rental_uris": {"ios": "https://dc.lft.to/lastmile_qr_scan", "android": "https://dc.lft.to/lastmile_qr_scan"}, "fusion_lon": 0.0, "lon": -77.05761166666667, "name": "a883475fe3b076e2ec331c9dc0a0f7c6", "is_reserved": 0, "is_disabled": 0}, {"lat": 38.917691833333336, "fusion_lat": 0.0, "type": "electric_scooter", "bike_id": "be23cd7f9f4c90009907a4bc506f6f65", "rental_uris": {"ios": "https://dc.lft.to/lastmile_qr_scan", "android": "https://dc.lft.to/lastmile_qr_scan"}, "fusion_lon": 0.0, "lon": -77.0477015, "name": "be23cd7f9f4c90009907a4bc506f6f65", "is_reserved": 0, "is_disabled": 0}, {"lat": 38.887321666666665, "fusion_lat": 0.0, "type": "electric_scooter", "bike_id": "8a5b6a023e406f35464d435cb19b0120", "rental_uris": {"ios": "https://dc.lft.to/lastmile_qr_scan", "android": "https://dc.lft.to/lastmile_qr_scan"}, "fusion_lon": 0.0, "lon": -77.02826183333333, "name": "8a5b6a023e406f35464d435cb19b0120", "is_reserved": 0, "is_disabled": 0}, {"lat": 38.897318166666665, "fusion_lat": 0.0, "type": "electric_scooter", "bike_id": "c0c958349e6a46916d24adca0f978f9e", "rental_uris": {"ios": "https://dc.lft.to/lastmile_qr_scan", "android": "https://dc.lft.to/lastmile_qr_scan"}, "fusion_lon": 0.0, "lon": -77.05522916666666, "name": "c0c958349e6a46916d24adca0f978f9e", "is_reserved": 0, "is_disabled": 0}, {"lat": 38.876485, "fusion_lat": 0.0, "type": "electric_scooter", "bike_id": "db80715992030e07de141ef05da99f3f", "rental_uris": {"ios": "https://dc.lft.to/lastmile_qr_scan", "android": "https://dc.lft.to/lastmile_qr_scan"}, "fusion_lon": 0.0, "lon": -77.00302483333333, "name": "db80715992030e07de141ef05da99f3f", "is_reserved": 0, "is_disabled": 0}, {"lat": 38.84758, "fusion_lat": 0.0, "type": "electric_scooter", "bike_id": "3fb4a5ee48f5d83996a78821c8115f78", "rental_uris": {"ios": "https://dc.lft.to/lastmile_qr_scan", "android": "https://dc.lft.to/lastmile_qr_scan"}, "fusion_lon": 0.0, "lon": -76.99501433333333, "name": "3fb4a5ee48f5d83996a78821c8115f78", "is_reserved": 0, "is_disabled": 0}, {"lat": 38.958362, "fusion_lat": 0.0, "type": "electric_scooter", "bike_id": "daa571d161499fecccad5e9d9a3c8bc5", "rental_uris": {"ios": "https://dc.lft.to/lastmile_qr_scan", "android": "https://dc.lft.to/lastmile_qr_scan"}, "fusion_lon": 0.0, "lon": -77.001634, "name": "daa571d161499fecccad5e9d9a3c8bc5", "is_reserved": 0, "is_disabled": 0}, {"lat": 38.916659333333335, "fusion_lat": 0.0, "type": "electric_scooter", "bike_id": "ba77866904ec8af65fdf5da853ffaf18", "rental_uris": {"ios": "https://dc.lft.to/lastmile_qr_scan", "android": "https://dc.lft.to/lastmile_qr_scan"}, "fusion_lon": 0.0, "lon": -77.030005, "name": "ba77866904ec8af65fdf5da853ffaf18", "is_reserved": 0, "is_disabled": 0}, {"lat": 38.879256833333336, "fusion_lat": 0.0, "type": "electric_scooter", "bike_id": "5ce5cfe997c26fcc5b4276cae3b642ce", "rental_uris": {"ios": "https://dc.lft.to/lastmile_qr_scan", "android": "https://dc.lft.to/lastmile_qr_scan"}, "fusion_lon": 0.0, "lon": -77.0052425, "name": "5ce5cfe997c26fcc5b4276cae3b642ce", "is_reserved": 0, "is_disabled": 0}, {"lat": 38.918896333333336, "fusion_lat": 0.0, "type": "electric_scooter", "bike_id": "3bb7bd864d454669fc61ee28796a69f5", "rental_uris": {"ios": "https://dc.lft.to/lastmile_qr_scan", "android": "https://dc.lft.to/lastmile_qr_scan"}, "fusion_lon": 0.0, "lon": -77.021876, "name": "3bb7bd864d454669fc61ee28796a69f5", "is_reserved": 0, "is_disabled": 0}, {"lat": 38.9231585, "fusion_lat": 0.0, "type": "electric_scooter", "bike_id": "0ac54c830d9ac9129ddfecd236764920", "rental_uris": {"ios": "https://dc.lft.to/lastmile_qr_scan", "android": "https://dc.lft.to/lastmile_qr_scan"}, "fusion_lon": 0.0, "lon": -77.038058, "name": "0ac54c830d9ac9129ddfecd236764920", "is_reserved": 0, "is_disabled": 0}, {"lat": 38.91664883333333, "fusion_lat": 0.0, "type": "electric_scooter", "bike_id": "7a4ffae1662f7c5549aa78e67db0e90a", "rental_uris": {"ios": "https://dc.lft.to/lastmile_qr_scan", "android": "https://dc.lft.to/lastmile_qr_scan"}, "fusion_lon": 0.0, "lon": -77.03851416666667, "name": "7a4ffae1662f7c5549aa78e67db0e90a", "is_reserved": 0, "is_disabled": 0}, {"lat": 38.8598725, "fusion_lat": 0.0, "type": "electric_scooter", "bike_id": "a4b72157d48769af986a9425b5dc6742", "rental_uris": {"ios": "https://dc.lft.to/lastmile_qr_scan", "android": "https://dc.lft.to/lastmile_qr_scan"}, "fusion_lon": 0.0, "lon": -76.99652383333333, "name": "a4b72157d48769af986a9425b5dc6742", "is_reserved": 0, "is_disabled": 0}, {"lat": 38.89807616666667, "fusion_lat": 0.0, "type": "electric_scooter", "bike_id": "241fffb8596e5676da183b551a7fa07d", "rental_uris": {"ios": "https://dc.lft.to/lastmile_qr_scan", "android": "https://dc.lft.to/lastmile_qr_scan"}, "fusion_lon": 0.0, "lon": -77.03340866666667, "name": "241fffb8596e5676da183b551a7fa07d", "is_reserved": 0, "is_disabled": 0}, {"lat": 38.910685666666666, "fusion_lat": 0.0, "type": "electric_scooter", "bike_id": "5d7fd2aded9d15a31ac8cf706f881207", "rental_uris": {"ios": "https://dc.lft.to/lastmile_qr_scan", "android": "https://dc.lft.to/lastmile_qr_scan"}, "fusion_lon": 0.0, "lon": -77.0045955, "name": "5d7fd2aded9d15a31ac8cf706f881207", "is_reserved": 0, "is_disabled": 0}, {"lat": 38.903675166666666, "fusion_lat": 0.0, "type": "electric_scooter", "bike_id": "e4ae61dc02a97d501af518c8ff82d853", "rental_uris": {"ios": "https://dc.lft.to/lastmile_qr_scan", "android": "https://dc.lft.to/lastmile_qr_scan"}, "fusion_lon": 0.0, "lon": -77.00748916666667, "name": "e4ae61dc02a97d501af518c8ff82d853", "is_reserved": 0, "is_disabled": 0}, {"lat": 38.89444, "fusion_lat": 0.0, "type": "electric_scooter", "bike_id": "89dce4dfb532f1ff5f3b19400e6073e2", "rental_uris": {"ios": "https://dc.lft.to/lastmile_qr_scan", "android": "https://dc.lft.to/lastmile_qr_scan"}, "fusion_lon": 0.0, "lon": -76.978193, "name": "89dce4dfb532f1ff5f3b19400e6073e2", "is_reserved": 0, "is_disabled": 0}, {"lat": 38.91937883333333, "fusion_lat": 0.0, "type": "electric_scooter", "bike_id": "a469c3ff015d44308a51429a5a9e7575", "rental_uris": {"ios": "https://dc.lft.to/lastmile_qr_scan", "android": "https://dc.lft.to/lastmile_qr_scan"}, "fusion_lon": 0.0, "lon": -77.02590416666666, "name": "a469c3ff015d44308a51429a5a9e7575", "is_reserved": 0, "is_disabled": 0}, {"lat": 38.921001833333335, "fusion_lat": 0.0, "type": "electric_scooter", "bike_id": "222625dc4766ed2595c59502d6be82da", "rental_uris": {"ios": "https://dc.lft.to/lastmile_qr_scan", "android": "https://dc.lft.to/lastmile_qr_scan"}, "fusion_lon": 0.0, "lon": -77.031779, "name": "222625dc4766ed2595c59502d6be82da", "is_reserved": 0, "is_disabled": 0}, {"lat": 38.92548083333333, "fusion_lat": 0.0, "type": "electric_scooter", "bike_id": "880d02d4aa8e3819ccbd8b754359b907", "rental_uris": {"ios": "https://dc.lft.to/lastmile_qr_scan", "android": "https://dc.lft.to/lastmile_qr_scan"}, "fusion_lon": 0.0, "lon": -77.02281983333333, "name": "880d02d4aa8e3819ccbd8b754359b907", "is_reserved": 0, "is_disabled": 0}, {"lat": 38.9119225, "fusion_lat": 0.0, "type": "electric_scooter", "bike_id": "b6e090b16193ae4a7a5538f7616b1f22", "rental_uris": {"ios": "https://dc.lft.to/lastmile_qr_scan", "android": "https://dc.lft.to/lastmile_qr_scan"}, "fusion_lon": 0.0, "lon": -77.0046325, "name": "b6e090b16193ae4a7a5538f7616b1f22", "is_reserved": 0, "is_disabled": 0}, {"lat": 38.9125755, "fusion_lat": 0.0, "type": "electric_scooter", "bike_id": "8928b8f530dd8f692760c81578140727", "rental_uris": {"ios": "https://dc.lft.to/lastmile_qr_scan", "android": "https://dc.lft.to/lastmile_qr_scan"}, "fusion_lon": 0.0, "lon": -77.04028816666667, "name": "8928b8f530dd8f692760c81578140727", "is_reserved": 0, "is_disabled": 0}, {"lat": 38.908477833333336, "fusion_lat": 0.0, "type": "electric_scooter", "bike_id": "3d7ba4f34a13c49728444fc3550cab95", "rental_uris": {"ios": "https://dc.lft.to/lastmile_qr_scan", "android": "https://dc.lft.to/lastmile_qr_scan"}, "fusion_lon": 0.0, "lon": -77.038656, "name": "3d7ba4f34a13c49728444fc3550cab95", "is_reserved": 0, "is_disabled": 0}, {"lat": 38.91807516666667, "fusion_lat": 0.0, "type": "electric_scooter", "bike_id": "ef47021107f7beba7fa79c0d5c58f29b", "rental_uris": {"ios": "https://dc.lft.to/lastmile_qr_scan", "android": "https://dc.lft.to/lastmile_qr_scan"}, "fusion_lon": 0.0, "lon": -77.03427566666667, "name": "ef47021107f7beba7fa79c0d5c58f29b", "is_reserved": 0, "is_disabled": 0}, {"lat": 38.90253533333333, "fusion_lat": 0.0, "type": "electric_scooter", "bike_id": "bd57ecb963ceaa6ea251e1111ee96b45", "rental_uris": {"ios": "https://dc.lft.to/lastmile_qr_scan", "android": "https://dc.lft.to/lastmile_qr_scan"}, "fusion_lon": 0.0, "lon": -76.97922416666667, "name": "bd57ecb963ceaa6ea251e1111ee96b45", "is_reserved": 0, "is_disabled": 0}, {"lat": 38.924612, "fusion_lat": 0.0, "type": "electric_scooter", "bike_id": "789c64aec448b35e4499f31fad5cbf0d", "rental_uris": {"ios": "https://dc.lft.to/lastmile_qr_scan", "android": "https://dc.lft.to/lastmile_qr_scan"}, "fusion_lon": 0.0, "lon": -77.04029433333334, "name": "789c64aec448b35e4499f31fad5cbf0d", "is_reserved": 0, "is_disabled": 0}, {"lat": 38.9089265, "fusion_lat": 0.0, "type": "electric_scooter", "bike_id": "8f8cd282a6a641ca7b7892121babb062", "rental_uris": {"ios": "https://dc.lft.to/lastmile_qr_scan", "android": "https://dc.lft.to/lastmile_qr_scan"}, "fusion_lon": 0.0, "lon": -77.04409366666667, "name": "8f8cd282a6a641ca7b7892121babb062", "is_reserved": 0, "is_disabled": 0}, {"lat": 38.88824966666667, "fusion_lat": 0.0, "type": "electric_scooter", "bike_id": "76a45e9e6af6c862b5198f7e8b244ed7", "rental_uris": {"ios": "https://dc.lft.to/lastmile_qr_scan", "android": "https://dc.lft.to/lastmile_qr_scan"}, "fusion_lon": 0.0, "lon": -76.97721433333334, "name": "76a45e9e6af6c862b5198f7e8b244ed7", "is_reserved": 0, "is_disabled": 0}, {"lat": 38.925512499999996, "fusion_lat": 0.0, "type": "electric_scooter", "bike_id": "005830362de9efbb20367b03e71ea5aa", "rental_uris": {"ios": "https://dc.lft.to/lastmile_qr_scan", "android": "https://dc.lft.to/lastmile_qr_scan"}, "fusion_lon": 0.0, "lon": -77.0385835, "name": "005830362de9efbb20367b03e71ea5aa", "is_reserved": 0, "is_disabled": 0}, {"lat": 38.9560035, "fusion_lat": 0.0, "type": "electric_bike", "bike_id": "3650922efc735471457b3de4e27b3b0d", "rental_uris": {"ios": "https://dc.lft.to/lastmile_qr_scan", "android": "https://dc.lft.to/lastmile_qr_scan"}, "fusion_lon": 0.0, "lon": -77.010131, "name": "3650922efc735471457b3de4e27b3b0d", "is_reserved": 0, "is_disabled": 0}, {"lat": 38.909621666666666, "fusion_lat": 0.0, "type": "electric_scooter", "bike_id": "cb3d8d8d32fc6b8b7acb78b94644583d", "rental_uris": {"ios": "https://dc.lft.to/lastmile_qr_scan", "android": "https://dc.lft.to/lastmile_qr_scan"}, "fusion_lon": 0.0, "lon": -77.03311966666666, "name": "cb3d8d8d32fc6b8b7acb78b94644583d", "is_reserved": 0, "is_disabled": 0}, {"lat": 38.92327383333333, "fusion_lat": 0.0, "type": "electric_scooter", "bike_id": "263094bfe6727ef41424395d12d23516", "rental_uris": {"ios": "https://dc.lft.to/lastmile_qr_scan", "android": "https://dc.lft.to/lastmile_qr_scan"}, "fusion_lon": 0.0, "lon": -77.03051016666667, "name": "263094bfe6727ef41424395d12d23516", "is_reserved": 0, "is_disabled": 0}, {"lat": 38.9071975, "fusion_lat": 0.0, "type": "electric_scooter", "bike_id": "f5eaf158e26a3901ebc9ea35a04a5e8c", "rental_uris": {"ios": "https://dc.lft.to/lastmile_qr_scan", "android": "https://dc.lft.to/lastmile_qr_scan"}, "fusion_lon": 0.0, "lon": -77.0760975, "name": "f5eaf158e26a3901ebc9ea35a04a5e8c", "is_reserved": 0, "is_disabled": 0}, {"lat": 38.90736, "fusion_lat": 0.0, "type": "electric_scooter", "bike_id": "444a410a3ac635d17c10b33e52000621", "rental_uris": {"ios": "https://dc.lft.to/lastmile_qr_scan", "android": "https://dc.lft.to/lastmile_qr_scan"}, "fusion_lon": 0.0, "lon": -77.01308583333334, "name": "444a410a3ac635d17c10b33e52000621", "is_reserved": 0, "is_disabled": 0}, {"lat": 38.89810416666667, "fusion_lat": 0.0, "type": "electric_scooter", "bike_id": "b7ea405986691cec15c7334ab84106a7", "rental_uris": {"ios": "https://dc.lft.to/lastmile_qr_scan", "android": "https://dc.lft.to/lastmile_qr_scan"}, "fusion_lon": 0.0, "lon": -76.9471565, "name": "b7ea405986691cec15c7334ab84106a7", "is_reserved": 0, "is_disabled": 0}, {"lat": 38.934718333333336, "fusion_lat": 0.0, "type": "electric_scooter", "bike_id": "e9b975cc13ec2c09877efe52eb0a903e", "rental_uris": {"ios": "https://dc.lft.to/lastmile_qr_scan", "android": "https://dc.lft.to/lastmile_qr_scan"}, "fusion_lon": 0.0, "lon": -77.07279166666666, "name": "e9b975cc13ec2c09877efe52eb0a903e", "is_reserved": 0, "is_disabled": 0}, {"lat": 38.89696, "fusion_lat": 0.0, "type": "electric_bike", "bike_id": "60dcec88a9d6c27da8324f1a7ab87bec", "rental_uris": {"ios": "https://dc.lft.to/lastmile_qr_scan", "android": "https://dc.lft.to/lastmile_qr_scan"}, "fusion_lon": 0.0, "lon": -76.963066, "name": "60dcec88a9d6c27da8324f1a7ab87bec", "is_reserved": 0, "is_disabled": 0}, {"lat": 38.8996245, "fusion_lat": 0.0, "type": "electric_scooter", "bike_id": "f072912cf1103e524d121074d016796c", "rental_uris": {"ios": "https://dc.lft.to/lastmile_qr_scan", "android": "https://dc.lft.to/lastmile_qr_scan"}, "fusion_lon": 0.0, "lon": -77.04650583333333, "name": "f072912cf1103e524d121074d016796c", "is_reserved": 0, "is_disabled": 0}, {"lat": 38.916816833333336, "fusion_lat": 0.0, "type": "electric_scooter", "bike_id": "74e25781e49b55be87db359ede582cbb", "rental_uris": {"ios": "https://dc.lft.to/lastmile_qr_scan", "android": "https://dc.lft.to/lastmile_qr_scan"}, "fusion_lon": 0.0, "lon": -77.0296255, "name": "74e25781e49b55be87db359ede582cbb", "is_reserved": 0, "is_disabled": 0}, {"lat": 38.86953666666667, "fusion_lat": 0.0, "type": "electric_scooter", "bike_id": "8e86ff1c5ea8b6f91373dc8821712c53", "rental_uris": {"ios": "https://dc.lft.to/lastmile_qr_scan", "android": "https://dc.lft.to/lastmile_qr_scan"}, "fusion_lon": 0.0, "lon": -77.10067683333334, "name": "8e86ff1c5ea8b6f91373dc8821712c53", "is_reserved": 0, "is_disabled": 0}, {"lat": 38.889385833333336, "fusion_lat": 0.0, "type": "electric_scooter", "bike_id": "4d22c9cd370ae4216656287f7577682d", "rental_uris": {"ios": "https://dc.lft.to/lastmile_qr_scan", "android": "https://dc.lft.to/lastmile_qr_scan"}, "fusion_lon": 0.0, "lon": -76.99371533333333, "name": "4d22c9cd370ae4216656287f7577682d", "is_reserved": 0, "is_disabled": 0}, {"lat": 38.924434166666664, "fusion_lat": 0.0, "type": "electric_scooter", "bike_id": "6bd0ea39325df8a7f21969951a666f74", "rental_uris": {"ios": "https://dc.lft.to/lastmile_qr_scan", "android": "https://dc.lft.to/lastmile_qr_scan"}, "fusion_lon": 0.0, "lon": -77.02029266666666, "name": "6bd0ea39325df8a7f21969951a666f74", "is_reserved": 0, "is_disabled": 0}, {"lat": 38.88727183333334, "fusion_lat": 0.0, "type": "electric_scooter", "bike_id": "9427089a6107b51cf6ec325ee8cb5002", "rental_uris": {"ios": "https://dc.lft.to/lastmile_qr_scan", "android": "https://dc.lft.to/lastmile_qr_scan"}, "fusion_lon": 0.0, "lon": -77.0220335, "name": "9427089a6107b51cf6ec325ee8cb5002", "is_reserved": 0, "is_disabled": 0}, {"lat": 38.93253266666667, "fusion_lat": 0.0, "type": "electric_scooter", "bike_id": "4c1cdc27915568697b93892d40e41b9e", "rental_uris": {"ios": "https://dc.lft.to/lastmile_qr_scan", "android": "https://dc.lft.to/lastmile_qr_scan"}, "fusion_lon": 0.0, "lon": -77.02947116666667, "name": "4c1cdc27915568697b93892d40e41b9e", "is_reserved": 0, "is_disabled": 0}, {"lat": 38.90025283333333, "fusion_lat": 0.0, "type": "electric_scooter", "bike_id": "9a5ee0b8004613468b1ed34aaaf91558", "rental_uris": {"ios": "https://dc.lft.to/lastmile_qr_scan", "android": "https://dc.lft.to/lastmile_qr_scan"}, "fusion_lon": 0.0, "lon": -77.02910066666666, "name": "9a5ee0b8004613468b1ed34aaaf91558", "is_reserved": 0, "is_disabled": 0}, {"lat": 38.924483, "fusion_lat": 0.0, "type": "electric_scooter", "bike_id": "35452d89ce20d95b382f82394d2b14a8", "rental_uris": {"ios": "https://dc.lft.to/lastmile_qr_scan", "android": "https://dc.lft.to/lastmile_qr_scan"}, "fusion_lon": 0.0, "lon": -76.9898605, "name": "35452d89ce20d95b382f82394d2b14a8", "is_reserved": 0, "is_disabled": 0}, {"lat": 38.9309685, "fusion_lat": 0.0, "type": "electric_scooter", "bike_id": "5b29d1e247302643f9805871d4b1aaf1", "rental_uris": {"ios": "https://dc.lft.to/lastmile_qr_scan", "android": "https://dc.lft.to/lastmile_qr_scan"}, "fusion_lon": 0.0, "lon": -77.02548833333333, "name": "5b29d1e247302643f9805871d4b1aaf1", "is_reserved": 0, "is_disabled": 0}, {"lat": 38.8474025, "fusion_lat": 0.0, "type": "electric_scooter", "bike_id": "f8515985b9c70fccaad61f1343159a8c", "rental_uris": {"ios": "https://dc.lft.to/lastmile_qr_scan", "android": "https://dc.lft.to/lastmile_qr_scan"}, "fusion_lon": 0.0, "lon": -76.995113, "name": "f8515985b9c70fccaad61f1343159a8c", "is_reserved": 0, "is_disabled": 0}, {"lat": 38.90808766666667, "fusion_lat": 0.0, "type": "electric_scooter", "bike_id": "02af3abd44e13af60ec7029a0159dcff", "rental_uris": {"ios": "https://dc.lft.to/lastmile_qr_scan", "android": "https://dc.lft.to/lastmile_qr_scan"}, "fusion_lon": 0.0, "lon": -77.02533966666667, "name": "02af3abd44e13af60ec7029a0159dcff", "is_reserved": 0, "is_disabled": 0}, {"lat": 38.91155166666667, "fusion_lat": 0.0, "type": "electric_scooter", "bike_id": "6576c945aefc8b259e83860082ebc6fa", "rental_uris": {"ios": "https://dc.lft.to/lastmile_qr_scan", "android": "https://dc.lft.to/lastmile_qr_scan"}, "fusion_lon": 0.0, "lon": -77.00876866666667, "name": "6576c945aefc8b259e83860082ebc6fa", "is_reserved": 0, "is_disabled": 0}, {"lat": 38.925935, "fusion_lat": 0.0, "type": "electric_scooter", "bike_id": "1a536da8ef0e94c7a1dba734757d2502", "rental_uris": {"ios": "https://dc.lft.to/lastmile_qr_scan", "android": "https://dc.lft.to/lastmile_qr_scan"}, "fusion_lon": 0.0, "lon": -77.03532616666666, "name": "1a536da8ef0e94c7a1dba734757d2502", "is_reserved": 0, "is_disabled": 0}, {"lat": 38.88730316666667, "fusion_lat": 0.0, "type": "electric_scooter", "bike_id": "9865e63ee5cb7eb7746c4bbaf9a4e305", "rental_uris": {"ios": "https://dc.lft.to/lastmile_qr_scan", "android": "https://dc.lft.to/lastmile_qr_scan"}, "fusion_lon": 0.0, "lon": -77.02382233333333, "name": "9865e63ee5cb7eb7746c4bbaf9a4e305", "is_reserved": 0, "is_disabled": 0}, {"lat": 38.90724783333334, "fusion_lat": 0.0, "type": "electric_scooter", "bike_id": "f8a8b4c7021b7858358578246d3dae32", "rental_uris": {"ios": "https://dc.lft.to/lastmile_qr_scan", "android": "https://dc.lft.to/lastmile_qr_scan"}, "fusion_lon": 0.0, "lon": -77.029688, "name": "f8a8b4c7021b7858358578246d3dae32", "is_reserved": 0, "is_disabled": 0}, {"lat": 38.891990166666666, "fusion_lat": 0.0, "type": "electric_scooter", "bike_id": "b5a9cd323c7572265050529ccab705d8", "rental_uris": {"ios": "https://dc.lft.to/lastmile_qr_scan", "android": "https://dc.lft.to/lastmile_qr_scan"}, "fusion_lon": 0.0, "lon": -77.023759, "name": "b5a9cd323c7572265050529ccab705d8", "is_reserved": 0, "is_disabled": 0}, {"lat": 38.89613833333333, "fusion_lat": 0.0, "type": "electric_scooter", "bike_id": "f248c65dad6fc1068588ded785c2a4af", "rental_uris": {"ios": "https://dc.lft.to/lastmile_qr_scan", "android": "https://dc.lft.to/lastmile_qr_scan"}, "fusion_lon": 0.0, "lon": -77.009262, "name": "f248c65dad6fc1068588ded785c2a4af", "is_reserved": 0, "is_disabled": 0}, {"lat": 38.95674416666667, "fusion_lat": 0.0, "type": "electric_scooter", "bike_id": "ee99d52c33f518e2c80e5a933575d44d", "rental_uris": {"ios": "https://dc.lft.to/lastmile_qr_scan", "android": "https://dc.lft.to/lastmile_qr_scan"}, "fusion_lon": 0.0, "lon": -77.01361066666666, "name": "ee99d52c33f518e2c80e5a933575d44d", "is_reserved": 0, "is_disabled": 0}, {"lat": 38.920505166666665, "fusion_lat": 0.0, "type": "electric_scooter", "bike_id": "40bf5d6b63176e4d1099eb3ade52a9e9", "rental_uris": {"ios": "https://dc.lft.to/lastmile_qr_scan", "android": "https://dc.lft.to/lastmile_qr_scan"}, "fusion_lon": 0.0, "lon": -77.04109066666666, "name": "40bf5d6b63176e4d1099eb3ade52a9e9", "is_reserved": 0, "is_disabled": 0}, {"lat": 38.89103583333333, "fusion_lat": 0.0, "type": "electric_bike", "bike_id": "639c66c98e263ecb10d378df0bb3578b", "rental_uris": {"ios": "https://dc.lft.to/lastmile_qr_scan", "android": "https://dc.lft.to/lastmile_qr_scan"}, "fusion_lon": 0.0, "lon": -76.93476783333334, "name": "639c66c98e263ecb10d378df0bb3578b", "is_reserved": 0, "is_disabled": 0}, {"lat": 38.916897666666664, "fusion_lat": 0.0, "type": "electric_scooter", "bike_id": "478b836d7b3076ddecb378d4a1023424", "rental_uris": {"ios": "https://dc.lft.to/lastmile_qr_scan", "android": "https://dc.lft.to/lastmile_qr_scan"}, "fusion_lon": 0.0, "lon": -77.02796816666667, "name": "478b836d7b3076ddecb378d4a1023424", "is_reserved": 0, "is_disabled": 0}, {"lat": 38.956546, "fusion_lat": 0.0, "type": "electric_scooter", "bike_id": "0307b4a611dbfcf66778a2b725ba2ea0", "rental_uris": {"ios": "https://dc.lft.to/lastmile_qr_scan", "android": "https://dc.lft.to/lastmile_qr_scan"}, "fusion_lon": 0.0, "lon": -77.01969483333333, "name": "0307b4a611dbfcf66778a2b725ba2ea0", "is_reserved": 0, "is_disabled": 0}, {"lat": 38.91800283333333, "fusion_lat": 0.0, "type": "electric_scooter", "bike_id": "c63d2875c34082822d10da2b3a5415a4", "rental_uris": {"ios": "https://dc.lft.to/lastmile_qr_scan", "android": "https://dc.lft.to/lastmile_qr_scan"}, "fusion_lon": 0.0, "lon": -77.02703916666667, "name": "c63d2875c34082822d10da2b3a5415a4", "is_reserved": 0, "is_disabled": 0}, {"lat": 38.90572616666667, "fusion_lat": 0.0, "type": "electric_scooter", "bike_id": "428317c1533f6d7df02d31d045a1ea8c", "rental_uris": {"ios": "https://dc.lft.to/lastmile_qr_scan", "android": "https://dc.lft.to/lastmile_qr_scan"}, "fusion_lon": 0.0, "lon": -77.0468415, "name": "428317c1533f6d7df02d31d045a1ea8c", "is_reserved": 0, "is_disabled": 0}, {"lat": 38.9420385, "fusion_lat": 0.0, "type": "electric_scooter", "bike_id": "1cd81ab2de29e4da0fd5bba3a8f27404", "rental_uris": {"ios": "https://dc.lft.to/lastmile_qr_scan", "android": "https://dc.lft.to/lastmile_qr_scan"}, "fusion_lon": 0.0, "lon": -77.025881, "name": "1cd81ab2de29e4da0fd5bba3a8f27404", "is_reserved": 0, "is_disabled": 0}, {"lat": 38.922422833333336, "fusion_lat": 0.0, "type": "electric_scooter", "bike_id": "579b7594af1bc28937625d6c488e224a", "rental_uris": {"ios": "https://dc.lft.to/lastmile_qr_scan", "android": "https://dc.lft.to/lastmile_qr_scan"}, "fusion_lon": 0.0, "lon": -77.07313866666667, "name": "579b7594af1bc28937625d6c488e224a", "is_reserved": 0, "is_disabled": 0}, {"lat": 38.92892633333334, "fusion_lat": 0.0, "type": "electric_scooter", "bike_id": "88ca0b09e8fba53d98a121e45e836d8f", "rental_uris": {"ios": "https://dc.lft.to/lastmile_qr_scan", "android": "https://dc.lft.to/lastmile_qr_scan"}, "fusion_lon": 0.0, "lon": -77.03287083333333, "name": "88ca0b09e8fba53d98a121e45e836d8f", "is_reserved": 0, "is_disabled": 0}, {"lat": 38.92775316666667, "fusion_lat": 0.0, "type": "electric_scooter", "bike_id": "078692f84a61bcdf1d871a73e25d9548", "rental_uris": {"ios": "https://dc.lft.to/lastmile_qr_scan", "android": "https://dc.lft.to/lastmile_qr_scan"}, "fusion_lon": 0.0, "lon": -77.02613366666667, "name": "078692f84a61bcdf1d871a73e25d9548", "is_reserved": 0, "is_disabled": 0}, {"lat": 38.89223366666667, "fusion_lat": 0.0, "type": "electric_scooter", "bike_id": "bce853ab5cb5bbdde87871a2c51a27bf", "rental_uris": {"ios": "https://dc.lft.to/lastmile_qr_scan", "android": "https://dc.lft.to/lastmile_qr_scan"}, "fusion_lon": 0.0, "lon": -77.02782466666666, "name": "bce853ab5cb5bbdde87871a2c51a27bf", "is_reserved": 0, "is_disabled": 0}, {"lat": 38.9171285, "fusion_lat": 0.0, "type": "electric_scooter", "bike_id": "5133c086c4ff15fdf0ff52677d85753e", "rental_uris": {"ios": "https://dc.lft.to/lastmile_qr_scan", "android": "https://dc.lft.to/lastmile_qr_scan"}, "fusion_lon": 0.0, "lon": -77.04087666666666, "name": "5133c086c4ff15fdf0ff52677d85753e", "is_reserved": 0, "is_disabled": 0}, {"lat": 38.8997135, "fusion_lat": 0.0, "type": "electric_scooter", "bike_id": "f32cb4fcf86f610a3fc13e307e0b5ef3", "rental_uris": {"ios": "https://dc.lft.to/lastmile_qr_scan", "android": "https://dc.lft.to/lastmile_qr_scan"}, "fusion_lon": 0.0, "lon": -76.99505133333334, "name": "f32cb4fcf86f610a3fc13e307e0b5ef3", "is_reserved": 0, "is_disabled": 0}, {"lat": 38.848338166666665, "fusion_lat": 0.0, "type": "electric_bike", "bike_id": "cc63bd4c203add3f0adeee1e4329fae9", "rental_uris": {"ios": "https://dc.lft.to/lastmile_qr_scan", "android": "https://dc.lft.to/lastmile_qr_scan"}, "fusion_lon": 0.0, "lon": -77.07903333333333, "name": "cc63bd4c203add3f0adeee1e4329fae9", "is_reserved": 0, "is_disabled": 0}, {"lat": 38.90728266666667, "fusion_lat": 0.0, "type": "electric_scooter", "bike_id": "6ac6178780ea3644ca96031de36be54b", "rental_uris": {"ios": "https://dc.lft.to/lastmile_qr_scan", "android": "https://dc.lft.to/lastmile_qr_scan"}, "fusion_lon": 0.0, "lon": -77.01133066666667, "name": "6ac6178780ea3644ca96031de36be54b", "is_reserved": 0, "is_disabled": 0}, {"lat": 38.92844316666667, "fusion_lat": 0.0, "type": "electric_scooter", "bike_id": "41d86de5919564144a01989bb3ee5ce6", "rental_uris": {"ios": "https://dc.lft.to/lastmile_qr_scan", "android": "https://dc.lft.to/lastmile_qr_scan"}, "fusion_lon": 0.0, "lon": -77.02005516666667, "name": "41d86de5919564144a01989bb3ee5ce6", "is_reserved": 0, "is_disabled": 0}, {"lat": 38.917076, "fusion_lat": 0.0, "type": "electric_scooter", "bike_id": "0d988e27a3bd2d474017e8484eaf1f4c", "rental_uris": {"ios": "https://dc.lft.to/lastmile_qr_scan", "android": "https://dc.lft.to/lastmile_qr_scan"}, "fusion_lon": 0.0, "lon": -77.02419466666667, "name": "0d988e27a3bd2d474017e8484eaf1f4c", "is_reserved": 0, "is_disabled": 0}, {"lat": 38.86213766666667, "fusion_lat": 0.0, "type": "electric_scooter", "bike_id": "f5547344ef064471aab9caec3ead7190", "rental_uris": {"ios": "https://dc.lft.to/lastmile_qr_scan", "android": "https://dc.lft.to/lastmile_qr_scan"}, "fusion_lon": 0.0, "lon": -76.99447166666667, "name": "f5547344ef064471aab9caec3ead7190", "is_reserved": 0, "is_disabled": 0}, {"lat": 38.94889216666667, "fusion_lat": 0.0, "type": "electric_scooter", "bike_id": "65ab734ec2083d347a42a9c39bc35e7b", "rental_uris": {"ios": "https://dc.lft.to/lastmile_qr_scan", "android": "https://dc.lft.to/lastmile_qr_scan"},