{"data": {"bikes": [{"bike_id": "0b2c783d82a8199b4e1690b21a5c58b4", "type": "electric_bike", "is_disabled": 0, "lat": 38.89815133333333, "rental_uris": {"ios": "https://dc.lft.to/lastmile_qr_scan", "android": "https://dc.lft.to/lastmile_qr_scan"}, "is_reserved": 0, "fusion_lon": 0.0, "fusion_lat": 0.0, "lon": -76.9908595, "name": "0b2c783d82a8199b4e1690b21a5c58b4"}, {"bike_id": "db80c526d555c9616e1e0e6e16d684ab", "type": "electric_scooter", "is_disabled": 0, "lat": 38.9058945, "rental_uris": {"ios": "https://dc.lft.to/lastmile_qr_scan", "android": "https://dc.lft.to/lastmile_qr_scan"}, "is_reserved": 0, "fusion_lon": 0.0, "fusion_lat": 0.0, "lon": -77.06801733333333, "name": "db80c526d555c9616e1e0e6e16d684ab"}, {"bike_id": "16235e88d0b5f7d82b6c13104a454177", "type": "electric_bike", "is_disabled": 0, "lat": 38.870756, "rental_uris": {"ios": "https://dc.lft.to/lastmile_qr_scan", "android": "https://dc.lft.to/lastmile_qr_scan"}, "is_reserved": 0, "fusion_lon": 0.0, "fusion_lat": 0.0, "lon": -77.01224716666667, "name": "16235e88d0b5f7d82b6c13104a454177"}, {"bike_id": "367d118dc214ff9fa393df7578f95eb9", "type": "electric_scooter", "is_disabled": 0, "lat": 38.93201716666667, "rental_uris": {"ios": "https://dc.lft.to/lastmile_qr_scan", "android": "https://dc.lft.to/lastmile_qr_scan"}, "is_reserved": 0, "fusion_lon": 0.0, "fusion_lat": 0.0, "lon": -77.03667883333334, "name": "367d118dc214ff9fa393df7578f95eb9"}, {"bike_id": "966c4a0308a385617091433193fbdbf7", "type": "electric_scooter", "is_disabled": 0, "lat": 38.9222715, "rental_uris": {"ios": "https://dc.lft.to/lastmile_qr_scan", "android": "https://dc.lft.to/lastmile_qr_scan"}, "is_reserved": 0, "fusion_lon": 0.0, "fusion_lat": 0.0, "lon": -77.0470675, "name": "966c4a0308a385617091433193fbdbf7"}, {"bike_id": "03c21ab3b1c06913683c3d790d5b69d5", "type": "electric_scooter", "is_disabled": 0, "lat": 38.92095116666667, "rental_uris": {"ios": "https://dc.lft.to/lastmile_qr_scan", "android": "https://dc.lft.to/lastmile_qr_scan"}, "is_reserved": 0, "fusion_lon": 0.0, "fusion_lat": 0.0, "lon": -77.031639, "name": "03c21ab3b1c06913683c3d790d5b69d5"}, {"bike_id": "3c9a3d0ee9f03a5992022ffdced0dcfe", "type": "electric_bike", "is_disabled": 0, "lat": 38.859374833333334, "rental_uris": {"ios": "https://dc.lft.to/lastmile_qr_scan", "android": "https://dc.lft.to/lastmile_qr_scan"}, "is_reserved": 0, "fusion_lon": 0.0, "fusion_lat": 0.0, "lon": -77.11830966666666, "name": "3c9a3d0ee9f03a5992022ffdced0dcfe"}, {"bike_id": "92ee2237ea3ba8f958d790cf822a4c40", "type": "electric_bike", "is_disabled": 0, "lat": 38.823705, "rental_uris": {"ios": "https://dc.lft.to/lastmile_qr_scan", "android": "https://dc.lft.to/lastmile_qr_scan"}, "is_reserved": 0, "fusion_lon": 0.0, "fusion_lat": 0.0, "lon": -77.00215, "name": "92ee2237ea3ba8f958d790cf822a4c40"}, {"bike_id": "3a9fb896fd2e80c60d68bae8fa6921a8", "type": "electric_scooter", "is_disabled": 0, "lat": 38.883031, "rental_uris": {"ios": "https://dc.lft.to/lastmile_qr_scan", "android": "https://dc.lft.to/lastmile_qr_scan"}, "is_reserved": 0, "fusion_lon": 0.0, "fusion_lat": 0.0, "lon": -76.9485525, "name": "3a9fb896fd2e80c60d68bae8fa6921a8"}, {"bike_id": "913b6830c00084f5072a82e8d3c04984", "type": "electric_scooter", "is_disabled": 0, "lat": 38.92474133333333, "rental_uris": {"ios": "https://dc.lft.to/lastmile_qr_scan", "android": "https://dc.lft.to/lastmile_qr_scan"}, "is_reserved": 0, "fusion_lon": 0.0, "fusion_lat": 0.0, "lon": -77.0283685, "name": "913b6830c00084f5072a82e8d3c04984"}, {"bike_id": "3909f738558dd1da8621738df2f62f75", "type": "electric_scooter", "is_disabled": 0, "lat": 38.902344, "rental_uris": {"ios": "https://dc.lft.to/lastmile_qr_scan", "android": "https://dc.lft.to/lastmile_qr_scan"}, "is_reserved": 0, "fusion_lon": 0.0, "fusion_lat": 0.0, "lon": -77.0020155, "name": "3909f738558dd1da8621738df2f62f75"}, {"bike_id": "1498eedb447c0b51769015c4bafb3acc", "type": "electric_scooter", "is_disabled": 0, "lat": 38.8646965, "rental_uris": {"ios": "https://dc.lft.to/lastmile_qr_scan", "android": "https://dc.lft.to/lastmile_qr_scan"}, "is_reserved": 0, "fusion_lon": 0.0, "fusion_lat": 0.0, "lon": -76.97739033333333, "name": "1498eedb447c0b51769015c4bafb3acc"}, {"bike_id": "29feb410c3f3d37ec0067ee0e59c342f", "type": "electric_scooter", "is_disabled": 0, "lat": 38.92322166666667, "rental_uris": {"ios": "https://dc.lft.to/lastmile_qr_scan", "android": "https://dc.lft.to/lastmile_qr_scan"}, "is_reserved": 0, "fusion_lon": 0.0, "fusion_lat": 0.0, "lon": -77.055964, "name": "29feb410c3f3d37ec0067ee0e59c342f"}, {"bike_id": "708eebceef156258ce737ad4e164c0aa", "type": "electric_scooter", "is_disabled": 0, "lat": 38.9128375, "rental_uris": {"ios": "https://dc.lft.to/lastmile_qr_scan", "android": "https://dc.lft.to/lastmile_qr_scan"}, "is_reserved": 0, "fusion_lon": 0.0, "fusion_lat": 0.0, "lon": -77.0271785, "name": "708eebceef156258ce737ad4e164c0aa"}, {"bike_id": "dda74e566bbd1b64737c187b05551f15", "type": "electric_scooter", "is_disabled": 0, "lat": 38.915692666666665, "rental_uris": {"ios": "https://dc.lft.to/lastmile_qr_scan", "android": "https://dc.lft.to/lastmile_qr_scan"}, "is_reserved": 0, "fusion_lon": 0.0, "fusion_lat": 0.0, "lon": -77.0450745, "name": "dda74e566bbd1b64737c187b05551f15"}, {"bike_id": "53f8653c3130fdfc1a4ac231261ac96a", "type": "electric_bike", "is_disabled": 0, "lat": 38.9696015, "rental_uris": {"ios": "https://dc.lft.to/lastmile_qr_scan", "android": "https://dc.lft.to/lastmile_qr_scan"}, "is_reserved": 0, "fusion_lon": 0.0, "fusion_lat": 0.0, "lon": -76.95748783333333, "name": "53f8653c3130fdfc1a4ac231261ac96a"}, {"bike_id": "1044a5e30f252ed33d9536545df170e8", "type": "electric_scooter", "is_disabled": 0, "lat": 38.892257666666666, "rental_uris": {"ios": "https://dc.lft.to/lastmile_qr_scan", "android": "https://dc.lft.to/lastmile_qr_scan"}, "is_reserved": 0, "fusion_lon": 0.0, "fusion_lat": 0.0, "lon": -77.032167, "name": "1044a5e30f252ed33d9536545df170e8"}, {"bike_id": "012c67216f8f3bca591d7264390188af", "type": "electric_scooter", "is_disabled": 0, "lat": 38.93544933333333, "rental_uris": {"ios": "https://dc.lft.to/lastmile_qr_scan", "android": "https://dc.lft.to/lastmile_qr_scan"}, "is_reserved": 0, "fusion_lon": 0.0, "fusion_lat": 0.0, "lon": -77.05857883333333, "name": "012c67216f8f3bca591d7264390188af"}, {"bike_id": "a2c1316970a3a33d7bbf86fb4a2c6fca", "type": "electric_scooter", "is_disabled": 0, "lat": 38.92603866666666, "rental_uris": {"ios": "https://dc.lft.to/lastmile_qr_scan", "android": "https://dc.lft.to/lastmile_qr_scan"}, "is_reserved": 0, "fusion_lon": 0.0, "fusion_lat": 0.0, "lon": -77.022926, "name": "a2c1316970a3a33d7bbf86fb4a2c6fca"}, {"bike_id": "72808411e78be6978eb0fe972b09152e", "type": "electric_scooter", "is_disabled": 0, "lat": 38.93981266666667, "rental_uris": {"ios": "https://dc.lft.to/lastmile_qr_scan", "android": "https://dc.lft.to/lastmile_qr_scan"}, "is_reserved": 0, "fusion_lon": 0.0, "fusion_lat": 0.0, "lon": -77.0314085, "name": "72808411e78be6978eb0fe972b09152e"}, {"bike_id": "1847a39ed4638bfc3701f1a176b68489", "type": "electric_scooter", "is_disabled": 0, "lat": 38.917003666666666, "rental_uris": {"ios": "https://dc.lft.to/lastmile_qr_scan", "android": "https://dc.lft.to/lastmile_qr_scan"}, "is_reserved": 0, "fusion_lon": 0.0, "fusion_lat": 0.0, "lon": -77.02896016666666, "name": "1847a39ed4638bfc3701f1a176b68489"}, {"bike_id": "8aa91ecef2bcd2288bd3350f732131a1", "type": "electric_scooter", "is_disabled": 0, "lat": 38.9290215, "rental_uris": {"ios": "https://dc.lft.to/lastmile_qr_scan", "android": "https://dc.lft.to/lastmile_qr_scan"}, "is_reserved": 0, "fusion_lon": 0.0, "fusion_lat": 0.0, "lon": -77.03632916666666, "name": "8aa91ecef2bcd2288bd3350f732131a1"}, {"bike_id": "ca12d4dac294369e23cafa75a848760c", "type": "electric_scooter", "is_disabled": 0, "lat": 38.90506716666667, "rental_uris": {"ios": "https://dc.lft.to/lastmile_qr_scan", "android": "https://dc.lft.to/lastmile_qr_scan"}, "is_reserved": 0, "fusion_lon": 0.0, "fusion_lat": 0.0, "lon": -77.06733633333333, "name": "ca12d4dac294369e23cafa75a848760c"}, {"bike_id": "b17cdbe483ebbd98f9503d3c72297600", "type": "electric_scooter", "is_disabled": 0, "lat": 38.90319866666667, "rental_uris": {"ios": "https://dc.lft.to/lastmile_qr_scan", "android": "https://dc.lft.to/lastmile_qr_scan"}, "is_reserved": 0, "fusion_lon": 0.0, "fusion_lat": 0.0, "lon": -77.0245625, "name": "b17cdbe483ebbd98f9503d3c72297600"}, {"bike_id": "2fd200932487ec4d4caf18e4fe0423f0", "type": "electric_bike", "is_disabled": 0, "lat": 39.02436083333333, "rental_uris": {"ios": "https://dc.lft.to/lastmile_qr_scan", "android": "https://dc.lft.to/lastmile_qr_scan"}, "is_reserved": 0, "fusion_lon": 0.0, "fusion_lat": 0.0, "lon": -77.13098933333333, "name": "2fd200932487ec4d4caf18e4fe0423f0"}, {"bike_id": "7796e98a6cbcc18e18ed267a4a75daa6", "type": "electric_scooter", "is_disabled": 0, "lat": 38.93459816666667, "rental_uris": {"ios": "https://dc.lft.to/lastmile_qr_scan", "android": "https://dc.lft.to/lastmile_qr_scan"}, "is_reserved": 0, "fusion_lon": 0.0, "fusion_lat": 0.0, "lon": -76.96438316666666, "name": "7796e98a6cbcc18e18ed267a4a75daa6"}, {"bike_id": "b47d37df6343c55478b00e61767d68ef", "type": "electric_bike", "is_disabled": 0, "lat": 38.957082166666666, "rental_uris": {"ios": "https://dc.lft.to/lastmile_qr_scan", "android": "https://dc.lft.to/lastmile_qr_scan"}, "is_reserved": 0, "fusion_lon": 0.0, "fusion_lat": 0.0, "lon": -77.0240235, "name": "b47d37df6343c55478b00e61767d68ef"}, {"bike_id": "8952e7ef9d3a63d4ef352d54d1c1481c", "type": "electric_scooter", "is_disabled": 0, "lat": 38.9142015, "rental_uris": {"ios": "https://dc.lft.to/lastmile_qr_scan", "android": "https://dc.lft.to/lastmile_qr_scan"}, "is_reserved": 0, "fusion_lon": 0.0, "fusion_lat": 0.0, "lon": -77.027198, "name": "8952e7ef9d3a63d4ef352d54d1c1481c"}, {"bike_id": "a9292eae00254713b54906ac800a0d9f", "type": "electric_scooter", "is_disabled": 0, "lat": 38.866950333333335, "rental_uris": {"ios": "https://dc.lft.to/lastmile_qr_scan", "android": "https://dc.lft.to/lastmile_qr_scan"}, "is_reserved": 0, "fusion_lon": 0.0, "fusion_lat": 0.0, "lon": -76.98709183333334, "name": "a9292eae00254713b54906ac800a0d9f"}, {"bike_id": "7859b9d1874726f74f46ea6ca6244809", "type": "electric_scooter", "is_disabled": 0, "lat": 38.919167, "rental_uris": {"ios": "https://dc.lft.to/lastmile_qr_scan", "android": "https://dc.lft.to/lastmile_qr_scan"}, "is_reserved": 0, "fusion_lon": 0.0, "fusion_lat": 0.0, "lon": -77.03420766666666, "name": "7859b9d1874726f74f46ea6ca6244809"}, {"bike_id": "0d183ddb828de77831e02ad2f96c9463", "type": "electric_bike", "is_disabled": 0, "lat": 38.853541666666665, "rental_uris": {"ios": "https://dc.lft.to/lastmile_qr_scan", "android": "https://dc.lft.to/lastmile_qr_scan"}, "is_reserved": 0, "fusion_lon": 0.0, "fusion_lat": 0.0, "lon": -77.086882, "name": "0d183ddb828de77831e02ad2f96c9463"}, {"bike_id": "09eb7680779c8ad234249389aef11018", "type": "electric_scooter", "is_disabled": 0, "lat": 38.9367385, "rental_uris": {"ios": "https://dc.lft.to/lastmile_qr_scan", "android": "https://dc.lft.to/lastmile_qr_scan"}, "is_reserved": 0, "fusion_lon": 0.0, "fusion_lat": 0.0, "lon": -77.03595133333333, "name": "09eb7680779c8ad234249389aef11018"}, {"bike_id": "952d890f8fb4c3130c973295f39cdae4", "type": "electric_scooter", "is_disabled": 0, "lat": 38.86504566666667, "rental_uris": {"ios": "https://dc.lft.to/lastmile_qr_scan", "android": "https://dc.lft.to/lastmile_qr_scan"}, "is_reserved": 0, "fusion_lon": 0.0, "fusion_lat": 0.0, "lon": -76.99002666666667, "name": "952d890f8fb4c3130c973295f39cdae4"}, {"bike_id": "7032f31c08264e83e3b9bce63e0fdd6b", "type": "electric_scooter", "is_disabled": 0, "lat": 38.89867183333333, "rental_uris": {"ios": "https://dc.lft.to/lastmile_qr_scan", "android": "https://dc.lft.to/lastmile_qr_scan"}, "is_reserved": 0, "fusion_lon": 0.0, "fusion_lat": 0.0, "lon": -76.94663266666667, "name": "7032f31c08264e83e3b9bce63e0fdd6b"}, {"bike_id": "aaff2c7811f329ab5cb4b374eab6d39f", "type": "electric_scooter", "is_disabled": 0, "lat": 38.917784833333336, "rental_uris": {"ios": "https://dc.lft.to/lastmile_qr_scan", "android": "https://dc.lft.to/lastmile_qr_scan"}, "is_reserved": 0, "fusion_lon": 0.0, "fusion_lat": 0.0, "lon": -77.0366465, "name": "aaff2c7811f329ab5cb4b374eab6d39f"}, {"bike_id": "af92604cb7f7cadaa65620fa2e1937a4", "type": "electric_scooter", "is_disabled": 0, "lat": 38.91655183333334, "rental_uris": {"ios": "https://dc.lft.to/lastmile_qr_scan", "android": "https://dc.lft.to/lastmile_qr_scan"}, "is_reserved": 0, "fusion_lon": 0.0, "fusion_lat": 0.0, "lon": -77.023989, "name": "af92604cb7f7cadaa65620fa2e1937a4"}, {"bike_id": "b4af60b3eacbc039b5487f90dce9fbac", "type": "electric_scooter", "is_disabled": 0, "lat": 38.922746333333336, "rental_uris": {"ios": "https://dc.lft.to/lastmile_qr_scan", "android": "https://dc.lft.to/lastmile_qr_scan"}, "is_reserved": 0, "fusion_lon": 0.0, "fusion_lat": 0.0, "lon": -76.98632316666666, "name": "b4af60b3eacbc039b5487f90dce9fbac"}, {"bike_id": "2da40782d281eb05bd418ee31dfa98e6", "type": "electric_scooter", "is_disabled": 0, "lat": 38.880697166666664, "rental_uris": {"ios": "https://dc.lft.to/lastmile_qr_scan", "android": "https://dc.lft.to/lastmile_qr_scan"}, "is_reserved": 0, "fusion_lon": 0.0, "fusion_lat": 0.0, "lon": -76.932198, "name": "2da40782d281eb05bd418ee31dfa98e6"}, {"bike_id": "e8f22627efed5f6311a12459207760b2", "type": "electric_scooter", "is_disabled": 0, "lat": 38.9067175, "rental_uris": {"ios": "https://dc.lft.to/lastmile_qr_scan", "android": "https://dc.lft.to/lastmile_qr_scan"}, "is_reserved": 0, "fusion_lon": 0.0, "fusion_lat": 0.0, "lon": -77.07162133333334, "name": "e8f22627efed5f6311a12459207760b2"}, {"bike_id": "574c463425d26702f26330f5cff345ce", "type": "electric_scooter", "is_disabled": 0, "lat": 38.9058975, "rental_uris": {"ios": "https://dc.lft.to/lastmile_qr_scan", "android": "https://dc.lft.to/lastmile_qr_scan"}, "is_reserved": 0, "fusion_lon": 0.0, "fusion_lat": 0.0, "lon": -77.0700415, "name": "574c463425d26702f26330f5cff345ce"}, {"bike_id": "cad315ddcd56ec36b4511689bad01d8e", "type": "electric_scooter", "is_disabled": 0, "lat": 38.95608516666667, "rental_uris": {"ios": "https://dc.lft.to/lastmile_qr_scan", "android": "https://dc.lft.to/lastmile_qr_scan"}, "is_reserved": 0, "fusion_lon": 0.0, "fusion_lat": 0.0, "lon": -77.000889, "name": "cad315ddcd56ec36b4511689bad01d8e"}, {"bike_id": "25eef463141091deca30439b0a42c8b1", "type": "electric_scooter", "is_disabled": 0, "lat": 38.92017083333333, "rental_uris": {"ios": "https://dc.lft.to/lastmile_qr_scan", "android": "https://dc.lft.to/lastmile_qr_scan"}, "is_reserved": 0, "fusion_lon": 0.0, "fusion_lat": 0.0, "lon": -77.027944, "name": "25eef463141091deca30439b0a42c8b1"}, {"bike_id": "8b51576f78e6ba8350682d8409606e76", "type": "electric_scooter", "is_disabled": 0, "lat": 38.91788616666667, "rental_uris": {"ios": "https://dc.lft.to/lastmile_qr_scan", "android": "https://dc.lft.to/lastmile_qr_scan"}, "is_reserved": 0, "fusion_lon": 0.0, "fusion_lat": 0.0, "lon": -77.03660083333334, "name": "8b51576f78e6ba8350682d8409606e76"}, {"bike_id": "f81f7ea1e3d46a286def5f42efee6150", "type": "electric_scooter", "is_disabled": 0, "lat": 38.9323585, "rental_uris": {"ios": "https://dc.lft.to/lastmile_qr_scan", "android": "https://dc.lft.to/lastmile_qr_scan"}, "is_reserved": 0, "fusion_lon": 0.0, "fusion_lat": 0.0, "lon": -77.035758, "name": "f81f7ea1e3d46a286def5f42efee6150"}, {"bike_id": "5af80976160320904a0f41120aa1a9e3", "type": "electric_scooter", "is_disabled": 0, "lat": 38.86246516666667, "rental_uris": {"ios": "https://dc.lft.to/lastmile_qr_scan", "android": "https://dc.lft.to/lastmile_qr_scan"}, "is_reserved": 0, "fusion_lon": 0.0, "fusion_lat": 0.0, "lon": -76.9950265, "name": "5af80976160320904a0f41120aa1a9e3"}, {"bike_id": "11649bfa15393959280a1ffb4853dcf2", "type": "electric_scooter", "is_disabled": 0, "lat": 38.91336016666666, "rental_uris": {"ios": "https://dc.lft.to/lastmile_qr_scan", "android": "https://dc.lft.to/lastmile_qr_scan"}, "is_reserved": 0, "fusion_lon": 0.0, "fusion_lat": 0.0, "lon": -77.0317485, "name": "11649bfa15393959280a1ffb4853dcf2"}, {"bike_id": "920b5b325c2d9e49399a48b3d59b5b32", "type": "electric_bike", "is_disabled": 0, "lat": 38.9510355, "rental_uris": {"ios": "https://dc.lft.to/lastmile_qr_scan", "android": "https://dc.lft.to/lastmile_qr_scan"}, "is_reserved": 0, "fusion_lon": 0.0, "fusion_lat": 0.0, "lon": -77.055189, "name": "920b5b325c2d9e49399a48b3d59b5b32"}, {"bike_id": "18ebc9f3fde3f0d879133d1103b41a11", "type": "electric_scooter", "is_disabled": 0, "lat": 38.92336433333333, "rental_uris": {"ios": "https://dc.lft.to/lastmile_qr_scan", "android": "https://dc.lft.to/lastmile_qr_scan"}, "is_reserved": 0, "fusion_lon": 0.0, "fusion_lat": 0.0, "lon": -77.04197516666666, "name": "18ebc9f3fde3f0d879133d1103b41a11"}, {"bike_id": "c2c180d195f1d0b8b688dc96045a9025", "type": "electric_bike", "is_disabled": 0, "lat": 38.925470833333335, "rental_uris": {"ios": "https://dc.lft.to/lastmile_qr_scan", "android": "https://dc.lft.to/lastmile_qr_scan"}, "is_reserved": 0, "fusion_lon": 0.0, "fusion_lat": 0.0, "lon": -77.057618, "name": "c2c180d195f1d0b8b688dc96045a9025"}, {"bike_id": "458e7f76392082db33e5701f8030f483", "type": "electric_scooter", "is_disabled": 0, "lat": 38.905744166666665, "rental_uris": {"ios": "https://dc.lft.to/lastmile_qr_scan", "android": "https://dc.lft.to/lastmile_qr_scan"}, "is_reserved": 0, "fusion_lon": 0.0, "fusion_lat": 0.0, "lon": -77.02582916666667, "name": "458e7f76392082db33e5701f8030f483"}, {"bike_id": "a8264acb1a7214d0a49a606e2dfa28f7", "type": "electric_scooter", "is_disabled": 0, "lat": 38.905971, "rental_uris": {"ios": "https://dc.lft.to/lastmile_qr_scan", "android": "https://dc.lft.to/lastmile_qr_scan"}, "is_reserved": 0, "fusion_lon": 0.0, "fusion_lat": 0.0, "lon": -77.06303166666666, "name": "a8264acb1a7214d0a49a606e2dfa28f7"}, {"bike_id": "cff190997bf26394491eb2614e712e6a", "type": "electric_bike", "is_disabled": 0, "lat": 38.95404633333333, "rental_uris": {"ios": "https://dc.lft.to/lastmile_qr_scan", "android": "https://dc.lft.to/lastmile_qr_scan"}, "is_reserved": 0, "fusion_lon": 0.0, "fusion_lat": 0.0, "lon": -76.980494, "name": "cff190997bf26394491eb2614e712e6a"}, {"bike_id": "73a6dae8988beec01f82d7aabac15d46", "type": "electric_scooter", "is_disabled": 0, "lat": 38.889244833333336, "rental_uris": {"ios": "https://dc.lft.to/lastmile_qr_scan", "android": "https://dc.lft.to/lastmile_qr_scan"}, "is_reserved": 0, "fusion_lon": 0.0, "fusion_lat": 0.0, "lon": -76.99132566666667, "name": "73a6dae8988beec01f82d7aabac15d46"}, {"bike_id": "f6edbacc1582415a6e10f447d1ddcd19", "type": "electric_scooter", "is_disabled": 0, "lat": 38.9289615, "rental_uris": {"ios": "https://dc.lft.to/lastmile_qr_scan", "android": "https://dc.lft.to/lastmile_qr_scan"}, "is_reserved": 0, "fusion_lon": 0.0, "fusion_lat": 0.0, "lon": -77.03261933333333, "name": "f6edbacc1582415a6e10f447d1ddcd19"}, {"bike_id": "d7c9e292ecf9f6c7e54e47b655885c3b", "type": "electric_scooter", "is_disabled": 0, "lat": 38.90603566666667, "rental_uris": {"ios": "https://dc.lft.to/lastmile_qr_scan", "android": "https://dc.lft.to/lastmile_qr_scan"}, "is_reserved": 0, "fusion_lon": 0.0, "fusion_lat": 0.0, "lon": -77.0211285, "name": "d7c9e292ecf9f6c7e54e47b655885c3b"}, {"bike_id": "8a85d9d22ba55ca69b81641b75fac4f8", "type": "electric_scooter", "is_disabled": 0, "lat": 38.907722, "rental_uris": {"ios": "https://dc.lft.to/lastmile_qr_scan", "android": "https://dc.lft.to/lastmile_qr_scan"}, "is_reserved": 0, "fusion_lon": 0.0, "fusion_lat": 0.0, "lon": -77.07126333333333, "name": "8a85d9d22ba55ca69b81641b75fac4f8"}, {"bike_id": "cca7fafdef32290cbf0a184f925e942b", "type": "electric_scooter", "is_disabled": 0, "lat": 38.898868, "rental_uris": {"ios": "https://dc.lft.to/lastmile_qr_scan", "android": "https://dc.lft.to/lastmile_qr_scan"}, "is_reserved": 0, "fusion_lon": 0.0, "fusion_lat": 0.0, "lon": -76.9769365, "name": "cca7fafdef32290cbf0a184f925e942b"}, {"bike_id": "26e4dd4bdd2f9243bf10459e5ca42f3c", "type": "electric_bike", "is_disabled": 0, "lat": 38.83829983333333, "rental_uris": {"ios": "https://dc.lft.to/lastmile_qr_scan", "android": "https://dc.lft.to/lastmile_qr_scan"}, "is_reserved": 0, "fusion_lon": 0.0, "fusion_lat": 0.0, "lon": -77.00278216666666, "name": "26e4dd4bdd2f9243bf10459e5ca42f3c"}, {"bike_id": "5c8b0ab14b6035c6238ce6867bd62b47", "type": "electric_scooter", "is_disabled": 0, "lat": 38.92531116666667, "rental_uris": {"ios": "https://dc.lft.to/lastmile_qr_scan", "android": "https://dc.lft.to/lastmile_qr_scan"}, "is_reserved": 0, "fusion_lon": 0.0, "fusion_lat": 0.0, "lon": -77.04135083333334, "name": "5c8b0ab14b6035c6238ce6867bd62b47"}, {"bike_id": "9cd89a68ed02422aa2741ca47333601a", "type": "electric_scooter", "is_disabled": 0, "lat": 38.884026666666664, "rental_uris": {"ios": "https://dc.lft.to/lastmile_qr_scan", "android": "https://dc.lft.to/lastmile_qr_scan"}, "is_reserved": 0, "fusion_lon": 0.0, "fusion_lat": 0.0, "lon": -77.03202833333333, "name": "9cd89a68ed02422aa2741ca47333601a"}, {"bike_id": "5a300fcd2755fa5b1d1d36b001ed3493", "type": "electric_scooter", "is_disabled": 0, "lat": 38.93292016666667, "rental_uris": {"ios": "https://dc.lft.to/lastmile_qr_scan", "android": "https://dc.lft.to/lastmile_qr_scan"}, "is_reserved": 0, "fusion_lon": 0.0, "fusion_lat": 0.0, "lon": -77.0412445, "name": "5a300fcd2755fa5b1d1d36b001ed3493"}, {"bike_id": "6da8bd35305f9ae38d17a468df388a44", "type": "electric_scooter", "is_disabled": 0, "lat": 38.9267765, "rental_uris": {"ios": "https://dc.lft.to/lastmile_qr_scan", "android": "https://dc.lft.to/lastmile_qr_scan"}, "is_reserved": 0, "fusion_lon": 0.0, "fusion_lat": 0.0, "lon": -77.0435235, "name": "6da8bd35305f9ae38d17a468df388a44"}, {"bike_id": "a02313fdd27d74c0ed651ab4dc1dc043", "type": "electric_scooter", "is_disabled": 0, "lat": 38.895475833333336, "rental_uris": {"ios": "https://dc.lft.to/lastmile_qr_scan", "android": "https://dc.lft.to/lastmile_qr_scan"}, "is_reserved": 0, "fusion_lon": 0.0, "fusion_lat": 0.0, "lon": -76.92950066666667, "name": "a02313fdd27d74c0ed651ab4dc1dc043"}, {"bike_id": "f1711ce8e4f1a523b37fb1e53aa5235f", "type": "electric_scooter", "is_disabled": 0, "lat": 38.92054733333333, "rental_uris": {"ios": "https://dc.lft.to/lastmile_qr_scan", "android": "https://dc.lft.to/lastmile_qr_scan"}, "is_reserved": 0, "fusion_lon": 0.0, "fusion_lat": 0.0, "lon": -77.033949, "name": "f1711ce8e4f1a523b37fb1e53aa5235f"}, {"bike_id": "55e0306610ff52d3df51f58a4a4a871a", "type": "electric_scooter", "is_disabled": 0, "lat": 38.872950333333335, "rental_uris": {"ios": "https://dc.lft.to/lastmile_qr_scan", "android": "https://dc.lft.to/lastmile_qr_scan"}, "is_reserved": 0, "fusion_lon": 0.0, "fusion_lat": 0.0, "lon": -76.9773165, "name": "55e0306610ff52d3df51f58a4a4a871a"}, {"bike_id": "1f2bb0162667f6b7efe74469228ab999", "type": "electric_scooter", "is_disabled": 0, "lat": 38.905657, "rental_uris": {"ios": "https://dc.lft.to/lastmile_qr_scan", "android": "https://dc.lft.to/lastmile_qr_scan"}, "is_reserved": 0, "fusion_lon": 0.0, "fusion_lat": 0.0, "lon": -76.98142166666666, "name": "1f2bb0162667f6b7efe74469228ab999"}, {"bike_id": "1fc4fec7cddbbe501790bdfdc46ab052", "type": "electric_scooter", "is_disabled": 0, "lat": 38.89499266666667, "rental_uris": {"ios": "https://dc.lft.to/lastmile_qr_scan", "android": "https://dc.lft.to/lastmile_qr_scan"}, "is_reserved": 0, "fusion_lon": 0.0, "fusion_lat": 0.0, "lon": -77.00060833333333, "name": "1fc4fec7cddbbe501790bdfdc46ab052"}, {"bike_id": "8a5b4b330eb7ef6d8556d92f41dcf8d8", "type": "electric_scooter", "is_disabled": 0, "lat": 38.911405, "rental_uris": {"ios": "https://dc.lft.to/lastmile_qr_scan", "android": "https://dc.lft.to/lastmile_qr_scan"}, "is_reserved": 0, "fusion_lon": 0.0, "fusion_lat": 0.0, "lon": -77.06527383333334, "name": "8a5b4b330eb7ef6d8556d92f41dcf8d8"}, {"bike_id": "edff4223dcf6942acb0c144f9fc6cba7", "type": "electric_bike", "is_disabled": 0, "lat": 38.857889666666665, "rental_uris": {"ios": "https://dc.lft.to/lastmile_qr_scan", "android": "https://dc.lft.to/lastmile_qr_scan"}, "is_reserved": 0, "fusion_lon": 0.0, "fusion_lat": 0.0, "lon": -77.12017083333333, "name": "edff4223dcf6942acb0c144f9fc6cba7"}, {"bike_id": "5753a996975969adea9b5e1165a2d81e", "type": "electric_scooter", "is_disabled": 0, "lat": 38.93199966666667, "rental_uris": {"ios": "https://dc.lft.to/lastmile_qr_scan", "android": "https://dc.lft.to/lastmile_qr_scan"}, "is_reserved": 0, "fusion_lon": 0.0, "fusion_lat": 0.0, "lon": -77.03880316666667, "name": "5753a996975969adea9b5e1165a2d81e"}, {"bike_id": "d58f39c29af3b2cf132357401e97097c", "type": "electric_scooter", "is_disabled": 0, "lat": 38.9157285, "rental_uris": {"ios": "https://dc.lft.to/lastmile_qr_scan", "android": "https://dc.lft.to/lastmile_qr_scan"}, "is_reserved": 0, "fusion_lon": 0.0, "fusion_lat": 0.0, "lon": -77.03196316666667, "name": "d58f39c29af3b2cf132357401e97097c"}, {"bike_id": "19ac0f2fd7c31f1c5ffd6dfba981e4c4", "type": "electric_scooter", "is_disabled": 0, "lat": 38.94559683333333, "rental_uris": {"ios": "https://dc.lft.to/lastmile_qr_scan", "android": "https://dc.lft.to/lastmile_qr_scan"}, "is_reserved": 0, "fusion_lon": 0.0, "fusion_lat": 0.0, "lon": -77.07122533333333, "name": "19ac0f2fd7c31f1c5ffd6dfba981e4c4"}, {"bike_id": "9b934cc7002ab62f00c5650a0d567e7c", "type": "electric_scooter", "is_disabled": 0, "lat": 38.884504666666665, "rental_uris": {"ios": "https://dc.lft.to/lastmile_qr_scan", "android": "https://dc.lft.to/lastmile_qr_scan"}, "is_reserved": 0, "fusion_lon": 0.0, "fusion_lat": 0.0, "lon": -76.95098466666667, "name": "9b934cc7002ab62f00c5650a0d567e7c"}, {"bike_id": "d088a2c9433e44a4673102f85a0831be", "type": "electric_scooter", "is_disabled": 0, "lat": 38.915436666666665, "rental_uris": {"ios": "https://dc.lft.to/lastmile_qr_scan", "android": "https://dc.lft.to/lastmile_qr_scan"}, "is_reserved": 0, "fusion_lon": 0.0, "fusion_lat": 0.0, "lon": -77.0379315, "name": "d088a2c9433e44a4673102f85a0831be"}, {"bike_id": "6ef1fda92f78f29cf1c6f533473dd4bc", "type": "electric_bike", "is_disabled": 0, "lat": 38.871000333333335, "rental_uris": {"ios": "https://dc.lft.to/lastmile_qr_scan", "android": "https://dc.lft.to/lastmile_qr_scan"}, "is_reserved": 0, "fusion_lon": 0.0, "fusion_lat": 0.0, "lon": -77.01218216666666, "name": "6ef1fda92f78f29cf1c6f533473dd4bc"}, {"bike_id": "081645b290c558cd4a4eb0ea04989d26", "type": "electric_bike", "is_disabled": 0, "lat": 38.85891516666667, "rental_uris": {"ios": "https://dc.lft.to/lastmile_qr_scan", "android": "https://dc.lft.to/lastmile_qr_scan"}, "is_reserved": 0, "fusion_lon": 0.0, "fusion_lat": 0.0, "lon": -77.11863733333334, "name": "081645b290c558cd4a4eb0ea04989d26"}, {"bike_id": "9a03e42d7173fe946a9cfa0560ad82fc", "type": "electric_bike", "is_disabled": 0, "lat": 38.95181816666667, "rental_uris": {"ios": "https://dc.lft.to/lastmile_qr_scan", "android": "https://dc.lft.to/lastmile_qr_scan"}, "is_reserved": 0, "fusion_lon": 0.0, "fusion_lat": 0.0, "lon": -77.03159866666667, "name": "9a03e42d7173fe946a9cfa0560ad82fc"}, {"bike_id": "4c5bee890b0b263c9d5b489e57b78f3b", "type": "electric_scooter", "is_disabled": 0, "lat": 38.8920125, "rental_uris": {"ios": "https://dc.lft.to/lastmile_qr_scan", "android": "https://dc.lft.to/lastmile_qr_scan"}, "is_reserved": 0, "fusion_lon": 0.0, "fusion_lat": 0.0, "lon": -76.99943583333334, "name": "4c5bee890b0b263c9d5b489e57b78f3b"}, {"bike_id": "1e3a0d5f4959f50f89208f5aae0620f1", "type": "electric_scooter", "is_disabled": 0, "lat": 38.910620333333334, "rental_uris": {"ios": "https://dc.lft.to/lastmile_qr_scan", "android": "https://dc.lft.to/lastmile_qr_scan"}, "is_reserved": 0, "fusion_lon": 0.0, "fusion_lat": 0.0, "lon": -77.03087433333333, "name": "1e3a0d5f4959f50f89208f5aae0620f1"}, {"bike_id": "71a32be685425e3af87de0abfe377086", "type": "electric_scooter", "is_disabled": 0, "lat": 38.87918366666667, "rental_uris": {"ios": "https://dc.lft.to/lastmile_qr_scan", "android": "https://dc.lft.to/lastmile_qr_scan"}, "is_reserved": 0, "fusion_lon": 0.0, "fusion_lat": 0.0, "lon": -77.00780366666666, "name": "71a32be685425e3af87de0abfe377086"}, {"bike_id": "4842399b2639382c461a8b58193d9938", "type": "electric_scooter", "is_disabled": 0, "lat": 38.90491183333334, "rental_uris": {"ios": "https://dc.lft.to/lastmile_qr_scan", "android": "https://dc.lft.to/lastmile_qr_scan"}, "is_reserved": 0, "fusion_lon": 0.0, "fusion_lat": 0.0, "lon": -76.98976333333333, "name": "4842399b2639382c461a8b58193d9938"}, {"bike_id": "92e74198a2d2d5fef0929228dbff2bd7", "type": "electric_scooter", "is_disabled": 0, "lat": 38.902365833333334, "rental_uris": {"ios": "https://dc.lft.to/lastmile_qr_scan", "android": "https://dc.lft.to/lastmile_qr_scan"}, "is_reserved": 0, "fusion_lon": 0.0, "fusion_lat": 0.0, "lon": -77.00197883333334, "name": "92e74198a2d2d5fef0929228dbff2bd7"}, {"bike_id": "88cfa99d18e15a820fe9e335ab357cd0", "type": "electric_scooter", "is_disabled": 0, "lat": 38.899669333333335, "rental_uris": {"ios": "https://dc.lft.to/lastmile_qr_scan", "android": "https://dc.lft.to/lastmile_qr_scan"}, "is_reserved": 0, "fusion_lon": 0.0, "fusion_lat": 0.0, "lon": -76.9830305, "name": "88cfa99d18e15a820fe9e335ab357cd0"}, {"bike_id": "db50300f9eabd74e6104e4d8313179dc", "type": "electric_scooter", "is_disabled": 0, "lat": 38.902765, "rental_uris": {"ios": "https://dc.lft.to/lastmile_qr_scan", "android": "https://dc.lft.to/lastmile_qr_scan"}, "is_reserved": 0, "fusion_lon": 0.0, "fusion_lat": 0.0, "lon": -77.0447115, "name": "db50300f9eabd74e6104e4d8313179dc"}, {"bike_id": "d6a952f488af52f0dcd7865edebb58aa", "type": "electric_scooter", "is_disabled": 0, "lat": 38.90089533333333, "rental_uris": {"ios": "https://dc.lft.to/lastmile_qr_scan", "android": "https://dc.lft.to/lastmile_qr_scan"}, "is_reserved": 0, "fusion_lon": 0.0, "fusion_lat": 0.0, "lon": -77.038069, "name": "d6a952f488af52f0dcd7865edebb58aa"}, {"bike_id": "a4e84c922f26226b3c7c68fd2a4a99c9", "type": "electric_scooter", "is_disabled": 0, "lat": 38.891115666666664, "rental_uris": {"ios": "https://dc.lft.to/lastmile_qr_scan", "android": "https://dc.lft.to/lastmile_qr_scan"}, "is_reserved": 0, "fusion_lon": 0.0, "fusion_lat": 0.0, "lon": -76.99161916666667, "name": "a4e84c922f26226b3c7c68fd2a4a99c9"}, {"bike_id": "f59a5dc7af68cd894308ef5c560f561d", "type": "electric_scooter", "is_disabled": 0, "lat": 38.912571, "rental_uris": {"ios": "https://dc.lft.to/lastmile_qr_scan", "android": "https://dc.lft.to/lastmile_qr_scan"}, "is_reserved": 0, "fusion_lon": 0.0, "fusion_lat": 0.0, "lon": -77.06798333333333, "name": "f59a5dc7af68cd894308ef5c560f561d"}, {"bike_id": "5a3f137021ace11af717e0173f66fb8d", "type": "electric_scooter", "is_disabled": 0, "lat": 38.91889916666667, "rental_uris": {"ios": "https://dc.lft.to/lastmile_qr_scan", "android": "https://dc.lft.to/lastmile_qr_scan"}, "is_reserved": 0, "fusion_lon": 0.0, "fusion_lat": 0.0, "lon": -77.04616833333333, "name": "5a3f137021ace11af717e0173f66fb8d"}, {"bike_id": "0a5f8434acf760a0d2c326cb6816bc01", "type": "electric_scooter", "is_disabled": 0, "lat": 38.91564783333333, "rental_uris": {"ios": "https://dc.lft.to/lastmile_qr_scan", "android": "https://dc.lft.to/lastmile_qr_scan"}, "is_reserved": 0, "fusion_lon": 0.0, "fusion_lat": 0.0, "lon": -77.02280366666666, "name": "0a5f8434acf760a0d2c326cb6816bc01"}, {"bike_id": "e0e5c9624e9c3758af0224226af3b86d", "type": "electric_scooter", "is_disabled": 0, "lat": 38.86220333333333, "rental_uris": {"ios": "https://dc.lft.to/lastmile_qr_scan", "android": "https://dc.lft.to/lastmile_qr_scan"}, "is_reserved": 0, "fusion_lon": 0.0, "fusion_lat": 0.0, "lon": -76.9948745, "name": "e0e5c9624e9c3758af0224226af3b86d"}, {"bike_id": "3074cbf2c561a652b5305bafbb8b49e4", "type": "electric_scooter", "is_disabled": 0, "lat": 38.9148245, "rental_uris": {"ios": "https://dc.lft.to/lastmile_qr_scan", "android": "https://dc.lft.to/lastmile_qr_scan"}, "is_reserved": 0, "fusion_lon": 0.0, "fusion_lat": 0.0, "lon": -77.002831, "name": "3074cbf2c561a652b5305bafbb8b49e4"}, {"bike_id": "9cc307159d57683d3b405b8d4d931b30", "type": "electric_scooter", "is_disabled": 0, "lat": 38.91684433333333, "rental_uris": {"ios": "https://dc.lft.to/lastmile_qr_scan", "android": "https://dc.lft.to/lastmile_qr_scan"}, "is_reserved": 0, "fusion_lon": 0.0, "fusion_lat": 0.0, "lon": -77.02951766666666, "name": "9cc307159d57683d3b405b8d4d931b30"}, {"bike_id": "0c608459e2eda51f61e4612573e864e6", "type": "electric_scooter", "is_disabled": 0, "lat": 38.93944483333333, "rental_uris": {"ios": "https://dc.lft.to/lastmile_qr_scan", "android": "https://dc.lft.to/lastmile_qr_scan"}, "is_reserved": 0, "fusion_lon": 0.0, "fusion_lat": 0.0, "lon": -77.07240083333333, "name": "0c608459e2eda51f61e4612573e864e6"}, {"bike_id": "cddd1bd1b0dcf3e48f43633052bd995c", "type": "electric_scooter", "is_disabled": 0, "lat": 38.922918833333334, "rental_uris": {"ios": "https://dc.lft.to/lastmile_qr_scan", "android": "https://dc.lft.to/lastmile_qr_scan"}, "is_reserved": 0, "fusion_lon": 0.0, "fusion_lat": 0.0, "lon": -77.02062316666667, "name": "cddd1bd1b0dcf3e48f43633052bd995c"}, {"bike_id": "d116e34fc408054eeacbafb7d7e7d275", "type": "electric_scooter", "is_disabled": 0, "lat": 38.905436, "rental_uris": {"ios": "https://dc.lft.to/lastmile_qr_scan", "android": "https://dc.lft.to/lastmile_qr_scan"}, "is_reserved": 0, "fusion_lon": 0.0, "fusion_lat": 0.0, "lon": -77.02192083333334, "name": "d116e34fc408054eeacbafb7d7e7d275"}, {"bike_id": "b83ad7fc25209261486f46d974177b0d", "type": "electric_bike", "is_disabled": 0, "lat": 38.905192166666666, "rental_uris": {"ios": "https://dc.lft.to/lastmile_qr_scan", "android": "https://dc.lft.to/lastmile_qr_scan"}, "is_reserved": 0, "fusion_lon": 0.0, "fusion_lat": 0.0, "lon": -77.05676266666667, "name": "b83ad7fc25209261486f46d974177b0d"}, {"bike_id": "16d287d6008239b9862f28f7b78384ee", "type": "electric_scooter", "is_disabled": 0, "lat": 38.9231985, "rental_uris": {"ios": "https://dc.lft.to/lastmile_qr_scan", "android": "https://dc.lft.to/lastmile_qr_scan"}, "is_reserved": 0, "fusion_lon": 0.0, "fusion_lat": 0.0, "lon": -77.02126716666666, "name": "16d287d6008239b9862f28f7b78384ee"}, {"bike_id": "88ce1e6fe73a8ce97634f89a14bc3b2a", "type": "electric_scooter", "is_disabled": 0, "lat": 38.9103695, "rental_uris": {"ios": "https://dc.lft.to/lastmile_qr_scan", "android": "https://dc.lft.to/lastmile_qr_scan"}, "is_reserved": 0, "fusion_lon": 0.0, "fusion_lat": 0.0, "lon": -77.03840483333333, "name": "88ce1e6fe73a8ce97634f89a14bc3b2a"}, {"bike_id": "ed51c076577f30232dfe08685123307a", "type": "electric_scooter", "is_disabled": 0, "lat": 38.926525833333336, "rental_uris": {"ios": "https://dc.lft.to/lastmile_qr_scan", "android": "https://dc.lft.to/lastmile_qr_scan"}, "is_reserved": 0, "fusion_lon": 0.0, "fusion_lat": 0.0, "lon": -76.9929235, "name": "ed51c076577f30232dfe08685123307a"}, {"bike_id": "1a21a2964cc58d85a2a5c06f7b65844b", "type": "electric_scooter", "is_disabled": 0, "lat": 38.951517, "rental_uris": {"ios": "https://dc.lft.to/lastmile_qr_scan", "android": "https://dc.lft.to/lastmile_qr_scan"}, "is_reserved": 0, "fusion_lon": 0.0, "fusion_lat": 0.0, "lon": -77.018713, "name": "1a21a2964cc58d85a2a5c06f7b65844b"}, {"bike_id": "b6980d72e537f30b8a68d5ec0f509363", "type": "electric_scooter", "is_disabled": 0, "lat": 38.89223583333333, "rental_uris": {"ios": "https://dc.lft.to/lastmile_qr_scan", "android": "https://dc.lft.to/lastmile_qr_scan"}, "is_reserved": 0, "fusion_lon": 0.0, "fusion_lat": 0.0, "lon": -77.02445233333333, "name": "b6980d72e537f30b8a68d5ec0f509363"}, {"bike_id": "175a980090c5410f4ef6c24d1e7d3beb", "type": "electric_scooter", "is_disabled": 0, "lat": 38.939204, "rental_uris": {"ios": "https://dc.lft.to/lastmile_qr_scan", "android": "https://dc.lft.to/lastmile_qr_scan"}, "is_reserved": 0, "fusion_lon": 0.0, "fusion_lat": 0.0, "lon": -77.03268783333333, "name": "175a980090c5410f4ef6c24d1e7d3beb"}, {"bike_id": "fb2e7b5ccacdc57253ab5ca19cdb6085", "type": "electric_scooter", "is_disabled": 0, "lat": 38.921968166666666, "rental_uris": {"ios": "https://dc.lft.to/lastmile_qr_scan", "android": "https://dc.lft.to/lastmile_qr_scan"}, "is_reserved": 0, "fusion_lon": 0.0, "fusion_lat": 0.0, "lon": -77.02406983333333, "name": "fb2e7b5ccacdc57253ab5ca19cdb6085"}, {"bike_id": "c6d6f9c51ecade3156f4a372974aadee", "type": "electric_scooter", "is_disabled": 0, "lat": 38.933244, "rental_uris": {"ios": "https://dc.lft.to/lastmile_qr_scan", "android": "https://dc.lft.to/lastmile_qr_scan"}, "is_reserved": 0, "fusion_lon": 0.0, "fusion_lat": 0.0, "lon": -77.03257016666667, "name": "c6d6f9c51ecade3156f4a372974aadee"}, {"bike_id": "9e2ddc2284ae6f24ebdfe13f0ae1dc69", "type": "electric_scooter", "is_disabled": 0, "lat": 38.92280683333333, "rental_uris": {"ios": "https://dc.lft.to/lastmile_qr_scan", "android": "https://dc.lft.to/lastmile_qr_scan"}, "is_reserved": 0, "fusion_lon": 0.0, "fusion_lat": 0.0, "lon": -76.99458033333333, "name": "9e2ddc2284ae6f24ebdfe13f0ae1dc69"}, {"bike_id": "da1f88d79b1cfd77accaae71310a5ca2", "type": "electric_scooter", "is_disabled": 0, "lat": 38.904072666666664, "rental_uris": {"ios": "https://dc.lft.to/lastmile_qr_scan", "android": "https://dc.lft.to/lastmile_qr_scan"}, "is_reserved": 0, "fusion_lon": 0.0, "fusion_lat": 0.0, "lon": -76.97329183333333, "name": "da1f88d79b1cfd77accaae71310a5ca2"}, {"bike_id": "c77806fd3527d749daf31bbd46baca94", "type": "electric_scooter", "is_disabled": 0, "lat": 38.90649333333333, "rental_uris": {"ios": "https://dc.lft.to/lastmile_qr_scan", "android": "https://dc.lft.to/lastmile_qr_scan"}, "is_reserved": 0, "fusion_lon": 0.0, "fusion_lat": 0.0, "lon": -77.02500316666666, "name": "c77806fd3527d749daf31bbd46baca94"}, {"bike_id": "7eb85a2d3dbc8dcb3b3333188735f7c7", "type": "electric_scooter", "is_disabled": 0, "lat": 38.91828233333333, "rental_uris": {"ios": "https://dc.lft.to/lastmile_qr_scan", "android": "https://dc.lft.to/lastmile_qr_scan"}, "is_reserved": 0, "fusion_lon": 0.0, "fusion_lat": 0.0, "lon": -77.04002566666666, "name": "7eb85a2d3dbc8dcb3b3333188735f7c7"}, {"bike_id": "b68e3e26bff3c86f7c7a154c0e3eb119", "type": "electric_scooter", "is_disabled": 0, "lat": 38.9573765, "rental_uris": {"ios": "https://dc.lft.to/lastmile_qr_scan", "android": "https://dc.lft.to/lastmile_qr_scan"}, "is_reserved": 0, "fusion_lon": 0.0, "fusion_lat": 0.0, "lon": -77.0240335, "name": "b68e3e26bff3c86f7c7a154c0e3eb119"}, {"bike_id": "c272bfbc75b33defe3c571fec5f18ba0", "type": "electric_bike", "is_disabled": 0, "lat": 38.8962135, "rental_uris": {"ios": "https://dc.lft.to/lastmile_qr_scan", "android": "https://dc.lft.to/lastmile_qr_scan"}, "is_reserved": 0, "fusion_lon": 0.0, "fusion_lat": 0.0, "lon": -77.02962733333334, "name": "c272bfbc75b33defe3c571fec5f18ba0"}, {"bike_id": "3eefdd4b6866641a93156e56af2fae38", "type": "electric_scooter", "is_disabled": 0, "lat": 38.871958, "rental_uris": {"ios": "https://dc.lft.to/lastmile_qr_scan", "android": "https://dc.lft.to/lastmile_qr_scan"}, "is_reserved": 0, "fusion_lon": 0.0, "fusion_lat": 0.0, "lon": -77.00739, "name": "3eefdd4b6866641a93156e56af2fae38"}, {"bike_id": "28940ff9ed06b1b58d7caeb0a1d854b6", "type": "electric_scooter", "is_disabled": 0, "lat": 38.92172016666667, "rental_uris": {"ios": "https://dc.lft.to/lastmile_qr_scan", "android": "https://dc.lft.to/lastmile_qr_scan"}, "is_reserved": 0, "fusion_lon": 0.0, "fusion_lat": 0.0, "lon": -77.01932116666667, "name": "28940ff9ed06b1b58d7caeb0a1d854b6"}, {"bike_id": "88c96d5e7bb2670389d7eace916630b6", "type": "electric_scooter", "is_disabled": 0, "lat": 38.91709433333333, "rental_uris": {"ios": "https://dc.lft.to/lastmile_qr_scan", "android": "https://dc.lft.to/lastmile_qr_scan"}, "is_reserved": 0, "fusion_lon": 0.0, "fusion_lat": 0.0, "lon": -77.09581783333333, "name": "88c96d5e7bb2670389d7eace916630b6"}, {"bike_id": "61efb32ce6ccf3a403def7648a0868f7", "type": "electric_scooter", "is_disabled": 0, "lat": 38.92373333333333, "rental_uris": {"ios": "https://dc.lft.to/lastmile_qr_scan", "android": "https://dc.lft.to/lastmile_qr_scan"}, "is_reserved": 0, "fusion_lon": 0.0, "fusion_lat": 0.0, "lon": -77.02536866666667, "name": "61efb32ce6ccf3a403def7648a0868f7"}, {"bike_id": "c50b96036ec4e795b645323fa14a8462", "type": "electric_scooter", "is_disabled": 0, "lat": 38.9005605, "rental_uris": {"ios": "https://dc.lft.to/lastmile_qr_scan", "android": "https://dc.lft.to/lastmile_qr_scan"}, "is_reserved": 0, "fusion_lon": 0.0, "fusion_lat": 0.0, "lon": -77.0350265, "name": "c50b96036ec4e795b645323fa14a8462"}, {"bike_id": "a842460d4edf8f5d2cfb6766e9cd139f", "type": "electric_scooter", "is_disabled": 0, "lat": 38.8764935, "rental_uris": {"ios": "https://dc.lft.to/lastmile_qr_scan", "android": "https://dc.lft.to/lastmile_qr_scan"}, "is_reserved": 0, "fusion_lon": 0.0, "fusion_lat": 0.0, "lon": -76.96504433333334, "name": "a842460d4edf8f5d2cfb6766e9cd139f"}, {"bike_id": "c2aed0f0ce87010bede86675d8c550f8", "type": "electric_scooter", "is_disabled": 0, "lat": 38.9065795, "rental_uris": {"ios": "https://dc.lft.to/lastmile_qr_scan", "android": "https://dc.lft.to/lastmile_qr_scan"}, "is_reserved": 0, "fusion_lon": 0.0, "fusion_lat": 0.0, "lon": -77.0145645, "name": "c2aed0f0ce87010bede86675d8c550f8"}, {"bike_id": "50c6fcd54477a0e0a12ebbcc70d28d9f", "type": "electric_scooter", "is_disabled": 0, "lat": 38.914367, "rental_uris": {"ios": "https://dc.lft.to/lastmile_qr_scan", "android": "https://dc.lft.to/lastmile_qr_scan"}, "is_reserved": 0, "fusion_lon": 0.0, "fusion_lat": 0.0, "lon": -77.012117, "name": "50c6fcd54477a0e0a12ebbcc70d28d9f"}, {"bike_id": "a09f26143eb42dfbba687b614284c36f", "type": "electric_scooter", "is_disabled": 0, "lat": 38.9169085, "rental_uris": {"ios": "https://dc.lft.to/lastmile_qr_scan", "android": "https://dc.lft.to/lastmile_qr_scan"}, "is_reserved": 0, "fusion_lon": 0.0, "fusion_lat": 0.0, "lon": -77.02333033333333, "name": "a09f26143eb42dfbba687b614284c36f"}, {"bike_id": "539bc6c591a4962374c0b0c4b192602b", "type": "electric_scooter", "is_disabled": 0, "lat": 38.90669716666667, "rental_uris": {"ios": "https://dc.lft.to/lastmile_qr_scan", "android": "https://dc.lft.to/lastmile_qr_scan"}, "is_reserved": 0, "fusion_lon": 0.0, "fusion_lat": 0.0, "lon": -77.071611, "name": "539bc6c591a4962374c0b0c4b192602b"}, {"bike_id": "620a91036567ab9fea77db438e6bac93", "type": "electric_scooter", "is_disabled": 0, "lat": 38.90737516666667, "rental_uris": {"ios": "https://dc.lft.to/lastmile_qr_scan", "android": "https://dc.lft.to/lastmile_qr_scan"}, "is_reserved": 0, "fusion_lon": 0.0, "fusion_lat": 0.0, "lon": -77.02961133333334, "name": "620a91036567ab9fea77db438e6bac93"}, {"bike_id": "d2ea6f9e0809fe06ecd063642923600f", "type": "electric_scooter", "is_disabled": 0, "lat": 38.965664333333336, "rental_uris": {"ios": "https://dc.lft.to/lastmile_qr_scan", "android": "https://dc.lft.to/lastmile_qr_scan"}, "is_reserved": 0, "fusion_lon": 0.0, "fusion_lat": 0.0, "lon": -77.027802, "name": "d2ea6f9e0809fe06ecd063642923600f"}, {"bike_id": "e049881b03d925893b7f74f6b186480e", "type": "electric_scooter", "is_disabled": 0, "lat": 38.903325, "rental_uris": {"ios": "https://dc.lft.to/lastmile_qr_scan", "android": "https://dc.lft.to/lastmile_qr_scan"}, "is_reserved": 0, "fusion_lon": 0.0, "fusion_lat": 0.0, "lon": -77.06926616666667, "name": "e049881b03d925893b7f74f6b186480e"}, {"bike_id": "5b0917a4a68a8b0e38de231deadd6784", "type": "electric_scooter", "is_disabled": 0, "lat": 38.8624645, "rental_uris": {"ios": "https://dc.lft.to/lastmile_qr_scan", "android": "https://dc.lft.to/lastmile_qr_scan"}, "is_reserved": 0, "fusion_lon": 0.0, "fusion_lat": 0.0, "lon": -76.9950235, "name": "5b0917a4a68a8b0e38de231deadd6784"}, {"bike_id": "8d44175a705a630438c2b1819e915f7d", "type": "electric_scooter", "is_disabled": 0, "lat": 38.98432566666666, "rental_uris": {"ios": "https://dc.lft.to/lastmile_qr_scan", "android": "https://dc.lft.to/lastmile_qr_scan"}, "is_reserved": 0, "fusion_lon": 0.0, "fusion_lat": 0.0, "lon": -77.026747, "name": "8d44175a705a630438c2b1819e915f7d"}, {"bike_id": "71804302600f0943eea4965a591c1130", "type": "electric_scooter", "is_disabled": 0, "lat": 38.88257633333333, "rental_uris": {"ios": "https://dc.lft.to/lastmile_qr_scan", "android": "https://dc.lft.to/lastmile_qr_scan"}, "is_reserved": 0, "fusion_lon": 0.0, "fusion_lat": 0.0, "lon": -76.995096, "name": "71804302600f0943eea4965a591c1130"}, {"bike_id": "7e133a79e96118b3bab4e1af7bd86930", "type": "electric_scooter", "is_disabled": 0, "lat": 38.86661333333333, "rental_uris": {"ios": "https://dc.lft.to/lastmile_qr_scan", "android": "https://dc.lft.to/lastmile_qr_scan"}, "is_reserved": 0, "fusion_lon": 0.0, "fusion_lat": 0.0, "lon": -76.9888475, "name": "7e133a79e96118b3bab4e1af7bd86930"}, {"bike_id": "809ee60a6c744f24be7e9f7f743442e3", "type": "electric_scooter", "is_disabled": 0, "lat": 38.91759616666667, "rental_uris": {"ios": "https://dc.lft.to/lastmile_qr_scan", "android": "https://dc.lft.to/lastmile_qr_scan"}, "is_reserved": 0, "fusion_lon": 0.0, "fusion_lat": 0.0, "lon": -77.03448416666667, "name": "809ee60a6c744f24be7e9f7f743442e3"}, {"bike_id": "4549a4ca73658890292b81c2d9a095c3", "type": "electric_scooter", "is_disabled": 0, "lat": 38.90751366666667, "rental_uris": {"ios": "https://dc.lft.to/lastmile_qr_scan", "android": "https://dc.lft.to/lastmile_qr_scan"}, "is_reserved": 0, "fusion_lon": 0.0, "fusion_lat": 0.0, "lon": -77.03175066666667, "name": "4549a4ca73658890292b81c2d9a095c3"}, {"bike_id": "58d381a5549e53fcfbac58ad54300858", "type": "electric_bike", "is_disabled": 0, "lat": 38.808267, "rental_uris": {"ios": "https://dc.lft.to/lastmile_qr_scan", "android": "https://dc.lft.to/lastmile_qr_scan"}, "is_reserved": 0, "fusion_lon": 0.0, "fusion_lat": 0.0, "lon": -77.10138383333333, "name": "58d381a5549e53fcfbac58ad54300858"}, {"bike_id": "322bb92cc4a08deb6c7938017f588a46", "type": "electric_scooter", "is_disabled": 0, "lat": 38.910210666666664, "rental_uris": {"ios": "https://dc.lft.to/lastmile_qr_scan", "android": "https://dc.lft.to/lastmile_qr_scan"}, "is_reserved": 0, "fusion_lon": 0.0, "fusion_lat": 0.0, "lon": -77.0091485, "name": "322bb92cc4a08deb6c7938017f588a46"}, {"bike_id": "d5e3735d7ae76959eda8e09e9909eda9", "type": "electric_scooter", "is_disabled": 0, "lat": 38.917323, "rental_uris": {"ios": "https://dc.lft.to/lastmile_qr_scan", "android": "https://dc.lft.to/lastmile_qr_scan"}, "is_reserved": 0, "fusion_lon": 0.0, "fusion_lat": 0.0, "lon": -77.04069366666667, "name": "d5e3735d7ae76959eda8e09e9909eda9"}, {"bike_id": "846d6c945321e967c8bc17db33687d19", "type": "electric_scooter", "is_disabled": 0, "lat": 38.83103283333333, "rental_uris": {"ios": "https://dc.lft.to/lastmile_qr_scan", "android": "https://dc.lft.to/lastmile_qr_scan"}, "is_reserved": 0, "fusion_lon": 0.0, "fusion_lat": 0.0, "lon": -77.05166383333334, "name": "846d6c945321e967c8bc17db33687d19"}, {"bike_id": "8d1c1dd989cbc17d0f33bdc101af819e", "type": "electric_scooter", "is_disabled": 0, "lat": 38.908217, "rental_uris": {"ios": "https://dc.lft.to/lastmile_qr_scan", "android": "https://dc.lft.to/lastmile_qr_scan"}, "is_reserved": 0, "fusion_lon": 0.0, "fusion_lat": 0.0, "lon": -77.04462416666667, "name": "8d1c1dd989cbc17d0f33bdc101af819e"}, {"bike_id": "da4128b38f875572077fb6e680069e76", "type": "electric_scooter", "is_disabled": 0, "lat": 38.91421066666667, "rental_uris": {"ios": "https://dc.lft.to/lastmile_qr_scan", "android": "https://dc.lft.to/lastmile_qr_scan"}, "is_reserved": 0, "fusion_lon": 0.0, "fusion_lat": 0.0, "lon": -77.0212205, "name": "da4128b38f875572077fb6e680069e76"}, {"bike_id": "6b9bb78bc95bce7b0aa61fb6f48d60bd", "type": "electric_scooter", "is_disabled": 0, "lat": 38.90738866666667, "rental_uris": {"ios": "https://dc.lft.to/lastmile_qr_scan", "android": "https://dc.lft.to/lastmile_qr_scan"}, "is_reserved": 0, "fusion_lon": 0.0, "fusion_lat": 0.0, "lon": -76.97974266666667, "name": "6b9bb78bc95bce7b0aa61fb6f48d60bd"}, {"bike_id": "53f586656d04e5440ae99d02c43e2613", "type": "electric_scooter", "is_disabled": 0, "lat": 38.8673275, "rental_uris": {"ios": "https://dc.lft.to/lastmile_qr_scan", "android": "https://dc.lft.to/lastmile_qr_scan"}, "is_reserved": 0, "fusion_lon": 0.0, "fusion_lat": 0.0, "lon": -76.97863466666666, "name": "53f586656d04e5440ae99d02c43e2613"}, {"bike_id": "78a1b224ed4adb1546897f0a5d5d1539", "type": "electric_bike", "is_disabled": 0, "lat": 38.80396066666667, "rental_uris": {"ios": "https://dc.lft.to/lastmile_qr_scan", "android": "https://dc.lft.to/lastmile_qr_scan"}, "is_reserved": 0, "fusion_lon": 0.0, "fusion_lat": 0.0, "lon": -77.05560233333334, "name": "78a1b224ed4adb1546897f0a5d5d1539"}, {"bike_id": "ca8c4877fd2076606a18a1f0a46f7ca0", "type": "electric_scooter", "is_disabled": 0, "lat": 38.93897666666667, "rental_uris": {"ios": "https://dc.lft.to/lastmile_qr_scan", "android": "https://dc.lft.to/lastmile_qr_scan"}, "is_reserved": 0, "fusion_lon": 0.0, "fusion_lat": 0.0, "lon": -77.0332085, "name": "ca8c4877fd2076606a18a1f0a46f7ca0"}, {"bike_id": "277ace585a90601dbd6c2c075f715f48", "type": "electric_scooter", "is_disabled": 0, "lat": 38.92581766666667, "rental_uris": {"ios": "https://dc.lft.to/lastmile_qr_scan", "android": "https://dc.lft.to/lastmile_qr_scan"}, "is_reserved": 0, "fusion_lon": 0.0, "fusion_lat": 0.0, "lon": -77.0228125, "name": "277ace585a90601dbd6c2c075f715f48"}, {"bike_id": "ae23348134c65088a99658ab318fe993", "type": "electric_bike", "is_disabled": 0, "lat": 38.864874, "rental_uris": {"ios": "https://dc.lft.to/lastmile_qr_scan", "android": "https://dc.lft.to/lastmile_qr_scan"}, "is_reserved": 0, "fusion_lon": 0.0, "fusion_lat": 0.0, "lon": -76.9775, "name": "ae23348134c65088a99658ab318fe993"}, {"bike_id": "20a7c58e3aceaf63d111f4928b0b0b8f", "type": "electric_scooter", "is_disabled": 0, "lat": 38.89290066666667, "rental_uris": {"ios": "https://dc.lft.to/lastmile_qr_scan", "android": "https://dc.lft.to/lastmile_qr_scan"}, "is_reserved": 0, "fusion_lon": 0.0, "fusion_lat": 0.0, "lon": -77.02611416666667, "name": "20a7c58e3aceaf63d111f4928b0b0b8f"}, {"bike_id": "ec507dc9c41c55373c360ec6ee07a39e", "type": "electric_bike", "is_disabled": 0, "lat": 38.808255333333335, "rental_uris": {"ios": "https://dc.lft.to/lastmile_qr_scan", "android": "https://dc.lft.to/lastmile_qr_scan"}, "is_reserved": 0, "fusion_lon": 0.0, "fusion_lat": 0.0, "lon": -77.10143116666667, "name": "ec507dc9c41c55373c360ec6ee07a39e"}, {"bike_id": "a977707cb3749fd604d16b18f735786f", "type": "electric_scooter", "is_disabled": 0, "lat": 38.866277833333335, "rental_uris": {"ios": "https://dc.lft.to/lastmile_qr_scan", "android": "https://dc.lft.to/lastmile_qr_scan"}, "is_reserved": 0, "fusion_lon": 0.0, "fusion_lat": 0.0, "lon": -76.987164, "name": "a977707cb3749fd604d16b18f735786f"}, {"bike_id": "30f3f07adb663b0069515bd73a6acd00", "type": "electric_scooter", "is_disabled": 0, "lat": 38.87069966666667, "rental_uris": {"ios": "https://dc.lft.to/lastmile_qr_scan", "android": "https://dc.lft.to/lastmile_qr_scan"}, "is_reserved": 0, "fusion_lon": 0.0, "fusion_lat": 0.0, "lon": -76.98126716666667, "name": "30f3f07adb663b0069515bd73a6acd00"}, {"bike_id": "860c23daf7d854fa2380a10a41d55506", "type": "electric_scooter", "is_disabled": 0, "lat": 38.914836333333334, "rental_uris": {"ios": "https://dc.lft.to/lastmile_qr_scan", "android": "https://dc.lft.to/lastmile_qr_scan"}, "is_reserved": 0, "fusion_lon": 0.0, "fusion_lat": 0.0, "lon": -77.02501133333334, "name": "860c23daf7d854fa2380a10a41d55506"}, {"bike_id": "154a2ebe7b10ccef4b63aab2dab5dfd9", "type": "electric_scooter", "is_disabled": 0, "lat": 38.94199533333333, "rental_uris": {"ios": "https://dc.lft.to/lastmile_qr_scan", "android": "https://dc.lft.to/lastmile_qr_scan"}, "is_reserved": 0, "fusion_lon": 0.0, "fusion_lat": 0.0, "lon": -77.0254605, "name": "154a2ebe7b10ccef4b63aab2dab5dfd9"}, {"bike_id": "142ef402a40521502fa2f1d5a3b3e717", "type": "electric_scooter", "is_disabled": 0, "lat": 38.85814216666667, "rental_uris": {"ios": "https://dc.lft.to/lastmile_qr_scan", "android": "https://dc.lft.to/lastmile_qr_scan"}, "is_reserved": 0, "fusion_lon": 0.0, "fusion_lat": 0.0, "lon": -76.9892755, "name": "142ef402a40521502fa2f1d5a3b3e717"}, {"bike_id": "6032fbe932aef99715ed3fa9eff4dc64", "type": "electric_scooter", "is_disabled": 0, "lat": 38.93983566666667, "rental_uris": {"ios": "https://dc.lft.to/lastmile_qr_scan", "android": "https://dc.lft.to/lastmile_qr_scan"}, "is_reserved": 0, "fusion_lon": 0.0, "fusion_lat": 0.0, "lon": -77.02872516666666, "name": "6032fbe932aef99715ed3fa9eff4dc64"}, {"bike_id": "e4012310cfbfe8d1d5ad7d2a3419d590", "type": "electric_scooter", "is_disabled": 0, "lat": 38.91755783333333, "rental_uris": {"ios": "https://dc.lft.to/lastmile_qr_scan", "android": "https://dc.lft.to/lastmile_qr_scan"}, "is_reserved": 0, "fusion_lon": 0.0, "fusion_lat": 0.0, "lon": -77.02802216666667, "name": "e4012310cfbfe8d1d5ad7d2a3419d590"}, {"bike_id": "12a3f6a801f4444c168f95a8653693a7", "type": "electric_scooter", "is_disabled": 0, "lat": 38.900778833333334, "rental_uris": {"ios": "https://dc.lft.to/lastmile_qr_scan", "android": "https://dc.lft.to/lastmile_qr_scan"}, "is_reserved": 0, "fusion_lon": 0.0, "fusion_lat": 0.0, "lon": -77.04679083333333, "name": "12a3f6a801f4444c168f95a8653693a7"}, {"bike_id": "033b1ff102e14559a082cef07c440d74", "type": "electric_scooter", "is_disabled": 0, "lat": 38.912645, "rental_uris": {"ios": "https://dc.lft.to/lastmile_qr_scan", "android": "https://dc.lft.to/lastmile_qr_scan"}, "is_reserved": 0, "fusion_lon": 0.0, "fusion_lat": 0.0, "lon": -77.002207, "name": "033b1ff102e14559a082cef07c440d74"}, {"bike_id": "c395c980ca4db2d5d37b6d7bdfd2b8c6", "type": "electric_scooter", "is_disabled": 0, "lat": 38.9000565, "rental_uris": {"ios": "https://dc.lft.to/lastmile_qr_scan", "android": "https://dc.lft.to/lastmile_qr_scan"}, "is_reserved": 0, "fusion_lon": 0.0, "fusion_lat": 0.0, "lon": -77.00377016666667, "name": "c395c980ca4db2d5d37b6d7bdfd2b8c6"}, {"bike_id": "cc3a2bfe6a0df066a43fddb9bea4f9a8", "type": "electric_scooter", "is_disabled": 0, "lat": 38.9285815, "rental_uris": {"ios": "https://dc.lft.to/lastmile_qr_scan", "android": "https://dc.lft.to/lastmile_qr_scan"}, "is_reserved": 0, "fusion_lon": 0.0, "fusion_lat": 0.0, "lon": -77.0373635, "name": "cc3a2bfe6a0df066a43fddb9bea4f9a8"}, {"bike_id": "0cc9dcc7d0c2979631679bc79b38f8b4", "type": "electric_scooter", "is_disabled": 0, "lat": 38.9227305, "rental_uris": {"ios": "https://dc.lft.to/lastmile_qr_scan", "android": "https://dc.lft.to/lastmile_qr_scan"}, "is_reserved": 0, "fusion_lon": 0.0, "fusion_lat": 0.0, "lon": -77.036687, "name": "0cc9dcc7d0c2979631679bc79b38f8b4"}, {"bike_id": "fec486379f9166dbebb9e0663148d259", "type": "electric_scooter", "is_disabled": 0, "lat": 38.888499833333334, "rental_uris": {"ios": "https://dc.lft.to/lastmile_qr_scan", "android": "https://dc.lft.to/lastmile_qr_scan"}, "is_reserved": 0, "fusion_lon": 0.0, "fusion_lat": 0.0, "lon": -76.92682183333334, "name": "fec486379f9166dbebb9e0663148d259"}, {"bike_id": "dc6495e1717581afeac27d1c3e21830f", "type": "electric_scooter", "is_disabled": 0, "lat": 38.9573385, "rental_uris": {"ios": "https://dc.lft.to/lastmile_qr_scan", "android": "https://dc.lft.to/lastmile_qr_scan"}, "is_reserved": 0, "fusion_lon": 0.0, "fusion_lat": 0.0, "lon": -77.02420033333334, "name": "dc6495e1717581afeac27d1c3e21830f"}, {"bike_id": "acf820b293c50f6df00514d1d50756d9", "type": "electric_scooter", "is_disabled": 0, "lat": 38.918237833333336, "rental_uris": {"ios": "https://dc.lft.to/lastmile_qr_scan", "android": "https://dc.lft.to/lastmile_qr_scan"}, "is_reserved": 0, "fusion_lon": 0.0, "fusion_lat": 0.0, "lon": -77.02421266666667, "name": "acf820b293c50f6df00514d1d50756d9"}, {"bike_id": "1e129b361312d3d90db2e92efb430880", "type": "electric_scooter", "is_disabled": 0, "lat": 38.9293955, "rental_uris": {"ios": "https://dc.lft.to/lastmile_qr_scan", "android": "https://dc.lft.to/lastmile_qr_scan"}, "is_reserved": 0, "fusion_lon": 0.0, "fusion_lat": 0.0, "lon": -77.02319916666667, "name": "1e129b361312d3d90db2e92efb430880"}, {"bike_id": "439fbcd25e2043fa4a1fd067f49b3179", "type": "electric_bike", "is_disabled": 0, "lat": 38.869406, "rental_uris": {"ios": "https://dc.lft.to/lastmile_qr_scan", "android": "https://dc.lft.to/lastmile_qr_scan"}, "is_reserved": 0, "fusion_lon": 0.0, "fusion_lat": 0.0, "lon": -77.09464916666667, "name": "439fbcd25e2043fa4a1fd067f49b3179"}, {"bike_id": "7a8506e949cad57129bebafd21c69917", "type": "electric_scooter", "is_disabled": 0, "lat": 38.916071333333335, "rental_uris": {"ios": "https://dc.lft.to/lastmile_qr_scan", "android": "https://dc.lft.to/lastmile_qr_scan"}, "is_reserved": 0, "fusion_lon": 0.0, "fusion_lat": 0.0, "lon": -77.0229105, "name": "7a8506e949cad57129bebafd21c69917"}, {"bike_id": "da96f49fe0b367010c902fcfe1f5a4a7", "type": "electric_scooter", "is_disabled": 0, "lat": 38.906535166666664, "rental_uris": {"ios": "https://dc.lft.to/lastmile_qr_scan", "android": "https://dc.lft.to/lastmile_qr_scan"}, "is_reserved": 0, "fusion_lon": 0.0, "fusion_lat": 0.0, "lon": -77.02484966666667, "name": "da96f49fe0b367010c902fcfe1f5a4a7"}, {"bike_id": "80b58a7d9e399771e215c7676a39dd8b", "type": "electric_scooter", "is_disabled": 0, "lat": 38.926820666666664, "rental_uris": {"ios": "https://dc.lft.to/lastmile_qr_scan", "android": "https://dc.lft.to/lastmile_qr_scan"}, "is_reserved": 0, "fusion_lon": 0.0, "fusion_lat": 0.0, "lon": -77.02789666666666, "name": "80b58a7d9e399771e215c7676a39dd8b"}, {"bike_id": "6b9b3aac46af7d844e776801ecd5dd07", "type": "electric_scooter", "is_disabled": 0, "lat": 38.909772833333335, "rental_uris": {"ios": "https://dc.lft.to/lastmile_qr_scan", "android": "https://dc.lft.to/lastmile_qr_scan"}, "is_reserved": 0, "fusion_lon": 0.0, "fusion_lat": 0.0, "lon": -77.028056, "name": "6b9b3aac46af7d844e776801ecd5dd07"}, {"bike_id": "e9e5b7bf8a24bdcf449660600cde142b", "type": "electric_scooter", "is_disabled": 0, "lat": 38.87477783333333, "rental_uris": {"ios": "https://dc.lft.to/lastmile_qr_scan", "android": "https://dc.lft.to/lastmile_qr_scan"}, "is_reserved": 0, "fusion_lon": 0.0, "fusion_lat": 0.0, "lon": -77.010691, "name": "e9e5b7bf8a24bdcf449660600cde142b"}, {"bike_id": "76420b6730423fc2e7ceb14aa25e5908", "type": "electric_scooter", "is_disabled": 0, "lat": 38.9365515, "rental_uris": {"ios": "https://dc.lft.to/lastmile_qr_scan", "android": "https://dc.lft.to/lastmile_qr_scan"}, "is_reserved": 0, "fusion_lon": 0.0, "fusion_lat": 0.0, "lon": -77.02637916666667, "name": "76420b6730423fc2e7ceb14aa25e5908"}, {"bike_id": "709198dec369b06b8e134757486920be", "type": "electric_scooter", "is_disabled": 0, "lat": 38.88432383333333, "rental_uris": {"ios": "https://dc.lft.to/lastmile_qr_scan", "android": "https://dc.lft.to/lastmile_qr_scan"}, "is_reserved": 0, "fusion_lon": 0.0, "fusion_lat": 0.0, "lon": -76.95750216666667, "name": "709198dec369b06b8e134757486920be"}, {"bike_id": "080cdb5f7630e2f88dc750794738d59d", "type": "electric_scooter", "is_disabled": 0, "lat": 38.9182255, "rental_uris": {"ios": "https://dc.lft.to/lastmile_qr_scan", "android": "https://dc.lft.to/lastmile_qr_scan"}, "is_reserved": 0, "fusion_lon": 0.0, "fusion_lat": 0.0, "lon": -77.02420866666667, "name": "080cdb5f7630e2f88dc750794738d59d"}, {"bike_id": "11d9f3129b2160fcb0914fdf41098ea2", "type": "electric_scooter", "is_disabled": 0, "lat": 38.90382833333334, "rental_uris": {"ios": "https://dc.lft.to/lastmile_qr_scan", "android": "https://dc.lft.to/lastmile_qr_scan"}, "is_reserved": 0, "fusion_lon": 0.0, "fusion_lat": 0.0, "lon": -76.98200966666667, "name": "11d9f3129b2160fcb0914fdf41098ea2"}, {"bike_id": "58f5b2d28b925f89b61b0a9dc5b67928", "type": "electric_scooter", "is_disabled": 0, "lat": 38.905436, "rental_uris": {"ios": "https://dc.lft.to/lastmile_qr_scan", "android": "https://dc.lft.to/lastmile_qr_scan"}, "is_reserved": 0, "fusion_lon": 0.0, "fusion_lat": 0.0, "lon": -77.06885933333334, "name": "58f5b2d28b925f89b61b0a9dc5b67928"}, {"bike_id": "1315cff409d3c38ad846844426a54c7e", "type": "electric_scooter", "is_disabled": 0, "lat": 38.887462666666664, "rental_uris": {"ios": "https://dc.lft.to/lastmile_qr_scan", "android": "https://dc.lft.to/lastmile_qr_scan"}, "is_reserved": 0, "fusion_lon": 0.0, "fusion_lat": 0.0, "lon": -76.99626933333333, "name": "1315cff409d3c38ad846844426a54c7e"}, {"bike_id": "5f426b3c128749f964a3796f382d03f3", "type": "electric_bike", "is_disabled": 0, "lat": 39.05496016666667, "rental_uris": {"ios": "https://dc.lft.to/lastmile_qr_scan", "android": "https://dc.lft.to/lastmile_qr_scan"}, "is_reserved": 0, "fusion_lon": 0.0, "fusion_lat": 0.0, "lon": -77.117919, "name": "5f426b3c128749f964a3796f382d03f3"}, {"bike_id": "b14a7190e461f48ccf33241d6d6bedf8", "type": "electric_scooter", "is_disabled": 0, "lat": 38.908369666666665, "rental_uris": {"ios": "https://dc.lft.to/lastmile_qr_scan", "android": "https://dc.lft.to/lastmile_qr_scan"}, "is_reserved": 0, "fusion_lon": 0.0, "fusion_lat": 0.0, "lon": -77.02199283333333, "name": "b14a7190e461f48ccf33241d6d6bedf8"}, {"bike_id": "a450e4248ad867d2b9814fd593f7f53b", "type": "electric_bike", "is_disabled": 0, "lat": 39.0373815, "rental_uris": {"ios": "https://dc.lft.to/lastmile_qr_scan", "android": "https://dc.lft.to/lastmile_qr_scan"}, "is_reserved": 0, "fusion_lon": 0.0, "fusion_lat": 0.0, "lon": -77.05473566666667, "name": "a450e4248ad867d2b9814fd593f7f53b"}, {"bike_id": "1612f4889e488a8b5020202a85170989", "type": "electric_bike", "is_disabled": 0, "lat": 38.90830033333334, "rental_uris": {"ios": "https://dc.lft.to/lastmile_qr_scan", "android": "https://dc.lft.to/lastmile_qr_scan"}, "is_reserved": 0, "fusion_lon": 0.0, "fusion_lat": 0.0, "lon": -76.941584, "name": "1612f4889e488a8b5020202a85170989"}, {"bike_id": "2a019fb66143f080ceb2bae71429d7a1", "type": "electric_scooter", "is_disabled": 0, "lat": 38.9284025, "rental_uris": {"ios": "https://dc.lft.to/lastmile_qr_scan", "android": "https://dc.lft.to/lastmile_qr_scan"}, "is_reserved": 0, "fusion_lon": 0.0, "fusion_lat": 0.0, "lon": -77.027568, "name": "2a019fb66143f080ceb2bae71429d7a1"}, {"bike_id": "a3633598da5288785b4ef2b6540b58f2", "type": "electric_scooter", "is_disabled": 0, "lat": 38.929053333333336, "rental_uris": {"ios": "https://dc.lft.to/lastmile_qr_scan", "android": "https://dc.lft.to/lastmile_qr_scan"}, "is_reserved": 0, "fusion_lon": 0.0, "fusion_lat": 0.0, "lon": -77.03744466666667, "name": "a3633598da5288785b4ef2b6540b58f2"}, {"bike_id": "a29fa00c4f05b6888664adc11fcdde00", "type": "electric_scooter", "is_disabled": 0, "lat": 38.92340183333334, "rental_uris": {"ios": "https://dc.lft.to/lastmile_qr_scan", "android": "https://dc.lft.to/lastmile_qr_scan"}, "is_reserved": 0, "fusion_lon": 0.0, "fusion_lat": 0.0, "lon": -77.00195183333334, "name": "a29fa00c4f05b6888664adc11fcdde00"}, {"bike_id": "12f8b2675a3fb4163fb372bcb816b29b", "type": "electric_bike", "is_disabled": 0, "lat": 38.836095666666665, "rental_uris": {"ios": "https://dc.lft.to/lastmile_qr_scan", "android": "https://dc.lft.to/lastmile_qr_scan"}, "is_reserved": 0, "fusion_lon": 0.0, "fusion_lat": 0.0, "lon": -77.00384666666666, "name": "12f8b2675a3fb4163fb372bcb816b29b"}, {"bike_id": "4863d21e03ad4d496b324ed1400a0abe", "type": "electric_scooter", "is_disabled": 0, "lat": 38.889352333333335, "rental_uris": {"ios": "https://dc.lft.to/lastmile_qr_scan", "android": "https://dc.lft.to/lastmile_qr_scan"}, "is_reserved": 0, "fusion_lon": 0.0, "fusion_lat": 0.0, "lon": -77.01507816666667, "name": "4863d21e03ad4d496b324ed1400a0abe"}, {"bike_id": "237fd25957373404c0ff57955c4aa907", "type": "electric_bike", "is_disabled": 0, "lat": 38.949003833333336, "rental_uris": {"ios": "https://dc.lft.to/lastmile_qr_scan", "android": "https://dc.lft.to/lastmile_qr_scan"}, "is_reserved": 0, "fusion_lon": 0.0, "fusion_lat": 0.0, "lon": -76.96378733333333, "name": "237fd25957373404c0ff57955c4aa907"}, {"bike_id": "7eb293d2b99f7d164cea73bbfa9360e1", "type": "electric_scooter", "is_disabled": 0, "lat": 38.90552233333333, "rental_uris": {"ios": "https://dc.lft.to/lastmile_qr_scan", "android": "https://dc.lft.to/lastmile_qr_scan"}, "is_reserved": 0, "fusion_lon": 0.0, "fusion_lat": 0.0, "lon": -76.996205, "name": "7eb293d2b99f7d164cea73bbfa9360e1"}, {"bike_id": "6397d5fb6046e0880a45770457f472a8", "type": "electric_scooter", "is_disabled": 0, "lat": 38.916777, "rental_uris": {"ios": "https://dc.lft.to/lastmile_qr_scan", "android": "https://dc.lft.to/lastmile_qr_scan"}, "is_reserved": 0, "fusion_lon": 0.0, "fusion_lat": 0.0, "lon": -77.02359416666667, "name": "6397d5fb6046e0880a45770457f472a8"}, {"bike_id": "767cb3c9bd08ad2d72a1f4a453b92699", "type": "electric_bike", "is_disabled": 0, "lat": 38.804148, "rental_uris": {"ios": "https://dc.lft.to/lastmile_qr_scan", "android": "https://dc.lft.to/lastmile_qr_scan"}, "is_reserved": 0, "fusion_lon": 0.0, "fusion_lat": 0.0, "lon": -77.05554833333333, "name": "767cb3c9bd08ad2d72a1f4a453b92699"}, {"bike_id": "80f75624b23592a9c1aa06f61bb1f9fe", "type": "electric_scooter", "is_disabled": 0, "lat": 38.90497033333333, "rental_uris": {"ios": "https://dc.lft.to/lastmile_qr_scan", "android": "https://dc.lft.to/lastmile_qr_scan"}, "is_reserved": 0, "fusion_lon": 0.0, "fusion_lat": 0.0, "lon": -77.01994133333334, "name": "80f75624b23592a9c1aa06f61bb1f9fe"}, {"bike_id": "bd878649589ec94893f0b0a6d2ad0161", "type": "electric_bike", "is_disabled": 0, "lat": 38.8071065, "rental_uris": {"ios": "https://dc.lft.to/lastmile_qr_scan", "android": "https://dc.lft.to/lastmile_qr_scan"}, "is_reserved": 0, "fusion_lon": 0.0, "fusion_lat": 0.0, "lon": -77.06171183333333, "name": "bd878649589ec94893f0b0a6d2ad0161"}, {"bike_id": "68841d51d85f60a2b1d697f7f6e627a7", "type": "electric_scooter", "is_disabled": 0, "lat": 38.92240616666667, "rental_uris": {"ios": "https://dc.lft.to/lastmile_qr_scan", "android": "https://dc.lft.to/lastmile_qr_scan"}, "is_reserved": 0, "fusion_lon": 0.0, "fusion_lat": 0.0, "lon": -77.0391865, "name": "68841d51d85f60a2b1d697f7f6e627a7"}, {"bike_id": "de7fafba907d244e81ba52c3c25160d1", "type": "electric_scooter", "is_disabled": 0, "lat": 38.895357833333335, "rental_uris": {"ios": "https://dc.lft.to/lastmile_qr_scan", "android": "https://dc.lft.to/lastmile_qr_scan"}, "is_reserved": 0, "fusion_lon": 0.0, "fusion_lat": 0.0, "lon": -77.010813, "name": "de7fafba907d244e81ba52c3c25160d1"}, {"bike_id": "889332c6470d3ca2aa7a24d876d8dc9a", "type": "electric_scooter", "is_disabled": 0, "lat": 38.884301, "rental_uris": {"ios": "https://dc.lft.to/lastmile_qr_scan", "android": "https://dc.lft.to/lastmile_qr_scan"}, "is_reserved": 0, "fusion_lon": 0.0, "fusion_lat": 0.0, "lon": -76.9575435, "name": "889332c6470d3ca2aa7a24d876d8dc9a"}, {"bike_id": "990184a9bf190ed87a3660751be656ce", "type": "electric_scooter", "is_disabled": 0, "lat": 38.9228565, "rental_uris": {"ios": "https://dc.lft.to/lastmile_qr_scan", "android": "https://dc.lft.to/lastmile_qr_scan"}, "is_reserved": 0, "fusion_lon": 0.0, "fusion_lat": 0.0, "lon": -76.99467466666667, "name": "990184a9bf190ed87a3660751be656ce"}, {"bike_id": "4e695e528fd12c8a5344aa033fd055b4", "type": "electric_bike", "is_disabled": 0, "lat": 38.8543945, "rental_uris": {"ios": "https://dc.lft.to/lastmile_qr_scan", "android": "https://dc.lft.to/lastmile_qr_scan"}, "is_reserved": 0, "fusion_lon": 0.0, "fusion_lat": 0.0, "lon": -77.08306266666666, "name": "4e695e528fd12c8a5344aa033fd055b4"}, {"bike_id": "d864f2d94e57cc727886c6f62e400041", "type": "electric_scooter", "is_disabled": 0, "lat": 38.936353833333335, "rental_uris": {"ios": "https://dc.lft.to/lastmile_qr_scan", "android": "https://dc.lft.to/lastmile_qr_scan"}, "is_reserved": 0, "fusion_lon": 0.0, "fusion_lat": 0.0, "lon": -77.0365765, "name": "d864f2d94e57cc727886c6f62e400041"}, {"bike_id": "24ee9e26d618f3b9b8075cd2d982c411", "type": "electric_scooter", "is_disabled": 0, "lat": 38.952198333333335, "rental_uris": {"ios": "https://dc.lft.to/lastmile_qr_scan", "android": "https://dc.lft.to/lastmile_qr_scan"}, "is_reserved": 0, "fusion_lon": 0.0, "fusion_lat": 0.0, "lon": -77.07065966666667, "name": "24ee9e26d618f3b9b8075cd2d982c411"}, {"bike_id": "abcd0b974e21cf062f8e88113a316fe0", "type": "electric_scooter", "is_disabled": 0, "lat": 38.8763265, "rental_uris": {"ios": "https://dc.lft.to/lastmile_qr_scan", "android": "https://dc.lft.to/lastmile_qr_scan"}, "is_reserved": 0, "fusion_lon": 0.0, "fusion_lat": 0.0, "lon": -77.00061033333333, "name": "abcd0b974e21cf062f8e88113a316fe0"}, {"bike_id": "664ee5f51e6cf308d6a601b60deda052", "type": "electric_scooter", "is_disabled": 0, "lat": 38.92674733333333, "rental_uris": {"ios": "https://dc.lft.to/lastmile_qr_scan", "android": "https://dc.lft.to/lastmile_qr_scan"}, "is_reserved": 0, "fusion_lon": 0.0, "fusion_lat": 0.0, "lon": -77.01506766666667, "name": "664ee5f51e6cf308d6a601b60deda052"}, {"bike_id": "af69369789ef51ab329c09a34f4c5658", "type": "electric_scooter", "is_disabled": 0, "lat": 38.9018525, "rental_uris": {"ios": "https://dc.lft.to/lastmile_qr_scan", "android": "https://dc.lft.to/lastmile_qr_scan"}, "is_reserved": 0, "fusion_lon": 0.0, "fusion_lat": 0.0, "lon": -77.03950316666666, "name": "af69369789ef51ab329c09a34f4c5658"}, {"bike_id": "f69c27cf746bd7d277da0254fac4911f", "type": "electric_scooter", "is_disabled": 0, "lat": 38.908516166666665, "rental_uris": {"ios": "https://dc.lft.to/lastmile_qr_scan", "android": "https://dc.lft.to/lastmile_qr_scan"}, "is_reserved": 0, "fusion_lon": 0.0, "fusion_lat": 0.0, "lon": -77.02068016666666, "name": "f69c27cf746bd7d277da0254fac4911f"}, {"bike_id": "4efa2b41f58ba2b29099f69a61e0a67e", "type": "electric_scooter", "is_disabled": 0, "lat": 38.919543833333336, "rental_uris": {"ios": "https://dc.lft.to/lastmile_qr_scan", "android": "https://dc.lft.to/lastmile_qr_scan"}, "is_reserved": 0, "fusion_lon": 0.0, "fusion_lat": 0.0, "lon": -77.04876783333333, "name": "4efa2b41f58ba2b29099f69a61e0a67e"}, {"bike_id": "3ea8f38c2d8e6083bdec1553cf1bb1e6", "type": "electric_scooter", "is_disabled": 0, "lat": 38.928641166666665, "rental_uris": {"ios": "https://dc.lft.to/lastmile_qr_scan", "android": "https://dc.lft.to/lastmile_qr_scan"}, "is_reserved": 0, "fusion_lon": 0.0, "fusion_lat": 0.0, "lon": -77.0217585, "name": "3ea8f38c2d8e6083bdec1553cf1bb1e6"}, {"bike_id": "98e30bc2a5984d5a157e1ffe00646970", "type": "electric_scooter", "is_disabled": 0, "lat": 38.91606, "rental_uris": {"ios": "https://dc.lft.to/lastmile_qr_scan", "android": "https://dc.lft.to/lastmile_qr_scan"}, "is_reserved": 0, "fusion_lon": 0.0, "fusion_lat": 0.0, "lon": -77.02953066666667, "name": "98e30bc2a5984d5a157e1ffe00646970"}, {"bike_id": "2705a5423e7d5b8c1f9d64657d022cb5", "type": "electric_scooter", "is_disabled": 0, "lat": 38.91634633333334, "rental_uris": {"ios": "https://dc.lft.to/lastmile_qr_scan", "android": "https://dc.lft.to/lastmile_qr_scan"}, "is_reserved": 0, "fusion_lon": 0.0, "fusion_lat": 0.0, "lon": -77.039623, "name": "2705a5423e7d5b8c1f9d64657d022cb5"}, {"bike_id": "56e574f4015d6ae149aef1bddd971f85", "type": "electric_scooter", "is_disabled": 0, "lat": 38.9281485, "rental_uris": {"ios": "https://dc.lft.to/lastmile_qr_scan", "android": "https://dc.lft.to/lastmile_qr_scan"}, "is_reserved": 0, "fusion_lon": 0.0, "fusion_lat": 0.0, "lon": -77.0280635, "name": "56e574f4015d6ae149aef1bddd971f85"}, {"bike_id": "5c0b5d2e843485e4f6a3c1924bff0cc0", "type": "electric_scooter", "is_disabled": 0, "lat": 38.909961333333335, "rental_uris": {"ios": "https://dc.lft.to/lastmile_qr_scan", "android": "https://dc.lft.to/lastmile_qr_scan"}, "is_reserved": 0, "fusion_lon": 0.0, "fusion_lat": 0.0, "lon": -77.0400815, "name": "5c0b5d2e843485e4f6a3c1924bff0cc0"}, {"bike_id": "7031ecdc1f18d06f14b64907416e61d6", "type": "electric_scooter", "is_disabled": 0, "lat": 38.90536066666667, "rental_uris": {"ios": "https://dc.lft.to/lastmile_qr_scan", "android": "https://dc.lft.to/lastmile_qr_scan"}, "is_reserved": 0, "fusion_lon": 0.0, "fusion_lat": 0.0, "lon": -77.0567655, "name": "7031ecdc1f18d06f14b64907416e61d6"}, {"bike_id": "4bc6cebb761dba55add85e6a8162b6c7", "type": "electric_scooter", "is_disabled": 0, "lat": 38.899333, "rental_uris": {"ios": "https://dc.lft.to/lastmile_qr_scan", "android": "https://dc.lft.to/lastmile_qr_scan"}, "is_reserved": 0, "fusion_lon": 0.0, "fusion_lat": 0.0, "lon": -77.00351716666667, "name": "4bc6cebb761dba55add85e6a8162b6c7"}, {"bike_id": "255d403d0c1b98d4d0227758c39c474f", "type": "electric_scooter", "is_disabled": 0, "lat": 38.92829833333333, "rental_uris": {"ios": "https://dc.lft.to/lastmile_qr_scan", "android": "https://dc.lft.to/lastmile_qr_scan"}, "is_reserved": 0, "fusion_lon": 0.0, "fusion_lat": 0.0, "lon": -77.03719266666667, "name": "255d403d0c1b98d4d0227758c39c474f"}, {"bike_id": "289ce2b7e6b688986d9b054f2f2459e0", "type": "electric_scooter", "is_disabled": 0, "lat": 38.92827783333333, "rental_uris": {"ios": "https://dc.lft.to/lastmile_qr_scan", "android": "https://dc.lft.to/lastmile_qr_scan"}, "is_reserved": 0, "fusion_lon": 0.0, "fusion_lat": 0.0, "lon": -77.032859, "name": "289ce2b7e6b688986d9b054f2f2459e0"}, {"bike_id": "7cffa4acdaeed1a2a18e01dbd92265d5", "type": "electric_scooter", "is_disabled": 0, "lat": 38.899157333333335, "rental_uris": {"ios": "https://dc.lft.to/lastmile_qr_scan", "android": "https://dc.lft.to/lastmile_qr_scan"}, "is_reserved": 0, "fusion_lon": 0.0, "fusion_lat": 0.0, "lon": -76.93367966666666, "name": "7cffa4acdaeed1a2a18e01dbd92265d5"}, {"bike_id": "b8ad51d6f89eafce2e63149bbda47f78", "type": "electric_scooter", "is_disabled": 0, "lat": 38.934341333333336, "rental_uris": {"ios": "https://dc.lft.to/lastmile_qr_scan", "android": "https://dc.lft.to/lastmile_qr_scan"}, "is_reserved": 0, "fusion_lon": 0.0, "fusion_lat": 0.0, "lon": -77.04537133333334, "name": "b8ad51d6f89eafce2e63149bbda47f78"}, {"bike_id": "c8a2f43d0f3ac68c727f79d814efd50c", "type": "electric_scooter", "is_disabled": 0, "lat": 38.920175666666665, "rental_uris": {"ios": "https://dc.lft.to/lastmile_qr_scan", "android": "https://dc.lft.to/lastmile_qr_scan"}, "is_reserved": 0, "fusion_lon": 0.0, "fusion_lat": 0.0, "lon": -77.03139166666666, "name": "c8a2f43d0f3ac68c727f79d814efd50c"}, {"bike_id": "02afa72adafc5b7aa0e0d4a5d8c1ea0e", "type": "electric_scooter", "is_disabled": 0, "lat": 38.927065999999996, "rental_uris": {"ios": "https://dc.lft.to/lastmile_qr_scan", "android": "https://dc.lft.to/lastmile_qr_scan"}, "is_reserved": 0, "fusion_lon": 0.0, "fusion_lat": 0.0, "lon": -77.03740416666666, "name": "02afa72adafc5b7aa0e0d4a5d8c1ea0e"}, {"bike_id": "c9960330e55e9ffb2ef0fcb963c02675", "type": "electric_scooter", "is_disabled": 0, "lat": 38.958515166666665, "rental_uris": {"ios": "https://dc.lft.to/lastmile_qr_scan", "android": "https://dc.lft.to/lastmile_qr_scan"}, "is_reserved": 0, "fusion_lon": 0.0, "fusion_lat": 0.0, "lon": -77.02804183333333, "name": "c9960330e55e9ffb2ef0fcb963c02675"}, {"bike_id": "44eb3a714c7839f17c725ddfa75cdc0f", "type": "electric_scooter", "is_disabled": 0, "lat": 38.94130583333333, "rental_uris": {"ios": "https://dc.lft.to/lastmile_qr_scan", "android": "https://dc.lft.to/lastmile_qr_scan"}, "is_reserved": 0, "fusion_lon": 0.0, "fusion_lat": 0.0, "lon": -77.015472, "name": "44eb3a714c7839f17c725ddfa75cdc0f"}, {"bike_id": "decf2045ddd8ed7760e412bf66907b4e", "type": "electric_scooter", "is_disabled": 0, "lat": 38.94422516666667, "rental_uris": {"ios": "https://dc.lft.to/lastmile_qr_scan", "android": "https://dc.lft.to/lastmile_qr_scan"}, "is_reserved": 0, "fusion_lon": 0.0, "fusion_lat": 0.0, "lon": -77.06326816666666, "name": "decf2045ddd8ed7760e412bf66907b4e"}, {"bike_id": "a89b913342dcfd685949b555486658bd", "type": "electric_scooter", "is_disabled": 0, "lat": 38.92405566666667, "rental_uris": {"ios": "https://dc.lft.to/lastmile_qr_scan", "android": "https://dc.lft.to/lastmile_qr_scan"}, "is_reserved": 0, "fusion_lon": 0.0, "fusion_lat": 0.0, "lon": -77.02022083333334, "name": "a89b913342dcfd685949b555486658bd"}, {"bike_id": "2e0a6e630baefb310305dd506f0e2d7f", "type": "electric_scooter", "is_disabled": 0, "lat": 38.92914583333334, "rental_uris": {"ios": "https://dc.lft.to/lastmile_qr_scan", "android": "https://dc.lft.to/lastmile_qr_scan"}, "is_reserved": 0, "fusion_lon": 0.0, "fusion_lat": 0.0, "lon": -77.02089866666667, "name": "2e0a6e630baefb310305dd506f0e2d7f"}, {"bike_id": "293b8b1aae76f2934ec620b86aed024f", "type": "electric_scooter", "is_disabled": 0, "lat": 38.9133215, "rental_uris": {"ios": "https://dc.lft.to/lastmile_qr_scan", "android": "https://dc.lft.to/lastmile_qr_scan"}, "is_reserved": 0, "fusion_lon": 0.0, "fusion_lat": 0.0, "lon": -77.047309, "name": "293b8b1aae76f2934ec620b86aed024f"}, {"bike_id": "28c5426b3106378e5cbf91b5e247a2c1", "type": "electric_scooter", "is_disabled": 0, "lat": 38.905733833333336, "rental_uris": {"ios": "https://dc.lft.to/lastmile_qr_scan", "android": "https://dc.lft.to/lastmile_qr_scan"}, "is_reserved": 0, "fusion_lon": 0.0, "fusion_lat": 0.0, "lon": -77.003916, "name": "28c5426b3106378e5cbf91b5e247a2c1"}, {"bike_id": "f263e7a6f7d2d1a023518bd236d618d2", "type": "electric_scooter", "is_disabled": 0, "lat": 38.94965033333333, "rental_uris": {"ios": "https://dc.lft.to/lastmile_qr_scan", "android": "https://dc.lft.to/lastmile_qr_scan"}, "is_reserved": 0, "fusion_lon": 0.0, "fusion_lat": 0.0, "lon": -77.06632783333333, "name": "f263e7a6f7d2d1a023518bd236d618d2"}, {"bike_id": "a786677318ca1a66b52a7df3cf574604", "type": "electric_bike", "is_disabled": 0, "lat": 38.8554035, "rental_uris": {"ios": "https://dc.lft.to/lastmile_qr_scan", "android": "https://dc.lft.to/lastmile_qr_scan"}, "is_reserved": 0, "fusion_lon": 0.0, "fusion_lat": 0.0, "lon": -77.1201995, "name": "a786677318ca1a66b52a7df3cf574604"}, {"bike_id": "32c6fc600f007e9529c60c87eafd344d", "type": "electric_scooter", "is_disabled": 0, "lat": 38.90000933333334, "rental_uris": {"ios": "https://dc.lft.to/lastmile_qr_scan", "android": "https://dc.lft.to/lastmile_qr_scan"}, "is_reserved": 0, "fusion_lon": 0.0, "fusion_lat": 0.0, "lon": -76.99616683333333, "name": "32c6fc600f007e9529c60c87eafd344d"}, {"bike_id": "19d87b23b4574a640bce7b2a233724cb", "type": "electric_scooter", "is_disabled": 0, "lat": 38.923688166666665, "rental_uris": {"ios": "https://dc.lft.to/lastmile_qr_scan", "android": "https://dc.lft.to/lastmile_qr_scan"}, "is_reserved": 0, "fusion_lon": 0.0, "fusion_lat": 0.0, "lon": -77.04131183333334, "name": "19d87b23b4574a640bce7b2a233724cb"}, {"bike_id": "7babaaef37a51d3dda59636a7acacbea", "type": "electric_scooter", "is_disabled": 0, "lat": 38.914008833333334, "rental_uris": {"ios": "https://dc.lft.to/lastmile_qr_scan", "android": "https://dc.lft.to/lastmile_qr_scan"}, "is_reserved": 0, "fusion_lon": 0.0, "fusion_lat": 0.0, "lon": -76.98191766666666, "name": "7babaaef37a51d3dda59636a7acacbea"}, {"bike_id": "344afc02cdf920d0179db5e253b8fca5", "type": "electric_scooter", "is_disabled": 0, "lat": 38.91167316666667, "rental_uris": {"ios": "https://dc.lft.to/lastmile_qr_scan", "android": "https://dc.lft.to/lastmile_qr_scan"}, "is_reserved": 0, "fusion_lon": 0.0, "fusion_lat": 0.0, "lon": -77.0687005, "name": "344afc02cdf920d0179db5e253b8fca5"}, {"bike_id": "932c8d18d8514f049109717f7f02d545", "type": "electric_scooter", "is_disabled": 0, "lat": 38.919219166666664, "rental_uris": {"ios": "https://dc.lft.to/lastmile_qr_scan", "android": "https://dc.lft.to/lastmile_qr_scan"}, "is_reserved": 0, "fusion_lon": 0.0, "fusion_lat": 0.0, "lon": -77.04158166666667, "name": "932c8d18d8514f049109717f7f02d545"}, {"bike_id": "07fe0f1c3c6507551f50b9ab829f9d5d", "type": "electric_scooter", "is_disabled": 0, "lat": 38.91679416666667, "rental_uris": {"ios": "https://dc.lft.to/lastmile_qr_scan", "android": "https://dc.lft.to/lastmile_qr_scan"}, "is_reserved": 0, "fusion_lon": 0.0, "fusion_lat": 0.0, "lon": -77.02970016666667, "name": "07fe0f1c3c6507551f50b9ab829f9d5d"}, {"bike_id": "691e4c1b900870a2f33ca6fd99d2f082", "type": "electric_scooter", "is_disabled": 0, "lat": 38.8922575, "rental_uris": {"ios": "https://dc.lft.to/lastmile_qr_scan", "android": "https://dc.lft.to/lastmile_qr_scan"}, "is_reserved": 0, "fusion_lon": 0.0, "fusion_lat": 0.0, "lon": -77.01742333333333, "name": "691e4c1b900870a2f33ca6fd99d2f082"}, {"bike_id": "20f9db35c0d4acdea1b1a651a5ef0390", "type": "electric_scooter", "is_disabled": 0, "lat": 38.91732916666667, "rental_uris": {"ios": "https://dc.lft.to/lastmile_qr_scan", "android": "https://dc.lft.to/lastmile_qr_scan"}, "is_reserved": 0, "fusion_lon": 0.0, "fusion_lat": 0.0, "lon": -77.01886766666667, "name": "20f9db35c0d4acdea1b1a651a5ef0390"}, {"bike_id": "2b0c488ce2b3ca3463d0c2f681bace02", "type": "electric_scooter", "is_disabled": 0, "lat": 38.95686083333333, "rental_uris": {"ios": "https://dc.lft.to/lastmile_qr_scan", "android": "https://dc.lft.to/lastmile_qr_scan"}, "is_reserved": 0, "fusion_lon": 0.0, "fusion_lat": 0.0, "lon": -77.0240605, "name": "2b0c488ce2b3ca3463d0c2f681bace02"}, {"bike_id": "65237f6320dd23096b252677ea7ed452", "type": "electric_scooter", "is_disabled": 0, "lat": 38.90729366666667, "rental_uris": {"ios": "https://dc.lft.to/lastmile_qr_scan", "android": "https://dc.lft.to/lastmile_qr_scan"}, "is_reserved": 0, "fusion_lon": 0.0, "fusion_lat": 0.0, "lon": -77.05326966666667, "name": "65237f6320dd23096b252677ea7ed452"}, {"bike_id": "151ce7477c10f29740c797295cccf8f9", "type": "electric_scooter", "is_disabled": 0, "lat": 38.9268655, "rental_uris": {"ios": "https://dc.lft.to/lastmile_qr_scan", "android": "https://dc.lft.to/lastmile_qr_scan"}, "is_reserved": 0, "fusion_lon": 0.0, "fusion_lat": 0.0, "lon": -77.02157566666666, "name": "151ce7477c10f29740c797295cccf8f9"}, {"bike_id": "e9ded91669c8edea0a26543529d3a68b", "type": "electric_scooter", "is_disabled": 0, "lat": 38.932449, "rental_uris": {"ios": "https://dc.lft.to/lastmile_qr_scan", "android": "https://dc.lft.to/lastmile_qr_scan"}, "is_reserved": 0, "fusion_lon": 0.0, "fusion_lat": 0.0, "lon": -77.0359085, "name": "e9ded91669c8edea0a26543529d3a68b"}, {"bike_id": "c4f6b51a4b4d63ebe38ee831c06f465b", "type": "electric_scooter", "is_disabled": 0, "lat": 38.92058216666667, "rental_uris": {"ios": "https://dc.lft.to/lastmile_qr_scan", "android": "https://dc.lft.to/lastmile_qr_scan"}, "is_reserved": 0, "fusion_lon": 0.0, "fusion_lat": 0.0, "lon": -77.0345955, "name": "c4f6b51a4b4d63ebe38ee831c06f465b"}, {"bike_id": "d11c117bf4afba6343cfcde6b01cdcef", "type": "electric_scooter", "is_disabled": 0, "lat": 38.91710233333333, "rental_uris": {"ios": "https://dc.lft.to/lastmile_qr_scan", "android": "https://dc.lft.to/lastmile_qr_scan"}, "is_reserved": 0, "fusion_lon": 0.0, "fusion_lat": 0.0, "lon": -77.04123066666666, "name": "d11c117bf4afba6343cfcde6b01cdcef"}, {"bike_id": "387de67f96429389a7005dc43f692a88", "type": "electric_scooter", "is_disabled": 0, "lat": 38.911061333333336, "rental_uris": {"ios": "https://dc.lft.to/lastmile_qr_scan", "android": "https://dc.lft.to/lastmile_qr_scan"}, "is_reserved": 0, "fusion_lon": 0.0, "fusion_lat": 0.0, "lon": -77.0448235, "name": "387de67f96429389a7005dc43f692a88"}, {"bike_id": "612d61e92d45aeaade9803bfa557f0d2", "type": "electric_scooter", "is_disabled": 0, "lat": 38.915727333333336, "rental_uris": {"ios": "https://dc.lft.to/lastmile_qr_scan", "android": "https://dc.lft.to/lastmile_qr_scan"}, "is_reserved": 0, "fusion_lon": 0.0, "fusion_lat": 0.0, "lon": -77.031834, "name": "612d61e92d45aeaade9803bfa557f0d2"}, {"bike_id": "a6ccbc7f176c9578cd5ec0737596a32e", "type": "electric_scooter", "is_disabled": 0, "lat": 38.88487816666667, "rental_uris": {"ios": "https://dc.lft.to/lastmile_qr_scan", "android": "https://dc.lft.to/lastmile_qr_scan"}, "is_reserved": 0, "fusion_lon": 0.0, "fusion_lat": 0.0, "lon": -77.01503616666666, "name": "a6ccbc7f176c9578cd5ec0737596a32e"}, {"bike_id": "da45d1be0594895823bc2bf1513a797b", "type": "electric_scooter", "is_disabled": 0, "lat": 38.9058295, "rental_uris": {"ios": "https://dc.lft.to/lastmile_qr_scan", "android": "https://dc.lft.to/lastmile_qr_scan"}, "is_reserved": 0, "fusion_lon": 0.0, "fusion_lat": 0.0, "lon": -77.03025116666667, "name": "da45d1be0594895823bc2bf1513a797b"}, {"bike_id": "1f66fd21f3eb5e6c6a522fa4c07413e6", "type": "electric_scooter", "is_disabled": 0, "lat": 38.892520166666664, "rental_uris": {"ios": "https://dc.lft.to/lastmile_qr_scan", "android": "https://dc.lft.to/lastmile_qr_scan"}, "is_reserved": 0, "fusion_lon": 0.0, "fusion_lat": 0.0, "lon": -77.04679983333334, "name": "1f66fd21f3eb5e6c6a522fa4c07413e6"}, {"bike_id": "a922d22156646f326c394b038c3e4e22", "type": "electric_scooter", "is_disabled": 0, "lat": 38.92269266666667, "rental_uris": {"ios": "https://dc.lft.to/lastmile_qr_scan", "android": "https://dc.lft.to/lastmile_qr_scan"}, "is_reserved": 0, "fusion_lon": 0.0, "fusion_lat": 0.0, "lon": -77.033993, "name": "a922d22156646f326c394b038c3e4e22"}, {"bike_id": "46ebcd395da9fbaa4c1e2b8fea657ad4", "type": "electric_scooter", "is_disabled": 0, "lat": 38.901336, "rental_uris": {"ios": "https://dc.lft.to/lastmile_qr_scan", "android": "https://dc.lft.to/lastmile_qr_scan"}, "is_reserved": 0, "fusion_lon": 0.0, "fusion_lat": 0.0, "lon": -77.04044666666667, "name": "46ebcd395da9fbaa4c1e2b8fea657ad4"}, {"bike_id": "ea2cacddc647f4e10dbda35b5b1fa6cc", "type": "electric_scooter", "is_disabled": 0, "lat": 38.900346666666664, "rental_uris": {"ios": "https://dc.lft.to/lastmile_qr_scan", "android": "https://dc.lft.to/lastmile_qr_scan"}, "is_reserved": 0, "fusion_lon": 0.0, "fusion_lat": 0.0, "lon": -77.03505883333334, "name": "ea2cacddc647f4e10dbda35b5b1fa6cc"}, {"bike_id": "de72685d3682e01038adc4f5d9a14990", "type": "electric_scooter", "is_disabled": 0, "lat": 38.9289115, "rental_uris": {"ios": "https://dc.lft.to/lastmile_qr_scan", "android": "https://dc.lft.to/lastmile_qr_scan"}, "is_reserved": 0, "fusion_lon": 0.0, "fusion_lat": 0.0, "lon": -77.03237716666666, "name": "de72685d3682e01038adc4f5d9a14990"}, {"bike_id": "5a5e927e87d28fb1caad975046873f9c", "type": "electric_scooter", "is_disabled": 0, "lat": 38.906898, "rental_uris": {"ios": "https://dc.lft.to/lastmile_qr_scan", "android": "https://dc.lft.to/lastmile_qr_scan"}, "is_reserved": 0, "fusion_lon": 0.0, "fusion_lat": 0.0, "lon": -77.04130533333333, "name": "5a5e927e87d28fb1caad975046873f9c"}, {"bike_id": "7e9072c43375a413904b580a7bd799ab", "type": "electric_scooter", "is_disabled": 0, "lat": 38.90289083333333, "rental_uris": {"ios": "https://dc.lft.to/lastmile_qr_scan", "android": "https://dc.lft.to/lastmile_qr_scan"}, "is_reserved": 0, "fusion_lon": 0.0, "fusion_lat": 0.0, "lon": -77.03841816666667, "name": "7e9072c43375a413904b580a7bd799ab"}, {"bike_id": "55d0c9f5ce079b6ac796916d3f66c73f", "type": "electric_scooter", "is_disabled": 0, "lat": 38.9227225, "rental_uris": {"ios": "https://dc.lft.to/lastmile_qr_scan", "android": "https://dc.lft.to/lastmile_qr_scan"}, "is_reserved": 0, "fusion_lon": 0.0, "fusion_lat": 0.0, "lon": -77.03395416666666, "name": "55d0c9f5ce079b6ac796916d3f66c73f"}, {"bike_id": "1458a6fcf7ab73a80f12238b907e5802", "type": "electric_scooter", "is_disabled": 0, "lat": 38.907438166666665, "rental_uris": {"ios": "https://dc.lft.to/lastmile_qr_scan", "android": "https://dc.lft.to/lastmile_qr_scan"}, "is_reserved": 0, "fusion_lon": 0.0, "fusion_lat": 0.0, "lon": -77.00305016666667, "name": "1458a6fcf7ab73a80f12238b907e5802"}, {"bike_id": "5297be6f7cac985695a09183fd7a8ede", "type": "electric_scooter", "is_disabled": 0, "lat": 38.941030166666664, "rental_uris": {"ios": "https://dc.lft.to/lastmile_qr_scan", "android": "https://dc.lft.to/lastmile_qr_scan"}, "is_reserved": 0, "fusion_lon": 0.0, "fusion_lat": 0.0, "lon": -77.02516916666667, "name": "5297be6f7cac985695a09183fd7a8ede"}, {"bike_id": "88878399fa250be8b70086476a105dae", "type": "electric_scooter", "is_disabled": 0, "lat": 38.911150166666665, "rental_uris": {"ios": "https://dc.lft.to/lastmile_qr_scan", "android": "https://dc.lft.to/lastmile_qr_scan"}, "is_reserved": 0, "fusion_lon": 0.0, "fusion_lat": 0.0, "lon": -77.0497355, "name": "88878399fa250be8b70086476a105dae"}, {"bike_id": "1e353c55f93436457eb67e5b63711ca4", "type": "electric_scooter", "is_disabled": 0, "lat": 38.90577183333333, "rental_uris": {"ios": "https://dc.lft.to/lastmile_qr_scan", "android": "https://dc.lft.to/lastmile_qr_scan"}, "is_reserved": 0, "fusion_lon": 0.0, "fusion_lat": 0.0, "lon": -77.04610883333334, "name": "1e353c55f93436457eb67e5b63711ca4"}, {"bike_id": "71135c0c5d27183aff0751b208999525", "type": "electric_scooter", "is_disabled": 0, "lat": 38.87628183333333, "rental_uris": {"ios": "https://dc.lft.to/lastmile_qr_scan", "android": "https://dc.lft.to/lastmile_qr_scan"}, "is_reserved": 0, "fusion_lon": 0.0, "fusion_lat": 0.0, "lon": -76.96528666666667, "name": "71135c0c5d27183aff0751b208999525"}, {"bike_id": "fc6d79f73b23262d8491a9cd11340592", "type": "electric_scooter", "is_disabled": 0, "lat": 38.89834883333333, "rental_uris": {"ios": "https://dc.lft.to/lastmile_qr_scan", "android": "https://dc.lft.to/lastmile_qr_scan"}, "is_reserved": 0, "fusion_lon": 0.0, "fusion_lat": 0.0, "lon": -77.0280495, "name": "fc6d79f73b23262d8491a9cd11340592"}, {"bike_id": "ae21cdecb3cd61245df5e461950f754b", "type": "electric_scooter", "is_disabled": 0, "lat": 38.87075883333333, "rental_uris": {"ios": "https://dc.lft.to/lastmile_qr_scan", "android": "https://dc.lft.to/lastmile_qr_scan"}, "is_reserved": 0, "fusion_lon": 0.0, "fusion_lat": 0.0, "lon": -77.01188416666666, "name": "ae21cdecb3cd61245df5e461950f754b"}, {"bike_id": "bf7f96a644fb5b2d4950e366a7f6aab7", "type": "electric_scooter", "is_disabled": 0, "lat": 38.931941, "rental_uris": {"ios": "https://dc.lft.to/lastmile_qr_scan", "android": "https://dc.lft.to/lastmile_qr_scan"}, "is_reserved": 0, "fusion_lon": 0.0, "fusion_lat": 0.0, "lon": -77.0196155, "name": "bf7f96a644fb5b2d4950e366a7f6aab7"}, {"bike_id": "4deb9e32e54331b0761dde2433777a99", "type": "electric_scooter", "is_disabled": 0, "lat": 38.921052, "rental_uris": {"ios": "https://dc.lft.to/lastmile_qr_scan", "android": "https://dc.lft.to/lastmile_qr_scan"}, "is_reserved": 0, "fusion_lon": 0.0, "fusion_lat": 0.0, "lon": -77.01763933333334, "name": "4deb9e32e54331b0761dde2433777a99"}, {"bike_id": "c5576a35092ceb3348133e0cdd5811df", "type": "electric_scooter", "is_disabled": 0, "lat": 38.84314416666667, "rental_uris": {"ios": "https://dc.lft.to/lastmile_qr_scan", "android": "https://dc.lft.to/lastmile_qr_scan"}, "is_reserved": 0, "fusion_lon": 0.0, "fusion_lat": 0.0, "lon": -76.9993135, "name": "c5576a35092ceb3348133e0cdd5811df"}, {"bike_id": "864b7c4feb27cb5c1dca95978f537034", "type": "electric_scooter", "is_disabled": 0, "lat": 38.884004833333336, "rental_uris": {"ios": "https://dc.lft.to/lastmile_qr_scan", "android": "https://dc.lft.to/lastmile_qr_scan"}, "is_reserved": 0, "fusion_lon": 0.0, "fusion_lat": 0.0, "lon": -76.99622383333333, "name": "864b7c4feb27cb5c1dca95978f537034"}, {"bike_id": "17dd8e1d9d5e7f6157560eabc3ea03f4", "type": "electric_scooter", "is_disabled": 0, "lat": 38.900058, "rental_uris": {"ios": "https://dc.lft.to/lastmile_qr_scan", "android": "https://dc.lft.to/lastmile_qr_scan"}, "is_reserved": 0, "fusion_lon": 0.0, "fusion_lat": 0.0, "lon": -76.98154883333333, "name": "17dd8e1d9d5e7f6157560eabc3ea03f4"}, {"bike_id": "69b1e9c266b1e4164ba417aeed09888d", "type": "electric_bike", "is_disabled": 0, "lat": 38.990895333333334, "rental_uris": {"ios": "https://dc.lft.to/lastmile_qr_scan", "android": "https://dc.lft.to/lastmile_qr_scan"}, "is_reserved": 0, "fusion_lon": 0.0, "fusion_lat": 0.0, "lon": -76.8749435, "name": "69b1e9c266b1e4164ba417aeed09888d"}, {"bike_id": "057893e1cf95f958bfb45d710fb02733", "type": "electric_scooter", "is_disabled": 0, "lat": 38.90277283333333, "rental_uris": {"ios": "https://dc.lft.to/lastmile_qr_scan", "android": "https://dc.lft.to/lastmile_qr_scan"}, "is_reserved": 0, "fusion_lon": 0.0, "fusion_lat": 0.0, "lon": -77.003418, "name": "057893e1cf95f958bfb45d710fb02733"}, {"bike_id": "cf497e70ddb992e283b92e5f7736c461", "type": "electric_scooter", "is_disabled": 0, "lat": 38.911079666666666, "rental_uris": {"ios": "https://dc.lft.to/lastmile_qr_scan", "android": "https://dc.lft.to/lastmile_qr_scan"}, "is_reserved": 0, "fusion_lon": 0.0, "fusion_lat": 0.0, "lon": -77.0490415, "name": "cf497e70ddb992e283b92e5f7736c461"}, {"bike_id": "6f6674c126f5460d180df857c5842fbe", "type": "electric_scooter", "is_disabled": 0, "lat": 38.91412666666667, "rental_uris": {"ios": "https://dc.lft.to/lastmile_qr_scan", "android": "https://dc.lft.to/lastmile_qr_scan"}, "is_reserved": 0, "fusion_lon": 0.0, "fusion_lat": 0.0, "lon": -77.0321385, "name": "6f6674c126f5460d180df857c5842fbe"}, {"bike_id": "39f94d04e57987872a270924093b51f8", "type": "electric_scooter", "is_disabled": 0, "lat": 38.89745716666667, "rental_uris": {"ios": "https://dc.lft.to/lastmile_qr_scan", "android": "https://dc.lft.to/lastmile_qr_scan"}, "is_reserved": 0, "fusion_lon": 0.0, "fusion_lat": 0.0, "lon": -77.02963983333333, "name": "39f94d04e57987872a270924093b51f8"}, {"bike_id": "4da9095e78ad116d541368bb1d79402f", "type": "electric_scooter", "is_disabled": 0, "lat": 38.90502983333333, "rental_uris": {"ios": "https://dc.lft.to/lastmile_qr_scan", "android": "https://dc.lft.to/lastmile_qr_scan"}, "is_reserved": 0, "fusion_lon": 0.0, "fusion_lat": 0.0, "lon": -77.06012583333333, "name": "4da9095e78ad116d541368bb1d79402f"}, {"bike_id": "8178121e5abc379fbaf24354554891f6", "type": "electric_scooter", "is_disabled": 0, "lat": 38.900707, "rental_uris": {"ios": "https://dc.lft.to/lastmile_qr_scan", "android": "https://dc.lft.to/lastmile_qr_scan"}, "is_reserved": 0, "fusion_lon": 0.0, "fusion_lat": 0.0, "lon": -77.01789916666667, "name": "8178121e5abc379fbaf24354554891f6"}, {"bike_id": "58427ca852b3fc6451fdb1dd32cf5e26", "type": "electric_bike", "is_disabled": 0, "lat": 38.94473816666667, "rental_uris": {"ios": "https://dc.lft.to/lastmile_qr_scan", "android": "https://dc.lft.to/lastmile_qr_scan"}, "is_reserved": 0, "fusion_lon": 0.0, "fusion_lat": 0.0, "lon": -76.98688016666667, "name": "58427ca852b3fc6451fdb1dd32cf5e26"}, {"bike_id": "858db6c49487bf9575846f50e5e18701", "type": "electric_scooter", "is_disabled": 0, "lat": 38.90417383333333, "rental_uris": {"ios": "https://dc.lft.to/lastmile_qr_scan", "android": "https://dc.lft.to/lastmile_qr_scan"}, "is_reserved": 0, "fusion_lon": 0.0, "fusion_lat": 0.0, "lon": -77.068787, "name": "858db6c49487bf9575846f50e5e18701"}, {"bike_id": "5a85b9e55c278df76a7c0c76c12f4ec3", "type": "electric_scooter", "is_disabled": 0, "lat": 38.910319666666666, "rental_uris": {"ios": "https://dc.lft.to/lastmile_qr_scan", "android": "https://dc.lft.to/lastmile_qr_scan"}, "is_reserved": 0, "fusion_lon": 0.0, "fusion_lat": 0.0, "lon": -76.98663583333334, "name": "5a85b9e55c278df76a7c0c76c12f4ec3"}, {"bike_id": "cdd2b69d0fd479cd9270d0defe1b099d", "type": "electric_scooter", "is_disabled": 0, "lat": 38.909559333333334, "rental_uris": {"ios": "https://dc.lft.to/lastmile_qr_scan", "android": "https://dc.lft.to/lastmile_qr_scan"}, "is_reserved": 0, "fusion_lon": 0.0, "fusion_lat": 0.0, "lon": -77.04477416666667, "name": "cdd2b69d0fd479cd9270d0defe1b099d"}, {"bike_id": "fc6a861d6e5bf77b424e4e4c93316fd5", "type": "electric_scooter", "is_disabled": 0, "lat": 38.923364666666664, "rental_uris": {"ios": "https://dc.lft.to/lastmile_qr_scan", "android": "https://dc.lft.to/lastmile_qr_scan"}, "is_reserved": 0, "fusion_lon": 0.0, "fusion_lat": 0.0, "lon": -77.03614616666667, "name": "fc6a861d6e5bf77b424e4e4c93316fd5"}, {"bike_id": "b3e7507807c4fc2266c42f16dbd65a86", "type": "electric_scooter", "is_disabled": 0, "lat": 38.91364316666667, "rental_uris": {"ios": "https://dc.lft.to/lastmile_qr_scan", "android": "https://dc.lft.to/lastmile_qr_scan"}, "is_reserved": 0, "fusion_lon": 0.0, "fusion_lat": 0.0, "lon": -77.04549583333333, "name": "b3e7507807c4fc2266c42f16dbd65a86"}, {"bike_id": "a2bae8c4fa15eb186e2676a73815244a", "type": "electric_scooter", "is_disabled": 0, "lat": 38.86657983333333, "rental_uris": {"ios": "https://dc.lft.to/lastmile_qr_scan", "android": "https://dc.lft.to/lastmile_qr_scan"}, "is_reserved": 0, "fusion_lon": 0.0, "fusion_lat": 0.0, "lon": -76.98887116666667, "name": "a2bae8c4fa15eb186e2676a73815244a"}, {"bike_id": "ac453b2746818e14bb6f6bd95ca852ba", "type": "electric_scooter", "is_disabled": 0, "lat": 38.929064, "rental_uris": {"ios": "https://dc.lft.to/lastmile_qr_scan", "android": "https://dc.lft.to/lastmile_qr_scan"}, "is_reserved": 0, "fusion_lon": 0.0, "fusion_lat": 0.0, "lon": -77.02265216666666, "name": "ac453b2746818e14bb6f6bd95ca852ba"}, {"bike_id": "8f60f70821ad4d3b76abcd1a1c26cb63", "type": "electric_scooter", "is_disabled": 0, "lat": 38.86247216666667, "rental_uris": {"ios": "https://dc.lft.to/lastmile_qr_scan", "android": "https://dc.lft.to/lastmile_qr_scan"}, "is_reserved": 0, "fusion_lon": 0.0, "fusion_lat": 0.0, "lon": -76.99500833333333, "name": "8f60f70821ad4d3b76abcd1a1c26cb63"}, {"bike_id": "f26a74ca7935845297c626f9978e169a", "type": "electric_scooter", "is_disabled": 0, "lat": 38.901830833333335, "rental_uris": {"ios": "https://dc.lft.to/lastmile_qr_scan", "android": "https://dc.lft.to/lastmile_qr_scan"}, "is_reserved": 0, "fusion_lon": 0.0, "fusion_lat": 0.0, "lon": -76.98454033333333, "name": "f26a74ca7935845297c626f9978e169a"}, {"bike_id": "0b70dc41976335c130f29f2742b119ef", "type": "electric_scooter", "is_disabled": 0, "lat": 38.94291783333333, "rental_uris": {"ios": "https://dc.lft.to/lastmile_qr_scan", "android": "https://dc.lft.to/lastmile_qr_scan"}, "is_reserved": 0, "fusion_lon": 0.0, "fusion_lat": 0.0, "lon": -77.02175083333333, "name": "0b70dc41976335c130f29f2742b119ef"}, {"bike_id": "eea4aa8216a435b3532b24d15d325a0f", "type": "electric_scooter", "is_disabled": 0, "lat": 38.917541666666665, "rental_uris": {"ios": "https://dc.lft.to/lastmile_qr_scan", "android": "https://dc.lft.to/lastmile_qr_scan"}, "is_reserved": 0, "fusion_lon": 0.0, "fusion_lat": 0.0, "lon": -77.03856783333333, "name": "eea4aa8216a435b3532b24d15d325a0f"}, {"bike_id": "fea5ac0ab0d9baaa5b348d70f6f8dc3b", "type": "electric_scooter", "is_disabled": 0, "lat": 38.9484115, "rental_uris": {"ios": "https://dc.lft.to/lastmile_qr_scan", "android": "https://dc.lft.to/lastmile_qr_scan"}, "is_reserved": 0, "fusion_lon": 0.0, "fusion_lat": 0.0, "lon": -77.02545183333334, "name": "fea5ac0ab0d9baaa5b348d70f6f8dc3b"}, {"bike_id": "3d2bc63b0380768b0c35c2d55d004442", "type": "electric_scooter", "is_disabled": 0, "lat": 38.90421666666667, "rental_uris": {"ios": "https://dc.lft.to/lastmile_qr_scan", "android": "https://dc.lft.to/lastmile_qr_scan"}, "is_reserved": 0, "fusion_lon": 0.0, "fusion_lat": 0.0, "lon": -76.97373283333333, "name": "3d2bc63b0380768b0c35c2d55d004442"}, {"bike_id": "4c599c4ba42c649c2f43af33448617e1", "type": "electric_scooter", "is_disabled": 0, "lat": 38.92071083333333, "rental_uris": {"ios": "https://dc.lft.to/lastmile_qr_scan", "android": "https://dc.lft.to/lastmile_qr_scan"}, "is_reserved": 0, "fusion_lon": 0.0, "fusion_lat": 0.0, "lon": -77.04376666666667, "name": "4c599c4ba42c649c2f43af33448617e1"}, {"bike_id": "3936ef6639751da1cca62763c4de3b57", "type": "electric_scooter", "is_disabled": 0, "lat": 38.90532133333333, "rental_uris": {"ios": "https://dc.lft.to/lastmile_qr_scan", "android": "https://dc.lft.to/lastmile_qr_scan"}, "is_reserved": 0, "fusion_lon": 0.0, "fusion_lat": 0.0, "lon": -77.05001866666667, "name": "3936ef6639751da1cca62763c4de3b57"}, {"bike_id": "94fa88a844817d204ccb6952d9e8e985", "type": "electric_scooter", "is_disabled": 0, "lat": 38.93417816666667, "rental_uris": {"ios": "https://dc.lft.to/lastmile_qr_scan", "android": "https://dc.lft.to/lastmile_qr_scan"}, "is_reserved": 0, "fusion_lon": 0.0, "fusion_lat": 0.0, "lon": -77.03909416666667, "name": "94fa88a844817d204ccb6952d9e8e985"},