{"data": {"bikes": [{"lat": 38.89971933333333, "fusion_lat": 0.0, "type": "electric_scooter", "bike_id": "eafec0c7646036d8041bd407d22a297a", "rental_uris": {"ios": "https://dc.lft.to/lastmile_qr_scan", "android": "https://dc.lft.to/lastmile_qr_scan"}, "fusion_lon": 0.0, "lon": -77.01571, "name": "eafec0c7646036d8041bd407d22a297a", "is_reserved": 0, "is_disabled": 0}, {"lat": 38.892346833333335, "fusion_lat": 0.0, "type": "electric_scooter", "bike_id": "5a08a7bcfbcaa505dc20134ae4c22166", "rental_uris": {"ios": "https://dc.lft.to/lastmile_qr_scan", "android": "https://dc.lft.to/lastmile_qr_scan"}, "fusion_lon": 0.0, "lon": -77.04873983333333, "name": "5a08a7bcfbcaa505dc20134ae4c22166", "is_reserved": 0, "is_disabled": 0}, {"lat": 38.888693333333336, "fusion_lat": 0.0, "type": "electric_bike", "bike_id": "e88c1c5559a854bbb3fc70d8ce6dd8e3", "rental_uris": {"ios": "https://dc.lft.to/lastmile_qr_scan", "android": "https://dc.lft.to/lastmile_qr_scan"}, "fusion_lon": 0.0, "lon": -77.081768, "name": "e88c1c5559a854bbb3fc70d8ce6dd8e3", "is_reserved": 0, "is_disabled": 0}, {"lat": 38.92749416666667, "fusion_lat": 0.0, "type": "electric_scooter", "bike_id": "b7e8af9f91d0316cb512a28c213ebe6d", "rental_uris": {"ios": "https://dc.lft.to/lastmile_qr_scan", "android": "https://dc.lft.to/lastmile_qr_scan"}, "fusion_lon": 0.0, "lon": -77.03352483333333, "name": "b7e8af9f91d0316cb512a28c213ebe6d", "is_reserved": 0, "is_disabled": 0}, {"lat": 38.911358166666666, "fusion_lat": 0.0, "type": "electric_scooter", "bike_id": "b438d8a7b7ccac9d55bb58a78ec0cf73", "rental_uris": {"ios": "https://dc.lft.to/lastmile_qr_scan", "android": "https://dc.lft.to/lastmile_qr_scan"}, "fusion_lon": 0.0, "lon": -77.02812466666667, "name": "b438d8a7b7ccac9d55bb58a78ec0cf73", "is_reserved": 0, "is_disabled": 0}, {"lat": 38.88248933333333, "fusion_lat": 0.0, "type": "electric_bike", "bike_id": "968f104f01358701f674113476cbbef2", "rental_uris": {"ios": "https://dc.lft.to/lastmile_qr_scan", "android": "https://dc.lft.to/lastmile_qr_scan"}, "fusion_lon": 0.0, "lon": -76.96262066666667, "name": "968f104f01358701f674113476cbbef2", "is_reserved": 0, "is_disabled": 0}, {"lat": 38.90977766666666, "fusion_lat": 0.0, "type": "electric_scooter", "bike_id": "a7e01499bfe3b2985c3544141e59631a", "rental_uris": {"ios": "https://dc.lft.to/lastmile_qr_scan", "android": "https://dc.lft.to/lastmile_qr_scan"}, "fusion_lon": 0.0, "lon": -77.02000183333334, "name": "a7e01499bfe3b2985c3544141e59631a", "is_reserved": 0, "is_disabled": 0}, {"lat": 38.90511166666667, "fusion_lat": 0.0, "type": "electric_scooter", "bike_id": "ea840eb7ae731d437fa0844747c1a920", "rental_uris": {"ios": "https://dc.lft.to/lastmile_qr_scan", "android": "https://dc.lft.to/lastmile_qr_scan"}, "fusion_lon": 0.0, "lon": -77.0637985, "name": "ea840eb7ae731d437fa0844747c1a920", "is_reserved": 0, "is_disabled": 0}, {"lat": 38.97202266666667, "fusion_lat": 0.0, "type": "electric_bike", "bike_id": "84a7e0b53298e078ff20c44adae6fb9a", "rental_uris": {"ios": "https://dc.lft.to/lastmile_qr_scan", "android": "https://dc.lft.to/lastmile_qr_scan"}, "fusion_lon": 0.0, "lon": -77.03326333333334, "name": "84a7e0b53298e078ff20c44adae6fb9a", "is_reserved": 0, "is_disabled": 0}, {"lat": 38.93265616666667, "fusion_lat": 0.0, "type": "electric_scooter", "bike_id": "6bb61ce1ec612cb802c6893b6751ed1a", "rental_uris": {"ios": "https://dc.lft.to/lastmile_qr_scan", "android": "https://dc.lft.to/lastmile_qr_scan"}, "fusion_lon": 0.0, "lon": -77.02091416666667, "name": "6bb61ce1ec612cb802c6893b6751ed1a", "is_reserved": 0, "is_disabled": 0}, {"lat": 38.9001415, "fusion_lat": 0.0, "type": "electric_scooter", "bike_id": "bc7e8527608a1cae8f989d5e2d9ddfc3", "rental_uris": {"ios": "https://dc.lft.to/lastmile_qr_scan", "android": "https://dc.lft.to/lastmile_qr_scan"}, "fusion_lon": 0.0, "lon": -77.0187925, "name": "bc7e8527608a1cae8f989d5e2d9ddfc3", "is_reserved": 0, "is_disabled": 0}, {"lat": 38.90649033333333, "fusion_lat": 0.0, "type": "electric_scooter", "bike_id": "2116ed34150cda7acab496194c9ebc11", "rental_uris": {"ios": "https://dc.lft.to/lastmile_qr_scan", "android": "https://dc.lft.to/lastmile_qr_scan"}, "fusion_lon": 0.0, "lon": -77.011382, "name": "2116ed34150cda7acab496194c9ebc11", "is_reserved": 0, "is_disabled": 0}, {"lat": 38.927007, "fusion_lat": 0.0, "type": "electric_scooter", "bike_id": "8e4b81ffa8275d2221d042141c5b4094", "rental_uris": {"ios": "https://dc.lft.to/lastmile_qr_scan", "android": "https://dc.lft.to/lastmile_qr_scan"}, "fusion_lon": 0.0, "lon": -76.99758333333334, "name": "8e4b81ffa8275d2221d042141c5b4094", "is_reserved": 0, "is_disabled": 0}, {"lat": 38.927668, "fusion_lat": 0.0, "type": "electric_scooter", "bike_id": "150a95c40054fb45dfc0bd063cc0f2dc", "rental_uris": {"ios": "https://dc.lft.to/lastmile_qr_scan", "android": "https://dc.lft.to/lastmile_qr_scan"}, "fusion_lon": 0.0, "lon": -77.05268866666667, "name": "150a95c40054fb45dfc0bd063cc0f2dc", "is_reserved": 0, "is_disabled": 0}, {"lat": 38.90266583333333, "fusion_lat": 0.0, "type": "electric_scooter", "bike_id": "3fd1c2ec41086b2088192866e3d78e44", "rental_uris": {"ios": "https://dc.lft.to/lastmile_qr_scan", "android": "https://dc.lft.to/lastmile_qr_scan"}, "fusion_lon": 0.0, "lon": -77.01819466666667, "name": "3fd1c2ec41086b2088192866e3d78e44", "is_reserved": 0, "is_disabled": 0}, {"lat": 38.947041666666664, "fusion_lat": 0.0, "type": "electric_scooter", "bike_id": "55dad0b0a73ac9b04f6757ed35bf7594", "rental_uris": {"ios": "https://dc.lft.to/lastmile_qr_scan", "android": "https://dc.lft.to/lastmile_qr_scan"}, "fusion_lon": 0.0, "lon": -77.01938666666666, "name": "55dad0b0a73ac9b04f6757ed35bf7594", "is_reserved": 0, "is_disabled": 0}, {"lat": 38.911766166666666, "fusion_lat": 0.0, "type": "electric_scooter", "bike_id": "2bb3399101d97500a2ae559227fde05c", "rental_uris": {"ios": "https://dc.lft.to/lastmile_qr_scan", "android": "https://dc.lft.to/lastmile_qr_scan"}, "fusion_lon": 0.0, "lon": -77.01696683333333, "name": "2bb3399101d97500a2ae559227fde05c", "is_reserved": 0, "is_disabled": 0}, {"lat": 38.91405916666667, "fusion_lat": 0.0, "type": "electric_scooter", "bike_id": "cc1c05ded5560e838b7ff3fd42dd8b36", "rental_uris": {"ios": "https://dc.lft.to/lastmile_qr_scan", "android": "https://dc.lft.to/lastmile_qr_scan"}, "fusion_lon": 0.0, "lon": -77.0101445, "name": "cc1c05ded5560e838b7ff3fd42dd8b36", "is_reserved": 0, "is_disabled": 0}, {"lat": 38.92070616666667, "fusion_lat": 0.0, "type": "electric_scooter", "bike_id": "5e57b49357ae5b19172e24fec64a91a5", "rental_uris": {"ios": "https://dc.lft.to/lastmile_qr_scan", "android": "https://dc.lft.to/lastmile_qr_scan"}, "fusion_lon": 0.0, "lon": -77.02395883333334, "name": "5e57b49357ae5b19172e24fec64a91a5", "is_reserved": 0, "is_disabled": 0}, {"lat": 38.911300833333335, "fusion_lat": 0.0, "type": "electric_scooter", "bike_id": "ea5fd2cac24425196e0ea3237ca6c5a6", "rental_uris": {"ios": "https://dc.lft.to/lastmile_qr_scan", "android": "https://dc.lft.to/lastmile_qr_scan"}, "fusion_lon": 0.0, "lon": -77.052728, "name": "ea5fd2cac24425196e0ea3237ca6c5a6", "is_reserved": 0, "is_disabled": 0}, {"lat": 38.898909333333336, "fusion_lat": 0.0, "type": "electric_scooter", "bike_id": "e6f07304d2c943fcb2fa5047060c5c8a", "rental_uris": {"ios": "https://dc.lft.to/lastmile_qr_scan", "android": "https://dc.lft.to/lastmile_qr_scan"}, "fusion_lon": 0.0, "lon": -76.93172616666666, "name": "e6f07304d2c943fcb2fa5047060c5c8a", "is_reserved": 0, "is_disabled": 0}, {"lat": 38.932469833333336, "fusion_lat": 0.0, "type": "electric_scooter", "bike_id": "c2ce948ff4a1d1bc7a269636b7c8a62a", "rental_uris": {"ios": "https://dc.lft.to/lastmile_qr_scan", "android": "https://dc.lft.to/lastmile_qr_scan"}, "fusion_lon": 0.0, "lon": -77.03279283333333, "name": "c2ce948ff4a1d1bc7a269636b7c8a62a", "is_reserved": 0, "is_disabled": 0}, {"lat": 38.93084183333333, "fusion_lat": 0.0, "type": "electric_scooter", "bike_id": "8cf8069ad08f57407bd0f06bed8f2c47", "rental_uris": {"ios": "https://dc.lft.to/lastmile_qr_scan", "android": "https://dc.lft.to/lastmile_qr_scan"}, "fusion_lon": 0.0, "lon": -76.9961055, "name": "8cf8069ad08f57407bd0f06bed8f2c47", "is_reserved": 0, "is_disabled": 0}, {"lat": 38.90003516666667, "fusion_lat": 0.0, "type": "electric_scooter", "bike_id": "2349a0e0728a3e9b0e04ce600142fcc9", "rental_uris": {"ios": "https://dc.lft.to/lastmile_qr_scan", "android": "https://dc.lft.to/lastmile_qr_scan"}, "fusion_lon": 0.0, "lon": -77.02362983333333, "name": "2349a0e0728a3e9b0e04ce600142fcc9", "is_reserved": 0, "is_disabled": 0}, {"lat": 38.92193316666667, "fusion_lat": 0.0, "type": "electric_scooter", "bike_id": "8d636ae46295ea5977b0e997a4a497d6", "rental_uris": {"ios": "https://dc.lft.to/lastmile_qr_scan", "android": "https://dc.lft.to/lastmile_qr_scan"}, "fusion_lon": 0.0, "lon": -77.04251783333333, "name": "8d636ae46295ea5977b0e997a4a497d6", "is_reserved": 0, "is_disabled": 0}, {"lat": 38.89197683333333, "fusion_lat": 0.0, "type": "electric_scooter", "bike_id": "fc8cff7ec7c5e817fcc7965b92e4a633", "rental_uris": {"ios": "https://dc.lft.to/lastmile_qr_scan", "android": "https://dc.lft.to/lastmile_qr_scan"}, "fusion_lon": 0.0, "lon": -77.02379516666667, "name": "fc8cff7ec7c5e817fcc7965b92e4a633", "is_reserved": 0, "is_disabled": 0}, {"lat": 38.914991, "fusion_lat": 0.0, "type": "electric_scooter", "bike_id": "59632c6f2dcd6fecb9e8dcde1691338e", "rental_uris": {"ios": "https://dc.lft.to/lastmile_qr_scan", "android": "https://dc.lft.to/lastmile_qr_scan"}, "fusion_lon": 0.0, "lon": -77.01993683333333, "name": "59632c6f2dcd6fecb9e8dcde1691338e", "is_reserved": 0, "is_disabled": 0}, {"lat": 38.900195333333336, "fusion_lat": 0.0, "type": "electric_scooter", "bike_id": "357a39c0c802588472c0c9e0bcfb553c", "rental_uris": {"ios": "https://dc.lft.to/lastmile_qr_scan", "android": "https://dc.lft.to/lastmile_qr_scan"}, "fusion_lon": 0.0, "lon": -76.99632916666667, "name": "357a39c0c802588472c0c9e0bcfb553c", "is_reserved": 0, "is_disabled": 0}, {"lat": 38.92259166666667, "fusion_lat": 0.0, "type": "electric_scooter", "bike_id": "e4033704111aab297fe2b3a0a81fe057", "rental_uris": {"ios": "https://dc.lft.to/lastmile_qr_scan", "android": "https://dc.lft.to/lastmile_qr_scan"}, "fusion_lon": 0.0, "lon": -77.01951933333333, "name": "e4033704111aab297fe2b3a0a81fe057", "is_reserved": 0, "is_disabled": 0}, {"lat": 38.912417166666664, "fusion_lat": 0.0, "type": "electric_scooter", "bike_id": "f37a8933ae7385bef17f082d19536ff5", "rental_uris": {"ios": "https://dc.lft.to/lastmile_qr_scan", "android": "https://dc.lft.to/lastmile_qr_scan"}, "fusion_lon": 0.0, "lon": -77.040723, "name": "f37a8933ae7385bef17f082d19536ff5", "is_reserved": 0, "is_disabled": 0}, {"lat": 38.93279666666667, "fusion_lat": 0.0, "type": "electric_scooter", "bike_id": "00c32b45c4777b8c02dd2a6b2416c1dd", "rental_uris": {"ios": "https://dc.lft.to/lastmile_qr_scan", "android": "https://dc.lft.to/lastmile_qr_scan"}, "fusion_lon": 0.0, "lon": -76.98438216666666, "name": "00c32b45c4777b8c02dd2a6b2416c1dd", "is_reserved": 0, "is_disabled": 0}, {"lat": 38.91201816666667, "fusion_lat": 0.0, "type": "electric_scooter", "bike_id": "09a7a4b1dc34750044093ad39ba13f5c", "rental_uris": {"ios": "https://dc.lft.to/lastmile_qr_scan", "android": "https://dc.lft.to/lastmile_qr_scan"}, "fusion_lon": 0.0, "lon": -77.01890066666667, "name": "09a7a4b1dc34750044093ad39ba13f5c", "is_reserved": 0, "is_disabled": 0}, {"lat": 38.92049183333334, "fusion_lat": 0.0, "type": "electric_scooter", "bike_id": "0472001a77d5204ec0cfb2004c2c7004", "rental_uris": {"ios": "https://dc.lft.to/lastmile_qr_scan", "android": "https://dc.lft.to/lastmile_qr_scan"}, "fusion_lon": 0.0, "lon": -77.02427, "name": "0472001a77d5204ec0cfb2004c2c7004", "is_reserved": 0, "is_disabled": 0}, {"lat": 38.887308, "fusion_lat": 0.0, "type": "electric_scooter", "bike_id": "c0b1ae82adae5668817146292fa48902", "rental_uris": {"ios": "https://dc.lft.to/lastmile_qr_scan", "android": "https://dc.lft.to/lastmile_qr_scan"}, "fusion_lon": 0.0, "lon": -76.98357433333334, "name": "c0b1ae82adae5668817146292fa48902", "is_reserved": 0, "is_disabled": 0}, {"lat": 38.92349566666667, "fusion_lat": 0.0, "type": "electric_scooter", "bike_id": "37d62943c65de4b5eb1b66335abe138e", "rental_uris": {"ios": "https://dc.lft.to/lastmile_qr_scan", "android": "https://dc.lft.to/lastmile_qr_scan"}, "fusion_lon": 0.0, "lon": -77.05169833333333, "name": "37d62943c65de4b5eb1b66335abe138e", "is_reserved": 0, "is_disabled": 0}, {"lat": 38.88417616666667, "fusion_lat": 0.0, "type": "electric_scooter", "bike_id": "bf4454bbf4a3e5d50f15d68d1a8f3451", "rental_uris": {"ios": "https://dc.lft.to/lastmile_qr_scan", "android": "https://dc.lft.to/lastmile_qr_scan"}, "fusion_lon": 0.0, "lon": -76.9421475, "name": "bf4454bbf4a3e5d50f15d68d1a8f3451", "is_reserved": 0, "is_disabled": 0}, {"lat": 38.908119, "fusion_lat": 0.0, "type": "electric_scooter", "bike_id": "50deb1e6d48a5e762f97ddea120602de", "rental_uris": {"ios": "https://dc.lft.to/lastmile_qr_scan", "android": "https://dc.lft.to/lastmile_qr_scan"}, "fusion_lon": 0.0, "lon": -77.04272266666666, "name": "50deb1e6d48a5e762f97ddea120602de", "is_reserved": 0, "is_disabled": 0}, {"lat": 38.92597583333333, "fusion_lat": 0.0, "type": "electric_scooter", "bike_id": "52d8a7ff6e9e29c0a4c19f65f04a58a6", "rental_uris": {"ios": "https://dc.lft.to/lastmile_qr_scan", "android": "https://dc.lft.to/lastmile_qr_scan"}, "fusion_lon": 0.0, "lon": -77.03985116666666, "name": "52d8a7ff6e9e29c0a4c19f65f04a58a6", "is_reserved": 0, "is_disabled": 0}, {"lat": 38.95064466666667, "fusion_lat": 0.0, "type": "electric_bike", "bike_id": "b191dfbdb22d2dff8349794e15e54670", "rental_uris": {"ios": "https://dc.lft.to/lastmile_qr_scan", "android": "https://dc.lft.to/lastmile_qr_scan"}, "fusion_lon": 0.0, "lon": -77.06659933333333, "name": "b191dfbdb22d2dff8349794e15e54670", "is_reserved": 0, "is_disabled": 0}, {"lat": 38.9004095, "fusion_lat": 0.0, "type": "electric_scooter", "bike_id": "4f8c4e284beaddaded040c9970b039e7", "rental_uris": {"ios": "https://dc.lft.to/lastmile_qr_scan", "android": "https://dc.lft.to/lastmile_qr_scan"}, "fusion_lon": 0.0, "lon": -77.04888266666667, "name": "4f8c4e284beaddaded040c9970b039e7", "is_reserved": 0, "is_disabled": 0}, {"lat": 38.91875783333333, "fusion_lat": 0.0, "type": "electric_scooter", "bike_id": "d6e7fa08d646df903f4ab6a0457c868c", "rental_uris": {"ios": "https://dc.lft.to/lastmile_qr_scan", "android": "https://dc.lft.to/lastmile_qr_scan"}, "fusion_lon": 0.0, "lon": -77.03511466666667, "name": "d6e7fa08d646df903f4ab6a0457c868c", "is_reserved": 0, "is_disabled": 0}, {"lat": 38.90241316666667, "fusion_lat": 0.0, "type": "electric_scooter", "bike_id": "9be5c5a952c83f7c99a661cd241e2f01", "rental_uris": {"ios": "https://dc.lft.to/lastmile_qr_scan", "android": "https://dc.lft.to/lastmile_qr_scan"}, "fusion_lon": 0.0, "lon": -77.0020455, "name": "9be5c5a952c83f7c99a661cd241e2f01", "is_reserved": 0, "is_disabled": 0}, {"lat": 38.9050205, "fusion_lat": 0.0, "type": "electric_scooter", "bike_id": "fdf893db5e27a6128fce56461709996e", "rental_uris": {"ios": "https://dc.lft.to/lastmile_qr_scan", "android": "https://dc.lft.to/lastmile_qr_scan"}, "fusion_lon": 0.0, "lon": -77.0513035, "name": "fdf893db5e27a6128fce56461709996e", "is_reserved": 0, "is_disabled": 0}, {"lat": 38.90577483333333, "fusion_lat": 0.0, "type": "electric_scooter", "bike_id": "2c19187d2fc1e1bd1bd9f860ed5d9b90", "rental_uris": {"ios": "https://dc.lft.to/lastmile_qr_scan", "android": "https://dc.lft.to/lastmile_qr_scan"}, "fusion_lon": 0.0, "lon": -77.02204016666667, "name": "2c19187d2fc1e1bd1bd9f860ed5d9b90", "is_reserved": 0, "is_disabled": 0}, {"lat": 38.920758666666664, "fusion_lat": 0.0, "type": "electric_scooter", "bike_id": "62973506a940c039541becc72ca13cb2", "rental_uris": {"ios": "https://dc.lft.to/lastmile_qr_scan", "android": "https://dc.lft.to/lastmile_qr_scan"}, "fusion_lon": 0.0, "lon": -77.0746035, "name": "62973506a940c039541becc72ca13cb2", "is_reserved": 0, "is_disabled": 0}, {"lat": 38.920558666666665, "fusion_lat": 0.0, "type": "electric_bike", "bike_id": "0fad956de6c23e53f7a6e4362b661143", "rental_uris": {"ios": "https://dc.lft.to/lastmile_qr_scan", "android": "https://dc.lft.to/lastmile_qr_scan"}, "fusion_lon": 0.0, "lon": -77.03321166666667, "name": "0fad956de6c23e53f7a6e4362b661143", "is_reserved": 0, "is_disabled": 0}, {"lat": 38.904727333333334, "fusion_lat": 0.0, "type": "electric_scooter", "bike_id": "47c9a7b2597e7b707527a50acb23a105", "rental_uris": {"ios": "https://dc.lft.to/lastmile_qr_scan", "android": "https://dc.lft.to/lastmile_qr_scan"}, "fusion_lon": 0.0, "lon": -77.05316766666667, "name": "47c9a7b2597e7b707527a50acb23a105", "is_reserved": 0, "is_disabled": 0}, {"lat": 38.887323, "fusion_lat": 0.0, "type": "electric_scooter", "bike_id": "f4a13be45082afc5d216e57eee1e09fc", "rental_uris": {"ios": "https://dc.lft.to/lastmile_qr_scan", "android": "https://dc.lft.to/lastmile_qr_scan"}, "fusion_lon": 0.0, "lon": -76.9836, "name": "f4a13be45082afc5d216e57eee1e09fc", "is_reserved": 0, "is_disabled": 0}, {"lat": 38.925833833333336, "fusion_lat": 0.0, "type": "electric_scooter", "bike_id": "cac4d612d0e5ee11bc3435efb632853c", "rental_uris": {"ios": "https://dc.lft.to/lastmile_qr_scan", "android": "https://dc.lft.to/lastmile_qr_scan"}, "fusion_lon": 0.0, "lon": -77.03206033333333, "name": "cac4d612d0e5ee11bc3435efb632853c", "is_reserved": 0, "is_disabled": 0}, {"lat": 38.8874865, "fusion_lat": 0.0, "type": "electric_scooter", "bike_id": "5587fc83a6f874c1686e0380bf48cc98", "rental_uris": {"ios": "https://dc.lft.to/lastmile_qr_scan", "android": "https://dc.lft.to/lastmile_qr_scan"}, "fusion_lon": 0.0, "lon": -77.03077166666667, "name": "5587fc83a6f874c1686e0380bf48cc98", "is_reserved": 0, "is_disabled": 0}, {"lat": 38.91273983333333, "fusion_lat": 0.0, "type": "electric_scooter", "bike_id": "ad861e419cfcd12e3d5fd90b4ed75a40", "rental_uris": {"ios": "https://dc.lft.to/lastmile_qr_scan", "android": "https://dc.lft.to/lastmile_qr_scan"}, "fusion_lon": 0.0, "lon": -77.02216716666666, "name": "ad861e419cfcd12e3d5fd90b4ed75a40", "is_reserved": 0, "is_disabled": 0}, {"lat": 38.97467316666667, "fusion_lat": 0.0, "type": "electric_scooter", "bike_id": "2a65047f434f270cd3f435ba17945619", "rental_uris": {"ios": "https://dc.lft.to/lastmile_qr_scan", "android": "https://dc.lft.to/lastmile_qr_scan"}, "fusion_lon": 0.0, "lon": -77.01397883333334, "name": "2a65047f434f270cd3f435ba17945619", "is_reserved": 0, "is_disabled": 0}, {"lat": 38.9459745, "fusion_lat": 0.0, "type": "electric_scooter", "bike_id": "6c043d1eb55e8f228e4b751c633f05a7", "rental_uris": {"ios": "https://dc.lft.to/lastmile_qr_scan", "android": "https://dc.lft.to/lastmile_qr_scan"}, "fusion_lon": 0.0, "lon": -77.02667, "name": "6c043d1eb55e8f228e4b751c633f05a7", "is_reserved": 0, "is_disabled": 0}, {"lat": 38.93807366666667, "fusion_lat": 0.0, "type": "electric_scooter", "bike_id": "1aca0ebfd9b0b99503034ad4971bcbf3", "rental_uris": {"ios": "https://dc.lft.to/lastmile_qr_scan", "android": "https://dc.lft.to/lastmile_qr_scan"}, "fusion_lon": 0.0, "lon": -77.02423133333333, "name": "1aca0ebfd9b0b99503034ad4971bcbf3", "is_reserved": 0, "is_disabled": 0}, {"lat": 38.892308166666666, "fusion_lat": 0.0, "type": "electric_scooter", "bike_id": "6d4dbfe3a82da99e7792383ad31f9c0c", "rental_uris": {"ios": "https://dc.lft.to/lastmile_qr_scan", "android": "https://dc.lft.to/lastmile_qr_scan"}, "fusion_lon": 0.0, "lon": -77.050055, "name": "6d4dbfe3a82da99e7792383ad31f9c0c", "is_reserved": 0, "is_disabled": 0}, {"lat": 38.905090333333334, "fusion_lat": 0.0, "type": "electric_scooter", "bike_id": "e3f1e0f3af453c6406cf191f2e0455b0", "rental_uris": {"ios": "https://dc.lft.to/lastmile_qr_scan", "android": "https://dc.lft.to/lastmile_qr_scan"}, "fusion_lon": 0.0, "lon": -77.06743166666666, "name": "e3f1e0f3af453c6406cf191f2e0455b0", "is_reserved": 0, "is_disabled": 0}, {"lat": 38.89779016666667, "fusion_lat": 0.0, "type": "electric_scooter", "bike_id": "70f5f80af72ed91c1da009d0315e70d6", "rental_uris": {"ios": "https://dc.lft.to/lastmile_qr_scan", "android": "https://dc.lft.to/lastmile_qr_scan"}, "fusion_lon": 0.0, "lon": -76.9916175, "name": "70f5f80af72ed91c1da009d0315e70d6", "is_reserved": 0, "is_disabled": 0}, {"lat": 38.9117145, "fusion_lat": 0.0, "type": "electric_scooter", "bike_id": "6547a2860f3a5e5c70030348d048ab01", "rental_uris": {"ios": "https://dc.lft.to/lastmile_qr_scan", "android": "https://dc.lft.to/lastmile_qr_scan"}, "fusion_lon": 0.0, "lon": -77.00207033333334, "name": "6547a2860f3a5e5c70030348d048ab01", "is_reserved": 0, "is_disabled": 0}, {"lat": 38.8923225, "fusion_lat": 0.0, "type": "electric_scooter", "bike_id": "75c17b446a67cd9e0b354aea89c15acf", "rental_uris": {"ios": "https://dc.lft.to/lastmile_qr_scan", "android": "https://dc.lft.to/lastmile_qr_scan"}, "fusion_lon": 0.0, "lon": -77.02176183333333, "name": "75c17b446a67cd9e0b354aea89c15acf", "is_reserved": 0, "is_disabled": 0}, {"lat": 38.92369216666667, "fusion_lat": 0.0, "type": "electric_scooter", "bike_id": "c8ca669bebe86ed204b70c5500c484c1", "rental_uris": {"ios": "https://dc.lft.to/lastmile_qr_scan", "android": "https://dc.lft.to/lastmile_qr_scan"}, "fusion_lon": 0.0, "lon": -77.0504745, "name": "c8ca669bebe86ed204b70c5500c484c1", "is_reserved": 0, "is_disabled": 0}, {"lat": 38.91335983333333, "fusion_lat": 0.0, "type": "electric_scooter", "bike_id": "d8aeb2be555d5488348a28b01a39a5c9", "rental_uris": {"ios": "https://dc.lft.to/lastmile_qr_scan", "android": "https://dc.lft.to/lastmile_qr_scan"}, "fusion_lon": 0.0, "lon": -77.0486365, "name": "d8aeb2be555d5488348a28b01a39a5c9", "is_reserved": 0, "is_disabled": 0}, {"lat": 38.900731, "fusion_lat": 0.0, "type": "electric_scooter", "bike_id": "25d2256dc65466def7eb611b92b6f707", "rental_uris": {"ios": "https://dc.lft.to/lastmile_qr_scan", "android": "https://dc.lft.to/lastmile_qr_scan"}, "fusion_lon": 0.0, "lon": -77.013205, "name": "25d2256dc65466def7eb611b92b6f707", "is_reserved": 0, "is_disabled": 0}, {"lat": 38.8767385, "fusion_lat": 0.0, "type": "electric_scooter", "bike_id": "4e0af0a1d07f34330756fd8fccf76af9", "rental_uris": {"ios": "https://dc.lft.to/lastmile_qr_scan", "android": "https://dc.lft.to/lastmile_qr_scan"}, "fusion_lon": 0.0, "lon": -77.001107, "name": "4e0af0a1d07f34330756fd8fccf76af9", "is_reserved": 0, "is_disabled": 0}, {"lat": 38.90566166666667, "fusion_lat": 0.0, "type": "electric_scooter", "bike_id": "05fc96226f6a123ace716f49629d8e27", "rental_uris": {"ios": "https://dc.lft.to/lastmile_qr_scan", "android": "https://dc.lft.to/lastmile_qr_scan"}, "fusion_lon": 0.0, "lon": -77.025074, "name": "05fc96226f6a123ace716f49629d8e27", "is_reserved": 0, "is_disabled": 0}, {"lat": 38.897331666666666, "fusion_lat": 0.0, "type": "electric_scooter", "bike_id": "576abe223ca6cc7e26014ebf8b69039c", "rental_uris": {"ios": "https://dc.lft.to/lastmile_qr_scan", "android": "https://dc.lft.to/lastmile_qr_scan"}, "fusion_lon": 0.0, "lon": -77.046826, "name": "576abe223ca6cc7e26014ebf8b69039c", "is_reserved": 0, "is_disabled": 0}, {"lat": 38.900115666666665, "fusion_lat": 0.0, "type": "electric_scooter", "bike_id": "994dff3a4233ceeb1b8b6f23c68705c4", "rental_uris": {"ios": "https://dc.lft.to/lastmile_qr_scan", "android": "https://dc.lft.to/lastmile_qr_scan"}, "fusion_lon": 0.0, "lon": -77.01255183333333, "name": "994dff3a4233ceeb1b8b6f23c68705c4", "is_reserved": 0, "is_disabled": 0}, {"lat": 38.89225283333333, "fusion_lat": 0.0, "type": "electric_scooter", "bike_id": "c641c2edb8148d64eb2b8b19576be626", "rental_uris": {"ios": "https://dc.lft.to/lastmile_qr_scan", "android": "https://dc.lft.to/lastmile_qr_scan"}, "fusion_lon": 0.0, "lon": -77.04198916666667, "name": "c641c2edb8148d64eb2b8b19576be626", "is_reserved": 0, "is_disabled": 0}, {"lat": 38.91829116666667, "fusion_lat": 0.0, "type": "electric_scooter", "bike_id": "90a75ed248fcb7c0330fd55d689cda8c", "rental_uris": {"ios": "https://dc.lft.to/lastmile_qr_scan", "android": "https://dc.lft.to/lastmile_qr_scan"}, "fusion_lon": 0.0, "lon": -77.04525033333333, "name": "90a75ed248fcb7c0330fd55d689cda8c", "is_reserved": 0, "is_disabled": 0}, {"lat": 39.002853333333334, "fusion_lat": 0.0, "type": "electric_bike", "bike_id": "ad5cd68b43f8a46b2fa906bfe6af5f3f", "rental_uris": {"ios": "https://dc.lft.to/lastmile_qr_scan", "android": "https://dc.lft.to/lastmile_qr_scan"}, "fusion_lon": 0.0, "lon": -76.90295483333334, "name": "ad5cd68b43f8a46b2fa906bfe6af5f3f", "is_reserved": 0, "is_disabled": 0}, {"lat": 38.950861, "fusion_lat": 0.0, "type": "electric_bike", "bike_id": "25a1fd2a6a4693918c1a1e6f26b707a8", "rental_uris": {"ios": "https://dc.lft.to/lastmile_qr_scan", "android": "https://dc.lft.to/lastmile_qr_scan"}, "fusion_lon": 0.0, "lon": -77.01226466666667, "name": "25a1fd2a6a4693918c1a1e6f26b707a8", "is_reserved": 0, "is_disabled": 0}, {"lat": 38.913653333333336, "fusion_lat": 0.0, "type": "electric_scooter", "bike_id": "67179bcb1635fbf542b10a67289e0e06", "rental_uris": {"ios": "https://dc.lft.to/lastmile_qr_scan", "android": "https://dc.lft.to/lastmile_qr_scan"}, "fusion_lon": 0.0, "lon": -77.015659, "name": "67179bcb1635fbf542b10a67289e0e06", "is_reserved": 0, "is_disabled": 0}, {"lat": 38.89198483333333, "fusion_lat": 0.0, "type": "electric_scooter", "bike_id": "09c117d85cea18afca95391fdf5eeb32", "rental_uris": {"ios": "https://dc.lft.to/lastmile_qr_scan", "android": "https://dc.lft.to/lastmile_qr_scan"}, "fusion_lon": 0.0, "lon": -76.9938755, "name": "09c117d85cea18afca95391fdf5eeb32", "is_reserved": 0, "is_disabled": 0}, {"lat": 38.81330916666667, "fusion_lat": 0.0, "type": "electric_bike", "bike_id": "a5bfa7ccd0fd5c8b2fa9ba4b07d4ddd6", "rental_uris": {"ios": "https://dc.lft.to/lastmile_qr_scan", "android": "https://dc.lft.to/lastmile_qr_scan"}, "fusion_lon": 0.0, "lon": -77.05086466666667, "name": "a5bfa7ccd0fd5c8b2fa9ba4b07d4ddd6", "is_reserved": 0, "is_disabled": 0}, {"lat": 38.899926, "fusion_lat": 0.0, "type": "electric_scooter", "bike_id": "04b714ed1b8672bad1d8396432b0a83c", "rental_uris": {"ios": "https://dc.lft.to/lastmile_qr_scan", "android": "https://dc.lft.to/lastmile_qr_scan"}, "fusion_lon": 0.0, "lon": -77.01906683333333, "name": "04b714ed1b8672bad1d8396432b0a83c", "is_reserved": 0, "is_disabled": 0}, {"lat": 38.922543833333336, "fusion_lat": 0.0, "type": "electric_scooter", "bike_id": "3e384b712b2a7ff4966b10217da545d0", "rental_uris": {"ios": "https://dc.lft.to/lastmile_qr_scan", "android": "https://dc.lft.to/lastmile_qr_scan"}, "fusion_lon": 0.0, "lon": -77.019113, "name": "3e384b712b2a7ff4966b10217da545d0", "is_reserved": 0, "is_disabled": 0}, {"lat": 38.920366666666666, "fusion_lat": 0.0, "type": "electric_scooter", "bike_id": "e3ae044e47fe86449319110eb9328ac8", "rental_uris": {"ios": "https://dc.lft.to/lastmile_qr_scan", "android": "https://dc.lft.to/lastmile_qr_scan"}, "fusion_lon": 0.0, "lon": -77.071443, "name": "e3ae044e47fe86449319110eb9328ac8", "is_reserved": 0, "is_disabled": 0}, {"lat": 38.877238166666665, "fusion_lat": 0.0, "type": "electric_scooter", "bike_id": "c263b17c2553a9e6cb8d08222443a4d1", "rental_uris": {"ios": "https://dc.lft.to/lastmile_qr_scan", "android": "https://dc.lft.to/lastmile_qr_scan"}, "fusion_lon": 0.0, "lon": -77.01755033333333, "name": "c263b17c2553a9e6cb8d08222443a4d1", "is_reserved": 0, "is_disabled": 0}, {"lat": 38.903110833333336, "fusion_lat": 0.0, "type": "electric_scooter", "bike_id": "1c7057aa0834e07cbe1901d1b54e4208", "rental_uris": {"ios": "https://dc.lft.to/lastmile_qr_scan", "android": "https://dc.lft.to/lastmile_qr_scan"}, "fusion_lon": 0.0, "lon": -76.97799733333333, "name": "1c7057aa0834e07cbe1901d1b54e4208", "is_reserved": 0, "is_disabled": 0}, {"lat": 38.892235, "fusion_lat": 0.0, "type": "electric_scooter", "bike_id": "60452981595c56315c750775d7c5d5df", "rental_uris": {"ios": "https://dc.lft.to/lastmile_qr_scan", "android": "https://dc.lft.to/lastmile_qr_scan"}, "fusion_lon": 0.0, "lon": -77.02629783333333, "name": "60452981595c56315c750775d7c5d5df", "is_reserved": 0, "is_disabled": 0}, {"lat": 38.904088333333334, "fusion_lat": 0.0, "type": "electric_scooter", "bike_id": "a56f39290657ffc9a819e3c02641e061", "rental_uris": {"ios": "https://dc.lft.to/lastmile_qr_scan", "android": "https://dc.lft.to/lastmile_qr_scan"}, "fusion_lon": 0.0, "lon": -77.06804766666667, "name": "a56f39290657ffc9a819e3c02641e061", "is_reserved": 0, "is_disabled": 0}, {"lat": 38.90435816666667, "fusion_lat": 0.0, "type": "electric_scooter", "bike_id": "acf5cdc2f0f647bd16c902398682536b", "rental_uris": {"ios": "https://dc.lft.to/lastmile_qr_scan", "android": "https://dc.lft.to/lastmile_qr_scan"}, "fusion_lon": 0.0, "lon": -77.0584565, "name": "acf5cdc2f0f647bd16c902398682536b", "is_reserved": 0, "is_disabled": 0}, {"lat": 38.9243725, "fusion_lat": 0.0, "type": "electric_scooter", "bike_id": "363d78943cfde3f782ef0b2974de6646", "rental_uris": {"ios": "https://dc.lft.to/lastmile_qr_scan", "android": "https://dc.lft.to/lastmile_qr_scan"}, "fusion_lon": 0.0, "lon": -77.0006485, "name": "363d78943cfde3f782ef0b2974de6646", "is_reserved": 0, "is_disabled": 0}, {"lat": 38.920388833333334, "fusion_lat": 0.0, "type": "electric_scooter", "bike_id": "a2414e1d81948dbbac23bd4742ecde3a", "rental_uris": {"ios": "https://dc.lft.to/lastmile_qr_scan", "android": "https://dc.lft.to/lastmile_qr_scan"}, "fusion_lon": 0.0, "lon": -77.024258, "name": "a2414e1d81948dbbac23bd4742ecde3a", "is_reserved": 0, "is_disabled": 0}, {"lat": 38.92388483333333, "fusion_lat": 0.0, "type": "electric_scooter", "bike_id": "9ff81ccbb660725cce9507171895bea3", "rental_uris": {"ios": "https://dc.lft.to/lastmile_qr_scan", "android": "https://dc.lft.to/lastmile_qr_scan"}, "fusion_lon": 0.0, "lon": -77.03660366666666, "name": "9ff81ccbb660725cce9507171895bea3", "is_reserved": 0, "is_disabled": 0}, {"lat": 38.892186333333335, "fusion_lat": 0.0, "type": "electric_scooter", "bike_id": "7bdde3a33d88872f7d686307d4b1e060", "rental_uris": {"ios": "https://dc.lft.to/lastmile_qr_scan", "android": "https://dc.lft.to/lastmile_qr_scan"}, "fusion_lon": 0.0, "lon": -77.02374966666666, "name": "7bdde3a33d88872f7d686307d4b1e060", "is_reserved": 0, "is_disabled": 0}, {"lat": 38.877095, "fusion_lat": 0.0, "type": "electric_scooter", "bike_id": "d54c8121965b90dfb59883ef87728c21", "rental_uris": {"ios": "https://dc.lft.to/lastmile_qr_scan", "android": "https://dc.lft.to/lastmile_qr_scan"}, "fusion_lon": 0.0, "lon": -76.99692333333333, "name": "d54c8121965b90dfb59883ef87728c21", "is_reserved": 0, "is_disabled": 0}, {"lat": 38.9410775, "fusion_lat": 0.0, "type": "electric_scooter", "bike_id": "7eecf67ee4cae5c301471def397acd5d", "rental_uris": {"ios": "https://dc.lft.to/lastmile_qr_scan", "android": "https://dc.lft.to/lastmile_qr_scan"}, "fusion_lon": 0.0, "lon": -77.02642633333333, "name": "7eecf67ee4cae5c301471def397acd5d", "is_reserved": 0, "is_disabled": 0}, {"lat": 38.929122666666665, "fusion_lat": 0.0, "type": "electric_scooter", "bike_id": "2036e8f5eb9db883f6ef6e763cbe8506", "rental_uris": {"ios": "https://dc.lft.to/lastmile_qr_scan", "android": "https://dc.lft.to/lastmile_qr_scan"}, "fusion_lon": 0.0, "lon": -77.07293333333334, "name": "2036e8f5eb9db883f6ef6e763cbe8506", "is_reserved": 0, "is_disabled": 0}, {"lat": 38.92693933333334, "fusion_lat": 0.0, "type": "electric_scooter", "bike_id": "7860e83409343365081e102a24c5e747", "rental_uris": {"ios": "https://dc.lft.to/lastmile_qr_scan", "android": "https://dc.lft.to/lastmile_qr_scan"}, "fusion_lon": 0.0, "lon": -77.02109633333333, "name": "7860e83409343365081e102a24c5e747", "is_reserved": 0, "is_disabled": 0}, {"lat": 38.95735833333333, "fusion_lat": 0.0, "type": "electric_scooter", "bike_id": "c2e1f389e6c129e4c71037829d7022b3", "rental_uris": {"ios": "https://dc.lft.to/lastmile_qr_scan", "android": "https://dc.lft.to/lastmile_qr_scan"}, "fusion_lon": 0.0, "lon": -77.024233, "name": "c2e1f389e6c129e4c71037829d7022b3", "is_reserved": 0, "is_disabled": 0}, {"lat": 38.92009316666667, "fusion_lat": 0.0, "type": "electric_scooter", "bike_id": "20c0f9e798626228034b8f06c0c8b564", "rental_uris": {"ios": "https://dc.lft.to/lastmile_qr_scan", "android": "https://dc.lft.to/lastmile_qr_scan"}, "fusion_lon": 0.0, "lon": -77.03194533333334, "name": "20c0f9e798626228034b8f06c0c8b564", "is_reserved": 0, "is_disabled": 0}, {"lat": 38.929377833333334, "fusion_lat": 0.0, "type": "electric_scooter", "bike_id": "b7e627f1519ffb1c92d71ec97dbc3c01", "rental_uris": {"ios": "https://dc.lft.to/lastmile_qr_scan", "android": "https://dc.lft.to/lastmile_qr_scan"}, "fusion_lon": 0.0, "lon": -77.005773, "name": "b7e627f1519ffb1c92d71ec97dbc3c01", "is_reserved": 0, "is_disabled": 0}, {"lat": 38.92139916666667, "fusion_lat": 0.0, "type": "electric_scooter", "bike_id": "47b0cbc4e99241726aebd33c96bc375e", "rental_uris": {"ios": "https://dc.lft.to/lastmile_qr_scan", "android": "https://dc.lft.to/lastmile_qr_scan"}, "fusion_lon": 0.0, "lon": -77.00947133333334, "name": "47b0cbc4e99241726aebd33c96bc375e", "is_reserved": 0, "is_disabled": 0}, {"lat": 38.93306466666667, "fusion_lat": 0.0, "type": "electric_scooter", "bike_id": "497033db56168dd7e6763df725a0c683", "rental_uris": {"ios": "https://dc.lft.to/lastmile_qr_scan", "android": "https://dc.lft.to/lastmile_qr_scan"}, "fusion_lon": 0.0, "lon": -77.03267716666667, "name": "497033db56168dd7e6763df725a0c683", "is_reserved": 0, "is_disabled": 0}, {"lat": 38.907239833333335, "fusion_lat": 0.0, "type": "electric_scooter", "bike_id": "e2a202c5c111cc6e63023cd51154295e", "rental_uris": {"ios": "https://dc.lft.to/lastmile_qr_scan", "android": "https://dc.lft.to/lastmile_qr_scan"}, "fusion_lon": 0.0, "lon": -77.0197845, "name": "e2a202c5c111cc6e63023cd51154295e", "is_reserved": 0, "is_disabled": 0}, {"lat": 38.905327166666666, "fusion_lat": 0.0, "type": "electric_scooter", "bike_id": "1907c867e60e45eab9d0c9ac34c8d3bb", "rental_uris": {"ios": "https://dc.lft.to/lastmile_qr_scan", "android": "https://dc.lft.to/lastmile_qr_scan"}, "fusion_lon": 0.0, "lon": -77.05004016666666, "name": "1907c867e60e45eab9d0c9ac34c8d3bb", "is_reserved": 0, "is_disabled": 0}, {"lat": 38.90039616666667, "fusion_lat": 0.0, "type": "electric_scooter", "bike_id": "42f51e024fc33e7a641c6552ee4d079c", "rental_uris": {"ios": "https://dc.lft.to/lastmile_qr_scan", "android": "https://dc.lft.to/lastmile_qr_scan"}, "fusion_lon": 0.0, "lon": -77.0125265, "name": "42f51e024fc33e7a641c6552ee4d079c", "is_reserved": 0, "is_disabled": 0}, {"lat": 38.9252635, "fusion_lat": 0.0, "type": "electric_scooter", "bike_id": "88bb8885bbc3dfeeea240f5a1e6a9ff0", "rental_uris": {"ios": "https://dc.lft.to/lastmile_qr_scan", "android": "https://dc.lft.to/lastmile_qr_scan"}, "fusion_lon": 0.0, "lon": -77.0225765, "name": "88bb8885bbc3dfeeea240f5a1e6a9ff0", "is_reserved": 0, "is_disabled": 0}, {"lat": 38.892722666666664, "fusion_lat": 0.0, "type": "electric_scooter", "bike_id": "520d6bcdeb412380c32192f00fdb4eb9", "rental_uris": {"ios": "https://dc.lft.to/lastmile_qr_scan", "android": "https://dc.lft.to/lastmile_qr_scan"}, "fusion_lon": 0.0, "lon": -77.046768, "name": "520d6bcdeb412380c32192f00fdb4eb9", "is_reserved": 0, "is_disabled": 0}, {"lat": 38.93005466666666, "fusion_lat": 0.0, "type": "electric_scooter", "bike_id": "961b8c1512c3f9b2bd8cc932ca4100d5", "rental_uris": {"ios": "https://dc.lft.to/lastmile_qr_scan", "android": "https://dc.lft.to/lastmile_qr_scan"}, "fusion_lon": 0.0, "lon": -77.02085033333333, "name": "961b8c1512c3f9b2bd8cc932ca4100d5", "is_reserved": 0, "is_disabled": 0}, {"lat": 38.914840833333336, "fusion_lat": 0.0, "type": "electric_scooter", "bike_id": "ddb9f919e71e3b00ca34d8d6421d675c", "rental_uris": {"ios": "https://dc.lft.to/lastmile_qr_scan", "android": "https://dc.lft.to/lastmile_qr_scan"}, "fusion_lon": 0.0, "lon": -77.01360866666667, "name": "ddb9f919e71e3b00ca34d8d6421d675c", "is_reserved": 0, "is_disabled": 0}, {"lat": 38.900293166666664, "fusion_lat": 0.0, "type": "electric_scooter", "bike_id": "8eb3b62fd70df0d1196ae1a6b29b9fc1", "rental_uris": {"ios": "https://dc.lft.to/lastmile_qr_scan", "android": "https://dc.lft.to/lastmile_qr_scan"}, "fusion_lon": 0.0, "lon": -77.00160066666666, "name": "8eb3b62fd70df0d1196ae1a6b29b9fc1", "is_reserved": 0, "is_disabled": 0}, {"lat": 38.91796733333334, "fusion_lat": 0.0, "type": "electric_scooter", "bike_id": "9a36da5f96d380f4a6c0bb4656870402", "rental_uris": {"ios": "https://dc.lft.to/lastmile_qr_scan", "android": "https://dc.lft.to/lastmile_qr_scan"}, "fusion_lon": 0.0, "lon": -77.02706983333333, "name": "9a36da5f96d380f4a6c0bb4656870402", "is_reserved": 0, "is_disabled": 0}, {"lat": 38.90383883333333, "fusion_lat": 0.0, "type": "electric_scooter", "bike_id": "79c414ba6164d7e7ec1f718a76c1617a", "rental_uris": {"ios": "https://dc.lft.to/lastmile_qr_scan", "android": "https://dc.lft.to/lastmile_qr_scan"}, "fusion_lon": 0.0, "lon": -76.97611583333334, "name": "79c414ba6164d7e7ec1f718a76c1617a", "is_reserved": 0, "is_disabled": 0}, {"lat": 38.89239216666667, "fusion_lat": 0.0, "type": "electric_scooter", "bike_id": "bc85f1ff31d01b9bdc97f3a0a059cb87", "rental_uris": {"ios": "https://dc.lft.to/lastmile_qr_scan", "android": "https://dc.lft.to/lastmile_qr_scan"}, "fusion_lon": 0.0, "lon": -77.04485966666667, "name": "bc85f1ff31d01b9bdc97f3a0a059cb87", "is_reserved": 0, "is_disabled": 0}, {"lat": 38.924699, "fusion_lat": 0.0, "type": "electric_scooter", "bike_id": "600c05e7ae0e4bb49c7e8764db560d5b", "rental_uris": {"ios": "https://dc.lft.to/lastmile_qr_scan", "android": "https://dc.lft.to/lastmile_qr_scan"}, "fusion_lon": 0.0, "lon": -77.04028216666667, "name": "600c05e7ae0e4bb49c7e8764db560d5b", "is_reserved": 0, "is_disabled": 0}, {"lat": 38.9431385, "fusion_lat": 0.0, "type": "electric_scooter", "bike_id": "6d115cf7bce9da30c65dcee3b96cae53", "rental_uris": {"ios": "https://dc.lft.to/lastmile_qr_scan", "android": "https://dc.lft.to/lastmile_qr_scan"}, "fusion_lon": 0.0, "lon": -77.0249015, "name": "6d115cf7bce9da30c65dcee3b96cae53", "is_reserved": 0, "is_disabled": 0}, {"lat": 38.892403, "fusion_lat": 0.0, "type": "electric_scooter", "bike_id": "d39cac50891512b4029945c33ffa3646", "rental_uris": {"ios": "https://dc.lft.to/lastmile_qr_scan", "android": "https://dc.lft.to/lastmile_qr_scan"}, "fusion_lon": 0.0, "lon": -77.0416025, "name": "d39cac50891512b4029945c33ffa3646", "is_reserved": 0, "is_disabled": 0}, {"lat": 38.92032533333333, "fusion_lat": 0.0, "type": "electric_scooter", "bike_id": "bd7cfc0743d26b6eefe3f613ec6fa88e", "rental_uris": {"ios": "https://dc.lft.to/lastmile_qr_scan", "android": "https://dc.lft.to/lastmile_qr_scan"}, "fusion_lon": 0.0, "lon": -77.071383, "name": "bd7cfc0743d26b6eefe3f613ec6fa88e", "is_reserved": 0, "is_disabled": 0}, {"lat": 38.961874, "fusion_lat": 0.0, "type": "electric_bike", "bike_id": "6a111aabb1b0756d689d6856d9e7fb3f", "rental_uris": {"ios": "https://dc.lft.to/lastmile_qr_scan", "android": "https://dc.lft.to/lastmile_qr_scan"}, "fusion_lon": 0.0, "lon": -77.05267066666667, "name": "6a111aabb1b0756d689d6856d9e7fb3f", "is_reserved": 0, "is_disabled": 0}, {"lat": 38.922645333333335, "fusion_lat": 0.0, "type": "electric_scooter", "bike_id": "d2f4993406dfa915c6aa17b946084969", "rental_uris": {"ios": "https://dc.lft.to/lastmile_qr_scan", "android": "https://dc.lft.to/lastmile_qr_scan"}, "fusion_lon": 0.0, "lon": -77.03684016666666, "name": "d2f4993406dfa915c6aa17b946084969", "is_reserved": 0, "is_disabled": 0}, {"lat": 38.88496116666666, "fusion_lat": 0.0, "type": "electric_scooter", "bike_id": "5383b55e2d7b23b27be1522c8a32202f", "rental_uris": {"ios": "https://dc.lft.to/lastmile_qr_scan", "android": "https://dc.lft.to/lastmile_qr_scan"}, "fusion_lon": 0.0, "lon": -76.980602, "name": "5383b55e2d7b23b27be1522c8a32202f", "is_reserved": 0, "is_disabled": 0}, {"lat": 38.918153333333336, "fusion_lat": 0.0, "type": "electric_scooter", "bike_id": "dab80e36624a4ee30ba82b441dbe7e7f", "rental_uris": {"ios": "https://dc.lft.to/lastmile_qr_scan", "android": "https://dc.lft.to/lastmile_qr_scan"}, "fusion_lon": 0.0, "lon": -77.03467066666667, "name": "dab80e36624a4ee30ba82b441dbe7e7f", "is_reserved": 0, "is_disabled": 0}, {"lat": 38.9306265, "fusion_lat": 0.0, "type": "electric_scooter", "bike_id": "78e1ce4c26c4c6f3eaed266e3ff76a16", "rental_uris": {"ios": "https://dc.lft.to/lastmile_qr_scan", "android": "https://dc.lft.to/lastmile_qr_scan"}, "fusion_lon": 0.0, "lon": -77.03819333333334, "name": "78e1ce4c26c4c6f3eaed266e3ff76a16", "is_reserved": 0, "is_disabled": 0}, {"lat": 38.927957666666664, "fusion_lat": 0.0, "type": "electric_scooter", "bike_id": "4580c968ad0097444a7843ee70b137fe", "rental_uris": {"ios": "https://dc.lft.to/lastmile_qr_scan", "android": "https://dc.lft.to/lastmile_qr_scan"}, "fusion_lon": 0.0, "lon": -77.02711266666667, "name": "4580c968ad0097444a7843ee70b137fe", "is_reserved": 0, "is_disabled": 0}, {"lat": 38.90487733333333, "fusion_lat": 0.0, "type": "electric_scooter", "bike_id": "19944dbe93725ee8ab85e3962539741e", "rental_uris": {"ios": "https://dc.lft.to/lastmile_qr_scan", "android": "https://dc.lft.to/lastmile_qr_scan"}, "fusion_lon": 0.0, "lon": -77.02107533333333, "name": "19944dbe93725ee8ab85e3962539741e", "is_reserved": 0, "is_disabled": 0}, {"lat": 38.908243, "fusion_lat": 0.0, "type": "electric_scooter", "bike_id": "d8e4aa32392d5fa45124bf64e22fc1f5", "rental_uris": {"ios": "https://dc.lft.to/lastmile_qr_scan", "android": "https://dc.lft.to/lastmile_qr_scan"}, "fusion_lon": 0.0, "lon": -77.03463066666667, "name": "d8e4aa32392d5fa45124bf64e22fc1f5", "is_reserved": 0, "is_disabled": 0}, {"lat": 38.93441416666667, "fusion_lat": 0.0, "type": "electric_scooter", "bike_id": "43cf3977687f969ea309d55900dfa499", "rental_uris": {"ios": "https://dc.lft.to/lastmile_qr_scan", "android": "https://dc.lft.to/lastmile_qr_scan"}, "fusion_lon": 0.0, "lon": -76.9971515, "name": "43cf3977687f969ea309d55900dfa499", "is_reserved": 0, "is_disabled": 0}, {"lat": 38.905800666666664, "fusion_lat": 0.0, "type": "electric_scooter", "bike_id": "1b4381826e12b2e3141d6e20d50daad4", "rental_uris": {"ios": "https://dc.lft.to/lastmile_qr_scan", "android": "https://dc.lft.to/lastmile_qr_scan"}, "fusion_lon": 0.0, "lon": -77.03444416666666, "name": "1b4381826e12b2e3141d6e20d50daad4", "is_reserved": 0, "is_disabled": 0}, {"lat": 38.94203, "fusion_lat": 0.0, "type": "electric_scooter", "bike_id": "70ab701fed983632cdc4438a4a52e5df", "rental_uris": {"ios": "https://dc.lft.to/lastmile_qr_scan", "android": "https://dc.lft.to/lastmile_qr_scan"}, "fusion_lon": 0.0, "lon": -77.02590333333333, "name": "70ab701fed983632cdc4438a4a52e5df", "is_reserved": 0, "is_disabled": 0}, {"lat": 38.924197, "fusion_lat": 0.0, "type": "electric_scooter", "bike_id": "ab3d93a0d65f4e2cc1b0a6d8736c2ac3", "rental_uris": {"ios": "https://dc.lft.to/lastmile_qr_scan", "android": "https://dc.lft.to/lastmile_qr_scan"}, "fusion_lon": 0.0, "lon": -77.05743366666667, "name": "ab3d93a0d65f4e2cc1b0a6d8736c2ac3", "is_reserved": 0, "is_disabled": 0}, {"lat": 38.87404083333333, "fusion_lat": 0.0, "type": "electric_scooter", "bike_id": "4e51899a8d010e956d1f18e2f536bf13", "rental_uris": {"ios": "https://dc.lft.to/lastmile_qr_scan", "android": "https://dc.lft.to/lastmile_qr_scan"}, "fusion_lon": 0.0, "lon": -77.0011865, "name": "4e51899a8d010e956d1f18e2f536bf13", "is_reserved": 0, "is_disabled": 0}, {"lat": 38.91711433333333, "fusion_lat": 0.0, "type": "electric_scooter", "bike_id": "7c51f6e1af8f5a388d5c04b3a6d44242", "rental_uris": {"ios": "https://dc.lft.to/lastmile_qr_scan", "android": "https://dc.lft.to/lastmile_qr_scan"}, "fusion_lon": 0.0, "lon": -77.0304875, "name": "7c51f6e1af8f5a388d5c04b3a6d44242", "is_reserved": 0, "is_disabled": 0}, {"lat": 38.892392, "fusion_lat": 0.0, "type": "electric_scooter", "bike_id": "5fcf43cc29ac5c08988b29971cc1f6a6", "rental_uris": {"ios": "https://dc.lft.to/lastmile_qr_scan", "android": "https://dc.lft.to/lastmile_qr_scan"}, "fusion_lon": 0.0, "lon": -77.04161, "name": "5fcf43cc29ac5c08988b29971cc1f6a6", "is_reserved": 0, "is_disabled": 0}, {"lat": 38.8316055, "fusion_lat": 0.0, "type": "electric_bike", "bike_id": "755c5bea62619829ed10628b171d1b57", "rental_uris": {"ios": "https://dc.lft.to/lastmile_qr_scan", "android": "https://dc.lft.to/lastmile_qr_scan"}, "fusion_lon": 0.0, "lon": -76.99574766666667, "name": "755c5bea62619829ed10628b171d1b57", "is_reserved": 0, "is_disabled": 0}, {"lat": 38.93000133333334, "fusion_lat": 0.0, "type": "electric_scooter", "bike_id": "0887750efbe08cddd31a2782dab7ca20", "rental_uris": {"ios": "https://dc.lft.to/lastmile_qr_scan", "android": "https://dc.lft.to/lastmile_qr_scan"}, "fusion_lon": 0.0, "lon": -77.02347116666667, "name": "0887750efbe08cddd31a2782dab7ca20", "is_reserved": 0, "is_disabled": 0}, {"lat": 38.90478433333333, "fusion_lat": 0.0, "type": "electric_scooter", "bike_id": "6f2fea20a0e361ceb437b9623325565e", "rental_uris": {"ios": "https://dc.lft.to/lastmile_qr_scan", "android": "https://dc.lft.to/lastmile_qr_scan"}, "fusion_lon": 0.0, "lon": -77.02953766666667, "name": "6f2fea20a0e361ceb437b9623325565e", "is_reserved": 0, "is_disabled": 0}, {"lat": 38.9284905, "fusion_lat": 0.0, "type": "electric_scooter", "bike_id": "57e2dbe79ec5810bb3f07f0e10ea0af7", "rental_uris": {"ios": "https://dc.lft.to/lastmile_qr_scan", "android": "https://dc.lft.to/lastmile_qr_scan"}, "fusion_lon": 0.0, "lon": -77.05576733333334, "name": "57e2dbe79ec5810bb3f07f0e10ea0af7", "is_reserved": 0, "is_disabled": 0}, {"lat": 38.874162, "fusion_lat": 0.0, "type": "electric_scooter", "bike_id": "9a72c3d8c1a2d95fd015f715d757bff2", "rental_uris": {"ios": "https://dc.lft.to/lastmile_qr_scan", "android": "https://dc.lft.to/lastmile_qr_scan"}, "fusion_lon": 0.0, "lon": -77.00211283333333, "name": "9a72c3d8c1a2d95fd015f715d757bff2", "is_reserved": 0, "is_disabled": 0}, {"lat": 38.916014833333335, "fusion_lat": 0.0, "type": "electric_scooter", "bike_id": "db40dcb6d0c0fe22842b33323c45a3c4", "rental_uris": {"ios": "https://dc.lft.to/lastmile_qr_scan", "android": "https://dc.lft.to/lastmile_qr_scan"}, "fusion_lon": 0.0, "lon": -77.04903633333333, "name": "db40dcb6d0c0fe22842b33323c45a3c4", "is_reserved": 0, "is_disabled": 0}, {"lat": 38.92345566666667, "fusion_lat": 0.0, "type": "electric_scooter", "bike_id": "db2e9876edbdd9d4af8c9a2c65edba44", "rental_uris": {"ios": "https://dc.lft.to/lastmile_qr_scan", "android": "https://dc.lft.to/lastmile_qr_scan"}, "fusion_lon": 0.0, "lon": -77.05170783333334, "name": "db2e9876edbdd9d4af8c9a2c65edba44", "is_reserved": 0, "is_disabled": 0}, {"lat": 38.92193733333333, "fusion_lat": 0.0, "type": "electric_scooter", "bike_id": "6cd562eb8bd16f7f3238643cba789ccd", "rental_uris": {"ios": "https://dc.lft.to/lastmile_qr_scan", "android": "https://dc.lft.to/lastmile_qr_scan"}, "fusion_lon": 0.0, "lon": -77.01966066666667, "name": "6cd562eb8bd16f7f3238643cba789ccd", "is_reserved": 0, "is_disabled": 0}, {"lat": 38.9007575, "fusion_lat": 0.0, "type": "electric_scooter", "bike_id": "2eb887abea130b3465b843881cb5a445", "rental_uris": {"ios": "https://dc.lft.to/lastmile_qr_scan", "android": "https://dc.lft.to/lastmile_qr_scan"}, "fusion_lon": 0.0, "lon": -77.0182205, "name": "2eb887abea130b3465b843881cb5a445", "is_reserved": 0, "is_disabled": 0}, {"lat": 38.900416, "fusion_lat": 0.0, "type": "electric_scooter", "bike_id": "da441c853530f56ff9e00aae578a91fd", "rental_uris": {"ios": "https://dc.lft.to/lastmile_qr_scan", "android": "https://dc.lft.to/lastmile_qr_scan"}, "fusion_lon": 0.0, "lon": -77.0018605, "name": "da441c853530f56ff9e00aae578a91fd", "is_reserved": 0, "is_disabled": 0}, {"lat": 38.92230216666667, "fusion_lat": 0.0, "type": "electric_scooter", "bike_id": "d5a40893f76e380630d5da7283f41987", "rental_uris": {"ios": "https://dc.lft.to/lastmile_qr_scan", "android": "https://dc.lft.to/lastmile_qr_scan"}, "fusion_lon": 0.0, "lon": -77.044142, "name": "d5a40893f76e380630d5da7283f41987", "is_reserved": 0, "is_disabled": 0}, {"lat": 38.892327333333334, "fusion_lat": 0.0, "type": "electric_scooter", "bike_id": "8fafeb867506be6a28d4d2d6d007091a", "rental_uris": {"ios": "https://dc.lft.to/lastmile_qr_scan", "android": "https://dc.lft.to/lastmile_qr_scan"}, "fusion_lon": 0.0, "lon": -77.02802466666667, "name": "8fafeb867506be6a28d4d2d6d007091a", "is_reserved": 0, "is_disabled": 0}, {"lat": 38.920256333333334, "fusion_lat": 0.0, "type": "electric_scooter", "bike_id": "49a118a77828960f6b199f57cdfd1395", "rental_uris": {"ios": "https://dc.lft.to/lastmile_qr_scan", "android": "https://dc.lft.to/lastmile_qr_scan"}, "fusion_lon": 0.0, "lon": -77.0716395, "name": "49a118a77828960f6b199f57cdfd1395", "is_reserved": 0, "is_disabled": 0}, {"lat": 38.898947166666666, "fusion_lat": 0.0, "type": "electric_scooter", "bike_id": "7d9a0f3a260d797408c8b6970e972747", "rental_uris": {"ios": "https://dc.lft.to/lastmile_qr_scan", "android": "https://dc.lft.to/lastmile_qr_scan"}, "fusion_lon": 0.0, "lon": -77.008362, "name": "7d9a0f3a260d797408c8b6970e972747", "is_reserved": 0, "is_disabled": 0}, {"lat": 38.8855635, "fusion_lat": 0.0, "type": "electric_scooter", "bike_id": "4da04d821eb4cf660a0172631c359d38", "rental_uris": {"ios": "https://dc.lft.to/lastmile_qr_scan", "android": "https://dc.lft.to/lastmile_qr_scan"}, "fusion_lon": 0.0, "lon": -76.99793133333333, "name": "4da04d821eb4cf660a0172631c359d38", "is_reserved": 0, "is_disabled": 0}, {"lat": 38.90142483333333, "fusion_lat": 0.0, "type": "electric_scooter", "bike_id": "77feb5e88186626dc46c7afab6cca6e9", "rental_uris": {"ios": "https://dc.lft.to/lastmile_qr_scan", "android": "https://dc.lft.to/lastmile_qr_scan"}, "fusion_lon": 0.0, "lon": -77.04193716666667, "name": "77feb5e88186626dc46c7afab6cca6e9", "is_reserved": 0, "is_disabled": 0}, {"lat": 38.9057875, "fusion_lat": 0.0, "type": "electric_scooter", "bike_id": "bf3a84e24c5b7447ea164528391bba82", "rental_uris": {"ios": "https://dc.lft.to/lastmile_qr_scan", "android": "https://dc.lft.to/lastmile_qr_scan"}, "fusion_lon": 0.0, "lon": -77.022075, "name": "bf3a84e24c5b7447ea164528391bba82", "is_reserved": 0, "is_disabled": 0}, {"lat": 38.88729516666667, "fusion_lat": 0.0, "type": "electric_scooter", "bike_id": "e03306bf0a58039d13e94771a49c3aa2", "rental_uris": {"ios": "https://dc.lft.to/lastmile_qr_scan", "android": "https://dc.lft.to/lastmile_qr_scan"}, "fusion_lon": 0.0, "lon": -76.983571, "name": "e03306bf0a58039d13e94771a49c3aa2", "is_reserved": 0, "is_disabled": 0}, {"lat": 38.905909333333334, "fusion_lat": 0.0, "type": "electric_scooter", "bike_id": "e9470ff9b64818afed44ba83899438b4", "rental_uris": {"ios": "https://dc.lft.to/lastmile_qr_scan", "android": "https://dc.lft.to/lastmile_qr_scan"}, "fusion_lon": 0.0, "lon": -77.0218625, "name": "e9470ff9b64818afed44ba83899438b4", "is_reserved": 0, "is_disabled": 0}, {"lat": 38.91905233333333, "fusion_lat": 0.0, "type": "electric_scooter", "bike_id": "2c89543cc83a4e7870e41cc3ec740b92", "rental_uris": {"ios": "https://dc.lft.to/lastmile_qr_scan", "android": "https://dc.lft.to/lastmile_qr_scan"}, "fusion_lon": 0.0, "lon": -77.020476, "name": "2c89543cc83a4e7870e41cc3ec740b92", "is_reserved": 0, "is_disabled": 0}, {"lat": 38.94291783333333, "fusion_lat": 0.0, "type": "electric_scooter", "bike_id": "49da678e0353a1f5682bf036201119bd", "rental_uris": {"ios": "https://dc.lft.to/lastmile_qr_scan", "android": "https://dc.lft.to/lastmile_qr_scan"}, "fusion_lon": 0.0, "lon": -77.02172083333333, "name": "49da678e0353a1f5682bf036201119bd", "is_reserved": 0, "is_disabled": 0}, {"lat": 38.884286, "fusion_lat": 0.0, "type": "electric_scooter", "bike_id": "e8f21674e8975c4dc676662a58c4cf21", "rental_uris": {"ios": "https://dc.lft.to/lastmile_qr_scan", "android": "https://dc.lft.to/lastmile_qr_scan"}, "fusion_lon": 0.0, "lon": -76.95753833333333, "name": "e8f21674e8975c4dc676662a58c4cf21", "is_reserved": 0, "is_disabled": 0}, {"lat": 38.898172333333335, "fusion_lat": 0.0, "type": "electric_scooter", "bike_id": "73c75111de6a585bf4c9959e4f6beda2", "rental_uris": {"ios": "https://dc.lft.to/lastmile_qr_scan", "android": "https://dc.lft.to/lastmile_qr_scan"}, "fusion_lon": 0.0, "lon": -77.0104325, "name": "73c75111de6a585bf4c9959e4f6beda2", "is_reserved": 0, "is_disabled": 0}, {"lat": 38.941942833333336, "fusion_lat": 0.0, "type": "electric_scooter", "bike_id": "9f99b525852cc9d4547f4a02183fc010", "rental_uris": {"ios": "https://dc.lft.to/lastmile_qr_scan", "android": "https://dc.lft.to/lastmile_qr_scan"}, "fusion_lon": 0.0, "lon": -77.03840466666666, "name": "9f99b525852cc9d4547f4a02183fc010", "is_reserved": 0, "is_disabled": 0}, {"lat": 38.88758266666667, "fusion_lat": 0.0, "type": "electric_bike", "bike_id": "722d9e2f90534ed5d8bf6ad7521f6d1d", "rental_uris": {"ios": "https://dc.lft.to/lastmile_qr_scan", "android": "https://dc.lft.to/lastmile_qr_scan"}, "fusion_lon": 0.0, "lon": -76.90079733333333, "name": "722d9e2f90534ed5d8bf6ad7521f6d1d", "is_reserved": 0, "is_disabled": 0}, {"lat": 38.917718666666666, "fusion_lat": 0.0, "type": "electric_scooter", "bike_id": "74fca4d897cb74519418250d832b39bc", "rental_uris": {"ios": "https://dc.lft.to/lastmile_qr_scan", "android": "https://dc.lft.to/lastmile_qr_scan"}, "fusion_lon": 0.0, "lon": -77.04059266666667, "name": "74fca4d897cb74519418250d832b39bc", "is_reserved": 0, "is_disabled": 0}, {"lat": 38.925201333333334, "fusion_lat": 0.0, "type": "electric_scooter", "bike_id": "e84e48fe416f8ada0f5f19d4cd028086", "rental_uris": {"ios": "https://dc.lft.to/lastmile_qr_scan", "android": "https://dc.lft.to/lastmile_qr_scan"}, "fusion_lon": 0.0, "lon": -76.9963345, "name": "e84e48fe416f8ada0f5f19d4cd028086", "is_reserved": 0, "is_disabled": 0}, {"lat": 38.866636, "fusion_lat": 0.0, "type": "electric_scooter", "bike_id": "2115664e3e0a854934217c4c7198434b", "rental_uris": {"ios": "https://dc.lft.to/lastmile_qr_scan", "android": "https://dc.lft.to/lastmile_qr_scan"}, "fusion_lon": 0.0, "lon": -76.98904183333333, "name": "2115664e3e0a854934217c4c7198434b", "is_reserved": 0, "is_disabled": 0}, {"lat": 38.93470266666667, "fusion_lat": 0.0, "type": "electric_scooter", "bike_id": "cc1b9c3b72526f3f567b0599f2598ad3", "rental_uris": {"ios": "https://dc.lft.to/lastmile_qr_scan", "android": "https://dc.lft.to/lastmile_qr_scan"}, "fusion_lon": 0.0, "lon": -77.04142466666667, "name": "cc1b9c3b72526f3f567b0599f2598ad3", "is_reserved": 0, "is_disabled": 0}, {"lat": 38.933059, "fusion_lat": 0.0, "type": "electric_scooter", "bike_id": "ba1119ba5d2e3d78f7e31e667d5f4038", "rental_uris": {"ios": "https://dc.lft.to/lastmile_qr_scan", "android": "https://dc.lft.to/lastmile_qr_scan"}, "fusion_lon": 0.0, "lon": -77.03269233333333, "name": "ba1119ba5d2e3d78f7e31e667d5f4038", "is_reserved": 0, "is_disabled": 0}, {"lat": 38.89919833333333, "fusion_lat": 0.0, "type": "electric_scooter", "bike_id": "157742848de0f0c7b2a766343ea73998", "rental_uris": {"ios": "https://dc.lft.to/lastmile_qr_scan", "android": "https://dc.lft.to/lastmile_qr_scan"}, "fusion_lon": 0.0, "lon": -77.0401015, "name": "157742848de0f0c7b2a766343ea73998", "is_reserved": 0, "is_disabled": 0}, {"lat": 38.885076, "fusion_lat": 0.0, "type": "electric_scooter", "bike_id": "d14e3b92a4aa2976f7f38364201b9929", "rental_uris": {"ios": "https://dc.lft.to/lastmile_qr_scan", "android": "https://dc.lft.to/lastmile_qr_scan"}, "fusion_lon": 0.0, "lon": -76.95263733333333, "name": "d14e3b92a4aa2976f7f38364201b9929", "is_reserved": 0, "is_disabled": 0}, {"lat": 38.92083233333334, "fusion_lat": 0.0, "type": "electric_scooter", "bike_id": "e9d4f63e68d5a1ec7d272fc4c0a856de", "rental_uris": {"ios": "https://dc.lft.to/lastmile_qr_scan", "android": "https://dc.lft.to/lastmile_qr_scan"}, "fusion_lon": 0.0, "lon": -77.02515333333334, "name": "e9d4f63e68d5a1ec7d272fc4c0a856de", "is_reserved": 0, "is_disabled": 0}, {"lat": 38.924646333333335, "fusion_lat": 0.0, "type": "electric_scooter", "bike_id": "d3acb21bae5548ae93102176a46a5630", "rental_uris": {"ios": "https://dc.lft.to/lastmile_qr_scan", "android": "https://dc.lft.to/lastmile_qr_scan"}, "fusion_lon": 0.0, "lon": -77.04034066666667, "name": "d3acb21bae5548ae93102176a46a5630", "is_reserved": 0, "is_disabled": 0}, {"lat": 38.929264, "fusion_lat": 0.0, "type": "electric_scooter", "bike_id": "706f12db7e68f7469563317d7bf351d6", "rental_uris": {"ios": "https://dc.lft.to/lastmile_qr_scan", "android": "https://dc.lft.to/lastmile_qr_scan"}, "fusion_lon": 0.0, "lon": -77.03248666666667, "name": "706f12db7e68f7469563317d7bf351d6", "is_reserved": 0, "is_disabled": 0}, {"lat": 38.88121966666667, "fusion_lat": 0.0, "type": "electric_scooter", "bike_id": "4fda15422447f25c37211fb6466d8a38", "rental_uris": {"ios": "https://dc.lft.to/lastmile_qr_scan", "android": "https://dc.lft.to/lastmile_qr_scan"}, "fusion_lon": 0.0, "lon": -77.001381, "name": "4fda15422447f25c37211fb6466d8a38", "is_reserved": 0, "is_disabled": 0}, {"lat": 38.896035, "fusion_lat": 0.0, "type": "electric_scooter", "bike_id": "94ff08a289e9bd5c4359527d7a134fec", "rental_uris": {"ios": "https://dc.lft.to/lastmile_qr_scan", "android": "https://dc.lft.to/lastmile_qr_scan"}, "fusion_lon": 0.0, "lon": -77.044642, "name": "94ff08a289e9bd5c4359527d7a134fec", "is_reserved": 0, "is_disabled": 0}, {"lat": 38.9170565, "fusion_lat": 0.0, "type": "electric_scooter", "bike_id": "e92dbca7addc6c442d45b0d201e7a468", "rental_uris": {"ios": "https://dc.lft.to/lastmile_qr_scan", "android": "https://dc.lft.to/lastmile_qr_scan"}, "fusion_lon": 0.0, "lon": -77.03159666666667, "name": "e92dbca7addc6c442d45b0d201e7a468", "is_reserved": 0, "is_disabled": 0}, {"lat": 38.92013933333333, "fusion_lat": 0.0, "type": "electric_scooter", "bike_id": "954505f2f386534a908a1a34f49af44b", "rental_uris": {"ios": "https://dc.lft.to/lastmile_qr_scan", "android": "https://dc.lft.to/lastmile_qr_scan"}, "fusion_lon": 0.0, "lon": -77.02406316666666, "name": "954505f2f386534a908a1a34f49af44b", "is_reserved": 0, "is_disabled": 0}, {"lat": 38.901933666666665, "fusion_lat": 0.0, "type": "electric_scooter", "bike_id": "4c8e2f563c44ea3148b780d396c052e4", "rental_uris": {"ios": "https://dc.lft.to/lastmile_qr_scan", "android": "https://dc.lft.to/lastmile_qr_scan"}, "fusion_lon": 0.0, "lon": -77.02219083333334, "name": "4c8e2f563c44ea3148b780d396c052e4", "is_reserved": 0, "is_disabled": 0}, {"lat": 38.9166655, "fusion_lat": 0.0, "type": "electric_scooter", "bike_id": "b9447305da744871c5fa3482b31f6599", "rental_uris": {"ios": "https://dc.lft.to/lastmile_qr_scan", "android": "https://dc.lft.to/lastmile_qr_scan"}, "fusion_lon": 0.0, "lon": -77.00593033333334, "name": "b9447305da744871c5fa3482b31f6599", "is_reserved": 0, "is_disabled": 0}, {"lat": 38.90733433333333, "fusion_lat": 0.0, "type": "electric_scooter", "bike_id": "d49432eb784316dc681a721fcdc67460", "rental_uris": {"ios": "https://dc.lft.to/lastmile_qr_scan", "android": "https://dc.lft.to/lastmile_qr_scan"}, "fusion_lon": 0.0, "lon": -77.03529233333333, "name": "d49432eb784316dc681a721fcdc67460", "is_reserved": 0, "is_disabled": 0}, {"lat": 38.880211833333334, "fusion_lat": 0.0, "type": "electric_scooter", "bike_id": "85994068cfbf59569b0fa618e538e232", "rental_uris": {"ios": "https://dc.lft.to/lastmile_qr_scan", "android": "https://dc.lft.to/lastmile_qr_scan"}, "fusion_lon": 0.0, "lon": -76.98066333333334, "name": "85994068cfbf59569b0fa618e538e232", "is_reserved": 0, "is_disabled": 0}, {"lat": 38.88747583333333, "fusion_lat": 0.0, "type": "electric_scooter", "bike_id": "506f3bd2cf91ff1122c638d369a16470", "rental_uris": {"ios": "https://dc.lft.to/lastmile_qr_scan", "android": "https://dc.lft.to/lastmile_qr_scan"}, "fusion_lon": 0.0, "lon": -77.01401616666666, "name": "506f3bd2cf91ff1122c638d369a16470", "is_reserved": 0, "is_disabled": 0}, {"lat": 38.906791166666665, "fusion_lat": 0.0, "type": "electric_scooter", "bike_id": "4db4e176ec5b36eafe26e9a1739ac1be", "rental_uris": {"ios": "https://dc.lft.to/lastmile_qr_scan", "android": "https://dc.lft.to/lastmile_qr_scan"}, "fusion_lon": 0.0, "lon": -77.03813483333333, "name": "4db4e176ec5b36eafe26e9a1739ac1be", "is_reserved": 0, "is_disabled": 0}, {"lat": 38.926272, "fusion_lat": 0.0, "type": "electric_scooter", "bike_id": "a70368c07b25d32ee14ae9707793a2ca", "rental_uris": {"ios": "https://dc.lft.to/lastmile_qr_scan", "android": "https://dc.lft.to/lastmile_qr_scan"}, "fusion_lon": 0.0, "lon": -77.0363795, "name": "a70368c07b25d32ee14ae9707793a2ca", "is_reserved": 0, "is_disabled": 0}, {"lat": 38.91511216666667, "fusion_lat": 0.0, "type": "electric_scooter", "bike_id": "4a4f079c7a4b6e57c68b6d32bc6390a5", "rental_uris": {"ios": "https://dc.lft.to/lastmile_qr_scan", "android": "https://dc.lft.to/lastmile_qr_scan"}, "fusion_lon": 0.0, "lon": -77.03258766666667, "name": "4a4f079c7a4b6e57c68b6d32bc6390a5", "is_reserved": 0, "is_disabled": 0}, {"lat": 38.902693, "fusion_lat": 0.0, "type": "electric_scooter", "bike_id": "4473fe7a03aeda64e4f298848a1dcd6a", "rental_uris": {"ios": "https://dc.lft.to/lastmile_qr_scan", "android": "https://dc.lft.to/lastmile_qr_scan"}, "fusion_lon": 0.0, "lon": -77.04626083333333, "name": "4473fe7a03aeda64e4f298848a1dcd6a", "is_reserved": 0, "is_disabled": 0}, {"lat": 38.8935455, "fusion_lat": 0.0, "type": "electric_scooter", "bike_id": "681d904ff24f269e421b14d25b116959", "rental_uris": {"ios": "https://dc.lft.to/lastmile_qr_scan", "android": "https://dc.lft.to/lastmile_qr_scan"}, "fusion_lon": 0.0, "lon": -77.00335716666666, "name": "681d904ff24f269e421b14d25b116959", "is_reserved": 0, "is_disabled": 0}, {"lat": 38.922315, "fusion_lat": 0.0, "type": "electric_scooter", "bike_id": "0e3e424126f08eb1772ef1a9c2ab76fa", "rental_uris": {"ios": "https://dc.lft.to/lastmile_qr_scan", "android": "https://dc.lft.to/lastmile_qr_scan"}, "fusion_lon": 0.0, "lon": -77.0527255, "name": "0e3e424126f08eb1772ef1a9c2ab76fa", "is_reserved": 0, "is_disabled": 0}, {"lat": 38.87548533333333, "fusion_lat": 0.0, "type": "electric_scooter", "bike_id": "65d3fadf514db2fc75e0e9fc53856b35", "rental_uris": {"ios": "https://dc.lft.to/lastmile_qr_scan", "android": "https://dc.lft.to/lastmile_qr_scan"}, "fusion_lon": 0.0, "lon": -77.00537933333334, "name": "65d3fadf514db2fc75e0e9fc53856b35", "is_reserved": 0, "is_disabled": 0}, {"lat": 38.9604905, "fusion_lat": 0.0, "type": "electric_bike", "bike_id": "26679f9fd8fcd14a6f7b9387d7442fb6", "rental_uris": {"ios": "https://dc.lft.to/lastmile_qr_scan", "android": "https://dc.lft.to/lastmile_qr_scan"}, "fusion_lon": 0.0, "lon": -76.9400455, "name": "26679f9fd8fcd14a6f7b9387d7442fb6", "is_reserved": 0, "is_disabled": 0}, {"lat": 38.894448, "fusion_lat": 0.0, "type": "electric_scooter", "bike_id": "f2e65f2c86865728b67da71d00f23c26", "rental_uris": {"ios": "https://dc.lft.to/lastmile_qr_scan", "android": "https://dc.lft.to/lastmile_qr_scan"}, "fusion_lon": 0.0, "lon": -77.01070883333334, "name": "f2e65f2c86865728b67da71d00f23c26", "is_reserved": 0, "is_disabled": 0}, {"lat": 38.943392833333334, "fusion_lat": 0.0, "type": "electric_scooter", "bike_id": "b474e6fc1457ef93c0c919850a81d12d", "rental_uris": {"ios": "https://dc.lft.to/lastmile_qr_scan", "android": "https://dc.lft.to/lastmile_qr_scan"}, "fusion_lon": 0.0, "lon": -76.98317983333334, "name": "b474e6fc1457ef93c0c919850a81d12d", "is_reserved": 0, "is_disabled": 0}, {"lat": 38.90973366666667, "fusion_lat": 0.0, "type": "electric_bike", "bike_id": "c53f0b8bf2d3abeb9f20a512bc955bba", "rental_uris": {"ios": "https://dc.lft.to/lastmile_qr_scan", "android": "https://dc.lft.to/lastmile_qr_scan"}, "fusion_lon": 0.0, "lon": -77.08822783333333, "name": "c53f0b8bf2d3abeb9f20a512bc955bba", "is_reserved": 0, "is_disabled": 0}, {"lat": 38.906552833333336, "fusion_lat": 0.0, "type": "electric_scooter", "bike_id": "e2e6063fba88b40fb041864311a69667", "rental_uris": {"ios": "https://dc.lft.to/lastmile_qr_scan", "android": "https://dc.lft.to/lastmile_qr_scan"}, "fusion_lon": 0.0, "lon": -77.0144205, "name": "e2e6063fba88b40fb041864311a69667", "is_reserved": 0, "is_disabled": 0}, {"lat": 38.9163075, "fusion_lat": 0.0, "type": "electric_scooter", "bike_id": "4982c39daf169a19fb68ffc03ccaa8ee", "rental_uris": {"ios": "https://dc.lft.to/lastmile_qr_scan", "android": "https://dc.lft.to/lastmile_qr_scan"}, "fusion_lon": 0.0, "lon": -77.03007383333333, "name": "4982c39daf169a19fb68ffc03ccaa8ee", "is_reserved": 0, "is_disabled": 0}, {"lat": 38.96609133333333, "fusion_lat": 0.0, "type": "electric_scooter", "bike_id": "14a092b3dba0d9f931c3a2148e7ab5ba", "rental_uris": {"ios": "https://dc.lft.to/lastmile_qr_scan", "android": "https://dc.lft.to/lastmile_qr_scan"}, "fusion_lon": 0.0, "lon": -77.0274545, "name": "14a092b3dba0d9f931c3a2148e7ab5ba", "is_reserved": 0, "is_disabled": 0}, {"lat": 38.923418, "fusion_lat": 0.0, "type": "electric_scooter", "bike_id": "17dbeb346254a6cd12df48b5cd81910a", "rental_uris": {"ios": "https://dc.lft.to/lastmile_qr_scan", "android": "https://dc.lft.to/lastmile_qr_scan"}, "fusion_lon": 0.0, "lon": -77.051801, "name": "17dbeb346254a6cd12df48b5cd81910a", "is_reserved": 0, "is_disabled": 0}, {"lat": 38.915614166666664, "fusion_lat": 0.0, "type": "electric_scooter", "bike_id": "2b4aefd5986f4be0955c5983ce2307f6", "rental_uris": {"ios": "https://dc.lft.to/lastmile_qr_scan", "android": "https://dc.lft.to/lastmile_qr_scan"}, "fusion_lon": 0.0, "lon": -77.03964433333333, "name": "2b4aefd5986f4be0955c5983ce2307f6", "is_reserved": 0, "is_disabled": 0}, {"lat": 38.86750833333333, "fusion_lat": 0.0, "type": "electric_bike", "bike_id": "2e7e4f93c15354d78942c9db191a374d", "rental_uris": {"ios": "https://dc.lft.to/lastmile_qr_scan", "android": "https://dc.lft.to/lastmile_qr_scan"}, "fusion_lon": 0.0, "lon": -76.94527483333333, "name": "2e7e4f93c15354d78942c9db191a374d", "is_reserved": 0, "is_disabled": 0}, {"lat": 38.886080666666665, "fusion_lat": 0.0, "type": "electric_bike", "bike_id": "1b841fe8dc5ab530c18a290cfe1914f4", "rental_uris": {"ios": "https://dc.lft.to/lastmile_qr_scan", "android": "https://dc.lft.to/lastmile_qr_scan"}, "fusion_lon": 0.0, "lon": -77.00083833333333, "name": "1b841fe8dc5ab530c18a290cfe1914f4", "is_reserved": 0, "is_disabled": 0}, {"lat": 38.923547, "fusion_lat": 0.0, "type": "electric_scooter", "bike_id": "0838e99371d5d46da8a1219b7ce52c71", "rental_uris": {"ios": "https://dc.lft.to/lastmile_qr_scan", "android": "https://dc.lft.to/lastmile_qr_scan"}, "fusion_lon": 0.0, "lon": -76.9995105, "name": "0838e99371d5d46da8a1219b7ce52c71", "is_reserved": 0, "is_disabled": 0}, {"lat": 38.9126145, "fusion_lat": 0.0, "type": "electric_scooter", "bike_id": "48e7c7903d6569723fab96c462880fca", "rental_uris": {"ios": "https://dc.lft.to/lastmile_qr_scan", "android": "https://dc.lft.to/lastmile_qr_scan"}, "fusion_lon": 0.0, "lon": -77.04310433333333, "name": "48e7c7903d6569723fab96c462880fca", "is_reserved": 0, "is_disabled": 0}, {"lat": 38.91924216666666, "fusion_lat": 0.0, "type": "electric_scooter", "bike_id": "a697e2d59d9538142b2ec4d3c5ec7e52", "rental_uris": {"ios": "https://dc.lft.to/lastmile_qr_scan", "android": "https://dc.lft.to/lastmile_qr_scan"}, "fusion_lon": 0.0, "lon": -77.025087, "name": "a697e2d59d9538142b2ec4d3c5ec7e52", "is_reserved": 0, "is_disabled": 0}, {"lat": 38.9244485, "fusion_lat": 0.0, "type": "electric_scooter", "bike_id": "9060b70ee2a1f7147e2438a8648333be", "rental_uris": {"ios": "https://dc.lft.to/lastmile_qr_scan", "android": "https://dc.lft.to/lastmile_qr_scan"}, "fusion_lon": 0.0, "lon": -77.02258733333333, "name": "9060b70ee2a1f7147e2438a8648333be", "is_reserved": 0, "is_disabled": 0}, {"lat": 38.93051616666666, "fusion_lat": 0.0, "type": "electric_scooter", "bike_id": "9edfeec3dffaffea3db43fb619b360bd", "rental_uris": {"ios": "https://dc.lft.to/lastmile_qr_scan", "android": "https://dc.lft.to/lastmile_qr_scan"}, "fusion_lon": 0.0, "lon": -77.058325, "name": "9edfeec3dffaffea3db43fb619b360bd", "is_reserved": 0, "is_disabled": 0}, {"lat": 38.9305905, "fusion_lat": 0.0, "type": "electric_scooter", "bike_id": "577944250e60cde1bbf934121df4534b", "rental_uris": {"ios": "https://dc.lft.to/lastmile_qr_scan", "android": "https://dc.lft.to/lastmile_qr_scan"}, "fusion_lon": 0.0, "lon": -77.05838183333333, "name": "577944250e60cde1bbf934121df4534b", "is_reserved": 0, "is_disabled": 0}, {"lat": 38.925754166666664, "fusion_lat": 0.0, "type": "electric_bike", "bike_id": "9a8eaf061ad1b453e6a5aeeb0bc153e7", "rental_uris": {"ios": "https://dc.lft.to/lastmile_qr_scan", "android": "https://dc.lft.to/lastmile_qr_scan"}, "fusion_lon": 0.0, "lon": -76.9861005, "name": "9a8eaf061ad1b453e6a5aeeb0bc153e7", "is_reserved": 0, "is_disabled": 0}, {"lat": 38.90125666666667, "fusion_lat": 0.0, "type": "electric_scooter", "bike_id": "b61199a197623c2f1c82c5713d660e1e", "rental_uris": {"ios": "https://dc.lft.to/lastmile_qr_scan", "android": "https://dc.lft.to/lastmile_qr_scan"}, "fusion_lon": 0.0, "lon": -77.01749783333334, "name": "b61199a197623c2f1c82c5713d660e1e", "is_reserved": 0, "is_disabled": 0}, {"lat": 38.8924405, "fusion_lat": 0.0, "type": "electric_scooter", "bike_id": "36d5565b3c51f2f8da4345beb31858d4", "rental_uris": {"ios": "https://dc.lft.to/lastmile_qr_scan", "android": "https://dc.lft.to/lastmile_qr_scan"}, "fusion_lon": 0.0, "lon": -77.0502625, "name": "36d5565b3c51f2f8da4345beb31858d4", "is_reserved": 0, "is_disabled": 0}, {"lat": 38.9509015, "fusion_lat": 0.0, "type": "electric_bike", "bike_id": "2bbe1a5ff9682c27468709f1b00a5f23", "rental_uris": {"ios": "https://dc.lft.to/lastmile_qr_scan", "android": "https://dc.lft.to/lastmile_qr_scan"}, "fusion_lon": 0.0, "lon": -76.99795533333334, "name": "2bbe1a5ff9682c27468709f1b00a5f23", "is_reserved": 0, "is_disabled": 0}, {"lat": 38.920623, "fusion_lat": 0.0, "type": "electric_scooter", "bike_id": "f4fa333df366bd5a46fc9f204ef3d7db", "rental_uris": {"ios": "https://dc.lft.to/lastmile_qr_scan", "android": "https://dc.lft.to/lastmile_qr_scan"}, "fusion_lon": 0.0, "lon": -77.04360266666667, "name": "f4fa333df366bd5a46fc9f204ef3d7db", "is_reserved": 0, "is_disabled": 0}, {"lat": 38.920006666666666, "fusion_lat": 0.0, "type": "electric_scooter", "bike_id": "b1a728f6183c7f7cd157be80768a7a9b", "rental_uris": {"ios": "https://dc.lft.to/lastmile_qr_scan", "android": "https://dc.lft.to/lastmile_qr_scan"}, "fusion_lon": 0.0, "lon": -77.04760733333333, "name": "b1a728f6183c7f7cd157be80768a7a9b", "is_reserved": 0, "is_disabled": 0}, {"lat": 38.90738316666667, "fusion_lat": 0.0, "type": "electric_scooter", "bike_id": "c54dc1b718175584f953245720286ca6", "rental_uris": {"ios": "https://dc.lft.to/lastmile_qr_scan", "android": "https://dc.lft.to/lastmile_qr_scan"}, "fusion_lon": 0.0, "lon": -77.044786, "name": "c54dc1b718175584f953245720286ca6", "is_reserved": 0, "is_disabled": 0}, {"lat": 38.941955, "fusion_lat": 0.0, "type": "electric_scooter", "bike_id": "e44ca6ff019855275af27ab5bdae0ffc", "rental_uris": {"ios": "https://dc.lft.to/lastmile_qr_scan", "android": "https://dc.lft.to/lastmile_qr_scan"}, "fusion_lon": 0.0, "lon": -77.02479816666667, "name": "e44ca6ff019855275af27ab5bdae0ffc", "is_reserved": 0, "is_disabled": 0}, {"lat": 38.917125666666664, "fusion_lat": 0.0, "type": "electric_scooter", "bike_id": "8a87a8424c85b9f322bc4a40e6f65aae", "rental_uris": {"ios": "https://dc.lft.to/lastmile_qr_scan", "android": "https://dc.lft.to/lastmile_qr_scan"}, "fusion_lon": 0.0, "lon": -77.0243575, "name": "8a87a8424c85b9f322bc4a40e6f65aae", "is_reserved": 0, "is_disabled": 0}, {"lat": 38.89050316666667, "fusion_lat": 0.0, "type": "electric_scooter", "bike_id": "1db02726c8f7685fbd761ff2c339c738", "rental_uris": {"ios": "https://dc.lft.to/lastmile_qr_scan", "android": "https://dc.lft.to/lastmile_qr_scan"}, "fusion_lon": 0.0, "lon": -76.93752833333333, "name": "1db02726c8f7685fbd761ff2c339c738", "is_reserved": 0, "is_disabled": 0}, {"lat": 38.990064833333335, "fusion_lat": 0.0, "type": "electric_bike", "bike_id": "f085cad380f109261aba3d4596631538", "rental_uris": {"ios": "https://dc.lft.to/lastmile_qr_scan", "android": "https://dc.lft.to/lastmile_qr_scan"}, "fusion_lon": 0.0, "lon": -77.00442166666667, "name": "f085cad380f109261aba3d4596631538", "is_reserved": 0, "is_disabled": 0}, {"lat": 38.863851833333335, "fusion_lat": 0.0, "type": "electric_scooter", "bike_id": "48641d6b50d6dea83706d8cb91119c03", "rental_uris": {"ios": "https://dc.lft.to/lastmile_qr_scan", "android": "https://dc.lft.to/lastmile_qr_scan"}, "fusion_lon": 0.0, "lon": -76.9912415, "name": "48641d6b50d6dea83706d8cb91119c03", "is_reserved": 0, "is_disabled": 0}, {"lat": 38.9396655, "fusion_lat": 0.0, "type": "electric_scooter", "bike_id": "d0551687a1be2bcd994667227049aef5", "rental_uris": {"ios": "https://dc.lft.to/lastmile_qr_scan", "android": "https://dc.lft.to/lastmile_qr_scan"}, "fusion_lon": 0.0, "lon": -77.03279416666666, "name": "d0551687a1be2bcd994667227049aef5", "is_reserved": 0, "is_disabled": 0}, {"lat": 38.92478, "fusion_lat": 0.0, "type": "electric_scooter", "bike_id": "47833ed276f2cc9dd137b3fce4cc1431", "rental_uris": {"ios": "https://dc.lft.to/lastmile_qr_scan", "android": "https://dc.lft.to/lastmile_qr_scan"}, "fusion_lon": 0.0, "lon": -77.039117, "name": "47833ed276f2cc9dd137b3fce4cc1431", "is_reserved": 0, "is_disabled": 0}, {"lat": 38.91403833333333, "fusion_lat": 0.0, "type": "electric_scooter", "bike_id": "cad4022a9da326b4dffa69021ac19cb3", "rental_uris": {"ios": "https://dc.lft.to/lastmile_qr_scan", "android": "https://dc.lft.to/lastmile_qr_scan"}, "fusion_lon": 0.0, "lon": -77.0321805, "name": "cad4022a9da326b4dffa69021ac19cb3", "is_reserved": 0, "is_disabled": 0}, {"lat": 38.87733716666666, "fusion_lat": 0.0, "type": "electric_scooter", "bike_id": "a58669054bf544e15605c59352a7f013", "rental_uris": {"ios": "https://dc.lft.to/lastmile_qr_scan", "android": "https://dc.lft.to/lastmile_qr_scan"}, "fusion_lon": 0.0, "lon": -76.99484416666667, "name": "a58669054bf544e15605c59352a7f013", "is_reserved": 0, "is_disabled": 0}, {"lat": 38.918579666666666, "fusion_lat": 0.0, "type": "electric_scooter", "bike_id": "a5f05985da36dc3c0712b428393508b9", "rental_uris": {"ios": "https://dc.lft.to/lastmile_qr_scan", "android": "https://dc.lft.to/lastmile_qr_scan"}, "fusion_lon": 0.0, "lon": -77.01350783333334, "name": "a5f05985da36dc3c0712b428393508b9", "is_reserved": 0, "is_disabled": 0}, {"lat": 38.90364666666667, "fusion_lat": 0.0, "type": "electric_scooter", "bike_id": "a56de0163fa22f3375e8d29893808666", "rental_uris": {"ios": "https://dc.lft.to/lastmile_qr_scan", "android": "https://dc.lft.to/lastmile_qr_scan"}, "fusion_lon": 0.0, "lon": -77.02188533333333, "name": "a56de0163fa22f3375e8d29893808666", "is_reserved": 0, "is_disabled": 0}, {"lat": 38.907746333333336, "fusion_lat": 0.0, "type": "electric_scooter", "bike_id": "d9422944c795be9d4968865842ba6373", "rental_uris": {"ios": "https://dc.lft.to/lastmile_qr_scan", "android": "https://dc.lft.to/lastmile_qr_scan"}, "fusion_lon": 0.0, "lon": -77.03857466666666, "name": "d9422944c795be9d4968865842ba6373", "is_reserved": 0, "is_disabled": 0}, {"lat": 38.92341733333333, "fusion_lat": 0.0, "type": "electric_scooter", "bike_id": "564a32ec66486d9529a60399f7199b06", "rental_uris": {"ios": "https://dc.lft.to/lastmile_qr_scan", "android": "https://dc.lft.to/lastmile_qr_scan"}, "fusion_lon": 0.0, "lon": -77.03536166666666, "name": "564a32ec66486d9529a60399f7199b06", "is_reserved": 0, "is_disabled": 0}, {"lat": 38.91806583333333, "fusion_lat": 0.0, "type": "electric_scooter", "bike_id": "a41c90cf26c3485951b79b6a994faa0c", "rental_uris": {"ios": "https://dc.lft.to/lastmile_qr_scan", "android": "https://dc.lft.to/lastmile_qr_scan"}, "fusion_lon": 0.0, "lon": -77.03436983333333, "name": "a41c90cf26c3485951b79b6a994faa0c", "is_reserved": 0, "is_disabled": 0}, {"lat": 38.807629, "fusion_lat": 0.0, "type": "electric_bike", "bike_id": "bb8718cc0fdc6dc1af4815c4d61ff0bc", "rental_uris": {"ios": "https://dc.lft.to/lastmile_qr_scan", "android": "https://dc.lft.to/lastmile_qr_scan"}, "fusion_lon": 0.0, "lon": -77.094705, "name": "bb8718cc0fdc6dc1af4815c4d61ff0bc", "is_reserved": 0, "is_disabled": 0}, {"lat": 38.9076785, "fusion_lat": 0.0, "type": "electric_scooter", "bike_id": "103f311c0738ca579374e7bd4f89ebf5", "rental_uris": {"ios": "https://dc.lft.to/lastmile_qr_scan", "android": "https://dc.lft.to/lastmile_qr_scan"}, "fusion_lon": 0.0, "lon": -77.03741766666667, "name": "103f311c0738ca579374e7bd4f89ebf5", "is_reserved": 0, "is_disabled": 0}, {"lat": 38.916762166666665, "fusion_lat": 0.0, "type": "electric_scooter", "bike_id": "e34e142ba8d2531024497713333d3282", "rental_uris": {"ios": "https://dc.lft.to/lastmile_qr_scan", "android": "https://dc.lft.to/lastmile_qr_scan"}, "fusion_lon": 0.0, "lon": -77.01570216666667, "name": "e34e142ba8d2531024497713333d3282", "is_reserved": 0, "is_disabled": 0}, {"lat": 38.9208285, "fusion_lat": 0.0, "type": "electric_scooter", "bike_id": "62c51d56ef07670821213d9fe329c4e2", "rental_uris": {"ios": "https://dc.lft.to/lastmile_qr_scan", "android": "https://dc.lft.to/lastmile_qr_scan"}, "fusion_lon": 0.0, "lon": -77.02508333333333, "name": "62c51d56ef07670821213d9fe329c4e2", "is_reserved": 0, "is_disabled": 0}, {"lat": 38.92616916666667, "fusion_lat": 0.0, "type": "electric_scooter", "bike_id": "48a6bac452d64fd6bbf95980aa7fbdf1", "rental_uris": {"ios": "https://dc.lft.to/lastmile_qr_scan", "android": "https://dc.lft.to/lastmile_qr_scan"}, "fusion_lon": 0.0, "lon": -77.04192916666666, "name": "48a6bac452d64fd6bbf95980aa7fbdf1", "is_reserved": 0, "is_disabled": 0}, {"lat": 38.91549933333334, "fusion_lat": 0.0, "type": "electric_scooter", "bike_id": "251089dc0660c7c4c338ae97152a69ed", "rental_uris": {"ios": "https://dc.lft.to/lastmile_qr_scan", "android": "https://dc.lft.to/lastmile_qr_scan"}, "fusion_lon": 0.0, "lon": -76.98361583333333, "name": "251089dc0660c7c4c338ae97152a69ed", "is_reserved": 0, "is_disabled": 0}, {"lat": 38.871472833333335, "fusion_lat": 0.0, "type": "electric_scooter", "bike_id": "6d013a4510f740d60da9e27aaabdc7d2", "rental_uris": {"ios": "https://dc.lft.to/lastmile_qr_scan", "android": "https://dc.lft.to/lastmile_qr_scan"}, "fusion_lon": 0.0, "lon": -77.00685483333334, "name": "6d013a4510f740d60da9e27aaabdc7d2", "is_reserved": 0, "is_disabled": 0}, {"lat": 38.9243145, "fusion_lat": 0.0, "type": "electric_scooter", "bike_id": "df9fee110afde143070b36e75dd7d6be", "rental_uris": {"ios": "https://dc.lft.to/lastmile_qr_scan", "android": "https://dc.lft.to/lastmile_qr_scan"}, "fusion_lon": 0.0, "lon": -77.04247366666667, "name": "df9fee110afde143070b36e75dd7d6be", "is_reserved": 0, "is_disabled": 0}, {"lat": 38.920679666666665, "fusion_lat": 0.0, "type": "electric_scooter", "bike_id": "836f2a373b7e8b06474d5f7c31750f86", "rental_uris": {"ios": "https://dc.lft.to/lastmile_qr_scan", "android": "https://dc.lft.to/lastmile_qr_scan"}, "fusion_lon": 0.0, "lon": -77.02441166666667, "name": "836f2a373b7e8b06474d5f7c31750f86", "is_reserved": 0, "is_disabled": 0}, {"lat": 38.92015583333333, "fusion_lat": 0.0, "type": "electric_scooter", "bike_id": "4181654a4fd6fbd548b3d0a75e38a658", "rental_uris": {"ios": "https://dc.lft.to/lastmile_qr_scan", "android": "https://dc.lft.to/lastmile_qr_scan"}, "fusion_lon": 0.0, "lon": -77.044018, "name": "4181654a4fd6fbd548b3d0a75e38a658", "is_reserved": 0, "is_disabled": 0}, {"lat": 38.812513333333335, "fusion_lat": 0.0, "type": "electric_bike", "bike_id": "6733d1ee2d764fa182b40f68b66298cb", "rental_uris": {"ios": "https://dc.lft.to/lastmile_qr_scan", "android": "https://dc.lft.to/lastmile_qr_scan"}, "fusion_lon": 0.0, "lon": -77.11762916666666, "name": "6733d1ee2d764fa182b40f68b66298cb", "is_reserved": 0, "is_disabled": 0}, {"lat": 38.86372266666667, "fusion_lat": 0.0, "type": "electric_bike", "bike_id": "110757ba51f87ace197da48695e3cfa1", "rental_uris": {"ios": "https://dc.lft.to/lastmile_qr_scan", "android": "https://dc.lft.to/lastmile_qr_scan"}, "fusion_lon": 0.0, "lon": -76.97007033333334, "name": "110757ba51f87ace197da48695e3cfa1", "is_reserved": 0, "is_disabled": 0}, {"lat": 38.917337833333335, "fusion_lat": 0.0, "type": "electric_scooter", "bike_id": "0992771db92a619a569aab28c72909be", "rental_uris": {"ios": "https://dc.lft.to/lastmile_qr_scan", "android": "https://dc.lft.to/lastmile_qr_scan"}, "fusion_lon": 0.0, "lon": -77.02704383333334, "name": "0992771db92a619a569aab28c72909be", "is_reserved": 0, "is_disabled": 0}, {"lat": 38.89844883333333, "fusion_lat": 0.0, "type": "electric_scooter", "bike_id": "042d18d5b43c413bf483957eede973bb", "rental_uris": {"ios": "https://dc.lft.to/lastmile_qr_scan", "android": "https://dc.lft.to/lastmile_qr_scan"}, "fusion_lon": 0.0, "lon": -77.04012033333333, "name": "042d18d5b43c413bf483957eede973bb", "is_reserved": 0, "is_disabled": 0}, {"lat": 38.898786666666666, "fusion_lat": 0.0, "type": "electric_scooter", "bike_id": "8513af0b0c31e623e30882901cc3e12d", "rental_uris": {"ios": "https://dc.lft.to/lastmile_qr_scan", "android": "https://dc.lft.to/lastmile_qr_scan"}, "fusion_lon": 0.0, "lon": -76.9318785, "name": "8513af0b0c31e623e30882901cc3e12d", "is_reserved": 0, "is_disabled": 0}, {"lat": 38.914871833333336, "fusion_lat": 0.0, "type": "electric_scooter", "bike_id": "1ccbe1d2ff19ed92f87c01237fded146", "rental_uris": {"ios": "https://dc.lft.to/lastmile_qr_scan", "android": "https://dc.lft.to/lastmile_qr_scan"}, "fusion_lon": 0.0, "lon": -77.032311, "name": "1ccbe1d2ff19ed92f87c01237fded146", "is_reserved": 0, "is_disabled": 0}, {"lat": 38.92502233333333, "fusion_lat": 0.0, "type": "electric_scooter", "bike_id": "68e3ef9d7884856a5dc8461a516eba4c", "rental_uris": {"ios": "https://dc.lft.to/lastmile_qr_scan", "android": "https://dc.lft.to/lastmile_qr_scan"}, "fusion_lon": 0.0, "lon": -77.02149433333334, "name": "68e3ef9d7884856a5dc8461a516eba4c", "is_reserved": 0, "is_disabled": 0}, {"lat": 38.8738835, "fusion_lat": 0.0, "type": "electric_scooter", "bike_id": "9b74f9b43a70b326ddbd54f42a1c6d12", "rental_uris": {"ios": "https://dc.lft.to/lastmile_qr_scan", "android": "https://dc.lft.to/lastmile_qr_scan"}, "fusion_lon": 0.0, "lon": -77.00188616666667, "name": "9b74f9b43a70b326ddbd54f42a1c6d12", "is_reserved": 0, "is_disabled": 0}, {"lat": 38.9341625, "fusion_lat": 0.0, "type": "electric_bike", "bike_id": "50c19e2bc207b52adda75ae0621fd787", "rental_uris": {"ios": "https://dc.lft.to/lastmile_qr_scan", "android": "https://dc.lft.to/lastmile_qr_scan"}, "fusion_lon": 0.0, "lon": -77.043131, "name": "50c19e2bc207b52adda75ae0621fd787", "is_reserved": 0, "is_disabled": 0}, {"lat": 38.9170425, "fusion_lat": 0.0, "type": "electric_scooter", "bike_id": "84c92a3b634e4e5000c8b56e102c8dfd", "rental_uris": {"ios": "https://dc.lft.to/lastmile_qr_scan", "android": "https://dc.lft.to/lastmile_qr_scan"}, "fusion_lon": 0.0, "lon": -77.03052083333333, "name": "84c92a3b634e4e5000c8b56e102c8dfd", "is_reserved": 0, "is_disabled": 0}, {"lat": 38.90365516666667, "fusion_lat": 0.0, "type": "electric_scooter", "bike_id": "227997f2f13ba947a3a4d8fa5af70e51", "rental_uris": {"ios": "https://dc.lft.to/lastmile_qr_scan", "android": "https://dc.lft.to/lastmile_qr_scan"}, "fusion_lon": 0.0, "lon": -77.02204933333333, "name": "227997f2f13ba947a3a4d8fa5af70e51", "is_reserved": 0, "is_disabled": 0}, {"lat": 38.857262, "fusion_lat": 0.0, "type": "electric_bike", "bike_id": "59c94041e174c4f2a7f55960b35caafc", "rental_uris": {"ios": "https://dc.lft.to/lastmile_qr_scan", "android": "https://dc.lft.to/lastmile_qr_scan"}, "fusion_lon": 0.0, "lon": -76.977746, "name": "59c94041e174c4f2a7f55960b35caafc", "is_reserved": 0, "is_disabled": 0}, {"lat": 38.949668333333335, "fusion_lat": 0.0, "type": "electric_scooter", "bike_id": "8cd0a0ff099a0ac7423ac7bb34d5cead", "rental_uris": {"ios": "https://dc.lft.to/lastmile_qr_scan", "android": "https://dc.lft.to/lastmile_qr_scan"}, "fusion_lon": 0.0, "lon": -77.06664866666667, "name": "8cd0a0ff099a0ac7423ac7bb34d5cead", "is_reserved": 0, "is_disabled": 0}, {"lat": 38.927686, "fusion_lat": 0.0, "type": "electric_scooter", "bike_id": "a7adab1954b8d721f347d19f47f608fa", "rental_uris": {"ios": "https://dc.lft.to/lastmile_qr_scan", "android": "https://dc.lft.to/lastmile_qr_scan"}, "fusion_lon": 0.0, "lon": -76.973446, "name": "a7adab1954b8d721f347d19f47f608fa", "is_reserved": 0, "is_disabled": 0}, {"lat": 38.89220983333333, "fusion_lat": 0.0, "type": "electric_scooter", "bike_id": "e83237a7b88a070d5eda46eb7c57f9e6", "rental_uris": {"ios": "https://dc.lft.to/lastmile_qr_scan", "android": "https://dc.lft.to/lastmile_qr_scan"}, "fusion_lon": 0.0, "lon": -77.04371366666666, "name": "e83237a7b88a070d5eda46eb7c57f9e6", "is_reserved": 0, "is_disabled": 0}, {"lat": 38.87250783333333, "fusion_lat": 0.0, "type": "electric_bike", "bike_id": "1ae68153a3d2de6a9b081d8459310c22", "rental_uris": {"ios": "https://dc.lft.to/lastmile_qr_scan", "android": "https://dc.lft.to/lastmile_qr_scan"}, "fusion_lon": 0.0, "lon": -77.00888716666667, "name": "1ae68153a3d2de6a9b081d8459310c22", "is_reserved": 0, "is_disabled": 0}, {"lat": 38.9057845, "fusion_lat": 0.0, "type": "electric_scooter", "bike_id": "f772b26a2513ee500c519ea48ee3c2c3", "rental_uris": {"ios": "https://dc.lft.to/lastmile_qr_scan", "android": "https://dc.lft.to/lastmile_qr_scan"}, "fusion_lon": 0.0, "lon": -77.02205716666667, "name": "f772b26a2513ee500c519ea48ee3c2c3", "is_reserved": 0, "is_disabled": 0}, {"lat": 38.92444866666666, "fusion_lat": 0.0, "type": "electric_scooter", "bike_id": "5fcc8d8d816174b2e12a3ecb6f584609", "rental_uris": {"ios": "https://dc.lft.to/lastmile_qr_scan", "android": "https://dc.lft.to/lastmile_qr_scan"}, "fusion_lon": 0.0, "lon": -77.03335166666666, "name": "5fcc8d8d816174b2e12a3ecb6f584609", "is_reserved": 0, "is_disabled": 0}, {"lat": 38.902215, "fusion_lat": 0.0, "type": "electric_scooter", "bike_id": "b74763f7f9aada3c9026a0c21603345d", "rental_uris": {"ios": "https://dc.lft.to/lastmile_qr_scan", "android": "https://dc.lft.to/lastmile_qr_scan"}, "fusion_lon": 0.0, "lon": -77.05138783333334, "name": "b74763f7f9aada3c9026a0c21603345d", "is_reserved": 0, "is_disabled": 0}, {"lat": 38.906684, "fusion_lat": 0.0, "type": "electric_scooter", "bike_id": "5b4288181cefc332d074f27053577fb8", "rental_uris": {"ios": "https://dc.lft.to/lastmile_qr_scan", "android": "https://dc.lft.to/lastmile_qr_scan"}, "fusion_lon": 0.0, "lon": -77.02712683333333, "name": "5b4288181cefc332d074f27053577fb8", "is_reserved": 0, "is_disabled": 0}, {"lat": 38.92496833333333, "fusion_lat": 0.0, "type": "electric_bike", "bike_id": "837fd28939ddaa80cc8627d87074d61a", "rental_uris": {"ios": "https://dc.lft.to/lastmile_qr_scan", "android": "https://dc.lft.to/lastmile_qr_scan"}, "fusion_lon": 0.0, "lon": -77.23331216666666, "name": "837fd28939ddaa80cc8627d87074d61a", "is_reserved": 0, "is_disabled": 0}, {"lat": 38.96841116666667, "fusion_lat": 0.0, "type": "electric_bike", "bike_id": "d062078632db969244dda7bd2dde7f07", "rental_uris": {"ios": "https://dc.lft.to/lastmile_qr_scan", "android": "https://dc.lft.to/lastmile_qr_scan"}, "fusion_lon": 0.0, "lon": -77.0059895, "name": "d062078632db969244dda7bd2dde7f07", "is_reserved": 0, "is_disabled": 0}, {"lat": 38.887455333333335, "fusion_lat": 0.0, "type": "electric_scooter", "bike_id": "c18cf8279aa1775a3b1e6bfd4512a670", "rental_uris": {"ios": "https://dc.lft.to/lastmile_qr_scan", "android": "https://dc.lft.to/lastmile_qr_scan"}, "fusion_lon": 0.0, "lon": -76.93266316666667, "name": "c18cf8279aa1775a3b1e6bfd4512a670", "is_reserved": 0, "is_disabled": 0}, {"lat": 38.927308, "fusion_lat": 0.0, "type": "electric_scooter", "bike_id": "4745c5ebe7925ed69fe4393fbe78b9ea", "rental_uris": {"ios": "https://dc.lft.to/lastmile_qr_scan", "android": "https://dc.lft.to/lastmile_qr_scan"}, "fusion_lon": 0.0, "lon": -77.0278415, "name": "4745c5ebe7925ed69fe4393fbe78b9ea", "is_reserved": 0, "is_disabled": 0}, {"lat": 38.890437666666664, "fusion_lat": 0.0, "type": "electric_scooter", "bike_id": "a52563840be0e0233ee43e4aeebabcfc", "rental_uris": {"ios": "https://dc.lft.to/lastmile_qr_scan", "android": "https://dc.lft.to/lastmile_qr_scan"}, "fusion_lon": 0.0, "lon": -76.93755783333333, "name": "a52563840be0e0233ee43e4aeebabcfc", "is_reserved": 0, "is_disabled": 0}, {"lat": 38.928773666666665, "fusion_lat": 0.0, "type": "electric_scooter", "bike_id": "e9f7f7d8c1bcb7802eca2bcc5471fb7e", "rental_uris": {"ios": "https://dc.lft.to/lastmile_qr_scan", "android": "https://dc.lft.to/lastmile_qr_scan"}, "fusion_lon": 0.0, "lon": -77.03486, "name": "e9f7f7d8c1bcb7802eca2bcc5471fb7e", "is_reserved": 0, "is_disabled": 0}, {"lat": 38.922867, "fusion_lat": 0.0, "type": "electric_scooter", "bike_id": "e856095390024be21b78364185aa397e", "rental_uris": {"ios": "https://dc.lft.to/lastmile_qr_scan", "android": "https://dc.lft.to/lastmile_qr_scan"}, "fusion_lon": 0.0, "lon": -77.02962866666667, "name": "e856095390024be21b78364185aa397e", "is_reserved": 0, "is_disabled": 0}, {"lat": 38.92465216666667, "fusion_lat": 0.0, "type": "electric_scooter", "bike_id": "2ed67de5f3b8b41d2998e76352a947aa", "rental_uris": {"ios": "https://dc.lft.to/lastmile_qr_scan", "android": "https://dc.lft.to/lastmile_qr_scan"}, "fusion_lon": 0.0, "lon": -77.0391305, "name": "2ed67de5f3b8b41d2998e76352a947aa", "is_reserved": 0, "is_disabled": 0}, {"lat": 38.892235666666664, "fusion_lat": 0.0, "type": "electric_scooter", "bike_id": "6958d14378a38b6dc57d2e1043cf2478", "rental_uris": {"ios": "https://dc.lft.to/lastmile_qr_scan", "android": "https://dc.lft.to/lastmile_qr_scan"}, "fusion_lon": 0.0, "lon": -77.0433595, "name": "6958d14378a38b6dc57d2e1043cf2478", "is_reserved": 0, "is_disabled": 0}, {"lat": 38.946252666666666, "fusion_lat": 0.0, "type": "electric_scooter", "bike_id": "2c0a73032c96af3efe52a4640c021687", "rental_uris": {"ios": "https://dc.lft.to/lastmile_qr_scan", "android": "https://dc.lft.to/lastmile_qr_scan"}, "fusion_lon": 0.0, "lon": -77.03948366666667, "name": "2c0a73032c96af3efe52a4640c021687", "is_reserved": 0, "is_disabled": 0}, {"lat": 38.9168825, "fusion_lat": 0.0, "type": "electric_scooter", "bike_id": "32a84830209b77ec7862afee0bd2c01f", "rental_uris": {"ios": "https://dc.lft.to/lastmile_qr_scan", "android": "https://dc.lft.to/lastmile_qr_scan"}, "fusion_lon": 0.0, "lon": -77.02402, "name": "32a84830209b77ec7862afee0bd2c01f", "is_reserved": 0, "is_disabled": 0}, {"lat": 38.922857, "fusion_lat": 0.0, "type": "electric_scooter", "bike_id": "c9bf1f80c8ab53202a213376b1063700", "rental_uris": {"ios": "https://dc.lft.to/lastmile_qr_scan", "android": "https://dc.lft.to/lastmile_qr_scan"}, "fusion_lon": 0.0, "lon": -77.0365785, "name": "c9bf1f80c8ab53202a213376b1063700", "is_reserved": 0, "is_disabled": 0}, {"lat": 38.90854983333333, "fusion_lat": 0.0, "type": "electric_scooter", "bike_id": "ad14a985fb8e4aef61d8beac9673107c", "rental_uris": {"ios": "https://dc.lft.to/lastmile_qr_scan", "android": "https://dc.lft.to/lastmile_qr_scan"}, "fusion_lon": 0.0, "lon": -77.026927, "name": "ad14a985fb8e4aef61d8beac9673107c", "is_reserved": 0, "is_disabled": 0}, {"lat": 38.83974966666667, "fusion_lat": 0.0, "type": "electric_scooter", "bike_id": "3ba586ebf1ab39e3115e5b6dff00f79d", "rental_uris": {"ios": "https://dc.lft.to/lastmile_qr_scan", "android": "https://dc.lft.to/lastmile_qr_scan"}, "fusion_lon": 0.0, "lon": -76.998427, "name": "3ba586ebf1ab39e3115e5b6dff00f79d", "is_reserved": 0, "is_disabled": 0}, {"lat": 38.908081333333335, "fusion_lat": 0.0, "type": "electric_scooter", "bike_id": "3c5cde27b8886062b5459abede068809", "rental_uris": {"ios": "https://dc.lft.to/lastmile_qr_scan", "android": "https://dc.lft.to/lastmile_qr_scan"}, "fusion_lon": 0.0, "lon": -77.04484833333333, "name": "3c5cde27b8886062b5459abede068809", "is_reserved": 0, "is_disabled": 0}, {"lat": 38.91116533333334, "fusion_lat": 0.0, "type": "electric_scooter", "bike_id": "18bc4d80eca8764fa2b922f12bacc3b4", "rental_uris": {"ios": "https://dc.lft.to/lastmile_qr_scan", "android": "https://dc.lft.to/lastmile_qr_scan"}, "fusion_lon": 0.0, "lon": -77.04541083333334, "name": "18bc4d80eca8764fa2b922f12bacc3b4", "is_reserved": 0, "is_disabled": 0}, {"lat": 38.9313945, "fusion_lat": 0.0, "type": "electric_bike", "bike_id": "781036ae1fdc3504a451dbe3c0b8664c", "rental_uris": {"ios": "https://dc.lft.to/lastmile_qr_scan", "android": "https://dc.lft.to/lastmile_qr_scan"}, "fusion_lon": 0.0, "lon": -77.01969, "name": "781036ae1fdc3504a451dbe3c0b8664c", "is_reserved": 0, "is_disabled": 0}, {"lat": 38.900227, "fusion_lat": 0.0, "type": "electric_scooter", "bike_id": "4a33bed878d2a0c0140d57be6cfc668c", "rental_uris": {"ios": "https://dc.lft.to/lastmile_qr_scan", "android": "https://dc.lft.to/lastmile_qr_scan"}, "fusion_lon": 0.0, "lon": -77.011208, "name": "4a33bed878d2a0c0140d57be6cfc668c", "is_reserved": 0, "is_disabled": 0}, {"lat": 38.90506666666667, "fusion_lat": 0.0, "type": "electric_scooter", "bike_id": "4a8680e02548c17f6546cbc38bc1c153", "rental_uris": {"ios": "https://dc.lft.to/lastmile_qr_scan", "android": "https://dc.lft.to/lastmile_qr_scan"}, "fusion_lon": 0.0, "lon": -77.03002366666666, "name": "4a8680e02548c17f6546cbc38bc1c153", "is_reserved": 0, "is_disabled": 0}, {"lat": 38.88594333333333, "fusion_lat": 0.0, "type": "electric_scooter", "bike_id": "89959f1f0e1b7062e2559ea9c2f39795", "rental_uris": {"ios": "https://dc.lft.to/lastmile_qr_scan", "android": "https://dc.lft.to/lastmile_qr_scan"}, "fusion_lon": 0.0, "lon": -77.0219835, "name": "89959f1f0e1b7062e2559ea9c2f39795", "is_reserved": 0, "is_disabled": 0}, {"lat": 38.8755795, "fusion_lat": 0.0, "type": "electric_scooter", "bike_id": "7963f12d16892a4cba9464073326e0cb", "rental_uris": {"ios": "https://dc.lft.to/lastmile_qr_scan", "android": "https://dc.lft.to/lastmile_qr_scan"}, "fusion_lon": 0.0, "lon": -77.00556816666666, "name": "7963f12d16892a4cba9464073326e0cb", "is_reserved": 0, "is_disabled": 0}, {"lat": 38.934714166666666, "fusion_lat": 0.0, "type": "electric_scooter", "bike_id": "dc1d29622aa3bbb3a9290dd51b8d5e46", "rental_uris": {"ios": "https://dc.lft.to/lastmile_qr_scan", "android": "https://dc.lft.to/lastmile_qr_scan"}, "fusion_lon": 0.0, "lon": -77.072741, "name": "dc1d29622aa3bbb3a9290dd51b8d5e46", "is_reserved": 0, "is_disabled": 0}, {"lat": 38.9041305, "fusion_lat": 0.0, "type": "electric_scooter", "bike_id": "d8657a030dcee962ef81b8aca1fbfc2c", "rental_uris": {"ios": "https://dc.lft.to/lastmile_qr_scan", "android": "https://dc.lft.to/lastmile_qr_scan"}, "fusion_lon": 0.0, "lon": -76.97333366666666, "name": "d8657a030dcee962ef81b8aca1fbfc2c", "is_reserved": 0, "is_disabled": 0}, {"lat": 38.93490033333333, "fusion_lat": 0.0, "type": "electric_scooter", "bike_id": "e49becbf3b2881d417b0d2bd66bfadc5", "rental_uris": {"ios": "https://dc.lft.to/lastmile_qr_scan", "android": "https://dc.lft.to/lastmile_qr_scan"}, "fusion_lon": 0.0, "lon": -77.0360275, "name": "e49becbf3b2881d417b0d2bd66bfadc5", "is_reserved": 0, "is_disabled": 0}, {"lat": 38.9079425, "fusion_lat": 0.0, "type": "electric_scooter", "bike_id": "40ce12c429c5f39314383cd5569d0905", "rental_uris": {"ios": "https://dc.lft.to/lastmile_qr_scan", "android": "https://dc.lft.to/lastmile_qr_scan"}, "fusion_lon": 0.0, "lon": -77.04325516666667, "name": "40ce12c429c5f39314383cd5569d0905", "is_reserved": 0, "is_disabled": 0}, {"lat": 38.897497333333334, "fusion_lat": 0.0, "type": "electric_scooter", "bike_id": "609729ab3da26a29dbb64ad0a5632746", "rental_uris": {"ios": "https://dc.lft.to/lastmile_qr_scan", "android": "https://dc.lft.to/lastmile_qr_scan"}, "fusion_lon": 0.0, "lon": -77.033473, "name": "609729ab3da26a29dbb64ad0a5632746", "is_reserved": 0, "is_disabled": 0}, {"lat": 38.91685733333333, "fusion_lat": 0.0, "type": "electric_scooter", "bike_id": "ef089006ea10ec36df4c6b124bc575c0", "rental_uris": {"ios": "https://dc.lft.to/lastmile_qr_scan", "android": "https://dc.lft.to/lastmile_qr_scan"}, "fusion_lon": 0.0, "lon": -76.98031216666666, "name": "ef089006ea10ec36df4c6b124bc575c0", "is_reserved": 0, "is_disabled": 0}, {"lat": 38.9125985, "fusion_lat": 0.0, "type": "electric_scooter", "bike_id": "929a020b96815c58901b3a7c4857a4a8", "rental_uris": {"ios": "https://dc.lft.to/lastmile_qr_scan", "android": "https://dc.lft.to/lastmile_qr_scan"}, "fusion_lon": 0.0, "lon": -77.0446445, "name": "929a020b96815c58901b3a7c4857a4a8", "is_reserved": 0, "is_disabled": 0}, {"lat": 38.905631166666666, "fusion_lat": 0.0, "type": "electric_scooter", "bike_id": "cccaa3bafdcfb1c61d38cbe733d090b7", "rental_uris": {"ios": "https://dc.lft.to/lastmile_qr_scan", "android": "https://dc.lft.to/lastmile_qr_scan"}, "fusion_lon": 0.0, "lon": -77.04691816666667, "name": "cccaa3bafdcfb1c61d38cbe733d090b7", "is_reserved": 0, "is_disabled": 0}, {"lat": 38.84861683333333, "fusion_lat": 0.0, "type": "electric_bike", "bike_id": "a86b222fea5f8b5cb55cabe484425ab1", "rental_uris": {"ios": "https://dc.lft.to/lastmile_qr_scan", "android": "https://dc.lft.to/lastmile_qr_scan"}, "fusion_lon": 0.0, "lon": -77.099054, "name": "a86b222fea5f8b5cb55cabe484425ab1", "is_reserved": 0, "is_disabled": 0}, {"lat": 38.79988016666667, "fusion_lat": 0.0, "type": "electric_bike", "bike_id": "b8e1d35689a359a76297564080c2f053", "rental_uris": {"ios": "https://dc.lft.to/lastmile_qr_scan", "android": "https://dc.lft.to/lastmile_qr_scan"}, "fusion_lon": 0.0, "lon": -77.1297915, "name": "b8e1d35689a359a76297564080c2f053", "is_reserved": 0, "is_disabled": 0}, {"lat": 38.931626666666666, "fusion_lat": 0.0, "type": "electric_scooter", "bike_id": "13ec5ccc58088b9f5cc3d936b06fc0c9", "rental_uris": {"ios": "https://dc.lft.to/lastmile_qr_scan", "android": "https://dc.lft.to/lastmile_qr_scan"}, "fusion_lon": 0.0, "lon": -77.03497283333333, "name": "13ec5ccc58088b9f5cc3d936b06fc0c9", "is_reserved": 0, "is_disabled": 0}, {"lat": 38.9108085, "fusion_lat": 0.0, "type": "electric_scooter", "bike_id": "6e2dcee2eccf8f422da381133c9bdc7e", "rental_uris": {"ios": "https://dc.lft.to/lastmile_qr_scan", "android": "https://dc.lft.to/lastmile_qr_scan"}, "fusion_lon": 0.0, "lon": -77.038373, "name": "6e2dcee2eccf8f422da381133c9bdc7e", "is_reserved": 0, "is_disabled": 0}, {"lat": 38.942031166666666, "fusion_lat": 0.0, "type": "electric_scooter", "bike_id": "ed1a93fb0bfb1f07145063d6bc1db557", "rental_uris": {"ios": "https://dc.lft.to/lastmile_qr_scan", "android": "https://dc.lft.to/lastmile_qr_scan"}, "fusion_lon": 0.0, "lon": -77.02591316666667, "name": "ed1a93fb0bfb1f07145063d6bc1db557", "is_reserved": 0, "is_disabled": 0}, {"lat": 38.929910166666666, "fusion_lat": 0.0, "type": "electric_scooter", "bike_id": "dcad77d333261026757e606b8fe0eb74", "rental_uris": {"ios": "https://dc.lft.to/lastmile_qr_scan", "android": "https://dc.lft.to/lastmile_qr_scan"}, "fusion_lon": 0.0, "lon": -77.079472, "name": "dcad77d333261026757e606b8fe0eb74", "is_reserved": 0, "is_disabled": 0}, {"lat": 38.8633235, "fusion_lat": 0.0, "type": "electric_bike", "bike_id": "0d66481806bb523f8d681b7bd7f3e738", "rental_uris": {"ios": "https://dc.lft.to/lastmile_qr_scan", "android": "https://dc.lft.to/lastmile_qr_scan"}, "fusion_lon": 0.0, "lon": -76.98725983333334, "name": "0d66481806bb523f8d681b7bd7f3e738", "is_reserved": 0, "is_disabled": 0}, {"lat": 38.88661283333333, "fusion_lat": 0.0, "type": "electric_scooter", "bike_id": "3ae1ace3602ae7cd2e24ae0de46cda74", "rental_uris": {"ios": "https://dc.lft.to/lastmile_qr_scan", "android": "https://dc.lft.to/lastmile_qr_scan"}, "fusion_lon": 0.0, "lon": -77.0197385, "name": "3ae1ace3602ae7cd2e24ae0de46cda74", "is_reserved": 0, "is_disabled": 0}, {"lat": 38.92424, "fusion_lat": 0.0, "type": "electric_scooter", "bike_id": "7398dec809d64bd79ff45c03fd4ac9c4", "rental_uris": {"ios": "https://dc.lft.to/lastmile_qr_scan", "android": "https://dc.lft.to/lastmile_qr_scan"}, "fusion_lon": 0.0, "lon": -77.0576195, "name": "7398dec809d64bd79ff45c03fd4ac9c4", "is_reserved": 0, "is_disabled": 0}, {"lat": 38.93415616666667, "fusion_lat": 0.0, "type": "electric_scooter", "bike_id": "04d9638e0dcc21bfb4aa5aded905872a", "rental_uris": {"ios": "https://dc.lft.to/lastmile_qr_scan", "android": "https://dc.lft.to/lastmile_qr_scan"}, "fusion_lon": 0.0, "lon": -77.04161033333334, "name": "04d9638e0dcc21bfb4aa5aded905872a", "is_reserved": 0, "is_disabled": 0},