{"data": {"bikes": [{"rental_uris": {"ios": "https://dc.lft.to/lastmile_qr_scan", "android": "https://dc.lft.to/lastmile_qr_scan"}, "type": "electric_scooter", "name": "b9b8e1164246cb43f12a76f2867b0ec9", "is_reserved": 0, "lon": -77.06399883333333, "is_disabled": 0, "fusion_lat": 0.0, "lat": 38.90854683333333, "bike_id": "b9b8e1164246cb43f12a76f2867b0ec9", "fusion_lon": 0.0}, {"rental_uris": {"ios": "https://dc.lft.to/lastmile_qr_scan", "android": "https://dc.lft.to/lastmile_qr_scan"}, "type": "electric_scooter", "name": "84e5f52fea301b0de8128d1402730659", "is_reserved": 0, "lon": -77.01885166666666, "is_disabled": 0, "fusion_lat": 0.0, "lat": 38.874685166666666, "bike_id": "84e5f52fea301b0de8128d1402730659", "fusion_lon": 0.0}, {"rental_uris": {"ios": "https://dc.lft.to/lastmile_qr_scan", "android": "https://dc.lft.to/lastmile_qr_scan"}, "type": "electric_scooter", "name": "27cad53f142e09b6eb1a9df44d4c9cde", "is_reserved": 0, "lon": -77.040018, "is_disabled": 0, "fusion_lat": 0.0, "lat": 38.93424983333333, "bike_id": "27cad53f142e09b6eb1a9df44d4c9cde", "fusion_lon": 0.0}, {"rental_uris": {"ios": "https://dc.lft.to/lastmile_qr_scan", "android": "https://dc.lft.to/lastmile_qr_scan"}, "type": "electric_bike", "name": "5510aeb5abf2f3988dce61b164eb00e7", "is_reserved": 0, "lon": -77.12887883333333, "is_disabled": 0, "fusion_lat": 0.0, "lat": 38.90602366666667, "bike_id": "5510aeb5abf2f3988dce61b164eb00e7", "fusion_lon": 0.0}, {"rental_uris": {"ios": "https://dc.lft.to/lastmile_qr_scan", "android": "https://dc.lft.to/lastmile_qr_scan"}, "type": "electric_scooter", "name": "6d688a8b3c20e4117949397d8bb22fd4", "is_reserved": 0, "lon": -77.00929483333333, "is_disabled": 0, "fusion_lat": 0.0, "lat": 38.89776966666667, "bike_id": "6d688a8b3c20e4117949397d8bb22fd4", "fusion_lon": 0.0}, {"rental_uris": {"ios": "https://dc.lft.to/lastmile_qr_scan", "android": "https://dc.lft.to/lastmile_qr_scan"}, "type": "electric_scooter", "name": "74af4380cb8891022fe407851511589a", "is_reserved": 0, "lon": -77.02373983333334, "is_disabled": 0, "fusion_lat": 0.0, "lat": 38.903337666666665, "bike_id": "74af4380cb8891022fe407851511589a", "fusion_lon": 0.0}, {"rental_uris": {"ios": "https://dc.lft.to/lastmile_qr_scan", "android": "https://dc.lft.to/lastmile_qr_scan"}, "type": "electric_scooter", "name": "e22b112f447a4c07070a45dfa2960ee8", "is_reserved": 0, "lon": -77.03558716666667, "is_disabled": 0, "fusion_lat": 0.0, "lat": 38.927347, "bike_id": "e22b112f447a4c07070a45dfa2960ee8", "fusion_lon": 0.0}, {"rental_uris": {"ios": "https://dc.lft.to/lastmile_qr_scan", "android": "https://dc.lft.to/lastmile_qr_scan"}, "type": "electric_scooter", "name": "1215b149e8862e96ed818f7fbc23f0be", "is_reserved": 0, "lon": -76.9914135, "is_disabled": 0, "fusion_lat": 0.0, "lat": 38.87337616666667, "bike_id": "1215b149e8862e96ed818f7fbc23f0be", "fusion_lon": 0.0}, {"rental_uris": {"ios": "https://dc.lft.to/lastmile_qr_scan", "android": "https://dc.lft.to/lastmile_qr_scan"}, "type": "electric_scooter", "name": "34c20adececc4266fd59bf7e78ff7ae1", "is_reserved": 0, "lon": -77.0217735, "is_disabled": 0, "fusion_lat": 0.0, "lat": 38.9282695, "bike_id": "34c20adececc4266fd59bf7e78ff7ae1", "fusion_lon": 0.0}, {"rental_uris": {"ios": "https://dc.lft.to/lastmile_qr_scan", "android": "https://dc.lft.to/lastmile_qr_scan"}, "type": "electric_scooter", "name": "fe4203d15b9afb853b24424ff7854271", "is_reserved": 0, "lon": -76.98546266666666, "is_disabled": 0, "fusion_lat": 0.0, "lat": 38.87962916666667, "bike_id": "fe4203d15b9afb853b24424ff7854271", "fusion_lon": 0.0}, {"rental_uris": {"ios": "https://dc.lft.to/lastmile_qr_scan", "android": "https://dc.lft.to/lastmile_qr_scan"}, "type": "electric_scooter", "name": "4b4980c77b15d6cd416e870ca6276a83", "is_reserved": 0, "lon": -77.02467983333334, "is_disabled": 0, "fusion_lat": 0.0, "lat": 38.90334766666667, "bike_id": "4b4980c77b15d6cd416e870ca6276a83", "fusion_lon": 0.0}, {"rental_uris": {"ios": "https://dc.lft.to/lastmile_qr_scan", "android": "https://dc.lft.to/lastmile_qr_scan"}, "type": "electric_bike", "name": "8a9a093e8eb53ce3dbcfcce70762f2f0", "is_reserved": 0, "lon": -76.96882483333333, "is_disabled": 0, "fusion_lat": 0.0, "lat": 38.8698515, "bike_id": "8a9a093e8eb53ce3dbcfcce70762f2f0", "fusion_lon": 0.0}, {"rental_uris": {"ios": "https://dc.lft.to/lastmile_qr_scan", "android": "https://dc.lft.to/lastmile_qr_scan"}, "type": "electric_scooter", "name": "54e46e6fa29999ba0bbe80fa8fba37a6", "is_reserved": 0, "lon": -77.01774366666666, "is_disabled": 0, "fusion_lat": 0.0, "lat": 38.90395083333333, "bike_id": "54e46e6fa29999ba0bbe80fa8fba37a6", "fusion_lon": 0.0}, {"rental_uris": {"ios": "https://dc.lft.to/lastmile_qr_scan", "android": "https://dc.lft.to/lastmile_qr_scan"}, "type": "electric_scooter", "name": "512e2294f1d0488d1fe54267dc7a222d", "is_reserved": 0, "lon": -77.00062433333333, "is_disabled": 0, "fusion_lat": 0.0, "lat": 38.8768275, "bike_id": "512e2294f1d0488d1fe54267dc7a222d", "fusion_lon": 0.0}, {"rental_uris": {"ios": "https://dc.lft.to/lastmile_qr_scan", "android": "https://dc.lft.to/lastmile_qr_scan"}, "type": "electric_scooter", "name": "83d32d37ff508034f3cddfa09cba3f20", "is_reserved": 0, "lon": -77.039375, "is_disabled": 0, "fusion_lat": 0.0, "lat": 38.8985785, "bike_id": "83d32d37ff508034f3cddfa09cba3f20", "fusion_lon": 0.0}, {"rental_uris": {"ios": "https://dc.lft.to/lastmile_qr_scan", "android": "https://dc.lft.to/lastmile_qr_scan"}, "type": "electric_scooter", "name": "2545be389cca8002af0133431585fab7", "is_reserved": 0, "lon": -76.9489795, "is_disabled": 0, "fusion_lat": 0.0, "lat": 38.8952375, "bike_id": "2545be389cca8002af0133431585fab7", "fusion_lon": 0.0}, {"rental_uris": {"ios": "https://dc.lft.to/lastmile_qr_scan", "android": "https://dc.lft.to/lastmile_qr_scan"}, "type": "electric_scooter", "name": "600d19e757b127fbb25829b9ea9bd402", "is_reserved": 0, "lon": -77.05723716666667, "is_disabled": 0, "fusion_lat": 0.0, "lat": 38.933539333333336, "bike_id": "600d19e757b127fbb25829b9ea9bd402", "fusion_lon": 0.0}, {"rental_uris": {"ios": "https://dc.lft.to/lastmile_qr_scan", "android": "https://dc.lft.to/lastmile_qr_scan"}, "type": "electric_scooter", "name": "1f25becea252cfceb28a41a48768e7e6", "is_reserved": 0, "lon": -77.03447483333333, "is_disabled": 0, "fusion_lat": 0.0, "lat": 38.90737166666667, "bike_id": "1f25becea252cfceb28a41a48768e7e6", "fusion_lon": 0.0}, {"rental_uris": {"ios": "https://dc.lft.to/lastmile_qr_scan", "android": "https://dc.lft.to/lastmile_qr_scan"}, "type": "electric_scooter", "name": "f120011116db42ac7c98263a6f1741c9", "is_reserved": 0, "lon": -77.038025, "is_disabled": 0, "fusion_lat": 0.0, "lat": 38.9360005, "bike_id": "f120011116db42ac7c98263a6f1741c9", "fusion_lon": 0.0}, {"rental_uris": {"ios": "https://dc.lft.to/lastmile_qr_scan", "android": "https://dc.lft.to/lastmile_qr_scan"}, "type": "electric_scooter", "name": "14ca9a7be73cd8b44215b8c1bae6e15d", "is_reserved": 0, "lon": -77.0349655, "is_disabled": 0, "fusion_lat": 0.0, "lat": 38.91702083333333, "bike_id": "14ca9a7be73cd8b44215b8c1bae6e15d", "fusion_lon": 0.0}, {"rental_uris": {"ios": "https://dc.lft.to/lastmile_qr_scan", "android": "https://dc.lft.to/lastmile_qr_scan"}, "type": "electric_scooter", "name": "197406e18efb6eb287aea22a1caea080", "is_reserved": 0, "lon": -77.03176766666667, "is_disabled": 0, "fusion_lat": 0.0, "lat": 38.899700333333335, "bike_id": "197406e18efb6eb287aea22a1caea080", "fusion_lon": 0.0}, {"rental_uris": {"ios": "https://dc.lft.to/lastmile_qr_scan", "android": "https://dc.lft.to/lastmile_qr_scan"}, "type": "electric_scooter", "name": "cb96d1e533cf18636cec8a25fab8eaae", "is_reserved": 0, "lon": -77.02779666666666, "is_disabled": 0, "fusion_lat": 0.0, "lat": 38.965803, "bike_id": "cb96d1e533cf18636cec8a25fab8eaae", "fusion_lon": 0.0}, {"rental_uris": {"ios": "https://dc.lft.to/lastmile_qr_scan", "android": "https://dc.lft.to/lastmile_qr_scan"}, "type": "electric_scooter", "name": "171a341fc0e8f733ff90107ef34fcd21", "is_reserved": 0, "lon": -77.04089633333334, "is_disabled": 0, "fusion_lat": 0.0, "lat": 38.92071, "bike_id": "171a341fc0e8f733ff90107ef34fcd21", "fusion_lon": 0.0}, {"rental_uris": {"ios": "https://dc.lft.to/lastmile_qr_scan", "android": "https://dc.lft.to/lastmile_qr_scan"}, "type": "electric_scooter", "name": "91f28cb581eb3d3254820f0857380084", "is_reserved": 0, "lon": -76.941589, "is_disabled": 0, "fusion_lat": 0.0, "lat": 38.90178183333333, "bike_id": "91f28cb581eb3d3254820f0857380084", "fusion_lon": 0.0}, {"rental_uris": {"ios": "https://dc.lft.to/lastmile_qr_scan", "android": "https://dc.lft.to/lastmile_qr_scan"}, "type": "electric_scooter", "name": "bb0b976eefcdedcee78046cd5f848957", "is_reserved": 0, "lon": -76.97658966666667, "is_disabled": 0, "fusion_lat": 0.0, "lat": 38.90363683333333, "bike_id": "bb0b976eefcdedcee78046cd5f848957", "fusion_lon": 0.0}, {"rental_uris": {"ios": "https://dc.lft.to/lastmile_qr_scan", "android": "https://dc.lft.to/lastmile_qr_scan"}, "type": "electric_scooter", "name": "f5a8aaa612df37dee005d367c2d26711", "is_reserved": 0, "lon": -77.01777266666667, "is_disabled": 0, "fusion_lat": 0.0, "lat": 38.879167833333334, "bike_id": "f5a8aaa612df37dee005d367c2d26711", "fusion_lon": 0.0}, {"rental_uris": {"ios": "https://dc.lft.to/lastmile_qr_scan", "android": "https://dc.lft.to/lastmile_qr_scan"}, "type": "electric_scooter", "name": "f3ee1e5e30376a4a2fb1658596890778", "is_reserved": 0, "lon": -77.007545, "is_disabled": 0, "fusion_lat": 0.0, "lat": 38.871169, "bike_id": "f3ee1e5e30376a4a2fb1658596890778", "fusion_lon": 0.0}, {"rental_uris": {"ios": "https://dc.lft.to/lastmile_qr_scan", "android": "https://dc.lft.to/lastmile_qr_scan"}, "type": "electric_scooter", "name": "265226c0b7e2b5b86b6876ec7e3513df", "is_reserved": 0, "lon": -77.01759066666666, "is_disabled": 0, "fusion_lat": 0.0, "lat": 38.8768465, "bike_id": "265226c0b7e2b5b86b6876ec7e3513df", "fusion_lon": 0.0}, {"rental_uris": {"ios": "https://dc.lft.to/lastmile_qr_scan", "android": "https://dc.lft.to/lastmile_qr_scan"}, "type": "electric_scooter", "name": "699d2f2f93d708e71ec569b86040d577", "is_reserved": 0, "lon": -76.98541016666667, "is_disabled": 0, "fusion_lat": 0.0, "lat": 38.9129495, "bike_id": "699d2f2f93d708e71ec569b86040d577", "fusion_lon": 0.0}, {"rental_uris": {"ios": "https://dc.lft.to/lastmile_qr_scan", "android": "https://dc.lft.to/lastmile_qr_scan"}, "type": "electric_scooter", "name": "4ade0a5e324a4753222341d2d072bf93", "is_reserved": 0, "lon": -76.94867466666666, "is_disabled": 0, "fusion_lat": 0.0, "lat": 38.89485333333333, "bike_id": "4ade0a5e324a4753222341d2d072bf93", "fusion_lon": 0.0}, {"rental_uris": {"ios": "https://dc.lft.to/lastmile_qr_scan", "android": "https://dc.lft.to/lastmile_qr_scan"}, "type": "electric_scooter", "name": "83173c36a044f36e95196ed6bb2cfb2e", "is_reserved": 0, "lon": -76.92639233333334, "is_disabled": 0, "fusion_lat": 0.0, "lat": 38.883682666666665, "bike_id": "83173c36a044f36e95196ed6bb2cfb2e", "fusion_lon": 0.0}, {"rental_uris": {"ios": "https://dc.lft.to/lastmile_qr_scan", "android": "https://dc.lft.to/lastmile_qr_scan"}, "type": "electric_scooter", "name": "e41fc0f4f5d950db7aede2576717cf28", "is_reserved": 0, "lon": -77.04779866666667, "is_disabled": 0, "fusion_lat": 0.0, "lat": 38.908622, "bike_id": "e41fc0f4f5d950db7aede2576717cf28", "fusion_lon": 0.0}, {"rental_uris": {"ios": "https://dc.lft.to/lastmile_qr_scan", "android": "https://dc.lft.to/lastmile_qr_scan"}, "type": "electric_scooter", "name": "cd76b469ba05d3127d82481b1b812746", "is_reserved": 0, "lon": -77.036192, "is_disabled": 0, "fusion_lat": 0.0, "lat": 38.90379716666666, "bike_id": "cd76b469ba05d3127d82481b1b812746", "fusion_lon": 0.0}, {"rental_uris": {"ios": "https://dc.lft.to/lastmile_qr_scan", "android": "https://dc.lft.to/lastmile_qr_scan"}, "type": "electric_scooter", "name": "105d78e19f600948733f62b304ba2c0b", "is_reserved": 0, "lon": -77.005913, "is_disabled": 0, "fusion_lat": 0.0, "lat": 38.875708333333336, "bike_id": "105d78e19f600948733f62b304ba2c0b", "fusion_lon": 0.0}, {"rental_uris": {"ios": "https://dc.lft.to/lastmile_qr_scan", "android": "https://dc.lft.to/lastmile_qr_scan"}, "type": "electric_scooter", "name": "305e68ac178e81afb56fbfeede1fb68a", "is_reserved": 0, "lon": -77.04060216666667, "is_disabled": 0, "fusion_lat": 0.0, "lat": 38.91766766666667, "bike_id": "305e68ac178e81afb56fbfeede1fb68a", "fusion_lon": 0.0}, {"rental_uris": {"ios": "https://dc.lft.to/lastmile_qr_scan", "android": "https://dc.lft.to/lastmile_qr_scan"}, "type": "electric_scooter", "name": "c8f7ca9cea408c3a7777e44f69446538", "is_reserved": 0, "lon": -77.0456, "is_disabled": 0, "fusion_lat": 0.0, "lat": 38.91319816666667, "bike_id": "c8f7ca9cea408c3a7777e44f69446538", "fusion_lon": 0.0}, {"rental_uris": {"ios": "https://dc.lft.to/lastmile_qr_scan", "android": "https://dc.lft.to/lastmile_qr_scan"}, "type": "electric_scooter", "name": "b9d5d7f16f9348aa473e5a730cb1741b", "is_reserved": 0, "lon": -77.05032733333333, "is_disabled": 0, "fusion_lat": 0.0, "lat": 38.89669033333333, "bike_id": "b9d5d7f16f9348aa473e5a730cb1741b", "fusion_lon": 0.0}, {"rental_uris": {"ios": "https://dc.lft.to/lastmile_qr_scan", "android": "https://dc.lft.to/lastmile_qr_scan"}, "type": "electric_scooter", "name": "992da208e6be1ae21fdefcb42a61234b", "is_reserved": 0, "lon": -77.02755383333333, "is_disabled": 0, "fusion_lat": 0.0, "lat": 38.957805, "bike_id": "992da208e6be1ae21fdefcb42a61234b", "fusion_lon": 0.0}, {"rental_uris": {"ios": "https://dc.lft.to/lastmile_qr_scan", "android": "https://dc.lft.to/lastmile_qr_scan"}, "type": "electric_scooter", "name": "330b22e3ec59ccc884ad1088afbda9ad", "is_reserved": 0, "lon": -77.038555, "is_disabled": 0, "fusion_lat": 0.0, "lat": 38.924768666666665, "bike_id": "330b22e3ec59ccc884ad1088afbda9ad", "fusion_lon": 0.0}, {"rental_uris": {"ios": "https://dc.lft.to/lastmile_qr_scan", "android": "https://dc.lft.to/lastmile_qr_scan"}, "type": "electric_scooter", "name": "bfe4e6fd1d3110b364f58d4ade52d6c9", "is_reserved": 0, "lon": -77.03818166666667, "is_disabled": 0, "fusion_lat": 0.0, "lat": 38.9305985, "bike_id": "bfe4e6fd1d3110b364f58d4ade52d6c9", "fusion_lon": 0.0}, {"rental_uris": {"ios": "https://dc.lft.to/lastmile_qr_scan", "android": "https://dc.lft.to/lastmile_qr_scan"}, "type": "electric_scooter", "name": "7055d576d8ffff9073b86d5885437fd1", "is_reserved": 0, "lon": -76.93742666666667, "is_disabled": 0, "fusion_lat": 0.0, "lat": 38.890104666666666, "bike_id": "7055d576d8ffff9073b86d5885437fd1", "fusion_lon": 0.0}, {"rental_uris": {"ios": "https://dc.lft.to/lastmile_qr_scan", "android": "https://dc.lft.to/lastmile_qr_scan"}, "type": "electric_scooter", "name": "3c61bf56f7cc3dbf79f921c8aba297c3", "is_reserved": 0, "lon": -76.96545583333334, "is_disabled": 0, "fusion_lat": 0.0, "lat": 38.8788625, "bike_id": "3c61bf56f7cc3dbf79f921c8aba297c3", "fusion_lon": 0.0}, {"rental_uris": {"ios": "https://dc.lft.to/lastmile_qr_scan", "android": "https://dc.lft.to/lastmile_qr_scan"}, "type": "electric_scooter", "name": "ddca4c6187fa73186798614304fd342d", "is_reserved": 0, "lon": -77.02293316666666, "is_disabled": 0, "fusion_lat": 0.0, "lat": 38.898538333333335, "bike_id": "ddca4c6187fa73186798614304fd342d", "fusion_lon": 0.0}, {"rental_uris": {"ios": "https://dc.lft.to/lastmile_qr_scan", "android": "https://dc.lft.to/lastmile_qr_scan"}, "type": "electric_scooter", "name": "bbe52d21ad726f34e5e1a5f3aea7a34b", "is_reserved": 0, "lon": -77.04929933333334, "is_disabled": 0, "fusion_lat": 0.0, "lat": 38.8900275, "bike_id": "bbe52d21ad726f34e5e1a5f3aea7a34b", "fusion_lon": 0.0}, {"rental_uris": {"ios": "https://dc.lft.to/lastmile_qr_scan", "android": "https://dc.lft.to/lastmile_qr_scan"}, "type": "electric_scooter", "name": "2e701d7c4972059fbc7d016d6722fa52", "is_reserved": 0, "lon": -77.04076533333334, "is_disabled": 0, "fusion_lat": 0.0, "lat": 38.916039, "bike_id": "2e701d7c4972059fbc7d016d6722fa52", "fusion_lon": 0.0}, {"rental_uris": {"ios": "https://dc.lft.to/lastmile_qr_scan", "android": "https://dc.lft.to/lastmile_qr_scan"}, "type": "electric_scooter", "name": "e835060e6b1856c2099079b1d6fb96ad", "is_reserved": 0, "lon": -77.028364, "is_disabled": 0, "fusion_lat": 0.0, "lat": 38.8873395, "bike_id": "e835060e6b1856c2099079b1d6fb96ad", "fusion_lon": 0.0}, {"rental_uris": {"ios": "https://dc.lft.to/lastmile_qr_scan", "android": "https://dc.lft.to/lastmile_qr_scan"}, "type": "electric_scooter", "name": "195f38a0f5246c5f4107925d44d31984", "is_reserved": 0, "lon": -77.04837733333333, "is_disabled": 0, "fusion_lat": 0.0, "lat": 38.909699833333335, "bike_id": "195f38a0f5246c5f4107925d44d31984", "fusion_lon": 0.0}, {"rental_uris": {"ios": "https://dc.lft.to/lastmile_qr_scan", "android": "https://dc.lft.to/lastmile_qr_scan"}, "type": "electric_scooter", "name": "dc8abafbc5a6407742bfc3d6e00d46b9", "is_reserved": 0, "lon": -76.99742216666667, "is_disabled": 0, "fusion_lat": 0.0, "lat": 38.92040166666666, "bike_id": "dc8abafbc5a6407742bfc3d6e00d46b9", "fusion_lon": 0.0}, {"rental_uris": {"ios": "https://dc.lft.to/lastmile_qr_scan", "android": "https://dc.lft.to/lastmile_qr_scan"}, "type": "electric_bike", "name": "3f0c65f017084b005dc4eeb209777ba8", "is_reserved": 0, "lon": -77.08317, "is_disabled": 0, "fusion_lat": 0.0, "lat": 38.85442333333334, "bike_id": "3f0c65f017084b005dc4eeb209777ba8", "fusion_lon": 0.0}, {"rental_uris": {"ios": "https://dc.lft.to/lastmile_qr_scan", "android": "https://dc.lft.to/lastmile_qr_scan"}, "type": "electric_bike", "name": "e1c2cb1af48484f345735802ecf9317b", "is_reserved": 0, "lon": -76.97703283333334, "is_disabled": 0, "fusion_lat": 0.0, "lat": 38.822073333333336, "bike_id": "e1c2cb1af48484f345735802ecf9317b", "fusion_lon": 0.0}, {"rental_uris": {"ios": "https://dc.lft.to/lastmile_qr_scan", "android": "https://dc.lft.to/lastmile_qr_scan"}, "type": "electric_scooter", "name": "68a8620d8e9ab75077498518bf0661ea", "is_reserved": 0, "lon": -77.03587466666667, "is_disabled": 0, "fusion_lat": 0.0, "lat": 38.917706333333335, "bike_id": "68a8620d8e9ab75077498518bf0661ea", "fusion_lon": 0.0}, {"rental_uris": {"ios": "https://dc.lft.to/lastmile_qr_scan", "android": "https://dc.lft.to/lastmile_qr_scan"}, "type": "electric_scooter", "name": "cb18b6c3b3837c969d2cb09228ea4450", "is_reserved": 0, "lon": -77.02409066666667, "is_disabled": 0, "fusion_lat": 0.0, "lat": 38.938137, "bike_id": "cb18b6c3b3837c969d2cb09228ea4450", "fusion_lon": 0.0}, {"rental_uris": {"ios": "https://dc.lft.to/lastmile_qr_scan", "android": "https://dc.lft.to/lastmile_qr_scan"}, "type": "electric_scooter", "name": "a6077aa47273b16ce5be428335ed3015", "is_reserved": 0, "lon": -76.99503616666667, "is_disabled": 0, "fusion_lat": 0.0, "lat": 38.881770833333334, "bike_id": "a6077aa47273b16ce5be428335ed3015", "fusion_lon": 0.0}, {"rental_uris": {"ios": "https://dc.lft.to/lastmile_qr_scan", "android": "https://dc.lft.to/lastmile_qr_scan"}, "type": "electric_scooter", "name": "a2cd85a724a8ed8717aefe61f23adedd", "is_reserved": 0, "lon": -77.01789816666667, "is_disabled": 0, "fusion_lat": 0.0, "lat": 38.902401833333336, "bike_id": "a2cd85a724a8ed8717aefe61f23adedd", "fusion_lon": 0.0}, {"rental_uris": {"ios": "https://dc.lft.to/lastmile_qr_scan", "android": "https://dc.lft.to/lastmile_qr_scan"}, "type": "electric_scooter", "name": "b334bca7cddf4cb8314b31c4ab097a72", "is_reserved": 0, "lon": -77.02089083333334, "is_disabled": 0, "fusion_lat": 0.0, "lat": 38.88185933333333, "bike_id": "b334bca7cddf4cb8314b31c4ab097a72", "fusion_lon": 0.0}, {"rental_uris": {"ios": "https://dc.lft.to/lastmile_qr_scan", "android": "https://dc.lft.to/lastmile_qr_scan"}, "type": "electric_scooter", "name": "7a9e38a29c8b74b2e6534edc5db19ec2", "is_reserved": 0, "lon": -77.00752333333334, "is_disabled": 0, "fusion_lat": 0.0, "lat": 38.8784675, "bike_id": "7a9e38a29c8b74b2e6534edc5db19ec2", "fusion_lon": 0.0}, {"rental_uris": {"ios": "https://dc.lft.to/lastmile_qr_scan", "android": "https://dc.lft.to/lastmile_qr_scan"}, "type": "electric_scooter", "name": "8e3f5ee591a796fc31b9795bd91c1174", "is_reserved": 0, "lon": -77.0336555, "is_disabled": 0, "fusion_lat": 0.0, "lat": 38.935292833333335, "bike_id": "8e3f5ee591a796fc31b9795bd91c1174", "fusion_lon": 0.0}, {"rental_uris": {"ios": "https://dc.lft.to/lastmile_qr_scan", "android": "https://dc.lft.to/lastmile_qr_scan"}, "type": "electric_scooter", "name": "058a75e4d5501969b9311d34c272d126", "is_reserved": 0, "lon": -76.980764, "is_disabled": 0, "fusion_lat": 0.0, "lat": 38.90169383333333, "bike_id": "058a75e4d5501969b9311d34c272d126", "fusion_lon": 0.0}, {"rental_uris": {"ios": "https://dc.lft.to/lastmile_qr_scan", "android": "https://dc.lft.to/lastmile_qr_scan"}, "type": "electric_bike", "name": "e4c7ada90d540740a2b42b2024bfd674", "is_reserved": 0, "lon": -76.99281616666667, "is_disabled": 0, "fusion_lat": 0.0, "lat": 38.972575666666664, "bike_id": "e4c7ada90d540740a2b42b2024bfd674", "fusion_lon": 0.0}, {"rental_uris": {"ios": "https://dc.lft.to/lastmile_qr_scan", "android": "https://dc.lft.to/lastmile_qr_scan"}, "type": "electric_bike", "name": "2cd7daf3ead9b48dc8037cc0e856029d", "is_reserved": 0, "lon": -76.99695116666666, "is_disabled": 0, "fusion_lat": 0.0, "lat": 38.83866533333333, "bike_id": "2cd7daf3ead9b48dc8037cc0e856029d", "fusion_lon": 0.0}, {"rental_uris": {"ios": "https://dc.lft.to/lastmile_qr_scan", "android": "https://dc.lft.to/lastmile_qr_scan"}, "type": "electric_scooter", "name": "31d101caa75e7eb677361123c5f5ef9c", "is_reserved": 0, "lon": -77.05219166666667, "is_disabled": 0, "fusion_lat": 0.0, "lat": 38.92491833333333, "bike_id": "31d101caa75e7eb677361123c5f5ef9c", "fusion_lon": 0.0}, {"rental_uris": {"ios": "https://dc.lft.to/lastmile_qr_scan", "android": "https://dc.lft.to/lastmile_qr_scan"}, "type": "electric_scooter", "name": "0ff9c0a52d251683dacb3f067bb92a20", "is_reserved": 0, "lon": -77.04031733333333, "is_disabled": 0, "fusion_lat": 0.0, "lat": 38.911989166666665, "bike_id": "0ff9c0a52d251683dacb3f067bb92a20", "fusion_lon": 0.0}, {"rental_uris": {"ios": "https://dc.lft.to/lastmile_qr_scan", "android": "https://dc.lft.to/lastmile_qr_scan"}, "type": "electric_scooter", "name": "fc229bf0064f9746858ed64e98d63cb8", "is_reserved": 0, "lon": -77.04480133333334, "is_disabled": 0, "fusion_lat": 0.0, "lat": 38.892188166666664, "bike_id": "fc229bf0064f9746858ed64e98d63cb8", "fusion_lon": 0.0}, {"rental_uris": {"ios": "https://dc.lft.to/lastmile_qr_scan", "android": "https://dc.lft.to/lastmile_qr_scan"}, "type": "electric_scooter", "name": "e1376ef50a7d18f7c37bb14ffecace9f", "is_reserved": 0, "lon": -77.03146916666667, "is_disabled": 0, "fusion_lat": 0.0, "lat": 38.91264816666666, "bike_id": "e1376ef50a7d18f7c37bb14ffecace9f", "fusion_lon": 0.0}, {"rental_uris": {"ios": "https://dc.lft.to/lastmile_qr_scan", "android": "https://dc.lft.to/lastmile_qr_scan"}, "type": "electric_scooter", "name": "2b74c72e032961f882d04f44db38ccfe", "is_reserved": 0, "lon": -77.07111016666667, "is_disabled": 0, "fusion_lat": 0.0, "lat": 38.90584916666667, "bike_id": "2b74c72e032961f882d04f44db38ccfe", "fusion_lon": 0.0}, {"rental_uris": {"ios": "https://dc.lft.to/lastmile_qr_scan", "android": "https://dc.lft.to/lastmile_qr_scan"}, "type": "electric_scooter", "name": "d771ac6fb03d426ee60ed5874b52974d", "is_reserved": 0, "lon": -76.994778, "is_disabled": 0, "fusion_lat": 0.0, "lat": 38.86213633333333, "bike_id": "d771ac6fb03d426ee60ed5874b52974d", "fusion_lon": 0.0}, {"rental_uris": {"ios": "https://dc.lft.to/lastmile_qr_scan", "android": "https://dc.lft.to/lastmile_qr_scan"}, "type": "electric_scooter", "name": "e658a2864d6e729077afb74a37569cff", "is_reserved": 0, "lon": -77.045052, "is_disabled": 0, "fusion_lat": 0.0, "lat": 38.89222566666667, "bike_id": "e658a2864d6e729077afb74a37569cff", "fusion_lon": 0.0}, {"rental_uris": {"ios": "https://dc.lft.to/lastmile_qr_scan", "android": "https://dc.lft.to/lastmile_qr_scan"}, "type": "electric_scooter", "name": "8c26c4e7139b307d4b709d4d555a22d4", "is_reserved": 0, "lon": -76.99100533333333, "is_disabled": 0, "fusion_lat": 0.0, "lat": 38.85730616666667, "bike_id": "8c26c4e7139b307d4b709d4d555a22d4", "fusion_lon": 0.0}, {"rental_uris": {"ios": "https://dc.lft.to/lastmile_qr_scan", "android": "https://dc.lft.to/lastmile_qr_scan"}, "type": "electric_scooter", "name": "ac1e28a581d33635504f00c6483f958c", "is_reserved": 0, "lon": -77.02190183333333, "is_disabled": 0, "fusion_lat": 0.0, "lat": 38.91121283333333, "bike_id": "ac1e28a581d33635504f00c6483f958c", "fusion_lon": 0.0}, {"rental_uris": {"ios": "https://dc.lft.to/lastmile_qr_scan", "android": "https://dc.lft.to/lastmile_qr_scan"}, "type": "electric_scooter", "name": "83d2cbb19e78e5ba91389b1c7de12c2e", "is_reserved": 0, "lon": -77.04345083333334, "is_disabled": 0, "fusion_lat": 0.0, "lat": 38.921665833333336, "bike_id": "83d2cbb19e78e5ba91389b1c7de12c2e", "fusion_lon": 0.0}, {"rental_uris": {"ios": "https://dc.lft.to/lastmile_qr_scan", "android": "https://dc.lft.to/lastmile_qr_scan"}, "type": "electric_scooter", "name": "225adaa3f3238cd988df3bb8518b502f", "is_reserved": 0, "lon": -77.04963316666667, "is_disabled": 0, "fusion_lat": 0.0, "lat": 38.900781333333335, "bike_id": "225adaa3f3238cd988df3bb8518b502f", "fusion_lon": 0.0}, {"rental_uris": {"ios": "https://dc.lft.to/lastmile_qr_scan", "android": "https://dc.lft.to/lastmile_qr_scan"}, "type": "electric_scooter", "name": "b67172f1407f1a0b46d598f063247762", "is_reserved": 0, "lon": -77.04334616666667, "is_disabled": 0, "fusion_lat": 0.0, "lat": 38.908726333333334, "bike_id": "b67172f1407f1a0b46d598f063247762", "fusion_lon": 0.0}, {"rental_uris": {"ios": "https://dc.lft.to/lastmile_qr_scan", "android": "https://dc.lft.to/lastmile_qr_scan"}, "type": "electric_scooter", "name": "188f6d469442b9f5db14d5b1220dc2bb", "is_reserved": 0, "lon": -77.03337833333333, "is_disabled": 0, "fusion_lat": 0.0, "lat": 38.914165833333335, "bike_id": "188f6d469442b9f5db14d5b1220dc2bb", "fusion_lon": 0.0}, {"rental_uris": {"ios": "https://dc.lft.to/lastmile_qr_scan", "android": "https://dc.lft.to/lastmile_qr_scan"}, "type": "electric_scooter", "name": "12651bf3c25c054dc74c20be29faeae4", "is_reserved": 0, "lon": -77.00825566666667, "is_disabled": 0, "fusion_lat": 0.0, "lat": 38.913654666666666, "bike_id": "12651bf3c25c054dc74c20be29faeae4", "fusion_lon": 0.0}, {"rental_uris": {"ios": "https://dc.lft.to/lastmile_qr_scan", "android": "https://dc.lft.to/lastmile_qr_scan"}, "type": "electric_scooter", "name": "04d928ee7ab0a6453d52753fe113bcb0", "is_reserved": 0, "lon": -77.03639566666666, "is_disabled": 0, "fusion_lat": 0.0, "lat": 38.9067835, "bike_id": "04d928ee7ab0a6453d52753fe113bcb0", "fusion_lon": 0.0}, {"rental_uris": {"ios": "https://dc.lft.to/lastmile_qr_scan", "android": "https://dc.lft.to/lastmile_qr_scan"}, "type": "electric_scooter", "name": "210a931bd05edb32d8429e12d62b5ce6", "is_reserved": 0, "lon": -77.04084433333334, "is_disabled": 0, "fusion_lat": 0.0, "lat": 38.92703616666667, "bike_id": "210a931bd05edb32d8429e12d62b5ce6", "fusion_lon": 0.0}, {"rental_uris": {"ios": "https://dc.lft.to/lastmile_qr_scan", "android": "https://dc.lft.to/lastmile_qr_scan"}, "type": "electric_bike", "name": "bc4899cdbd16aed73d5e157dac765844", "is_reserved": 0, "lon": -76.907339, "is_disabled": 0, "fusion_lat": 0.0, "lat": 38.89616016666667, "bike_id": "bc4899cdbd16aed73d5e157dac765844", "fusion_lon": 0.0}, {"rental_uris": {"ios": "https://dc.lft.to/lastmile_qr_scan", "android": "https://dc.lft.to/lastmile_qr_scan"}, "type": "electric_scooter", "name": "c297c4bd82669fd384b6ec7cd22fc4f1", "is_reserved": 0, "lon": -77.0215305, "is_disabled": 0, "fusion_lat": 0.0, "lat": 38.8950075, "bike_id": "c297c4bd82669fd384b6ec7cd22fc4f1", "fusion_lon": 0.0}, {"rental_uris": {"ios": "https://dc.lft.to/lastmile_qr_scan", "android": "https://dc.lft.to/lastmile_qr_scan"}, "type": "electric_scooter", "name": "e1ba7b776c327827b3d3499b02c64179", "is_reserved": 0, "lon": -77.0345565, "is_disabled": 0, "fusion_lat": 0.0, "lat": 38.901015, "bike_id": "e1ba7b776c327827b3d3499b02c64179", "fusion_lon": 0.0}, {"rental_uris": {"ios": "https://dc.lft.to/lastmile_qr_scan", "android": "https://dc.lft.to/lastmile_qr_scan"}, "type": "electric_scooter", "name": "2fcf6996393c108a59f4b205695fd0a9", "is_reserved": 0, "lon": -77.03825933333333, "is_disabled": 0, "fusion_lat": 0.0, "lat": 38.93141416666667, "bike_id": "2fcf6996393c108a59f4b205695fd0a9", "fusion_lon": 0.0}, {"rental_uris": {"ios": "https://dc.lft.to/lastmile_qr_scan", "android": "https://dc.lft.to/lastmile_qr_scan"}, "type": "electric_scooter", "name": "6cbb219bcb94f6e4b2afcb36fabd4754", "is_reserved": 0, "lon": -77.04754733333333, "is_disabled": 0, "fusion_lat": 0.0, "lat": 38.94095683333333, "bike_id": "6cbb219bcb94f6e4b2afcb36fabd4754", "fusion_lon": 0.0}, {"rental_uris": {"ios": "https://dc.lft.to/lastmile_qr_scan", "android": "https://dc.lft.to/lastmile_qr_scan"}, "type": "electric_scooter", "name": "29fa45f35e46bb8e48183eb02b6a5353", "is_reserved": 0, "lon": -77.01226116666666, "is_disabled": 0, "fusion_lat": 0.0, "lat": 38.8671565, "bike_id": "29fa45f35e46bb8e48183eb02b6a5353", "fusion_lon": 0.0}, {"rental_uris": {"ios": "https://dc.lft.to/lastmile_qr_scan", "android": "https://dc.lft.to/lastmile_qr_scan"}, "type": "electric_scooter", "name": "c78742c3619de3d60110db9c5b61d58c", "is_reserved": 0, "lon": -77.04870516666666, "is_disabled": 0, "fusion_lat": 0.0, "lat": 38.900670833333336, "bike_id": "c78742c3619de3d60110db9c5b61d58c", "fusion_lon": 0.0}, {"rental_uris": {"ios": "https://dc.lft.to/lastmile_qr_scan", "android": "https://dc.lft.to/lastmile_qr_scan"}, "type": "electric_scooter", "name": "a6e4b257a6446c364d9790d24bcd2695", "is_reserved": 0, "lon": -76.9923545, "is_disabled": 0, "fusion_lat": 0.0, "lat": 38.8874925, "bike_id": "a6e4b257a6446c364d9790d24bcd2695", "fusion_lon": 0.0}, {"rental_uris": {"ios": "https://dc.lft.to/lastmile_qr_scan", "android": "https://dc.lft.to/lastmile_qr_scan"}, "type": "electric_scooter", "name": "9a523d1865f3933cbf9bcde01c665e64", "is_reserved": 0, "lon": -76.99911883333333, "is_disabled": 0, "fusion_lat": 0.0, "lat": 38.92455966666667, "bike_id": "9a523d1865f3933cbf9bcde01c665e64", "fusion_lon": 0.0}, {"rental_uris": {"ios": "https://dc.lft.to/lastmile_qr_scan", "android": "https://dc.lft.to/lastmile_qr_scan"}, "type": "electric_scooter", "name": "159ce2cc301cf842918a08e08cd980d5", "is_reserved": 0, "lon": -77.03216516666667, "is_disabled": 0, "fusion_lat": 0.0, "lat": 38.884733, "bike_id": "159ce2cc301cf842918a08e08cd980d5", "fusion_lon": 0.0}, {"rental_uris": {"ios": "https://dc.lft.to/lastmile_qr_scan", "android": "https://dc.lft.to/lastmile_qr_scan"}, "type": "electric_scooter", "name": "56607aa5b182aab45b28f2bcee8d2cb0", "is_reserved": 0, "lon": -77.03808333333333, "is_disabled": 0, "fusion_lat": 0.0, "lat": 38.910426666666666, "bike_id": "56607aa5b182aab45b28f2bcee8d2cb0", "fusion_lon": 0.0}, {"rental_uris": {"ios": "https://dc.lft.to/lastmile_qr_scan", "android": "https://dc.lft.to/lastmile_qr_scan"}, "type": "electric_bike", "name": "df96807226b2683c679530e7f9eaf148", "is_reserved": 0, "lon": -77.127349, "is_disabled": 0, "fusion_lat": 0.0, "lat": 38.895605333333336, "bike_id": "df96807226b2683c679530e7f9eaf148", "fusion_lon": 0.0}, {"rental_uris": {"ios": "https://dc.lft.to/lastmile_qr_scan", "android": "https://dc.lft.to/lastmile_qr_scan"}, "type": "electric_scooter", "name": "4329aa8252af170ba8ea3d391d062517", "is_reserved": 0, "lon": -77.0324735, "is_disabled": 0, "fusion_lat": 0.0, "lat": 38.911216833333334, "bike_id": "4329aa8252af170ba8ea3d391d062517", "fusion_lon": 0.0}, {"rental_uris": {"ios": "https://dc.lft.to/lastmile_qr_scan", "android": "https://dc.lft.to/lastmile_qr_scan"}, "type": "electric_scooter", "name": "01ec6d71c6df9ac20e583689bd9ee5b2", "is_reserved": 0, "lon": -77.0487465, "is_disabled": 0, "fusion_lat": 0.0, "lat": 38.90072033333333, "bike_id": "01ec6d71c6df9ac20e583689bd9ee5b2", "fusion_lon": 0.0}, {"rental_uris": {"ios": "https://dc.lft.to/lastmile_qr_scan", "android": "https://dc.lft.to/lastmile_qr_scan"}, "type": "electric_scooter", "name": "62700635c6a8fdf6e6984738a3adfa88", "is_reserved": 0, "lon": -76.94651266666666, "is_disabled": 0, "fusion_lat": 0.0, "lat": 38.898281, "bike_id": "62700635c6a8fdf6e6984738a3adfa88", "fusion_lon": 0.0}, {"rental_uris": {"ios": "https://dc.lft.to/lastmile_qr_scan", "android": "https://dc.lft.to/lastmile_qr_scan"}, "type": "electric_scooter", "name": "db7e039fe8c382b7add45a935ef8117b", "is_reserved": 0, "lon": -77.04168616666666, "is_disabled": 0, "fusion_lat": 0.0, "lat": 38.91826233333333, "bike_id": "db7e039fe8c382b7add45a935ef8117b", "fusion_lon": 0.0}, {"rental_uris": {"ios": "https://dc.lft.to/lastmile_qr_scan", "android": "https://dc.lft.to/lastmile_qr_scan"}, "type": "electric_scooter", "name": "2537210ffd4fdc6630d9103a05d97905", "is_reserved": 0, "lon": -77.04681983333333, "is_disabled": 0, "fusion_lat": 0.0, "lat": 38.902864, "bike_id": "2537210ffd4fdc6630d9103a05d97905", "fusion_lon": 0.0}, {"rental_uris": {"ios": "https://dc.lft.to/lastmile_qr_scan", "android": "https://dc.lft.to/lastmile_qr_scan"}, "type": "electric_scooter", "name": "c291d3fc2568cd71f39b6701f1613cef", "is_reserved": 0, "lon": -77.06728933333333, "is_disabled": 0, "fusion_lat": 0.0, "lat": 38.950094666666665, "bike_id": "c291d3fc2568cd71f39b6701f1613cef", "fusion_lon": 0.0}, {"rental_uris": {"ios": "https://dc.lft.to/lastmile_qr_scan", "android": "https://dc.lft.to/lastmile_qr_scan"}, "type": "electric_scooter", "name": "0f2e0a708f1f246962bd57b328e7468c", "is_reserved": 0, "lon": -77.02286216666667, "is_disabled": 0, "fusion_lat": 0.0, "lat": 38.9183505, "bike_id": "0f2e0a708f1f246962bd57b328e7468c", "fusion_lon": 0.0}, {"rental_uris": {"ios": "https://dc.lft.to/lastmile_qr_scan", "android": "https://dc.lft.to/lastmile_qr_scan"}, "type": "electric_bike", "name": "efb8cb475d7c78ad4ef3a214829cae27", "is_reserved": 0, "lon": -77.01232133333333, "is_disabled": 0, "fusion_lat": 0.0, "lat": 38.9508025, "bike_id": "efb8cb475d7c78ad4ef3a214829cae27", "fusion_lon": 0.0}, {"rental_uris": {"ios": "https://dc.lft.to/lastmile_qr_scan", "android": "https://dc.lft.to/lastmile_qr_scan"}, "type": "electric_scooter", "name": "a25c19d5ea2d94b9e570e854c32cbb69", "is_reserved": 0, "lon": -77.06850283333333, "is_disabled": 0, "fusion_lat": 0.0, "lat": 38.90417866666667, "bike_id": "a25c19d5ea2d94b9e570e854c32cbb69", "fusion_lon": 0.0}, {"rental_uris": {"ios": "https://dc.lft.to/lastmile_qr_scan", "android": "https://dc.lft.to/lastmile_qr_scan"}, "type": "electric_scooter", "name": "1d87d25b032fc2b2ad31ec515f72b589", "is_reserved": 0, "lon": -77.0347115, "is_disabled": 0, "fusion_lat": 0.0, "lat": 38.92154083333333, "bike_id": "1d87d25b032fc2b2ad31ec515f72b589", "fusion_lon": 0.0}, {"rental_uris": {"ios": "https://dc.lft.to/lastmile_qr_scan", "android": "https://dc.lft.to/lastmile_qr_scan"}, "type": "electric_scooter", "name": "543ee6abc1c4574be1adfe019f7a3119", "is_reserved": 0, "lon": -77.01753266666667, "is_disabled": 0, "fusion_lat": 0.0, "lat": 38.8768975, "bike_id": "543ee6abc1c4574be1adfe019f7a3119", "fusion_lon": 0.0}, {"rental_uris": {"ios": "https://dc.lft.to/lastmile_qr_scan", "android": "https://dc.lft.to/lastmile_qr_scan"}, "type": "electric_scooter", "name": "e1f5e11b9c1a3b5e8abd58e42887e555", "is_reserved": 0, "lon": -77.03391833333333, "is_disabled": 0, "fusion_lat": 0.0, "lat": 38.8992015, "bike_id": "e1f5e11b9c1a3b5e8abd58e42887e555", "fusion_lon": 0.0}, {"rental_uris": {"ios": "https://dc.lft.to/lastmile_qr_scan", "android": "https://dc.lft.to/lastmile_qr_scan"}, "type": "electric_scooter", "name": "ad4af682b665c8bf90a49fdc6ae83976", "is_reserved": 0, "lon": -77.02836066666667, "is_disabled": 0, "fusion_lat": 0.0, "lat": 38.910162666666665, "bike_id": "ad4af682b665c8bf90a49fdc6ae83976", "fusion_lon": 0.0}, {"rental_uris": {"ios": "https://dc.lft.to/lastmile_qr_scan", "android": "https://dc.lft.to/lastmile_qr_scan"}, "type": "electric_scooter", "name": "4977101707efb4ff6b71c5070fdb3ae2", "is_reserved": 0, "lon": -77.0327515, "is_disabled": 0, "fusion_lat": 0.0, "lat": 38.907215666666666, "bike_id": "4977101707efb4ff6b71c5070fdb3ae2", "fusion_lon": 0.0}, {"rental_uris": {"ios": "https://dc.lft.to/lastmile_qr_scan", "android": "https://dc.lft.to/lastmile_qr_scan"}, "type": "electric_scooter", "name": "b344637b2e4a161115665635fa4b7dfb", "is_reserved": 0, "lon": -77.01746233333333, "is_disabled": 0, "fusion_lat": 0.0, "lat": 38.887324166666666, "bike_id": "b344637b2e4a161115665635fa4b7dfb", "fusion_lon": 0.0}, {"rental_uris": {"ios": "https://dc.lft.to/lastmile_qr_scan", "android": "https://dc.lft.to/lastmile_qr_scan"}, "type": "electric_scooter", "name": "1079e4e33055724464324bd8fe0b3e27", "is_reserved": 0, "lon": -77.02349283333334, "is_disabled": 0, "fusion_lat": 0.0, "lat": 38.93128816666667, "bike_id": "1079e4e33055724464324bd8fe0b3e27", "fusion_lon": 0.0}, {"rental_uris": {"ios": "https://dc.lft.to/lastmile_qr_scan", "android": "https://dc.lft.to/lastmile_qr_scan"}, "type": "electric_scooter", "name": "ae05741e0da9b7f9c5167268a0e609b7", "is_reserved": 0, "lon": -77.011948, "is_disabled": 0, "fusion_lat": 0.0, "lat": 38.900338166666664, "bike_id": "ae05741e0da9b7f9c5167268a0e609b7", "fusion_lon": 0.0}, {"rental_uris": {"ios": "https://dc.lft.to/lastmile_qr_scan", "android": "https://dc.lft.to/lastmile_qr_scan"}, "type": "electric_scooter", "name": "33dfc2d9e2ac9a13ab0f3ff0a566f196", "is_reserved": 0, "lon": -77.04172966666667, "is_disabled": 0, "fusion_lat": 0.0, "lat": 38.903723, "bike_id": "33dfc2d9e2ac9a13ab0f3ff0a566f196", "fusion_lon": 0.0}, {"rental_uris": {"ios": "https://dc.lft.to/lastmile_qr_scan", "android": "https://dc.lft.to/lastmile_qr_scan"}, "type": "electric_scooter", "name": "14a7e78547cfae921e64040b46e35456", "is_reserved": 0, "lon": -77.0385845, "is_disabled": 0, "fusion_lat": 0.0, "lat": 38.917107333333334, "bike_id": "14a7e78547cfae921e64040b46e35456", "fusion_lon": 0.0}, {"rental_uris": {"ios": "https://dc.lft.to/lastmile_qr_scan", "android": "https://dc.lft.to/lastmile_qr_scan"}, "type": "electric_scooter", "name": "94f9a1f022413bef45ba6bb8457eab7a", "is_reserved": 0, "lon": -77.02131383333334, "is_disabled": 0, "fusion_lat": 0.0, "lat": 38.92796, "bike_id": "94f9a1f022413bef45ba6bb8457eab7a", "fusion_lon": 0.0}, {"rental_uris": {"ios": "https://dc.lft.to/lastmile_qr_scan", "android": "https://dc.lft.to/lastmile_qr_scan"}, "type": "electric_scooter", "name": "c853525fd8fa5165e0fb076806116dd8", "is_reserved": 0, "lon": -77.03721516666667, "is_disabled": 0, "fusion_lat": 0.0, "lat": 38.92641416666667, "bike_id": "c853525fd8fa5165e0fb076806116dd8", "fusion_lon": 0.0}, {"rental_uris": {"ios": "https://dc.lft.to/lastmile_qr_scan", "android": "https://dc.lft.to/lastmile_qr_scan"}, "type": "electric_scooter", "name": "4cc07c8233e5a860371641171e176e92", "is_reserved": 0, "lon": -76.99408333333334, "is_disabled": 0, "fusion_lat": 0.0, "lat": 38.877932333333334, "bike_id": "4cc07c8233e5a860371641171e176e92", "fusion_lon": 0.0}, {"rental_uris": {"ios": "https://dc.lft.to/lastmile_qr_scan", "android": "https://dc.lft.to/lastmile_qr_scan"}, "type": "electric_scooter", "name": "06b0365a449e76897e7c35bb71445d51", "is_reserved": 0, "lon": -77.02880283333333, "is_disabled": 0, "fusion_lat": 0.0, "lat": 38.90719766666667, "bike_id": "06b0365a449e76897e7c35bb71445d51", "fusion_lon": 0.0}, {"rental_uris": {"ios": "https://dc.lft.to/lastmile_qr_scan", "android": "https://dc.lft.to/lastmile_qr_scan"}, "type": "electric_scooter", "name": "5967820cff4e43105b5881526ac84f53", "is_reserved": 0, "lon": -77.05061733333334, "is_disabled": 0, "fusion_lat": 0.0, "lat": 38.92358466666667, "bike_id": "5967820cff4e43105b5881526ac84f53", "fusion_lon": 0.0}, {"rental_uris": {"ios": "https://dc.lft.to/lastmile_qr_scan", "android": "https://dc.lft.to/lastmile_qr_scan"}, "type": "electric_bike", "name": "aeae43153cebc31c294a05c5bfd19424", "is_reserved": 0, "lon": -76.90303483333334, "is_disabled": 0, "fusion_lat": 0.0, "lat": 39.002947166666665, "bike_id": "aeae43153cebc31c294a05c5bfd19424", "fusion_lon": 0.0}, {"rental_uris": {"ios": "https://dc.lft.to/lastmile_qr_scan", "android": "https://dc.lft.to/lastmile_qr_scan"}, "type": "electric_scooter", "name": "394b80b299adb4a4dc1b141c394c1e12", "is_reserved": 0, "lon": -76.99842583333333, "is_disabled": 0, "fusion_lat": 0.0, "lat": 38.90300633333333, "bike_id": "394b80b299adb4a4dc1b141c394c1e12", "fusion_lon": 0.0}, {"rental_uris": {"ios": "https://dc.lft.to/lastmile_qr_scan", "android": "https://dc.lft.to/lastmile_qr_scan"}, "type": "electric_scooter", "name": "6e3c27b380ee8271d31ebfda249fcd3f", "is_reserved": 0, "lon": -77.0058585, "is_disabled": 0, "fusion_lat": 0.0, "lat": 38.909228666666664, "bike_id": "6e3c27b380ee8271d31ebfda249fcd3f", "fusion_lon": 0.0}, {"rental_uris": {"ios": "https://dc.lft.to/lastmile_qr_scan", "android": "https://dc.lft.to/lastmile_qr_scan"}, "type": "electric_scooter", "name": "62a7f126767a2678b8c07720dd4a8da3", "is_reserved": 0, "lon": -77.056044, "is_disabled": 0, "fusion_lat": 0.0, "lat": 38.8942195, "bike_id": "62a7f126767a2678b8c07720dd4a8da3", "fusion_lon": 0.0}, {"rental_uris": {"ios": "https://dc.lft.to/lastmile_qr_scan", "android": "https://dc.lft.to/lastmile_qr_scan"}, "type": "electric_bike", "name": "330e69819499aeae58381a63e2a26902", "is_reserved": 0, "lon": -77.04267566666667, "is_disabled": 0, "fusion_lat": 0.0, "lat": 38.849078, "bike_id": "330e69819499aeae58381a63e2a26902", "fusion_lon": 0.0}, {"rental_uris": {"ios": "https://dc.lft.to/lastmile_qr_scan", "android": "https://dc.lft.to/lastmile_qr_scan"}, "type": "electric_scooter", "name": "2571ccf873660c6c1ea5a66ba4371c5b", "is_reserved": 0, "lon": -77.014353, "is_disabled": 0, "fusion_lat": 0.0, "lat": 38.9287025, "bike_id": "2571ccf873660c6c1ea5a66ba4371c5b", "fusion_lon": 0.0}, {"rental_uris": {"ios": "https://dc.lft.to/lastmile_qr_scan", "android": "https://dc.lft.to/lastmile_qr_scan"}, "type": "electric_scooter", "name": "d2611e226d706f80b3d5ecf34e9c3c58", "is_reserved": 0, "lon": -77.04327866666667, "is_disabled": 0, "fusion_lat": 0.0, "lat": 38.906502833333334, "bike_id": "d2611e226d706f80b3d5ecf34e9c3c58", "fusion_lon": 0.0}, {"rental_uris": {"ios": "https://dc.lft.to/lastmile_qr_scan", "android": "https://dc.lft.to/lastmile_qr_scan"}, "type": "electric_scooter", "name": "b15ce165e277deb7edb57638d44ace13", "is_reserved": 0, "lon": -76.96544183333333, "is_disabled": 0, "fusion_lat": 0.0, "lat": 38.91841216666667, "bike_id": "b15ce165e277deb7edb57638d44ace13", "fusion_lon": 0.0}, {"rental_uris": {"ios": "https://dc.lft.to/lastmile_qr_scan", "android": "https://dc.lft.to/lastmile_qr_scan"}, "type": "electric_scooter", "name": "b72c3c43f55f5536950ce0a17cff4eb3", "is_reserved": 0, "lon": -77.03549083333333, "is_disabled": 0, "fusion_lat": 0.0, "lat": 38.923759, "bike_id": "b72c3c43f55f5536950ce0a17cff4eb3", "fusion_lon": 0.0}, {"rental_uris": {"ios": "https://dc.lft.to/lastmile_qr_scan", "android": "https://dc.lft.to/lastmile_qr_scan"}, "type": "electric_scooter", "name": "653b4b30c557b8ea6460f40390e05bf5", "is_reserved": 0, "lon": -77.038003, "is_disabled": 0, "fusion_lat": 0.0, "lat": 38.92494466666667, "bike_id": "653b4b30c557b8ea6460f40390e05bf5", "fusion_lon": 0.0}, {"rental_uris": {"ios": "https://dc.lft.to/lastmile_qr_scan", "android": "https://dc.lft.to/lastmile_qr_scan"}, "type": "electric_scooter", "name": "56b1140faa4cbd0a5bdc5d2ee010e8f1", "is_reserved": 0, "lon": -77.03707383333334, "is_disabled": 0, "fusion_lat": 0.0, "lat": 38.9283145, "bike_id": "56b1140faa4cbd0a5bdc5d2ee010e8f1", "fusion_lon": 0.0}, {"rental_uris": {"ios": "https://dc.lft.to/lastmile_qr_scan", "android": "https://dc.lft.to/lastmile_qr_scan"}, "type": "electric_scooter", "name": "d4174bd978be951a4b8deccfc8c4e725", "is_reserved": 0, "lon": -77.02134633333333, "is_disabled": 0, "fusion_lat": 0.0, "lat": 38.9132215, "bike_id": "d4174bd978be951a4b8deccfc8c4e725", "fusion_lon": 0.0}, {"rental_uris": {"ios": "https://dc.lft.to/lastmile_qr_scan", "android": "https://dc.lft.to/lastmile_qr_scan"}, "type": "electric_scooter", "name": "3d35bf29428818a6fff99ef52ec1c167", "is_reserved": 0, "lon": -77.03288416666666, "is_disabled": 0, "fusion_lat": 0.0, "lat": 38.92462416666667, "bike_id": "3d35bf29428818a6fff99ef52ec1c167", "fusion_lon": 0.0}, {"rental_uris": {"ios": "https://dc.lft.to/lastmile_qr_scan", "android": "https://dc.lft.to/lastmile_qr_scan"}, "type": "electric_scooter", "name": "bec6774def0193d452e612254300f67d", "is_reserved": 0, "lon": -77.02299933333333, "is_disabled": 0, "fusion_lat": 0.0, "lat": 38.89861666666667, "bike_id": "bec6774def0193d452e612254300f67d", "fusion_lon": 0.0}, {"rental_uris": {"ios": "https://dc.lft.to/lastmile_qr_scan", "android": "https://dc.lft.to/lastmile_qr_scan"}, "type": "electric_scooter", "name": "db6a29e7653e348031dbd24d94e9e75a", "is_reserved": 0, "lon": -76.99131066666666, "is_disabled": 0, "fusion_lat": 0.0, "lat": 38.900104666666664, "bike_id": "db6a29e7653e348031dbd24d94e9e75a", "fusion_lon": 0.0}, {"rental_uris": {"ios": "https://dc.lft.to/lastmile_qr_scan", "android": "https://dc.lft.to/lastmile_qr_scan"}, "type": "electric_scooter", "name": "a5376cd10df00a6ee9e5bb51448fda56", "is_reserved": 0, "lon": -77.0269055, "is_disabled": 0, "fusion_lat": 0.0, "lat": 38.91147566666667, "bike_id": "a5376cd10df00a6ee9e5bb51448fda56", "fusion_lon": 0.0}, {"rental_uris": {"ios": "https://dc.lft.to/lastmile_qr_scan", "android": "https://dc.lft.to/lastmile_qr_scan"}, "type": "electric_scooter", "name": "5e1cc4060725fbb4b1989dfe1ade11d6", "is_reserved": 0, "lon": -77.03558816666667, "is_disabled": 0, "fusion_lat": 0.0, "lat": 38.917201, "bike_id": "5e1cc4060725fbb4b1989dfe1ade11d6", "fusion_lon": 0.0}, {"rental_uris": {"ios": "https://dc.lft.to/lastmile_qr_scan", "android": "https://dc.lft.to/lastmile_qr_scan"}, "type": "electric_scooter", "name": "f3a7871b42bd50a412dccbcc2e5ff88e", "is_reserved": 0, "lon": -77.03678133333334, "is_disabled": 0, "fusion_lat": 0.0, "lat": 38.92123083333333, "bike_id": "f3a7871b42bd50a412dccbcc2e5ff88e", "fusion_lon": 0.0}, {"rental_uris": {"ios": "https://dc.lft.to/lastmile_qr_scan", "android": "https://dc.lft.to/lastmile_qr_scan"}, "type": "electric_scooter", "name": "26278aa1670606a43f7ac9184bc8c00c", "is_reserved": 0, "lon": -77.04174683333333, "is_disabled": 0, "fusion_lat": 0.0, "lat": 38.91605466666667, "bike_id": "26278aa1670606a43f7ac9184bc8c00c", "fusion_lon": 0.0}, {"rental_uris": {"ios": "https://dc.lft.to/lastmile_qr_scan", "android": "https://dc.lft.to/lastmile_qr_scan"}, "type": "electric_scooter", "name": "e4989d7fe24b64f375c37ba7eb05558b", "is_reserved": 0, "lon": -77.04571666666666, "is_disabled": 0, "fusion_lat": 0.0, "lat": 38.92065316666667, "bike_id": "e4989d7fe24b64f375c37ba7eb05558b", "fusion_lon": 0.0}, {"rental_uris": {"ios": "https://dc.lft.to/lastmile_qr_scan", "android": "https://dc.lft.to/lastmile_qr_scan"}, "type": "electric_scooter", "name": "4da621ec942348d59f1e8ec954265802", "is_reserved": 0, "lon": -77.005644, "is_disabled": 0, "fusion_lat": 0.0, "lat": 38.878511833333334, "bike_id": "4da621ec942348d59f1e8ec954265802", "fusion_lon": 0.0}, {"rental_uris": {"ios": "https://dc.lft.to/lastmile_qr_scan", "android": "https://dc.lft.to/lastmile_qr_scan"}, "type": "electric_scooter", "name": "e7cc8bac868c8aebdbaf974a3cbc4002", "is_reserved": 0, "lon": -77.0421495, "is_disabled": 0, "fusion_lat": 0.0, "lat": 38.921161, "bike_id": "e7cc8bac868c8aebdbaf974a3cbc4002", "fusion_lon": 0.0}, {"rental_uris": {"ios": "https://dc.lft.to/lastmile_qr_scan", "android": "https://dc.lft.to/lastmile_qr_scan"}, "type": "electric_scooter", "name": "972132cabe56cf9ae0fa22bafa0d6643", "is_reserved": 0, "lon": -77.03817566666666, "is_disabled": 0, "fusion_lat": 0.0, "lat": 38.914145500000004, "bike_id": "972132cabe56cf9ae0fa22bafa0d6643", "fusion_lon": 0.0}, {"rental_uris": {"ios": "https://dc.lft.to/lastmile_qr_scan", "android": "https://dc.lft.to/lastmile_qr_scan"}, "type": "electric_scooter", "name": "c9ea37cf98ebf6f9cd159e3327abb6f9", "is_reserved": 0, "lon": -77.02955283333333, "is_disabled": 0, "fusion_lat": 0.0, "lat": 38.9049625, "bike_id": "c9ea37cf98ebf6f9cd159e3327abb6f9", "fusion_lon": 0.0}, {"rental_uris": {"ios": "https://dc.lft.to/lastmile_qr_scan", "android": "https://dc.lft.to/lastmile_qr_scan"}, "type": "electric_bike", "name": "c94b2918c470517be3c823600b586541", "is_reserved": 0, "lon": -76.98244966666667, "is_disabled": 0, "fusion_lat": 0.0, "lat": 38.95237366666667, "bike_id": "c94b2918c470517be3c823600b586541", "fusion_lon": 0.0}, {"rental_uris": {"ios": "https://dc.lft.to/lastmile_qr_scan", "android": "https://dc.lft.to/lastmile_qr_scan"}, "type": "electric_scooter", "name": "66af84c6dda4408e4f9d88ecd7f25627", "is_reserved": 0, "lon": -77.03637466666666, "is_disabled": 0, "fusion_lat": 0.0, "lat": 38.934834333333335, "bike_id": "66af84c6dda4408e4f9d88ecd7f25627", "fusion_lon": 0.0}, {"rental_uris": {"ios": "https://dc.lft.to/lastmile_qr_scan", "android": "https://dc.lft.to/lastmile_qr_scan"}, "type": "electric_bike", "name": "c71a29f9bd91cbb3f5df19143483a758", "is_reserved": 0, "lon": -76.9801215, "is_disabled": 0, "fusion_lat": 0.0, "lat": 38.853085666666665, "bike_id": "c71a29f9bd91cbb3f5df19143483a758", "fusion_lon": 0.0}, {"rental_uris": {"ios": "https://dc.lft.to/lastmile_qr_scan", "android": "https://dc.lft.to/lastmile_qr_scan"}, "type": "electric_scooter", "name": "54a8a53024b527760f14161917782f58", "is_reserved": 0, "lon": -77.03185816666667, "is_disabled": 0, "fusion_lat": 0.0, "lat": 38.91559, "bike_id": "54a8a53024b527760f14161917782f58", "fusion_lon": 0.0}, {"rental_uris": {"ios": "https://dc.lft.to/lastmile_qr_scan", "android": "https://dc.lft.to/lastmile_qr_scan"}, "type": "electric_scooter", "name": "89056a8c6f83182286c8bb50e7210e4d", "is_reserved": 0, "lon": -77.01959666666667, "is_disabled": 0, "fusion_lat": 0.0, "lat": 38.9232395, "bike_id": "89056a8c6f83182286c8bb50e7210e4d", "fusion_lon": 0.0}, {"rental_uris": {"ios": "https://dc.lft.to/lastmile_qr_scan", "android": "https://dc.lft.to/lastmile_qr_scan"}, "type": "electric_scooter", "name": "67762787055386f9653c28ce3e81a11c", "is_reserved": 0, "lon": -76.981518, "is_disabled": 0, "fusion_lat": 0.0, "lat": 38.89936316666667, "bike_id": "67762787055386f9653c28ce3e81a11c", "fusion_lon": 0.0}, {"rental_uris": {"ios": "https://dc.lft.to/lastmile_qr_scan", "android": "https://dc.lft.to/lastmile_qr_scan"}, "type": "electric_scooter", "name": "1297203dabef17b0b42cb101ad3534ab", "is_reserved": 0, "lon": -77.00623, "is_disabled": 0, "fusion_lat": 0.0, "lat": 38.87169466666667, "bike_id": "1297203dabef17b0b42cb101ad3534ab", "fusion_lon": 0.0}, {"rental_uris": {"ios": "https://dc.lft.to/lastmile_qr_scan", "android": "https://dc.lft.to/lastmile_qr_scan"}, "type": "electric_scooter", "name": "7776ef4c418974e381c9fcfd9c17e4e7", "is_reserved": 0, "lon": -77.0321075, "is_disabled": 0, "fusion_lat": 0.0, "lat": 38.9219385, "bike_id": "7776ef4c418974e381c9fcfd9c17e4e7", "fusion_lon": 0.0}, {"rental_uris": {"ios": "https://dc.lft.to/lastmile_qr_scan", "android": "https://dc.lft.to/lastmile_qr_scan"}, "type": "electric_bike", "name": "4bd6aee1847446528d669acab24a8373", "is_reserved": 0, "lon": -77.0015285, "is_disabled": 0, "fusion_lat": 0.0, "lat": 38.94164083333333, "bike_id": "4bd6aee1847446528d669acab24a8373", "fusion_lon": 0.0}, {"rental_uris": {"ios": "https://dc.lft.to/lastmile_qr_scan", "android": "https://dc.lft.to/lastmile_qr_scan"}, "type": "electric_scooter", "name": "0d2f0a14a3ed06be9d5b5f40534c8244", "is_reserved": 0, "lon": -77.05815166666666, "is_disabled": 0, "fusion_lat": 0.0, "lat": 38.93520616666667, "bike_id": "0d2f0a14a3ed06be9d5b5f40534c8244", "fusion_lon": 0.0}, {"rental_uris": {"ios": "https://dc.lft.to/lastmile_qr_scan", "android": "https://dc.lft.to/lastmile_qr_scan"}, "type": "electric_scooter", "name": "c365d831830396082b6533631ce03d47", "is_reserved": 0, "lon": -77.03396116666667, "is_disabled": 0, "fusion_lat": 0.0, "lat": 38.899731, "bike_id": "c365d831830396082b6533631ce03d47", "fusion_lon": 0.0}, {"rental_uris": {"ios": "https://dc.lft.to/lastmile_qr_scan", "android": "https://dc.lft.to/lastmile_qr_scan"}, "type": "electric_scooter", "name": "eee6873c5847c8d0712123355a8e85f7", "is_reserved": 0, "lon": -77.03304266666666, "is_disabled": 0, "fusion_lat": 0.0, "lat": 38.91717, "bike_id": "eee6873c5847c8d0712123355a8e85f7", "fusion_lon": 0.0}, {"rental_uris": {"ios": "https://dc.lft.to/lastmile_qr_scan", "android": "https://dc.lft.to/lastmile_qr_scan"}, "type": "electric_scooter", "name": "a85321774ad5d370b29f8fbf4cdde9f6", "is_reserved": 0, "lon": -77.04813416666667, "is_disabled": 0, "fusion_lat": 0.0, "lat": 38.920386, "bike_id": "a85321774ad5d370b29f8fbf4cdde9f6", "fusion_lon": 0.0}, {"rental_uris": {"ios": "https://dc.lft.to/lastmile_qr_scan", "android": "https://dc.lft.to/lastmile_qr_scan"}, "type": "electric_bike", "name": "d28f8e2a5c7eed0689d80dafce507a0b", "is_reserved": 0, "lon": -77.03225916666666, "is_disabled": 0, "fusion_lat": 0.0, "lat": 38.96164866666667, "bike_id": "d28f8e2a5c7eed0689d80dafce507a0b", "fusion_lon": 0.0}, {"rental_uris": {"ios": "https://dc.lft.to/lastmile_qr_scan", "android": "https://dc.lft.to/lastmile_qr_scan"}, "type": "electric_bike", "name": "c88f53dbaf1737fb8b0bd99c33b1b273", "is_reserved": 0, "lon": -77.007651, "is_disabled": 0, "fusion_lat": 0.0, "lat": 38.9812925, "bike_id": "c88f53dbaf1737fb8b0bd99c33b1b273", "fusion_lon": 0.0}, {"rental_uris": {"ios": "https://dc.lft.to/lastmile_qr_scan", "android": "https://dc.lft.to/lastmile_qr_scan"}, "type": "electric_scooter", "name": "0be31ee7abb64ac4030a29c55cadb3ed", "is_reserved": 0, "lon": -77.04801716666667, "is_disabled": 0, "fusion_lat": 0.0, "lat": 38.89955366666667, "bike_id": "0be31ee7abb64ac4030a29c55cadb3ed", "fusion_lon": 0.0}, {"rental_uris": {"ios": "https://dc.lft.to/lastmile_qr_scan", "android": "https://dc.lft.to/lastmile_qr_scan"}, "type": "electric_scooter", "name": "59c6a7973d7c85b3b4a7b63050e41425", "is_reserved": 0, "lon": -77.0315655, "is_disabled": 0, "fusion_lat": 0.0, "lat": 38.959319666666666, "bike_id": "59c6a7973d7c85b3b4a7b63050e41425", "fusion_lon": 0.0}, {"rental_uris": {"ios": "https://dc.lft.to/lastmile_qr_scan", "android": "https://dc.lft.to/lastmile_qr_scan"}, "type": "electric_scooter", "name": "c97e03be24845f0af5ef9d246cbda4dc", "is_reserved": 0, "lon": -76.99064866666667, "is_disabled": 0, "fusion_lat": 0.0, "lat": 38.904217333333335, "bike_id": "c97e03be24845f0af5ef9d246cbda4dc", "fusion_lon": 0.0}, {"rental_uris": {"ios": "https://dc.lft.to/lastmile_qr_scan", "android": "https://dc.lft.to/lastmile_qr_scan"}, "type": "electric_scooter", "name": "223f4db9663d341416aa1a714c41dde6", "is_reserved": 0, "lon": -77.04384166666667, "is_disabled": 0, "fusion_lat": 0.0, "lat": 38.9342195, "bike_id": "223f4db9663d341416aa1a714c41dde6", "fusion_lon": 0.0}, {"rental_uris": {"ios": "https://dc.lft.to/lastmile_qr_scan", "android": "https://dc.lft.to/lastmile_qr_scan"}, "type": "electric_scooter", "name": "a7b86fff7f9e5c478db4e1af9abd7c61", "is_reserved": 0, "lon": -77.01232966666667, "is_disabled": 0, "fusion_lat": 0.0, "lat": 38.9157755, "bike_id": "a7b86fff7f9e5c478db4e1af9abd7c61", "fusion_lon": 0.0}, {"rental_uris": {"ios": "https://dc.lft.to/lastmile_qr_scan", "android": "https://dc.lft.to/lastmile_qr_scan"}, "type": "electric_scooter", "name": "cd067089b5ba923c80abae71d4f7f693", "is_reserved": 0, "lon": -76.983338, "is_disabled": 0, "fusion_lat": 0.0, "lat": 38.90088766666667, "bike_id": "cd067089b5ba923c80abae71d4f7f693", "fusion_lon": 0.0}, {"rental_uris": {"ios": "https://dc.lft.to/lastmile_qr_scan", "android": "https://dc.lft.to/lastmile_qr_scan"}, "type": "electric_scooter", "name": "c30e4c108a4d2f6a3ab73405ff83ddc8", "is_reserved": 0, "lon": -77.02280933333333, "is_disabled": 0, "fusion_lat": 0.0, "lat": 38.90955533333333, "bike_id": "c30e4c108a4d2f6a3ab73405ff83ddc8", "fusion_lon": 0.0}, {"rental_uris": {"ios": "https://dc.lft.to/lastmile_qr_scan", "android": "https://dc.lft.to/lastmile_qr_scan"}, "type": "electric_scooter", "name": "21265956a27810f2ee71c9db45585072", "is_reserved": 0, "lon": -77.0189055, "is_disabled": 0, "fusion_lat": 0.0, "lat": 38.89745383333333, "bike_id": "21265956a27810f2ee71c9db45585072", "fusion_lon": 0.0}, {"rental_uris": {"ios": "https://dc.lft.to/lastmile_qr_scan", "android": "https://dc.lft.to/lastmile_qr_scan"}, "type": "electric_bike", "name": "137c135e191d6609ef166233268da9ef", "is_reserved": 0, "lon": -76.98883133333334, "is_disabled": 0, "fusion_lat": 0.0, "lat": 38.921119166666664, "bike_id": "137c135e191d6609ef166233268da9ef", "fusion_lon": 0.0}, {"rental_uris": {"ios": "https://dc.lft.to/lastmile_qr_scan", "android": "https://dc.lft.to/lastmile_qr_scan"}, "type": "electric_scooter", "name": "674e258fce22f096f16929fe6374c46d", "is_reserved": 0, "lon": -77.03664633333334, "is_disabled": 0, "fusion_lat": 0.0, "lat": 38.923843166666664, "bike_id": "674e258fce22f096f16929fe6374c46d", "fusion_lon": 0.0}, {"rental_uris": {"ios": "https://dc.lft.to/lastmile_qr_scan", "android": "https://dc.lft.to/lastmile_qr_scan"}, "type": "electric_scooter", "name": "50c664c44d53e34b773f7d67c047e70d", "is_reserved": 0, "lon": -77.030412, "is_disabled": 0, "fusion_lat": 0.0, "lat": 38.907368, "bike_id": "50c664c44d53e34b773f7d67c047e70d", "fusion_lon": 0.0}, {"rental_uris": {"ios": "https://dc.lft.to/lastmile_qr_scan", "android": "https://dc.lft.to/lastmile_qr_scan"}, "type": "electric_scooter", "name": "939485224a223075015d6909fa0560da", "is_reserved": 0, "lon": -77.04057483333334, "is_disabled": 0, "fusion_lat": 0.0, "lat": 38.917667333333334, "bike_id": "939485224a223075015d6909fa0560da", "fusion_lon": 0.0}, {"rental_uris": {"ios": "https://dc.lft.to/lastmile_qr_scan", "android": "https://dc.lft.to/lastmile_qr_scan"}, "type": "electric_scooter", "name": "735f4f87916fe500a9aac32664ca4e98", "is_reserved": 0, "lon": -77.0552065, "is_disabled": 0, "fusion_lat": 0.0, "lat": 38.907687833333334, "bike_id": "735f4f87916fe500a9aac32664ca4e98", "fusion_lon": 0.0}, {"rental_uris": {"ios": "https://dc.lft.to/lastmile_qr_scan", "android": "https://dc.lft.to/lastmile_qr_scan"}, "type": "electric_scooter", "name": "4be9e147796825e35d69ed270fd9a6e9", "is_reserved": 0, "lon": -77.07086066666666, "is_disabled": 0, "fusion_lat": 0.0, "lat": 38.95322133333333, "bike_id": "4be9e147796825e35d69ed270fd9a6e9", "fusion_lon": 0.0}, {"rental_uris": {"ios": "https://dc.lft.to/lastmile_qr_scan", "android": "https://dc.lft.to/lastmile_qr_scan"}, "type": "electric_scooter", "name": "cb47a595ff27002fd7b92c7ce491fac5", "is_reserved": 0, "lon": -77.043413, "is_disabled": 0, "fusion_lat": 0.0, "lat": 38.92238733333333, "bike_id": "cb47a595ff27002fd7b92c7ce491fac5", "fusion_lon": 0.0}, {"rental_uris": {"ios": "https://dc.lft.to/lastmile_qr_scan", "android": "https://dc.lft.to/lastmile_qr_scan"}, "type": "electric_scooter", "name": "ba77c9bef5352aee98eba81a55a5ac76", "is_reserved": 0, "lon": -77.02443433333333, "is_disabled": 0, "fusion_lat": 0.0, "lat": 38.956408833333334, "bike_id": "ba77c9bef5352aee98eba81a55a5ac76", "fusion_lon": 0.0}, {"rental_uris": {"ios": "https://dc.lft.to/lastmile_qr_scan", "android": "https://dc.lft.to/lastmile_qr_scan"}, "type": "electric_scooter", "name": "a84fd31b2dcbe7455db94917b3464622", "is_reserved": 0, "lon": -77.01995683333334, "is_disabled": 0, "fusion_lat": 0.0, "lat": 38.8760465, "bike_id": "a84fd31b2dcbe7455db94917b3464622", "fusion_lon": 0.0}, {"rental_uris": {"ios": "https://dc.lft.to/lastmile_qr_scan", "android": "https://dc.lft.to/lastmile_qr_scan"}, "type": "electric_scooter", "name": "6f36d634cec14ec7bfc927a52e25335f", "is_reserved": 0, "lon": -77.03651616666667, "is_disabled": 0, "fusion_lat": 0.0, "lat": 38.95461533333334, "bike_id": "6f36d634cec14ec7bfc927a52e25335f", "fusion_lon": 0.0}, {"rental_uris": {"ios": "https://dc.lft.to/lastmile_qr_scan", "android": "https://dc.lft.to/lastmile_qr_scan"}, "type": "electric_scooter", "name": "b3406bd8c3c34c1acfb13eaad1a5c062", "is_reserved": 0, "lon": -76.97132633333334, "is_disabled": 0, "fusion_lat": 0.0, "lat": 38.878628166666665, "bike_id": "b3406bd8c3c34c1acfb13eaad1a5c062", "fusion_lon": 0.0}, {"rental_uris": {"ios": "https://dc.lft.to/lastmile_qr_scan", "android": "https://dc.lft.to/lastmile_qr_scan"}, "type": "electric_scooter", "name": "f7c5fc390451e72f9e94299b9cd6e776", "is_reserved": 0, "lon": -76.99561233333333, "is_disabled": 0, "fusion_lat": 0.0, "lat": 38.926785333333335, "bike_id": "f7c5fc390451e72f9e94299b9cd6e776", "fusion_lon": 0.0}, {"rental_uris": {"ios": "https://dc.lft.to/lastmile_qr_scan", "android": "https://dc.lft.to/lastmile_qr_scan"}, "type": "electric_scooter", "name": "5036494faf76cf6d91494c4421ce01c0", "is_reserved": 0, "lon": -76.98733766666666, "is_disabled": 0, "fusion_lat": 0.0, "lat": 38.8421965, "bike_id": "5036494faf76cf6d91494c4421ce01c0", "fusion_lon": 0.0}, {"rental_uris": {"ios": "https://dc.lft.to/lastmile_qr_scan", "android": "https://dc.lft.to/lastmile_qr_scan"}, "type": "electric_scooter", "name": "08049f969bf8b471bd4b1406ac05cdf7", "is_reserved": 0, "lon": -77.039569, "is_disabled": 0, "fusion_lat": 0.0, "lat": 38.898251, "bike_id": "08049f969bf8b471bd4b1406ac05cdf7", "fusion_lon": 0.0}, {"rental_uris": {"ios": "https://dc.lft.to/lastmile_qr_scan", "android": "https://dc.lft.to/lastmile_qr_scan"}, "type": "electric_scooter", "name": "084e9543d7a178bf627b205d678b2e56", "is_reserved": 0, "lon": -77.07292033333333, "is_disabled": 0, "fusion_lat": 0.0, "lat": 38.9144295, "bike_id": "084e9543d7a178bf627b205d678b2e56", "fusion_lon": 0.0}, {"rental_uris": {"ios": "https://dc.lft.to/lastmile_qr_scan", "android": "https://dc.lft.to/lastmile_qr_scan"}, "type": "electric_scooter", "name": "18cbbaed1cb4d0c1b0b11ddc773232aa", "is_reserved": 0, "lon": -77.04188433333333, "is_disabled": 0, "fusion_lat": 0.0, "lat": 38.92201266666667, "bike_id": "18cbbaed1cb4d0c1b0b11ddc773232aa", "fusion_lon": 0.0}, {"rental_uris": {"ios": "https://dc.lft.to/lastmile_qr_scan", "android": "https://dc.lft.to/lastmile_qr_scan"}, "type": "electric_scooter", "name": "b2ef8d1db5cb742acac0b5e5cad38d30", "is_reserved": 0, "lon": -77.04677433333333, "is_disabled": 0, "fusion_lat": 0.0, "lat": 38.89226133333333, "bike_id": "b2ef8d1db5cb742acac0b5e5cad38d30", "fusion_lon": 0.0}, {"rental_uris": {"ios": "https://dc.lft.to/lastmile_qr_scan", "android": "https://dc.lft.to/lastmile_qr_scan"}, "type": "electric_scooter", "name": "112c5dcf14ef7379dda99dda3c6d8528", "is_reserved": 0, "lon": -77.05307066666667, "is_disabled": 0, "fusion_lat": 0.0, "lat": 38.90261233333333, "bike_id": "112c5dcf14ef7379dda99dda3c6d8528", "fusion_lon": 0.0}, {"rental_uris": {"ios": "https://dc.lft.to/lastmile_qr_scan", "android": "https://dc.lft.to/lastmile_qr_scan"}, "type": "electric_scooter", "name": "ef3006022753671ae5981071d61acb4d", "is_reserved": 0, "lon": -76.92920983333333, "is_disabled": 0, "fusion_lat": 0.0, "lat": 38.886561666666665, "bike_id": "ef3006022753671ae5981071d61acb4d", "fusion_lon": 0.0}, {"rental_uris": {"ios": "https://dc.lft.to/lastmile_qr_scan", "android": "https://dc.lft.to/lastmile_qr_scan"}, "type": "electric_scooter", "name": "1f292dc07bb726f842422d51d41b4970", "is_reserved": 0, "lon": -77.0199805, "is_disabled": 0, "fusion_lat": 0.0, "lat": 38.930674833333335, "bike_id": "1f292dc07bb726f842422d51d41b4970", "fusion_lon": 0.0}, {"rental_uris": {"ios": "https://dc.lft.to/lastmile_qr_scan", "android": "https://dc.lft.to/lastmile_qr_scan"}, "type": "electric_scooter", "name": "0a6787d64252101635e17970b300f172", "is_reserved": 0, "lon": -77.04230466666667, "is_disabled": 0, "fusion_lat": 0.0, "lat": 38.911055, "bike_id": "0a6787d64252101635e17970b300f172", "fusion_lon": 0.0}, {"rental_uris": {"ios": "https://dc.lft.to/lastmile_qr_scan", "android": "https://dc.lft.to/lastmile_qr_scan"}, "type": "electric_scooter", "name": "98cf05ef141742a13b19175d857c6964", "is_reserved": 0, "lon": -77.02004283333333, "is_disabled": 0, "fusion_lat": 0.0, "lat": 38.88136816666667, "bike_id": "98cf05ef141742a13b19175d857c6964", "fusion_lon": 0.0}, {"rental_uris": {"ios": "https://dc.lft.to/lastmile_qr_scan", "android": "https://dc.lft.to/lastmile_qr_scan"}, "type": "electric_scooter", "name": "792a75f768224a8acc3a43181099a6ac", "is_reserved": 0, "lon": -76.933897, "is_disabled": 0, "fusion_lat": 0.0, "lat": 38.8990935, "bike_id": "792a75f768224a8acc3a43181099a6ac", "fusion_lon": 0.0}, {"rental_uris": {"ios": "https://dc.lft.to/lastmile_qr_scan", "android": "https://dc.lft.to/lastmile_qr_scan"}, "type": "electric_scooter", "name": "83dc8d900a840e7694b032eabaf76c90", "is_reserved": 0, "lon": -77.05936583333333, "is_disabled": 0, "fusion_lat": 0.0, "lat": 38.905075, "bike_id": "83dc8d900a840e7694b032eabaf76c90", "fusion_lon": 0.0}, {"rental_uris": {"ios": "https://dc.lft.to/lastmile_qr_scan", "android": "https://dc.lft.to/lastmile_qr_scan"}, "type": "electric_scooter", "name": "b695134f16de0ac13f0109bc58790577", "is_reserved": 0, "lon": -77.00380683333333, "is_disabled": 0, "fusion_lat": 0.0, "lat": 38.879414833333335, "bike_id": "b695134f16de0ac13f0109bc58790577", "fusion_lon": 0.0}, {"rental_uris": {"ios": "https://dc.lft.to/lastmile_qr_scan", "android": "https://dc.lft.to/lastmile_qr_scan"}, "type": "electric_bike", "name": "37ce923d233121ad0f37761e4225ed2f", "is_reserved": 0, "lon": -76.999107, "is_disabled": 0, "fusion_lat": 0.0, "lat": 38.86443383333334, "bike_id": "37ce923d233121ad0f37761e4225ed2f", "fusion_lon": 0.0}, {"rental_uris": {"ios": "https://dc.lft.to/lastmile_qr_scan", "android": "https://dc.lft.to/lastmile_qr_scan"}, "type": "electric_scooter", "name": "c283a1adc441b8b206760208fe9f622e", "is_reserved": 0, "lon": -77.03645033333333, "is_disabled": 0, "fusion_lat": 0.0, "lat": 38.910507, "bike_id": "c283a1adc441b8b206760208fe9f622e", "fusion_lon": 0.0}, {"rental_uris": {"ios": "https://dc.lft.to/lastmile_qr_scan", "android": "https://dc.lft.to/lastmile_qr_scan"}, "type": "electric_scooter", "name": "affff24f5804b43d59511be87c062377", "is_reserved": 0, "lon": -77.03296333333333, "is_disabled": 0, "fusion_lat": 0.0, "lat": 38.91709616666667, "bike_id": "affff24f5804b43d59511be87c062377", "fusion_lon": 0.0}, {"rental_uris": {"ios": "https://dc.lft.to/lastmile_qr_scan", "android": "https://dc.lft.to/lastmile_qr_scan"}, "type": "electric_scooter", "name": "0d4a70c0da5406fb81f190c8867a5ca5", "is_reserved": 0, "lon": -77.05721716666666, "is_disabled": 0, "fusion_lat": 0.0, "lat": 38.9335565, "bike_id": "0d4a70c0da5406fb81f190c8867a5ca5", "fusion_lon": 0.0}, {"rental_uris": {"ios": "https://dc.lft.to/lastmile_qr_scan", "android": "https://dc.lft.to/lastmile_qr_scan"}, "type": "electric_scooter", "name": "7d7d27ed105643e2304d53ee28a62b53", "is_reserved": 0, "lon": -77.006087, "is_disabled": 0, "fusion_lat": 0.0, "lat": 38.905744, "bike_id": "7d7d27ed105643e2304d53ee28a62b53", "fusion_lon": 0.0}, {"rental_uris": {"ios": "https://dc.lft.to/lastmile_qr_scan", "android": "https://dc.lft.to/lastmile_qr_scan"}, "type": "electric_scooter", "name": "a32782f98e1abe1ec0ced851de12d9d1", "is_reserved": 0, "lon": -77.0530155, "is_disabled": 0, "fusion_lat": 0.0, "lat": 38.90270366666667, "bike_id": "a32782f98e1abe1ec0ced851de12d9d1", "fusion_lon": 0.0}, {"rental_uris": {"ios": "https://dc.lft.to/lastmile_qr_scan", "android": "https://dc.lft.to/lastmile_qr_scan"}, "type": "electric_scooter", "name": "9461370f5a7f92dacb38fe272f4945b8", "is_reserved": 0, "lon": -77.04912483333334, "is_disabled": 0, "fusion_lat": 0.0, "lat": 38.9006885, "bike_id": "9461370f5a7f92dacb38fe272f4945b8", "fusion_lon": 0.0}, {"rental_uris": {"ios": "https://dc.lft.to/lastmile_qr_scan", "android": "https://dc.lft.to/lastmile_qr_scan"}, "type": "electric_bike", "name": "ee1336019ac1695110d0dfb492aeb00a", "is_reserved": 0, "lon": -77.00421566666667, "is_disabled": 0, "fusion_lat": 0.0, "lat": 38.98527883333333, "bike_id": "ee1336019ac1695110d0dfb492aeb00a", "fusion_lon": 0.0}, {"rental_uris": {"ios": "https://dc.lft.to/lastmile_qr_scan", "android": "https://dc.lft.to/lastmile_qr_scan"}, "type": "electric_scooter", "name": "4bcaa2ae42d154031c4356c36894449f", "is_reserved": 0, "lon": -77.0314835, "is_disabled": 0, "fusion_lat": 0.0, "lat": 38.90631833333333, "bike_id": "4bcaa2ae42d154031c4356c36894449f", "fusion_lon": 0.0}, {"rental_uris": {"ios": "https://dc.lft.to/lastmile_qr_scan", "android": "https://dc.lft.to/lastmile_qr_scan"}, "type": "electric_scooter", "name": "60f699788ceb5506da70e2c2091332f9", "is_reserved": 0, "lon": -76.94716483333333, "is_disabled": 0, "fusion_lat": 0.0, "lat": 38.890825166666666, "bike_id": "60f699788ceb5506da70e2c2091332f9", "fusion_lon": 0.0}, {"rental_uris": {"ios": "https://dc.lft.to/lastmile_qr_scan", "android": "https://dc.lft.to/lastmile_qr_scan"}, "type": "electric_scooter", "name": "c33af4869f58c37c95661892ddb2dac0", "is_reserved": 0, "lon": -77.00186866666667, "is_disabled": 0, "fusion_lat": 0.0, "lat": 38.90800683333333, "bike_id": "c33af4869f58c37c95661892ddb2dac0", "fusion_lon": 0.0}, {"rental_uris": {"ios": "https://dc.lft.to/lastmile_qr_scan", "android": "https://dc.lft.to/lastmile_qr_scan"}, "type": "electric_scooter", "name": "c82cd16abbe648261f9edb6c40872dec", "is_reserved": 0, "lon": -77.00205516666666, "is_disabled": 0, "fusion_lat": 0.0, "lat": 38.90035616666667, "bike_id": "c82cd16abbe648261f9edb6c40872dec", "fusion_lon": 0.0}, {"rental_uris": {"ios": "https://dc.lft.to/lastmile_qr_scan", "android": "https://dc.lft.to/lastmile_qr_scan"}, "type": "electric_scooter", "name": "4f7cef32859c97ae4c42386060af828c", "is_reserved": 0, "lon": -77.0313305, "is_disabled": 0, "fusion_lat": 0.0, "lat": 38.902533166666664, "bike_id": "4f7cef32859c97ae4c42386060af828c", "fusion_lon": 0.0}, {"rental_uris": {"ios": "https://dc.lft.to/lastmile_qr_scan", "android": "https://dc.lft.to/lastmile_qr_scan"}, "type": "electric_bike", "name": "369dacd08cfe06a0babdda4cd1bc6c66", "is_reserved": 0, "lon": -77.05144716666666, "is_disabled": 0, "fusion_lat": 0.0, "lat": 38.85802283333334, "bike_id": "369dacd08cfe06a0babdda4cd1bc6c66", "fusion_lon": 0.0}, {"rental_uris": {"ios": "https://dc.lft.to/lastmile_qr_scan", "android": "https://dc.lft.to/lastmile_qr_scan"}, "type": "electric_bike", "name": "6cb0de82eef201edd706453cacd6d9f0", "is_reserved": 0, "lon": -76.95742416666667, "is_disabled": 0, "fusion_lat": 0.0, "lat": 38.88855566666667, "bike_id": "6cb0de82eef201edd706453cacd6d9f0", "fusion_lon": 0.0}, {"rental_uris": {"ios": "https://dc.lft.to/lastmile_qr_scan", "android": "https://dc.lft.to/lastmile_qr_scan"}, "type": "electric_scooter", "name": "290f39f5dd9534e90bc8fa7b0eb34bb5", "is_reserved": 0, "lon": -77.028331, "is_disabled": 0, "fusion_lat": 0.0, "lat": 38.904461833333336, "bike_id": "290f39f5dd9534e90bc8fa7b0eb34bb5", "fusion_lon": 0.0}, {"rental_uris": {"ios": "https://dc.lft.to/lastmile_qr_scan", "android": "https://dc.lft.to/lastmile_qr_scan"}, "type": "electric_scooter", "name": "3e1c5b8bd2b506fac8c9a537eeb05509", "is_reserved": 0, "lon": -77.01636816666667, "is_disabled": 0, "fusion_lat": 0.0, "lat": 38.90372383333333, "bike_id": "3e1c5b8bd2b506fac8c9a537eeb05509", "fusion_lon": 0.0}, {"rental_uris": {"ios": "https://dc.lft.to/lastmile_qr_scan", "android": "https://dc.lft.to/lastmile_qr_scan"}, "type": "electric_scooter", "name": "565eb1bc0497858d6b4142c233a44223", "is_reserved": 0, "lon": -77.05075383333333, "is_disabled": 0, "fusion_lat": 0.0, "lat": 38.903773666666666, "bike_id": "565eb1bc0497858d6b4142c233a44223", "fusion_lon": 0.0}, {"rental_uris": {"ios": "https://dc.lft.to/lastmile_qr_scan", "android": "https://dc.lft.to/lastmile_qr_scan"}, "type": "electric_scooter", "name": "a534f8b2e27bcc2a72338713d480a746", "is_reserved": 0, "lon": -77.03444883333333, "is_disabled": 0, "fusion_lat": 0.0, "lat": 38.90568916666667, "bike_id": "a534f8b2e27bcc2a72338713d480a746", "fusion_lon": 0.0}, {"rental_uris": {"ios": "https://dc.lft.to/lastmile_qr_scan", "android": "https://dc.lft.to/lastmile_qr_scan"}, "type": "electric_scooter", "name": "0499f7559ef67a3ab9491343c2010504", "is_reserved": 0, "lon": -77.0058705, "is_disabled": 0, "fusion_lat": 0.0, "lat": 38.878434166666665, "bike_id": "0499f7559ef67a3ab9491343c2010504", "fusion_lon": 0.0}, {"rental_uris": {"ios": "https://dc.lft.to/lastmile_qr_scan", "android": "https://dc.lft.to/lastmile_qr_scan"}, "type": "electric_scooter", "name": "512daadd21cbf7909ccd451e54984b63", "is_reserved": 0, "lon": -77.02818833333333, "is_disabled": 0, "fusion_lat": 0.0, "lat": 38.89236316666667, "bike_id": "512daadd21cbf7909ccd451e54984b63", "fusion_lon": 0.0}, {"rental_uris": {"ios": "https://dc.lft.to/lastmile_qr_scan", "android": "https://dc.lft.to/lastmile_qr_scan"}, "type": "electric_scooter", "name": "57afa536bda67c827794529183186dcf", "is_reserved": 0, "lon": -77.01590483333334, "is_disabled": 0, "fusion_lat": 0.0, "lat": 38.872220166666665, "bike_id": "57afa536bda67c827794529183186dcf", "fusion_lon": 0.0}, {"rental_uris": {"ios": "https://dc.lft.to/lastmile_qr_scan", "android": "https://dc.lft.to/lastmile_qr_scan"}, "type": "electric_bike", "name": "49db12679fa10e37cd1490af54d20ad1", "is_reserved": 0, "lon": -76.96309, "is_disabled": 0, "fusion_lat": 0.0, "lat": 38.896963, "bike_id": "49db12679fa10e37cd1490af54d20ad1", "fusion_lon": 0.0}, {"rental_uris": {"ios": "https://dc.lft.to/lastmile_qr_scan", "android": "https://dc.lft.to/lastmile_qr_scan"}, "type": "electric_scooter", "name": "e50d8d79a7b48f1d6ef1cb7e24003b6c", "is_reserved": 0, "lon": -77.0716495, "is_disabled": 0, "fusion_lat": 0.0, "lat": 38.907620333333334, "bike_id": "e50d8d79a7b48f1d6ef1cb7e24003b6c", "fusion_lon": 0.0}, {"rental_uris": {"ios": "https://dc.lft.to/lastmile_qr_scan", "android": "https://dc.lft.to/lastmile_qr_scan"}, "type": "electric_scooter", "name": "8b730c7b6cf42a9d762664cf8d0ffb46", "is_reserved": 0, "lon": -76.92947533333333, "is_disabled": 0, "fusion_lat": 0.0, "lat": 38.903343166666666, "bike_id": "8b730c7b6cf42a9d762664cf8d0ffb46", "fusion_lon": 0.0}, {"rental_uris": {"ios": "https://dc.lft.to/lastmile_qr_scan", "android": "https://dc.lft.to/lastmile_qr_scan"}, "type": "electric_scooter", "name": "d4267f4c20da1525ae4bdea54fb0d019", "is_reserved": 0, "lon": -77.0248615, "is_disabled": 0, "fusion_lat": 0.0, "lat": 38.92404716666667, "bike_id": "d4267f4c20da1525ae4bdea54fb0d019", "fusion_lon": 0.0}, {"rental_uris": {"ios": "https://dc.lft.to/lastmile_qr_scan", "android": "https://dc.lft.to/lastmile_qr_scan"}, "type": "electric_scooter", "name": "1bc1dfb02dad3e6c99c1aed530f8b71b", "is_reserved": 0, "lon": -77.038477, "is_disabled": 0, "fusion_lat": 0.0, "lat": 38.909464, "bike_id": "1bc1dfb02dad3e6c99c1aed530f8b71b", "fusion_lon": 0.0}, {"rental_uris": {"ios": "https://dc.lft.to/lastmile_qr_scan", "android": "https://dc.lft.to/lastmile_qr_scan"}, "type": "electric_scooter", "name": "af490733565b3907743fb2a9a1d7c6f3", "is_reserved": 0, "lon": -77.02703183333334, "is_disabled": 0, "fusion_lat": 0.0, "lat": 38.919058166666666, "bike_id": "af490733565b3907743fb2a9a1d7c6f3", "fusion_lon": 0.0}, {"rental_uris": {"ios": "https://dc.lft.to/lastmile_qr_scan", "android": "https://dc.lft.to/lastmile_qr_scan"}, "type": "electric_scooter", "name": "06432e3a99fda9d0bef9717eec52ba06", "is_reserved": 0, "lon": -77.06342333333333, "is_disabled": 0, "fusion_lat": 0.0, "lat": 38.943632, "bike_id": "06432e3a99fda9d0bef9717eec52ba06", "fusion_lon": 0.0}, {"rental_uris": {"ios": "https://dc.lft.to/lastmile_qr_scan", "android": "https://dc.lft.to/lastmile_qr_scan"}, "type": "electric_bike", "name": "0d2fa74bc52a6c50abb0eb279733d7a3", "is_reserved": 0, "lon": -76.99869183333334, "is_disabled": 0, "fusion_lat": 0.0, "lat": 38.9089895, "bike_id": "0d2fa74bc52a6c50abb0eb279733d7a3", "fusion_lon": 0.0}, {"rental_uris": {"ios": "https://dc.lft.to/lastmile_qr_scan", "android": "https://dc.lft.to/lastmile_qr_scan"}, "type": "electric_scooter", "name": "a87303e45a7a49a5ea427990c78b2b03", "is_reserved": 0, "lon": -77.04023283333333, "is_disabled": 0, "fusion_lat": 0.0, "lat": 38.9225165, "bike_id": "a87303e45a7a49a5ea427990c78b2b03", "fusion_lon": 0.0}, {"rental_uris": {"ios": "https://dc.lft.to/lastmile_qr_scan", "android": "https://dc.lft.to/lastmile_qr_scan"}, "type": "electric_bike", "name": "dd1d6117d92a7913d84f84e9d70d95ba", "is_reserved": 0, "lon": -77.12839466666667, "is_disabled": 0, "fusion_lat": 0.0, "lat": 38.800508, "bike_id": "dd1d6117d92a7913d84f84e9d70d95ba", "fusion_lon": 0.0}, {"rental_uris": {"ios": "https://dc.lft.to/lastmile_qr_scan", "android": "https://dc.lft.to/lastmile_qr_scan"}, "type": "electric_scooter", "name": "cbd8e5276d0d4e0339187bb415f45095", "is_reserved": 0, "lon": -77.02965433333334, "is_disabled": 0, "fusion_lat": 0.0, "lat": 38.902668, "bike_id": "cbd8e5276d0d4e0339187bb415f45095", "fusion_lon": 0.0}, {"rental_uris": {"ios": "https://dc.lft.to/lastmile_qr_scan", "android": "https://dc.lft.to/lastmile_qr_scan"}, "type": "electric_scooter", "name": "23e8783eb6fd3c763ea0d1f0e1c865bf", "is_reserved": 0, "lon": -76.99139366666667, "is_disabled": 0, "fusion_lat": 0.0, "lat": 38.908977, "bike_id": "23e8783eb6fd3c763ea0d1f0e1c865bf", "fusion_lon": 0.0}, {"rental_uris": {"ios": "https://dc.lft.to/lastmile_qr_scan", "android": "https://dc.lft.to/lastmile_qr_scan"}, "type": "electric_scooter", "name": "027cec1b42f509aa92cbce84e2a80b9f", "is_reserved": 0, "lon": -77.032168, "is_disabled": 0, "fusion_lat": 0.0, "lat": 38.898355, "bike_id": "027cec1b42f509aa92cbce84e2a80b9f", "fusion_lon": 0.0}, {"rental_uris": {"ios": "https://dc.lft.to/lastmile_qr_scan", "android": "https://dc.lft.to/lastmile_qr_scan"}, "type": "electric_scooter", "name": "faac86a9a7e27cb991d84a339117dd13", "is_reserved": 0, "lon": -77.02731666666666, "is_disabled": 0, "fusion_lat": 0.0, "lat": 38.93460666666667, "bike_id": "faac86a9a7e27cb991d84a339117dd13", "fusion_lon": 0.0}, {"rental_uris": {"ios": "https://dc.lft.to/lastmile_qr_scan", "android": "https://dc.lft.to/lastmile_qr_scan"}, "type": "electric_bike", "name": "ffb7577038cc9915cbfb8366a0014ffe", "is_reserved": 0, "lon": -76.983431, "is_disabled": 0, "fusion_lat": 0.0, "lat": 38.925839, "bike_id": "ffb7577038cc9915cbfb8366a0014ffe", "fusion_lon": 0.0}, {"rental_uris": {"ios": "https://dc.lft.to/lastmile_qr_scan", "android": "https://dc.lft.to/lastmile_qr_scan"}, "type": "electric_scooter", "name": "eadda8c489fc22adc1ed7565155757a3", "is_reserved": 0, "lon": -77.01992316666667, "is_disabled": 0, "fusion_lat": 0.0, "lat": 38.876022166666665, "bike_id": "eadda8c489fc22adc1ed7565155757a3", "fusion_lon": 0.0}, {"rental_uris": {"ios": "https://dc.lft.to/lastmile_qr_scan", "android": "https://dc.lft.to/lastmile_qr_scan"}, "type": "electric_scooter", "name": "eb16f62c1ea2cca162dc1013f2e2364d", "is_reserved": 0, "lon": -77.00321916666667, "is_disabled": 0, "fusion_lat": 0.0, "lat": 38.87655733333333, "bike_id": "eb16f62c1ea2cca162dc1013f2e2364d", "fusion_lon": 0.0}, {"rental_uris": {"ios": "https://dc.lft.to/lastmile_qr_scan", "android": "https://dc.lft.to/lastmile_qr_scan"}, "type": "electric_scooter", "name": "18043464f22ccc9731a35ae615f8b1b0", "is_reserved": 0, "lon": -77.00195466666666, "is_disabled": 0, "fusion_lat": 0.0, "lat": 38.900422, "bike_id": "18043464f22ccc9731a35ae615f8b1b0", "fusion_lon": 0.0}, {"rental_uris": {"ios": "https://dc.lft.to/lastmile_qr_scan", "android": "https://dc.lft.to/lastmile_qr_scan"}, "type": "electric_scooter", "name": "94e377db82f7d23e83099c24b4a5dd16", "is_reserved": 0, "lon": -77.00069116666667, "is_disabled": 0, "fusion_lat": 0.0, "lat": 38.8768895, "bike_id": "94e377db82f7d23e83099c24b4a5dd16", "fusion_lon": 0.0}, {"rental_uris": {"ios": "https://dc.lft.to/lastmile_qr_scan", "android": "https://dc.lft.to/lastmile_qr_scan"}, "type": "electric_scooter", "name": "1bc97cc6fdc4fa28e50ef5b9284c6cea", "is_reserved": 0, "lon": -77.04237, "is_disabled": 0, "fusion_lat": 0.0, "lat": 38.92275766666667, "bike_id": "1bc97cc6fdc4fa28e50ef5b9284c6cea", "fusion_lon": 0.0}, {"rental_uris": {"ios": "https://dc.lft.to/lastmile_qr_scan", "android": "https://dc.lft.to/lastmile_qr_scan"}, "type": "electric_scooter", "name": "ce39cf0f07e7b395452652e8bfad31cf", "is_reserved": 0, "lon": -77.01501033333334, "is_disabled": 0, "fusion_lat": 0.0, "lat": 38.901406333333334, "bike_id": "ce39cf0f07e7b395452652e8bfad31cf", "fusion_lon": 0.0}, {"rental_uris": {"ios": "https://dc.lft.to/lastmile_qr_scan", "android": "https://dc.lft.to/lastmile_qr_scan"}, "type": "electric_scooter", "name": "fc687dca83586a369717785b522dbee0", "is_reserved": 0, "lon": -77.03774416666667, "is_disabled": 0, "fusion_lat": 0.0, "lat": 38.925692, "bike_id": "fc687dca83586a369717785b522dbee0", "fusion_lon": 0.0}, {"rental_uris": {"ios": "https://dc.lft.to/lastmile_qr_scan", "android": "https://dc.lft.to/lastmile_qr_scan"}, "type": "electric_scooter", "name": "f41ad3ebb8f5fcfc46d0c3e9249b1ec5", "is_reserved": 0, "lon": -77.01916483333333, "is_disabled": 0, "fusion_lat": 0.0, "lat": 38.9023545, "bike_id": "f41ad3ebb8f5fcfc46d0c3e9249b1ec5", "fusion_lon": 0.0}, {"rental_uris": {"ios": "https://dc.lft.to/lastmile_qr_scan", "android": "https://dc.lft.to/lastmile_qr_scan"}, "type": "electric_scooter", "name": "7452cd21444bcd50d92fff2a8eb12b9b", "is_reserved": 0, "lon": -77.0321235, "is_disabled": 0, "fusion_lat": 0.0, "lat": 38.924860833333334, "bike_id": "7452cd21444bcd50d92fff2a8eb12b9b", "fusion_lon": 0.0}, {"rental_uris": {"ios": "https://dc.lft.to/lastmile_qr_scan", "android": "https://dc.lft.to/lastmile_qr_scan"}, "type": "electric_scooter", "name": "f12c1f1d5b40dcbfffb618950ca7c084", "is_reserved": 0, "lon": -77.053356, "is_disabled": 0, "fusion_lat": 0.0, "lat": 38.898760333333335, "bike_id": "f12c1f1d5b40dcbfffb618950ca7c084", "fusion_lon": 0.0}, {"rental_uris": {"ios": "https://dc.lft.to/lastmile_qr_scan", "android": "https://dc.lft.to/lastmile_qr_scan"}, "type": "electric_scooter", "name": "6838e3979b27fecce42e553160dada21", "is_reserved": 0, "lon": -77.042551, "is_disabled": 0, "fusion_lat": 0.0, "lat": 38.91064166666666, "bike_id": "6838e3979b27fecce42e553160dada21", "fusion_lon": 0.0}, {"rental_uris": {"ios": "https://dc.lft.to/lastmile_qr_scan", "android": "https://dc.lft.to/lastmile_qr_scan"}, "type": "electric_bike", "name": "a7797ab3b4155572b47dcf4000618cb1", "is_reserved": 0, "lon": -77.07240666666667, "is_disabled": 0, "fusion_lat": 0.0, "lat": 38.813616833333334, "bike_id": "a7797ab3b4155572b47dcf4000618cb1", "fusion_lon": 0.0}, {"rental_uris": {"ios": "https://dc.lft.to/lastmile_qr_scan", "android": "https://dc.lft.to/lastmile_qr_scan"}, "type": "electric_scooter", "name": "ed30f459b8d31230e98b2c5bacf00ed6", "is_reserved": 0, "lon": -77.01502433333333, "is_disabled": 0, "fusion_lat": 0.0, "lat": 38.91767683333333, "bike_id": "ed30f459b8d31230e98b2c5bacf00ed6", "fusion_lon": 0.0}, {"rental_uris": {"ios": "https://dc.lft.to/lastmile_qr_scan", "android": "https://dc.lft.to/lastmile_qr_scan"}, "type": "electric_scooter", "name": "067a2a9ff4740cb4017b026c144e5bba", "is_reserved": 0, "lon": -76.9900825, "is_disabled": 0, "fusion_lat": 0.0, "lat": 38.903939, "bike_id": "067a2a9ff4740cb4017b026c144e5bba", "fusion_lon": 0.0}, {"rental_uris": {"ios": "https://dc.lft.to/lastmile_qr_scan", "android": "https://dc.lft.to/lastmile_qr_scan"}, "type": "electric_scooter", "name": "fa573e57c5d4b515f2f20e1f985237a1", "is_reserved": 0, "lon": -76.999402, "is_disabled": 0, "fusion_lat": 0.0, "lat": 38.90767433333333, "bike_id": "fa573e57c5d4b515f2f20e1f985237a1", "fusion_lon": 0.0}, {"rental_uris": {"ios": "https://dc.lft.to/lastmile_qr_scan", "android": "https://dc.lft.to/lastmile_qr_scan"}, "type": "electric_scooter", "name": "a171ce9eaf82fd3504884dc7dc199081", "is_reserved": 0, "lon": -77.03717566666667, "is_disabled": 0, "fusion_lat": 0.0, "lat": 38.92645783333333, "bike_id": "a171ce9eaf82fd3504884dc7dc199081", "fusion_lon": 0.0}, {"rental_uris": {"ios": "https://dc.lft.to/lastmile_qr_scan", "android": "https://dc.lft.to/lastmile_qr_scan"}, "type": "electric_scooter", "name": "3b9a39a859a12c83107a5da0e90d518a", "is_reserved": 0, "lon": -77.04002616666666, "is_disabled": 0, "fusion_lat": 0.0, "lat": 38.888627166666666, "bike_id": "3b9a39a859a12c83107a5da0e90d518a", "fusion_lon": 0.0}, {"rental_uris": {"ios": "https://dc.lft.to/lastmile_qr_scan", "android": "https://dc.lft.to/lastmile_qr_scan"}, "type": "electric_scooter", "name": "6a66ebd050c722f6c51405af19f4e051", "is_reserved": 0, "lon": -77.0257525, "is_disabled": 0, "fusion_lat": 0.0, "lat": 38.88493716666667, "bike_id": "6a66ebd050c722f6c51405af19f4e051", "fusion_lon": 0.0}, {"rental_uris": {"ios": "https://dc.lft.to/lastmile_qr_scan", "android": "https://dc.lft.to/lastmile_qr_scan"}, "type": "electric_scooter", "name": "b4178dbc5ef128272c92e889993a90e6", "is_reserved": 0, "lon": -77.045307, "is_disabled": 0, "fusion_lat": 0.0, "lat": 38.9111735, "bike_id": "b4178dbc5ef128272c92e889993a90e6", "fusion_lon": 0.0}, {"rental_uris": {"ios": "https://dc.lft.to/lastmile_qr_scan", "android": "https://dc.lft.to/lastmile_qr_scan"}, "type": "electric_scooter", "name": "0056e7ca68aa2317a70fba56cb039332", "is_reserved": 0, "lon": -77.033198, "is_disabled": 0, "fusion_lat": 0.0, "lat": 38.902783666666664, "bike_id": "0056e7ca68aa2317a70fba56cb039332", "fusion_lon": 0.0}, {"rental_uris": {"ios": "https://dc.lft.to/lastmile_qr_scan", "android": "https://dc.lft.to/lastmile_qr_scan"}, "type": "electric_scooter", "name": "3eb6571fc0265d699f4464192eeb6d44", "is_reserved": 0, "lon": -76.99767233333333, "is_disabled": 0, "fusion_lat": 0.0, "lat": 38.922910333333334, "bike_id": "3eb6571fc0265d699f4464192eeb6d44", "fusion_lon": 0.0}, {"rental_uris": {"ios": "https://dc.lft.to/lastmile_qr_scan", "android": "https://dc.lft.to/lastmile_qr_scan"}, "type": "electric_scooter", "name": "fafafdceff7276d52e7d86e40bb7b644", "is_reserved": 0, "lon": -77.01806733333333, "is_disabled": 0, "fusion_lat": 0.0, "lat": 38.92223716666667, "bike_id": "fafafdceff7276d52e7d86e40bb7b644", "fusion_lon": 0.0}, {"rental_uris": {"ios": "https://dc.lft.to/lastmile_qr_scan", "android": "https://dc.lft.to/lastmile_qr_scan"}, "type": "electric_scooter", "name": "aad04408d9f3a7b24d22ebc46ec3a3a4", "is_reserved": 0, "lon": -77.03212283333333, "is_disabled": 0, "fusion_lat": 0.0, "lat": 38.916329166666664, "bike_id": "aad04408d9f3a7b24d22ebc46ec3a3a4", "fusion_lon": 0.0}, {"rental_uris": {"ios": "https://dc.lft.to/lastmile_qr_scan", "android": "https://dc.lft.to/lastmile_qr_scan"}, "type": "electric_scooter", "name": "fcb8d769396c3b5d5622790973bb2732", "is_reserved": 0, "lon": -77.013549, "is_disabled": 0, "fusion_lat": 0.0, "lat": 38.919255666666665, "bike_id": "fcb8d769396c3b5d5622790973bb2732", "fusion_lon": 0.0}, {"rental_uris": {"ios": "https://dc.lft.to/lastmile_qr_scan", "android": "https://dc.lft.to/lastmile_qr_scan"}, "type": "electric_bike", "name": "3fee8b3e24cd2bd3afdcd298ff887f27", "is_reserved": 0, "lon": -77.06418883333333, "is_disabled": 0, "fusion_lat": 0.0, "lat": 38.906523, "bike_id": "3fee8b3e24cd2bd3afdcd298ff887f27", "fusion_lon": 0.0}, {"rental_uris": {"ios": "https://dc.lft.to/lastmile_qr_scan", "android": "https://dc.lft.to/lastmile_qr_scan"}, "type": "electric_scooter", "name": "8cf3ef958189cba185184bb16edc9951", "is_reserved": 0, "lon": -77.01556433333333, "is_disabled": 0, "fusion_lat": 0.0, "lat": 38.87647183333333, "bike_id": "8cf3ef958189cba185184bb16edc9951", "fusion_lon": 0.0}, {"rental_uris": {"ios": "https://dc.lft.to/lastmile_qr_scan", "android": "https://dc.lft.to/lastmile_qr_scan"}, "type": "electric_scooter", "name": "876e6fcf1a8b96e6a05b55b4b6b879b4", "is_reserved": 0, "lon": -77.043396, "is_disabled": 0, "fusion_lat": 0.0, "lat": 38.91376066666667, "bike_id": "876e6fcf1a8b96e6a05b55b4b6b879b4", "fusion_lon": 0.0}, {"rental_uris": {"ios": "https://dc.lft.to/lastmile_qr_scan", "android": "https://dc.lft.to/lastmile_qr_scan"}, "type": "electric_scooter", "name": "bbda597f4159618939f2d65fb676506a", "is_reserved": 0, "lon": -77.02171266666667, "is_disabled": 0, "fusion_lat": 0.0, "lat": 38.89500966666667, "bike_id": "bbda597f4159618939f2d65fb676506a", "fusion_lon": 0.0}, {"rental_uris": {"ios": "https://dc.lft.to/lastmile_qr_scan", "android": "https://dc.lft.to/lastmile_qr_scan"}, "type": "electric_scooter", "name": "22d009ec8d9e632196d281b98e96ec98", "is_reserved": 0, "lon": -77.01752316666666, "is_disabled": 0, "fusion_lat": 0.0, "lat": 38.87686, "bike_id": "22d009ec8d9e632196d281b98e96ec98", "fusion_lon": 0.0}, {"rental_uris": {"ios": "https://dc.lft.to/lastmile_qr_scan", "android": "https://dc.lft.to/lastmile_qr_scan"}, "type": "electric_scooter", "name": "160595a3d7a977853cb464f662602d03", "is_reserved": 0, "lon": -77.02797016666666, "is_disabled": 0, "fusion_lat": 0.0, "lat": 38.95607533333333, "bike_id": "160595a3d7a977853cb464f662602d03", "fusion_lon": 0.0}, {"rental_uris": {"ios": "https://dc.lft.to/lastmile_qr_scan", "android": "https://dc.lft.to/lastmile_qr_scan"}, "type": "electric_scooter", "name": "ce78e0fff0391b427773eb616bbe0a2d", "is_reserved": 0, "lon": -77.036661, "is_disabled": 0, "fusion_lat": 0.0, "lat": 38.92286033333333, "bike_id": "ce78e0fff0391b427773eb616bbe0a2d", "fusion_lon": 0.0}, {"rental_uris": {"ios": "https://dc.lft.to/lastmile_qr_scan", "android": "https://dc.lft.to/lastmile_qr_scan"}, "type": "electric_scooter", "name": "604fd205596d4436cf72aa1bc28e7776", "is_reserved": 0, "lon": -77.0060145, "is_disabled": 0, "fusion_lat": 0.0, "lat": 38.906412833333334, "bike_id": "604fd205596d4436cf72aa1bc28e7776", "fusion_lon": 0.0}, {"rental_uris": {"ios": "https://dc.lft.to/lastmile_qr_scan", "android": "https://dc.lft.to/lastmile_qr_scan"}, "type": "electric_scooter", "name": "14bdd905e08d314b2aef883e4cdd7bb5", "is_reserved": 0, "lon": -76.97034933333333, "is_disabled": 0, "fusion_lat": 0.0, "lat": 38.873143, "bike_id": "14bdd905e08d314b2aef883e4cdd7bb5", "fusion_lon": 0.0}, {"rental_uris": {"ios": "https://dc.lft.to/lastmile_qr_scan", "android": "https://dc.lft.to/lastmile_qr_scan"}, "type": "electric_scooter", "name": "0907ac702f65cf38544b7e3f8213b5f0", "is_reserved": 0, "lon": -77.021926, "is_disabled": 0, "fusion_lat": 0.0, "lat": 38.911239, "bike_id": "0907ac702f65cf38544b7e3f8213b5f0", "fusion_lon": 0.0}, {"rental_uris": {"ios": "https://dc.lft.to/lastmile_qr_scan", "android": "https://dc.lft.to/lastmile_qr_scan"}, "type": "electric_scooter", "name": "5564b777851a92c84ca04a240e4e9cf7", "is_reserved": 0, "lon": -77.04190033333333, "is_disabled": 0, "fusion_lat": 0.0, "lat": 38.9204695, "bike_id": "5564b777851a92c84ca04a240e4e9cf7", "fusion_lon": 0.0}, {"rental_uris": {"ios": "https://dc.lft.to/lastmile_qr_scan", "android": "https://dc.lft.to/lastmile_qr_scan"}, "type": "electric_scooter", "name": "2164714955c9222b33947f4941e10cc3", "is_reserved": 0, "lon": -77.03240333333333, "is_disabled": 0, "fusion_lat": 0.0, "lat": 38.910547333333334, "bike_id": "2164714955c9222b33947f4941e10cc3", "fusion_lon": 0.0}, {"rental_uris": {"ios": "https://dc.lft.to/lastmile_qr_scan", "android": "https://dc.lft.to/lastmile_qr_scan"}, "type": "electric_scooter", "name": "dcd1d789895b1aefd9491c810b23eba6", "is_reserved": 0, "lon": -77.020586, "is_disabled": 0, "fusion_lat": 0.0, "lat": 38.90847216666667, "bike_id": "dcd1d789895b1aefd9491c810b23eba6", "fusion_lon": 0.0}, {"rental_uris": {"ios": "https://dc.lft.to/lastmile_qr_scan", "android": "https://dc.lft.to/lastmile_qr_scan"}, "type": "electric_scooter", "name": "19a1e0ef18795e80b6bbecdf36fa033c", "is_reserved": 0, "lon": -77.01871616666666, "is_disabled": 0, "fusion_lat": 0.0, "lat": 38.93056583333333, "bike_id": "19a1e0ef18795e80b6bbecdf36fa033c", "fusion_lon": 0.0}, {"rental_uris": {"ios": "https://dc.lft.to/lastmile_qr_scan", "android": "https://dc.lft.to/lastmile_qr_scan"}, "type": "electric_scooter", "name": "d883e2e277e24fca65bb2e5308cfa6fa", "is_reserved": 0, "lon": -76.93737733333333, "is_disabled": 0, "fusion_lat": 0.0, "lat": 38.8900505, "bike_id": "d883e2e277e24fca65bb2e5308cfa6fa", "fusion_lon": 0.0}, {"rental_uris": {"ios": "https://dc.lft.to/lastmile_qr_scan", "android": "https://dc.lft.to/lastmile_qr_scan"}, "type": "electric_scooter", "name": "4ac9569e444095ff5eab31ffc4f8762f", "is_reserved": 0, "lon": -77.0533105, "is_disabled": 0, "fusion_lat": 0.0, "lat": 38.90232733333333, "bike_id": "4ac9569e444095ff5eab31ffc4f8762f", "fusion_lon": 0.0}, {"rental_uris": {"ios": "https://dc.lft.to/lastmile_qr_scan", "android": "https://dc.lft.to/lastmile_qr_scan"}, "type": "electric_scooter", "name": "f3bd4ccabe7de07ec3e5daeaa8b372ac", "is_reserved": 0, "lon": -77.0417175, "is_disabled": 0, "fusion_lat": 0.0, "lat": 38.90371433333333, "bike_id": "f3bd4ccabe7de07ec3e5daeaa8b372ac", "fusion_lon": 0.0}, {"rental_uris": {"ios": "https://dc.lft.to/lastmile_qr_scan", "android": "https://dc.lft.to/lastmile_qr_scan"}, "type": "electric_scooter", "name": "38b0b5b0c7c8cc3e8136f8d8d0dcb7c9", "is_reserved": 0, "lon": -77.02910183333333, "is_disabled": 0, "fusion_lat": 0.0, "lat": 38.940329166666665, "bike_id": "38b0b5b0c7c8cc3e8136f8d8d0dcb7c9", "fusion_lon": 0.0}, {"rental_uris": {"ios": "https://dc.lft.to/lastmile_qr_scan", "android": "https://dc.lft.to/lastmile_qr_scan"}, "type": "electric_scooter", "name": "c62ef3e749b8fb20bbd120b2190d307e", "is_reserved": 0, "lon": -77.07177566666667, "is_disabled": 0, "fusion_lat": 0.0, "lat": 38.89945, "bike_id": "c62ef3e749b8fb20bbd120b2190d307e", "fusion_lon": 0.0}, {"rental_uris": {"ios": "https://dc.lft.to/lastmile_qr_scan", "android": "https://dc.lft.to/lastmile_qr_scan"}, "type": "electric_scooter", "name": "6e1bce89077042de53d64ebcb4869ad4", "is_reserved": 0, "lon": -77.03184583333334, "is_disabled": 0, "fusion_lat": 0.0, "lat": 38.9156795, "bike_id": "6e1bce89077042de53d64ebcb4869ad4", "fusion_lon": 0.0}, {"rental_uris": {"ios": "https://dc.lft.to/lastmile_qr_scan", "android": "https://dc.lft.to/lastmile_qr_scan"}, "type": "electric_scooter", "name": "b936b2b5ecc90d163a6669525f2f211a", "is_reserved": 0, "lon": -77.00783, "is_disabled": 0, "fusion_lat": 0.0, "lat": 38.87836716666666, "bike_id": "b936b2b5ecc90d163a6669525f2f211a", "fusion_lon": 0.0}, {"rental_uris": {"ios": "https://dc.lft.to/lastmile_qr_scan", "android": "https://dc.lft.to/lastmile_qr_scan"}, "type": "electric_bike", "name": "19d864efad6c86e7cc5538d5eaad5f85", "is_reserved": 0, "lon": -77.06697416666667, "is_disabled": 0, "fusion_lat": 0.0, "lat": 38.831681, "bike_id": "19d864efad6c86e7cc5538d5eaad5f85", "fusion_lon": 0.0}, {"rental_uris": {"ios": "https://dc.lft.to/lastmile_qr_scan", "android": "https://dc.lft.to/lastmile_qr_scan"}, "type": "electric_bike", "name": "971ddbd273ebec548ef6608909846c18", "is_reserved": 0, "lon": -77.02423016666667, "is_disabled": 0, "fusion_lat": 0.0, "lat": 38.949098666666664, "bike_id": "971ddbd273ebec548ef6608909846c18", "fusion_lon": 0.0}, {"rental_uris": {"ios": "https://dc.lft.to/lastmile_qr_scan", "android": "https://dc.lft.to/lastmile_qr_scan"}, "type": "electric_scooter", "name": "17d780a7fbddf3745b3f583e296e3775", "is_reserved": 0, "lon": -77.00648433333333, "is_disabled": 0, "fusion_lat": 0.0, "lat": 38.912464666666665, "bike_id": "17d780a7fbddf3745b3f583e296e3775", "fusion_lon": 0.0}, {"rental_uris": {"ios": "https://dc.lft.to/lastmile_qr_scan", "android": "https://dc.lft.to/lastmile_qr_scan"}, "type": "electric_scooter", "name": "24f870db79a45ef4fdffd35f56bd30e0", "is_reserved": 0, "lon": -77.0240925, "is_disabled": 0, "fusion_lat": 0.0, "lat": 38.94511083333333, "bike_id": "24f870db79a45ef4fdffd35f56bd30e0", "fusion_lon": 0.0}, {"rental_uris": {"ios": "https://dc.lft.to/lastmile_qr_scan", "android": "https://dc.lft.to/lastmile_qr_scan"}, "type": "electric_scooter", "name": "7ea231ec6d62c3c43cbb4d8fae306bea", "is_reserved": 0, "lon": -77.004842, "is_disabled": 0, "fusion_lat": 0.0, "lat": 38.874605833333334, "bike_id": "7ea231ec6d62c3c43cbb4d8fae306bea", "fusion_lon": 0.0}, {"rental_uris": {"ios": "https://dc.lft.to/lastmile_qr_scan", "android": "https://dc.lft.to/lastmile_qr_scan"}, "type": "electric_scooter", "name": "7f4fe410d564efc95a7615cf42da5373", "is_reserved": 0, "lon": -77.0189455, "is_disabled": 0, "fusion_lat": 0.0, "lat": 38.8747495, "bike_id": "7f4fe410d564efc95a7615cf42da5373", "fusion_lon": 0.0}, {"rental_uris": {"ios": "https://dc.lft.to/lastmile_qr_scan", "android": "https://dc.lft.to/lastmile_qr_scan"}, "type": "electric_scooter", "name": "9ebce8ddfde902ff2f2f0c73b9361900", "is_reserved": 0, "lon": -77.026919, "is_disabled": 0, "fusion_lat": 0.0, "lat": 38.906835, "bike_id": "9ebce8ddfde902ff2f2f0c73b9361900", "fusion_lon": 0.0}, {"rental_uris": {"ios": "https://dc.lft.to/lastmile_qr_scan", "android": "https://dc.lft.to/lastmile_qr_scan"}, "type": "electric_scooter", "name": "fd0cd77edc9b386ca9e4ce9eccd1d64e", "is_reserved": 0, "lon": -77.03681583333334, "is_disabled": 0, "fusion_lat": 0.0, "lat": 38.939271166666664, "bike_id": "fd0cd77edc9b386ca9e4ce9eccd1d64e", "fusion_lon": 0.0}, {"rental_uris": {"ios": "https://dc.lft.to/lastmile_qr_scan", "android": "https://dc.lft.to/lastmile_qr_scan"}, "type": "electric_scooter", "name": "888a29e33dbdd1cf2dc04b65ce59137c", "is_reserved": 0, "lon": -77.0239375, "is_disabled": 0, "fusion_lat": 0.0, "lat": 38.920749666666666, "bike_id": "888a29e33dbdd1cf2dc04b65ce59137c", "fusion_lon": 0.0}, {"rental_uris": {"ios": "https://dc.lft.to/lastmile_qr_scan", "android": "https://dc.lft.to/lastmile_qr_scan"}, "type": "electric_scooter", "name": "24c48a9049c1de34e944166ab58a37bb", "is_reserved": 0, "lon": -77.03990083333333, "is_disabled": 0, "fusion_lat": 0.0, "lat": 38.933976, "bike_id": "24c48a9049c1de34e944166ab58a37bb", "fusion_lon": 0.0}, {"rental_uris": {"ios": "https://dc.lft.to/lastmile_qr_scan", "android": "https://dc.lft.to/lastmile_qr_scan"}, "type": "electric_scooter", "name": "be19ba231336483186dbae5dfe135168", "is_reserved": 0, "lon": -77.024296, "is_disabled": 0, "fusion_lat": 0.0, "lat": 38.915656166666665, "bike_id": "be19ba231336483186dbae5dfe135168", "fusion_lon": 0.0}, {"rental_uris": {"ios": "https://dc.lft.to/lastmile_qr_scan", "android": "https://dc.lft.to/lastmile_qr_scan"}, "type": "electric_bike", "name": "90de0538047cd50a6938063fc776b704", "is_reserved": 0, "lon": -77.00403466666667, "is_disabled": 0, "fusion_lat": 0.0, "lat": 38.921127, "bike_id": "90de0538047cd50a6938063fc776b704", "fusion_lon": 0.0}, {"rental_uris": {"ios": "https://dc.lft.to/lastmile_qr_scan", "android": "https://dc.lft.to/lastmile_qr_scan"}, "type": "electric_bike", "name": "823240e726d6a4f7795b23b36e75930d", "is_reserved": 0, "lon": -76.98058, "is_disabled": 0, "fusion_lat": 0.0, "lat": 38.972502166666665, "bike_id": "823240e726d6a4f7795b23b36e75930d", "fusion_lon": 0.0}, {"rental_uris": {"ios": "https://dc.lft.to/lastmile_qr_scan", "android": "https://dc.lft.to/lastmile_qr_scan"}, "type": "electric_scooter", "name": "0908959d4cf192838319ff5f90ceb795", "is_reserved": 0, "lon": -77.0231785, "is_disabled": 0, "fusion_lat": 0.0, "lat": 38.927747333333336, "bike_id": "0908959d4cf192838319ff5f90ceb795", "fusion_lon": 0.0}, {"rental_uris": {"ios": "https://dc.lft.to/lastmile_qr_scan", "android": "https://dc.lft.to/lastmile_qr_scan"}, "type": "electric_scooter", "name": "dad0bd041c349d7e5f570bfd4007936b", "is_reserved": 0, "lon": -77.020963, "is_disabled": 0, "fusion_lat": 0.0, "lat": 38.93115516666667, "bike_id": "dad0bd041c349d7e5f570bfd4007936b", "fusion_lon": 0.0}, {"rental_uris": {"ios": "https://dc.lft.to/lastmile_qr_scan", "android": "https://dc.lft.to/lastmile_qr_scan"}, "type": "electric_scooter", "name": "8b3c821e316189e0b3869705a66332c0", "is_reserved": 0, "lon": -77.02072283333334, "is_disabled": 0, "fusion_lat": 0.0, "lat": 38.9302425, "bike_id": "8b3c821e316189e0b3869705a66332c0", "fusion_lon": 0.0}, {"rental_uris": {"ios": "https://dc.lft.to/lastmile_qr_scan", "android": "https://dc.lft.to/lastmile_qr_scan"},