{"data": {"bikes": [{"rental_uris": {"ios": "https://dc.lft.to/lastmile_qr_scan", "android": "https://dc.lft.to/lastmile_qr_scan"}, "name": "62a8a4843b36cd55d48a5040af5e2f21", "is_disabled": 0, "fusion_lon": 0.0, "fusion_lat": 0.0, "lon": -77.0138905, "bike_id": "62a8a4843b36cd55d48a5040af5e2f21", "lat": 38.88732683333333, "is_reserved": 0, "type": "electric_scooter"}, {"rental_uris": {"ios": "https://dc.lft.to/lastmile_qr_scan", "android": "https://dc.lft.to/lastmile_qr_scan"}, "name": "6fd2d387289edfa0f8f0f628009f519c", "is_disabled": 0, "fusion_lon": 0.0, "fusion_lat": 0.0, "lon": -77.03973233333333, "bike_id": "6fd2d387289edfa0f8f0f628009f519c", "lat": 38.90156366666667, "is_reserved": 0, "type": "electric_scooter"}, {"rental_uris": {"ios": "https://dc.lft.to/lastmile_qr_scan", "android": "https://dc.lft.to/lastmile_qr_scan"}, "name": "897e6d880555387f0985b59171edc707", "is_disabled": 0, "fusion_lon": 0.0, "fusion_lat": 0.0, "lon": -77.02168533333334, "bike_id": "897e6d880555387f0985b59171edc707", "lat": 38.9261195, "is_reserved": 0, "type": "electric_scooter"}, {"rental_uris": {"ios": "https://dc.lft.to/lastmile_qr_scan", "android": "https://dc.lft.to/lastmile_qr_scan"}, "name": "93338cbab24775e9bec47cb7cbdedecc", "is_disabled": 0, "fusion_lon": 0.0, "fusion_lat": 0.0, "lon": -77.0388635, "bike_id": "93338cbab24775e9bec47cb7cbdedecc", "lat": 38.902659666666665, "is_reserved": 0, "type": "electric_scooter"}, {"rental_uris": {"ios": "https://dc.lft.to/lastmile_qr_scan", "android": "https://dc.lft.to/lastmile_qr_scan"}, "name": "5558e252883e6d4a93c6d09954fa5027", "is_disabled": 0, "fusion_lon": 0.0, "fusion_lat": 0.0, "lon": -76.94158333333333, "bike_id": "5558e252883e6d4a93c6d09954fa5027", "lat": 38.865514, "is_reserved": 0, "type": "electric_bike"}, {"rental_uris": {"ios": "https://dc.lft.to/lastmile_qr_scan", "android": "https://dc.lft.to/lastmile_qr_scan"}, "name": "8001d7931e4d6db58400ec38e806dfe8", "is_disabled": 0, "fusion_lon": 0.0, "fusion_lat": 0.0, "lon": -77.02146616666667, "bike_id": "8001d7931e4d6db58400ec38e806dfe8", "lat": 38.92448983333333, "is_reserved": 0, "type": "electric_scooter"}, {"rental_uris": {"ios": "https://dc.lft.to/lastmile_qr_scan", "android": "https://dc.lft.to/lastmile_qr_scan"}, "name": "a921f78e468bb8906c641096f7e243fe", "is_disabled": 0, "fusion_lon": 0.0, "fusion_lat": 0.0, "lon": -77.043135, "bike_id": "a921f78e468bb8906c641096f7e243fe", "lat": 38.918820333333336, "is_reserved": 0, "type": "electric_scooter"}, {"rental_uris": {"ios": "https://dc.lft.to/lastmile_qr_scan", "android": "https://dc.lft.to/lastmile_qr_scan"}, "name": "ace3b53d3d2e3659f8a7f62bb92eb4b4", "is_disabled": 0, "fusion_lon": 0.0, "fusion_lat": 0.0, "lon": -77.02809916666666, "bike_id": "ace3b53d3d2e3659f8a7f62bb92eb4b4", "lat": 38.881826333333336, "is_reserved": 0, "type": "electric_scooter"}, {"rental_uris": {"ios": "https://dc.lft.to/lastmile_qr_scan", "android": "https://dc.lft.to/lastmile_qr_scan"}, "name": "45f0dc5086beb6bcc82efdac349018bb", "is_disabled": 0, "fusion_lon": 0.0, "fusion_lat": 0.0, "lon": -77.027091, "bike_id": "45f0dc5086beb6bcc82efdac349018bb", "lat": 38.91661233333333, "is_reserved": 0, "type": "electric_scooter"}, {"rental_uris": {"ios": "https://dc.lft.to/lastmile_qr_scan", "android": "https://dc.lft.to/lastmile_qr_scan"}, "name": "ade9340ee67d142f135c33bd50bea852", "is_disabled": 0, "fusion_lon": 0.0, "fusion_lat": 0.0, "lon": -77.01301833333333, "bike_id": "ade9340ee67d142f135c33bd50bea852", "lat": 38.89712683333333, "is_reserved": 0, "type": "electric_scooter"}, {"rental_uris": {"ios": "https://dc.lft.to/lastmile_qr_scan", "android": "https://dc.lft.to/lastmile_qr_scan"}, "name": "0783b421f37be984d0b5f8104fb49674", "is_disabled": 0, "fusion_lon": 0.0, "fusion_lat": 0.0, "lon": -77.08529483333334, "bike_id": "0783b421f37be984d0b5f8104fb49674", "lat": 38.856490666666666, "is_reserved": 0, "type": "electric_bike"}, {"rental_uris": {"ios": "https://dc.lft.to/lastmile_qr_scan", "android": "https://dc.lft.to/lastmile_qr_scan"}, "name": "a36d6d77eeca0a2872432da09840d88f", "is_disabled": 0, "fusion_lon": 0.0, "fusion_lat": 0.0, "lon": -77.0366825, "bike_id": "a36d6d77eeca0a2872432da09840d88f", "lat": 38.931718000000004, "is_reserved": 0, "type": "electric_scooter"}, {"rental_uris": {"ios": "https://dc.lft.to/lastmile_qr_scan", "android": "https://dc.lft.to/lastmile_qr_scan"}, "name": "ba52bd743cff3a8b7c379d6b1974ba37", "is_disabled": 0, "fusion_lon": 0.0, "fusion_lat": 0.0, "lon": -77.012001, "bike_id": "ba52bd743cff3a8b7c379d6b1974ba37", "lat": 38.915671, "is_reserved": 0, "type": "electric_scooter"}, {"rental_uris": {"ios": "https://dc.lft.to/lastmile_qr_scan", "android": "https://dc.lft.to/lastmile_qr_scan"}, "name": "848492d16fa26008af043b3a8f19f4e0", "is_disabled": 0, "fusion_lon": 0.0, "fusion_lat": 0.0, "lon": -77.04026983333333, "bike_id": "848492d16fa26008af043b3a8f19f4e0", "lat": 38.90154016666666, "is_reserved": 0, "type": "electric_scooter"}, {"rental_uris": {"ios": "https://dc.lft.to/lastmile_qr_scan", "android": "https://dc.lft.to/lastmile_qr_scan"}, "name": "14555bdf6cb69a3945fc664a21a25d6d", "is_disabled": 0, "fusion_lon": 0.0, "fusion_lat": 0.0, "lon": -77.03984283333334, "bike_id": "14555bdf6cb69a3945fc664a21a25d6d", "lat": 38.93289816666667, "is_reserved": 0, "type": "electric_scooter"}, {"rental_uris": {"ios": "https://dc.lft.to/lastmile_qr_scan", "android": "https://dc.lft.to/lastmile_qr_scan"}, "name": "72698026dd2e364110635f00cca3f753", "is_disabled": 0, "fusion_lon": 0.0, "fusion_lat": 0.0, "lon": -77.04170816666667, "bike_id": "72698026dd2e364110635f00cca3f753", "lat": 38.899038, "is_reserved": 0, "type": "electric_scooter"}, {"rental_uris": {"ios": "https://dc.lft.to/lastmile_qr_scan", "android": "https://dc.lft.to/lastmile_qr_scan"}, "name": "f4f7773ff3c1f90ef4df5dd4de28fb5f", "is_disabled": 0, "fusion_lon": 0.0, "fusion_lat": 0.0, "lon": -77.02205583333334, "bike_id": "f4f7773ff3c1f90ef4df5dd4de28fb5f", "lat": 38.924723666666665, "is_reserved": 0, "type": "electric_scooter"}, {"rental_uris": {"ios": "https://dc.lft.to/lastmile_qr_scan", "android": "https://dc.lft.to/lastmile_qr_scan"}, "name": "790696dab70ce5c91acad1264b7bec2d", "is_disabled": 0, "fusion_lon": 0.0, "fusion_lat": 0.0, "lon": -77.02254466666666, "bike_id": "790696dab70ce5c91acad1264b7bec2d", "lat": 38.916486166666665, "is_reserved": 0, "type": "electric_scooter"}, {"rental_uris": {"ios": "https://dc.lft.to/lastmile_qr_scan", "android": "https://dc.lft.to/lastmile_qr_scan"}, "name": "c2b21fc68a36ab7c55fe8c7e12018201", "is_disabled": 0, "fusion_lon": 0.0, "fusion_lat": 0.0, "lon": -77.03398816666666, "bike_id": "c2b21fc68a36ab7c55fe8c7e12018201", "lat": 38.90050316666667, "is_reserved": 0, "type": "electric_scooter"}, {"rental_uris": {"ios": "https://dc.lft.to/lastmile_qr_scan", "android": "https://dc.lft.to/lastmile_qr_scan"}, "name": "8541325509403a804ebeae41d66d5de7", "is_disabled": 0, "fusion_lon": 0.0, "fusion_lat": 0.0, "lon": -77.0241205, "bike_id": "8541325509403a804ebeae41d66d5de7", "lat": 38.92069266666667, "is_reserved": 0, "type": "electric_scooter"}, {"rental_uris": {"ios": "https://dc.lft.to/lastmile_qr_scan", "android": "https://dc.lft.to/lastmile_qr_scan"}, "name": "da9026434e77ffad22ed5bcca8b0fa58", "is_disabled": 0, "fusion_lon": 0.0, "fusion_lat": 0.0, "lon": -77.01649116666667, "bike_id": "da9026434e77ffad22ed5bcca8b0fa58", "lat": 38.928993166666665, "is_reserved": 0, "type": "electric_scooter"}, {"rental_uris": {"ios": "https://dc.lft.to/lastmile_qr_scan", "android": "https://dc.lft.to/lastmile_qr_scan"}, "name": "0e6b44d124377f3a7981ec2951962553", "is_disabled": 0, "fusion_lon": 0.0, "fusion_lat": 0.0, "lon": -76.99594933333333, "bike_id": "0e6b44d124377f3a7981ec2951962553", "lat": 38.884289, "is_reserved": 0, "type": "electric_scooter"}, {"rental_uris": {"ios": "https://dc.lft.to/lastmile_qr_scan", "android": "https://dc.lft.to/lastmile_qr_scan"}, "name": "10696e2a7bbe69c313dbbfbdad532840", "is_disabled": 0, "fusion_lon": 0.0, "fusion_lat": 0.0, "lon": -77.04019083333333, "bike_id": "10696e2a7bbe69c313dbbfbdad532840", "lat": 38.92110533333334, "is_reserved": 0, "type": "electric_scooter"}, {"rental_uris": {"ios": "https://dc.lft.to/lastmile_qr_scan", "android": "https://dc.lft.to/lastmile_qr_scan"}, "name": "7e84c2976cf635f16f9ccb6fee4daa7c", "is_disabled": 0, "fusion_lon": 0.0, "fusion_lat": 0.0, "lon": -77.02314733333333, "bike_id": "7e84c2976cf635f16f9ccb6fee4daa7c", "lat": 38.920756, "is_reserved": 0, "type": "electric_scooter"}, {"rental_uris": {"ios": "https://dc.lft.to/lastmile_qr_scan", "android": "https://dc.lft.to/lastmile_qr_scan"}, "name": "71833a3c77b962f3dadb426a9574a92f", "is_disabled": 0, "fusion_lon": 0.0, "fusion_lat": 0.0, "lon": -77.02138266666667, "bike_id": "71833a3c77b962f3dadb426a9574a92f", "lat": 38.9191255, "is_reserved": 0, "type": "electric_scooter"}, {"rental_uris": {"ios": "https://dc.lft.to/lastmile_qr_scan", "android": "https://dc.lft.to/lastmile_qr_scan"}, "name": "e8bf8815308286a756bc996271e039f3", "is_disabled": 0, "fusion_lon": 0.0, "fusion_lat": 0.0, "lon": -76.95828616666667, "bike_id": "e8bf8815308286a756bc996271e039f3", "lat": 38.850650333333334, "is_reserved": 0, "type": "electric_bike"}, {"rental_uris": {"ios": "https://dc.lft.to/lastmile_qr_scan", "android": "https://dc.lft.to/lastmile_qr_scan"}, "name": "1438855aaeb4aa049027109fe6aea814", "is_disabled": 0, "fusion_lon": 0.0, "fusion_lat": 0.0, "lon": -77.02774383333333, "bike_id": "1438855aaeb4aa049027109fe6aea814", "lat": 38.918208166666666, "is_reserved": 0, "type": "electric_scooter"}, {"rental_uris": {"ios": "https://dc.lft.to/lastmile_qr_scan", "android": "https://dc.lft.to/lastmile_qr_scan"}, "name": "dd3e15fa3263787e3d11e236c5da3488", "is_disabled": 0, "fusion_lon": 0.0, "fusion_lat": 0.0, "lon": -77.03461416666667, "bike_id": "dd3e15fa3263787e3d11e236c5da3488", "lat": 38.904508166666666, "is_reserved": 0, "type": "electric_scooter"}, {"rental_uris": {"ios": "https://dc.lft.to/lastmile_qr_scan", "android": "https://dc.lft.to/lastmile_qr_scan"}, "name": "c6ffbc81c6572b0fe4db1294ac290f56", "is_disabled": 0, "fusion_lon": 0.0, "fusion_lat": 0.0, "lon": -77.0199345, "bike_id": "c6ffbc81c6572b0fe4db1294ac290f56", "lat": 38.915718, "is_reserved": 0, "type": "electric_scooter"}, {"rental_uris": {"ios": "https://dc.lft.to/lastmile_qr_scan", "android": "https://dc.lft.to/lastmile_qr_scan"}, "name": "a20c3fc5c5390d0100e92daa0ee957e7", "is_disabled": 0, "fusion_lon": 0.0, "fusion_lat": 0.0, "lon": -77.02369466666667, "bike_id": "a20c3fc5c5390d0100e92daa0ee957e7", "lat": 38.9473695, "is_reserved": 0, "type": "electric_scooter"}, {"rental_uris": {"ios": "https://dc.lft.to/lastmile_qr_scan", "android": "https://dc.lft.to/lastmile_qr_scan"}, "name": "3cb560ea5662e89edd9b20e54b5e8890", "is_disabled": 0, "fusion_lon": 0.0, "fusion_lat": 0.0, "lon": -77.04367333333333, "bike_id": "3cb560ea5662e89edd9b20e54b5e8890", "lat": 38.90422483333333, "is_reserved": 0, "type": "electric_scooter"}, {"rental_uris": {"ios": "https://dc.lft.to/lastmile_qr_scan", "android": "https://dc.lft.to/lastmile_qr_scan"}, "name": "358f6119af9185290e866c6fbab4109e", "is_disabled": 0, "fusion_lon": 0.0, "fusion_lat": 0.0, "lon": -77.04360016666666, "bike_id": "358f6119af9185290e866c6fbab4109e", "lat": 38.90266283333333, "is_reserved": 0, "type": "electric_scooter"}, {"rental_uris": {"ios": "https://dc.lft.to/lastmile_qr_scan", "android": "https://dc.lft.to/lastmile_qr_scan"}, "name": "0d2072e6653d9799a272fcb428743bfd", "is_disabled": 0, "fusion_lon": 0.0, "fusion_lat": 0.0, "lon": -77.035835, "bike_id": "0d2072e6653d9799a272fcb428743bfd", "lat": 38.99227883333333, "is_reserved": 0, "type": "electric_bike"}, {"rental_uris": {"ios": "https://dc.lft.to/lastmile_qr_scan", "android": "https://dc.lft.to/lastmile_qr_scan"}, "name": "2dbf374ad067ebc03c6c240cc3f0e26b", "is_disabled": 0, "fusion_lon": 0.0, "fusion_lat": 0.0, "lon": -77.02117483333333, "bike_id": "2dbf374ad067ebc03c6c240cc3f0e26b", "lat": 38.917378666666664, "is_reserved": 0, "type": "electric_scooter"}, {"rental_uris": {"ios": "https://dc.lft.to/lastmile_qr_scan", "android": "https://dc.lft.to/lastmile_qr_scan"}, "name": "c0d9327a20a343aa5814abf37aaa6026", "is_disabled": 0, "fusion_lon": 0.0, "fusion_lat": 0.0, "lon": -77.00278, "bike_id": "c0d9327a20a343aa5814abf37aaa6026", "lat": 38.838139166666664, "is_reserved": 0, "type": "electric_bike"}, {"rental_uris": {"ios": "https://dc.lft.to/lastmile_qr_scan", "android": "https://dc.lft.to/lastmile_qr_scan"}, "name": "42c3e012932ffb1f0e147db3d00595ce", "is_disabled": 0, "fusion_lon": 0.0, "fusion_lat": 0.0, "lon": -77.00376966666667, "bike_id": "42c3e012932ffb1f0e147db3d00595ce", "lat": 38.83604966666667, "is_reserved": 0, "type": "electric_bike"}, {"rental_uris": {"ios": "https://dc.lft.to/lastmile_qr_scan", "android": "https://dc.lft.to/lastmile_qr_scan"}, "name": "8ce84a5b9bfa60fc45f39a419aa73559", "is_disabled": 0, "fusion_lon": 0.0, "fusion_lat": 0.0, "lon": -77.02942683333333, "bike_id": "8ce84a5b9bfa60fc45f39a419aa73559", "lat": 38.904926333333336, "is_reserved": 0, "type": "electric_scooter"}, {"rental_uris": {"ios": "https://dc.lft.to/lastmile_qr_scan", "android": "https://dc.lft.to/lastmile_qr_scan"}, "name": "3fc689f315923cfe61e138c87e21e4c8", "is_disabled": 0, "fusion_lon": 0.0, "fusion_lat": 0.0, "lon": -77.0260825, "bike_id": "3fc689f315923cfe61e138c87e21e4c8", "lat": 38.901802, "is_reserved": 0, "type": "electric_scooter"}, {"rental_uris": {"ios": "https://dc.lft.to/lastmile_qr_scan", "android": "https://dc.lft.to/lastmile_qr_scan"}, "name": "1d140c4a1cc4661acffcaf31608051bd", "is_disabled": 0, "fusion_lon": 0.0, "fusion_lat": 0.0, "lon": -77.0730815, "bike_id": "1d140c4a1cc4661acffcaf31608051bd", "lat": 38.91195666666667, "is_reserved": 0, "type": "electric_scooter"}, {"rental_uris": {"ios": "https://dc.lft.to/lastmile_qr_scan", "android": "https://dc.lft.to/lastmile_qr_scan"}, "name": "a4da240d4c9348cd53b6ffb872fe18d3", "is_disabled": 0, "fusion_lon": 0.0, "fusion_lat": 0.0, "lon": -77.02464316666666, "bike_id": "a4da240d4c9348cd53b6ffb872fe18d3", "lat": 38.89840733333333, "is_reserved": 0, "type": "electric_scooter"}, {"rental_uris": {"ios": "https://dc.lft.to/lastmile_qr_scan", "android": "https://dc.lft.to/lastmile_qr_scan"}, "name": "bf045c023a8e92f52081e1a511fcd024", "is_disabled": 0, "fusion_lon": 0.0, "fusion_lat": 0.0, "lon": -77.0316965, "bike_id": "bf045c023a8e92f52081e1a511fcd024", "lat": 38.903741833333335, "is_reserved": 0, "type": "electric_scooter"}, {"rental_uris": {"ios": "https://dc.lft.to/lastmile_qr_scan", "android": "https://dc.lft.to/lastmile_qr_scan"}, "name": "ae051490b08fa3f2c31a792a59b36ff7", "is_disabled": 0, "fusion_lon": 0.0, "fusion_lat": 0.0, "lon": -77.0269385, "bike_id": "ae051490b08fa3f2c31a792a59b36ff7", "lat": 38.89743216666667, "is_reserved": 0, "type": "electric_scooter"}, {"rental_uris": {"ios": "https://dc.lft.to/lastmile_qr_scan", "android": "https://dc.lft.to/lastmile_qr_scan"}, "name": "d12bcceb8777d9ee3af339f00d41304e", "is_disabled": 0, "fusion_lon": 0.0, "fusion_lat": 0.0, "lon": -77.027505, "bike_id": "d12bcceb8777d9ee3af339f00d41304e", "lat": 38.96647633333333, "is_reserved": 0, "type": "electric_scooter"}, {"rental_uris": {"ios": "https://dc.lft.to/lastmile_qr_scan", "android": "https://dc.lft.to/lastmile_qr_scan"}, "name": "34821d6dac14461e73ee9977bfa13afb", "is_disabled": 0, "fusion_lon": 0.0, "fusion_lat": 0.0, "lon": -77.01575233333334, "bike_id": "34821d6dac14461e73ee9977bfa13afb", "lat": 38.88521033333333, "is_reserved": 0, "type": "electric_scooter"}, {"rental_uris": {"ios": "https://dc.lft.to/lastmile_qr_scan", "android": "https://dc.lft.to/lastmile_qr_scan"}, "name": "be896cb6f6149cb0ba0134d7ad3bb3ea", "is_disabled": 0, "fusion_lon": 0.0, "fusion_lat": 0.0, "lon": -77.00138316666667, "bike_id": "be896cb6f6149cb0ba0134d7ad3bb3ea", "lat": 38.88436, "is_reserved": 0, "type": "electric_scooter"}, {"rental_uris": {"ios": "https://dc.lft.to/lastmile_qr_scan", "android": "https://dc.lft.to/lastmile_qr_scan"}, "name": "9cec90dbd5007dc977c9316ad9707dbb", "is_disabled": 0, "fusion_lon": 0.0, "fusion_lat": 0.0, "lon": -76.99150616666667, "bike_id": "9cec90dbd5007dc977c9316ad9707dbb", "lat": 38.891611166666664, "is_reserved": 0, "type": "electric_scooter"}, {"rental_uris": {"ios": "https://dc.lft.to/lastmile_qr_scan", "android": "https://dc.lft.to/lastmile_qr_scan"}, "name": "4700c5de2fc7686515644a3a9b72a989", "is_disabled": 0, "fusion_lon": 0.0, "fusion_lat": 0.0, "lon": -77.04008566666667, "bike_id": "4700c5de2fc7686515644a3a9b72a989", "lat": 38.909952833333335, "is_reserved": 0, "type": "electric_scooter"}, {"rental_uris": {"ios": "https://dc.lft.to/lastmile_qr_scan", "android": "https://dc.lft.to/lastmile_qr_scan"}, "name": "7ac32a30e27f0ef7137a3a5593e4c7a4", "is_disabled": 0, "fusion_lon": 0.0, "fusion_lat": 0.0, "lon": -77.013884, "bike_id": "7ac32a30e27f0ef7137a3a5593e4c7a4", "lat": 38.87892033333333, "is_reserved": 0, "type": "electric_scooter"}, {"rental_uris": {"ios": "https://dc.lft.to/lastmile_qr_scan", "android": "https://dc.lft.to/lastmile_qr_scan"}, "name": "5c68b62207d5e4d05e044a05f0f46815", "is_disabled": 0, "fusion_lon": 0.0, "fusion_lat": 0.0, "lon": -77.0364155, "bike_id": "5c68b62207d5e4d05e044a05f0f46815", "lat": 38.903078666666666, "is_reserved": 0, "type": "electric_scooter"}, {"rental_uris": {"ios": "https://dc.lft.to/lastmile_qr_scan", "android": "https://dc.lft.to/lastmile_qr_scan"}, "name": "52d3676dc805341308fb1afc701ffe6e", "is_disabled": 0, "fusion_lon": 0.0, "fusion_lat": 0.0, "lon": -77.018015, "bike_id": "52d3676dc805341308fb1afc701ffe6e", "lat": 38.919416, "is_reserved": 0, "type": "electric_scooter"}, {"rental_uris": {"ios": "https://dc.lft.to/lastmile_qr_scan", "android": "https://dc.lft.to/lastmile_qr_scan"}, "name": "eca1357ea85161dd8032e97abf92383e", "is_disabled": 0, "fusion_lon": 0.0, "fusion_lat": 0.0, "lon": -77.02601833333334, "bike_id": "eca1357ea85161dd8032e97abf92383e", "lat": 38.902318, "is_reserved": 0, "type": "electric_scooter"}, {"rental_uris": {"ios": "https://dc.lft.to/lastmile_qr_scan", "android": "https://dc.lft.to/lastmile_qr_scan"}, "name": "e5b4644f81ed453a6ddbb1b1409c2965", "is_disabled": 0, "fusion_lon": 0.0, "fusion_lat": 0.0, "lon": -77.052514, "bike_id": "e5b4644f81ed453a6ddbb1b1409c2965", "lat": 38.92496283333333, "is_reserved": 0, "type": "electric_scooter"}, {"rental_uris": {"ios": "https://dc.lft.to/lastmile_qr_scan", "android": "https://dc.lft.to/lastmile_qr_scan"}, "name": "5a6c06d9d8ae7cf2b1ef46f7a8c8e352", "is_disabled": 0, "fusion_lon": 0.0, "fusion_lat": 0.0, "lon": -76.97743483333333, "bike_id": "5a6c06d9d8ae7cf2b1ef46f7a8c8e352", "lat": 38.864890333333335, "is_reserved": 0, "type": "electric_bike"}, {"rental_uris": {"ios": "https://dc.lft.to/lastmile_qr_scan", "android": "https://dc.lft.to/lastmile_qr_scan"}, "name": "167339c8efe069d8dc87376c542bb9f7", "is_disabled": 0, "fusion_lon": 0.0, "fusion_lat": 0.0, "lon": -76.93633316666667, "bike_id": "167339c8efe069d8dc87376c542bb9f7", "lat": 38.883526833333335, "is_reserved": 0, "type": "electric_scooter"}, {"rental_uris": {"ios": "https://dc.lft.to/lastmile_qr_scan", "android": "https://dc.lft.to/lastmile_qr_scan"}, "name": "09565d1c7b9599b8772e4b3a3292c2d6", "is_disabled": 0, "fusion_lon": 0.0, "fusion_lat": 0.0, "lon": -77.04183483333334, "bike_id": "09565d1c7b9599b8772e4b3a3292c2d6", "lat": 38.920359166666664, "is_reserved": 0, "type": "electric_scooter"}, {"rental_uris": {"ios": "https://dc.lft.to/lastmile_qr_scan", "android": "https://dc.lft.to/lastmile_qr_scan"}, "name": "8ec7a02b32a63d2a00bf6d6de21e83ff", "is_disabled": 0, "fusion_lon": 0.0, "fusion_lat": 0.0, "lon": -76.99374333333333, "bike_id": "8ec7a02b32a63d2a00bf6d6de21e83ff", "lat": 38.990946, "is_reserved": 0, "type": "electric_bike"}, {"rental_uris": {"ios": "https://dc.lft.to/lastmile_qr_scan", "android": "https://dc.lft.to/lastmile_qr_scan"}, "name": "67ef6f1d2197c229061c2862a3f81280", "is_disabled": 0, "fusion_lon": 0.0, "fusion_lat": 0.0, "lon": -77.021647, "bike_id": "67ef6f1d2197c229061c2862a3f81280", "lat": 38.92611016666667, "is_reserved": 0, "type": "electric_scooter"}, {"rental_uris": {"ios": "https://dc.lft.to/lastmile_qr_scan", "android": "https://dc.lft.to/lastmile_qr_scan"}, "name": "6f2c1a36a9031d4b0731d19e59724741", "is_disabled": 0, "fusion_lon": 0.0, "fusion_lat": 0.0, "lon": -77.03189283333333, "bike_id": "6f2c1a36a9031d4b0731d19e59724741", "lat": 38.89857333333333, "is_reserved": 0, "type": "electric_scooter"}, {"rental_uris": {"ios": "https://dc.lft.to/lastmile_qr_scan", "android": "https://dc.lft.to/lastmile_qr_scan"}, "name": "ff5689b65629a1ae16e30c6fc3c207d2", "is_disabled": 0, "fusion_lon": 0.0, "fusion_lat": 0.0, "lon": -77.025962, "bike_id": "ff5689b65629a1ae16e30c6fc3c207d2", "lat": 38.89883733333333, "is_reserved": 0, "type": "electric_scooter"}, {"rental_uris": {"ios": "https://dc.lft.to/lastmile_qr_scan", "android": "https://dc.lft.to/lastmile_qr_scan"}, "name": "1e79251f3befadd563b66340bf1e048c", "is_disabled": 0, "fusion_lon": 0.0, "fusion_lat": 0.0, "lon": -77.04002416666667, "bike_id": "1e79251f3befadd563b66340bf1e048c", "lat": 38.9342485, "is_reserved": 0, "type": "electric_scooter"}, {"rental_uris": {"ios": "https://dc.lft.to/lastmile_qr_scan", "android": "https://dc.lft.to/lastmile_qr_scan"}, "name": "594daadc37947333c569f699e2fc8a47", "is_disabled": 0, "fusion_lon": 0.0, "fusion_lat": 0.0, "lon": -77.02396233333333, "bike_id": "594daadc37947333c569f699e2fc8a47", "lat": 38.91994733333333, "is_reserved": 0, "type": "electric_scooter"}, {"rental_uris": {"ios": "https://dc.lft.to/lastmile_qr_scan", "android": "https://dc.lft.to/lastmile_qr_scan"}, "name": "752427fde6f7293dc1ea89fdc8148a4b", "is_disabled": 0, "fusion_lon": 0.0, "fusion_lat": 0.0, "lon": -76.98743966666666, "bike_id": "752427fde6f7293dc1ea89fdc8148a4b", "lat": 38.87963283333333, "is_reserved": 0, "type": "electric_scooter"}, {"rental_uris": {"ios": "https://dc.lft.to/lastmile_qr_scan", "android": "https://dc.lft.to/lastmile_qr_scan"}, "name": "4eb426faeb974403c66b1228a7bce92f", "is_disabled": 0, "fusion_lon": 0.0, "fusion_lat": 0.0, "lon": -76.9463715, "bike_id": "4eb426faeb974403c66b1228a7bce92f", "lat": 38.898434, "is_reserved": 0, "type": "electric_scooter"}, {"rental_uris": {"ios": "https://dc.lft.to/lastmile_qr_scan", "android": "https://dc.lft.to/lastmile_qr_scan"}, "name": "eee506feda6f3fffc6dd7a687996a5ae", "is_disabled": 0, "fusion_lon": 0.0, "fusion_lat": 0.0, "lon": -77.043414, "bike_id": "eee506feda6f3fffc6dd7a687996a5ae", "lat": 38.90014683333333, "is_reserved": 0, "type": "electric_scooter"}, {"rental_uris": {"ios": "https://dc.lft.to/lastmile_qr_scan", "android": "https://dc.lft.to/lastmile_qr_scan"}, "name": "738e492bfbb307f6ed5ae9224562964e", "is_disabled": 0, "fusion_lon": 0.0, "fusion_lat": 0.0, "lon": -76.9373245, "bike_id": "738e492bfbb307f6ed5ae9224562964e", "lat": 38.890148333333336, "is_reserved": 0, "type": "electric_scooter"}, {"rental_uris": {"ios": "https://dc.lft.to/lastmile_qr_scan", "android": "https://dc.lft.to/lastmile_qr_scan"}, "name": "c2832fb3c268ccec45ff7a8e61564679", "is_disabled": 0, "fusion_lon": 0.0, "fusion_lat": 0.0, "lon": -77.06594266666667, "bike_id": "c2832fb3c268ccec45ff7a8e61564679", "lat": 38.948188, "is_reserved": 0, "type": "electric_scooter"}, {"rental_uris": {"ios": "https://dc.lft.to/lastmile_qr_scan", "android": "https://dc.lft.to/lastmile_qr_scan"}, "name": "633c3dc8d5e4a020d060126361fce255", "is_disabled": 0, "fusion_lon": 0.0, "fusion_lat": 0.0, "lon": -76.98625283333334, "bike_id": "633c3dc8d5e4a020d060126361fce255", "lat": 38.90585633333333, "is_reserved": 0, "type": "electric_scooter"}, {"rental_uris": {"ios": "https://dc.lft.to/lastmile_qr_scan", "android": "https://dc.lft.to/lastmile_qr_scan"}, "name": "ff01ad19bb057f4af56624ffa256d80d", "is_disabled": 0, "fusion_lon": 0.0, "fusion_lat": 0.0, "lon": -77.06827, "bike_id": "ff01ad19bb057f4af56624ffa256d80d", "lat": 38.918009833333336, "is_reserved": 0, "type": "electric_scooter"}, {"rental_uris": {"ios": "https://dc.lft.to/lastmile_qr_scan", "android": "https://dc.lft.to/lastmile_qr_scan"}, "name": "2480cb52e44d49994db5c01e13eb42bd", "is_disabled": 0, "fusion_lon": 0.0, "fusion_lat": 0.0, "lon": -77.0417505, "bike_id": "2480cb52e44d49994db5c01e13eb42bd", "lat": 38.91721783333333, "is_reserved": 0, "type": "electric_scooter"}, {"rental_uris": {"ios": "https://dc.lft.to/lastmile_qr_scan", "android": "https://dc.lft.to/lastmile_qr_scan"}, "name": "e0d961bd5a2c026a923736d6fa270d7d", "is_disabled": 0, "fusion_lon": 0.0, "fusion_lat": 0.0, "lon": -77.054229, "bike_id": "e0d961bd5a2c026a923736d6fa270d7d", "lat": 38.98523566666667, "is_reserved": 0, "type": "electric_scooter"}, {"rental_uris": {"ios": "https://dc.lft.to/lastmile_qr_scan", "android": "https://dc.lft.to/lastmile_qr_scan"}, "name": "f08122be266e3a4a468927b14b32c614", "is_disabled": 0, "fusion_lon": 0.0, "fusion_lat": 0.0, "lon": -77.0412165, "bike_id": "f08122be266e3a4a468927b14b32c614", "lat": 38.932247333333336, "is_reserved": 0, "type": "electric_scooter"}, {"rental_uris": {"ios": "https://dc.lft.to/lastmile_qr_scan", "android": "https://dc.lft.to/lastmile_qr_scan"}, "name": "2068c46e81d3c472937f374441df1782", "is_disabled": 0, "fusion_lon": 0.0, "fusion_lat": 0.0, "lon": -77.02606266666666, "bike_id": "2068c46e81d3c472937f374441df1782", "lat": 38.9061955, "is_reserved": 0, "type": "electric_scooter"}, {"rental_uris": {"ios": "https://dc.lft.to/lastmile_qr_scan", "android": "https://dc.lft.to/lastmile_qr_scan"}, "name": "77dfcdd1afd2661856850675af6809cf", "is_disabled": 0, "fusion_lon": 0.0, "fusion_lat": 0.0, "lon": -77.01885666666666, "bike_id": "77dfcdd1afd2661856850675af6809cf", "lat": 38.897478, "is_reserved": 0, "type": "electric_scooter"}, {"rental_uris": {"ios": "https://dc.lft.to/lastmile_qr_scan", "android": "https://dc.lft.to/lastmile_qr_scan"}, "name": "83fab2ee4a6730d67d1239c6c545795d", "is_disabled": 0, "fusion_lon": 0.0, "fusion_lat": 0.0, "lon": -76.93189866666667, "bike_id": "83fab2ee4a6730d67d1239c6c545795d", "lat": 38.898542166666665, "is_reserved": 0, "type": "electric_scooter"}, {"rental_uris": {"ios": "https://dc.lft.to/lastmile_qr_scan", "android": "https://dc.lft.to/lastmile_qr_scan"}, "name": "0c33e33672aa89bd0576736db45c4f42", "is_disabled": 0, "fusion_lon": 0.0, "fusion_lat": 0.0, "lon": -77.02980633333334, "bike_id": "0c33e33672aa89bd0576736db45c4f42", "lat": 38.899538, "is_reserved": 0, "type": "electric_scooter"}, {"rental_uris": {"ios": "https://dc.lft.to/lastmile_qr_scan", "android": "https://dc.lft.to/lastmile_qr_scan"}, "name": "43fcdb635854e813e96310f09ab941d8", "is_disabled": 0, "fusion_lon": 0.0, "fusion_lat": 0.0, "lon": -77.05930333333333, "bike_id": "43fcdb635854e813e96310f09ab941d8", "lat": 38.942980666666664, "is_reserved": 0, "type": "electric_scooter"}, {"rental_uris": {"ios": "https://dc.lft.to/lastmile_qr_scan", "android": "https://dc.lft.to/lastmile_qr_scan"}, "name": "c5fb8b3dfdf1e01d9af4869149a24a7d", "is_disabled": 0, "fusion_lon": 0.0, "fusion_lat": 0.0, "lon": -77.046746, "bike_id": "c5fb8b3dfdf1e01d9af4869149a24a7d", "lat": 38.89556833333333, "is_reserved": 0, "type": "electric_scooter"}, {"rental_uris": {"ios": "https://dc.lft.to/lastmile_qr_scan", "android": "https://dc.lft.to/lastmile_qr_scan"}, "name": "581c8261bebe38d605aa5a4db4b950fd", "is_disabled": 0, "fusion_lon": 0.0, "fusion_lat": 0.0, "lon": -77.02732383333333, "bike_id": "581c8261bebe38d605aa5a4db4b950fd", "lat": 38.89592066666667, "is_reserved": 0, "type": "electric_scooter"}, {"rental_uris": {"ios": "https://dc.lft.to/lastmile_qr_scan", "android": "https://dc.lft.to/lastmile_qr_scan"}, "name": "eb931424be4795c086ba275598529980", "is_disabled": 0, "fusion_lon": 0.0, "fusion_lat": 0.0, "lon": -77.029353, "bike_id": "eb931424be4795c086ba275598529980", "lat": 38.91687133333333, "is_reserved": 0, "type": "electric_scooter"}, {"rental_uris": {"ios": "https://dc.lft.to/lastmile_qr_scan", "android": "https://dc.lft.to/lastmile_qr_scan"}, "name": "ffc97e17c7c673753837ae08e09031ae", "is_disabled": 0, "fusion_lon": 0.0, "fusion_lat": 0.0, "lon": -77.03824933333334, "bike_id": "ffc97e17c7c673753837ae08e09031ae", "lat": 38.90574066666667, "is_reserved": 0, "type": "electric_scooter"}, {"rental_uris": {"ios": "https://dc.lft.to/lastmile_qr_scan", "android": "https://dc.lft.to/lastmile_qr_scan"}, "name": "59d1b4e0c76504fe861c8e1ffe507c19", "is_disabled": 0, "fusion_lon": 0.0, "fusion_lat": 0.0, "lon": -77.0238945, "bike_id": "59d1b4e0c76504fe861c8e1ffe507c19", "lat": 38.915687166666665, "is_reserved": 0, "type": "electric_scooter"}, {"rental_uris": {"ios": "https://dc.lft.to/lastmile_qr_scan", "android": "https://dc.lft.to/lastmile_qr_scan"}, "name": "75c10aaaa29a74466d70990d2080348f", "is_disabled": 0, "fusion_lon": 0.0, "fusion_lat": 0.0, "lon": -77.04420983333333, "bike_id": "75c10aaaa29a74466d70990d2080348f", "lat": 38.896248, "is_reserved": 0, "type": "electric_scooter"}, {"rental_uris": {"ios": "https://dc.lft.to/lastmile_qr_scan", "android": "https://dc.lft.to/lastmile_qr_scan"}, "name": "9a1c96b2fef774b0723282c3f79d3588", "is_disabled": 0, "fusion_lon": 0.0, "fusion_lat": 0.0, "lon": -77.0186915, "bike_id": "9a1c96b2fef774b0723282c3f79d3588", "lat": 38.92135183333333, "is_reserved": 0, "type": "electric_scooter"}, {"rental_uris": {"ios": "https://dc.lft.to/lastmile_qr_scan", "android": "https://dc.lft.to/lastmile_qr_scan"}, "name": "767901f0dd4435e53511d8196f081366", "is_disabled": 0, "fusion_lon": 0.0, "fusion_lat": 0.0, "lon": -77.07315683333333, "bike_id": "767901f0dd4435e53511d8196f081366", "lat": 38.90666566666667, "is_reserved": 0, "type": "electric_scooter"}, {"rental_uris": {"ios": "https://dc.lft.to/lastmile_qr_scan", "android": "https://dc.lft.to/lastmile_qr_scan"}, "name": "c6437ad88c23e23b9a0e302f203d02ae", "is_disabled": 0, "fusion_lon": 0.0, "fusion_lat": 0.0, "lon": -77.03181466666666, "bike_id": "c6437ad88c23e23b9a0e302f203d02ae", "lat": 38.9090235, "is_reserved": 0, "type": "electric_scooter"}, {"rental_uris": {"ios": "https://dc.lft.to/lastmile_qr_scan", "android": "https://dc.lft.to/lastmile_qr_scan"}, "name": "3a22eb98c57fba4e1437ba0280eb39ac", "is_disabled": 0, "fusion_lon": 0.0, "fusion_lat": 0.0, "lon": -77.0406725, "bike_id": "3a22eb98c57fba4e1437ba0280eb39ac", "lat": 38.923878, "is_reserved": 0, "type": "electric_scooter"}, {"rental_uris": {"ios": "https://dc.lft.to/lastmile_qr_scan", "android": "https://dc.lft.to/lastmile_qr_scan"}, "name": "39cbda2cc5b58a9526ad0b9b62fffc92", "is_disabled": 0, "fusion_lon": 0.0, "fusion_lat": 0.0, "lon": -77.04773883333333, "bike_id": "39cbda2cc5b58a9526ad0b9b62fffc92", "lat": 38.8936265, "is_reserved": 0, "type": "electric_scooter"}, {"rental_uris": {"ios": "https://dc.lft.to/lastmile_qr_scan", "android": "https://dc.lft.to/lastmile_qr_scan"}, "name": "3129eef4ec59d435a2299b70a7ce4018", "is_disabled": 0, "fusion_lon": 0.0, "fusion_lat": 0.0, "lon": -77.02291, "bike_id": "3129eef4ec59d435a2299b70a7ce4018", "lat": 38.92334433333333, "is_reserved": 0, "type": "electric_scooter"}, {"rental_uris": {"ios": "https://dc.lft.to/lastmile_qr_scan", "android": "https://dc.lft.to/lastmile_qr_scan"}, "name": "499daa7a735d8ce0c46641611801dc20", "is_disabled": 0, "fusion_lon": 0.0, "fusion_lat": 0.0, "lon": -77.033605, "bike_id": "499daa7a735d8ce0c46641611801dc20", "lat": 38.900240833333335, "is_reserved": 0, "type": "electric_scooter"}, {"rental_uris": {"ios": "https://dc.lft.to/lastmile_qr_scan", "android": "https://dc.lft.to/lastmile_qr_scan"}, "name": "523daffb2810c798f5636551b4848d6a", "is_disabled": 0, "fusion_lon": 0.0, "fusion_lat": 0.0, "lon": -77.0284595, "bike_id": "523daffb2810c798f5636551b4848d6a", "lat": 38.94497283333333, "is_reserved": 0, "type": "electric_scooter"}, {"rental_uris": {"ios": "https://dc.lft.to/lastmile_qr_scan", "android": "https://dc.lft.to/lastmile_qr_scan"}, "name": "24a2f38e3da7cf287ff0036e20513d2d", "is_disabled": 0, "fusion_lon": 0.0, "fusion_lat": 0.0, "lon": -77.00812616666667, "bike_id": "24a2f38e3da7cf287ff0036e20513d2d", "lat": 38.916943, "is_reserved": 0, "type": "electric_scooter"}, {"rental_uris": {"ios": "https://dc.lft.to/lastmile_qr_scan", "android": "https://dc.lft.to/lastmile_qr_scan"}, "name": "e195ad75443807b20b5e1b7739ff1c1e", "is_disabled": 0, "fusion_lon": 0.0, "fusion_lat": 0.0, "lon": -77.033431, "bike_id": "e195ad75443807b20b5e1b7739ff1c1e", "lat": 38.90249216666667, "is_reserved": 0, "type": "electric_scooter"}, {"rental_uris": {"ios": "https://dc.lft.to/lastmile_qr_scan", "android": "https://dc.lft.to/lastmile_qr_scan"}, "name": "c5400aa4a087242d00dbb0ef5ccaa45f", "is_disabled": 0, "fusion_lon": 0.0, "fusion_lat": 0.0, "lon": -77.02302466666667, "bike_id": "c5400aa4a087242d00dbb0ef5ccaa45f", "lat": 38.920566666666666, "is_reserved": 0, "type": "electric_scooter"}, {"rental_uris": {"ios": "https://dc.lft.to/lastmile_qr_scan", "android": "https://dc.lft.to/lastmile_qr_scan"}, "name": "98a6ac864cf6cf33890d237fe32ecf19", "is_disabled": 0, "fusion_lon": 0.0, "fusion_lat": 0.0, "lon": -77.0225165, "bike_id": "98a6ac864cf6cf33890d237fe32ecf19", "lat": 38.8961095, "is_reserved": 0, "type": "electric_scooter"}, {"rental_uris": {"ios": "https://dc.lft.to/lastmile_qr_scan", "android": "https://dc.lft.to/lastmile_qr_scan"}, "name": "d96f4e8cb2b9e326e2e322db4c01ba94", "is_disabled": 0, "fusion_lon": 0.0, "fusion_lat": 0.0, "lon": -77.02647833333333, "bike_id": "d96f4e8cb2b9e326e2e322db4c01ba94", "lat": 38.8812495, "is_reserved": 0, "type": "electric_scooter"}, {"rental_uris": {"ios": "https://dc.lft.to/lastmile_qr_scan", "android": "https://dc.lft.to/lastmile_qr_scan"}, "name": "c93ad841a7520a491eebf3232558ad4e", "is_disabled": 0, "fusion_lon": 0.0, "fusion_lat": 0.0, "lon": -77.02674483333334, "bike_id": "c93ad841a7520a491eebf3232558ad4e", "lat": 38.9217045, "is_reserved": 0, "type": "electric_scooter"}, {"rental_uris": {"ios": "https://dc.lft.to/lastmile_qr_scan", "android": "https://dc.lft.to/lastmile_qr_scan"}, "name": "8961737079b5c4bf0e726c9f932943d4", "is_disabled": 0, "fusion_lon": 0.0, "fusion_lat": 0.0, "lon": -77.03915383333333, "bike_id": "8961737079b5c4bf0e726c9f932943d4", "lat": 38.899047833333334, "is_reserved": 0, "type": "electric_scooter"}, {"rental_uris": {"ios": "https://dc.lft.to/lastmile_qr_scan", "android": "https://dc.lft.to/lastmile_qr_scan"}, "name": "5fe2266d1392d1ecfd92b045b9fe39fd", "is_disabled": 0, "fusion_lon": 0.0, "fusion_lat": 0.0, "lon": -76.98871816666667, "bike_id": "5fe2266d1392d1ecfd92b045b9fe39fd", "lat": 38.93472883333333, "is_reserved": 0, "type": "electric_scooter"}, {"rental_uris": {"ios": "https://dc.lft.to/lastmile_qr_scan", "android": "https://dc.lft.to/lastmile_qr_scan"}, "name": "3dff7cdf8383dc1161f73eecbc7a5f5b", "is_disabled": 0, "fusion_lon": 0.0, "fusion_lat": 0.0, "lon": -77.034597, "bike_id": "3dff7cdf8383dc1161f73eecbc7a5f5b", "lat": 38.90733516666667, "is_reserved": 0, "type": "electric_scooter"}, {"rental_uris": {"ios": "https://dc.lft.to/lastmile_qr_scan", "android": "https://dc.lft.to/lastmile_qr_scan"}, "name": "0074498b450ba94e68ab49a1eae9c112", "is_disabled": 0, "fusion_lon": 0.0, "fusion_lat": 0.0, "lon": -76.9722315, "bike_id": "0074498b450ba94e68ab49a1eae9c112", "lat": 38.9003485, "is_reserved": 0, "type": "electric_bike"}, {"rental_uris": {"ios": "https://dc.lft.to/lastmile_qr_scan", "android": "https://dc.lft.to/lastmile_qr_scan"}, "name": "6dfc3bb5934088919e9c62c715844405", "is_disabled": 0, "fusion_lon": 0.0, "fusion_lat": 0.0, "lon": -77.0210925, "bike_id": "6dfc3bb5934088919e9c62c715844405", "lat": 38.9274945, "is_reserved": 0, "type": "electric_scooter"}, {"rental_uris": {"ios": "https://dc.lft.to/lastmile_qr_scan", "android": "https://dc.lft.to/lastmile_qr_scan"}, "name": "c56986f68b0b1e27f4590bd172986a1b", "is_disabled": 0, "fusion_lon": 0.0, "fusion_lat": 0.0, "lon": -76.9811455, "bike_id": "c56986f68b0b1e27f4590bd172986a1b", "lat": 38.945697, "is_reserved": 0, "type": "electric_bike"}, {"rental_uris": {"ios": "https://dc.lft.to/lastmile_qr_scan", "android": "https://dc.lft.to/lastmile_qr_scan"}, "name": "6ca7724ce8e932074c821d584096392a", "is_disabled": 0, "fusion_lon": 0.0, "fusion_lat": 0.0, "lon": -77.00913116666666, "bike_id": "6ca7724ce8e932074c821d584096392a", "lat": 38.895561666666666, "is_reserved": 0, "type": "electric_scooter"}, {"rental_uris": {"ios": "https://dc.lft.to/lastmile_qr_scan", "android": "https://dc.lft.to/lastmile_qr_scan"}, "name": "2379a634cf4a60458651e4259a017bad", "is_disabled": 0, "fusion_lon": 0.0, "fusion_lat": 0.0, "lon": -77.02846466666666, "bike_id": "2379a634cf4a60458651e4259a017bad", "lat": 38.9449515, "is_reserved": 0, "type": "electric_scooter"}, {"rental_uris": {"ios": "https://dc.lft.to/lastmile_qr_scan", "android": "https://dc.lft.to/lastmile_qr_scan"}, "name": "321d1c115bd075f85ba98e29167d080e", "is_disabled": 0, "fusion_lon": 0.0, "fusion_lat": 0.0, "lon": -77.04379733333333, "bike_id": "321d1c115bd075f85ba98e29167d080e", "lat": 38.92069216666667, "is_reserved": 0, "type": "electric_scooter"}, {"rental_uris": {"ios": "https://dc.lft.to/lastmile_qr_scan", "android": "https://dc.lft.to/lastmile_qr_scan"}, "name": "62437fb0e57af83459cce345cbf083c4", "is_disabled": 0, "fusion_lon": 0.0, "fusion_lat": 0.0, "lon": -77.0389065, "bike_id": "62437fb0e57af83459cce345cbf083c4", "lat": 38.920433833333334, "is_reserved": 0, "type": "electric_scooter"}, {"rental_uris": {"ios": "https://dc.lft.to/lastmile_qr_scan", "android": "https://dc.lft.to/lastmile_qr_scan"}, "name": "e6db26952874192048f07f5e0f7f05e9", "is_disabled": 0, "fusion_lon": 0.0, "fusion_lat": 0.0, "lon": -77.0230115, "bike_id": "e6db26952874192048f07f5e0f7f05e9", "lat": 38.9127225, "is_reserved": 0, "type": "electric_scooter"}, {"rental_uris": {"ios": "https://dc.lft.to/lastmile_qr_scan", "android": "https://dc.lft.to/lastmile_qr_scan"}, "name": "dc79dc0a26c7ec3b7e2359e3ec41d481", "is_disabled": 0, "fusion_lon": 0.0, "fusion_lat": 0.0, "lon": -77.06846916666667, "bike_id": "dc79dc0a26c7ec3b7e2359e3ec41d481", "lat": 38.91731333333333, "is_reserved": 0, "type": "electric_scooter"}, {"rental_uris": {"ios": "https://dc.lft.to/lastmile_qr_scan", "android": "https://dc.lft.to/lastmile_qr_scan"}, "name": "e3a537c23361505966ae8fa013f1e871", "is_disabled": 0, "fusion_lon": 0.0, "fusion_lat": 0.0, "lon": -77.04027633333334, "bike_id": "e3a537c23361505966ae8fa013f1e871", "lat": 38.898543833333335, "is_reserved": 0, "type": "electric_scooter"}, {"rental_uris": {"ios": "https://dc.lft.to/lastmile_qr_scan", "android": "https://dc.lft.to/lastmile_qr_scan"}, "name": "645161dca38f52de9ed962998f76f81d", "is_disabled": 0, "fusion_lon": 0.0, "fusion_lat": 0.0, "lon": -77.072495, "bike_id": "645161dca38f52de9ed962998f76f81d", "lat": 38.9396345, "is_reserved": 0, "type": "electric_scooter"}, {"rental_uris": {"ios": "https://dc.lft.to/lastmile_qr_scan", "android": "https://dc.lft.to/lastmile_qr_scan"}, "name": "24d6f0424c647a3c7e499ad59ad5a0b9", "is_disabled": 0, "fusion_lon": 0.0, "fusion_lat": 0.0, "lon": -77.03025816666667, "bike_id": "24d6f0424c647a3c7e499ad59ad5a0b9", "lat": 38.96273583333333, "is_reserved": 0, "type": "electric_scooter"}, {"rental_uris": {"ios": "https://dc.lft.to/lastmile_qr_scan", "android": "https://dc.lft.to/lastmile_qr_scan"}, "name": "d4fafded4e5c937c6c91718db43e2ccf", "is_disabled": 0, "fusion_lon": 0.0, "fusion_lat": 0.0, "lon": -77.0637335, "bike_id": "d4fafded4e5c937c6c91718db43e2ccf", "lat": 38.906026833333335, "is_reserved": 0, "type": "electric_scooter"}, {"rental_uris": {"ios": "https://dc.lft.to/lastmile_qr_scan", "android": "https://dc.lft.to/lastmile_qr_scan"}, "name": "fb5540fe29cf7b86afe82d7af5a76945", "is_disabled": 0, "fusion_lon": 0.0, "fusion_lat": 0.0, "lon": -77.00909683333333, "bike_id": "fb5540fe29cf7b86afe82d7af5a76945", "lat": 38.909827666666665, "is_reserved": 0, "type": "electric_scooter"}, {"rental_uris": {"ios": "https://dc.lft.to/lastmile_qr_scan", "android": "https://dc.lft.to/lastmile_qr_scan"}, "name": "5bbd9cb0dec3ef8ac214cb92c20e4a80", "is_disabled": 0, "fusion_lon": 0.0, "fusion_lat": 0.0, "lon": -77.231777, "bike_id": "5bbd9cb0dec3ef8ac214cb92c20e4a80", "lat": 38.92894783333333, "is_reserved": 0, "type": "electric_bike"}, {"rental_uris": {"ios": "https://dc.lft.to/lastmile_qr_scan", "android": "https://dc.lft.to/lastmile_qr_scan"}, "name": "04102a35a4933f40ee45723cb7a12f9d", "is_disabled": 0, "fusion_lon": 0.0, "fusion_lat": 0.0, "lon": -77.02628733333333, "bike_id": "04102a35a4933f40ee45723cb7a12f9d", "lat": 38.89855033333333, "is_reserved": 0, "type": "electric_scooter"}, {"rental_uris": {"ios": "https://dc.lft.to/lastmile_qr_scan", "android": "https://dc.lft.to/lastmile_qr_scan"}, "name": "3c1720f555cde1cc60ef1a0ecb5e11f9", "is_disabled": 0, "fusion_lon": 0.0, "fusion_lat": 0.0, "lon": -77.0337185, "bike_id": "3c1720f555cde1cc60ef1a0ecb5e11f9", "lat": 38.901190666666665, "is_reserved": 0, "type": "electric_scooter"}, {"rental_uris": {"ios": "https://dc.lft.to/lastmile_qr_scan", "android": "https://dc.lft.to/lastmile_qr_scan"}, "name": "f00121f6c5f8800cc6c3a08ee327d342", "is_disabled": 0, "fusion_lon": 0.0, "fusion_lat": 0.0, "lon": -77.07913516666666, "bike_id": "f00121f6c5f8800cc6c3a08ee327d342", "lat": 38.838308, "is_reserved": 0, "type": "electric_bike"}, {"rental_uris": {"ios": "https://dc.lft.to/lastmile_qr_scan", "android": "https://dc.lft.to/lastmile_qr_scan"}, "name": "04449f4c52ce88d71cb7751305a64cb2", "is_disabled": 0, "fusion_lon": 0.0, "fusion_lat": 0.0, "lon": -77.02289733333333, "bike_id": "04449f4c52ce88d71cb7751305a64cb2", "lat": 38.900277, "is_reserved": 0, "type": "electric_scooter"}, {"rental_uris": {"ios": "https://dc.lft.to/lastmile_qr_scan", "android": "https://dc.lft.to/lastmile_qr_scan"}, "name": "028e1f000f8458e82eb8cdce19f995d5", "is_disabled": 0, "fusion_lon": 0.0, "fusion_lat": 0.0, "lon": -77.02303383333333, "bike_id": "028e1f000f8458e82eb8cdce19f995d5", "lat": 38.920563, "is_reserved": 0, "type": "electric_scooter"}, {"rental_uris": {"ios": "https://dc.lft.to/lastmile_qr_scan", "android": "https://dc.lft.to/lastmile_qr_scan"}, "name": "9043b6e3b2d2ee6bbd31ad086e9f3653", "is_disabled": 0, "fusion_lon": 0.0, "fusion_lat": 0.0, "lon": -77.02302233333333, "bike_id": "9043b6e3b2d2ee6bbd31ad086e9f3653", "lat": 38.9205575, "is_reserved": 0, "type": "electric_scooter"}, {"rental_uris": {"ios": "https://dc.lft.to/lastmile_qr_scan", "android": "https://dc.lft.to/lastmile_qr_scan"}, "name": "09d071c0d98cbe727ec33c2c561e6071", "is_disabled": 0, "fusion_lon": 0.0, "fusion_lat": 0.0, "lon": -77.00096816666667, "bike_id": "09d071c0d98cbe727ec33c2c561e6071", "lat": 38.88642083333333, "is_reserved": 0, "type": "electric_scooter"}, {"rental_uris": {"ios": "https://dc.lft.to/lastmile_qr_scan", "android": "https://dc.lft.to/lastmile_qr_scan"}, "name": "483e6b6858a98e95556decf69efca2fa", "is_disabled": 0, "fusion_lon": 0.0, "fusion_lat": 0.0, "lon": -77.04498433333333, "bike_id": "483e6b6858a98e95556decf69efca2fa", "lat": 38.916162166666666, "is_reserved": 0, "type": "electric_scooter"}, {"rental_uris": {"ios": "https://dc.lft.to/lastmile_qr_scan", "android": "https://dc.lft.to/lastmile_qr_scan"}, "name": "33c6507c31f2a47837acda331a1595a0", "is_disabled": 0, "fusion_lon": 0.0, "fusion_lat": 0.0, "lon": -77.01454166666667, "bike_id": "33c6507c31f2a47837acda331a1595a0", "lat": 38.95814016666667, "is_reserved": 0, "type": "electric_scooter"}, {"rental_uris": {"ios": "https://dc.lft.to/lastmile_qr_scan", "android": "https://dc.lft.to/lastmile_qr_scan"}, "name": "f11dbad86fff340797c0013d51c8528a", "is_disabled": 0, "fusion_lon": 0.0, "fusion_lat": 0.0, "lon": -77.02188466666666, "bike_id": "f11dbad86fff340797c0013d51c8528a", "lat": 38.9197035, "is_reserved": 0, "type": "electric_scooter"}, {"rental_uris": {"ios": "https://dc.lft.to/lastmile_qr_scan", "android": "https://dc.lft.to/lastmile_qr_scan"}, "name": "e297f88e7f3deac68975efeaa76de61d", "is_disabled": 0, "fusion_lon": 0.0, "fusion_lat": 0.0, "lon": -77.03933133333334, "bike_id": "e297f88e7f3deac68975efeaa76de61d", "lat": 38.89897283333333, "is_reserved": 0, "type": "electric_scooter"}, {"rental_uris": {"ios": "https://dc.lft.to/lastmile_qr_scan", "android": "https://dc.lft.to/lastmile_qr_scan"}, "name": "d2cdcce42e8379815ad6616df3e7c199", "is_disabled": 0, "fusion_lon": 0.0, "fusion_lat": 0.0, "lon": -77.03711083333333, "bike_id": "d2cdcce42e8379815ad6616df3e7c199", "lat": 38.92650066666667, "is_reserved": 0, "type": "electric_scooter"}, {"rental_uris": {"ios": "https://dc.lft.to/lastmile_qr_scan", "android": "https://dc.lft.to/lastmile_qr_scan"}, "name": "a20cf58dabc312aa333528888003e5bd", "is_disabled": 0, "fusion_lon": 0.0, "fusion_lat": 0.0, "lon": -77.02970466666666, "bike_id": "a20cf58dabc312aa333528888003e5bd", "lat": 38.91718, "is_reserved": 0, "type": "electric_scooter"}, {"rental_uris": {"ios": "https://dc.lft.to/lastmile_qr_scan", "android": "https://dc.lft.to/lastmile_qr_scan"}, "name": "257573d348d15c4f0f3caa127d7dd8b6", "is_disabled": 0, "fusion_lon": 0.0, "fusion_lat": 0.0, "lon": -77.04340116666667, "bike_id": "257573d348d15c4f0f3caa127d7dd8b6", "lat": 38.9012355, "is_reserved": 0, "type": "electric_scooter"}, {"rental_uris": {"ios": "https://dc.lft.to/lastmile_qr_scan", "android": "https://dc.lft.to/lastmile_qr_scan"}, "name": "f76a29710b51c1b668f865b48480796c", "is_disabled": 0, "fusion_lon": 0.0, "fusion_lat": 0.0, "lon": -77.05903616666667, "bike_id": "f76a29710b51c1b668f865b48480796c", "lat": 38.90332766666667, "is_reserved": 0, "type": "electric_scooter"}, {"rental_uris": {"ios": "https://dc.lft.to/lastmile_qr_scan", "android": "https://dc.lft.to/lastmile_qr_scan"}, "name": "686de4fd9fbe371310b1e44f74022f39", "is_disabled": 0, "fusion_lon": 0.0, "fusion_lat": 0.0, "lon": -77.02209633333334, "bike_id": "686de4fd9fbe371310b1e44f74022f39", "lat": 38.920678333333335, "is_reserved": 0, "type": "electric_scooter"}, {"rental_uris": {"ios": "https://dc.lft.to/lastmile_qr_scan", "android": "https://dc.lft.to/lastmile_qr_scan"}, "name": "694b6493ec48bbb55a50f16ec0f83382", "is_disabled": 0, "fusion_lon": 0.0, "fusion_lat": 0.0, "lon": -77.03288883333333, "bike_id": "694b6493ec48bbb55a50f16ec0f83382", "lat": 38.928831333333335, "is_reserved": 0, "type": "electric_scooter"}, {"rental_uris": {"ios": "https://dc.lft.to/lastmile_qr_scan", "android": "https://dc.lft.to/lastmile_qr_scan"}, "name": "0b5582a85ef652660de198d15422b9f3", "is_disabled": 0, "fusion_lon": 0.0, "fusion_lat": 0.0, "lon": -77.08055983333334, "bike_id": "0b5582a85ef652660de198d15422b9f3", "lat": 38.94880766666667, "is_reserved": 0, "type": "electric_scooter"}, {"rental_uris": {"ios": "https://dc.lft.to/lastmile_qr_scan", "android": "https://dc.lft.to/lastmile_qr_scan"}, "name": "f876c26d16fe13b037b68644028c6adc", "is_disabled": 0, "fusion_lon": 0.0, "fusion_lat": 0.0, "lon": -77.113193, "bike_id": "f876c26d16fe13b037b68644028c6adc", "lat": 38.831337, "is_reserved": 0, "type": "electric_bike"}, {"rental_uris": {"ios": "https://dc.lft.to/lastmile_qr_scan", "android": "https://dc.lft.to/lastmile_qr_scan"}, "name": "20f7bb1f277c75644ca5a56bfe04eeb6", "is_disabled": 0, "fusion_lon": 0.0, "fusion_lat": 0.0, "lon": -77.01942983333333, "bike_id": "20f7bb1f277c75644ca5a56bfe04eeb6", "lat": 38.924134, "is_reserved": 0, "type": "electric_scooter"}, {"rental_uris": {"ios": "https://dc.lft.to/lastmile_qr_scan", "android": "https://dc.lft.to/lastmile_qr_scan"}, "name": "2d6014e5133e74f1cdb74bdf1f21bfff", "is_disabled": 0, "fusion_lon": 0.0, "fusion_lat": 0.0, "lon": -77.042624, "bike_id": "2d6014e5133e74f1cdb74bdf1f21bfff", "lat": 38.9129945, "is_reserved": 0, "type": "electric_scooter"}, {"rental_uris": {"ios": "https://dc.lft.to/lastmile_qr_scan", "android": "https://dc.lft.to/lastmile_qr_scan"}, "name": "d67bda92bb1ba31e35f12d1b149594b0", "is_disabled": 0, "fusion_lon": 0.0, "fusion_lat": 0.0, "lon": -77.04529083333334, "bike_id": "d67bda92bb1ba31e35f12d1b149594b0", "lat": 38.912108, "is_reserved": 0, "type": "electric_scooter"}, {"rental_uris": {"ios": "https://dc.lft.to/lastmile_qr_scan", "android": "https://dc.lft.to/lastmile_qr_scan"}, "name": "dc39f3dddf92fa236ca2bc78b4c5307f", "is_disabled": 0, "fusion_lon": 0.0, "fusion_lat": 0.0, "lon": -77.02192016666666, "bike_id": "dc39f3dddf92fa236ca2bc78b4c5307f", "lat": 38.911362, "is_reserved": 0, "type": "electric_scooter"}, {"rental_uris": {"ios": "https://dc.lft.to/lastmile_qr_scan", "android": "https://dc.lft.to/lastmile_qr_scan"}, "name": "0522f6dd7c4b8b10057aba6658e38a99", "is_disabled": 0, "fusion_lon": 0.0, "fusion_lat": 0.0, "lon": -77.016899, "bike_id": "0522f6dd7c4b8b10057aba6658e38a99", "lat": 38.906456, "is_reserved": 0, "type": "electric_scooter"}, {"rental_uris": {"ios": "https://dc.lft.to/lastmile_qr_scan", "android": "https://dc.lft.to/lastmile_qr_scan"}, "name": "f70497035f2a4719e5e29151f0919314", "is_disabled": 0, "fusion_lon": 0.0, "fusion_lat": 0.0, "lon": -77.0645305, "bike_id": "f70497035f2a4719e5e29151f0919314", "lat": 38.9488145, "is_reserved": 0, "type": "electric_scooter"}, {"rental_uris": {"ios": "https://dc.lft.to/lastmile_qr_scan", "android": "https://dc.lft.to/lastmile_qr_scan"}, "name": "89cca889bf366e6aabf9b458e79b9529", "is_disabled": 0, "fusion_lon": 0.0, "fusion_lat": 0.0, "lon": -76.92496, "bike_id": "89cca889bf366e6aabf9b458e79b9529", "lat": 38.88597766666667, "is_reserved": 0, "type": "electric_scooter"}, {"rental_uris": {"ios": "https://dc.lft.to/lastmile_qr_scan", "android": "https://dc.lft.to/lastmile_qr_scan"}, "name": "4407c0721d8718c70d03e74401cf0f3c", "is_disabled": 0, "fusion_lon": 0.0, "fusion_lat": 0.0, "lon": -77.0261355, "bike_id": "4407c0721d8718c70d03e74401cf0f3c", "lat": 38.92984916666666, "is_reserved": 0, "type": "electric_scooter"}, {"rental_uris": {"ios": "https://dc.lft.to/lastmile_qr_scan", "android": "https://dc.lft.to/lastmile_qr_scan"}, "name": "328b2c92f4f25372f00cbd7eb43d6ac8", "is_disabled": 0, "fusion_lon": 0.0, "fusion_lat": 0.0, "lon": -77.04466766666667, "bike_id": "328b2c92f4f25372f00cbd7eb43d6ac8", "lat": 38.92471283333333, "is_reserved": 0, "type": "electric_scooter"}, {"rental_uris": {"ios": "https://dc.lft.to/lastmile_qr_scan", "android": "https://dc.lft.to/lastmile_qr_scan"}, "name": "dcfadb2ee834da939b82a21617880dc7", "is_disabled": 0, "fusion_lon": 0.0, "fusion_lat": 0.0, "lon": -77.08574283333333, "bike_id": "dcfadb2ee834da939b82a21617880dc7", "lat": 38.93750333333333, "is_reserved": 0, "type": "electric_scooter"}, {"rental_uris": {"ios": "https://dc.lft.to/lastmile_qr_scan", "android": "https://dc.lft.to/lastmile_qr_scan"}, "name": "119263b0826b528db16df2387d8890e7", "is_disabled": 0, "fusion_lon": 0.0, "fusion_lat": 0.0, "lon": -77.02990266666667, "bike_id": "119263b0826b528db16df2387d8890e7", "lat": 38.942625166666666, "is_reserved": 0, "type": "electric_scooter"}, {"rental_uris": {"ios": "https://dc.lft.to/lastmile_qr_scan", "android": "https://dc.lft.to/lastmile_qr_scan"}, "name": "94fdef4523796c68327be8911c0a1c7b", "is_disabled": 0, "fusion_lon": 0.0, "fusion_lat": 0.0, "lon": -76.98370783333333, "bike_id": "94fdef4523796c68327be8911c0a1c7b", "lat": 38.9149735, "is_reserved": 0, "type": "electric_scooter"}, {"rental_uris": {"ios": "https://dc.lft.to/lastmile_qr_scan", "android": "https://dc.lft.to/lastmile_qr_scan"}, "name": "6d467b3ad6474618cd4c16886e854c8a", "is_disabled": 0, "fusion_lon": 0.0, "fusion_lat": 0.0, "lon": -77.01979366666667, "bike_id": "6d467b3ad6474618cd4c16886e854c8a", "lat": 38.887186, "is_reserved": 0, "type": "electric_scooter"}, {"rental_uris": {"ios": "https://dc.lft.to/lastmile_qr_scan", "android": "https://dc.lft.to/lastmile_qr_scan"}, "name": "183dc6c6e3195186864cc77f00803c58", "is_disabled": 0, "fusion_lon": 0.0, "fusion_lat": 0.0, "lon": -76.994794, "bike_id": "183dc6c6e3195186864cc77f00803c58", "lat": 38.98046083333333, "is_reserved": 0, "type": "electric_bike"}, {"rental_uris": {"ios": "https://dc.lft.to/lastmile_qr_scan", "android": "https://dc.lft.to/lastmile_qr_scan"}, "name": "e1b1d581589d2b31379a61dccae0d3ac", "is_disabled": 0, "fusion_lon": 0.0, "fusion_lat": 0.0, "lon": -77.0240375, "bike_id": "e1b1d581589d2b31379a61dccae0d3ac", "lat": 38.9199185, "is_reserved": 0, "type": "electric_scooter"}, {"rental_uris": {"ios": "https://dc.lft.to/lastmile_qr_scan", "android": "https://dc.lft.to/lastmile_qr_scan"}, "name": "70e50dd8c8b2b7267694224487516130", "is_disabled": 0, "fusion_lon": 0.0, "fusion_lat": 0.0, "lon": -77.01590683333333, "bike_id": "70e50dd8c8b2b7267694224487516130", "lat": 38.8746255, "is_reserved": 0, "type": "electric_scooter"}, {"rental_uris": {"ios": "https://dc.lft.to/lastmile_qr_scan", "android": "https://dc.lft.to/lastmile_qr_scan"}, "name": "44f23a86ec6bb1f08a90800edb641aef", "is_disabled": 0, "fusion_lon": 0.0, "fusion_lat": 0.0, "lon": -77.03959266666666, "bike_id": "44f23a86ec6bb1f08a90800edb641aef", "lat": 38.90605683333333, "is_reserved": 0, "type": "electric_scooter"}, {"rental_uris": {"ios": "https://dc.lft.to/lastmile_qr_scan", "android": "https://dc.lft.to/lastmile_qr_scan"}, "name": "ae62141cc8737a436b3979ede9cdb23d", "is_disabled": 0, "fusion_lon": 0.0, "fusion_lat": 0.0, "lon": -77.06297333333333, "bike_id": "ae62141cc8737a436b3979ede9cdb23d", "lat": 38.903967333333334, "is_reserved": 0, "type": "electric_scooter"}, {"rental_uris": {"ios": "https://dc.lft.to/lastmile_qr_scan", "android": "https://dc.lft.to/lastmile_qr_scan"}, "name": "6cd51970506a733442477083861aea5c", "is_disabled": 0, "fusion_lon": 0.0, "fusion_lat": 0.0, "lon": -77.015093, "bike_id": "6cd51970506a733442477083861aea5c", "lat": 38.8931785, "is_reserved": 0, "type": "electric_scooter"}, {"rental_uris": {"ios": "https://dc.lft.to/lastmile_qr_scan", "android": "https://dc.lft.to/lastmile_qr_scan"}, "name": "7d38ad6d68b3d3d3864e575e869f18e4", "is_disabled": 0, "fusion_lon": 0.0, "fusion_lat": 0.0, "lon": -76.95564016666667, "bike_id": "7d38ad6d68b3d3d3864e575e869f18e4", "lat": 38.985032, "is_reserved": 0, "type": "electric_bike"}, {"rental_uris": {"ios": "https://dc.lft.to/lastmile_qr_scan", "android": "https://dc.lft.to/lastmile_qr_scan"}, "name": "48401ecc0edbdf55596566a0005d9233", "is_disabled": 0, "fusion_lon": 0.0, "fusion_lat": 0.0, "lon": -77.017964, "bike_id": "48401ecc0edbdf55596566a0005d9233", "lat": 38.92136816666667, "is_reserved": 0, "type": "electric_scooter"}, {"rental_uris": {"ios": "https://dc.lft.to/lastmile_qr_scan", "android": "https://dc.lft.to/lastmile_qr_scan"}, "name": "a1fc1f74a61ba87132e878b0e5072751", "is_disabled": 0, "fusion_lon": 0.0, "fusion_lat": 0.0, "lon": -77.04583883333333, "bike_id": "a1fc1f74a61ba87132e878b0e5072751", "lat": 38.90897783333333, "is_reserved": 0, "type": "electric_scooter"}, {"rental_uris": {"ios": "https://dc.lft.to/lastmile_qr_scan", "android": "https://dc.lft.to/lastmile_qr_scan"}, "name": "85bd52cc6bb2c265d5519a3cc1148aad", "is_disabled": 0, "fusion_lon": 0.0, "fusion_lat": 0.0, "lon": -77.01792216666666, "bike_id": "85bd52cc6bb2c265d5519a3cc1148aad", "lat": 38.92160916666667, "is_reserved": 0, "type": "electric_scooter"}, {"rental_uris": {"ios": "https://dc.lft.to/lastmile_qr_scan", "android": "https://dc.lft.to/lastmile_qr_scan"}, "name": "1dc181844fa45ac5e3a7f1df52d35f6c", "is_disabled": 0, "fusion_lon": 0.0, "fusion_lat": 0.0, "lon": -77.03072166666666, "bike_id": "1dc181844fa45ac5e3a7f1df52d35f6c", "lat": 38.899609166666664, "is_reserved": 0, "type": "electric_scooter"}, {"rental_uris": {"ios": "https://dc.lft.to/lastmile_qr_scan", "android": "https://dc.lft.to/lastmile_qr_scan"}, "name": "1ab9b660d4e3e9f0a9aeb3cddb617e7f", "is_disabled": 0, "fusion_lon": 0.0, "fusion_lat": 0.0, "lon": -77.02461583333333, "bike_id": "1ab9b660d4e3e9f0a9aeb3cddb617e7f", "lat": 38.938584666666664, "is_reserved": 0, "type": "electric_scooter"}, {"rental_uris": {"ios": "https://dc.lft.to/lastmile_qr_scan", "android": "https://dc.lft.to/lastmile_qr_scan"}, "name": "ef276790ed8bfe83d07c7bf3e5cc1e2c", "is_disabled": 0, "fusion_lon": 0.0, "fusion_lat": 0.0, "lon": -77.04178833333333, "bike_id": "ef276790ed8bfe83d07c7bf3e5cc1e2c", "lat": 38.9181365, "is_reserved": 0, "type": "electric_scooter"}, {"rental_uris": {"ios": "https://dc.lft.to/lastmile_qr_scan", "android": "https://dc.lft.to/lastmile_qr_scan"}, "name": "493710cd229dfa172f373713c1b616d4", "is_disabled": 0, "fusion_lon": 0.0, "fusion_lat": 0.0, "lon": -77.04426316666667, "bike_id": "493710cd229dfa172f373713c1b616d4", "lat": 38.9153835, "is_reserved": 0, "type": "electric_scooter"}, {"rental_uris": {"ios": "https://dc.lft.to/lastmile_qr_scan", "android": "https://dc.lft.to/lastmile_qr_scan"}, "name": "4e62fb96d774a4451d8bb424d5f1b797", "is_disabled": 0, "fusion_lon": 0.0, "fusion_lat": 0.0, "lon": -77.04557733333333, "bike_id": "4e62fb96d774a4451d8bb424d5f1b797", "lat": 38.89835433333333, "is_reserved": 0, "type": "electric_scooter"}, {"rental_uris": {"ios": "https://dc.lft.to/lastmile_qr_scan", "android": "https://dc.lft.to/lastmile_qr_scan"}, "name": "5b4144b48d7872730bf9a4d06c5dfc35", "is_disabled": 0, "fusion_lon": 0.0, "fusion_lat": 0.0, "lon": -77.05142683333334, "bike_id": "5b4144b48d7872730bf9a4d06c5dfc35", "lat": 38.90654766666667, "is_reserved": 0, "type": "electric_scooter"}, {"rental_uris": {"ios": "https://dc.lft.to/lastmile_qr_scan", "android": "https://dc.lft.to/lastmile_qr_scan"}, "name": "f2f62cccd04f60f386cc7a349e84c397", "is_disabled": 0, "fusion_lon": 0.0, "fusion_lat": 0.0, "lon": -76.9914875, "bike_id": "f2f62cccd04f60f386cc7a349e84c397", "lat": 38.900384833333334, "is_reserved": 0, "type": "electric_scooter"}, {"rental_uris": {"ios": "https://dc.lft.to/lastmile_qr_scan", "android": "https://dc.lft.to/lastmile_qr_scan"}, "name": "26f8cdb7040483cab5724487bd1e39b0", "is_disabled": 0, "fusion_lon": 0.0, "fusion_lat": 0.0, "lon": -77.00304383333334, "bike_id": "26f8cdb7040483cab5724487bd1e39b0", "lat": 38.87706383333333, "is_reserved": 0, "type": "electric_scooter"}, {"rental_uris": {"ios": "https://dc.lft.to/lastmile_qr_scan", "android": "https://dc.lft.to/lastmile_qr_scan"}, "name": "90d0fc8a0c0780a120c443b3330b6b68", "is_disabled": 0, "fusion_lon": 0.0, "fusion_lat": 0.0, "lon": -76.983744, "bike_id": "90d0fc8a0c0780a120c443b3330b6b68", "lat": 38.860307, "is_reserved": 0, "type": "electric_scooter"}, {"rental_uris": {"ios": "https://dc.lft.to/lastmile_qr_scan", "android": "https://dc.lft.to/lastmile_qr_scan"}, "name": "840644ec02002456f857f6dd282032cc", "is_disabled": 0, "fusion_lon": 0.0, "fusion_lat": 0.0, "lon": -77.04493833333333, "bike_id": "840644ec02002456f857f6dd282032cc", "lat": 38.897243333333336, "is_reserved": 0, "type": "electric_scooter"}, {"rental_uris": {"ios": "https://dc.lft.to/lastmile_qr_scan", "android": "https://dc.lft.to/lastmile_qr_scan"}, "name": "b05930a556630b324c40f2a0768f5273", "is_disabled": 0, "fusion_lon": 0.0, "fusion_lat": 0.0, "lon": -77.0066875, "bike_id": "b05930a556630b324c40f2a0768f5273", "lat": 38.9450475, "is_reserved": 0, "type": "electric_bike"}, {"rental_uris": {"ios": "https://dc.lft.to/lastmile_qr_scan", "android": "https://dc.lft.to/lastmile_qr_scan"}, "name": "07cabcd7be8fb326e180856d2c9365e2", "is_disabled": 0, "fusion_lon": 0.0, "fusion_lat": 0.0, "lon": -77.02959383333334, "bike_id": "07cabcd7be8fb326e180856d2c9365e2", "lat": 38.9275095, "is_reserved": 0, "type": "electric_scooter"}, {"rental_uris": {"ios": "https://dc.lft.to/lastmile_qr_scan", "android": "https://dc.lft.to/lastmile_qr_scan"}, "name": "3b70b4ea416ddd7b5e5da5f7f4ada5e6", "is_disabled": 0, "fusion_lon": 0.0, "fusion_lat": 0.0, "lon": -76.99733666666667, "bike_id": "3b70b4ea416ddd7b5e5da5f7f4ada5e6", "lat": 38.89618933333333, "is_reserved": 0, "type": "electric_scooter"}, {"rental_uris": {"ios": "https://dc.lft.to/lastmile_qr_scan", "android": "https://dc.lft.to/lastmile_qr_scan"}, "name": "7c88fd8b2cc439fa67e9675ce3c322a4", "is_disabled": 0, "fusion_lon": 0.0, "fusion_lat": 0.0, "lon": -77.03710466666666, "bike_id": "7c88fd8b2cc439fa67e9675ce3c322a4", "lat": 38.9265315, "is_reserved": 0, "type": "electric_scooter"}, {"rental_uris": {"ios": "https://dc.lft.to/lastmile_qr_scan", "android": "https://dc.lft.to/lastmile_qr_scan"}, "name": "fae9802af0286feb23c8b62c29dbbfd8", "is_disabled": 0, "fusion_lon": 0.0, "fusion_lat": 0.0, "lon": -77.043939, "bike_id": "fae9802af0286feb23c8b62c29dbbfd8", "lat": 38.91216383333333, "is_reserved": 0, "type": "electric_scooter"}, {"rental_uris": {"ios": "https://dc.lft.to/lastmile_qr_scan", "android": "https://dc.lft.to/lastmile_qr_scan"}, "name": "96ceaf4b3816c4b7a7bb4b3787922d7b", "is_disabled": 0, "fusion_lon": 0.0, "fusion_lat": 0.0, "lon": -77.029815, "bike_id": "96ceaf4b3816c4b7a7bb4b3787922d7b", "lat": 38.91813033333333, "is_reserved": 0, "type": "electric_scooter"}, {"rental_uris": {"ios": "https://dc.lft.to/lastmile_qr_scan", "android": "https://dc.lft.to/lastmile_qr_scan"}, "name": "be181e7e0501e94bfdaa58c23bc16e45", "is_disabled": 0, "fusion_lon": 0.0, "fusion_lat": 0.0, "lon": -77.02684533333333, "bike_id": "be181e7e0501e94bfdaa58c23bc16e45", "lat": 38.8976075, "is_reserved": 0, "type": "electric_scooter"}, {"rental_uris": {"ios": "https://dc.lft.to/lastmile_qr_scan", "android": "https://dc.lft.to/lastmile_qr_scan"}, "name": "b2fc8db72f318944bbcca04da5d4a04f", "is_disabled": 0, "fusion_lon": 0.0, "fusion_lat": 0.0, "lon": -76.90746583333333, "bike_id": "b2fc8db72f318944bbcca04da5d4a04f", "lat": 38.89618766666667, "is_reserved": 0, "type": "electric_bike"}, {"rental_uris": {"ios": "https://dc.lft.to/lastmile_qr_scan", "android": "https://dc.lft.to/lastmile_qr_scan"}, "name": "42ecac75d233e7d42a98a10b17ce274a", "is_disabled": 0, "fusion_lon": 0.0, "fusion_lat": 0.0, "lon": -77.00927166666666, "bike_id": "42ecac75d233e7d42a98a10b17ce274a", "lat": 38.908724, "is_reserved": 0, "type": "electric_scooter"}, {"rental_uris": {"ios": "https://dc.lft.to/lastmile_qr_scan", "android": "https://dc.lft.to/lastmile_qr_scan"}, "name": "27c311f07cff331ff38fd794adfb046a", "is_disabled": 0, "fusion_lon": 0.0, "fusion_lat": 0.0, "lon": -77.00303016666666, "bike_id": "27c311f07cff331ff38fd794adfb046a", "lat": 38.876677, "is_reserved": 0, "type": "electric_scooter"}, {"rental_uris": {"ios": "https://dc.lft.to/lastmile_qr_scan", "android": "https://dc.lft.to/lastmile_qr_scan"}, "name": "dc603ffdaa093a116ae13c2156541038", "is_disabled": 0, "fusion_lon": 0.0, "fusion_lat": 0.0, "lon": -77.02763933333334, "bike_id": "dc603ffdaa093a116ae13c2156541038", "lat": 38.95420216666667, "is_reserved": 0, "type": "electric_scooter"}, {"rental_uris": {"ios": "https://dc.lft.to/lastmile_qr_scan", "android": "https://dc.lft.to/lastmile_qr_scan"}, "name": "0a60b6244037f5cc62d9853420fe47d4", "is_disabled": 0, "fusion_lon": 0.0, "fusion_lat": 0.0, "lon": -77.05318616666666, "bike_id": "0a60b6244037f5cc62d9853420fe47d4", "lat": 38.90154366666667, "is_reserved": 0, "type": "electric_scooter"}, {"rental_uris": {"ios": "https://dc.lft.to/lastmile_qr_scan", "android": "https://dc.lft.to/lastmile_qr_scan"}, "name": "ce9aee1299715c2c523f1943868150ea", "is_disabled": 0, "fusion_lon": 0.0, "fusion_lat": 0.0, "lon": -77.04578266666667, "bike_id": "ce9aee1299715c2c523f1943868150ea", "lat": 38.90284666666667, "is_reserved": 0, "type": "electric_scooter"}, {"rental_uris": {"ios": "https://dc.lft.to/lastmile_qr_scan", "android": "https://dc.lft.to/lastmile_qr_scan"}, "name": "4f157c30646d218e55c98407d26a7a59", "is_disabled": 0, "fusion_lon": 0.0, "fusion_lat": 0.0, "lon": -77.020092, "bike_id": "4f157c30646d218e55c98407d26a7a59", "lat": 38.92418683333333, "is_reserved": 0, "type": "electric_scooter"}, {"rental_uris": {"ios": "https://dc.lft.to/lastmile_qr_scan", "android": "https://dc.lft.to/lastmile_qr_scan"}, "name": "a90b58b96865cc8086d98dc0ecc9ec68", "is_disabled": 0, "fusion_lon": 0.0, "fusion_lat": 0.0, "lon": -77.00559266666667, "bike_id": "a90b58b96865cc8086d98dc0ecc9ec68", "lat": 38.905706333333335, "is_reserved": 0, "type": "electric_scooter"}, {"rental_uris": {"ios": "https://dc.lft.to/lastmile_qr_scan", "android": "https://dc.lft.to/lastmile_qr_scan"}, "name": "b55acea7641d22d5b2d5afab7be4941e", "is_disabled": 0, "fusion_lon": 0.0, "fusion_lat": 0.0, "lon": -77.08996833333333, "bike_id": "b55acea7641d22d5b2d5afab7be4941e", "lat": 38.909037166666664, "is_reserved": 0, "type": "electric_bike"}, {"rental_uris": {"ios": "https://dc.lft.to/lastmile_qr_scan", "android": "https://dc.lft.to/lastmile_qr_scan"}, "name": "f1a85e88bb9c505804dbe1893fa95880", "is_disabled": 0, "fusion_lon": 0.0, "fusion_lat": 0.0, "lon": -77.03635633333333, "bike_id": "f1a85e88bb9c505804dbe1893fa95880", "lat": 38.903129, "is_reserved": 0, "type": "electric_scooter"}, {"rental_uris": {"ios": "https://dc.lft.to/lastmile_qr_scan", "android": "https://dc.lft.to/lastmile_qr_scan"}, "name": "1f0a6ab2a05fd49fabbc6dceb0ea1be3", "is_disabled": 0, "fusion_lon": 0.0, "fusion_lat": 0.0, "lon": -77.02793866666667, "bike_id": "1f0a6ab2a05fd49fabbc6dceb0ea1be3", "lat": 38.962179166666665, "is_reserved": 0, "type": "electric_scooter"}, {"rental_uris": {"ios": "https://dc.lft.to/lastmile_qr_scan", "android": "https://dc.lft.to/lastmile_qr_scan"}, "name": "b8108020c0921d6d35f1d06bd6c52c79", "is_disabled": 0, "fusion_lon": 0.0, "fusion_lat": 0.0, "lon": -76.99652183333333, "bike_id": "b8108020c0921d6d35f1d06bd6c52c79", "lat": 38.9055385, "is_reserved": 0, "type": "electric_scooter"}, {"rental_uris": {"ios": "https://dc.lft.to/lastmile_qr_scan", "android": "https://dc.lft.to/lastmile_qr_scan"}, "name": "5897e32a1abb6817057b5ab89a0bb9de", "is_disabled": 0, "fusion_lon": 0.0, "fusion_lat": 0.0, "lon": -77.07290266666666, "bike_id": "5897e32a1abb6817057b5ab89a0bb9de", "lat": 38.9298155, "is_reserved": 0, "type": "electric_scooter"}, {"rental_uris": {"ios": "https://dc.lft.to/lastmile_qr_scan", "android": "https://dc.lft.to/lastmile_qr_scan"}, "name": "c1127f1534c734579af3b3afae6744e2", "is_disabled": 0, "fusion_lon": 0.0, "fusion_lat": 0.0, "lon": -77.05139033333333, "bike_id": "c1127f1534c734579af3b3afae6744e2", "lat": 38.9071095, "is_reserved": 0, "type": "electric_bike"}, {"rental_uris": {"ios": "https://dc.lft.to/lastmile_qr_scan", "android": "https://dc.lft.to/lastmile_qr_scan"}, "name": "3de902c39ab4ec8bd72de29b7d0192c8", "is_disabled": 0, "fusion_lon": 0.0, "fusion_lat": 0.0, "lon": -77.071229, "bike_id": "3de902c39ab4ec8bd72de29b7d0192c8", "lat": 38.92025616666667, "is_reserved": 0, "type": "electric_scooter"}, {"rental_uris": {"ios": "https://dc.lft.to/lastmile_qr_scan", "android": "https://dc.lft.to/lastmile_qr_scan"}, "name": "7f93c761642ecef736a3f8616c1e720d", "is_disabled": 0, "fusion_lon": 0.0, "fusion_lat": 0.0, "lon": -77.0385365, "bike_id": "7f93c761642ecef736a3f8616c1e720d", "lat": 38.919707, "is_reserved": 0, "type": "electric_scooter"}, {"rental_uris": {"ios": "https://dc.lft.to/lastmile_qr_scan", "android": "https://dc.lft.to/lastmile_qr_scan"}, "name": "e3b8d442b3aec4cc4eda6d29276b718c", "is_disabled": 0, "fusion_lon": 0.0, "fusion_lat": 0.0, "lon": -77.04159933333334, "bike_id": "e3b8d442b3aec4cc4eda6d29276b718c", "lat": 38.895634666666666, "is_reserved": 0, "type": "electric_scooter"}, {"rental_uris": {"ios": "https://dc.lft.to/lastmile_qr_scan", "android": "https://dc.lft.to/lastmile_qr_scan"}, "name": "f1cd578dc5ff1fb6b5c8bc0b5c90dced", "is_disabled": 0, "fusion_lon": 0.0, "fusion_lat": 0.0, "lon": -77.049758, "bike_id": "f1cd578dc5ff1fb6b5c8bc0b5c90dced", "lat": 38.89966233333333, "is_reserved": 0, "type": "electric_bike"}, {"rental_uris": {"ios": "https://dc.lft.to/lastmile_qr_scan", "android": "https://dc.lft.to/lastmile_qr_scan"}, "name": "ad3c524b80300b04041099ba5b29ed9c", "is_disabled": 0, "fusion_lon": 0.0, "fusion_lat": 0.0, "lon": -76.94666066666667, "bike_id": "ad3c524b80300b04041099ba5b29ed9c", "lat": 38.8987105, "is_reserved": 0, "type": "electric_scooter"}, {"rental_uris": {"ios": "https://dc.lft.to/lastmile_qr_scan", "android": "https://dc.lft.to/lastmile_qr_scan"}, "name": "50c844dbdd6cb986a1c0abb5fa3968aa", "is_disabled": 0, "fusion_lon": 0.0, "fusion_lat": 0.0, "lon": -77.03262666666667, "bike_id": "50c844dbdd6cb986a1c0abb5fa3968aa", "lat": 38.9103065, "is_reserved": 0, "type": "electric_scooter"}, {"rental_uris": {"ios": "https://dc.lft.to/lastmile_qr_scan", "android": "https://dc.lft.to/lastmile_qr_scan"}, "name": "2bb98f99280fcc764cc2e865b6e79c03", "is_disabled": 0, "fusion_lon": 0.0, "fusion_lat": 0.0, "lon": -76.93382533333333, "bike_id": "2bb98f99280fcc764cc2e865b6e79c03", "lat": 38.899160333333334, "is_reserved": 0, "type": "electric_scooter"}, {"rental_uris": {"ios": "https://dc.lft.to/lastmile_qr_scan", "android": "https://dc.lft.to/lastmile_qr_scan"}, "name": "94d9ac46abf4c29f508d147263b7533d", "is_disabled": 0, "fusion_lon": 0.0, "fusion_lat": 0.0, "lon": -77.04986716666667, "bike_id": "94d9ac46abf4c29f508d147263b7533d", "lat": 38.89840133333333, "is_reserved": 0, "type": "electric_scooter"}, {"rental_uris": {"ios": "https://dc.lft.to/lastmile_qr_scan", "android": "https://dc.lft.to/lastmile_qr_scan"}, "name": "677d074f982d02464d0a0a6a7ed2dd7d", "is_disabled": 0, "fusion_lon": 0.0, "fusion_lat": 0.0, "lon": -76.91719416666666, "bike_id": "677d074f982d02464d0a0a6a7ed2dd7d", "lat": 38.88027916666667, "is_reserved": 0, "type": "electric_bike"}, {"rental_uris": {"ios": "https://dc.lft.to/lastmile_qr_scan", "android": "https://dc.lft.to/lastmile_qr_scan"}, "name": "8e71fbbb05d51f89fd135a18f1b6b55e", "is_disabled": 0, "fusion_lon": 0.0, "fusion_lat": 0.0, "lon": -77.0143325, "bike_id": "8e71fbbb05d51f89fd135a18f1b6b55e", "lat": 38.898902166666666, "is_reserved": 0, "type": "electric_scooter"}, {"rental_uris": {"ios": "https://dc.lft.to/lastmile_qr_scan", "android": "https://dc.lft.to/lastmile_qr_scan"}, "name": "2e71043db0fd5a46979e2362d9e882eb", "is_disabled": 0, "fusion_lon": 0.0, "fusion_lat": 0.0, "lon": -77.02048916666666, "bike_id": "2e71043db0fd5a46979e2362d9e882eb", "lat": 38.9237235, "is_reserved": 0, "type": "electric_scooter"}, {"rental_uris": {"ios": "https://dc.lft.to/lastmile_qr_scan", "android": "https://dc.lft.to/lastmile_qr_scan"}, "name": "94b1aeb92286cbfb8dcdcf136c255771", "is_disabled": 0, "fusion_lon": 0.0, "fusion_lat": 0.0, "lon": -77.02777966666666, "bike_id": "94b1aeb92286cbfb8dcdcf136c255771", "lat": 38.955451833333335, "is_reserved": 0, "type": "electric_scooter"}, {"rental_uris": {"ios": "https://dc.lft.to/lastmile_qr_scan", "android": "https://dc.lft.to/lastmile_qr_scan"}, "name": "d1f20cbb8badc61bf0b26374b4990eff", "is_disabled": 0, "fusion_lon": 0.0, "fusion_lat": 0.0, "lon": -77.07227666666667, "bike_id": "d1f20cbb8badc61bf0b26374b4990eff", "lat": 38.913612666666666, "is_reserved": 0, "type": "electric_scooter"}, {"rental_uris": {"ios": "https://dc.lft.to/lastmile_qr_scan", "android": "https://dc.lft.to/lastmile_qr_scan"}, "name": "441478891bbb706d05b42ad2d12b4c34", "is_disabled": 0, "fusion_lon": 0.0, "fusion_lat": 0.0, "lon": -77.06031333333334, "bike_id": "441478891bbb706d05b42ad2d12b4c34", "lat": 38.90510033333333, "is_reserved": 0, "type": "electric_scooter"}, {"rental_uris": {"ios": "https://dc.lft.to/lastmile_qr_scan", "android": "https://dc.lft.to/lastmile_qr_scan"}, "name": "177c9d308173902a2d7dc71ccfb9a3c2", "is_disabled": 0, "fusion_lon": 0.0, "fusion_lat": 0.0, "lon": -77.03697366666667, "bike_id": "177c9d308173902a2d7dc71ccfb9a3c2", "lat": 38.907407, "is_reserved": 0, "type": "electric_scooter"}, {"rental_uris": {"ios": "https://dc.lft.to/lastmile_qr_scan", "android": "https://dc.lft.to/lastmile_qr_scan"}, "name": "b46f49cea397357e04c5882c5bba6cb1", "is_disabled": 0, "fusion_lon": 0.0, "fusion_lat": 0.0, "lon": -77.0195075, "bike_id": "b46f49cea397357e04c5882c5bba6cb1", "lat": 38.92410233333333, "is_reserved": 0, "type": "electric_scooter"}, {"rental_uris": {"ios": "https://dc.lft.to/lastmile_qr_scan", "android": "https://dc.lft.to/lastmile_qr_scan"}, "name": "33e7471440423e78331d51f3538313af", "is_disabled": 0, "fusion_lon": 0.0, "fusion_lat": 0.0, "lon": -77.0448205, "bike_id": "33e7471440423e78331d51f3538313af", "lat": 38.910898, "is_reserved": 0, "type": "electric_scooter"}, {"rental_uris": {"ios": "https://dc.lft.to/lastmile_qr_scan", "android": "https://dc.lft.to/lastmile_qr_scan"}, "name": "fa7454b82cfc268ff46d0b7ee2360cb3", "is_disabled": 0, "fusion_lon": 0.0, "fusion_lat": 0.0, "lon": -77.063053, "bike_id": "fa7454b82cfc268ff46d0b7ee2360cb3", "lat": 38.907759, "is_reserved": 0, "type": "electric_scooter"}, {"rental_uris": {"ios": "https://dc.lft.to/lastmile_qr_scan", "android": "https://dc.lft.to/lastmile_qr_scan"}, "name": "d36af411c4f54d6af7022780e36cad1b", "is_disabled": 0, "fusion_lon": 0.0, "fusion_lat": 0.0, "lon": -77.02956033333334, "bike_id": "d36af411c4f54d6af7022780e36cad1b", "lat": 38.94309166666667, "is_reserved": 0, "type": "electric_scooter"}, {"rental_uris": {"ios": "https://dc.lft.to/lastmile_qr_scan", "android": "https://dc.lft.to/lastmile_qr_scan"}, "name": "2a053283ab9ba2845ffb3a6b5f825d2e", "is_disabled": 0, "fusion_lon": 0.0, "fusion_lat": 0.0, "lon": -77.01868633333333, "bike_id": "2a053283ab9ba2845ffb3a6b5f825d2e", "lat": 38.929097, "is_reserved": 0, "type": "electric_scooter"}, {"rental_uris": {"ios": "https://dc.lft.to/lastmile_qr_scan", "android": "https://dc.lft.to/lastmile_qr_scan"}, "name": "eeeff3c2ee09bdeafecb66725b0080fe", "is_disabled": 0, "fusion_lon": 0.0, "fusion_lat": 0.0, "lon": -77.12734233333333, "bike_id": "eeeff3c2ee09bdeafecb66725b0080fe", "lat": 38.89559066666666, "is_reserved": 0, "type": "electric_bike"}, {"rental_uris": {"ios": "https://dc.lft.to/lastmile_qr_scan", "android": "https://dc.lft.to/lastmile_qr_scan"}, "name": "dc5ef2b1eb4ada48d533d3878cba341a", "is_disabled": 0, "fusion_lon": 0.0, "fusion_lat": 0.0, "lon": -76.99046733333333, "bike_id": "dc5ef2b1eb4ada48d533d3878cba341a", "lat": 38.903961, "is_reserved": 0, "type": "electric_scooter"}, {"rental_uris": {"ios": "https://dc.lft.to/lastmile_qr_scan", "android": "https://dc.lft.to/lastmile_qr_scan"}, "name": "ec44a69a97d68a9a48f89efd8a8f0e2b", "is_disabled": 0, "fusion_lon": 0.0, "fusion_lat": 0.0, "lon": -77.04711533333334, "bike_id": "ec44a69a97d68a9a48f89efd8a8f0e2b", "lat": 38.922531, "is_reserved": 0, "type": "electric_scooter"}, {"rental_uris": {"ios": "https://dc.lft.to/lastmile_qr_scan", "android": "https://dc.lft.to/lastmile_qr_scan"}, "name": "5d3f864df01612e6fc138ee3bb4fe62c", "is_disabled": 0, "fusion_lon": 0.0, "fusion_lat": 0.0, "lon": -77.04343, "bike_id": "5d3f864df01612e6fc138ee3bb4fe62c", "lat": 38.913529, "is_reserved": 0, "type": "electric_scooter"}, {"rental_uris": {"ios": "https://dc.lft.to/lastmile_qr_scan", "android": "https://dc.lft.to/lastmile_qr_scan"}, "name": "b2e7065c933f4125c5670cf3f0278b44", "is_disabled": 0, "fusion_lon": 0.0, "fusion_lat": 0.0, "lon": -76.9998345, "bike_id": "b2e7065c933f4125c5670cf3f0278b44", "lat": 38.89413316666667, "is_reserved": 0, "type": "electric_bike"}, {"rental_uris": {"ios": "https://dc.lft.to/lastmile_qr_scan", "android": "https://dc.lft.to/lastmile_qr_scan"}, "name": "68fa7537e04c19adef6eab5c9e8c2ec5", "is_disabled": 0, "fusion_lon": 0.0, "fusion_lat": 0.0, "lon": -76.98380716666667, "bike_id": "68fa7537e04c19adef6eab5c9e8c2ec5", "lat": 38.887296166666665, "is_reserved": 0, "type": "electric_scooter"}, {"rental_uris": {"ios": "https://dc.lft.to/lastmile_qr_scan", "android": "https://dc.lft.to/lastmile_qr_scan"}, "name": "4147785ac114bf321119d9223c289ef8", "is_disabled": 0, "fusion_lon": 0.0, "fusion_lat": 0.0, "lon": -77.05683883333333, "bike_id": "4147785ac114bf321119d9223c289ef8", "lat": 38.9233205, "is_reserved": 0, "type": "electric_scooter"}, {"rental_uris": {"ios": "https://dc.lft.to/lastmile_qr_scan", "android": "https://dc.lft.to/lastmile_qr_scan"}, "name": "ec0e8302af7a795926f54fd7e6a12b64", "is_disabled": 0, "fusion_lon": 0.0, "fusion_lat": 0.0, "lon": -77.012246, "bike_id": "ec0e8302af7a795926f54fd7e6a12b64", "lat": 38.90592483333333, "is_reserved": 0, "type": "electric_scooter"}, {"rental_uris": {"ios": "https://dc.lft.to/lastmile_qr_scan", "android": "https://dc.lft.to/lastmile_qr_scan"}, "name": "2d45cd4008590329f587c817c89cf408", "is_disabled": 0, "fusion_lon": 0.0, "fusion_lat": 0.0, "lon": -76.9914895, "bike_id": "2d45cd4008590329f587c817c89cf408", "lat": 38.90040333333334, "is_reserved": 0, "type": "electric_scooter"}, {"rental_uris": {"ios": "https://dc.lft.to/lastmile_qr_scan", "android": "https://dc.lft.to/lastmile_qr_scan"}, "name": "e8095ae53e6794bb8664757c75fc00b4", "is_disabled": 0, "fusion_lon": 0.0, "fusion_lat": 0.0, "lon": -77.01135216666667, "bike_id": "e8095ae53e6794bb8664757c75fc00b4", "lat": 38.90018766666667, "is_reserved": 0, "type": "electric_scooter"}, {"rental_uris": {"ios": "https://dc.lft.to/lastmile_qr_scan", "android": "https://dc.lft.to/lastmile_qr_scan"}, "name": "301ef5a13ad486a4518f7cd9f97fc1fa", "is_disabled": 0, "fusion_lon": 0.0, "fusion_lat": 0.0, "lon": -77.02099166666666, "bike_id": "301ef5a13ad486a4518f7cd9f97fc1fa", "lat": 38.92172883333333, "is_reserved": 0, "type": "electric_scooter"}, {"rental_uris": {"ios": "https://dc.lft.to/lastmile_qr_scan", "android": "https://dc.lft.to/lastmile_qr_scan"}, "name": "9608d09552af7d2e50f5324592efdbf3", "is_disabled": 0, "fusion_lon": 0.0, "fusion_lat": 0.0, "lon": -77.023555, "bike_id": "9608d09552af7d2e50f5324592efdbf3", "lat": 38.92503766666667, "is_reserved": 0, "type": "electric_scooter"}, {"rental_uris": {"ios": "https://dc.lft.to/lastmile_qr_scan", "android": "https://dc.lft.to/lastmile_qr_scan"}, "name": "2eabe07ba2d773f2cf06052da8959ddd", "is_disabled": 0, "fusion_lon": 0.0, "fusion_lat": 0.0, "lon": -77.01532966666667, "bike_id": "2eabe07ba2d773f2cf06052da8959ddd", "lat": 38.89184083333333, "is_reserved": 0, "type": "electric_scooter"}, {"rental_uris": {"ios": "https://dc.lft.to/lastmile_qr_scan", "android": "https://dc.lft.to/lastmile_qr_scan"}, "name": "d33405f3abc45e907556f1f24f500211", "is_disabled": 0, "fusion_lon": 0.0, "fusion_lat": 0.0, "lon": -77.0412775, "bike_id": "d33405f3abc45e907556f1f24f500211", "lat": 38.932130666666666, "is_reserved": 0, "type": "electric_scooter"}, {"rental_uris": {"ios": "https://dc.lft.to/lastmile_qr_scan", "android": "https://dc.lft.to/lastmile_qr_scan"}, "name": "f97590f182a53b29529fe5389e2854be", "is_disabled": 0, "fusion_lon": 0.0, "fusion_lat": 0.0, "lon": -77.05132333333333, "bike_id": "f97590f182a53b29529fe5389e2854be", "lat": 38.923577, "is_reserved": 0, "type": "electric_scooter"}, {"rental_uris": {"ios": "https://dc.lft.to/lastmile_qr_scan", "android": "https://dc.lft.to/lastmile_qr_scan"}, "name": "aa4e4cefc1b30aa0983ce499ba211aa1", "is_disabled": 0, "fusion_lon": 0.0, "fusion_lat": 0.0, "lon": -77.0419565, "bike_id": "aa4e4cefc1b30aa0983ce499ba211aa1", "lat": 38.9037155, "is_reserved": 0, "type": "electric_scooter"}, {"rental_uris": {"ios": "https://dc.lft.to/lastmile_qr_scan", "android": "https://dc.lft.to/lastmile_qr_scan"}, "name": "44c5b75ae7b77aeca586bd3791f065d8", "is_disabled": 0, "fusion_lon": 0.0, "fusion_lat": 0.0, "lon": -77.023178, "bike_id": "44c5b75ae7b77aeca586bd3791f065d8", "lat": 38.94091183333333, "is_reserved": 0, "type": "electric_scooter"}, {"rental_uris": {"ios": "https://dc.lft.to/lastmile_qr_scan", "android": "https://dc.lft.to/lastmile_qr_scan"}, "name": "270f6a273dac876c9e49abc6583a2e93", "is_disabled": 0, "fusion_lon": 0.0, "fusion_lat": 0.0, "lon": -77.0295125, "bike_id": "270f6a273dac876c9e49abc6583a2e93", "lat": 38.90459966666667, "is_reserved": 0, "type": "electric_scooter"}, {"rental_uris": {"ios": "https://dc.lft.to/lastmile_qr_scan", "android": "https://dc.lft.to/lastmile_qr_scan"}, "name": "ccc86f75433eb629901b3a37e4db7983", "is_disabled": 0, "fusion_lon": 0.0, "fusion_lat": 0.0, "lon": -77.00593716666667, "bike_id": "ccc86f75433eb629901b3a37e4db7983", "lat": 38.87554083333333, "is_reserved": 0, "type": "electric_scooter"}, {"rental_uris": {"ios": "https://dc.lft.to/lastmile_qr_scan", "android": "https://dc.lft.to/lastmile_qr_scan"}, "name": "c29bf27a770507b53ff309c99b63b837", "is_disabled": 0, "fusion_lon": 0.0, "fusion_lat": 0.0, "lon": -77.02226466666667, "bike_id": "c29bf27a770507b53ff309c99b63b837", "lat": 38.912671, "is_reserved": 0, "type": "electric_scooter"}, {"rental_uris": {"ios": "https://dc.lft.to/lastmile_qr_scan", "android": "https://dc.lft.to/lastmile_qr_scan"}, "name": "0fa3d60cd38397da9d8599f8f7ad17ed", "is_disabled": 0, "fusion_lon": 0.0, "fusion_lat": 0.0, "lon": -76.99618416666667, "bike_id": "0fa3d60cd38397da9d8599f8f7ad17ed", "lat": 38.88136133333333, "is_reserved": 0, "type": "electric_scooter"}, {"rental_uris": {"ios": "https://dc.lft.to/lastmile_qr_scan", "android": "https://dc.lft.to/lastmile_qr_scan"}, "name": "5785921f5aa1882ab2f06c658747f880", "is_disabled": 0, "fusion_lon": 0.0, "fusion_lat": 0.0, "lon": -77.02338583333334, "bike_id": "5785921f5aa1882ab2f06c658747f880", "lat": 38.94468666666667, "is_reserved": 0, "type": "electric_scooter"}, {"rental_uris": {"ios": "https://dc.lft.to/lastmile_qr_scan", "android": "https://dc.lft.to/lastmile_qr_scan"}, "name": "a8323dac8649d208c45de6fc19ffd41e", "is_disabled": 0, "fusion_lon": 0.0, "fusion_lat": 0.0, "lon": -77.04999383333333, "bike_id": "a8323dac8649d208c45de6fc19ffd41e", "lat": 38.89230583333333, "is_reserved": 0, "type": "electric_scooter"}, {"rental_uris": {"ios": "https://dc.lft.to/lastmile_qr_scan", "android": "https://dc.lft.to/lastmile_qr_scan"}, "name": "337b7505f95147a54cbb8fafbeb077ba", "is_disabled": 0, "fusion_lon": 0.0, "fusion_lat": 0.0, "lon": -77.02165966666666, "bike_id": "337b7505f95147a54cbb8fafbeb077ba", "lat": 38.892194833333335, "is_reserved": 0, "type": "electric_scooter"}, {"rental_uris": {"ios": "https://dc.lft.to/lastmile_qr_scan", "android": "https://dc.lft.to/lastmile_qr_scan"}, "name": "36b2c4275dd5db9efc858c09813e90a6", "is_disabled": 0, "fusion_lon": 0.0, "fusion_lat": 0.0, "lon": -76.983481, "bike_id": "36b2c4275dd5db9efc858c09813e90a6", "lat": 38.862655333333336, "is_reserved": 0, "type": "electric_bike"}, {"rental_uris": {"ios": "https://dc.lft.to/lastmile_qr_scan", "android": "https://dc.lft.to/lastmile_qr_scan"}, "name": "84ea0a01b75321b4089e363380f47c49", "is_disabled": 0, "fusion_lon": 0.0, "fusion_lat": 0.0, "lon": -77.02019133333333, "bike_id": "84ea0a01b75321b4089e363380f47c49", "lat": 38.89875266666667, "is_reserved": 0, "type": "electric_scooter"}, {"rental_uris": {"ios": "https://dc.lft.to/lastmile_qr_scan", "android": "https://dc.lft.to/lastmile_qr_scan"}, "name": "9e854152a88ad3f4dd70e3fbe64c7d45", "is_disabled": 0, "fusion_lon": 0.0, "fusion_lat": 0.0, "lon": -77.03791516666666, "bike_id": "9e854152a88ad3f4dd70e3fbe64c7d45", "lat": 38.919873333333335, "is_reserved": 0, "type": "electric_scooter"}, {"rental_uris": {"ios": "https://dc.lft.to/lastmile_qr_scan", "android": "https://dc.lft.to/lastmile_qr_scan"}, "name": "982c63649749bf78c066de998ae7de0a", "is_disabled": 0, "fusion_lon": 0.0, "fusion_lat": 0.0, "lon": -77.02723066666667, "bike_id": "982c63649749bf78c066de998ae7de0a", "lat": 38.924792333333336, "is_reserved": 0, "type": "electric_scooter"}, {"rental_uris": {"ios": "https://dc.lft.to/lastmile_qr_scan", "android": "https://dc.lft.to/lastmile_qr_scan"}, "name": "7e2c007b53b4e71905362ce6d5054a8e", "is_disabled": 0, "fusion_lon": 0.0, "fusion_lat": 0.0, "lon": -77.014843, "bike_id": "7e2c007b53b4e71905362ce6d5054a8e", "lat": 38.926691, "is_reserved": 0, "type": "electric_scooter"}, {"rental_uris": {"ios": "https://dc.lft.to/lastmile_qr_scan", "android": "https://dc.lft.to/lastmile_qr_scan"}, "name": "84c3015b342dc7b3ab0f87bd9d76c46e", "is_disabled": 0, "fusion_lon": 0.0, "fusion_lat": 0.0, "lon": -77.022154, "bike_id": "84c3015b342dc7b3ab0f87bd9d76c46e", "lat": 38.92471616666667, "is_reserved": 0, "type": "electric_scooter"}, {"rental_uris": {"ios": "https://dc.lft.to/lastmile_qr_scan", "android": "https://dc.lft.to/lastmile_qr_scan"}, "name": "4539e5f989105c53ec8ecb8a4045476a", "is_disabled": 0, "fusion_lon": 0.0, "fusion_lat": 0.0, "lon": -77.00601616666667, "bike_id": "4539e5f989105c53ec8ecb8a4045476a", "lat": 38.90579283333334, "is_reserved": 0, "type": "electric_scooter"}, {"rental_uris": {"ios": "https://dc.lft.to/lastmile_qr_scan", "android": "https://dc.lft.to/lastmile_qr_scan"}, "name": "74821fe8b08b5fca89eaca186e997c3e", "is_disabled": 0, "fusion_lon": 0.0, "fusion_lat": 0.0, "lon": -76.9296705, "bike_id": "74821fe8b08b5fca89eaca186e997c3e", "lat": 38.896313166666665, "is_reserved": 0, "type": "electric_scooter"}, {"rental_uris": {"ios": "https://dc.lft.to/lastmile_qr_scan", "android": "https://dc.lft.to/lastmile_qr_scan"}, "name": "a2aec299f6673a3fe4a51e5c62457164", "is_disabled": 0, "fusion_lon": 0.0, "fusion_lat": 0.0, "lon": -76.9861675, "bike_id": "a2aec299f6673a3fe4a51e5c62457164", "lat": 38.90346733333333, "is_reserved": 0, "type": "electric_scooter"}, {"rental_uris": {"ios": "https://dc.lft.to/lastmile_qr_scan", "android": "https://dc.lft.to/lastmile_qr_scan"}, "name": "fb4c9d3b07fbd2728a05d80927adbbe0", "is_disabled": 0, "fusion_lon": 0.0, "fusion_lat": 0.0, "lon": -77.024071, "bike_id": "fb4c9d3b07fbd2728a05d80927adbbe0", "lat": 38.920886, "is_reserved": 0, "type": "electric_scooter"}, {"rental_uris": {"ios": "https://dc.lft.to/lastmile_qr_scan", "android": "https://dc.lft.to/lastmile_qr_scan"}, "name": "78d08ee5ce0e765f93d01da71396576f", "is_disabled": 0, "fusion_lon": 0.0, "fusion_lat": 0.0, "lon": -76.97719633333334, "bike_id": "78d08ee5ce0e765f93d01da71396576f", "lat": 38.88821266666667, "is_reserved": 0, "type": "electric_scooter"}, {"rental_uris": {"ios": "https://dc.lft.to/lastmile_qr_scan", "android": "https://dc.lft.to/lastmile_qr_scan"}, "name": "2c541327dbeadfe0af90078bd0184216", "is_disabled": 0, "fusion_lon": 0.0, "fusion_lat": 0.0, "lon": -77.12936166666667, "bike_id": "2c541327dbeadfe0af90078bd0184216", "lat": 38.86581266666666, "is_reserved": 0, "type": "electric_bike"}, {"rental_uris": {"ios": "https://dc.lft.to/lastmile_qr_scan", "android": "https://dc.lft.to/lastmile_qr_scan"}, "name": "6e9c47aa0d70a95d7445c2893397a9f2", "is_disabled": 0, "fusion_lon": 0.0, "fusion_lat": 0.0, "lon": -77.00715816666667, "bike_id": "6e9c47aa0d70a95d7445c2893397a9f2", "lat": 38.884884666666665, "is_reserved": 0, "type": "electric_scooter"}, {"rental_uris": {"ios": "https://dc.lft.to/lastmile_qr_scan", "android": "https://dc.lft.to/lastmile_qr_scan"}, "name": "5ec1bd9db885c2ba8fb199edcf37ea32", "is_disabled": 0, "fusion_lon": 0.0, "fusion_lat": 0.0, "lon": -77.0627295, "bike_id": "5ec1bd9db885c2ba8fb199edcf37ea32", "lat": 38.905712, "is_reserved": 0, "type": "electric_scooter"}, {"rental_uris": {"ios": "https://dc.lft.to/lastmile_qr_scan", "android": "https://dc.lft.to/lastmile_qr_scan"}, "name": "731cde83ae7e9314748d8350cded7c78", "is_disabled": 0, "fusion_lon": 0.0, "fusion_lat": 0.0, "lon": -77.04160966666667, "bike_id": "731cde83ae7e9314748d8350cded7c78", "lat": 38.93413816666666, "is_reserved": 0, "type": "electric_scooter"}, {"rental_uris": {"ios": "https://dc.lft.to/lastmile_qr_scan", "android": "https://dc.lft.to/lastmile_qr_scan"}, "name": "3c8619529c7d630497b6ed41886c2ae6", "is_disabled": 0, "fusion_lon": 0.0, "fusion_lat": 0.0, "lon": -77.023544, "bike_id": "3c8619529c7d630497b6ed41886c2ae6", "lat": 38.920373, "is_reserved": 0, "type": "electric_scooter"}, {"rental_uris": {"ios": "https://dc.lft.to/lastmile_qr_scan", "android": "https://dc.lft.to/lastmile_qr_scan"}, "name": "ff5618d24bc1416bd602ab0003463f82", "is_disabled": 0, "fusion_lon": 0.0, "fusion_lat": 0.0, "lon": -77.02955016666667, "bike_id": "ff5618d24bc1416bd602ab0003463f82", "lat": 38.91685966666667, "is_reserved": 0, "type": "electric_scooter"}, {"rental_uris": {"ios": "https://dc.lft.to/lastmile_qr_scan", "android": "https://dc.lft.to/lastmile_qr_scan"}, "name": "60e8c575858bc0e9756b7d5d9ee8d6bb", "is_disabled": 0, "fusion_lon": 0.0, "fusion_lat": 0.0, "lon": -76.93124183333333, "bike_id": "60e8c575858bc0e9756b7d5d9ee8d6bb", "lat": 38.8895725, "is_reserved": 0, "type": "electric_scooter"}, {"rental_uris": {"ios": "https://dc.lft.to/lastmile_qr_scan", "android": "https://dc.lft.to/lastmile_qr_scan"}, "name": "f6a5599252cf0adae410f3a3d046cdac", "is_disabled": 0, "fusion_lon": 0.0, "fusion_lat": 0.0, "lon": -77.038819, "bike_id": "f6a5599252cf0adae410f3a3d046cdac", "lat": 38.918501666666664, "is_reserved": 0, "type": "electric_scooter"}, {"rental_uris": {"ios": "https://dc.lft.to/lastmile_qr_scan", "android": "https://dc.lft.to/lastmile_qr_scan"}, "name": "94084ad491497c0a803861023fd3111e", "is_disabled": 0, "fusion_lon": 0.0, "fusion_lat": 0.0, "lon": -77.043203, "bike_id": "94084ad491497c0a803861023fd3111e", "lat": 38.9236305, "is_reserved": 0, "type": "electric_scooter"}, {"rental_uris": {"ios": "https://dc.lft.to/lastmile_qr_scan", "android": "https://dc.lft.to/lastmile_qr_scan"}, "name": "1117e62524519e40391415392ecd57f0", "is_disabled": 0, "fusion_lon": 0.0, "fusion_lat": 0.0, "lon": -77.022116, "bike_id": "1117e62524519e40391415392ecd57f0", "lat": 38.89409716666667, "is_reserved": 0, "type": "electric_scooter"}, {"rental_uris": {"ios": "https://dc.lft.to/lastmile_qr_scan", "android": "https://dc.lft.to/lastmile_qr_scan"}, "name": "2b47763db11094a751d60cdb7937e61f", "is_disabled": 0, "fusion_lon": 0.0, "fusion_lat": 0.0, "lon": -77.04335816666666, "bike_id": "2b47763db11094a751d60cdb7937e61f", "lat": 38.92322083333333, "is_reserved": 0, "type": "electric_scooter"}, {"rental_uris": {"ios": "https://dc.lft.to/lastmile_qr_scan", "android": "https://dc.lft.to/lastmile_qr_scan"}, "name": "5276f88d048c754ae5df19e4fc13702c", "is_disabled": 0, "fusion_lon": 0.0, "fusion_lat": 0.0, "lon": -77.04168483333333, "bike_id": "5276f88d048c754ae5df19e4fc13702c", "lat": 38.89747283333333, "is_reserved": 0, "type": "electric_scooter"}, {"rental_uris": {"ios": "https://dc.lft.to/lastmile_qr_scan", "android": "https://dc.lft.to/lastmile_qr_scan"}, "name": "d18c54cf45348845352ca9601f8712a5", "is_disabled": 0, "fusion_lon": 0.0, "fusion_lat": 0.0, "lon": -77.02451066666667, "bike_id": "d18c54cf45348845352ca9601f8712a5", "lat": 38.94980666666667, "is_reserved": 0, "type": "electric_scooter"}, {"rental_uris": {"ios": "https://dc.lft.to/lastmile_qr_scan", "android": "https://dc.lft.to/lastmile_qr_scan"}, "name": "7c913cbac8912665701de374f13c6de9", "is_disabled": 0, "fusion_lon": 0.0, "fusion_lat": 0.0, "lon": -77.11410766666667, "bike_id": "7c913cbac8912665701de374f13c6de9", "lat": 38.873199, "is_reserved": 0, "type": "electric_bike"}, {"rental_uris": {"ios": "https://dc.lft.to/lastmile_qr_scan", "android": "https://dc.lft.to/lastmile_qr_scan"}, "name": "3ed068efd4ffb38c6d0847353d5d4d34", "is_disabled": 0, "fusion_lon": 0.0, "fusion_lat": 0.0, "lon": -77.06352816666667, "bike_id": "3ed068efd4ffb38c6d0847353d5d4d34", "lat": 38.944508666666664, "is_reserved": 0, "type": "electric_scooter"}, {"rental_uris": {"ios": "https://dc.lft.to/lastmile_qr_scan", "android": "https://dc.lft.to/lastmile_qr_scan"}, "name": "ebfd6b92673b5c9f96800b6ba7ed98e2", "is_disabled": 0, "fusion_lon": 0.0, "fusion_lat": 0.0, "lon": -77.0456435, "bike_id": "ebfd6b92673b5c9f96800b6ba7ed98e2", "lat": 38.913914, "is_reserved": 0, "type": "electric_scooter"}, {"rental_uris": {"ios": "https://dc.lft.to/lastmile_qr_scan", "android": "https://dc.lft.to/lastmile_qr_scan"}, "name": "4b3d18c5a5b44a4e4f7a31288248b9db", "is_disabled": 0, "fusion_lon": 0.0, "fusion_lat": 0.0, "lon": -76.90178016666667, "bike_id": "4b3d18c5a5b44a4e4f7a31288248b9db", "lat": 39.00188383333333, "is_reserved": 0, "type": "electric_bike"}, {"rental_uris": {"ios": "https://dc.lft.to/lastmile_qr_scan", "android": "https://dc.lft.to/lastmile_qr_scan"}, "name": "6e2a8143dcda9b0dba6997f49812b6cf", "is_disabled": 0, "fusion_lon": 0.0, "fusion_lat": 0.0, "lon": -77.045503, "bike_id": "6e2a8143dcda9b0dba6997f49812b6cf", "lat": 38.896103, "is_reserved": 0, "type": "electric_scooter"}, {"rental_uris": {"ios": "https://dc.lft.to/lastmile_qr_scan", "android": "https://dc.lft.to/lastmile_qr_scan"}, "name": "6da7ac587c285ced2353c0d5d0562fd8", "is_disabled": 0, "fusion_lon": 0.0, "fusion_lat": 0.0, "lon": -76.983367, "bike_id": "6da7ac587c285ced2353c0d5d0562fd8", "lat": 38.8954435, "is_reserved": 0, "type": "electric_scooter"}, {"rental_uris": {"ios": "https://dc.lft.to/lastmile_qr_scan", "android": "https://dc.lft.to/lastmile_qr_scan"}, "name": "c3003bad155c11625524ff00c59e8378", "is_disabled": 0, "fusion_lon": 0.0, "fusion_lat": 0.0, "lon": -77.038292, "bike_id": "c3003bad155c11625524ff00c59e8378", "lat": 38.902664, "is_reserved": 0, "type": "electric_scooter"}, {"rental_uris": {"ios": "https://dc.lft.to/lastmile_qr_scan", "android": "https://dc.lft.to/lastmile_qr_scan"}, "name": "6a2acd53fc480794d6abe7563ea1c520", "is_disabled": 0, "fusion_lon": 0.0, "fusion_lat": 0.0, "lon": -77.02036033333333, "bike_id": "6a2acd53fc480794d6abe7563ea1c520", "lat": 38.92439616666667, "is_reserved": 0, "type": "electric_scooter"}, {"rental_uris": {"ios": "https://dc.lft.to/lastmile_qr_scan", "android": "https://dc.lft.to/lastmile_qr_scan"}, "name": "1f9a3743210193eb6ad3d2b8bd3919e0", "is_disabled": 0, "fusion_lon": 0.0, "fusion_lat": 0.0, "lon": -77.00294766666667, "bike_id": "1f9a3743210193eb6ad3d2b8bd3919e0", "lat": 38.89197883333333, "is_reserved": 0, "type": "electric_scooter"}, {"rental_uris": {"ios": "https://dc.lft.to/lastmile_qr_scan", "android": "https://dc.lft.to/lastmile_qr_scan"}, "name": "bf99ba25d6ea0d08f323eff633961eff", "is_disabled": 0, "fusion_lon": 0.0, "fusion_lat": 0.0, "lon": -76.99033033333333, "bike_id": "bf99ba25d6ea0d08f323eff633961eff", "lat": 38.898518333333335, "is_reserved": 0, "type": "electric_scooter"}, {"rental_uris": {"ios": "https://dc.lft.to/lastmile_qr_scan", "android": "https://dc.lft.to/lastmile_qr_scan"}, "name": "535aef96c38a35f81bbf23f07e742290", "is_disabled": 0, "fusion_lon": 0.0, "fusion_lat": 0.0, "lon": -77.00922433333334, "bike_id": "535aef96c38a35f81bbf23f07e742290", "lat": 38.91343666666667, "is_reserved": 0, "type": "electric_scooter"}, {"rental_uris": {"ios": "https://dc.lft.to/lastmile_qr_scan", "android": "https://dc.lft.to/lastmile_qr_scan"}, "name": "65dc7c9a6ef71d3ab5b08ff460643160", "is_disabled": 0, "fusion_lon": 0.0, "fusion_lat": 0.0, "lon": -77.00350316666666, "bike_id": "65dc7c9a6ef71d3ab5b08ff460643160", "lat": 38.92262133333333, "is_reserved": 0, "type": "electric_scooter"}, {"rental_uris": {"ios": "https://dc.lft.to/lastmile_qr_scan", "android": "https://dc.lft.to/lastmile_qr_scan"}, "name": "c3d593a00245ab244e0cdfc4927440fd", "is_disabled": 0, "fusion_lon": 0.0, "fusion_lat": 0.0, "lon": -77.0033855, "bike_id": "c3d593a00245ab244e0cdfc4927440fd", "lat": 38.89354216666667, "is_reserved": 0, "type": "electric_scooter"}, {"rental_uris": {"ios": "https://dc.lft.to/lastmile_qr_scan", "android": "https://dc.lft.to/lastmile_qr_scan"}, "name": "5f9150c746c6061ca9fe3d615a777f35", "is_disabled": 0, "fusion_lon": 0.0, "fusion_lat": 0.0, "lon": -76.94891683333333, "bike_id": "5f9150c746c6061ca9fe3d615a777f35", "lat": 38.89535383333333, "is_reserved": 0, "type": "electric_scooter"}, {"rental_uris": {"ios": "https://dc.lft.to/lastmile_qr_scan", "android": "https://dc.lft.to/lastmile_qr_scan"}, "name": "87f946a563ac406e94690a81c5fa6c20", "is_disabled": 0, "fusion_lon": 0.0, "fusion_lat": 0.0, "lon": -76.9790405, "bike_id": "87f946a563ac406e94690a81c5fa6c20", "lat": 38.88862016666667, "is_reserved": 0, "type": "electric_scooter"}, {"rental_uris": {"ios": "https://dc.lft.to/lastmile_qr_scan", "android": "https://dc.lft.to/lastmile_qr_scan"}, "name": "8bda90dd7e5af4254c806d5ae5e8fe5b", "is_disabled": 0, "fusion_lon": 0.0, "fusion_lat": 0.0, "lon": -77.00894816666667, "bike_id": "8bda90dd7e5af4254c806d5ae5e8fe5b", "lat": 38.90979516666667, "is_reserved": 0, "type": "electric_scooter"}, {"rental_uris": {"ios": "https://dc.lft.to/lastmile_qr_scan", "android": "https://dc.lft.to/lastmile_qr_scan"}, "name": "6578bf04cd239710be85111969a34eda", "is_disabled": 0, "fusion_lon": 0.0, "fusion_lat": 0.0, "lon": -76.98983083333333, "bike_id": "6578bf04cd239710be85111969a34eda", "lat": 38.890504, "is_reserved": 0, "type": "electric_scooter"}, {"rental_uris": {"ios": "https://dc.lft.to/lastmile_qr_scan", "android": "https://dc.lft.to/lastmile_qr_scan"}, "name": "25df113ea7b200ae88a1c6c4872a428f", "is_disabled": 0, "fusion_lon": 0.0, "fusion_lat": 0.0, "lon": -77.00048883333334, "bike_id": "25df113ea7b200ae88a1c6c4872a428f", "lat": 38.87884, "is_reserved": 0, "type": "electric_scooter"}, {"rental_uris": {"ios": "https://dc.lft.to/lastmile_qr_scan", "android": "https://dc.lft.to/lastmile_qr_scan"}, "name": "540da052fe1f820348c4a1ce6a7ec1d0", "is_disabled": 0, "fusion_lon": 0.0, "fusion_lat": 0.0, "lon": -77.00330866666667, "bike_id": "540da052fe1f820348c4a1ce6a7ec1d0", "lat": 38.893571, "is_reserved": 0, "type": "electric_scooter"}, {"rental_uris": {"ios": "https://dc.lft.to/lastmile_qr_scan", "android": "https://dc.lft.to/lastmile_qr_scan"}, "name": "acfdeb09cfe6d369e01ad8b2d13315da", "is_disabled": 0, "fusion_lon": 0.0, "fusion_lat": 0.0, "lon": -77.00714116666667, "bike_id": "acfdeb09cfe6d369e01ad8b2d13315da", "lat": 38.8849095, "is_reserved": 0, "type": "electric_scooter"}, {"rental_uris": {"ios": "https://dc.lft.to/lastmile_qr_scan", "android": "https://dc.lft.to/lastmile_qr_scan"}, "name": "b1c7e6d0fead64b9e46668e134be9d84", "is_disabled": 0, "fusion_lon": 0.0, "fusion_lat": 0.0, "lon": -77.04871333333334, "bike_id": "b1c7e6d0fead64b9e46668e134be9d84", "lat": 38.90971583333334, "is_reserved": 0, "type": "electric_scooter"}, {"rental_uris": {"ios": "https://dc.lft.to/lastmile_qr_scan", "android": "https://dc.lft.to/lastmile_qr_scan"}, "name": "d8ac83220ccec0c4263ee3a724975526", "is_disabled": 0, "fusion_lon": 0.0, "fusion_lat": 0.0, "lon": -77.01800716666666, "bike_id": "d8ac83220ccec0c4263ee3a724975526", "lat": 38.9141815, "is_reserved": 0, "type": "electric_scooter"}, {"rental_uris": {"ios": "https://dc.lft.to/lastmile_qr_scan", "android": "https://dc.lft.to/lastmile_qr_scan"}, "name": "be71f3112300b28c2a9ed7840d4fd4e0", "is_disabled": 0, "fusion_lon": 0.0, "fusion_lat": 0.0, "lon": -76.97640133333333, "bike_id": "be71f3112300b28c2a9ed7840d4fd4e0", "lat": 38.88686883333333, "is_reserved": 0, "type": "electric_scooter"}, {"rental_uris": {"ios": "https://dc.lft.to/lastmile_qr_scan", "android": "https://dc.lft.to/lastmile_qr_scan"}, "name": "ece445cb085a341e1f44479f4cd1cab0", "is_disabled": 0, "fusion_lon": 0.0, "fusion_lat": 0.0, "lon": -77.0012395, "bike_id": "ece445cb085a341e1f44479f4cd1cab0", "lat": 38.90562383333334, "is_reserved": 0, "type": "electric_scooter"}, {"rental_uris": {"ios": "https://dc.lft.to/lastmile_qr_scan", "android": "https://dc.lft.to/lastmile_qr_scan"}, "name": "b574e2089483d0f2397e77b00da70ab0", "is_disabled": 0, "fusion_lon": 0.0, "fusion_lat": 0.0, "lon": -77.04106183333333, "bike_id": "b574e2089483d0f2397e77b00da70ab0", "lat": 38.90153933333333, "is_reserved": 0, "type": "electric_scooter"}, {"rental_uris": {"ios": "https://dc.lft.to/lastmile_qr_scan", "android": "https://dc.lft.to/lastmile_qr_scan"}, "name": "0974a6ad8a250c649696e3309f1fd9f8", "is_disabled": 0, "fusion_lon": 0.0, "fusion_lat": 0.0, "lon": -77.23414933333333, "bike_id": "0974a6ad8a250c649696e3309f1fd9f8", "lat": 38.875803, "is_reserved": 0, "type": "electric_bike"}, {"rental_uris": {"ios": "https://dc.lft.to/lastmile_qr_scan", "android": "https://dc.lft.to/lastmile_qr_scan"}, "name": "89bd21ad5ebf001cd55a9c22776c1022", "is_disabled": 0, "fusion_lon": 0.0, "fusion_lat": 0.0, "lon": -77.064758, "bike_id": "89bd21ad5ebf001cd55a9c22776c1022", "lat": 38.90986516666667, "is_reserved": 0, "type": "electric_scooter"}, {"rental_uris": {"ios": "https://dc.lft.to/lastmile_qr_scan", "android": "https://dc.lft.to/lastmile_qr_scan"},