{"data": {"bikes": [{"rental_uris": {"ios": "https://dc.lft.to/lastmile_qr_scan", "android": "https://dc.lft.to/lastmile_qr_scan"}, "type": "electric_scooter", "name": "3bee15f018c9998a0de548f5eef44e6c", "is_reserved": 0, "lon": -77.00509483333333, "is_disabled": 0, "fusion_lat": 0.0, "lat": 38.96045616666667, "bike_id": "3bee15f018c9998a0de548f5eef44e6c", "fusion_lon": 0.0}, {"rental_uris": {"ios": "https://dc.lft.to/lastmile_qr_scan", "android": "https://dc.lft.to/lastmile_qr_scan"}, "type": "electric_scooter", "name": "b35b1a0a65d985463d66d365ec03da4f", "is_reserved": 0, "lon": -76.9519825, "is_disabled": 0, "fusion_lat": 0.0, "lat": 38.905117833333335, "bike_id": "b35b1a0a65d985463d66d365ec03da4f", "fusion_lon": 0.0}, {"rental_uris": {"ios": "https://dc.lft.to/lastmile_qr_scan", "android": "https://dc.lft.to/lastmile_qr_scan"}, "type": "electric_bike", "name": "5594ad3762205effdb35e474d04a323c", "is_reserved": 0, "lon": -77.1270095, "is_disabled": 0, "fusion_lat": 0.0, "lat": 38.895667333333336, "bike_id": "5594ad3762205effdb35e474d04a323c", "fusion_lon": 0.0}, {"rental_uris": {"ios": "https://dc.lft.to/lastmile_qr_scan", "android": "https://dc.lft.to/lastmile_qr_scan"}, "type": "electric_scooter", "name": "2921be1807bc287e1e50384a5e952ec5", "is_reserved": 0, "lon": -77.032181, "is_disabled": 0, "fusion_lat": 0.0, "lat": 38.916343833333336, "bike_id": "2921be1807bc287e1e50384a5e952ec5", "fusion_lon": 0.0}, {"rental_uris": {"ios": "https://dc.lft.to/lastmile_qr_scan", "android": "https://dc.lft.to/lastmile_qr_scan"}, "type": "electric_scooter", "name": "0e5b3f66315a2cbaef92544b1b8681cc", "is_reserved": 0, "lon": -77.03210366666667, "is_disabled": 0, "fusion_lat": 0.0, "lat": 38.9120205, "bike_id": "0e5b3f66315a2cbaef92544b1b8681cc", "fusion_lon": 0.0}, {"rental_uris": {"ios": "https://dc.lft.to/lastmile_qr_scan", "android": "https://dc.lft.to/lastmile_qr_scan"}, "type": "electric_scooter", "name": "048d6b2d59212a2adb90d440378a687b", "is_reserved": 0, "lon": -77.01363966666666, "is_disabled": 0, "fusion_lat": 0.0, "lat": 38.895968833333335, "bike_id": "048d6b2d59212a2adb90d440378a687b", "fusion_lon": 0.0}, {"rental_uris": {"ios": "https://dc.lft.to/lastmile_qr_scan", "android": "https://dc.lft.to/lastmile_qr_scan"}, "type": "electric_scooter", "name": "a8ee8788e9a8eb1cd74817ed2bdd0eb8", "is_reserved": 0, "lon": -77.04398766666667, "is_disabled": 0, "fusion_lat": 0.0, "lat": 38.929483833333336, "bike_id": "a8ee8788e9a8eb1cd74817ed2bdd0eb8", "fusion_lon": 0.0}, {"rental_uris": {"ios": "https://dc.lft.to/lastmile_qr_scan", "android": "https://dc.lft.to/lastmile_qr_scan"}, "type": "electric_scooter", "name": "2d948bbfdb8fe350c069d438c5086aa8", "is_reserved": 0, "lon": -77.04920033333333, "is_disabled": 0, "fusion_lat": 0.0, "lat": 38.8995235, "bike_id": "2d948bbfdb8fe350c069d438c5086aa8", "fusion_lon": 0.0}, {"rental_uris": {"ios": "https://dc.lft.to/lastmile_qr_scan", "android": "https://dc.lft.to/lastmile_qr_scan"}, "type": "electric_scooter", "name": "7d1af3b9f4553a769cb052b57b9b0942", "is_reserved": 0, "lon": -77.04253516666667, "is_disabled": 0, "fusion_lat": 0.0, "lat": 38.9045545, "bike_id": "7d1af3b9f4553a769cb052b57b9b0942", "fusion_lon": 0.0}, {"rental_uris": {"ios": "https://dc.lft.to/lastmile_qr_scan", "android": "https://dc.lft.to/lastmile_qr_scan"}, "type": "electric_scooter", "name": "720cbf150d1f22b1795ac1ae89c96d2e", "is_reserved": 0, "lon": -77.021992, "is_disabled": 0, "fusion_lat": 0.0, "lat": 38.90168883333333, "bike_id": "720cbf150d1f22b1795ac1ae89c96d2e", "fusion_lon": 0.0}, {"rental_uris": {"ios": "https://dc.lft.to/lastmile_qr_scan", "android": "https://dc.lft.to/lastmile_qr_scan"}, "type": "electric_scooter", "name": "8f662fe7c744f0a8eae3c68076261533", "is_reserved": 0, "lon": -77.0521095, "is_disabled": 0, "fusion_lat": 0.0, "lat": 38.92441733333333, "bike_id": "8f662fe7c744f0a8eae3c68076261533", "fusion_lon": 0.0}, {"rental_uris": {"ios": "https://dc.lft.to/lastmile_qr_scan", "android": "https://dc.lft.to/lastmile_qr_scan"}, "type": "electric_scooter", "name": "202daac0a751cc4a64f9e7117b1a9268", "is_reserved": 0, "lon": -77.0296995, "is_disabled": 0, "fusion_lat": 0.0, "lat": 38.923985333333334, "bike_id": "202daac0a751cc4a64f9e7117b1a9268", "fusion_lon": 0.0}, {"rental_uris": {"ios": "https://dc.lft.to/lastmile_qr_scan", "android": "https://dc.lft.to/lastmile_qr_scan"}, "type": "electric_scooter", "name": "57e5b2ededd6e0c6ec5ffd178321aed2", "is_reserved": 0, "lon": -76.9840725, "is_disabled": 0, "fusion_lat": 0.0, "lat": 38.9146835, "bike_id": "57e5b2ededd6e0c6ec5ffd178321aed2", "fusion_lon": 0.0}, {"rental_uris": {"ios": "https://dc.lft.to/lastmile_qr_scan", "android": "https://dc.lft.to/lastmile_qr_scan"}, "type": "electric_scooter", "name": "bdba9d3737cf3738cea2fa18e9d1574e", "is_reserved": 0, "lon": -77.0732835, "is_disabled": 0, "fusion_lat": 0.0, "lat": 38.91358666666667, "bike_id": "bdba9d3737cf3738cea2fa18e9d1574e", "fusion_lon": 0.0}, {"rental_uris": {"ios": "https://dc.lft.to/lastmile_qr_scan", "android": "https://dc.lft.to/lastmile_qr_scan"}, "type": "electric_scooter", "name": "c68a0b141918e196817f6b762a979888", "is_reserved": 0, "lon": -76.92894183333334, "is_disabled": 0, "fusion_lat": 0.0, "lat": 38.879409, "bike_id": "c68a0b141918e196817f6b762a979888", "fusion_lon": 0.0}, {"rental_uris": {"ios": "https://dc.lft.to/lastmile_qr_scan", "android": "https://dc.lft.to/lastmile_qr_scan"}, "type": "electric_scooter", "name": "4ca37b179a058f5e31517d8142858d33", "is_reserved": 0, "lon": -77.0098045, "is_disabled": 0, "fusion_lat": 0.0, "lat": 38.90564583333333, "bike_id": "4ca37b179a058f5e31517d8142858d33", "fusion_lon": 0.0}, {"rental_uris": {"ios": "https://dc.lft.to/lastmile_qr_scan", "android": "https://dc.lft.to/lastmile_qr_scan"}, "type": "electric_scooter", "name": "ad74f92a7c7aeeffc2ea74b79806061e", "is_reserved": 0, "lon": -77.00559316666667, "is_disabled": 0, "fusion_lat": 0.0, "lat": 38.874693, "bike_id": "ad74f92a7c7aeeffc2ea74b79806061e", "fusion_lon": 0.0}, {"rental_uris": {"ios": "https://dc.lft.to/lastmile_qr_scan", "android": "https://dc.lft.to/lastmile_qr_scan"}, "type": "electric_scooter", "name": "13fef993ea2268c0cee5a5e915c1f2ae", "is_reserved": 0, "lon": -76.99732533333334, "is_disabled": 0, "fusion_lat": 0.0, "lat": 38.90788533333333, "bike_id": "13fef993ea2268c0cee5a5e915c1f2ae", "fusion_lon": 0.0}, {"rental_uris": {"ios": "https://dc.lft.to/lastmile_qr_scan", "android": "https://dc.lft.to/lastmile_qr_scan"}, "type": "electric_scooter", "name": "0ed58c9c3dee08753703d2a0bd78b8fc", "is_reserved": 0, "lon": -77.04515366666666, "is_disabled": 0, "fusion_lat": 0.0, "lat": 38.8997345, "bike_id": "0ed58c9c3dee08753703d2a0bd78b8fc", "fusion_lon": 0.0}, {"rental_uris": {"ios": "https://dc.lft.to/lastmile_qr_scan", "android": "https://dc.lft.to/lastmile_qr_scan"}, "type": "electric_scooter", "name": "7fe0bdcb3e49eee00d2675c817b01ec0", "is_reserved": 0, "lon": -77.0021015, "is_disabled": 0, "fusion_lat": 0.0, "lat": 38.90024783333333, "bike_id": "7fe0bdcb3e49eee00d2675c817b01ec0", "fusion_lon": 0.0}, {"rental_uris": {"ios": "https://dc.lft.to/lastmile_qr_scan", "android": "https://dc.lft.to/lastmile_qr_scan"}, "type": "electric_scooter", "name": "c94eba1c13dda0d93df2f06a0d4d635e", "is_reserved": 0, "lon": -76.98026716666666, "is_disabled": 0, "fusion_lat": 0.0, "lat": 38.9168695, "bike_id": "c94eba1c13dda0d93df2f06a0d4d635e", "fusion_lon": 0.0}, {"rental_uris": {"ios": "https://dc.lft.to/lastmile_qr_scan", "android": "https://dc.lft.to/lastmile_qr_scan"}, "type": "electric_scooter", "name": "1980557bcd7e6fbb8905caecd35f1eef", "is_reserved": 0, "lon": -77.04964616666666, "is_disabled": 0, "fusion_lat": 0.0, "lat": 38.913427166666665, "bike_id": "1980557bcd7e6fbb8905caecd35f1eef", "fusion_lon": 0.0}, {"rental_uris": {"ios": "https://dc.lft.to/lastmile_qr_scan", "android": "https://dc.lft.to/lastmile_qr_scan"}, "type": "electric_scooter", "name": "345bbd297e2694704be2ecb899a22784", "is_reserved": 0, "lon": -77.03826766666667, "is_disabled": 0, "fusion_lat": 0.0, "lat": 38.903696333333336, "bike_id": "345bbd297e2694704be2ecb899a22784", "fusion_lon": 0.0}, {"rental_uris": {"ios": "https://dc.lft.to/lastmile_qr_scan", "android": "https://dc.lft.to/lastmile_qr_scan"}, "type": "electric_bike", "name": "4df40a27bd1033ee4a6c5e87f9e15fbd", "is_reserved": 0, "lon": -76.941627, "is_disabled": 0, "fusion_lat": 0.0, "lat": 38.86549133333333, "bike_id": "4df40a27bd1033ee4a6c5e87f9e15fbd", "fusion_lon": 0.0}, {"rental_uris": {"ios": "https://dc.lft.to/lastmile_qr_scan", "android": "https://dc.lft.to/lastmile_qr_scan"}, "type": "electric_scooter", "name": "d50109624e6aab51452887511fb57609", "is_reserved": 0, "lon": -77.0403985, "is_disabled": 0, "fusion_lat": 0.0, "lat": 38.9061255, "bike_id": "d50109624e6aab51452887511fb57609", "fusion_lon": 0.0}, {"rental_uris": {"ios": "https://dc.lft.to/lastmile_qr_scan", "android": "https://dc.lft.to/lastmile_qr_scan"}, "type": "electric_scooter", "name": "fc7d953a22893c3bacd733cf5ed199db", "is_reserved": 0, "lon": -77.04134433333333, "is_disabled": 0, "fusion_lat": 0.0, "lat": 38.934068333333336, "bike_id": "fc7d953a22893c3bacd733cf5ed199db", "fusion_lon": 0.0}, {"rental_uris": {"ios": "https://dc.lft.to/lastmile_qr_scan", "android": "https://dc.lft.to/lastmile_qr_scan"}, "type": "electric_scooter", "name": "fe21e9cffd082e0d2fc568c7ab36a15e", "is_reserved": 0, "lon": -77.02162816666667, "is_disabled": 0, "fusion_lat": 0.0, "lat": 38.925020833333335, "bike_id": "fe21e9cffd082e0d2fc568c7ab36a15e", "fusion_lon": 0.0}, {"rental_uris": {"ios": "https://dc.lft.to/lastmile_qr_scan", "android": "https://dc.lft.to/lastmile_qr_scan"}, "type": "electric_scooter", "name": "8766df3db912614656ae677b2e216ead", "is_reserved": 0, "lon": -77.03968516666667, "is_disabled": 0, "fusion_lat": 0.0, "lat": 38.89879883333333, "bike_id": "8766df3db912614656ae677b2e216ead", "fusion_lon": 0.0}, {"rental_uris": {"ios": "https://dc.lft.to/lastmile_qr_scan", "android": "https://dc.lft.to/lastmile_qr_scan"}, "type": "electric_scooter", "name": "1126c66beee63778ef8a50a8cc65b957", "is_reserved": 0, "lon": -77.01999366666666, "is_disabled": 0, "fusion_lat": 0.0, "lat": 38.900492166666666, "bike_id": "1126c66beee63778ef8a50a8cc65b957", "fusion_lon": 0.0}, {"rental_uris": {"ios": "https://dc.lft.to/lastmile_qr_scan", "android": "https://dc.lft.to/lastmile_qr_scan"}, "type": "electric_scooter", "name": "6ef4647a3f409b3aa40eff836aa45041", "is_reserved": 0, "lon": -77.01957366666667, "is_disabled": 0, "fusion_lat": 0.0, "lat": 38.899664666666666, "bike_id": "6ef4647a3f409b3aa40eff836aa45041", "fusion_lon": 0.0}, {"rental_uris": {"ios": "https://dc.lft.to/lastmile_qr_scan", "android": "https://dc.lft.to/lastmile_qr_scan"}, "type": "electric_scooter", "name": "e6133a74689262235068f1d62d45e252", "is_reserved": 0, "lon": -77.04002366666667, "is_disabled": 0, "fusion_lat": 0.0, "lat": 38.90397383333333, "bike_id": "e6133a74689262235068f1d62d45e252", "fusion_lon": 0.0}, {"rental_uris": {"ios": "https://dc.lft.to/lastmile_qr_scan", "android": "https://dc.lft.to/lastmile_qr_scan"}, "type": "electric_scooter", "name": "89db05c58b4bcc75e73b13f798c4ae2d", "is_reserved": 0, "lon": -77.0261795, "is_disabled": 0, "fusion_lat": 0.0, "lat": 38.883560833333334, "bike_id": "89db05c58b4bcc75e73b13f798c4ae2d", "fusion_lon": 0.0}, {"rental_uris": {"ios": "https://dc.lft.to/lastmile_qr_scan", "android": "https://dc.lft.to/lastmile_qr_scan"}, "type": "electric_scooter", "name": "e12067cb91f018af51f9f9bffa13e688", "is_reserved": 0, "lon": -76.92633033333334, "is_disabled": 0, "fusion_lat": 0.0, "lat": 38.901894166666665, "bike_id": "e12067cb91f018af51f9f9bffa13e688", "fusion_lon": 0.0}, {"rental_uris": {"ios": "https://dc.lft.to/lastmile_qr_scan", "android": "https://dc.lft.to/lastmile_qr_scan"}, "type": "electric_scooter", "name": "d632247b946feb2a649c316a3c2d823d", "is_reserved": 0, "lon": -77.0438235, "is_disabled": 0, "fusion_lat": 0.0, "lat": 38.9342555, "bike_id": "d632247b946feb2a649c316a3c2d823d", "fusion_lon": 0.0}, {"rental_uris": {"ios": "https://dc.lft.to/lastmile_qr_scan", "android": "https://dc.lft.to/lastmile_qr_scan"}, "type": "electric_scooter", "name": "d152ba5d099916c71faabca05831590c", "is_reserved": 0, "lon": -76.98332433333333, "is_disabled": 0, "fusion_lat": 0.0, "lat": 38.900776, "bike_id": "d152ba5d099916c71faabca05831590c", "fusion_lon": 0.0}, {"rental_uris": {"ios": "https://dc.lft.to/lastmile_qr_scan", "android": "https://dc.lft.to/lastmile_qr_scan"}, "type": "electric_scooter", "name": "1c3da5eee7ff1ded67805634d3e5c17f", "is_reserved": 0, "lon": -77.04986733333334, "is_disabled": 0, "fusion_lat": 0.0, "lat": 38.907955666666666, "bike_id": "1c3da5eee7ff1ded67805634d3e5c17f", "fusion_lon": 0.0}, {"rental_uris": {"ios": "https://dc.lft.to/lastmile_qr_scan", "android": "https://dc.lft.to/lastmile_qr_scan"}, "type": "electric_scooter", "name": "5eaf6b1fcf5e92e3190e7e6c997c589b", "is_reserved": 0, "lon": -77.032015, "is_disabled": 0, "fusion_lat": 0.0, "lat": 38.91352533333333, "bike_id": "5eaf6b1fcf5e92e3190e7e6c997c589b", "fusion_lon": 0.0}, {"rental_uris": {"ios": "https://dc.lft.to/lastmile_qr_scan", "android": "https://dc.lft.to/lastmile_qr_scan"}, "type": "electric_scooter", "name": "b83c48792c1d89cc0856ff5e2b88b264", "is_reserved": 0, "lon": -77.02773933333333, "is_disabled": 0, "fusion_lat": 0.0, "lat": 38.962925, "bike_id": "b83c48792c1d89cc0856ff5e2b88b264", "fusion_lon": 0.0}, {"rental_uris": {"ios": "https://dc.lft.to/lastmile_qr_scan", "android": "https://dc.lft.to/lastmile_qr_scan"}, "type": "electric_scooter", "name": "8cc6d0da5e68976de6561880bb9ff6f9", "is_reserved": 0, "lon": -77.02043033333334, "is_disabled": 0, "fusion_lat": 0.0, "lat": 38.893101333333334, "bike_id": "8cc6d0da5e68976de6561880bb9ff6f9", "fusion_lon": 0.0}, {"rental_uris": {"ios": "https://dc.lft.to/lastmile_qr_scan", "android": "https://dc.lft.to/lastmile_qr_scan"}, "type": "electric_scooter", "name": "67c55b1d661bf3f6a35eb6fa4a2d7ae5", "is_reserved": 0, "lon": -77.02486666666667, "is_disabled": 0, "fusion_lat": 0.0, "lat": 38.918123333333334, "bike_id": "67c55b1d661bf3f6a35eb6fa4a2d7ae5", "fusion_lon": 0.0}, {"rental_uris": {"ios": "https://dc.lft.to/lastmile_qr_scan", "android": "https://dc.lft.to/lastmile_qr_scan"}, "type": "electric_scooter", "name": "c08ec649021aac69fc0f8e93bffb7b4f", "is_reserved": 0, "lon": -77.01770183333333, "is_disabled": 0, "fusion_lat": 0.0, "lat": 38.905099, "bike_id": "c08ec649021aac69fc0f8e93bffb7b4f", "fusion_lon": 0.0}, {"rental_uris": {"ios": "https://dc.lft.to/lastmile_qr_scan", "android": "https://dc.lft.to/lastmile_qr_scan"}, "type": "electric_scooter", "name": "d56196c999181fc1b058b54468f72565", "is_reserved": 0, "lon": -77.04640216666667, "is_disabled": 0, "fusion_lat": 0.0, "lat": 38.91599733333334, "bike_id": "d56196c999181fc1b058b54468f72565", "fusion_lon": 0.0}, {"rental_uris": {"ios": "https://dc.lft.to/lastmile_qr_scan", "android": "https://dc.lft.to/lastmile_qr_scan"}, "type": "electric_scooter", "name": "1850055e54066dbfddda84ac79f86b19", "is_reserved": 0, "lon": -77.043577, "is_disabled": 0, "fusion_lat": 0.0, "lat": 38.907773166666665, "bike_id": "1850055e54066dbfddda84ac79f86b19", "fusion_lon": 0.0}, {"rental_uris": {"ios": "https://dc.lft.to/lastmile_qr_scan", "android": "https://dc.lft.to/lastmile_qr_scan"}, "type": "electric_bike", "name": "cafc463b545cff5101f42e5b14887118", "is_reserved": 0, "lon": -77.0019375, "is_disabled": 0, "fusion_lat": 0.0, "lat": 38.941581166666666, "bike_id": "cafc463b545cff5101f42e5b14887118", "fusion_lon": 0.0}, {"rental_uris": {"ios": "https://dc.lft.to/lastmile_qr_scan", "android": "https://dc.lft.to/lastmile_qr_scan"}, "type": "electric_scooter", "name": "384661fc40422451221955cbae8f6b64", "is_reserved": 0, "lon": -76.95203033333334, "is_disabled": 0, "fusion_lat": 0.0, "lat": 38.905114166666664, "bike_id": "384661fc40422451221955cbae8f6b64", "fusion_lon": 0.0}, {"rental_uris": {"ios": "https://dc.lft.to/lastmile_qr_scan", "android": "https://dc.lft.to/lastmile_qr_scan"}, "type": "electric_scooter", "name": "0a620cc0e6a28463420c3dbcbff38f51", "is_reserved": 0, "lon": -77.05234183333333, "is_disabled": 0, "fusion_lat": 0.0, "lat": 38.92457666666667, "bike_id": "0a620cc0e6a28463420c3dbcbff38f51", "fusion_lon": 0.0}, {"rental_uris": {"ios": "https://dc.lft.to/lastmile_qr_scan", "android": "https://dc.lft.to/lastmile_qr_scan"}, "type": "electric_scooter", "name": "0968a334c127f37f43dd74cc640f2b51", "is_reserved": 0, "lon": -77.0325165, "is_disabled": 0, "fusion_lat": 0.0, "lat": 38.92958816666667, "bike_id": "0968a334c127f37f43dd74cc640f2b51", "fusion_lon": 0.0}, {"rental_uris": {"ios": "https://dc.lft.to/lastmile_qr_scan", "android": "https://dc.lft.to/lastmile_qr_scan"}, "type": "electric_scooter", "name": "b81026a8d2b6f44a9893b1b777e7f48f", "is_reserved": 0, "lon": -77.03188933333334, "is_disabled": 0, "fusion_lat": 0.0, "lat": 38.918424, "bike_id": "b81026a8d2b6f44a9893b1b777e7f48f", "fusion_lon": 0.0}, {"rental_uris": {"ios": "https://dc.lft.to/lastmile_qr_scan", "android": "https://dc.lft.to/lastmile_qr_scan"}, "type": "electric_scooter", "name": "753111d7527fb0a80fef1f8981a08c48", "is_reserved": 0, "lon": -77.024505, "is_disabled": 0, "fusion_lat": 0.0, "lat": 38.918304666666664, "bike_id": "753111d7527fb0a80fef1f8981a08c48", "fusion_lon": 0.0}, {"rental_uris": {"ios": "https://dc.lft.to/lastmile_qr_scan", "android": "https://dc.lft.to/lastmile_qr_scan"}, "type": "electric_scooter", "name": "a4843fe358074bedb4069abced220909", "is_reserved": 0, "lon": -77.015019, "is_disabled": 0, "fusion_lat": 0.0, "lat": 38.8995835, "bike_id": "a4843fe358074bedb4069abced220909", "fusion_lon": 0.0}, {"rental_uris": {"ios": "https://dc.lft.to/lastmile_qr_scan", "android": "https://dc.lft.to/lastmile_qr_scan"}, "type": "electric_scooter", "name": "f60f1185888f76b6a1e1bc78818541ce", "is_reserved": 0, "lon": -77.0409885, "is_disabled": 0, "fusion_lat": 0.0, "lat": 38.899998333333336, "bike_id": "f60f1185888f76b6a1e1bc78818541ce", "fusion_lon": 0.0}, {"rental_uris": {"ios": "https://dc.lft.to/lastmile_qr_scan", "android": "https://dc.lft.to/lastmile_qr_scan"}, "type": "electric_scooter", "name": "d3ca94ac4f1f7a5c5608ba7ccc4ae587", "is_reserved": 0, "lon": -77.02385583333333, "is_disabled": 0, "fusion_lat": 0.0, "lat": 38.919552333333336, "bike_id": "d3ca94ac4f1f7a5c5608ba7ccc4ae587", "fusion_lon": 0.0}, {"rental_uris": {"ios": "https://dc.lft.to/lastmile_qr_scan", "android": "https://dc.lft.to/lastmile_qr_scan"}, "type": "electric_scooter", "name": "10471e8325c7fb4440f11e0ccbdec396", "is_reserved": 0, "lon": -77.032355, "is_disabled": 0, "fusion_lat": 0.0, "lat": 38.906939, "bike_id": "10471e8325c7fb4440f11e0ccbdec396", "fusion_lon": 0.0}, {"rental_uris": {"ios": "https://dc.lft.to/lastmile_qr_scan", "android": "https://dc.lft.to/lastmile_qr_scan"}, "type": "electric_scooter", "name": "58914b668d83c131751eb35ccf1cf7b1", "is_reserved": 0, "lon": -77.04006633333333, "is_disabled": 0, "fusion_lat": 0.0, "lat": 38.91191966666667, "bike_id": "58914b668d83c131751eb35ccf1cf7b1", "fusion_lon": 0.0}, {"rental_uris": {"ios": "https://dc.lft.to/lastmile_qr_scan", "android": "https://dc.lft.to/lastmile_qr_scan"}, "type": "electric_scooter", "name": "c4adce87564f5545e779fa5bb8dc351c", "is_reserved": 0, "lon": -77.021348, "is_disabled": 0, "fusion_lat": 0.0, "lat": 38.92487833333333, "bike_id": "c4adce87564f5545e779fa5bb8dc351c", "fusion_lon": 0.0}, {"rental_uris": {"ios": "https://dc.lft.to/lastmile_qr_scan", "android": "https://dc.lft.to/lastmile_qr_scan"}, "type": "electric_scooter", "name": "97e008c67362ea32d367633e77984aba", "is_reserved": 0, "lon": -77.03710833333334, "is_disabled": 0, "fusion_lat": 0.0, "lat": 38.916525166666666, "bike_id": "97e008c67362ea32d367633e77984aba", "fusion_lon": 0.0}, {"rental_uris": {"ios": "https://dc.lft.to/lastmile_qr_scan", "android": "https://dc.lft.to/lastmile_qr_scan"}, "type": "electric_bike", "name": "a0001029f285ece256bdde56f4659b8b", "is_reserved": 0, "lon": -76.983522, "is_disabled": 0, "fusion_lat": 0.0, "lat": 38.862615, "bike_id": "a0001029f285ece256bdde56f4659b8b", "fusion_lon": 0.0}, {"rental_uris": {"ios": "https://dc.lft.to/lastmile_qr_scan", "android": "https://dc.lft.to/lastmile_qr_scan"}, "type": "electric_bike", "name": "cd674d54ada3b1a382bb2fb64ea51c4a", "is_reserved": 0, "lon": -76.92891866666666, "is_disabled": 0, "fusion_lat": 0.0, "lat": 38.97828783333333, "bike_id": "cd674d54ada3b1a382bb2fb64ea51c4a", "fusion_lon": 0.0}, {"rental_uris": {"ios": "https://dc.lft.to/lastmile_qr_scan", "android": "https://dc.lft.to/lastmile_qr_scan"}, "type": "electric_scooter", "name": "7b0b8c53e74e5e8901761ea5ad1bf677", "is_reserved": 0, "lon": -77.04658533333334, "is_disabled": 0, "fusion_lat": 0.0, "lat": 38.909673166666664, "bike_id": "7b0b8c53e74e5e8901761ea5ad1bf677", "fusion_lon": 0.0}, {"rental_uris": {"ios": "https://dc.lft.to/lastmile_qr_scan", "android": "https://dc.lft.to/lastmile_qr_scan"}, "type": "electric_scooter", "name": "38cd33de5f84ea362c50c7bfe6b4e139", "is_reserved": 0, "lon": -77.021854, "is_disabled": 0, "fusion_lat": 0.0, "lat": 38.910062, "bike_id": "38cd33de5f84ea362c50c7bfe6b4e139", "fusion_lon": 0.0}, {"rental_uris": {"ios": "https://dc.lft.to/lastmile_qr_scan", "android": "https://dc.lft.to/lastmile_qr_scan"}, "type": "electric_scooter", "name": "ce67a0ac24b59d654537a1aa699977db", "is_reserved": 0, "lon": -77.04885316666666, "is_disabled": 0, "fusion_lat": 0.0, "lat": 38.90057766666666, "bike_id": "ce67a0ac24b59d654537a1aa699977db", "fusion_lon": 0.0}, {"rental_uris": {"ios": "https://dc.lft.to/lastmile_qr_scan", "android": "https://dc.lft.to/lastmile_qr_scan"}, "type": "electric_scooter", "name": "d2df30cdf55e12d05e1a54058e4a09d5", "is_reserved": 0, "lon": -77.0277215, "is_disabled": 0, "fusion_lat": 0.0, "lat": 38.91694066666667, "bike_id": "d2df30cdf55e12d05e1a54058e4a09d5", "fusion_lon": 0.0}, {"rental_uris": {"ios": "https://dc.lft.to/lastmile_qr_scan", "android": "https://dc.lft.to/lastmile_qr_scan"}, "type": "electric_scooter", "name": "121da488c0a1e47b43564c4d59b45844", "is_reserved": 0, "lon": -77.02588866666666, "is_disabled": 0, "fusion_lat": 0.0, "lat": 38.89478316666667, "bike_id": "121da488c0a1e47b43564c4d59b45844", "fusion_lon": 0.0}, {"rental_uris": {"ios": "https://dc.lft.to/lastmile_qr_scan", "android": "https://dc.lft.to/lastmile_qr_scan"}, "type": "electric_bike", "name": "7c9bda89414aa6c336d014804ce484a8", "is_reserved": 0, "lon": -76.97955516666667, "is_disabled": 0, "fusion_lat": 0.0, "lat": 38.92035666666666, "bike_id": "7c9bda89414aa6c336d014804ce484a8", "fusion_lon": 0.0}, {"rental_uris": {"ios": "https://dc.lft.to/lastmile_qr_scan", "android": "https://dc.lft.to/lastmile_qr_scan"}, "type": "electric_scooter", "name": "6fa1ddec9a1dc095c86989c9f55f1dff", "is_reserved": 0, "lon": -77.01204966666667, "is_disabled": 0, "fusion_lat": 0.0, "lat": 38.87164083333333, "bike_id": "6fa1ddec9a1dc095c86989c9f55f1dff", "fusion_lon": 0.0}, {"rental_uris": {"ios": "https://dc.lft.to/lastmile_qr_scan", "android": "https://dc.lft.to/lastmile_qr_scan"}, "type": "electric_scooter", "name": "cc27cfe1f34b7ca4f864bf556c2ad4fe", "is_reserved": 0, "lon": -76.97569116666666, "is_disabled": 0, "fusion_lat": 0.0, "lat": 38.94425783333333, "bike_id": "cc27cfe1f34b7ca4f864bf556c2ad4fe", "fusion_lon": 0.0}, {"rental_uris": {"ios": "https://dc.lft.to/lastmile_qr_scan", "android": "https://dc.lft.to/lastmile_qr_scan"}, "type": "electric_scooter", "name": "d28fd67a6111d4d488de3fc5af2da47d", "is_reserved": 0, "lon": -77.04398666666667, "is_disabled": 0, "fusion_lat": 0.0, "lat": 38.9224165, "bike_id": "d28fd67a6111d4d488de3fc5af2da47d", "fusion_lon": 0.0}, {"rental_uris": {"ios": "https://dc.lft.to/lastmile_qr_scan", "android": "https://dc.lft.to/lastmile_qr_scan"}, "type": "electric_bike", "name": "cdcd20a33f4ba964d00808139a280b1a", "is_reserved": 0, "lon": -77.00138116666666, "is_disabled": 0, "fusion_lat": 0.0, "lat": 38.99495666666667, "bike_id": "cdcd20a33f4ba964d00808139a280b1a", "fusion_lon": 0.0}, {"rental_uris": {"ios": "https://dc.lft.to/lastmile_qr_scan", "android": "https://dc.lft.to/lastmile_qr_scan"}, "type": "electric_scooter", "name": "961f3a95b331cb4834fc36149614be87", "is_reserved": 0, "lon": -77.02356383333333, "is_disabled": 0, "fusion_lat": 0.0, "lat": 38.935419, "bike_id": "961f3a95b331cb4834fc36149614be87", "fusion_lon": 0.0}, {"rental_uris": {"ios": "https://dc.lft.to/lastmile_qr_scan", "android": "https://dc.lft.to/lastmile_qr_scan"}, "type": "electric_scooter", "name": "641c0da0bc3602959960a1f32a924543", "is_reserved": 0, "lon": -77.03595716666666, "is_disabled": 0, "fusion_lat": 0.0, "lat": 38.91688466666667, "bike_id": "641c0da0bc3602959960a1f32a924543", "fusion_lon": 0.0}, {"rental_uris": {"ios": "https://dc.lft.to/lastmile_qr_scan", "android": "https://dc.lft.to/lastmile_qr_scan"}, "type": "electric_scooter", "name": "b32d56fd2f5f66cc43b741217f6ae38d", "is_reserved": 0, "lon": -77.03191083333333, "is_disabled": 0, "fusion_lat": 0.0, "lat": 38.916512, "bike_id": "b32d56fd2f5f66cc43b741217f6ae38d", "fusion_lon": 0.0}, {"rental_uris": {"ios": "https://dc.lft.to/lastmile_qr_scan", "android": "https://dc.lft.to/lastmile_qr_scan"}, "type": "electric_bike", "name": "6032b46a916ccfea000a7af2e83321d5", "is_reserved": 0, "lon": -76.957936, "is_disabled": 0, "fusion_lat": 0.0, "lat": 38.980441666666664, "bike_id": "6032b46a916ccfea000a7af2e83321d5", "fusion_lon": 0.0}, {"rental_uris": {"ios": "https://dc.lft.to/lastmile_qr_scan", "android": "https://dc.lft.to/lastmile_qr_scan"}, "type": "electric_scooter", "name": "1381a3fbf6a8f0db99103b58b3071c9b", "is_reserved": 0, "lon": -76.99794466666667, "is_disabled": 0, "fusion_lat": 0.0, "lat": 38.87631733333333, "bike_id": "1381a3fbf6a8f0db99103b58b3071c9b", "fusion_lon": 0.0}, {"rental_uris": {"ios": "https://dc.lft.to/lastmile_qr_scan", "android": "https://dc.lft.to/lastmile_qr_scan"}, "type": "electric_scooter", "name": "92ddb0dae6e74658325065fdb389720c", "is_reserved": 0, "lon": -77.041958, "is_disabled": 0, "fusion_lat": 0.0, "lat": 38.920729666666666, "bike_id": "92ddb0dae6e74658325065fdb389720c", "fusion_lon": 0.0}, {"rental_uris": {"ios": "https://dc.lft.to/lastmile_qr_scan", "android": "https://dc.lft.to/lastmile_qr_scan"}, "type": "electric_bike", "name": "23f7a88de25b0b872e2b40d033fc53d5", "is_reserved": 0, "lon": -76.9929865, "is_disabled": 0, "fusion_lat": 0.0, "lat": 38.92664166666667, "bike_id": "23f7a88de25b0b872e2b40d033fc53d5", "fusion_lon": 0.0}, {"rental_uris": {"ios": "https://dc.lft.to/lastmile_qr_scan", "android": "https://dc.lft.to/lastmile_qr_scan"}, "type": "electric_bike", "name": "814848e74300997f3acc187f1aee67a8", "is_reserved": 0, "lon": -77.05310516666667, "is_disabled": 0, "fusion_lat": 0.0, "lat": 38.820438833333334, "bike_id": "814848e74300997f3acc187f1aee67a8", "fusion_lon": 0.0}, {"rental_uris": {"ios": "https://dc.lft.to/lastmile_qr_scan", "android": "https://dc.lft.to/lastmile_qr_scan"}, "type": "electric_scooter", "name": "6710986c7182b590d1091922c28fe3bf", "is_reserved": 0, "lon": -77.03258783333334, "is_disabled": 0, "fusion_lat": 0.0, "lat": 38.937119, "bike_id": "6710986c7182b590d1091922c28fe3bf", "fusion_lon": 0.0}, {"rental_uris": {"ios": "https://dc.lft.to/lastmile_qr_scan", "android": "https://dc.lft.to/lastmile_qr_scan"}, "type": "electric_scooter", "name": "83232221c2d23830db139a606e4938ed", "is_reserved": 0, "lon": -77.03371733333333, "is_disabled": 0, "fusion_lat": 0.0, "lat": 38.93858133333333, "bike_id": "83232221c2d23830db139a606e4938ed", "fusion_lon": 0.0}, {"rental_uris": {"ios": "https://dc.lft.to/lastmile_qr_scan", "android": "https://dc.lft.to/lastmile_qr_scan"}, "type": "electric_scooter", "name": "9a573fbe4e138d1f36c7802567131acf", "is_reserved": 0, "lon": -77.0317865, "is_disabled": 0, "fusion_lat": 0.0, "lat": 38.921169166666665, "bike_id": "9a573fbe4e138d1f36c7802567131acf", "fusion_lon": 0.0}, {"rental_uris": {"ios": "https://dc.lft.to/lastmile_qr_scan", "android": "https://dc.lft.to/lastmile_qr_scan"}, "type": "electric_scooter", "name": "80f3e7c65b860b2c3446d9b279cbec84", "is_reserved": 0, "lon": -77.04780133333334, "is_disabled": 0, "fusion_lat": 0.0, "lat": 38.908601166666664, "bike_id": "80f3e7c65b860b2c3446d9b279cbec84", "fusion_lon": 0.0}, {"rental_uris": {"ios": "https://dc.lft.to/lastmile_qr_scan", "android": "https://dc.lft.to/lastmile_qr_scan"}, "type": "electric_scooter", "name": "c6643bd1f789d17dd9ed7786f9a397ba", "is_reserved": 0, "lon": -76.99666983333333, "is_disabled": 0, "fusion_lat": 0.0, "lat": 38.9271895, "bike_id": "c6643bd1f789d17dd9ed7786f9a397ba", "fusion_lon": 0.0}, {"rental_uris": {"ios": "https://dc.lft.to/lastmile_qr_scan", "android": "https://dc.lft.to/lastmile_qr_scan"}, "type": "electric_scooter", "name": "11669677e3bdaabe89e2a1fa321a4d4e", "is_reserved": 0, "lon": -77.00221083333334, "is_disabled": 0, "fusion_lat": 0.0, "lat": 38.894542, "bike_id": "11669677e3bdaabe89e2a1fa321a4d4e", "fusion_lon": 0.0}, {"rental_uris": {"ios": "https://dc.lft.to/lastmile_qr_scan", "android": "https://dc.lft.to/lastmile_qr_scan"}, "type": "electric_scooter", "name": "8c645f55e50baed59ccd7d7948912fed", "is_reserved": 0, "lon": -77.03144933333333, "is_disabled": 0, "fusion_lat": 0.0, "lat": 38.92007483333333, "bike_id": "8c645f55e50baed59ccd7d7948912fed", "fusion_lon": 0.0}, {"rental_uris": {"ios": "https://dc.lft.to/lastmile_qr_scan", "android": "https://dc.lft.to/lastmile_qr_scan"}, "type": "electric_scooter", "name": "bec8e37629fd88a858362f00bfd29528", "is_reserved": 0, "lon": -77.00737283333333, "is_disabled": 0, "fusion_lat": 0.0, "lat": 38.898238, "bike_id": "bec8e37629fd88a858362f00bfd29528", "fusion_lon": 0.0}, {"rental_uris": {"ios": "https://dc.lft.to/lastmile_qr_scan", "android": "https://dc.lft.to/lastmile_qr_scan"}, "type": "electric_scooter", "name": "45cd8bd1fbe0c8fd170bb4e5c35304f4", "is_reserved": 0, "lon": -77.04505783333333, "is_disabled": 0, "fusion_lat": 0.0, "lat": 38.900926, "bike_id": "45cd8bd1fbe0c8fd170bb4e5c35304f4", "fusion_lon": 0.0}, {"rental_uris": {"ios": "https://dc.lft.to/lastmile_qr_scan", "android": "https://dc.lft.to/lastmile_qr_scan"}, "type": "electric_scooter", "name": "f728e8c421d11f558abe132333533c2c", "is_reserved": 0, "lon": -77.04327616666667, "is_disabled": 0, "fusion_lat": 0.0, "lat": 38.907798666666665, "bike_id": "f728e8c421d11f558abe132333533c2c", "fusion_lon": 0.0}, {"rental_uris": {"ios": "https://dc.lft.to/lastmile_qr_scan", "android": "https://dc.lft.to/lastmile_qr_scan"}, "type": "electric_scooter", "name": "effa25d8462fcaac2f3a651cc3842ab8", "is_reserved": 0, "lon": -76.99482533333334, "is_disabled": 0, "fusion_lat": 0.0, "lat": 38.862168833333335, "bike_id": "effa25d8462fcaac2f3a651cc3842ab8", "fusion_lon": 0.0}, {"rental_uris": {"ios": "https://dc.lft.to/lastmile_qr_scan", "android": "https://dc.lft.to/lastmile_qr_scan"}, "type": "electric_scooter", "name": "05d7b851d46d70337890154e9097df58", "is_reserved": 0, "lon": -76.99159166666666, "is_disabled": 0, "fusion_lat": 0.0, "lat": 38.900370333333335, "bike_id": "05d7b851d46d70337890154e9097df58", "fusion_lon": 0.0}, {"rental_uris": {"ios": "https://dc.lft.to/lastmile_qr_scan", "android": "https://dc.lft.to/lastmile_qr_scan"}, "type": "electric_scooter", "name": "2b4dda863cef5b5762f7f39a31f40a0f", "is_reserved": 0, "lon": -77.07280383333334, "is_disabled": 0, "fusion_lat": 0.0, "lat": 38.93511266666667, "bike_id": "2b4dda863cef5b5762f7f39a31f40a0f", "fusion_lon": 0.0}, {"rental_uris": {"ios": "https://dc.lft.to/lastmile_qr_scan", "android": "https://dc.lft.to/lastmile_qr_scan"}, "type": "electric_scooter", "name": "82091ee3c7e31bec0ef9ef3e2aaf5183", "is_reserved": 0, "lon": -77.01589233333333, "is_disabled": 0, "fusion_lat": 0.0, "lat": 38.872256666666665, "bike_id": "82091ee3c7e31bec0ef9ef3e2aaf5183", "fusion_lon": 0.0}, {"rental_uris": {"ios": "https://dc.lft.to/lastmile_qr_scan", "android": "https://dc.lft.to/lastmile_qr_scan"}, "type": "electric_scooter", "name": "fab9afae45c6a645b207f936fec30aca", "is_reserved": 0, "lon": -76.9294735, "is_disabled": 0, "fusion_lat": 0.0, "lat": 38.903372166666664, "bike_id": "fab9afae45c6a645b207f936fec30aca", "fusion_lon": 0.0}, {"rental_uris": {"ios": "https://dc.lft.to/lastmile_qr_scan", "android": "https://dc.lft.to/lastmile_qr_scan"}, "type": "electric_scooter", "name": "23290bf0e9f666589be50038b4370a9a", "is_reserved": 0, "lon": -77.04168283333334, "is_disabled": 0, "fusion_lat": 0.0, "lat": 38.9165485, "bike_id": "23290bf0e9f666589be50038b4370a9a", "fusion_lon": 0.0}, {"rental_uris": {"ios": "https://dc.lft.to/lastmile_qr_scan", "android": "https://dc.lft.to/lastmile_qr_scan"}, "type": "electric_scooter", "name": "4ca33761b09da47d535be6b48d195b84", "is_reserved": 0, "lon": -76.98498433333333, "is_disabled": 0, "fusion_lat": 0.0, "lat": 38.9201315, "bike_id": "4ca33761b09da47d535be6b48d195b84", "fusion_lon": 0.0}, {"rental_uris": {"ios": "https://dc.lft.to/lastmile_qr_scan", "android": "https://dc.lft.to/lastmile_qr_scan"}, "type": "electric_scooter", "name": "95498a0a9958935c6abd5cc7a07bcf83", "is_reserved": 0, "lon": -77.04354433333333, "is_disabled": 0, "fusion_lat": 0.0, "lat": 38.9214835, "bike_id": "95498a0a9958935c6abd5cc7a07bcf83", "fusion_lon": 0.0}, {"rental_uris": {"ios": "https://dc.lft.to/lastmile_qr_scan", "android": "https://dc.lft.to/lastmile_qr_scan"}, "type": "electric_scooter", "name": "897d2e14edea56cecfa7cad8e0698763", "is_reserved": 0, "lon": -77.03053133333333, "is_disabled": 0, "fusion_lat": 0.0, "lat": 38.884139, "bike_id": "897d2e14edea56cecfa7cad8e0698763", "fusion_lon": 0.0}, {"rental_uris": {"ios": "https://dc.lft.to/lastmile_qr_scan", "android": "https://dc.lft.to/lastmile_qr_scan"}, "type": "electric_scooter", "name": "41271d63040450d3fc41ba42540b25f7", "is_reserved": 0, "lon": -77.020566, "is_disabled": 0, "fusion_lat": 0.0, "lat": 38.92395633333334, "bike_id": "41271d63040450d3fc41ba42540b25f7", "fusion_lon": 0.0}, {"rental_uris": {"ios": "https://dc.lft.to/lastmile_qr_scan", "android": "https://dc.lft.to/lastmile_qr_scan"}, "type": "electric_scooter", "name": "c839274df20bbeb5a9715eaeca235264", "is_reserved": 0, "lon": -77.04817266666667, "is_disabled": 0, "fusion_lat": 0.0, "lat": 38.9126925, "bike_id": "c839274df20bbeb5a9715eaeca235264", "fusion_lon": 0.0}, {"rental_uris": {"ios": "https://dc.lft.to/lastmile_qr_scan", "android": "https://dc.lft.to/lastmile_qr_scan"}, "type": "electric_scooter", "name": "193f0584de3f698b36f36a2c3c246bdb", "is_reserved": 0, "lon": -77.01020116666666, "is_disabled": 0, "fusion_lat": 0.0, "lat": 38.91403916666667, "bike_id": "193f0584de3f698b36f36a2c3c246bdb", "fusion_lon": 0.0}, {"rental_uris": {"ios": "https://dc.lft.to/lastmile_qr_scan", "android": "https://dc.lft.to/lastmile_qr_scan"}, "type": "electric_scooter", "name": "1b78f16e8e9227dd383fc71696975542", "is_reserved": 0, "lon": -77.0269315, "is_disabled": 0, "fusion_lat": 0.0, "lat": 38.911489833333334, "bike_id": "1b78f16e8e9227dd383fc71696975542", "fusion_lon": 0.0}, {"rental_uris": {"ios": "https://dc.lft.to/lastmile_qr_scan", "android": "https://dc.lft.to/lastmile_qr_scan"}, "type": "electric_scooter", "name": "e60eb382ff0e4a298b571f337c58d8c3", "is_reserved": 0, "lon": -77.01991833333334, "is_disabled": 0, "fusion_lat": 0.0, "lat": 38.898131, "bike_id": "e60eb382ff0e4a298b571f337c58d8c3", "fusion_lon": 0.0}, {"rental_uris": {"ios": "https://dc.lft.to/lastmile_qr_scan", "android": "https://dc.lft.to/lastmile_qr_scan"}, "type": "electric_scooter", "name": "ba44858a3966c2537ad290da8c6208fa", "is_reserved": 0, "lon": -77.0370895, "is_disabled": 0, "fusion_lat": 0.0, "lat": 38.92829616666667, "bike_id": "ba44858a3966c2537ad290da8c6208fa", "fusion_lon": 0.0}, {"rental_uris": {"ios": "https://dc.lft.to/lastmile_qr_scan", "android": "https://dc.lft.to/lastmile_qr_scan"}, "type": "electric_scooter", "name": "1ed5c98decab23875d70052cebee63ef", "is_reserved": 0, "lon": -77.03364833333333, "is_disabled": 0, "fusion_lat": 0.0, "lat": 38.93056516666667, "bike_id": "1ed5c98decab23875d70052cebee63ef", "fusion_lon": 0.0}, {"rental_uris": {"ios": "https://dc.lft.to/lastmile_qr_scan", "android": "https://dc.lft.to/lastmile_qr_scan"}, "type": "electric_scooter", "name": "d524421f37b571be1608758f52cc7bdd", "is_reserved": 0, "lon": -77.03292116666667, "is_disabled": 0, "fusion_lat": 0.0, "lat": 38.924427, "bike_id": "d524421f37b571be1608758f52cc7bdd", "fusion_lon": 0.0}, {"rental_uris": {"ios": "https://dc.lft.to/lastmile_qr_scan", "android": "https://dc.lft.to/lastmile_qr_scan"}, "type": "electric_scooter", "name": "6e032019eba97e48a3879fdcd7e96c3e", "is_reserved": 0, "lon": -77.02092483333334, "is_disabled": 0, "fusion_lat": 0.0, "lat": 38.9271015, "bike_id": "6e032019eba97e48a3879fdcd7e96c3e", "fusion_lon": 0.0}, {"rental_uris": {"ios": "https://dc.lft.to/lastmile_qr_scan", "android": "https://dc.lft.to/lastmile_qr_scan"}, "type": "electric_scooter", "name": "016fe8771bb61b018dd35aad739dc03b", "is_reserved": 0, "lon": -77.0305535, "is_disabled": 0, "fusion_lat": 0.0, "lat": 38.909642, "bike_id": "016fe8771bb61b018dd35aad739dc03b", "fusion_lon": 0.0}, {"rental_uris": {"ios": "https://dc.lft.to/lastmile_qr_scan", "android": "https://dc.lft.to/lastmile_qr_scan"}, "type": "electric_scooter", "name": "6b02a50c688f36521f717f5973a67e39", "is_reserved": 0, "lon": -77.02139816666667, "is_disabled": 0, "fusion_lat": 0.0, "lat": 38.913285333333334, "bike_id": "6b02a50c688f36521f717f5973a67e39", "fusion_lon": 0.0}, {"rental_uris": {"ios": "https://dc.lft.to/lastmile_qr_scan", "android": "https://dc.lft.to/lastmile_qr_scan"}, "type": "electric_scooter", "name": "6e2f81407edfd53ef5296e0003899f00", "is_reserved": 0, "lon": -77.01350066666667, "is_disabled": 0, "fusion_lat": 0.0, "lat": 38.9194215, "bike_id": "6e2f81407edfd53ef5296e0003899f00", "fusion_lon": 0.0}, {"rental_uris": {"ios": "https://dc.lft.to/lastmile_qr_scan", "android": "https://dc.lft.to/lastmile_qr_scan"}, "type": "electric_scooter", "name": "8e4cff21761d9a0a8f0f7b39c003cbef", "is_reserved": 0, "lon": -77.05595433333333, "is_disabled": 0, "fusion_lat": 0.0, "lat": 38.894226, "bike_id": "8e4cff21761d9a0a8f0f7b39c003cbef", "fusion_lon": 0.0}, {"rental_uris": {"ios": "https://dc.lft.to/lastmile_qr_scan", "android": "https://dc.lft.to/lastmile_qr_scan"}, "type": "electric_scooter", "name": "64618fafff4cd08e8f91f947f21d452e", "is_reserved": 0, "lon": -77.03810783333333, "is_disabled": 0, "fusion_lat": 0.0, "lat": 38.914172, "bike_id": "64618fafff4cd08e8f91f947f21d452e", "fusion_lon": 0.0}, {"rental_uris": {"ios": "https://dc.lft.to/lastmile_qr_scan", "android": "https://dc.lft.to/lastmile_qr_scan"}, "type": "electric_scooter", "name": "9fbcfbddf13084f598c4e86d243d181c", "is_reserved": 0, "lon": -76.99155316666666, "is_disabled": 0, "fusion_lat": 0.0, "lat": 38.900338833333336, "bike_id": "9fbcfbddf13084f598c4e86d243d181c", "fusion_lon": 0.0}, {"rental_uris": {"ios": "https://dc.lft.to/lastmile_qr_scan", "android": "https://dc.lft.to/lastmile_qr_scan"}, "type": "electric_scooter", "name": "97477df72b142e8f61425773e0121492", "is_reserved": 0, "lon": -77.0038995, "is_disabled": 0, "fusion_lat": 0.0, "lat": 38.90748683333333, "bike_id": "97477df72b142e8f61425773e0121492", "fusion_lon": 0.0}, {"rental_uris": {"ios": "https://dc.lft.to/lastmile_qr_scan", "android": "https://dc.lft.to/lastmile_qr_scan"}, "type": "electric_scooter", "name": "ae87c7611fc3b2fa1fe8d43dcfb23324", "is_reserved": 0, "lon": -77.03217533333333, "is_disabled": 0, "fusion_lat": 0.0, "lat": 38.91699716666667, "bike_id": "ae87c7611fc3b2fa1fe8d43dcfb23324", "fusion_lon": 0.0}, {"rental_uris": {"ios": "https://dc.lft.to/lastmile_qr_scan", "android": "https://dc.lft.to/lastmile_qr_scan"}, "type": "electric_scooter", "name": "9826038e67382c52a5f470b203c3ecca", "is_reserved": 0, "lon": -77.03262516666666, "is_disabled": 0, "fusion_lat": 0.0, "lat": 38.9056345, "bike_id": "9826038e67382c52a5f470b203c3ecca", "fusion_lon": 0.0}, {"rental_uris": {"ios": "https://dc.lft.to/lastmile_qr_scan", "android": "https://dc.lft.to/lastmile_qr_scan"}, "type": "electric_scooter", "name": "1796e548aedae01b9bbce1de96ab2746", "is_reserved": 0, "lon": -77.00197716666666, "is_disabled": 0, "fusion_lat": 0.0, "lat": 38.902394, "bike_id": "1796e548aedae01b9bbce1de96ab2746", "fusion_lon": 0.0}, {"rental_uris": {"ios": "https://dc.lft.to/lastmile_qr_scan", "android": "https://dc.lft.to/lastmile_qr_scan"}, "type": "electric_scooter", "name": "eb1cae4f9f7fb07ab3c9ecec62700189", "is_reserved": 0, "lon": -76.99466366666667, "is_disabled": 0, "fusion_lat": 0.0, "lat": 38.90553833333333, "bike_id": "eb1cae4f9f7fb07ab3c9ecec62700189", "fusion_lon": 0.0}, {"rental_uris": {"ios": "https://dc.lft.to/lastmile_qr_scan", "android": "https://dc.lft.to/lastmile_qr_scan"}, "type": "electric_scooter", "name": "1c4f488f1893b3c956e8dd7aa04e2224", "is_reserved": 0, "lon": -77.06000666666667, "is_disabled": 0, "fusion_lat": 0.0, "lat": 38.903909166666665, "bike_id": "1c4f488f1893b3c956e8dd7aa04e2224", "fusion_lon": 0.0}, {"rental_uris": {"ios": "https://dc.lft.to/lastmile_qr_scan", "android": "https://dc.lft.to/lastmile_qr_scan"}, "type": "electric_scooter", "name": "8df09dd96c06ffbbef764e25eab8a430", "is_reserved": 0, "lon": -77.0218925, "is_disabled": 0, "fusion_lat": 0.0, "lat": 38.893983666666664, "bike_id": "8df09dd96c06ffbbef764e25eab8a430", "fusion_lon": 0.0}, {"rental_uris": {"ios": "https://dc.lft.to/lastmile_qr_scan", "android": "https://dc.lft.to/lastmile_qr_scan"}, "type": "electric_scooter", "name": "cd8e8d4da9af4a845831f33e6fe1aef8", "is_reserved": 0, "lon": -77.02336016666666, "is_disabled": 0, "fusion_lat": 0.0, "lat": 38.9297165, "bike_id": "cd8e8d4da9af4a845831f33e6fe1aef8", "fusion_lon": 0.0}, {"rental_uris": {"ios": "https://dc.lft.to/lastmile_qr_scan", "android": "https://dc.lft.to/lastmile_qr_scan"}, "type": "electric_scooter", "name": "007aa0fcddb74cd31740a1dd7d99735d", "is_reserved": 0, "lon": -77.01153516666666, "is_disabled": 0, "fusion_lat": 0.0, "lat": 38.95681966666667, "bike_id": "007aa0fcddb74cd31740a1dd7d99735d", "fusion_lon": 0.0}, {"rental_uris": {"ios": "https://dc.lft.to/lastmile_qr_scan", "android": "https://dc.lft.to/lastmile_qr_scan"}, "type": "electric_scooter", "name": "89e5c2440b9a1bbd915db39f07101085", "is_reserved": 0, "lon": -76.9419675, "is_disabled": 0, "fusion_lat": 0.0, "lat": 38.9022345, "bike_id": "89e5c2440b9a1bbd915db39f07101085", "fusion_lon": 0.0}, {"rental_uris": {"ios": "https://dc.lft.to/lastmile_qr_scan", "android": "https://dc.lft.to/lastmile_qr_scan"}, "type": "electric_scooter", "name": "04ee92ba3f66b97a890240df0fcf153c", "is_reserved": 0, "lon": -77.075566, "is_disabled": 0, "fusion_lat": 0.0, "lat": 38.920846833333336, "bike_id": "04ee92ba3f66b97a890240df0fcf153c", "fusion_lon": 0.0}, {"rental_uris": {"ios": "https://dc.lft.to/lastmile_qr_scan", "android": "https://dc.lft.to/lastmile_qr_scan"}, "type": "electric_scooter", "name": "809e14d76bcedadc62b33e9b929bbca6", "is_reserved": 0, "lon": -77.02150533333334, "is_disabled": 0, "fusion_lat": 0.0, "lat": 38.90308566666667, "bike_id": "809e14d76bcedadc62b33e9b929bbca6", "fusion_lon": 0.0}, {"rental_uris": {"ios": "https://dc.lft.to/lastmile_qr_scan", "android": "https://dc.lft.to/lastmile_qr_scan"}, "type": "electric_scooter", "name": "7f3aa9ed3238b04089292944237166a8", "is_reserved": 0, "lon": -77.012653, "is_disabled": 0, "fusion_lat": 0.0, "lat": 38.89737683333333, "bike_id": "7f3aa9ed3238b04089292944237166a8", "fusion_lon": 0.0}, {"rental_uris": {"ios": "https://dc.lft.to/lastmile_qr_scan", "android": "https://dc.lft.to/lastmile_qr_scan"}, "type": "electric_scooter", "name": "c9b136f2cbf6e794cb64b033660f6cf9", "is_reserved": 0, "lon": -77.02984116666667, "is_disabled": 0, "fusion_lat": 0.0, "lat": 38.91562833333333, "bike_id": "c9b136f2cbf6e794cb64b033660f6cf9", "fusion_lon": 0.0}, {"rental_uris": {"ios": "https://dc.lft.to/lastmile_qr_scan", "android": "https://dc.lft.to/lastmile_qr_scan"}, "type": "electric_scooter", "name": "38af6b946e40107bc52f02fe62a6daee", "is_reserved": 0, "lon": -77.04996166666666, "is_disabled": 0, "fusion_lat": 0.0, "lat": 38.90792666666667, "bike_id": "38af6b946e40107bc52f02fe62a6daee", "fusion_lon": 0.0}, {"rental_uris": {"ios": "https://dc.lft.to/lastmile_qr_scan", "android": "https://dc.lft.to/lastmile_qr_scan"}, "type": "electric_scooter", "name": "827004c6f88cc6107219ca4569ca2dc6", "is_reserved": 0, "lon": -77.02172883333333, "is_disabled": 0, "fusion_lat": 0.0, "lat": 38.887261, "bike_id": "827004c6f88cc6107219ca4569ca2dc6", "fusion_lon": 0.0}, {"rental_uris": {"ios": "https://dc.lft.to/lastmile_qr_scan", "android": "https://dc.lft.to/lastmile_qr_scan"}, "type": "electric_scooter", "name": "0df791e7463de9d903898b0c725b7d25", "is_reserved": 0, "lon": -77.042367, "is_disabled": 0, "fusion_lat": 0.0, "lat": 38.922427166666665, "bike_id": "0df791e7463de9d903898b0c725b7d25", "fusion_lon": 0.0}, {"rental_uris": {"ios": "https://dc.lft.to/lastmile_qr_scan", "android": "https://dc.lft.to/lastmile_qr_scan"}, "type": "electric_scooter", "name": "9483f2be60d02efbb6d04bd4c96e1c7b", "is_reserved": 0, "lon": -76.99608966666666, "is_disabled": 0, "fusion_lat": 0.0, "lat": 38.909156333333335, "bike_id": "9483f2be60d02efbb6d04bd4c96e1c7b", "fusion_lon": 0.0}, {"rental_uris": {"ios": "https://dc.lft.to/lastmile_qr_scan", "android": "https://dc.lft.to/lastmile_qr_scan"}, "type": "electric_scooter", "name": "e4dd5471e754e3cf71c4a9abb328df0e", "is_reserved": 0, "lon": -77.04228166666667, "is_disabled": 0, "fusion_lat": 0.0, "lat": 38.907147333333334, "bike_id": "e4dd5471e754e3cf71c4a9abb328df0e", "fusion_lon": 0.0}, {"rental_uris": {"ios": "https://dc.lft.to/lastmile_qr_scan", "android": "https://dc.lft.to/lastmile_qr_scan"}, "type": "electric_scooter", "name": "73eda6b8e36c7fca8aefa099cf271f72", "is_reserved": 0, "lon": -76.97147666666666, "is_disabled": 0, "fusion_lat": 0.0, "lat": 38.9162395, "bike_id": "73eda6b8e36c7fca8aefa099cf271f72", "fusion_lon": 0.0}, {"rental_uris": {"ios": "https://dc.lft.to/lastmile_qr_scan", "android": "https://dc.lft.to/lastmile_qr_scan"}, "type": "electric_scooter", "name": "70d9aad90eeab0c5f5560eca55006608", "is_reserved": 0, "lon": -77.041922, "is_disabled": 0, "fusion_lat": 0.0, "lat": 38.9201195, "bike_id": "70d9aad90eeab0c5f5560eca55006608", "fusion_lon": 0.0}, {"rental_uris": {"ios": "https://dc.lft.to/lastmile_qr_scan", "android": "https://dc.lft.to/lastmile_qr_scan"}, "type": "electric_scooter", "name": "d051136aaebad51ac56eef3d33ff1618", "is_reserved": 0, "lon": -77.0456565, "is_disabled": 0, "fusion_lat": 0.0, "lat": 38.91780683333333, "bike_id": "d051136aaebad51ac56eef3d33ff1618", "fusion_lon": 0.0}, {"rental_uris": {"ios": "https://dc.lft.to/lastmile_qr_scan", "android": "https://dc.lft.to/lastmile_qr_scan"}, "type": "electric_scooter", "name": "64cfc9aea8e55bc5a63532cd55d70cdb", "is_reserved": 0, "lon": -76.98530333333333, "is_disabled": 0, "fusion_lat": 0.0, "lat": 38.880775166666666, "bike_id": "64cfc9aea8e55bc5a63532cd55d70cdb", "fusion_lon": 0.0}, {"rental_uris": {"ios": "https://dc.lft.to/lastmile_qr_scan", "android": "https://dc.lft.to/lastmile_qr_scan"}, "type": "electric_scooter", "name": "e638821e0b9897d3602743e684583b7e", "is_reserved": 0, "lon": -77.027614, "is_disabled": 0, "fusion_lat": 0.0, "lat": 38.9122245, "bike_id": "e638821e0b9897d3602743e684583b7e", "fusion_lon": 0.0}, {"rental_uris": {"ios": "https://dc.lft.to/lastmile_qr_scan", "android": "https://dc.lft.to/lastmile_qr_scan"}, "type": "electric_scooter", "name": "363f1d9184ad8186311046fc22adcd58", "is_reserved": 0, "lon": -77.04673233333334, "is_disabled": 0, "fusion_lat": 0.0, "lat": 38.89232533333333, "bike_id": "363f1d9184ad8186311046fc22adcd58", "fusion_lon": 0.0}, {"rental_uris": {"ios": "https://dc.lft.to/lastmile_qr_scan", "android": "https://dc.lft.to/lastmile_qr_scan"}, "type": "electric_scooter", "name": "9b654a29582f9f189f3e5cf684650b38", "is_reserved": 0, "lon": -77.028128, "is_disabled": 0, "fusion_lat": 0.0, "lat": 38.9061125, "bike_id": "9b654a29582f9f189f3e5cf684650b38", "fusion_lon": 0.0}, {"rental_uris": {"ios": "https://dc.lft.to/lastmile_qr_scan", "android": "https://dc.lft.to/lastmile_qr_scan"}, "type": "electric_scooter", "name": "2b4666645edb83225bc62a7048741503", "is_reserved": 0, "lon": -77.04291516666666, "is_disabled": 0, "fusion_lat": 0.0, "lat": 38.9224065, "bike_id": "2b4666645edb83225bc62a7048741503", "fusion_lon": 0.0}, {"rental_uris": {"ios": "https://dc.lft.to/lastmile_qr_scan", "android": "https://dc.lft.to/lastmile_qr_scan"}, "type": "electric_scooter", "name": "1acaf1d0f2ceb763caab334b15cc3c3e", "is_reserved": 0, "lon": -77.04251366666666, "is_disabled": 0, "fusion_lat": 0.0, "lat": 38.92212816666667, "bike_id": "1acaf1d0f2ceb763caab334b15cc3c3e", "fusion_lon": 0.0}, {"rental_uris": {"ios": "https://dc.lft.to/lastmile_qr_scan", "android": "https://dc.lft.to/lastmile_qr_scan"}, "type": "electric_scooter", "name": "3565d8adb5277ec9ef05f3b4aa2e81ef", "is_reserved": 0, "lon": -77.02832716666667, "is_disabled": 0, "fusion_lat": 0.0, "lat": 38.88626983333333, "bike_id": "3565d8adb5277ec9ef05f3b4aa2e81ef", "fusion_lon": 0.0}, {"rental_uris": {"ios": "https://dc.lft.to/lastmile_qr_scan", "android": "https://dc.lft.to/lastmile_qr_scan"}, "type": "electric_scooter", "name": "ffc70570070152a259109b931e21f16f", "is_reserved": 0, "lon": -77.03473833333334, "is_disabled": 0, "fusion_lat": 0.0, "lat": 38.905632, "bike_id": "ffc70570070152a259109b931e21f16f", "fusion_lon": 0.0}, {"rental_uris": {"ios": "https://dc.lft.to/lastmile_qr_scan", "android": "https://dc.lft.to/lastmile_qr_scan"}, "type": "electric_scooter", "name": "392dfa19880cfc9fb2e8ef63222b35a1", "is_reserved": 0, "lon": -77.03839266666667, "is_disabled": 0, "fusion_lat": 0.0, "lat": 38.931122333333334, "bike_id": "392dfa19880cfc9fb2e8ef63222b35a1", "fusion_lon": 0.0}, {"rental_uris": {"ios": "https://dc.lft.to/lastmile_qr_scan", "android": "https://dc.lft.to/lastmile_qr_scan"}, "type": "electric_scooter", "name": "0d87ed75d2bc8abe3b04056eb7c67c81", "is_reserved": 0, "lon": -77.045081, "is_disabled": 0, "fusion_lat": 0.0, "lat": 38.899940666666666, "bike_id": "0d87ed75d2bc8abe3b04056eb7c67c81", "fusion_lon": 0.0}, {"rental_uris": {"ios": "https://dc.lft.to/lastmile_qr_scan", "android": "https://dc.lft.to/lastmile_qr_scan"}, "type": "electric_scooter", "name": "e58b15913a5f83b17fe7d42f0bda2f0d", "is_reserved": 0, "lon": -77.04378916666667, "is_disabled": 0, "fusion_lat": 0.0, "lat": 38.91651133333333, "bike_id": "e58b15913a5f83b17fe7d42f0bda2f0d", "fusion_lon": 0.0}, {"rental_uris": {"ios": "https://dc.lft.to/lastmile_qr_scan", "android": "https://dc.lft.to/lastmile_qr_scan"}, "type": "electric_scooter", "name": "583d964e3c831873c385bec2ba07cc4d", "is_reserved": 0, "lon": -77.017695, "is_disabled": 0, "fusion_lat": 0.0, "lat": 38.887273666666665, "bike_id": "583d964e3c831873c385bec2ba07cc4d", "fusion_lon": 0.0}, {"rental_uris": {"ios": "https://dc.lft.to/lastmile_qr_scan", "android": "https://dc.lft.to/lastmile_qr_scan"}, "type": "electric_bike", "name": "5d1e93d84adb2bb4ec55df1f504d6619", "is_reserved": 0, "lon": -76.94974033333334, "is_disabled": 0, "fusion_lat": 0.0, "lat": 38.88304866666667, "bike_id": "5d1e93d84adb2bb4ec55df1f504d6619", "fusion_lon": 0.0}, {"rental_uris": {"ios": "https://dc.lft.to/lastmile_qr_scan", "android": "https://dc.lft.to/lastmile_qr_scan"}, "type": "electric_scooter", "name": "6d0e9177da78ca8284a5793937dd4551", "is_reserved": 0, "lon": -77.03263816666667, "is_disabled": 0, "fusion_lat": 0.0, "lat": 38.9298935, "bike_id": "6d0e9177da78ca8284a5793937dd4551", "fusion_lon": 0.0}, {"rental_uris": {"ios": "https://dc.lft.to/lastmile_qr_scan", "android": "https://dc.lft.to/lastmile_qr_scan"}, "type": "electric_scooter", "name": "b23c37f9e2ff25e7b36fc5a0fd0daa77", "is_reserved": 0, "lon": -77.05821966666667, "is_disabled": 0, "fusion_lat": 0.0, "lat": 38.9119395, "bike_id": "b23c37f9e2ff25e7b36fc5a0fd0daa77", "fusion_lon": 0.0}, {"rental_uris": {"ios": "https://dc.lft.to/lastmile_qr_scan", "android": "https://dc.lft.to/lastmile_qr_scan"}, "type": "electric_scooter", "name": "3ce020ed1f3cd56a6c46147c542eabb6", "is_reserved": 0, "lon": -77.020827, "is_disabled": 0, "fusion_lat": 0.0, "lat": 38.926943, "bike_id": "3ce020ed1f3cd56a6c46147c542eabb6", "fusion_lon": 0.0}, {"rental_uris": {"ios": "https://dc.lft.to/lastmile_qr_scan", "android": "https://dc.lft.to/lastmile_qr_scan"}, "type": "electric_scooter", "name": "1ca0fef868ed3a9578416f9f82374431", "is_reserved": 0, "lon": -77.00028483333334, "is_disabled": 0, "fusion_lat": 0.0, "lat": 38.873975333333334, "bike_id": "1ca0fef868ed3a9578416f9f82374431", "fusion_lon": 0.0}, {"rental_uris": {"ios": "https://dc.lft.to/lastmile_qr_scan", "android": "https://dc.lft.to/lastmile_qr_scan"}, "type": "electric_scooter", "name": "ea09f12294b37bd9a7d79a9c7cd35315", "is_reserved": 0, "lon": -77.0239925, "is_disabled": 0, "fusion_lat": 0.0, "lat": 38.91637933333333, "bike_id": "ea09f12294b37bd9a7d79a9c7cd35315", "fusion_lon": 0.0}, {"rental_uris": {"ios": "https://dc.lft.to/lastmile_qr_scan", "android": "https://dc.lft.to/lastmile_qr_scan"}, "type": "electric_scooter", "name": "f1aa7f9c812035bc4c04c8de9fe4396d", "is_reserved": 0, "lon": -77.06109783333333, "is_disabled": 0, "fusion_lat": 0.0, "lat": 38.912840833333334, "bike_id": "f1aa7f9c812035bc4c04c8de9fe4396d", "fusion_lon": 0.0}, {"rental_uris": {"ios": "https://dc.lft.to/lastmile_qr_scan", "android": "https://dc.lft.to/lastmile_qr_scan"}, "type": "electric_scooter", "name": "a8e75a5e8a04947deacdf306cf681f63", "is_reserved": 0, "lon": -77.03825566666667, "is_disabled": 0, "fusion_lat": 0.0, "lat": 38.910372333333335, "bike_id": "a8e75a5e8a04947deacdf306cf681f63", "fusion_lon": 0.0}, {"rental_uris": {"ios": "https://dc.lft.to/lastmile_qr_scan", "android": "https://dc.lft.to/lastmile_qr_scan"}, "type": "electric_scooter", "name": "e0363c25dd9752d6a1527bb7c02d0423", "is_reserved": 0, "lon": -77.02964533333333, "is_disabled": 0, "fusion_lat": 0.0, "lat": 38.91689316666667, "bike_id": "e0363c25dd9752d6a1527bb7c02d0423", "fusion_lon": 0.0}, {"rental_uris": {"ios": "https://dc.lft.to/lastmile_qr_scan", "android": "https://dc.lft.to/lastmile_qr_scan"}, "type": "electric_scooter", "name": "ba8b3145e3d410f5b36cf425cacfd65e", "is_reserved": 0, "lon": -76.99596816666667, "is_disabled": 0, "fusion_lat": 0.0, "lat": 38.90023083333333, "bike_id": "ba8b3145e3d410f5b36cf425cacfd65e", "fusion_lon": 0.0}, {"rental_uris": {"ios": "https://dc.lft.to/lastmile_qr_scan", "android": "https://dc.lft.to/lastmile_qr_scan"}, "type": "electric_scooter", "name": "0d061762b50860f0daef4942f43f0a98", "is_reserved": 0, "lon": -77.031214, "is_disabled": 0, "fusion_lat": 0.0, "lat": 38.9201715, "bike_id": "0d061762b50860f0daef4942f43f0a98", "fusion_lon": 0.0}, {"rental_uris": {"ios": "https://dc.lft.to/lastmile_qr_scan", "android": "https://dc.lft.to/lastmile_qr_scan"}, "type": "electric_scooter", "name": "08b17a3f754277d2ffbdc86c851cd743", "is_reserved": 0, "lon": -77.04534666666666, "is_disabled": 0, "fusion_lat": 0.0, "lat": 38.900678666666664, "bike_id": "08b17a3f754277d2ffbdc86c851cd743", "fusion_lon": 0.0}, {"rental_uris": {"ios": "https://dc.lft.to/lastmile_qr_scan", "android": "https://dc.lft.to/lastmile_qr_scan"}, "type": "electric_scooter", "name": "86812ddb904aeeb34f1f3683e558847e", "is_reserved": 0, "lon": -77.038144, "is_disabled": 0, "fusion_lat": 0.0, "lat": 38.9151255, "bike_id": "86812ddb904aeeb34f1f3683e558847e", "fusion_lon": 0.0}, {"rental_uris": {"ios": "https://dc.lft.to/lastmile_qr_scan", "android": "https://dc.lft.to/lastmile_qr_scan"}, "type": "electric_scooter", "name": "02becae9829b72425f479446990984e4", "is_reserved": 0, "lon": -77.026973, "is_disabled": 0, "fusion_lat": 0.0, "lat": 38.92669683333333, "bike_id": "02becae9829b72425f479446990984e4", "fusion_lon": 0.0}, {"rental_uris": {"ios": "https://dc.lft.to/lastmile_qr_scan", "android": "https://dc.lft.to/lastmile_qr_scan"}, "type": "electric_scooter", "name": "d098cd197c3349ef0e341ea531c3f9ca", "is_reserved": 0, "lon": -77.007617, "is_disabled": 0, "fusion_lat": 0.0, "lat": 38.87638583333333, "bike_id": "d098cd197c3349ef0e341ea531c3f9ca", "fusion_lon": 0.0}, {"rental_uris": {"ios": "https://dc.lft.to/lastmile_qr_scan", "android": "https://dc.lft.to/lastmile_qr_scan"}, "type": "electric_scooter", "name": "b9b3023f9ecdf3a8b277ec07ef69fc91", "is_reserved": 0, "lon": -77.03655366666666, "is_disabled": 0, "fusion_lat": 0.0, "lat": 38.93624066666667, "bike_id": "b9b3023f9ecdf3a8b277ec07ef69fc91", "fusion_lon": 0.0}, {"rental_uris": {"ios": "https://dc.lft.to/lastmile_qr_scan", "android": "https://dc.lft.to/lastmile_qr_scan"}, "type": "electric_scooter", "name": "3379a29cfc1bd530af8f4804fc83fe81", "is_reserved": 0, "lon": -77.0468215, "is_disabled": 0, "fusion_lat": 0.0, "lat": 38.8922145, "bike_id": "3379a29cfc1bd530af8f4804fc83fe81", "fusion_lon": 0.0}, {"rental_uris": {"ios": "https://dc.lft.to/lastmile_qr_scan", "android": "https://dc.lft.to/lastmile_qr_scan"}, "type": "electric_bike", "name": "96100d44bee1b22d0cfab40d69a03efc", "is_reserved": 0, "lon": -76.97546316666667, "is_disabled": 0, "fusion_lat": 0.0, "lat": 38.90438183333333, "bike_id": "96100d44bee1b22d0cfab40d69a03efc", "fusion_lon": 0.0}, {"rental_uris": {"ios": "https://dc.lft.to/lastmile_qr_scan", "android": "https://dc.lft.to/lastmile_qr_scan"}, "type": "electric_scooter", "name": "fc03e0fb5c4ebd75df9f762ceb00be41", "is_reserved": 0, "lon": -77.0108285, "is_disabled": 0, "fusion_lat": 0.0, "lat": 38.8941325, "bike_id": "fc03e0fb5c4ebd75df9f762ceb00be41", "fusion_lon": 0.0}, {"rental_uris": {"ios": "https://dc.lft.to/lastmile_qr_scan", "android": "https://dc.lft.to/lastmile_qr_scan"}, "type": "electric_scooter", "name": "d03c30dcace950affa78b873447d6660", "is_reserved": 0, "lon": -77.02804766666667, "is_disabled": 0, "fusion_lat": 0.0, "lat": 38.89866333333333, "bike_id": "d03c30dcace950affa78b873447d6660", "fusion_lon": 0.0}, {"rental_uris": {"ios": "https://dc.lft.to/lastmile_qr_scan", "android": "https://dc.lft.to/lastmile_qr_scan"}, "type": "electric_scooter", "name": "a751400f6b1dce8eab85ce63b86cc029", "is_reserved": 0, "lon": -77.01942466666667, "is_disabled": 0, "fusion_lat": 0.0, "lat": 38.946989, "bike_id": "a751400f6b1dce8eab85ce63b86cc029", "fusion_lon": 0.0}, {"rental_uris": {"ios": "https://dc.lft.to/lastmile_qr_scan", "android": "https://dc.lft.to/lastmile_qr_scan"}, "type": "electric_scooter", "name": "8210a17114e5b2efec5eabdcbada7328", "is_reserved": 0, "lon": -77.0077155, "is_disabled": 0, "fusion_lat": 0.0, "lat": 38.952440833333334, "bike_id": "8210a17114e5b2efec5eabdcbada7328", "fusion_lon": 0.0}, {"rental_uris": {"ios": "https://dc.lft.to/lastmile_qr_scan", "android": "https://dc.lft.to/lastmile_qr_scan"}, "type": "electric_scooter", "name": "31fb2950dae76236bbc1af4bf0e95d9a", "is_reserved": 0, "lon": -77.00155466666666, "is_disabled": 0, "fusion_lat": 0.0, "lat": 38.821319833333334, "bike_id": "31fb2950dae76236bbc1af4bf0e95d9a", "fusion_lon": 0.0}, {"rental_uris": {"ios": "https://dc.lft.to/lastmile_qr_scan", "android": "https://dc.lft.to/lastmile_qr_scan"}, "type": "electric_bike", "name": "d1ff672ffd47682ba3a3c31ff83b2926", "is_reserved": 0, "lon": -76.95154633333334, "is_disabled": 0, "fusion_lat": 0.0, "lat": 39.08430383333334, "bike_id": "d1ff672ffd47682ba3a3c31ff83b2926", "fusion_lon": 0.0}, {"rental_uris": {"ios": "https://dc.lft.to/lastmile_qr_scan", "android": "https://dc.lft.to/lastmile_qr_scan"}, "type": "electric_scooter", "name": "88c7e3e266e33fdbf30abbeb3bafdce5", "is_reserved": 0, "lon": -76.93047166666666, "is_disabled": 0, "fusion_lat": 0.0, "lat": 38.88389733333333, "bike_id": "88c7e3e266e33fdbf30abbeb3bafdce5", "fusion_lon": 0.0}, {"rental_uris": {"ios": "https://dc.lft.to/lastmile_qr_scan", "android": "https://dc.lft.to/lastmile_qr_scan"}, "type": "electric_scooter", "name": "644fe9d76c532a67edcac682379690c3", "is_reserved": 0, "lon": -77.02017183333334, "is_disabled": 0, "fusion_lat": 0.0, "lat": 38.89220433333333, "bike_id": "644fe9d76c532a67edcac682379690c3", "fusion_lon": 0.0}, {"rental_uris": {"ios": "https://dc.lft.to/lastmile_qr_scan", "android": "https://dc.lft.to/lastmile_qr_scan"}, "type": "electric_scooter", "name": "810d3045a1f9f744ed1c39eecfdb7b19", "is_reserved": 0, "lon": -76.94825, "is_disabled": 0, "fusion_lat": 0.0, "lat": 38.885173333333334, "bike_id": "810d3045a1f9f744ed1c39eecfdb7b19", "fusion_lon": 0.0}, {"rental_uris": {"ios": "https://dc.lft.to/lastmile_qr_scan", "android": "https://dc.lft.to/lastmile_qr_scan"}, "type": "electric_scooter", "name": "5b424fd5179119a1a873d767d449d817", "is_reserved": 0, "lon": -77.0347925, "is_disabled": 0, "fusion_lat": 0.0, "lat": 38.935355333333334, "bike_id": "5b424fd5179119a1a873d767d449d817", "fusion_lon": 0.0}, {"rental_uris": {"ios": "https://dc.lft.to/lastmile_qr_scan", "android": "https://dc.lft.to/lastmile_qr_scan"}, "type": "electric_scooter", "name": "ac6d460e75e65d14504891baae7fa162", "is_reserved": 0, "lon": -77.03349516666667, "is_disabled": 0, "fusion_lat": 0.0, "lat": 38.89242266666667, "bike_id": "ac6d460e75e65d14504891baae7fa162", "fusion_lon": 0.0}, {"rental_uris": {"ios": "https://dc.lft.to/lastmile_qr_scan", "android": "https://dc.lft.to/lastmile_qr_scan"}, "type": "electric_scooter", "name": "15ccacfedf2ccbe9689d5aecb5485fdf", "is_reserved": 0, "lon": -77.0612485, "is_disabled": 0, "fusion_lat": 0.0, "lat": 38.9060485, "bike_id": "15ccacfedf2ccbe9689d5aecb5485fdf", "fusion_lon": 0.0}, {"rental_uris": {"ios": "https://dc.lft.to/lastmile_qr_scan", "android": "https://dc.lft.to/lastmile_qr_scan"}, "type": "electric_scooter", "name": "3a0811f74ffd90b5ca87ff0c564940b9", "is_reserved": 0, "lon": -77.03124066666666, "is_disabled": 0, "fusion_lat": 0.0, "lat": 38.920263, "bike_id": "3a0811f74ffd90b5ca87ff0c564940b9", "fusion_lon": 0.0}, {"rental_uris": {"ios": "https://dc.lft.to/lastmile_qr_scan", "android": "https://dc.lft.to/lastmile_qr_scan"}, "type": "electric_scooter", "name": "3fbb0d6253b0fe0bd724e1cad35e2418", "is_reserved": 0, "lon": -77.01809666666666, "is_disabled": 0, "fusion_lat": 0.0, "lat": 38.9196185, "bike_id": "3fbb0d6253b0fe0bd724e1cad35e2418", "fusion_lon": 0.0}, {"rental_uris": {"ios": "https://dc.lft.to/lastmile_qr_scan", "android": "https://dc.lft.to/lastmile_qr_scan"}, "type": "electric_scooter", "name": "49f7923573a7e3c7f0971a828b2ec312", "is_reserved": 0, "lon": -77.002867, "is_disabled": 0, "fusion_lat": 0.0, "lat": 38.901273333333336, "bike_id": "49f7923573a7e3c7f0971a828b2ec312", "fusion_lon": 0.0}, {"rental_uris": {"ios": "https://dc.lft.to/lastmile_qr_scan", "android": "https://dc.lft.to/lastmile_qr_scan"}, "type": "electric_scooter", "name": "40f883e26efe68fd8bb6ba83f08acf21", "is_reserved": 0, "lon": -77.04912083333333, "is_disabled": 0, "fusion_lat": 0.0, "lat": 38.910428, "bike_id": "40f883e26efe68fd8bb6ba83f08acf21", "fusion_lon": 0.0}, {"rental_uris": {"ios": "https://dc.lft.to/lastmile_qr_scan", "android": "https://dc.lft.to/lastmile_qr_scan"}, "type": "electric_scooter", "name": "3d446ba8a6470fd14fe4395235a4b271", "is_reserved": 0, "lon": -77.04403916666666, "is_disabled": 0, "fusion_lat": 0.0, "lat": 38.896052166666664, "bike_id": "3d446ba8a6470fd14fe4395235a4b271", "fusion_lon": 0.0}, {"rental_uris": {"ios": "https://dc.lft.to/lastmile_qr_scan", "android": "https://dc.lft.to/lastmile_qr_scan"}, "type": "electric_scooter", "name": "e324eee1f786849657926993c8f4f1ae", "is_reserved": 0, "lon": -77.0347285, "is_disabled": 0, "fusion_lat": 0.0, "lat": 38.9026345, "bike_id": "e324eee1f786849657926993c8f4f1ae", "fusion_lon": 0.0}, {"rental_uris": {"ios": "https://dc.lft.to/lastmile_qr_scan", "android": "https://dc.lft.to/lastmile_qr_scan"}, "type": "electric_scooter", "name": "d25dd61992a2c234ea49d84706a80d28", "is_reserved": 0, "lon": -77.01613016666667, "is_disabled": 0, "fusion_lat": 0.0, "lat": 38.901399166666664, "bike_id": "d25dd61992a2c234ea49d84706a80d28", "fusion_lon": 0.0}, {"rental_uris": {"ios": "https://dc.lft.to/lastmile_qr_scan", "android": "https://dc.lft.to/lastmile_qr_scan"}, "type": "electric_scooter", "name": "b552cb11cd72cc081e394ef32aacfc6a", "is_reserved": 0, "lon": -77.02407833333334, "is_disabled": 0, "fusion_lat": 0.0, "lat": 38.89235433333333, "bike_id": "b552cb11cd72cc081e394ef32aacfc6a", "fusion_lon": 0.0}, {"rental_uris": {"ios": "https://dc.lft.to/lastmile_qr_scan", "android": "https://dc.lft.to/lastmile_qr_scan"}, "type": "electric_scooter", "name": "5044d4b8d9a28053e086f8ce1b14b6b1", "is_reserved": 0, "lon": -76.99734583333333, "is_disabled": 0, "fusion_lat": 0.0, "lat": 38.920399333333336, "bike_id": "5044d4b8d9a28053e086f8ce1b14b6b1", "fusion_lon": 0.0}, {"rental_uris": {"ios": "https://dc.lft.to/lastmile_qr_scan", "android": "https://dc.lft.to/lastmile_qr_scan"}, "type": "electric_scooter", "name": "433c94270985719da90c1bab3246ce40", "is_reserved": 0, "lon": -77.02148416666667, "is_disabled": 0, "fusion_lat": 0.0, "lat": 38.902942833333334, "bike_id": "433c94270985719da90c1bab3246ce40", "fusion_lon": 0.0}, {"rental_uris": {"ios": "https://dc.lft.to/lastmile_qr_scan", "android": "https://dc.lft.to/lastmile_qr_scan"}, "type": "electric_scooter", "name": "61d570e70acbb0060145574b6219644d", "is_reserved": 0, "lon": -77.00047616666667, "is_disabled": 0, "fusion_lat": 0.0, "lat": 38.87616766666667, "bike_id": "61d570e70acbb0060145574b6219644d", "fusion_lon": 0.0}, {"rental_uris": {"ios": "https://dc.lft.to/lastmile_qr_scan", "android": "https://dc.lft.to/lastmile_qr_scan"}, "type": "electric_scooter", "name": "4d7398c81ad9530d893664176289c196", "is_reserved": 0, "lon": -77.04329883333334, "is_disabled": 0, "fusion_lat": 0.0, "lat": 38.908757, "bike_id": "4d7398c81ad9530d893664176289c196", "fusion_lon": 0.0}, {"rental_uris": {"ios": "https://dc.lft.to/lastmile_qr_scan", "android": "https://dc.lft.to/lastmile_qr_scan"}, "type": "electric_scooter", "name": "50e303c94777121f95f6794f44e3886e", "is_reserved": 0, "lon": -76.965447, "is_disabled": 0, "fusion_lat": 0.0, "lat": 38.878894833333334, "bike_id": "50e303c94777121f95f6794f44e3886e", "fusion_lon": 0.0}, {"rental_uris": {"ios": "https://dc.lft.to/lastmile_qr_scan", "android": "https://dc.lft.to/lastmile_qr_scan"}, "type": "electric_scooter", "name": "ecd0fa68be6e14d3583b769c90d6e5a5", "is_reserved": 0, "lon": -77.0464125, "is_disabled": 0, "fusion_lat": 0.0, "lat": 38.910437, "bike_id": "ecd0fa68be6e14d3583b769c90d6e5a5", "fusion_lon": 0.0}, {"rental_uris": {"ios": "https://dc.lft.to/lastmile_qr_scan", "android": "https://dc.lft.to/lastmile_qr_scan"}, "type": "electric_bike", "name": "23dacfa864572bec64857ab3fd675f65", "is_reserved": 0, "lon": -77.08364866666666, "is_disabled": 0, "fusion_lat": 0.0, "lat": 38.85413583333333, "bike_id": "23dacfa864572bec64857ab3fd675f65", "fusion_lon": 0.0}, {"rental_uris": {"ios": "https://dc.lft.to/lastmile_qr_scan", "android": "https://dc.lft.to/lastmile_qr_scan"}, "type": "electric_scooter", "name": "f6b199b2078d0a0479cebd3dd8673b9b", "is_reserved": 0, "lon": -77.027501, "is_disabled": 0, "fusion_lat": 0.0, "lat": 38.9576985, "bike_id": "f6b199b2078d0a0479cebd3dd8673b9b", "fusion_lon": 0.0}, {"rental_uris": {"ios": "https://dc.lft.to/lastmile_qr_scan", "android": "https://dc.lft.to/lastmile_qr_scan"}, "type": "electric_scooter", "name": "a309726667e93a55477274d53991555e", "is_reserved": 0, "lon": -77.0502255, "is_disabled": 0, "fusion_lat": 0.0, "lat": 38.910517666666664, "bike_id": "a309726667e93a55477274d53991555e", "fusion_lon": 0.0}, {"rental_uris": {"ios": "https://dc.lft.to/lastmile_qr_scan", "android": "https://dc.lft.to/lastmile_qr_scan"}, "type": "electric_scooter", "name": "ffc20ff88e6e801df42dd05bce2e83d6", "is_reserved": 0, "lon": -77.0058845, "is_disabled": 0, "fusion_lat": 0.0, "lat": 38.8756465, "bike_id": "ffc20ff88e6e801df42dd05bce2e83d6", "fusion_lon": 0.0}, {"rental_uris": {"ios": "https://dc.lft.to/lastmile_qr_scan", "android": "https://dc.lft.to/lastmile_qr_scan"}, "type": "electric_scooter", "name": "1bda801a34e0e30fe710148fc896d32f", "is_reserved": 0, "lon": -77.04677, "is_disabled": 0, "fusion_lat": 0.0, "lat": 38.8923895, "bike_id": "1bda801a34e0e30fe710148fc896d32f", "fusion_lon": 0.0}, {"rental_uris": {"ios": "https://dc.lft.to/lastmile_qr_scan", "android": "https://dc.lft.to/lastmile_qr_scan"}, "type": "electric_scooter", "name": "8fc84d88b359dacf75eaafd97d6ee660", "is_reserved": 0, "lon": -76.98538733333334, "is_disabled": 0, "fusion_lat": 0.0, "lat": 38.90956833333333, "bike_id": "8fc84d88b359dacf75eaafd97d6ee660", "fusion_lon": 0.0}, {"rental_uris": {"ios": "https://dc.lft.to/lastmile_qr_scan", "android": "https://dc.lft.to/lastmile_qr_scan"}, "type": "electric_scooter", "name": "99cc403ca74f2ce16d5759da0a36153f", "is_reserved": 0, "lon": -77.06545283333334, "is_disabled": 0, "fusion_lat": 0.0, "lat": 38.905151333333336, "bike_id": "99cc403ca74f2ce16d5759da0a36153f", "fusion_lon": 0.0}, {"rental_uris": {"ios": "https://dc.lft.to/lastmile_qr_scan", "android": "https://dc.lft.to/lastmile_qr_scan"}, "type": "electric_scooter", "name": "f51f08f8c52c7456d0f7fc9735202b7f", "is_reserved": 0, "lon": -77.04132533333333, "is_disabled": 0, "fusion_lat": 0.0, "lat": 38.9253535, "bike_id": "f51f08f8c52c7456d0f7fc9735202b7f", "fusion_lon": 0.0}, {"rental_uris": {"ios": "https://dc.lft.to/lastmile_qr_scan", "android": "https://dc.lft.to/lastmile_qr_scan"}, "type": "electric_scooter", "name": "c4b6b1ab48cd36449b73e092736b1d9a", "is_reserved": 0, "lon": -77.02586216666667, "is_disabled": 0, "fusion_lat": 0.0, "lat": 38.884184166666664, "bike_id": "c4b6b1ab48cd36449b73e092736b1d9a", "fusion_lon": 0.0}, {"rental_uris": {"ios": "https://dc.lft.to/lastmile_qr_scan", "android": "https://dc.lft.to/lastmile_qr_scan"}, "type": "electric_scooter", "name": "50a1c65e830e7a230d9df830273b8a2a", "is_reserved": 0, "lon": -77.0389965, "is_disabled": 0, "fusion_lat": 0.0, "lat": 38.903578833333334, "bike_id": "50a1c65e830e7a230d9df830273b8a2a", "fusion_lon": 0.0}, {"rental_uris": {"ios": "https://dc.lft.to/lastmile_qr_scan", "android": "https://dc.lft.to/lastmile_qr_scan"}, "type": "electric_bike", "name": "209a664078890d38c385da7acba62724", "is_reserved": 0, "lon": -77.00513683333334, "is_disabled": 0, "fusion_lat": 0.0, "lat": 38.89664, "bike_id": "209a664078890d38c385da7acba62724", "fusion_lon": 0.0}, {"rental_uris": {"ios": "https://dc.lft.to/lastmile_qr_scan", "android": "https://dc.lft.to/lastmile_qr_scan"}, "type": "electric_scooter", "name": "80f723068b06287e9b0dd743cd3f760d", "is_reserved": 0, "lon": -77.05322233333334, "is_disabled": 0, "fusion_lat": 0.0, "lat": 38.906397166666665, "bike_id": "80f723068b06287e9b0dd743cd3f760d", "fusion_lon": 0.0}, {"rental_uris": {"ios": "https://dc.lft.to/lastmile_qr_scan", "android": "https://dc.lft.to/lastmile_qr_scan"}, "type": "electric_scooter", "name": "62f8ad623041f6178aee95e2e71faede", "is_reserved": 0, "lon": -77.03319833333333, "is_disabled": 0, "fusion_lat": 0.0, "lat": 38.903899, "bike_id": "62f8ad623041f6178aee95e2e71faede", "fusion_lon": 0.0}, {"rental_uris": {"ios": "https://dc.lft.to/lastmile_qr_scan", "android": "https://dc.lft.to/lastmile_qr_scan"}, "type": "electric_scooter", "name": "ece9de54b1eb0bc2da9a706cc6ea97ee", "is_reserved": 0, "lon": -77.041512, "is_disabled": 0, "fusion_lat": 0.0, "lat": 38.907511, "bike_id": "ece9de54b1eb0bc2da9a706cc6ea97ee", "fusion_lon": 0.0}, {"rental_uris": {"ios": "https://dc.lft.to/lastmile_qr_scan", "android": "https://dc.lft.to/lastmile_qr_scan"}, "type": "electric_scooter", "name": "e7c698d7e2c3c1362076b642c51d10ad", "is_reserved": 0, "lon": -77.02337133333333, "is_disabled": 0, "fusion_lat": 0.0, "lat": 38.922323666666664, "bike_id": "e7c698d7e2c3c1362076b642c51d10ad", "fusion_lon": 0.0}, {"rental_uris": {"ios": "https://dc.lft.to/lastmile_qr_scan", "android": "https://dc.lft.to/lastmile_qr_scan"}, "type": "electric_scooter", "name": "e58004ee6c92271466a96b49d307659b", "is_reserved": 0, "lon": -77.00429016666666, "is_disabled": 0, "fusion_lat": 0.0, "lat": 38.8770125, "bike_id": "e58004ee6c92271466a96b49d307659b", "fusion_lon": 0.0}, {"rental_uris": {"ios": "https://dc.lft.to/lastmile_qr_scan", "android": "https://dc.lft.to/lastmile_qr_scan"}, "type": "electric_bike", "name": "74d8b3563704fdff9f5a0088cf7d9492", "is_reserved": 0, "lon": -77.02583783333333, "is_disabled": 0, "fusion_lat": 0.0, "lat": 38.978744666666664, "bike_id": "74d8b3563704fdff9f5a0088cf7d9492", "fusion_lon": 0.0}, {"rental_uris": {"ios": "https://dc.lft.to/lastmile_qr_scan", "android": "https://dc.lft.to/lastmile_qr_scan"}, "type": "electric_scooter", "name": "30e436f144af6fd24a228b3d64df24b4", "is_reserved": 0, "lon": -77.010975, "is_disabled": 0, "fusion_lat": 0.0, "lat": 38.8979335, "bike_id": "30e436f144af6fd24a228b3d64df24b4", "fusion_lon": 0.0}, {"rental_uris": {"ios": "https://dc.lft.to/lastmile_qr_scan", "android": "https://dc.lft.to/lastmile_qr_scan"}, "type": "electric_scooter", "name": "602bb6f2a3482fd764396b485d1f5815", "is_reserved": 0, "lon": -77.0505545, "is_disabled": 0, "fusion_lat": 0.0, "lat": 38.90079466666667, "bike_id": "602bb6f2a3482fd764396b485d1f5815", "fusion_lon": 0.0}, {"rental_uris": {"ios": "https://dc.lft.to/lastmile_qr_scan", "android": "https://dc.lft.to/lastmile_qr_scan"}, "type": "electric_scooter", "name": "d3eb3edee871b0bde8cdc6f4b1747e36", "is_reserved": 0, "lon": -77.03377483333334, "is_disabled": 0, "fusion_lat": 0.0, "lat": 38.894838, "bike_id": "d3eb3edee871b0bde8cdc6f4b1747e36", "fusion_lon": 0.0}, {"rental_uris": {"ios": "https://dc.lft.to/lastmile_qr_scan", "android": "https://dc.lft.to/lastmile_qr_scan"}, "type": "electric_scooter", "name": "6445066b2ee4d4926ee270af34b52fb4", "is_reserved": 0, "lon": -76.9950235, "is_disabled": 0, "fusion_lat": 0.0, "lat": 38.86247866666667, "bike_id": "6445066b2ee4d4926ee270af34b52fb4", "fusion_lon": 0.0}, {"rental_uris": {"ios": "https://dc.lft.to/lastmile_qr_scan", "android": "https://dc.lft.to/lastmile_qr_scan"}, "type": "electric_scooter", "name": "3298dbe6dfb40e408c250069f920677a", "is_reserved": 0, "lon": -77.033852, "is_disabled": 0, "fusion_lat": 0.0, "lat": 38.92882616666667, "bike_id": "3298dbe6dfb40e408c250069f920677a", "fusion_lon": 0.0}, {"rental_uris": {"ios": "https://dc.lft.to/lastmile_qr_scan", "android": "https://dc.lft.to/lastmile_qr_scan"}, "type": "electric_scooter", "name": "6c91d1d87d24c0c12087d862ee0b79b5", "is_reserved": 0, "lon": -77.03099433333334, "is_disabled": 0, "fusion_lat": 0.0, "lat": 38.92858833333333, "bike_id": "6c91d1d87d24c0c12087d862ee0b79b5", "fusion_lon": 0.0}, {"rental_uris": {"ios": "https://dc.lft.to/lastmile_qr_scan", "android": "https://dc.lft.to/lastmile_qr_scan"}, "type": "electric_scooter", "name": "bbbf92b88e88884f2e31ddfa2cd17e03", "is_reserved": 0, "lon": -77.01873766666667, "is_disabled": 0, "fusion_lat": 0.0, "lat": 38.903645833333336, "bike_id": "bbbf92b88e88884f2e31ddfa2cd17e03", "fusion_lon": 0.0}, {"rental_uris": {"ios": "https://dc.lft.to/lastmile_qr_scan", "android": "https://dc.lft.to/lastmile_qr_scan"}, "type": "electric_scooter", "name": "44f0426a6baf899e78c18e0440ca3503", "is_reserved": 0, "lon": -77.04081283333333, "is_disabled": 0, "fusion_lat": 0.0, "lat": 38.94770533333333, "bike_id": "44f0426a6baf899e78c18e0440ca3503", "fusion_lon": 0.0}, {"rental_uris": {"ios": "https://dc.lft.to/lastmile_qr_scan", "android": "https://dc.lft.to/lastmile_qr_scan"}, "type": "electric_scooter", "name": "fd6271590051cb7c76e9709dd1feaa36", "is_reserved": 0, "lon": -77.01583333333333, "is_disabled": 0, "fusion_lat": 0.0, "lat": 38.916466666666665, "bike_id": "fd6271590051cb7c76e9709dd1feaa36", "fusion_lon": 0.0}, {"rental_uris": {"ios": "https://dc.lft.to/lastmile_qr_scan", "android": "https://dc.lft.to/lastmile_qr_scan"}, "type": "electric_bike", "name": "49e64d09969db700749104e82db2708b", "is_reserved": 0, "lon": -76.99913216666667, "is_disabled": 0, "fusion_lat": 0.0, "lat": 38.86452633333333, "bike_id": "49e64d09969db700749104e82db2708b", "fusion_lon": 0.0}, {"rental_uris": {"ios": "https://dc.lft.to/lastmile_qr_scan", "android": "https://dc.lft.to/lastmile_qr_scan"}, "type": "electric_scooter", "name": "69398de9a73779e763550ad7b8020fb9", "is_reserved": 0, "lon": -77.03454883333333, "is_disabled": 0, "fusion_lat": 0.0, "lat": 38.907271333333334, "bike_id": "69398de9a73779e763550ad7b8020fb9", "fusion_lon": 0.0}, {"rental_uris": {"ios": "https://dc.lft.to/lastmile_qr_scan", "android": "https://dc.lft.to/lastmile_qr_scan"}, "type": "electric_scooter", "name": "f63c4e95d6429551c1264c23786195fe", "is_reserved": 0, "lon": -77.05228866666667, "is_disabled": 0, "fusion_lat": 0.0, "lat": 38.89847866666667, "bike_id": "f63c4e95d6429551c1264c23786195fe", "fusion_lon": 0.0}, {"rental_uris": {"ios": "https://dc.lft.to/lastmile_qr_scan", "android": "https://dc.lft.to/lastmile_qr_scan"}, "type": "electric_scooter", "name": "4eb2a542973c093f9d88d58b010b56c8", "is_reserved": 0, "lon": -77.03841583333333, "is_disabled": 0, "fusion_lat": 0.0, "lat": 38.91550016666667, "bike_id": "4eb2a542973c093f9d88d58b010b56c8", "fusion_lon": 0.0}, {"rental_uris": {"ios": "https://dc.lft.to/lastmile_qr_scan", "android": "https://dc.lft.to/lastmile_qr_scan"}, "type": "electric_bike", "name": "3183e64636983aaa4b08967afbd366ab", "is_reserved": 0, "lon": -76.9881845, "is_disabled": 0, "fusion_lat": 0.0, "lat": 38.842748, "bike_id": "3183e64636983aaa4b08967afbd366ab", "fusion_lon": 0.0}, {"rental_uris": {"ios": "https://dc.lft.to/lastmile_qr_scan", "android": "https://dc.lft.to/lastmile_qr_scan"}, "type": "electric_scooter", "name": "866ef8c2b384de1d5dec7752a594e7f4", "is_reserved": 0, "lon": -77.0257925, "is_disabled": 0, "fusion_lat": 0.0, "lat": 38.883756, "bike_id": "866ef8c2b384de1d5dec7752a594e7f4", "fusion_lon": 0.0}, {"rental_uris": {"ios": "https://dc.lft.to/lastmile_qr_scan", "android": "https://dc.lft.to/lastmile_qr_scan"}, "type": "electric_scooter", "name": "c58dca5cec2425b354e5c4a632841ec4", "is_reserved": 0, "lon": -77.03514816666667, "is_disabled": 0, "fusion_lat": 0.0, "lat": 38.9096505, "bike_id": "c58dca5cec2425b354e5c4a632841ec4", "fusion_lon": 0.0}, {"rental_uris": {"ios": "https://dc.lft.to/lastmile_qr_scan", "android": "https://dc.lft.to/lastmile_qr_scan"}, "type": "electric_scooter", "name": "5ac6839edf5edd61321b1103750ad1c1", "is_reserved": 0, "lon": -77.04587083333334, "is_disabled": 0, "fusion_lat": 0.0, "lat": 38.91853233333333, "bike_id": "5ac6839edf5edd61321b1103750ad1c1", "fusion_lon": 0.0}, {"rental_uris": {"ios": "https://dc.lft.to/lastmile_qr_scan", "android": "https://dc.lft.to/lastmile_qr_scan"}, "type": "electric_scooter", "name": "68702361d1dc46b800e8c3b62abcfdd0", "is_reserved": 0, "lon": -77.028085, "is_disabled": 0, "fusion_lat": 0.0, "lat": 38.923732666666666, "bike_id": "68702361d1dc46b800e8c3b62abcfdd0", "fusion_lon": 0.0}, {"rental_uris": {"ios": "https://dc.lft.to/lastmile_qr_scan", "android": "https://dc.lft.to/lastmile_qr_scan"}, "type": "electric_scooter", "name": "bcefe9d62bf8467ba0ccc2ddddbde0a9", "is_reserved": 0, "lon": -77.02592083333333, "is_disabled": 0, "fusion_lat": 0.0, "lat": 38.91454983333333, "bike_id": "bcefe9d62bf8467ba0ccc2ddddbde0a9", "fusion_lon": 0.0}, {"rental_uris": {"ios": "https://dc.lft.to/lastmile_qr_scan", "android": "https://dc.lft.to/lastmile_qr_scan"}, "type": "electric_scooter", "name": "7b2264b40a3e32e504c9966369205926", "is_reserved": 0, "lon": -77.0034855, "is_disabled": 0, "fusion_lat": 0.0, "lat": 38.87697033333333, "bike_id": "7b2264b40a3e32e504c9966369205926", "fusion_lon": 0.0}, {"rental_uris": {"ios": "https://dc.lft.to/lastmile_qr_scan", "android": "https://dc.lft.to/lastmile_qr_scan"}, "type": "electric_scooter", "name": "989b13bf105863cd0b14984591fe634b", "is_reserved": 0, "lon": -77.03579566666667, "is_disabled": 0, "fusion_lat": 0.0, "lat": 38.910298833333336, "bike_id": "989b13bf105863cd0b14984591fe634b", "fusion_lon": 0.0}, {"rental_uris": {"ios": "https://dc.lft.to/lastmile_qr_scan", "android": "https://dc.lft.to/lastmile_qr_scan"}, "type": "electric_scooter", "name": "62ff5179e415b4cebe52d8ffe24f296a", "is_reserved": 0, "lon": -77.04189366666667, "is_disabled": 0, "fusion_lat": 0.0, "lat": 38.906075, "bike_id": "62ff5179e415b4cebe52d8ffe24f296a", "fusion_lon": 0.0}, {"rental_uris": {"ios": "https://dc.lft.to/lastmile_qr_scan", "android": "https://dc.lft.to/lastmile_qr_scan"}, "type": "electric_bike", "name": "6e921b1ec645159fac14e5fac3050ac5", "is_reserved": 0, "lon": -77.04071383333333, "is_disabled": 0, "fusion_lat": 0.0, "lat": 38.993769666666665, "bike_id": "6e921b1ec645159fac14e5fac3050ac5", "fusion_lon": 0.0}, {"rental_uris": {"ios": "https://dc.lft.to/lastmile_qr_scan", "android": "https://dc.lft.to/lastmile_qr_scan"}, "type": "electric_scooter", "name": "91d4cb800a89f15fe12195bd673bc0c8", "is_reserved": 0, "lon": -76.9765565, "is_disabled": 0, "fusion_lat": 0.0, "lat": 38.903641666666665, "bike_id": "91d4cb800a89f15fe12195bd673bc0c8", "fusion_lon": 0.0}, {"rental_uris": {"ios": "https://dc.lft.to/lastmile_qr_scan", "android": "https://dc.lft.to/lastmile_qr_scan"}, "type": "electric_scooter", "name": "7ce1ff4eca23bf12dacea2c69a3898af", "is_reserved": 0, "lon": -77.04091483333333, "is_disabled": 0, "fusion_lat": 0.0, "lat": 38.9205365, "bike_id": "7ce1ff4eca23bf12dacea2c69a3898af", "fusion_lon": 0.0}, {"rental_uris": {"ios": "https://dc.lft.to/lastmile_qr_scan", "android": "https://dc.lft.to/lastmile_qr_scan"}, "type": "electric_scooter", "name": "45d1cb81d83744465f715ff8f062553c", "is_reserved": 0, "lon": -77.0467265, "is_disabled": 0, "fusion_lat": 0.0, "lat": 38.8923205, "bike_id": "45d1cb81d83744465f715ff8f062553c", "fusion_lon": 0.0}, {"rental_uris": {"ios": "https://dc.lft.to/lastmile_qr_scan", "android": "https://dc.lft.to/lastmile_qr_scan"}, "type": "electric_scooter", "name": "fa00a00434097e973e9ab9be38cde14a", "is_reserved": 0, "lon": -77.03471883333333, "is_disabled": 0, "fusion_lat": 0.0, "lat": 38.917062333333334, "bike_id": "fa00a00434097e973e9ab9be38cde14a", "fusion_lon": 0.0}, {"rental_uris": {"ios": "https://dc.lft.to/lastmile_qr_scan", "android": "https://dc.lft.to/lastmile_qr_scan"}, "type": "electric_scooter", "name": "c4a1c4899974d974dd961c991ff7a760", "is_reserved": 0, "lon": -77.03869016666667, "is_disabled": 0, "fusion_lat": 0.0, "lat": 38.91258883333333, "bike_id": "c4a1c4899974d974dd961c991ff7a760", "fusion_lon": 0.0}, {"rental_uris": {"ios": "https://dc.lft.to/lastmile_qr_scan", "android": "https://dc.lft.to/lastmile_qr_scan"}, "type": "electric_scooter", "name": "d80600d8f1625f1b413325b3531d787b", "is_reserved": 0, "lon": -77.00049366666667, "is_disabled": 0, "fusion_lat": 0.0, "lat": 38.87386383333333, "bike_id": "d80600d8f1625f1b413325b3531d787b", "fusion_lon": 0.0}, {"rental_uris": {"ios": "https://dc.lft.to/lastmile_qr_scan", "android": "https://dc.lft.to/lastmile_qr_scan"}, "type": "electric_scooter", "name": "e25c1f3e5806ff3d6843ed0c2135489b", "is_reserved": 0, "lon": -77.06117033333334, "is_disabled": 0, "fusion_lat": 0.0, "lat": 38.904962166666664, "bike_id": "e25c1f3e5806ff3d6843ed0c2135489b", "fusion_lon": 0.0}, {"rental_uris": {"ios": "https://dc.lft.to/lastmile_qr_scan", "android": "https://dc.lft.to/lastmile_qr_scan"}, "type": "electric_scooter", "name": "7d72b73835cde32f522af9e635741043", "is_reserved": 0, "lon": -77.02830716666666, "is_disabled": 0, "fusion_lat": 0.0, "lat": 38.88627533333333, "bike_id": "7d72b73835cde32f522af9e635741043", "fusion_lon": 0.0}, {"rental_uris": {"ios": "https://dc.lft.to/lastmile_qr_scan", "android": "https://dc.lft.to/lastmile_qr_scan"}, "type": "electric_scooter", "name": "7ff885732e5d9a4cb9bacf514af65722", "is_reserved": 0, "lon": -77.058846, "is_disabled": 0, "fusion_lat": 0.0, "lat": 38.904486166666665, "bike_id": "7ff885732e5d9a4cb9bacf514af65722", "fusion_lon": 0.0}, {"rental_uris": {"ios": "https://dc.lft.to/lastmile_qr_scan", "android": "https://dc.lft.to/lastmile_qr_scan"}, "type": "electric_scooter", "name": "22e4cd684749673592d8f1cfb9828e88", "is_reserved": 0, "lon": -77.03190933333333, "is_disabled": 0, "fusion_lat": 0.0, "lat": 38.9079335, "bike_id": "22e4cd684749673592d8f1cfb9828e88", "fusion_lon": 0.0}, {"rental_uris": {"ios": "https://dc.lft.to/lastmile_qr_scan", "android": "https://dc.lft.to/lastmile_qr_scan"}, "type": "electric_scooter", "name": "a9a40ba9f5399cd208a0369d6b24e3fb", "is_reserved": 0, "lon": -77.00931966666667, "is_disabled": 0, "fusion_lat": 0.0, "lat": 38.8961405, "bike_id": "a9a40ba9f5399cd208a0369d6b24e3fb", "fusion_lon": 0.0}, {"rental_uris": {"ios": "https://dc.lft.to/lastmile_qr_scan", "android": "https://dc.lft.to/lastmile_qr_scan"}, "type": "electric_scooter", "name": "e23302c11012fe583c35591612f41b56", "is_reserved": 0, "lon": -77.02879333333334, "is_disabled": 0, "fusion_lat": 0.0, "lat": 38.90369716666667, "bike_id": "e23302c11012fe583c35591612f41b56", "fusion_lon": 0.0}, {"rental_uris": {"ios": "https://dc.lft.to/lastmile_qr_scan", "android": "https://dc.lft.to/lastmile_qr_scan"}, "type": "electric_scooter", "name": "7f40e6aa277bcdd490fbc34c8f7b67a1", "is_reserved": 0, "lon": -77.01124766666666, "is_disabled": 0, "fusion_lat": 0.0, "lat": 38.916202166666665, "bike_id": "7f40e6aa277bcdd490fbc34c8f7b67a1", "fusion_lon": 0.0}, {"rental_uris": {"ios": "https://dc.lft.to/lastmile_qr_scan", "android": "https://dc.lft.to/lastmile_qr_scan"}, "type": "electric_scooter", "name": "593260ad849475ab3cf4e43604fd51ef", "is_reserved": 0, "lon": -77.029411, "is_disabled": 0, "fusion_lat": 0.0, "lat": 38.91551666666667, "bike_id": "593260ad849475ab3cf4e43604fd51ef", "fusion_lon": 0.0}, {"rental_uris": {"ios": "https://dc.lft.to/lastmile_qr_scan", "android": "https://dc.lft.to/lastmile_qr_scan"}, "type": "electric_scooter", "name": "4dd2ae6e7b78298495c5da8f292f49d8", "is_reserved": 0, "lon": -77.014551, "is_disabled": 0, "fusion_lat": 0.0, "lat": 38.926547166666666, "bike_id": "4dd2ae6e7b78298495c5da8f292f49d8", "fusion_lon": 0.0}, {"rental_uris": {"ios": "https://dc.lft.to/lastmile_qr_scan", "android": "https://dc.lft.to/lastmile_qr_scan"}, "type": "electric_scooter", "name": "cbc453ee87d133b818ddf23fb419cda2", "is_reserved": 0, "lon": -77.050235, "is_disabled": 0, "fusion_lat": 0.0, "lat": 38.92354683333333, "bike_id": "cbc453ee87d133b818ddf23fb419cda2", "fusion_lon": 0.0}, {"rental_uris": {"ios": "https://dc.lft.to/lastmile_qr_scan", "android": "https://dc.lft.to/lastmile_qr_scan"}, "type": "electric_scooter", "name": "56ae582197da73faebe2794af828bcc3", "is_reserved": 0, "lon": -77.06261116666667, "is_disabled": 0, "fusion_lat": 0.0, "lat": 38.905106833333335, "bike_id": "56ae582197da73faebe2794af828bcc3", "fusion_lon": 0.0}, {"rental_uris": {"ios": "https://dc.lft.to/lastmile_qr_scan", "android": "https://dc.lft.to/lastmile_qr_scan"}, "type": "electric_scooter", "name": "f0a42054c8826451dba3e0f155199643", "is_reserved": 0, "lon": -77.00045066666667, "is_disabled": 0, "fusion_lat": 0.0, "lat": 38.87502083333333, "bike_id": "f0a42054c8826451dba3e0f155199643", "fusion_lon": 0.0}, {"rental_uris": {"ios": "https://dc.lft.to/lastmile_qr_scan", "android": "https://dc.lft.to/lastmile_qr_scan"}, "type": "electric_scooter", "name": "4eaa3c3d6617785447e2cdd24e9fdfa5", "is_reserved": 0, "lon": -77.028832, "is_disabled": 0, "fusion_lat": 0.0, "lat": 38.9032235, "bike_id": "4eaa3c3d6617785447e2cdd24e9fdfa5", "fusion_lon": 0.0}, {"rental_uris": {"ios": "https://dc.lft.to/lastmile_qr_scan", "android": "https://dc.lft.to/lastmile_qr_scan"}, "type": "electric_scooter", "name": "1d7864eef989e13a915ac22aed4b713d", "is_reserved": 0, "lon": -77.02135166666666, "is_disabled": 0, "fusion_lat": 0.0, "lat": 38.92490816666667, "bike_id": "1d7864eef989e13a915ac22aed4b713d", "fusion_lon": 0.0}, {"rental_uris": {"ios": "https://dc.lft.to/lastmile_qr_scan", "android": "https://dc.lft.to/lastmile_qr_scan"}, "type": "electric_bike", "name": "e7696340631eacb0e023cd8fece3e2fd", "is_reserved": 0, "lon": -76.98275483333333, "is_disabled": 0, "fusion_lat": 0.0, "lat": 38.8468345, "bike_id": "e7696340631eacb0e023cd8fece3e2fd", "fusion_lon": 0.0}, {"rental_uris": {"ios": "https://dc.lft.to/lastmile_qr_scan", "android": "https://dc.lft.to/lastmile_qr_scan"}, "type": "electric_bike", "name": "fe5c1fa7cf4510452a372fbddfee3ee7", "is_reserved": 0, "lon": -77.02030283333333, "is_disabled": 0, "fusion_lat": 0.0, "lat": 38.965565833333336, "bike_id": "fe5c1fa7cf4510452a372fbddfee3ee7", "fusion_lon": 0.0}, {"rental_uris": {"ios": "https://dc.lft.to/lastmile_qr_scan", "android": "https://dc.lft.to/lastmile_qr_scan"}, "type": "electric_scooter", "name": "1a24358c4662ca3b46e01e652e906931", "is_reserved": 0, "lon": -77.0488005, "is_disabled": 0, "fusion_lat": 0.0, "lat": 38.90282233333333, "bike_id": "1a24358c4662ca3b46e01e652e906931", "fusion_lon": 0.0}, {"rental_uris": {"ios": "https://dc.lft.to/lastmile_qr_scan", "android": "https://dc.lft.to/lastmile_qr_scan"}, "type": "electric_scooter", "name": "9464857aba7b5319c4e19a8977d708f3", "is_reserved": 0, "lon": -77.06345783333333, "is_disabled": 0, "fusion_lat": 0.0, "lat": 38.9085005, "bike_id": "9464857aba7b5319c4e19a8977d708f3", "fusion_lon": 0.0}, {"rental_uris": {"ios": "https://dc.lft.to/lastmile_qr_scan", "android": "https://dc.lft.to/lastmile_qr_scan"}, "type": "electric_scooter", "name": "d6aa36c63fc1c54448a49a63948b234e", "is_reserved": 0, "lon": -77.01761316666666, "is_disabled": 0, "fusion_lat": 0.0, "lat": 38.8767375, "bike_id": "d6aa36c63fc1c54448a49a63948b234e", "fusion_lon": 0.0}, {"rental_uris": {"ios": "https://dc.lft.to/lastmile_qr_scan", "android": "https://dc.lft.to/lastmile_qr_scan"}, "type": "electric_scooter", "name": "452a2df137268471097159cdab03eba0", "is_reserved": 0, "lon": -76.94856066666667, "is_disabled": 0, "fusion_lat": 0.0, "lat": 38.883016166666664, "bike_id": "452a2df137268471097159cdab03eba0", "fusion_lon": 0.0}, {"rental_uris": {"ios": "https://dc.lft.to/lastmile_qr_scan", "android": "https://dc.lft.to/lastmile_qr_scan"}, "type": "electric_scooter", "name": "55dbd888557db4b89b91f009cd445b5b", "is_reserved": 0, "lon": -77.02080616666667, "is_disabled": 0, "fusion_lat": 0.0, "lat": 38.924086, "bike_id": "55dbd888557db4b89b91f009cd445b5b", "fusion_lon": 0.0}, {"rental_uris": {"ios": "https://dc.lft.to/lastmile_qr_scan", "android": "https://dc.lft.to/lastmile_qr_scan"}, "type": "electric_scooter", "name": "cdc7aa377c0e56cba47f739876e89462", "is_reserved": 0, "lon": -77.0034775, "is_disabled": 0, "fusion_lat": 0.0, "lat": 38.892564166666666, "bike_id": "cdc7aa377c0e56cba47f739876e89462", "fusion_lon": 0.0}, {"rental_uris": {"ios": "https://dc.lft.to/lastmile_qr_scan", "android": "https://dc.lft.to/lastmile_qr_scan"}, "type": "electric_scooter", "name": "7063ed89796effd8eee18c51899ca8d4", "is_reserved": 0, "lon": -77.0239015, "is_disabled": 0, "fusion_lat": 0.0, "lat": 38.93201966666667, "bike_id": "7063ed89796effd8eee18c51899ca8d4", "fusion_lon": 0.0}, {"rental_uris": {"ios": "https://dc.lft.to/lastmile_qr_scan", "android": "https://dc.lft.to/lastmile_qr_scan"}, "type": "electric_scooter", "name": "98b9b0e107a5d1a7da45d710c41ce79c", "is_reserved": 0, "lon": -77.02126366666667, "is_disabled": 0, "fusion_lat": 0.0, "lat": 38.923755, "bike_id": "98b9b0e107a5d1a7da45d710c41ce79c", "fusion_lon": 0.0}, {"rental_uris": {"ios": "https://dc.lft.to/lastmile_qr_scan", "android": "https://dc.lft.to/lastmile_qr_scan"}, "type": "electric_scooter", "name": "46422e53ce0c653034020d49d30c318c", "is_reserved": 0, "lon": -77.03849383333333, "is_disabled": 0, "fusion_lat": 0.0, "lat": 38.915470666666664, "bike_id": "46422e53ce0c653034020d49d30c318c", "fusion_lon": 0.0}, {"rental_uris": {"ios": "https://dc.lft.to/lastmile_qr_scan", "android": "https://dc.lft.to/lastmile_qr_scan"}, "type": "electric_scooter", "name": "2e2ebdb5800749b5cfe3c377ff4178ec", "is_reserved": 0, "lon": -77.0405645, "is_disabled": 0, "fusion_lat": 0.0, "lat": 38.91748916666667, "bike_id": "2e2ebdb5800749b5cfe3c377ff4178ec", "fusion_lon": 0.0}, {"rental_uris": {"ios": "https://dc.lft.to/lastmile_qr_scan", "android": "https://dc.lft.to/lastmile_qr_scan"}, "type": "electric_scooter", "name": "ecf12141338af153a768e100f4e00f3e", "is_reserved": 0, "lon": -76.98102233333333, "is_disabled": 0, "fusion_lat": 0.0, "lat": 38.90399716666667, "bike_id": "ecf12141338af153a768e100f4e00f3e", "fusion_lon": 0.0}, {"rental_uris": {"ios": "https://dc.lft.to/lastmile_qr_scan", "android": "https://dc.lft.to/lastmile_qr_scan"}, "type": "electric_scooter", "name": "2034431f9d1bee5a831d957b02a905de", "is_reserved": 0, "lon": -77.02660916666666, "is_disabled": 0, "fusion_lat": 0.0, "lat": 38.9385745, "bike_id": "2034431f9d1bee5a831d957b02a905de", "fusion_lon": 0.0}, {"rental_uris": {"ios": "https://dc.lft.to/lastmile_qr_scan", "android": "https://dc.lft.to/lastmile_qr_scan"}, "type": "electric_scooter", "name": "4b9c86e54e7e09d89c77b6b10797ca4a", "is_reserved": 0, "lon": -77.0387305, "is_disabled": 0, "fusion_lat": 0.0, "lat": 38.918791, "bike_id": "4b9c86e54e7e09d89c77b6b10797ca4a", "fusion_lon": 0.0}, {"rental_uris": {"ios": "https://dc.lft.to/lastmile_qr_scan", "android": "https://dc.lft.to/lastmile_qr_scan"}, "type": "electric_bike", "name": "070bb2f21cd1182d7ac2189113ae0680", "is_reserved": 0, "lon": -76.958222, "is_disabled": 0, "fusion_lat": 0.0, "lat": 38.9199315, "bike_id": "070bb2f21cd1182d7ac2189113ae0680", "fusion_lon": 0.0}, {"rental_uris": {"ios": "https://dc.lft.to/lastmile_qr_scan", "android": "https://dc.lft.to/lastmile_qr_scan"}, "type": "electric_scooter", "name": "1d466fb98118123a0e6b86c5d922e1d3", "is_reserved": 0, "lon": -77.021342, "is_disabled": 0, "fusion_lat": 0.0, "lat": 38.924155666666664, "bike_id": "1d466fb98118123a0e6b86c5d922e1d3", "fusion_lon": 0.0}, {"rental_uris": {"ios": "https://dc.lft.to/lastmile_qr_scan", "android": "https://dc.lft.to/lastmile_qr_scan"}, "type": "electric_scooter", "name": "c0bfad62843d92ef508e1506c94dc2d5", "is_reserved": 0, "lon": -77.0217095, "is_disabled": 0, "fusion_lat": 0.0, "lat": 38.894739, "bike_id": "c0bfad62843d92ef508e1506c94dc2d5", "fusion_lon": 0.0}, {"rental_uris": {"ios": "https://dc.lft.to/lastmile_qr_scan", "android": "https://dc.lft.to/lastmile_qr_scan"}, "type": "electric_scooter", "name": "740bcebf0f5601bca2f35893340e2b4e", "is_reserved": 0, "lon": -77.01202366666666, "is_disabled": 0, "fusion_lat": 0.0, "lat": 38.896683833333334, "bike_id": "740bcebf0f5601bca2f35893340e2b4e", "fusion_lon": 0.0}, {"rental_uris": {"ios": "https://dc.lft.to/lastmile_qr_scan", "android": "https://dc.lft.to/lastmile_qr_scan"}, "type": "electric_scooter", "name": "15d00e134c812e669b2c1f7cfb002195", "is_reserved": 0, "lon": -76.9950425, "is_disabled": 0, "fusion_lat": 0.0, "lat": 38.88306383333333, "bike_id": "15d00e134c812e669b2c1f7cfb002195", "fusion_lon": 0.0}, {"rental_uris": {"ios": "https://dc.lft.to/lastmile_qr_scan", "android": "https://dc.lft.to/lastmile_qr_scan"}, "type": "electric_scooter", "name": "8c01b5ee82bf23ec7789e693757b9804", "is_reserved": 0, "lon": -77.04210016666667, "is_disabled": 0, "fusion_lat": 0.0, "lat": 38.920567, "bike_id": "8c01b5ee82bf23ec7789e693757b9804", "fusion_lon": 0.0}, {"rental_uris": {"ios": "https://dc.lft.to/lastmile_qr_scan", "android": "https://dc.lft.to/lastmile_qr_scan"}, "type": "electric_scooter", "name": "f1ee9d2f1d5e2f3a5023a94cff6fe451", "is_reserved": 0, "lon": -77.04127283333334, "is_disabled": 0, "fusion_lat": 0.0, "lat": 38.933564, "bike_id": "f1ee9d2f1d5e2f3a5023a94cff6fe451", "fusion_lon": 0.0}, {"rental_uris": {"ios": "https://dc.lft.to/lastmile_qr_scan", "android": "https://dc.lft.to/lastmile_qr_scan"}, "type": "electric_scooter", "name": "4d0256deac19e7b471d88b2906db4190", "is_reserved": 0, "lon": -77.050188, "is_disabled": 0, "fusion_lat": 0.0, "lat": 38.89680283333333, "bike_id": "4d0256deac19e7b471d88b2906db4190", "fusion_lon": 0.0}, {"rental_uris": {"ios": "https://dc.lft.to/lastmile_qr_scan", "android": "https://dc.lft.to/lastmile_qr_scan"}, "type": "electric_scooter", "name": "76d603f5a99dadb74761b55fcbbf98a4", "is_reserved": 0, "lon": -77.02796216666667, "is_disabled": 0, "fusion_lat": 0.0, "lat": 38.91671783333334, "bike_id": "76d603f5a99dadb74761b55fcbbf98a4", "fusion_lon": 0.0}, {"rental_uris": {"ios": "https://dc.lft.to/lastmile_qr_scan", "android": "https://dc.lft.to/lastmile_qr_scan"}, "type": "electric_scooter", "name": "c386a5ef73a2fa6cd5719c7aadbc6992", "is_reserved": 0, "lon": -77.04301483333333, "is_disabled": 0, "fusion_lat": 0.0, "lat": 38.91029266666666, "bike_id": "c386a5ef73a2fa6cd5719c7aadbc6992", "fusion_lon": 0.0}, {"rental_uris": {"ios": "https://dc.lft.to/lastmile_qr_scan", "android": "https://dc.lft.to/lastmile_qr_scan"}, "type": "electric_bike", "name": "af2c5e1b521aa4a1b21d9962ec585e3b", "is_reserved": 0, "lon": -76.91719416666666, "is_disabled": 0, "fusion_lat": 0.0, "lat": 38.880262333333334, "bike_id": "af2c5e1b521aa4a1b21d9962ec585e3b", "fusion_lon": 0.0}, {"rental_uris": {"ios": "https://dc.lft.to/lastmile_qr_scan", "android": "https://dc.lft.to/lastmile_qr_scan"}, "type": "electric_scooter", "name": "269fca26fc47f0d77c290008f5af2068", "is_reserved": 0, "lon": -77.03244216666667, "is_disabled": 0, "fusion_lat": 0.0, "lat": 38.919887, "bike_id": "269fca26fc47f0d77c290008f5af2068", "fusion_lon": 0.0}, {"rental_uris": {"ios": "https://dc.lft.to/lastmile_qr_scan", "android": "https://dc.lft.to/lastmile_qr_scan"}, "type": "electric_scooter", "name": "68390b0760a862c174a59696dc665b4d", "is_reserved": 0, "lon": -77.02092683333333, "is_disabled": 0, "fusion_lat": 0.0, "lat": 38.88745216666667, "bike_id": "68390b0760a862c174a59696dc665b4d", "fusion_lon": 0.0}, {"rental_uris": {"ios": "https://dc.lft.to/lastmile_qr_scan", "android": "https://dc.lft.to/lastmile_qr_scan"}, "type": "electric_scooter", "name": "7fc29a924d5c2f1fa7dbe429b961149a", "is_reserved": 0, "lon": -76.95286983333334, "is_disabled": 0, "fusion_lat": 0.0, "lat": 38.885282833333335, "bike_id": "7fc29a924d5c2f1fa7dbe429b961149a", "fusion_lon": 0.0}, {"rental_uris": {"ios": "https://dc.lft.to/lastmile_qr_scan", "android": "https://dc.lft.to/lastmile_qr_scan"}, "type": "electric_scooter", "name": "6d61f7d3ef91d22b8804e3d948a5c16b", "is_reserved": 0, "lon": -76.99513866666666, "is_disabled": 0, "fusion_lat": 0.0, "lat": 38.90973733333333, "bike_id": "6d61f7d3ef91d22b8804e3d948a5c16b", "fusion_lon": 0.0}, {"rental_uris": {"ios": "https://dc.lft.to/lastmile_qr_scan", "android": "https://dc.lft.to/lastmile_qr_scan"}, "type": "electric_scooter", "name": "778812ca91b57b2dc82d51f2d072196f", "is_reserved": 0, "lon": -77.0254765, "is_disabled": 0, "fusion_lat": 0.0, "lat": 38.951714333333335, "bike_id": "778812ca91b57b2dc82d51f2d072196f", "fusion_lon": 0.0}, {"rental_uris": {"ios": "https://dc.lft.to/lastmile_qr_scan", "android": "https://dc.lft.to/lastmile_qr_scan"}, "type": "electric_scooter", "name": "13eaeb21dddedfa019c661a496fea2ff", "is_reserved": 0, "lon": -77.00471383333333, "is_disabled": 0, "fusion_lat": 0.0, "lat": 38.88522583333334, "bike_id": "13eaeb21dddedfa019c661a496fea2ff", "fusion_lon": 0.0}, {"rental_uris": {"ios": "https://dc.lft.to/lastmile_qr_scan", "android": "https://dc.lft.to/lastmile_qr_scan"}, "type": "electric_scooter", "name": "9b8c002cb83b868760057224ed5610eb", "is_reserved": 0, "lon": -77.03460433333333, "is_disabled": 0, "fusion_lat": 0.0, "lat": 38.902359833333335, "bike_id": "9b8c002cb83b868760057224ed5610eb", "fusion_lon": 0.0}, {"rental_uris": {"ios": "https://dc.lft.to/lastmile_qr_scan", "android": "https://dc.lft.to/lastmile_qr_scan"}, "type": "electric_scooter", "name": "d61c94fa10a9aa80e47c875d24a1d967", "is_reserved": 0, "lon": -76.9406455, "is_disabled": 0, "fusion_lat": 0.0, "lat": 38.88587416666667, "bike_id": "d61c94fa10a9aa80e47c875d24a1d967", "fusion_lon": 0.0}, {"rental_uris": {"ios": "https://dc.lft.to/lastmile_qr_scan", "android": "https://dc.lft.to/lastmile_qr_scan"},