{"data": {"bikes": [{"rental_uris": {"android": "https://dc.lft.to/lastmile_qr_scan", "ios": "https://dc.lft.to/lastmile_qr_scan"}, "fusion_lat": 0.0, "is_reserved": 0, "lat": 38.89362583333333, "name": "4c3556fa788498239e73540705896ae8", "bike_id": "4c3556fa788498239e73540705896ae8", "is_disabled": 0, "fusion_lon": 0.0, "type": "electric_scooter", "lon": -76.98640716666667}, {"rental_uris": {"android": "https://dc.lft.to/lastmile_qr_scan", "ios": "https://dc.lft.to/lastmile_qr_scan"}, "fusion_lat": 0.0, "is_reserved": 0, "lat": 38.926172, "name": "7fe40295fb24e9d1f6d73c631fc1027f", "bike_id": "7fe40295fb24e9d1f6d73c631fc1027f", "is_disabled": 0, "fusion_lon": 0.0, "type": "electric_scooter", "lon": -77.02216366666667}, {"rental_uris": {"android": "https://dc.lft.to/lastmile_qr_scan", "ios": "https://dc.lft.to/lastmile_qr_scan"}, "fusion_lat": 0.0, "is_reserved": 0, "lat": 38.887101333333334, "name": "1878215d8e5894132cefbbe899606c12", "bike_id": "1878215d8e5894132cefbbe899606c12", "is_disabled": 0, "fusion_lon": 0.0, "type": "electric_scooter", "lon": -77.0219435}, {"rental_uris": {"android": "https://dc.lft.to/lastmile_qr_scan", "ios": "https://dc.lft.to/lastmile_qr_scan"}, "fusion_lat": 0.0, "is_reserved": 0, "lat": 38.9216795, "name": "606fb718e4040e304c5b25cf7df246ae", "bike_id": "606fb718e4040e304c5b25cf7df246ae", "is_disabled": 0, "fusion_lon": 0.0, "type": "electric_scooter", "lon": -77.01871533333333}, {"rental_uris": {"android": "https://dc.lft.to/lastmile_qr_scan", "ios": "https://dc.lft.to/lastmile_qr_scan"}, "fusion_lat": 0.0, "is_reserved": 0, "lat": 38.92332016666667, "name": "312d6a440c80a58d853be2129f7d097c", "bike_id": "312d6a440c80a58d853be2129f7d097c", "is_disabled": 0, "fusion_lon": 0.0, "type": "electric_scooter", "lon": -77.03610233333333}, {"rental_uris": {"android": "https://dc.lft.to/lastmile_qr_scan", "ios": "https://dc.lft.to/lastmile_qr_scan"}, "fusion_lat": 0.0, "is_reserved": 0, "lat": 38.943093166666664, "name": "4d2ef126567bc4bd125b773517da0ce8", "bike_id": "4d2ef126567bc4bd125b773517da0ce8", "is_disabled": 0, "fusion_lon": 0.0, "type": "electric_scooter", "lon": -77.02178633333334}, {"rental_uris": {"android": "https://dc.lft.to/lastmile_qr_scan", "ios": "https://dc.lft.to/lastmile_qr_scan"}, "fusion_lat": 0.0, "is_reserved": 0, "lat": 38.93376933333333, "name": "28aa13d5afdcf3e75304fc6101a71be4", "bike_id": "28aa13d5afdcf3e75304fc6101a71be4", "is_disabled": 0, "fusion_lon": 0.0, "type": "electric_scooter", "lon": -77.03250183333333}, {"rental_uris": {"android": "https://dc.lft.to/lastmile_qr_scan", "ios": "https://dc.lft.to/lastmile_qr_scan"}, "fusion_lat": 0.0, "is_reserved": 0, "lat": 38.89738233333333, "name": "c2aa711bccf6fdb5f1e8c92742f512ae", "bike_id": "c2aa711bccf6fdb5f1e8c92742f512ae", "is_disabled": 0, "fusion_lon": 0.0, "type": "electric_scooter", "lon": -77.007843}, {"rental_uris": {"android": "https://dc.lft.to/lastmile_qr_scan", "ios": "https://dc.lft.to/lastmile_qr_scan"}, "fusion_lat": 0.0, "is_reserved": 0, "lat": 38.996924666666665, "name": "8a2c5bde733bd5241624f37130f82178", "bike_id": "8a2c5bde733bd5241624f37130f82178", "is_disabled": 0, "fusion_lon": 0.0, "type": "electric_bike", "lon": -77.03758866666666}, {"rental_uris": {"android": "https://dc.lft.to/lastmile_qr_scan", "ios": "https://dc.lft.to/lastmile_qr_scan"}, "fusion_lat": 0.0, "is_reserved": 0, "lat": 38.925439833333336, "name": "11743a51b38983673892206b68e40b04", "bike_id": "11743a51b38983673892206b68e40b04", "is_disabled": 0, "fusion_lon": 0.0, "type": "electric_scooter", "lon": -77.0405595}, {"rental_uris": {"android": "https://dc.lft.to/lastmile_qr_scan", "ios": "https://dc.lft.to/lastmile_qr_scan"}, "fusion_lat": 0.0, "is_reserved": 0, "lat": 38.904467833333335, "name": "df22bbc62641d7008255628da55d2d77", "bike_id": "df22bbc62641d7008255628da55d2d77", "is_disabled": 0, "fusion_lon": 0.0, "type": "electric_scooter", "lon": -77.06014283333333}, {"rental_uris": {"android": "https://dc.lft.to/lastmile_qr_scan", "ios": "https://dc.lft.to/lastmile_qr_scan"}, "fusion_lat": 0.0, "is_reserved": 0, "lat": 38.90131233333334, "name": "860ea5fbd4cfe07ac3f79db78c66eb81", "bike_id": "860ea5fbd4cfe07ac3f79db78c66eb81", "is_disabled": 0, "fusion_lon": 0.0, "type": "electric_scooter", "lon": -77.0031615}, {"rental_uris": {"android": "https://dc.lft.to/lastmile_qr_scan", "ios": "https://dc.lft.to/lastmile_qr_scan"}, "fusion_lat": 0.0, "is_reserved": 0, "lat": 38.87839233333333, "name": "8263c556609e234d719344a8e44d030c", "bike_id": "8263c556609e234d719344a8e44d030c", "is_disabled": 0, "fusion_lon": 0.0, "type": "electric_scooter", "lon": -76.982936}, {"rental_uris": {"android": "https://dc.lft.to/lastmile_qr_scan", "ios": "https://dc.lft.to/lastmile_qr_scan"}, "fusion_lat": 0.0, "is_reserved": 0, "lat": 38.906950333333334, "name": "4a5a1f1cac3a9626e72ed7a969ae46a1", "bike_id": "4a5a1f1cac3a9626e72ed7a969ae46a1", "is_disabled": 0, "fusion_lon": 0.0, "type": "electric_scooter", "lon": -77.01109916666667}, {"rental_uris": {"android": "https://dc.lft.to/lastmile_qr_scan", "ios": "https://dc.lft.to/lastmile_qr_scan"}, "fusion_lat": 0.0, "is_reserved": 0, "lat": 38.92032, "name": "ece0d8ba363f4e2b54c504a93df1f08a", "bike_id": "ece0d8ba363f4e2b54c504a93df1f08a", "is_disabled": 0, "fusion_lon": 0.0, "type": "electric_scooter", "lon": -77.01032083333334}, {"rental_uris": {"android": "https://dc.lft.to/lastmile_qr_scan", "ios": "https://dc.lft.to/lastmile_qr_scan"}, "fusion_lat": 0.0, "is_reserved": 0, "lat": 38.89952733333333, "name": "5adf290b237e53f4dc662515ec760d75", "bike_id": "5adf290b237e53f4dc662515ec760d75", "is_disabled": 0, "fusion_lon": 0.0, "type": "electric_scooter", "lon": -77.026947}, {"rental_uris": {"android": "https://dc.lft.to/lastmile_qr_scan", "ios": "https://dc.lft.to/lastmile_qr_scan"}, "fusion_lat": 0.0, "is_reserved": 0, "lat": 38.9012005, "name": "3a8b366424f2026a5e8d1bdd04a88a27", "bike_id": "3a8b366424f2026a5e8d1bdd04a88a27", "is_disabled": 0, "fusion_lon": 0.0, "type": "electric_scooter", "lon": -77.03711383333334}, {"rental_uris": {"android": "https://dc.lft.to/lastmile_qr_scan", "ios": "https://dc.lft.to/lastmile_qr_scan"}, "fusion_lat": 0.0, "is_reserved": 0, "lat": 38.906932833333336, "name": "3672abac1d2a79d6c9e5e1e4c8c5cbe8", "bike_id": "3672abac1d2a79d6c9e5e1e4c8c5cbe8", "is_disabled": 0, "fusion_lon": 0.0, "type": "electric_scooter", "lon": -77.03804133333334}, {"rental_uris": {"android": "https://dc.lft.to/lastmile_qr_scan", "ios": "https://dc.lft.to/lastmile_qr_scan"}, "fusion_lat": 0.0, "is_reserved": 0, "lat": 38.966152, "name": "60d440b4b56b7c8468d9b2f3eef78da4", "bike_id": "60d440b4b56b7c8468d9b2f3eef78da4", "is_disabled": 0, "fusion_lon": 0.0, "type": "electric_bike", "lon": -77.034375}, {"rental_uris": {"android": "https://dc.lft.to/lastmile_qr_scan", "ios": "https://dc.lft.to/lastmile_qr_scan"}, "fusion_lat": 0.0, "is_reserved": 0, "lat": 38.918413666666666, "name": "aad5118fdd903250898c0d8fb67dc059", "bike_id": "aad5118fdd903250898c0d8fb67dc059", "is_disabled": 0, "fusion_lon": 0.0, "type": "electric_scooter", "lon": -77.0230375}, {"rental_uris": {"android": "https://dc.lft.to/lastmile_qr_scan", "ios": "https://dc.lft.to/lastmile_qr_scan"}, "fusion_lat": 0.0, "is_reserved": 0, "lat": 38.832993333333334, "name": "640a09c07fc8cbb970885d7c60fe8054", "bike_id": "640a09c07fc8cbb970885d7c60fe8054", "is_disabled": 0, "fusion_lon": 0.0, "type": "electric_bike", "lon": -77.0840955}, {"rental_uris": {"android": "https://dc.lft.to/lastmile_qr_scan", "ios": "https://dc.lft.to/lastmile_qr_scan"}, "fusion_lat": 0.0, "is_reserved": 0, "lat": 38.906341166666664, "name": "24a913eddd0f51ea4c4c4101ba37f62d", "bike_id": "24a913eddd0f51ea4c4c4101ba37f62d", "is_disabled": 0, "fusion_lon": 0.0, "type": "electric_scooter", "lon": -77.034333}, {"rental_uris": {"android": "https://dc.lft.to/lastmile_qr_scan", "ios": "https://dc.lft.to/lastmile_qr_scan"}, "fusion_lat": 0.0, "is_reserved": 0, "lat": 38.90015533333333, "name": "73d8b23033ddf29b5ebb84506fdea394", "bike_id": "73d8b23033ddf29b5ebb84506fdea394", "is_disabled": 0, "fusion_lon": 0.0, "type": "electric_scooter", "lon": -77.01749133333334}, {"rental_uris": {"android": "https://dc.lft.to/lastmile_qr_scan", "ios": "https://dc.lft.to/lastmile_qr_scan"}, "fusion_lat": 0.0, "is_reserved": 0, "lat": 38.883743833333334, "name": "55b88a5b90567070fd27c472de002177", "bike_id": "55b88a5b90567070fd27c472de002177", "is_disabled": 0, "fusion_lon": 0.0, "type": "electric_scooter", "lon": -77.00873283333334}, {"rental_uris": {"android": "https://dc.lft.to/lastmile_qr_scan", "ios": "https://dc.lft.to/lastmile_qr_scan"}, "fusion_lat": 0.0, "is_reserved": 0, "lat": 38.908743, "name": "a894a55e96da9e9e28d644ddc60a0d0b", "bike_id": "a894a55e96da9e9e28d644ddc60a0d0b", "is_disabled": 0, "fusion_lon": 0.0, "type": "electric_scooter", "lon": -77.07152583333334}, {"rental_uris": {"android": "https://dc.lft.to/lastmile_qr_scan", "ios": "https://dc.lft.to/lastmile_qr_scan"}, "fusion_lat": 0.0, "is_reserved": 0, "lat": 38.919617, "name": "9d46f3488fc8b13ebb75cbce979436bf", "bike_id": "9d46f3488fc8b13ebb75cbce979436bf", "is_disabled": 0, "fusion_lon": 0.0, "type": "electric_scooter", "lon": -77.027091}, {"rental_uris": {"android": "https://dc.lft.to/lastmile_qr_scan", "ios": "https://dc.lft.to/lastmile_qr_scan"}, "fusion_lat": 0.0, "is_reserved": 0, "lat": 38.8844135, "name": "451cf324af4f3199d4e0743b9815cc79", "bike_id": "451cf324af4f3199d4e0743b9815cc79", "is_disabled": 0, "fusion_lon": 0.0, "type": "electric_scooter", "lon": -76.95765466666667}, {"rental_uris": {"android": "https://dc.lft.to/lastmile_qr_scan", "ios": "https://dc.lft.to/lastmile_qr_scan"}, "fusion_lat": 0.0, "is_reserved": 0, "lat": 38.91763516666666, "name": "8c2b58d5a8666f796b36dde4f50e259f", "bike_id": "8c2b58d5a8666f796b36dde4f50e259f", "is_disabled": 0, "fusion_lon": 0.0, "type": "electric_scooter", "lon": -77.014548}, {"rental_uris": {"android": "https://dc.lft.to/lastmile_qr_scan", "ios": "https://dc.lft.to/lastmile_qr_scan"}, "fusion_lat": 0.0, "is_reserved": 0, "lat": 38.898937, "name": "50dd118061f3b3e4304eb4e326410973", "bike_id": "50dd118061f3b3e4304eb4e326410973", "is_disabled": 0, "fusion_lon": 0.0, "type": "electric_scooter", "lon": -77.0243195}, {"rental_uris": {"android": "https://dc.lft.to/lastmile_qr_scan", "ios": "https://dc.lft.to/lastmile_qr_scan"}, "fusion_lat": 0.0, "is_reserved": 0, "lat": 38.92522066666667, "name": "d217b44ac34b5c6cefb87dc41044ad4b", "bike_id": "d217b44ac34b5c6cefb87dc41044ad4b", "is_disabled": 0, "fusion_lon": 0.0, "type": "electric_scooter", "lon": -77.04133716666666}, {"rental_uris": {"android": "https://dc.lft.to/lastmile_qr_scan", "ios": "https://dc.lft.to/lastmile_qr_scan"}, "fusion_lat": 0.0, "is_reserved": 0, "lat": 38.928218666666666, "name": "e82cec1ec871091f3cc67c7da741ab4a", "bike_id": "e82cec1ec871091f3cc67c7da741ab4a", "is_disabled": 0, "fusion_lon": 0.0, "type": "electric_scooter", "lon": -77.02256583333333}, {"rental_uris": {"android": "https://dc.lft.to/lastmile_qr_scan", "ios": "https://dc.lft.to/lastmile_qr_scan"}, "fusion_lat": 0.0, "is_reserved": 0, "lat": 38.923912666666666, "name": "ab62264790d960404891a7361a94548a", "bike_id": "ab62264790d960404891a7361a94548a", "is_disabled": 0, "fusion_lon": 0.0, "type": "electric_scooter", "lon": -77.02494866666666}, {"rental_uris": {"android": "https://dc.lft.to/lastmile_qr_scan", "ios": "https://dc.lft.to/lastmile_qr_scan"}, "fusion_lat": 0.0, "is_reserved": 0, "lat": 38.905762, "name": "27605b9ed74802f0e8352554850b283d", "bike_id": "27605b9ed74802f0e8352554850b283d", "is_disabled": 0, "fusion_lon": 0.0, "type": "electric_scooter", "lon": -77.04535283333334}, {"rental_uris": {"android": "https://dc.lft.to/lastmile_qr_scan", "ios": "https://dc.lft.to/lastmile_qr_scan"}, "fusion_lat": 0.0, "is_reserved": 0, "lat": 38.88675633333333, "name": "6475d107696aad4308dd5fba294f2b03", "bike_id": "6475d107696aad4308dd5fba294f2b03", "is_disabled": 0, "fusion_lon": 0.0, "type": "electric_scooter", "lon": -77.00198533333334}, {"rental_uris": {"android": "https://dc.lft.to/lastmile_qr_scan", "ios": "https://dc.lft.to/lastmile_qr_scan"}, "fusion_lat": 0.0, "is_reserved": 0, "lat": 38.924641, "name": "78d2883f6a41886a7736d7cee7fe4339", "bike_id": "78d2883f6a41886a7736d7cee7fe4339", "is_disabled": 0, "fusion_lon": 0.0, "type": "electric_scooter", "lon": -77.0269895}, {"rental_uris": {"android": "https://dc.lft.to/lastmile_qr_scan", "ios": "https://dc.lft.to/lastmile_qr_scan"}, "fusion_lat": 0.0, "is_reserved": 0, "lat": 38.89624516666667, "name": "d0a914b2b41de0abbf6b880f48b1936c", "bike_id": "d0a914b2b41de0abbf6b880f48b1936c", "is_disabled": 0, "fusion_lon": 0.0, "type": "electric_scooter", "lon": -76.9985555}, {"rental_uris": {"android": "https://dc.lft.to/lastmile_qr_scan", "ios": "https://dc.lft.to/lastmile_qr_scan"}, "fusion_lat": 0.0, "is_reserved": 0, "lat": 38.92505716666667, "name": "1d6cef6a3eb1dc3e1314b65c51bc1f22", "bike_id": "1d6cef6a3eb1dc3e1314b65c51bc1f22", "is_disabled": 0, "fusion_lon": 0.0, "type": "electric_scooter", "lon": -77.02278233333334}, {"rental_uris": {"android": "https://dc.lft.to/lastmile_qr_scan", "ios": "https://dc.lft.to/lastmile_qr_scan"}, "fusion_lat": 0.0, "is_reserved": 0, "lat": 38.91718616666667, "name": "c42eb907a575218a2920247fb8d6ff5e", "bike_id": "c42eb907a575218a2920247fb8d6ff5e", "is_disabled": 0, "fusion_lon": 0.0, "type": "electric_scooter", "lon": -77.0346}, {"rental_uris": {"android": "https://dc.lft.to/lastmile_qr_scan", "ios": "https://dc.lft.to/lastmile_qr_scan"}, "fusion_lat": 0.0, "is_reserved": 0, "lat": 38.939637, "name": "e734e7c6a0d654406ba9931468d3ab0e", "bike_id": "e734e7c6a0d654406ba9931468d3ab0e", "is_disabled": 0, "fusion_lon": 0.0, "type": "electric_scooter", "lon": -77.02522633333334}, {"rental_uris": {"android": "https://dc.lft.to/lastmile_qr_scan", "ios": "https://dc.lft.to/lastmile_qr_scan"}, "fusion_lat": 0.0, "is_reserved": 0, "lat": 38.868696166666666, "name": "d9d4038cc35101223def480d4fa650e3", "bike_id": "d9d4038cc35101223def480d4fa650e3", "is_disabled": 0, "fusion_lon": 0.0, "type": "electric_scooter", "lon": -76.98658466666667}, {"rental_uris": {"android": "https://dc.lft.to/lastmile_qr_scan", "ios": "https://dc.lft.to/lastmile_qr_scan"}, "fusion_lat": 0.0, "is_reserved": 0, "lat": 38.918889, "name": "714010e107a7c7f4c63c0458059a1ad2", "bike_id": "714010e107a7c7f4c63c0458059a1ad2", "is_disabled": 0, "fusion_lon": 0.0, "type": "electric_scooter", "lon": -77.00335233333334}, {"rental_uris": {"android": "https://dc.lft.to/lastmile_qr_scan", "ios": "https://dc.lft.to/lastmile_qr_scan"}, "fusion_lat": 0.0, "is_reserved": 0, "lat": 38.902354833333334, "name": "52955b7ef0dc5006d61723b11c37969e", "bike_id": "52955b7ef0dc5006d61723b11c37969e", "is_disabled": 0, "fusion_lon": 0.0, "type": "electric_scooter", "lon": -77.01627783333333}, {"rental_uris": {"android": "https://dc.lft.to/lastmile_qr_scan", "ios": "https://dc.lft.to/lastmile_qr_scan"}, "fusion_lat": 0.0, "is_reserved": 0, "lat": 38.92457866666667, "name": "8c5ee3f78a49fbfa75bae112e7ccb331", "bike_id": "8c5ee3f78a49fbfa75bae112e7ccb331", "is_disabled": 0, "fusion_lon": 0.0, "type": "electric_scooter", "lon": -76.9991155}, {"rental_uris": {"android": "https://dc.lft.to/lastmile_qr_scan", "ios": "https://dc.lft.to/lastmile_qr_scan"}, "fusion_lat": 0.0, "is_reserved": 0, "lat": 38.87586683333333, "name": "78aa2e95d8607b566892dec77ccacfa0", "bike_id": "78aa2e95d8607b566892dec77ccacfa0", "is_disabled": 0, "fusion_lon": 0.0, "type": "electric_scooter", "lon": -77.01999233333333}, {"rental_uris": {"android": "https://dc.lft.to/lastmile_qr_scan", "ios": "https://dc.lft.to/lastmile_qr_scan"}, "fusion_lat": 0.0, "is_reserved": 0, "lat": 38.9054985, "name": "765d3176b45f6fef8f7afa7f8c0018d1", "bike_id": "765d3176b45f6fef8f7afa7f8c0018d1", "is_disabled": 0, "fusion_lon": 0.0, "type": "electric_scooter", "lon": -77.027217}, {"rental_uris": {"android": "https://dc.lft.to/lastmile_qr_scan", "ios": "https://dc.lft.to/lastmile_qr_scan"}, "fusion_lat": 0.0, "is_reserved": 0, "lat": 38.90537066666667, "name": "b6c51796e6ba68da916fce649da5f758", "bike_id": "b6c51796e6ba68da916fce649da5f758", "is_disabled": 0, "fusion_lon": 0.0, "type": "electric_scooter", "lon": -77.04009033333334}, {"rental_uris": {"android": "https://dc.lft.to/lastmile_qr_scan", "ios": "https://dc.lft.to/lastmile_qr_scan"}, "fusion_lat": 0.0, "is_reserved": 0, "lat": 38.8865905, "name": "9d530fc9edbd44780b28a770f5331763", "bike_id": "9d530fc9edbd44780b28a770f5331763", "is_disabled": 0, "fusion_lon": 0.0, "type": "electric_scooter", "lon": -76.93671083333334}, {"rental_uris": {"android": "https://dc.lft.to/lastmile_qr_scan", "ios": "https://dc.lft.to/lastmile_qr_scan"}, "fusion_lat": 0.0, "is_reserved": 0, "lat": 38.904270333333336, "name": "7ab79c06e2ca5781d56022310f028be3", "bike_id": "7ab79c06e2ca5781d56022310f028be3", "is_disabled": 0, "fusion_lon": 0.0, "type": "electric_scooter", "lon": -77.00591216666666}, {"rental_uris": {"android": "https://dc.lft.to/lastmile_qr_scan", "ios": "https://dc.lft.to/lastmile_qr_scan"}, "fusion_lat": 0.0, "is_reserved": 0, "lat": 38.94545266666667, "name": "f9c1cada52e84f599776b325d30a33d5", "bike_id": "f9c1cada52e84f599776b325d30a33d5", "is_disabled": 0, "fusion_lon": 0.0, "type": "electric_bike", "lon": -77.344569}, {"rental_uris": {"android": "https://dc.lft.to/lastmile_qr_scan", "ios": "https://dc.lft.to/lastmile_qr_scan"}, "fusion_lat": 0.0, "is_reserved": 0, "lat": 38.908453333333334, "name": "b1029d451b3a3d0e85bfad3a1d88c832", "bike_id": "b1029d451b3a3d0e85bfad3a1d88c832", "is_disabled": 0, "fusion_lon": 0.0, "type": "electric_scooter", "lon": -77.044957}, {"rental_uris": {"android": "https://dc.lft.to/lastmile_qr_scan", "ios": "https://dc.lft.to/lastmile_qr_scan"}, "fusion_lat": 0.0, "is_reserved": 0, "lat": 38.93750983333334, "name": "9e0a9a75f19e0b078b80b7d09aa6c8cc", "bike_id": "9e0a9a75f19e0b078b80b7d09aa6c8cc", "is_disabled": 0, "fusion_lon": 0.0, "type": "electric_bike", "lon": -77.02933333333333}, {"rental_uris": {"android": "https://dc.lft.to/lastmile_qr_scan", "ios": "https://dc.lft.to/lastmile_qr_scan"}, "fusion_lat": 0.0, "is_reserved": 0, "lat": 38.92451033333333, "name": "9838bdadc98f5e71154e898028096897", "bike_id": "9838bdadc98f5e71154e898028096897", "is_disabled": 0, "fusion_lon": 0.0, "type": "electric_scooter", "lon": -77.02159683333333}, {"rental_uris": {"android": "https://dc.lft.to/lastmile_qr_scan", "ios": "https://dc.lft.to/lastmile_qr_scan"}, "fusion_lat": 0.0, "is_reserved": 0, "lat": 38.92971216666667, "name": "3efbe6c1aef400526d2563f98a61b239", "bike_id": "3efbe6c1aef400526d2563f98a61b239", "is_disabled": 0, "fusion_lon": 0.0, "type": "electric_scooter", "lon": -77.02790466666667}, {"rental_uris": {"android": "https://dc.lft.to/lastmile_qr_scan", "ios": "https://dc.lft.to/lastmile_qr_scan"}, "fusion_lat": 0.0, "is_reserved": 0, "lat": 38.91921933333333, "name": "98da79b0f8a4cbdb496997f9306fe9e1", "bike_id": "98da79b0f8a4cbdb496997f9306fe9e1", "is_disabled": 0, "fusion_lon": 0.0, "type": "electric_scooter", "lon": -77.009946}, {"rental_uris": {"android": "https://dc.lft.to/lastmile_qr_scan", "ios": "https://dc.lft.to/lastmile_qr_scan"}, "fusion_lat": 0.0, "is_reserved": 0, "lat": 39.08428383333333, "name": "1bf99f030a2654b51f9f4f23968158c3", "bike_id": "1bf99f030a2654b51f9f4f23968158c3", "is_disabled": 0, "fusion_lon": 0.0, "type": "electric_bike", "lon": -76.951546}, {"rental_uris": {"android": "https://dc.lft.to/lastmile_qr_scan", "ios": "https://dc.lft.to/lastmile_qr_scan"}, "fusion_lat": 0.0, "is_reserved": 0, "lat": 38.89267, "name": "b95e54c144ea40db10837bde50da66c1", "bike_id": "b95e54c144ea40db10837bde50da66c1", "is_disabled": 0, "fusion_lon": 0.0, "type": "electric_scooter", "lon": -77.04208433333334}, {"rental_uris": {"android": "https://dc.lft.to/lastmile_qr_scan", "ios": "https://dc.lft.to/lastmile_qr_scan"}, "fusion_lat": 0.0, "is_reserved": 0, "lat": 38.91929316666667, "name": "d0971a3b66e98f559e3b17f62422835a", "bike_id": "d0971a3b66e98f559e3b17f62422835a", "is_disabled": 0, "fusion_lon": 0.0, "type": "electric_scooter", "lon": -77.01930716666666}, {"rental_uris": {"android": "https://dc.lft.to/lastmile_qr_scan", "ios": "https://dc.lft.to/lastmile_qr_scan"}, "fusion_lat": 0.0, "is_reserved": 0, "lat": 38.88728566666666, "name": "abd41c49e43334f64a3ea52e2b365852", "bike_id": "abd41c49e43334f64a3ea52e2b365852", "is_disabled": 0, "fusion_lon": 0.0, "type": "electric_scooter", "lon": -77.0322535}, {"rental_uris": {"android": "https://dc.lft.to/lastmile_qr_scan", "ios": "https://dc.lft.to/lastmile_qr_scan"}, "fusion_lat": 0.0, "is_reserved": 0, "lat": 38.86500733333333, "name": "d799ca992e02b0997a0c7a1b4be4bf63", "bike_id": "d799ca992e02b0997a0c7a1b4be4bf63", "is_disabled": 0, "fusion_lon": 0.0, "type": "electric_scooter", "lon": -76.98061433333334}, {"rental_uris": {"android": "https://dc.lft.to/lastmile_qr_scan", "ios": "https://dc.lft.to/lastmile_qr_scan"}, "fusion_lat": 0.0, "is_reserved": 0, "lat": 38.9456475, "name": "8382e37fbf76be3abcbe2c1f33019268", "bike_id": "8382e37fbf76be3abcbe2c1f33019268", "is_disabled": 0, "fusion_lon": 0.0, "type": "electric_bike", "lon": -76.958416}, {"rental_uris": {"android": "https://dc.lft.to/lastmile_qr_scan", "ios": "https://dc.lft.to/lastmile_qr_scan"}, "fusion_lat": 0.0, "is_reserved": 0, "lat": 38.89480183333333, "name": "a64074a949d8b544fae0c23508d427a7", "bike_id": "a64074a949d8b544fae0c23508d427a7", "is_disabled": 0, "fusion_lon": 0.0, "type": "electric_scooter", "lon": -77.026574}, {"rental_uris": {"android": "https://dc.lft.to/lastmile_qr_scan", "ios": "https://dc.lft.to/lastmile_qr_scan"}, "fusion_lat": 0.0, "is_reserved": 0, "lat": 38.917769, "name": "430198a3b4cf9533bf37705b285e8bef", "bike_id": "430198a3b4cf9533bf37705b285e8bef", "is_disabled": 0, "fusion_lon": 0.0, "type": "electric_scooter", "lon": -77.04402483333334}, {"rental_uris": {"android": "https://dc.lft.to/lastmile_qr_scan", "ios": "https://dc.lft.to/lastmile_qr_scan"}, "fusion_lat": 0.0, "is_reserved": 0, "lat": 38.90428033333333, "name": "a8b8e84d774e684db37dd05ed882bbb1", "bike_id": "a8b8e84d774e684db37dd05ed882bbb1", "is_disabled": 0, "fusion_lon": 0.0, "type": "electric_scooter", "lon": -77.02772166666666}, {"rental_uris": {"android": "https://dc.lft.to/lastmile_qr_scan", "ios": "https://dc.lft.to/lastmile_qr_scan"}, "fusion_lat": 0.0, "is_reserved": 0, "lat": 38.840318333333336, "name": "fc09eb650899fa730a1c88da59bc09fb", "bike_id": "fc09eb650899fa730a1c88da59bc09fb", "is_disabled": 0, "fusion_lon": 0.0, "type": "electric_bike", "lon": -76.9762275}, {"rental_uris": {"android": "https://dc.lft.to/lastmile_qr_scan", "ios": "https://dc.lft.to/lastmile_qr_scan"}, "fusion_lat": 0.0, "is_reserved": 0, "lat": 38.914617166666666, "name": "865e861be79ba2f3c107f48c760fb891", "bike_id": "865e861be79ba2f3c107f48c760fb891", "is_disabled": 0, "fusion_lon": 0.0, "type": "electric_scooter", "lon": -77.0384055}, {"rental_uris": {"android": "https://dc.lft.to/lastmile_qr_scan", "ios": "https://dc.lft.to/lastmile_qr_scan"}, "fusion_lat": 0.0, "is_reserved": 0, "lat": 38.92129216666667, "name": "685d7071a6ff4a9840fe26e745326cba", "bike_id": "685d7071a6ff4a9840fe26e745326cba", "is_disabled": 0, "fusion_lon": 0.0, "type": "electric_scooter", "lon": -77.0241985}, {"rental_uris": {"android": "https://dc.lft.to/lastmile_qr_scan", "ios": "https://dc.lft.to/lastmile_qr_scan"}, "fusion_lat": 0.0, "is_reserved": 0, "lat": 38.935023666666666, "name": "2b2df1bfbceab0098e63e6653dca1c5b", "bike_id": "2b2df1bfbceab0098e63e6653dca1c5b", "is_disabled": 0, "fusion_lon": 0.0, "type": "electric_scooter", "lon": -77.02005283333334}, {"rental_uris": {"android": "https://dc.lft.to/lastmile_qr_scan", "ios": "https://dc.lft.to/lastmile_qr_scan"}, "fusion_lat": 0.0, "is_reserved": 0, "lat": 38.919938333333334, "name": "79f85435b58c12992efd07259173f2e1", "bike_id": "79f85435b58c12992efd07259173f2e1", "is_disabled": 0, "fusion_lon": 0.0, "type": "electric_scooter", "lon": -77.02358883333333}, {"rental_uris": {"android": "https://dc.lft.to/lastmile_qr_scan", "ios": "https://dc.lft.to/lastmile_qr_scan"}, "fusion_lat": 0.0, "is_reserved": 0, "lat": 38.933523, "name": "17b3192de07854d5f6e4aad763b02e18", "bike_id": "17b3192de07854d5f6e4aad763b02e18", "is_disabled": 0, "fusion_lon": 0.0, "type": "electric_scooter", "lon": -77.057062}, {"rental_uris": {"android": "https://dc.lft.to/lastmile_qr_scan", "ios": "https://dc.lft.to/lastmile_qr_scan"}, "fusion_lat": 0.0, "is_reserved": 0, "lat": 38.9147355, "name": "6fbe6ae21893a063136648fd8bf0a9eb", "bike_id": "6fbe6ae21893a063136648fd8bf0a9eb", "is_disabled": 0, "fusion_lon": 0.0, "type": "electric_scooter", "lon": -77.03205466666667}, {"rental_uris": {"android": "https://dc.lft.to/lastmile_qr_scan", "ios": "https://dc.lft.to/lastmile_qr_scan"}, "fusion_lat": 0.0, "is_reserved": 0, "lat": 38.926856666666666, "name": "80071ae00ec1f5c3015a6949023dbd11", "bike_id": "80071ae00ec1f5c3015a6949023dbd11", "is_disabled": 0, "fusion_lon": 0.0, "type": "electric_scooter", "lon": -77.0225375}, {"rental_uris": {"android": "https://dc.lft.to/lastmile_qr_scan", "ios": "https://dc.lft.to/lastmile_qr_scan"}, "fusion_lat": 0.0, "is_reserved": 0, "lat": 38.838123833333334, "name": "060abf67c87c05f0bdd8ec4482819b63", "bike_id": "060abf67c87c05f0bdd8ec4482819b63", "is_disabled": 0, "fusion_lon": 0.0, "type": "electric_bike", "lon": -77.09522283333334}, {"rental_uris": {"android": "https://dc.lft.to/lastmile_qr_scan", "ios": "https://dc.lft.to/lastmile_qr_scan"}, "fusion_lat": 0.0, "is_reserved": 0, "lat": 38.933492333333334, "name": "211c2ebc5ed75e717b072f63e8725cb7", "bike_id": "211c2ebc5ed75e717b072f63e8725cb7", "is_disabled": 0, "fusion_lon": 0.0, "type": "electric_scooter", "lon": -77.0255555}, {"rental_uris": {"android": "https://dc.lft.to/lastmile_qr_scan", "ios": "https://dc.lft.to/lastmile_qr_scan"}, "fusion_lat": 0.0, "is_reserved": 0, "lat": 38.89615, "name": "130bb38a8d2f5bddad45de84828d9440", "bike_id": "130bb38a8d2f5bddad45de84828d9440", "is_disabled": 0, "fusion_lon": 0.0, "type": "electric_scooter", "lon": -77.0277785}, {"rental_uris": {"android": "https://dc.lft.to/lastmile_qr_scan", "ios": "https://dc.lft.to/lastmile_qr_scan"}, "fusion_lat": 0.0, "is_reserved": 0, "lat": 38.887172166666666, "name": "0c180766a49dda83f4af100ca66835f9", "bike_id": "0c180766a49dda83f4af100ca66835f9", "is_disabled": 0, "fusion_lon": 0.0, "type": "electric_scooter", "lon": -77.02183933333333}, {"rental_uris": {"android": "https://dc.lft.to/lastmile_qr_scan", "ios": "https://dc.lft.to/lastmile_qr_scan"}, "fusion_lat": 0.0, "is_reserved": 0, "lat": 38.898031333333336, "name": "89b7b8598d2d4727046eec63070d150b", "bike_id": "89b7b8598d2d4727046eec63070d150b", "is_disabled": 0, "fusion_lon": 0.0, "type": "electric_scooter", "lon": -77.04617516666667}, {"rental_uris": {"android": "https://dc.lft.to/lastmile_qr_scan", "ios": "https://dc.lft.to/lastmile_qr_scan"}, "fusion_lat": 0.0, "is_reserved": 0, "lat": 38.91415966666667, "name": "47b7f15c90bc109178211f928e1833ef", "bike_id": "47b7f15c90bc109178211f928e1833ef", "is_disabled": 0, "fusion_lon": 0.0, "type": "electric_scooter", "lon": -77.019059}, {"rental_uris": {"android": "https://dc.lft.to/lastmile_qr_scan", "ios": "https://dc.lft.to/lastmile_qr_scan"}, "fusion_lat": 0.0, "is_reserved": 0, "lat": 38.934681499999996, "name": "1a31c3e2eaf1fba6f0a536f920b3c753", "bike_id": "1a31c3e2eaf1fba6f0a536f920b3c753", "is_disabled": 0, "fusion_lon": 0.0, "type": "electric_scooter", "lon": -77.0413455}, {"rental_uris": {"android": "https://dc.lft.to/lastmile_qr_scan", "ios": "https://dc.lft.to/lastmile_qr_scan"}, "fusion_lat": 0.0, "is_reserved": 0, "lat": 38.89228383333333, "name": "500ee92eba836371343e63ea27a8d0d0", "bike_id": "500ee92eba836371343e63ea27a8d0d0", "is_disabled": 0, "fusion_lon": 0.0, "type": "electric_scooter", "lon": -77.0319015}, {"rental_uris": {"android": "https://dc.lft.to/lastmile_qr_scan", "ios": "https://dc.lft.to/lastmile_qr_scan"}, "fusion_lat": 0.0, "is_reserved": 0, "lat": 38.842755333333336, "name": "da722c237dc5f92352276904aa76c032", "bike_id": "da722c237dc5f92352276904aa76c032", "is_disabled": 0, "fusion_lon": 0.0, "type": "electric_bike", "lon": -76.9884065}, {"rental_uris": {"android": "https://dc.lft.to/lastmile_qr_scan", "ios": "https://dc.lft.to/lastmile_qr_scan"}, "fusion_lat": 0.0, "is_reserved": 0, "lat": 38.9077865, "name": "5dbd4857d907fa65eb04c365fed0eeba", "bike_id": "5dbd4857d907fa65eb04c365fed0eeba", "is_disabled": 0, "fusion_lon": 0.0, "type": "electric_scooter", "lon": -77.03758733333333}, {"rental_uris": {"android": "https://dc.lft.to/lastmile_qr_scan", "ios": "https://dc.lft.to/lastmile_qr_scan"}, "fusion_lat": 0.0, "is_reserved": 0, "lat": 38.91041716666667, "name": "6663ad7a09d3fdfe3f0a63da9214f7e9", "bike_id": "6663ad7a09d3fdfe3f0a63da9214f7e9", "is_disabled": 0, "fusion_lon": 0.0, "type": "electric_scooter", "lon": -77.02178416666666}, {"rental_uris": {"android": "https://dc.lft.to/lastmile_qr_scan", "ios": "https://dc.lft.to/lastmile_qr_scan"}, "fusion_lat": 0.0, "is_reserved": 0, "lat": 38.9220355, "name": "7eb2e69fb43bd017ba10d8200bffb9c5", "bike_id": "7eb2e69fb43bd017ba10d8200bffb9c5", "is_disabled": 0, "fusion_lon": 0.0, "type": "electric_scooter", "lon": -77.02710883333333}, {"rental_uris": {"android": "https://dc.lft.to/lastmile_qr_scan", "ios": "https://dc.lft.to/lastmile_qr_scan"}, "fusion_lat": 0.0, "is_reserved": 0, "lat": 38.9082675, "name": "881641538a0959be42ed4cd6fb14fadd", "bike_id": "881641538a0959be42ed4cd6fb14fadd", "is_disabled": 0, "fusion_lon": 0.0, "type": "electric_scooter", "lon": -77.0022305}, {"rental_uris": {"android": "https://dc.lft.to/lastmile_qr_scan", "ios": "https://dc.lft.to/lastmile_qr_scan"}, "fusion_lat": 0.0, "is_reserved": 0, "lat": 38.9148745, "name": "a2f2f53d2eff396e0250f493e1a1273d", "bike_id": "a2f2f53d2eff396e0250f493e1a1273d", "is_disabled": 0, "fusion_lon": 0.0, "type": "electric_scooter", "lon": -77.0218125}, {"rental_uris": {"android": "https://dc.lft.to/lastmile_qr_scan", "ios": "https://dc.lft.to/lastmile_qr_scan"}, "fusion_lat": 0.0, "is_reserved": 0, "lat": 38.89781166666667, "name": "7b400a2179483719897402317cffd4a8", "bike_id": "7b400a2179483719897402317cffd4a8", "is_disabled": 0, "fusion_lon": 0.0, "type": "electric_scooter", "lon": -77.01656633333333}, {"rental_uris": {"android": "https://dc.lft.to/lastmile_qr_scan", "ios": "https://dc.lft.to/lastmile_qr_scan"}, "fusion_lat": 0.0, "is_reserved": 0, "lat": 38.914611666666666, "name": "2135fd5cbf62acacc1b4f67f0ca2cf0f", "bike_id": "2135fd5cbf62acacc1b4f67f0ca2cf0f", "is_disabled": 0, "fusion_lon": 0.0, "type": "electric_scooter", "lon": -77.02174316666667}, {"rental_uris": {"android": "https://dc.lft.to/lastmile_qr_scan", "ios": "https://dc.lft.to/lastmile_qr_scan"}, "fusion_lat": 0.0, "is_reserved": 0, "lat": 38.91103733333333, "name": "c8a49df6c2cb4c04ed4385d0c1507fc4", "bike_id": "c8a49df6c2cb4c04ed4385d0c1507fc4", "is_disabled": 0, "fusion_lon": 0.0, "type": "electric_scooter", "lon": -77.0734395}, {"rental_uris": {"android": "https://dc.lft.to/lastmile_qr_scan", "ios": "https://dc.lft.to/lastmile_qr_scan"}, "fusion_lat": 0.0, "is_reserved": 0, "lat": 38.94380816666666, "name": "17bff8eac5c777f20e69015199d4cad5", "bike_id": "17bff8eac5c777f20e69015199d4cad5", "is_disabled": 0, "fusion_lon": 0.0, "type": "electric_scooter", "lon": -77.06020433333333}, {"rental_uris": {"android": "https://dc.lft.to/lastmile_qr_scan", "ios": "https://dc.lft.to/lastmile_qr_scan"}, "fusion_lat": 0.0, "is_reserved": 0, "lat": 38.90098283333333, "name": "f59281d4bd2f65725345ef777c7ca147", "bike_id": "f59281d4bd2f65725345ef777c7ca147", "is_disabled": 0, "fusion_lon": 0.0, "type": "electric_scooter", "lon": -76.9801125}, {"rental_uris": {"android": "https://dc.lft.to/lastmile_qr_scan", "ios": "https://dc.lft.to/lastmile_qr_scan"}, "fusion_lat": 0.0, "is_reserved": 0, "lat": 38.92868883333333, "name": "c1754951d568bd453c9b10eb5d49e231", "bike_id": "c1754951d568bd453c9b10eb5d49e231", "is_disabled": 0, "fusion_lon": 0.0, "type": "electric_scooter", "lon": -77.03602616666667}, {"rental_uris": {"android": "https://dc.lft.to/lastmile_qr_scan", "ios": "https://dc.lft.to/lastmile_qr_scan"}, "fusion_lat": 0.0, "is_reserved": 0, "lat": 38.892306833333336, "name": "c16373a0638ac32109e35c279c14d5a2", "bike_id": "c16373a0638ac32109e35c279c14d5a2", "is_disabled": 0, "fusion_lon": 0.0, "type": "electric_scooter", "lon": -77.03378416666666}, {"rental_uris": {"android": "https://dc.lft.to/lastmile_qr_scan", "ios": "https://dc.lft.to/lastmile_qr_scan"}, "fusion_lat": 0.0, "is_reserved": 0, "lat": 38.933958833333335, "name": "ada31f4586631a662fdfcdfaaa357c8f", "bike_id": "ada31f4586631a662fdfcdfaaa357c8f", "is_disabled": 0, "fusion_lon": 0.0, "type": "electric_scooter", "lon": -77.02220116666666}, {"rental_uris": {"android": "https://dc.lft.to/lastmile_qr_scan", "ios": "https://dc.lft.to/lastmile_qr_scan"}, "fusion_lat": 0.0, "is_reserved": 0, "lat": 38.8870555, "name": "5c95cb6a0331de4db02a938926dd5533", "bike_id": "5c95cb6a0331de4db02a938926dd5533", "is_disabled": 0, "fusion_lon": 0.0, "type": "electric_scooter", "lon": -77.01364916666667}, {"rental_uris": {"android": "https://dc.lft.to/lastmile_qr_scan", "ios": "https://dc.lft.to/lastmile_qr_scan"}, "fusion_lat": 0.0, "is_reserved": 0, "lat": 38.8315595, "name": "875def53b15b2409e6ca9ee0fb84590d", "bike_id": "875def53b15b2409e6ca9ee0fb84590d", "is_disabled": 0, "fusion_lon": 0.0, "type": "electric_bike", "lon": -76.99537716666667}, {"rental_uris": {"android": "https://dc.lft.to/lastmile_qr_scan", "ios": "https://dc.lft.to/lastmile_qr_scan"}, "fusion_lat": 0.0, "is_reserved": 0, "lat": 38.898265333333335, "name": "a7e16b762df1a751a59e59fd0e9711ec", "bike_id": "a7e16b762df1a751a59e59fd0e9711ec", "is_disabled": 0, "fusion_lon": 0.0, "type": "electric_scooter", "lon": -76.97401966666666}, {"rental_uris": {"android": "https://dc.lft.to/lastmile_qr_scan", "ios": "https://dc.lft.to/lastmile_qr_scan"}, "fusion_lat": 0.0, "is_reserved": 0, "lat": 38.90562633333333, "name": "4711bbb98ef263602ecfe8f6e9ac94e6", "bike_id": "4711bbb98ef263602ecfe8f6e9ac94e6", "is_disabled": 0, "fusion_lon": 0.0, "type": "electric_scooter", "lon": -76.98205216666666}, {"rental_uris": {"android": "https://dc.lft.to/lastmile_qr_scan", "ios": "https://dc.lft.to/lastmile_qr_scan"}, "fusion_lat": 0.0, "is_reserved": 0, "lat": 38.95861516666667, "name": "7d83c5ad18ec9c3a069ab3ffc147012c", "bike_id": "7d83c5ad18ec9c3a069ab3ffc147012c", "is_disabled": 0, "fusion_lon": 0.0, "type": "electric_bike", "lon": -77.03046783333333}, {"rental_uris": {"android": "https://dc.lft.to/lastmile_qr_scan", "ios": "https://dc.lft.to/lastmile_qr_scan"}, "fusion_lat": 0.0, "is_reserved": 0, "lat": 38.91415466666667, "name": "0c57d22a9a334886cd24564ca43aff68", "bike_id": "0c57d22a9a334886cd24564ca43aff68", "is_disabled": 0, "fusion_lon": 0.0, "type": "electric_scooter", "lon": -77.01908283333333}, {"rental_uris": {"android": "https://dc.lft.to/lastmile_qr_scan", "ios": "https://dc.lft.to/lastmile_qr_scan"}, "fusion_lat": 0.0, "is_reserved": 0, "lat": 38.903806, "name": "67f0176f1630a6a7810058c05d0d995b", "bike_id": "67f0176f1630a6a7810058c05d0d995b", "is_disabled": 0, "fusion_lon": 0.0, "type": "electric_scooter", "lon": -77.01631133333333}, {"rental_uris": {"android": "https://dc.lft.to/lastmile_qr_scan", "ios": "https://dc.lft.to/lastmile_qr_scan"}, "fusion_lat": 0.0, "is_reserved": 0, "lat": 38.918840833333334, "name": "b3cea66a3e1d8b07e46f3ceace70d0f0", "bike_id": "b3cea66a3e1d8b07e46f3ceace70d0f0", "is_disabled": 0, "fusion_lon": 0.0, "type": "electric_scooter", "lon": -77.0417655}, {"rental_uris": {"android": "https://dc.lft.to/lastmile_qr_scan", "ios": "https://dc.lft.to/lastmile_qr_scan"}, "fusion_lat": 0.0, "is_reserved": 0, "lat": 38.910980333333335, "name": "457aca7d18c281cbfd0e5b670690af09", "bike_id": "457aca7d18c281cbfd0e5b670690af09", "is_disabled": 0, "fusion_lon": 0.0, "type": "electric_scooter", "lon": -77.00348166666667}, {"rental_uris": {"android": "https://dc.lft.to/lastmile_qr_scan", "ios": "https://dc.lft.to/lastmile_qr_scan"}, "fusion_lat": 0.0, "is_reserved": 0, "lat": 38.92493283333334, "name": "779f95f506047c1ef02f2e9a1db3dca1", "bike_id": "779f95f506047c1ef02f2e9a1db3dca1", "is_disabled": 0, "fusion_lon": 0.0, "type": "electric_scooter", "lon": -77.02441416666667}, {"rental_uris": {"android": "https://dc.lft.to/lastmile_qr_scan", "ios": "https://dc.lft.to/lastmile_qr_scan"}, "fusion_lat": 0.0, "is_reserved": 0, "lat": 38.9150005, "name": "750823215cfa6f32214e9e72e8c020d1", "bike_id": "750823215cfa6f32214e9e72e8c020d1", "is_disabled": 0, "fusion_lon": 0.0, "type": "electric_scooter", "lon": -77.04476516666666}, {"rental_uris": {"android": "https://dc.lft.to/lastmile_qr_scan", "ios": "https://dc.lft.to/lastmile_qr_scan"}, "fusion_lat": 0.0, "is_reserved": 0, "lat": 38.905240666666664, "name": "79e6920b96a428fcdb52afe2f86805e2", "bike_id": "79e6920b96a428fcdb52afe2f86805e2", "is_disabled": 0, "fusion_lon": 0.0, "type": "electric_scooter", "lon": -77.02943233333333}, {"rental_uris": {"android": "https://dc.lft.to/lastmile_qr_scan", "ios": "https://dc.lft.to/lastmile_qr_scan"}, "fusion_lat": 0.0, "is_reserved": 0, "lat": 38.88123483333333, "name": "06b5fdcf77c494517251d29b77d47214", "bike_id": "06b5fdcf77c494517251d29b77d47214", "is_disabled": 0, "fusion_lon": 0.0, "type": "electric_scooter", "lon": -77.0169335}, {"rental_uris": {"android": "https://dc.lft.to/lastmile_qr_scan", "ios": "https://dc.lft.to/lastmile_qr_scan"}, "fusion_lat": 0.0, "is_reserved": 0, "lat": 38.937098166666665, "name": "017eeeb416e9a0edcbf97cd280c5ce2b", "bike_id": "017eeeb416e9a0edcbf97cd280c5ce2b", "is_disabled": 0, "fusion_lon": 0.0, "type": "electric_scooter", "lon": -77.0244375}, {"rental_uris": {"android": "https://dc.lft.to/lastmile_qr_scan", "ios": "https://dc.lft.to/lastmile_qr_scan"}, "fusion_lat": 0.0, "is_reserved": 0, "lat": 38.887245666666665, "name": "b167e6f906f631ca7a0673c4426fd3e7", "bike_id": "b167e6f906f631ca7a0673c4426fd3e7", "is_disabled": 0, "fusion_lon": 0.0, "type": "electric_scooter", "lon": -76.99679966666666}, {"rental_uris": {"android": "https://dc.lft.to/lastmile_qr_scan", "ios": "https://dc.lft.to/lastmile_qr_scan"}, "fusion_lat": 0.0, "is_reserved": 0, "lat": 38.90697016666667, "name": "e6da10f1204eff3962843fb6cd3f59a5", "bike_id": "e6da10f1204eff3962843fb6cd3f59a5", "is_disabled": 0, "fusion_lon": 0.0, "type": "electric_scooter", "lon": -77.03585783333334}, {"rental_uris": {"android": "https://dc.lft.to/lastmile_qr_scan", "ios": "https://dc.lft.to/lastmile_qr_scan"}, "fusion_lat": 0.0, "is_reserved": 0, "lat": 38.879326, "name": "ead3182da1d1b01f8f13c56288951a6b", "bike_id": "ead3182da1d1b01f8f13c56288951a6b", "is_disabled": 0, "fusion_lon": 0.0, "type": "electric_scooter", "lon": -77.00700966666666}, {"rental_uris": {"android": "https://dc.lft.to/lastmile_qr_scan", "ios": "https://dc.lft.to/lastmile_qr_scan"}, "fusion_lat": 0.0, "is_reserved": 0, "lat": 38.90181716666667, "name": "dd63dec481d9626b902160182400495f", "bike_id": "dd63dec481d9626b902160182400495f", "is_disabled": 0, "fusion_lon": 0.0, "type": "electric_scooter", "lon": -77.03382466666666}, {"rental_uris": {"android": "https://dc.lft.to/lastmile_qr_scan", "ios": "https://dc.lft.to/lastmile_qr_scan"}, "fusion_lat": 0.0, "is_reserved": 0, "lat": 38.932491666666664, "name": "6879590806bed3b1b9815f251a4592be", "bike_id": "6879590806bed3b1b9815f251a4592be", "is_disabled": 0, "fusion_lon": 0.0, "type": "electric_scooter", "lon": -77.03202583333334}, {"rental_uris": {"android": "https://dc.lft.to/lastmile_qr_scan", "ios": "https://dc.lft.to/lastmile_qr_scan"}, "fusion_lat": 0.0, "is_reserved": 0, "lat": 38.8887775, "name": "58f6375756c294610957385836d4a9e3", "bike_id": "58f6375756c294610957385836d4a9e3", "is_disabled": 0, "fusion_lon": 0.0, "type": "electric_scooter", "lon": -76.99033533333333}, {"rental_uris": {"android": "https://dc.lft.to/lastmile_qr_scan", "ios": "https://dc.lft.to/lastmile_qr_scan"}, "fusion_lat": 0.0, "is_reserved": 0, "lat": 38.89619233333333, "name": "c8d21066b3f32ef04cbecdc477acddb1", "bike_id": "c8d21066b3f32ef04cbecdc477acddb1", "is_disabled": 0, "fusion_lon": 0.0, "type": "electric_scooter", "lon": -77.03043466666666}, {"rental_uris": {"android": "https://dc.lft.to/lastmile_qr_scan", "ios": "https://dc.lft.to/lastmile_qr_scan"}, "fusion_lat": 0.0, "is_reserved": 0, "lat": 38.88770316666667, "name": "ef5a3e133ae98852a57dc251d6df527e", "bike_id": "ef5a3e133ae98852a57dc251d6df527e", "is_disabled": 0, "fusion_lon": 0.0, "type": "electric_scooter", "lon": -76.9326195}, {"rental_uris": {"android": "https://dc.lft.to/lastmile_qr_scan", "ios": "https://dc.lft.to/lastmile_qr_scan"}, "fusion_lat": 0.0, "is_reserved": 0, "lat": 38.944114166666665, "name": "8fea8072af5317c4de07cab7e3fa5f66", "bike_id": "8fea8072af5317c4de07cab7e3fa5f66", "is_disabled": 0, "fusion_lon": 0.0, "type": "electric_scooter", "lon": -77.0631945}, {"rental_uris": {"android": "https://dc.lft.to/lastmile_qr_scan", "ios": "https://dc.lft.to/lastmile_qr_scan"}, "fusion_lat": 0.0, "is_reserved": 0, "lat": 38.9104365, "name": "960bfafc2939f0a665c501831376aba4", "bike_id": "960bfafc2939f0a665c501831376aba4", "is_disabled": 0, "fusion_lon": 0.0, "type": "electric_scooter", "lon": -77.03846}, {"rental_uris": {"android": "https://dc.lft.to/lastmile_qr_scan", "ios": "https://dc.lft.to/lastmile_qr_scan"}, "fusion_lat": 0.0, "is_reserved": 0, "lat": 38.90238933333333, "name": "e83995d462a82b848a11afee2fa13bb5", "bike_id": "e83995d462a82b848a11afee2fa13bb5", "is_disabled": 0, "fusion_lon": 0.0, "type": "electric_scooter", "lon": -77.03219383333334}, {"rental_uris": {"android": "https://dc.lft.to/lastmile_qr_scan", "ios": "https://dc.lft.to/lastmile_qr_scan"}, "fusion_lat": 0.0, "is_reserved": 0, "lat": 38.90050683333333, "name": "57a094c5e7394a8dde90c78b7df78f86", "bike_id": "57a094c5e7394a8dde90c78b7df78f86", "is_disabled": 0, "fusion_lon": 0.0, "type": "electric_scooter", "lon": -77.0074295}, {"rental_uris": {"android": "https://dc.lft.to/lastmile_qr_scan", "ios": "https://dc.lft.to/lastmile_qr_scan"}, "fusion_lat": 0.0, "is_reserved": 0, "lat": 38.92733916666667, "name": "004f346556e232bca3574364c9d6824a", "bike_id": "004f346556e232bca3574364c9d6824a", "is_disabled": 0, "fusion_lon": 0.0, "type": "electric_scooter", "lon": -77.02243833333333}, {"rental_uris": {"android": "https://dc.lft.to/lastmile_qr_scan", "ios": "https://dc.lft.to/lastmile_qr_scan"}, "fusion_lat": 0.0, "is_reserved": 0, "lat": 38.91537833333334, "name": "ffae918b3efbe392baea8e4ca17ab4d4", "bike_id": "ffae918b3efbe392baea8e4ca17ab4d4", "is_disabled": 0, "fusion_lon": 0.0, "type": "electric_scooter", "lon": -77.01220266666667}, {"rental_uris": {"android": "https://dc.lft.to/lastmile_qr_scan", "ios": "https://dc.lft.to/lastmile_qr_scan"}, "fusion_lat": 0.0, "is_reserved": 0, "lat": 38.92069516666667, "name": "280a08a1051aac2f97105dcb174fdd56", "bike_id": "280a08a1051aac2f97105dcb174fdd56", "is_disabled": 0, "fusion_lon": 0.0, "type": "electric_scooter", "lon": -77.02563116666667}, {"rental_uris": {"android": "https://dc.lft.to/lastmile_qr_scan", "ios": "https://dc.lft.to/lastmile_qr_scan"}, "fusion_lat": 0.0, "is_reserved": 0, "lat": 38.927851833333335, "name": "3b77b83d78c94eb06451834b555cd9cf", "bike_id": "3b77b83d78c94eb06451834b555cd9cf", "is_disabled": 0, "fusion_lon": 0.0, "type": "electric_scooter", "lon": -77.03149983333333}, {"rental_uris": {"android": "https://dc.lft.to/lastmile_qr_scan", "ios": "https://dc.lft.to/lastmile_qr_scan"}, "fusion_lat": 0.0, "is_reserved": 0, "lat": 38.88325416666667, "name": "3882df138db2b39fd414d0989aa44b91", "bike_id": "3882df138db2b39fd414d0989aa44b91", "is_disabled": 0, "fusion_lon": 0.0, "type": "electric_bike", "lon": -76.96056416666667}, {"rental_uris": {"android": "https://dc.lft.to/lastmile_qr_scan", "ios": "https://dc.lft.to/lastmile_qr_scan"}, "fusion_lat": 0.0, "is_reserved": 0, "lat": 38.900284, "name": "12104508dca3f898a2e1e60432ed8820", "bike_id": "12104508dca3f898a2e1e60432ed8820", "is_disabled": 0, "fusion_lon": 0.0, "type": "electric_scooter", "lon": -76.985958}, {"rental_uris": {"android": "https://dc.lft.to/lastmile_qr_scan", "ios": "https://dc.lft.to/lastmile_qr_scan"}, "fusion_lat": 0.0, "is_reserved": 0, "lat": 38.935358, "name": "b940adcb915f7235fdc07530ddfc6459", "bike_id": "b940adcb915f7235fdc07530ddfc6459", "is_disabled": 0, "fusion_lon": 0.0, "type": "electric_scooter", "lon": -77.023457}, {"rental_uris": {"android": "https://dc.lft.to/lastmile_qr_scan", "ios": "https://dc.lft.to/lastmile_qr_scan"}, "fusion_lat": 0.0, "is_reserved": 0, "lat": 38.90099083333333, "name": "fb0a4586a49f5b13ed801600d0041cbd", "bike_id": "fb0a4586a49f5b13ed801600d0041cbd", "is_disabled": 0, "fusion_lon": 0.0, "type": "electric_scooter", "lon": -77.018676}, {"rental_uris": {"android": "https://dc.lft.to/lastmile_qr_scan", "ios": "https://dc.lft.to/lastmile_qr_scan"}, "fusion_lat": 0.0, "is_reserved": 0, "lat": 38.936251666666664, "name": "03e7386272ebf51fe3ae5928d5489de6", "bike_id": "03e7386272ebf51fe3ae5928d5489de6", "is_disabled": 0, "fusion_lon": 0.0, "type": "electric_scooter", "lon": -77.059016}, {"rental_uris": {"android": "https://dc.lft.to/lastmile_qr_scan", "ios": "https://dc.lft.to/lastmile_qr_scan"}, "fusion_lat": 0.0, "is_reserved": 0, "lat": 38.89516066666667, "name": "533442e257ccabd5f9303a83f962321b", "bike_id": "533442e257ccabd5f9303a83f962321b", "is_disabled": 0, "fusion_lon": 0.0, "type": "electric_scooter", "lon": -77.0228675}, {"rental_uris": {"android": "https://dc.lft.to/lastmile_qr_scan", "ios": "https://dc.lft.to/lastmile_qr_scan"}, "fusion_lat": 0.0, "is_reserved": 0, "lat": 38.886173, "name": "558396d9708d6dd9f04df8de827c7cbf", "bike_id": "558396d9708d6dd9f04df8de827c7cbf", "is_disabled": 0, "fusion_lon": 0.0, "type": "electric_scooter", "lon": -77.03181766666667}, {"rental_uris": {"android": "https://dc.lft.to/lastmile_qr_scan", "ios": "https://dc.lft.to/lastmile_qr_scan"}, "fusion_lat": 0.0, "is_reserved": 0, "lat": 38.89325916666667, "name": "c564958f5c9436a183f59edf156f339d", "bike_id": "c564958f5c9436a183f59edf156f339d", "is_disabled": 0, "fusion_lon": 0.0, "type": "electric_scooter", "lon": -77.04676483333333}, {"rental_uris": {"android": "https://dc.lft.to/lastmile_qr_scan", "ios": "https://dc.lft.to/lastmile_qr_scan"}, "fusion_lat": 0.0, "is_reserved": 0, "lat": 38.784000666666664, "name": "fc18a3dc126ec8299b445a06310e5f36", "bike_id": "fc18a3dc126ec8299b445a06310e5f36", "is_disabled": 0, "fusion_lon": 0.0, "type": "electric_bike", "lon": -77.120848}, {"rental_uris": {"android": "https://dc.lft.to/lastmile_qr_scan", "ios": "https://dc.lft.to/lastmile_qr_scan"}, "fusion_lat": 0.0, "is_reserved": 0, "lat": 38.90046316666667, "name": "bf5d2c0c8da59e4c4425b500a8f5e30a", "bike_id": "bf5d2c0c8da59e4c4425b500a8f5e30a", "is_disabled": 0, "fusion_lon": 0.0, "type": "electric_scooter", "lon": -77.01297516666666}, {"rental_uris": {"android": "https://dc.lft.to/lastmile_qr_scan", "ios": "https://dc.lft.to/lastmile_qr_scan"}, "fusion_lat": 0.0, "is_reserved": 0, "lat": 38.883247, "name": "a9217ba048a2453e6ef36ec42ef73d87", "bike_id": "a9217ba048a2453e6ef36ec42ef73d87", "is_disabled": 0, "fusion_lon": 0.0, "type": "electric_scooter", "lon": -77.009519}, {"rental_uris": {"android": "https://dc.lft.to/lastmile_qr_scan", "ios": "https://dc.lft.to/lastmile_qr_scan"}, "fusion_lat": 0.0, "is_reserved": 0, "lat": 38.92801816666667, "name": "cc7870428968b34f7c7da98216fd8b4d", "bike_id": "cc7870428968b34f7c7da98216fd8b4d", "is_disabled": 0, "fusion_lon": 0.0, "type": "electric_scooter", "lon": -77.02594416666666}, {"rental_uris": {"android": "https://dc.lft.to/lastmile_qr_scan", "ios": "https://dc.lft.to/lastmile_qr_scan"}, "fusion_lat": 0.0, "is_reserved": 0, "lat": 38.91336416666667, "name": "9b3266d988c502a31227fa67e0c672cc", "bike_id": "9b3266d988c502a31227fa67e0c672cc", "is_disabled": 0, "fusion_lon": 0.0, "type": "electric_scooter", "lon": -77.01665416666667}, {"rental_uris": {"android": "https://dc.lft.to/lastmile_qr_scan", "ios": "https://dc.lft.to/lastmile_qr_scan"}, "fusion_lat": 0.0, "is_reserved": 0, "lat": 38.901775666666666, "name": "1c917ddba7264f56364b00d557397cb1", "bike_id": "1c917ddba7264f56364b00d557397cb1", "is_disabled": 0, "fusion_lon": 0.0, "type": "electric_scooter", "lon": -77.00118533333334}, {"rental_uris": {"android": "https://dc.lft.to/lastmile_qr_scan", "ios": "https://dc.lft.to/lastmile_qr_scan"}, "fusion_lat": 0.0, "is_reserved": 0, "lat": 38.9089635, "name": "6ad5c3824b9fd36cf068d2674507e0ed", "bike_id": "6ad5c3824b9fd36cf068d2674507e0ed", "is_disabled": 0, "fusion_lon": 0.0, "type": "electric_scooter", "lon": -76.983917}, {"rental_uris": {"android": "https://dc.lft.to/lastmile_qr_scan", "ios": "https://dc.lft.to/lastmile_qr_scan"}, "fusion_lat": 0.0, "is_reserved": 0, "lat": 38.944224, "name": "a0af7e726fc67a12caa038d67295e4e5", "bike_id": "a0af7e726fc67a12caa038d67295e4e5", "is_disabled": 0, "fusion_lon": 0.0, "type": "electric_scooter", "lon": -77.07749383333334}, {"rental_uris": {"android": "https://dc.lft.to/lastmile_qr_scan", "ios": "https://dc.lft.to/lastmile_qr_scan"}, "fusion_lat": 0.0, "is_reserved": 0, "lat": 38.8984465, "name": "6452345f28e2246ff18878da18a4fd01", "bike_id": "6452345f28e2246ff18878da18a4fd01", "is_disabled": 0, "fusion_lon": 0.0, "type": "electric_scooter", "lon": -77.02875933333333}, {"rental_uris": {"android": "https://dc.lft.to/lastmile_qr_scan", "ios": "https://dc.lft.to/lastmile_qr_scan"}, "fusion_lat": 0.0, "is_reserved": 0, "lat": 38.90047, "name": "1f813097edeb9aae287edb5cd618fb07", "bike_id": "1f813097edeb9aae287edb5cd618fb07", "is_disabled": 0, "fusion_lon": 0.0, "type": "electric_scooter", "lon": -77.02638966666666}, {"rental_uris": {"android": "https://dc.lft.to/lastmile_qr_scan", "ios": "https://dc.lft.to/lastmile_qr_scan"}, "fusion_lat": 0.0, "is_reserved": 0, "lat": 38.95357116666667, "name": "2b665bd3ac886c86a4f2346083e80aa2", "bike_id": "2b665bd3ac886c86a4f2346083e80aa2", "is_disabled": 0, "fusion_lon": 0.0, "type": "electric_bike", "lon": -76.980927}, {"rental_uris": {"android": "https://dc.lft.to/lastmile_qr_scan", "ios": "https://dc.lft.to/lastmile_qr_scan"}, "fusion_lat": 0.0, "is_reserved": 0, "lat": 38.92439266666667, "name": "4aab0cc723016fd4b3be3ddaf88cea6e", "bike_id": "4aab0cc723016fd4b3be3ddaf88cea6e", "is_disabled": 0, "fusion_lon": 0.0, "type": "electric_scooter", "lon": -77.0215605}, {"rental_uris": {"android": "https://dc.lft.to/lastmile_qr_scan", "ios": "https://dc.lft.to/lastmile_qr_scan"}, "fusion_lat": 0.0, "is_reserved": 0, "lat": 38.903510833333335, "name": "0ba1363698d5ee42682960edfc3e817a", "bike_id": "0ba1363698d5ee42682960edfc3e817a", "is_disabled": 0, "fusion_lon": 0.0, "type": "electric_scooter", "lon": -76.98616566666666}, {"rental_uris": {"android": "https://dc.lft.to/lastmile_qr_scan", "ios": "https://dc.lft.to/lastmile_qr_scan"}, "fusion_lat": 0.0, "is_reserved": 0, "lat": 38.8996375, "name": "c4a5d961c1e49daecc44a057059dcec3", "bike_id": "c4a5d961c1e49daecc44a057059dcec3", "is_disabled": 0, "fusion_lon": 0.0, "type": "electric_scooter", "lon": -77.0161125}, {"rental_uris": {"android": "https://dc.lft.to/lastmile_qr_scan", "ios": "https://dc.lft.to/lastmile_qr_scan"}, "fusion_lat": 0.0, "is_reserved": 0, "lat": 38.915592, "name": "62884bdca0197c37ffc1b31fa7f63b30", "bike_id": "62884bdca0197c37ffc1b31fa7f63b30", "is_disabled": 0, "fusion_lon": 0.0, "type": "electric_scooter", "lon": -77.0324955}, {"rental_uris": {"android": "https://dc.lft.to/lastmile_qr_scan", "ios": "https://dc.lft.to/lastmile_qr_scan"}, "fusion_lat": 0.0, "is_reserved": 0, "lat": 38.893100833333335, "name": "e4df9a95a17922856e830c97e5bcdd8b", "bike_id": "e4df9a95a17922856e830c97e5bcdd8b", "is_disabled": 0, "fusion_lon": 0.0, "type": "electric_scooter", "lon": -76.939703}, {"rental_uris": {"android": "https://dc.lft.to/lastmile_qr_scan", "ios": "https://dc.lft.to/lastmile_qr_scan"}, "fusion_lat": 0.0, "is_reserved": 0, "lat": 38.973703, "name": "3b7bb47ec073bc2515a2b127ce78ee14", "bike_id": "3b7bb47ec073bc2515a2b127ce78ee14", "is_disabled": 0, "fusion_lon": 0.0, "type": "electric_scooter", "lon": -77.0267075}, {"rental_uris": {"android": "https://dc.lft.to/lastmile_qr_scan", "ios": "https://dc.lft.to/lastmile_qr_scan"}, "fusion_lat": 0.0, "is_reserved": 0, "lat": 38.905916, "name": "e4f41ad0bd4882bf42943c8bf445047e", "bike_id": "e4f41ad0bd4882bf42943c8bf445047e", "is_disabled": 0, "fusion_lon": 0.0, "type": "electric_scooter", "lon": -77.02183883333333}, {"rental_uris": {"android": "https://dc.lft.to/lastmile_qr_scan", "ios": "https://dc.lft.to/lastmile_qr_scan"}, "fusion_lat": 0.0, "is_reserved": 0, "lat": 38.9286625, "name": "fabb970c7e80140165c4e01cd08fa68f", "bike_id": "fabb970c7e80140165c4e01cd08fa68f", "is_disabled": 0, "fusion_lon": 0.0, "type": "electric_scooter", "lon": -77.03441616666667}, {"rental_uris": {"android": "https://dc.lft.to/lastmile_qr_scan", "ios": "https://dc.lft.to/lastmile_qr_scan"}, "fusion_lat": 0.0, "is_reserved": 0, "lat": 38.905259, "name": "03992caeb5d466dcf351c67819690df9", "bike_id": "03992caeb5d466dcf351c67819690df9", "is_disabled": 0, "fusion_lon": 0.0, "type": "electric_scooter", "lon": -77.02947733333333}, {"rental_uris": {"android": "https://dc.lft.to/lastmile_qr_scan", "ios": "https://dc.lft.to/lastmile_qr_scan"}, "fusion_lat": 0.0, "is_reserved": 0, "lat": 38.91775416666667, "name": "3e382334693c61a63b480d7031b2a5d4", "bike_id": "3e382334693c61a63b480d7031b2a5d4", "is_disabled": 0, "fusion_lon": 0.0, "type": "electric_scooter", "lon": -77.04747683333333}, {"rental_uris": {"android": "https://dc.lft.to/lastmile_qr_scan", "ios": "https://dc.lft.to/lastmile_qr_scan"}, "fusion_lat": 0.0, "is_reserved": 0, "lat": 38.92229066666667, "name": "54bea3b64c469d50be1b611fd324c48e", "bike_id": "54bea3b64c469d50be1b611fd324c48e", "is_disabled": 0, "fusion_lon": 0.0, "type": "electric_scooter", "lon": -77.03767566666667}, {"rental_uris": {"android": "https://dc.lft.to/lastmile_qr_scan", "ios": "https://dc.lft.to/lastmile_qr_scan"}, "fusion_lat": 0.0, "is_reserved": 0, "lat": 38.875321666666665, "name": "b020f7b2a17b6b85d7fcedda63d480e4", "bike_id": "b020f7b2a17b6b85d7fcedda63d480e4", "is_disabled": 0, "fusion_lon": 0.0, "type": "electric_scooter", "lon": -77.01757566666667}, {"rental_uris": {"android": "https://dc.lft.to/lastmile_qr_scan", "ios": "https://dc.lft.to/lastmile_qr_scan"}, "fusion_lat": 0.0, "is_reserved": 0, "lat": 38.910404666666665, "name": "998f74fd1a49c8c1a0ab91254201e8b0", "bike_id": "998f74fd1a49c8c1a0ab91254201e8b0", "is_disabled": 0, "fusion_lon": 0.0, "type": "electric_scooter", "lon": -77.01460066666667}, {"rental_uris": {"android": "https://dc.lft.to/lastmile_qr_scan", "ios": "https://dc.lft.to/lastmile_qr_scan"}, "fusion_lat": 0.0, "is_reserved": 0, "lat": 38.887825, "name": "43f3816006842664d4caa1f8b2ebdebf", "bike_id": "43f3816006842664d4caa1f8b2ebdebf", "is_disabled": 0, "fusion_lon": 0.0, "type": "electric_bike", "lon": -77.0325125}, {"rental_uris": {"android": "https://dc.lft.to/lastmile_qr_scan", "ios": "https://dc.lft.to/lastmile_qr_scan"}, "fusion_lat": 0.0, "is_reserved": 0, "lat": 38.903979, "name": "07e5abf4f36b94bd422681998b5c1286", "bike_id": "07e5abf4f36b94bd422681998b5c1286", "is_disabled": 0, "fusion_lon": 0.0, "type": "electric_scooter", "lon": -77.0190125}, {"rental_uris": {"android": "https://dc.lft.to/lastmile_qr_scan", "ios": "https://dc.lft.to/lastmile_qr_scan"}, "fusion_lat": 0.0, "is_reserved": 0, "lat": 38.935953, "name": "9fa4170e19fa84705d2b09ca99642d5c", "bike_id": "9fa4170e19fa84705d2b09ca99642d5c", "is_disabled": 0, "fusion_lon": 0.0, "type": "electric_scooter", "lon": -77.02129383333333}, {"rental_uris": {"android": "https://dc.lft.to/lastmile_qr_scan", "ios": "https://dc.lft.to/lastmile_qr_scan"}, "fusion_lat": 0.0, "is_reserved": 0, "lat": 38.863376, "name": "58e1dce60d80179d903bccdee61af137", "bike_id": "58e1dce60d80179d903bccdee61af137", "is_disabled": 0, "fusion_lon": 0.0, "type": "electric_scooter", "lon": -76.98714816666667}, {"rental_uris": {"android": "https://dc.lft.to/lastmile_qr_scan", "ios": "https://dc.lft.to/lastmile_qr_scan"}, "fusion_lat": 0.0, "is_reserved": 0, "lat": 38.92371416666667, "name": "207da50db8cef607ae0a8f71dfb56cfb", "bike_id": "207da50db8cef607ae0a8f71dfb56cfb", "is_disabled": 0, "fusion_lon": 0.0, "type": "electric_scooter", "lon": -77.03128183333334}, {"rental_uris": {"android": "https://dc.lft.to/lastmile_qr_scan", "ios": "https://dc.lft.to/lastmile_qr_scan"}, "fusion_lat": 0.0, "is_reserved": 0, "lat": 38.89885433333333, "name": "206948b8019182d8ce66cf47262271c1", "bike_id": "206948b8019182d8ce66cf47262271c1", "is_disabled": 0, "fusion_lon": 0.0, "type": "electric_scooter", "lon": -77.02171216666666}, {"rental_uris": {"android": "https://dc.lft.to/lastmile_qr_scan", "ios": "https://dc.lft.to/lastmile_qr_scan"}, "fusion_lat": 0.0, "is_reserved": 0, "lat": 38.928248333333336, "name": "e03cd78b24fa6ff8e9bf0f41a6c8165b", "bike_id": "e03cd78b24fa6ff8e9bf0f41a6c8165b", "is_disabled": 0, "fusion_lon": 0.0, "type": "electric_scooter", "lon": -77.0141545}, {"rental_uris": {"android": "https://dc.lft.to/lastmile_qr_scan", "ios": "https://dc.lft.to/lastmile_qr_scan"}, "fusion_lat": 0.0, "is_reserved": 0, "lat": 38.899782333333334, "name": "1a1bc93a41e376c2dc2be8d27a1ae1d8", "bike_id": "1a1bc93a41e376c2dc2be8d27a1ae1d8", "is_disabled": 0, "fusion_lon": 0.0, "type": "electric_scooter", "lon": -77.021989}, {"rental_uris": {"android": "https://dc.lft.to/lastmile_qr_scan", "ios": "https://dc.lft.to/lastmile_qr_scan"}, "fusion_lat": 0.0, "is_reserved": 0, "lat": 38.901116, "name": "208c11623f5fab9f017ec47da0c2e985", "bike_id": "208c11623f5fab9f017ec47da0c2e985", "is_disabled": 0, "fusion_lon": 0.0, "type": "electric_scooter", "lon": -77.01633966666667}, {"rental_uris": {"android": "https://dc.lft.to/lastmile_qr_scan", "ios": "https://dc.lft.to/lastmile_qr_scan"}, "fusion_lat": 0.0, "is_reserved": 0, "lat": 38.90349966666667, "name": "94d2ab916caa668a84ede942f1db9cd9", "bike_id": "94d2ab916caa668a84ede942f1db9cd9", "is_disabled": 0, "fusion_lon": 0.0, "type": "electric_scooter", "lon": -77.0072095}, {"rental_uris": {"android": "https://dc.lft.to/lastmile_qr_scan", "ios": "https://dc.lft.to/lastmile_qr_scan"}, "fusion_lat": 0.0, "is_reserved": 0, "lat": 38.93295333333333, "name": "03b09b4fb5b4e1b70d8613df1af484e0", "bike_id": "03b09b4fb5b4e1b70d8613df1af484e0", "is_disabled": 0, "fusion_lon": 0.0, "type": "electric_scooter", "lon": -77.02061233333333}, {"rental_uris": {"android": "https://dc.lft.to/lastmile_qr_scan", "ios": "https://dc.lft.to/lastmile_qr_scan"}, "fusion_lat": 0.0, "is_reserved": 0, "lat": 38.933854833333335, "name": "354140dbf3ce87bc13c8e0f96ebe7c98", "bike_id": "354140dbf3ce87bc13c8e0f96ebe7c98", "is_disabled": 0, "fusion_lon": 0.0, "type": "electric_scooter", "lon": -77.02385033333333}, {"rental_uris": {"android": "https://dc.lft.to/lastmile_qr_scan", "ios": "https://dc.lft.to/lastmile_qr_scan"}, "fusion_lat": 0.0, "is_reserved": 0, "lat": 38.91017983333333, "name": "5a2f8f9a0fea4fcaec26d59c9250652d", "bike_id": "5a2f8f9a0fea4fcaec26d59c9250652d", "is_disabled": 0, "fusion_lon": 0.0, "type": "electric_scooter", "lon": -77.044542}, {"rental_uris": {"android": "https://dc.lft.to/lastmile_qr_scan", "ios": "https://dc.lft.to/lastmile_qr_scan"}, "fusion_lat": 0.0, "is_reserved": 0, "lat": 38.89236116666667, "name": "2fcfc16bc75cab4fc811440ab1df9268", "bike_id": "2fcfc16bc75cab4fc811440ab1df9268", "is_disabled": 0, "fusion_lon": 0.0, "type": "electric_scooter", "lon": -77.03187116666666}, {"rental_uris": {"android": "https://dc.lft.to/lastmile_qr_scan", "ios": "https://dc.lft.to/lastmile_qr_scan"}, "fusion_lat": 0.0, "is_reserved": 0, "lat": 38.91723066666667, "name": "eaa01dba85c15e02341b4bdd226b2608", "bike_id": "eaa01dba85c15e02341b4bdd226b2608", "is_disabled": 0, "fusion_lon": 0.0, "type": "electric_scooter", "lon": -77.06832016666667}, {"rental_uris": {"android": "https://dc.lft.to/lastmile_qr_scan", "ios": "https://dc.lft.to/lastmile_qr_scan"}, "fusion_lat": 0.0, "is_reserved": 0, "lat": 38.916559666666664, "name": "c3773f8ce3c970ab8556cc3f91850d1a", "bike_id": "c3773f8ce3c970ab8556cc3f91850d1a", "is_disabled": 0, "fusion_lon": 0.0, "type": "electric_scooter", "lon": -77.0239}, {"rental_uris": {"android": "https://dc.lft.to/lastmile_qr_scan", "ios": "https://dc.lft.to/lastmile_qr_scan"}, "fusion_lat": 0.0, "is_reserved": 0, "lat": 38.913009, "name": "222d1eff0367ec6fa5c36f66b223a9ab", "bike_id": "222d1eff0367ec6fa5c36f66b223a9ab", "is_disabled": 0, "fusion_lon": 0.0, "type": "electric_scooter", "lon": -77.02333616666667}, {"rental_uris": {"android": "https://dc.lft.to/lastmile_qr_scan", "ios": "https://dc.lft.to/lastmile_qr_scan"}, "fusion_lat": 0.0, "is_reserved": 0, "lat": 38.92842266666667, "name": "09630f5d41c04ffafa6cd91c7649236e", "bike_id": "09630f5d41c04ffafa6cd91c7649236e", "is_disabled": 0, "fusion_lon": 0.0, "type": "electric_scooter", "lon": -76.999041}, {"rental_uris": {"android": "https://dc.lft.to/lastmile_qr_scan", "ios": "https://dc.lft.to/lastmile_qr_scan"}, "fusion_lat": 0.0, "is_reserved": 0, "lat": 38.900651333333336, "name": "767c8f9b44592b03994a7dde9f3a9abc", "bike_id": "767c8f9b44592b03994a7dde9f3a9abc", "is_disabled": 0, "fusion_lon": 0.0, "type": "electric_scooter", "lon": -77.01629616666666}, {"rental_uris": {"android": "https://dc.lft.to/lastmile_qr_scan", "ios": "https://dc.lft.to/lastmile_qr_scan"}, "fusion_lat": 0.0, "is_reserved": 0, "lat": 38.89967683333333, "name": "e3daae5b2fc956d28b186310d6945987", "bike_id": "e3daae5b2fc956d28b186310d6945987", "is_disabled": 0, "fusion_lon": 0.0, "type": "electric_scooter", "lon": -77.020968}, {"rental_uris": {"android": "https://dc.lft.to/lastmile_qr_scan", "ios": "https://dc.lft.to/lastmile_qr_scan"}, "fusion_lat": 0.0, "is_reserved": 0, "lat": 38.9069225, "name": "afa8da1a493a849c076fb1b9e1567ae7", "bike_id": "afa8da1a493a849c076fb1b9e1567ae7", "is_disabled": 0, "fusion_lon": 0.0, "type": "electric_scooter", "lon": -77.02700666666667}, {"rental_uris": {"android": "https://dc.lft.to/lastmile_qr_scan", "ios": "https://dc.lft.to/lastmile_qr_scan"}, "fusion_lat": 0.0, "is_reserved": 0, "lat": 38.89772383333333, "name": "df1b2563c0a04387c63e995b11a09744", "bike_id": "df1b2563c0a04387c63e995b11a09744", "is_disabled": 0, "fusion_lon": 0.0, "type": "electric_scooter", "lon": -77.0478625}, {"rental_uris": {"android": "https://dc.lft.to/lastmile_qr_scan", "ios": "https://dc.lft.to/lastmile_qr_scan"}, "fusion_lat": 0.0, "is_reserved": 0, "lat": 38.91926933333333, "name": "7f516247a797af06460924864ac8d0a9", "bike_id": "7f516247a797af06460924864ac8d0a9", "is_disabled": 0, "fusion_lon": 0.0, "type": "electric_scooter", "lon": -77.0420625}, {"rental_uris": {"android": "https://dc.lft.to/lastmile_qr_scan", "ios": "https://dc.lft.to/lastmile_qr_scan"}, "fusion_lat": 0.0, "is_reserved": 0, "lat": 38.92810266666667, "name": "dec6a03d64b1932426622354249e04cb", "bike_id": "dec6a03d64b1932426622354249e04cb", "is_disabled": 0, "fusion_lon": 0.0, "type": "electric_scooter", "lon": -77.03373866666666}, {"rental_uris": {"android": "https://dc.lft.to/lastmile_qr_scan", "ios": "https://dc.lft.to/lastmile_qr_scan"}, "fusion_lat": 0.0, "is_reserved": 0, "lat": 38.896944500000004, "name": "16821e40dc2a0ac18a6e53670fbb366e", "bike_id": "16821e40dc2a0ac18a6e53670fbb366e", "is_disabled": 0, "fusion_lon": 0.0, "type": "electric_scooter", "lon": -77.04325533333333}, {"rental_uris": {"android": "https://dc.lft.to/lastmile_qr_scan", "ios": "https://dc.lft.to/lastmile_qr_scan"}, "fusion_lat": 0.0, "is_reserved": 0, "lat": 38.923866833333335, "name": "9d633e43730ccf57362ffb9054ed433b", "bike_id": "9d633e43730ccf57362ffb9054ed433b", "is_disabled": 0, "fusion_lon": 0.0, "type": "electric_scooter", "lon": -77.02140166666666}, {"rental_uris": {"android": "https://dc.lft.to/lastmile_qr_scan", "ios": "https://dc.lft.to/lastmile_qr_scan"}, "fusion_lat": 0.0, "is_reserved": 0, "lat": 38.92919416666667, "name": "f6766fb0bafcadee4e242b3c77241993", "bike_id": "f6766fb0bafcadee4e242b3c77241993", "is_disabled": 0, "fusion_lon": 0.0, "type": "electric_scooter", "lon": -76.99815316666667}, {"rental_uris": {"android": "https://dc.lft.to/lastmile_qr_scan", "ios": "https://dc.lft.to/lastmile_qr_scan"}, "fusion_lat": 0.0, "is_reserved": 0, "lat": 38.926048, "name": "7826d423377ff65e3b9bb296eb9b2b89", "bike_id": "7826d423377ff65e3b9bb296eb9b2b89", "is_disabled": 0, "fusion_lon": 0.0, "type": "electric_scooter", "lon": -77.02152166666667}, {"rental_uris": {"android": "https://dc.lft.to/lastmile_qr_scan", "ios": "https://dc.lft.to/lastmile_qr_scan"}, "fusion_lat": 0.0, "is_reserved": 0, "lat": 38.921479, "name": "dd3ef2564091999d3a730639710264ae", "bike_id": "dd3ef2564091999d3a730639710264ae", "is_disabled": 0, "fusion_lon": 0.0, "type": "electric_scooter", "lon": -77.03387966666666}, {"rental_uris": {"android": "https://dc.lft.to/lastmile_qr_scan", "ios": "https://dc.lft.to/lastmile_qr_scan"}, "fusion_lat": 0.0, "is_reserved": 0, "lat": 38.903811, "name": "3c291384186841e28c9ea58defa4d1f7", "bike_id": "3c291384186841e28c9ea58defa4d1f7", "is_disabled": 0, "fusion_lon": 0.0, "type": "electric_scooter", "lon": -77.0163605}, {"rental_uris": {"android": "https://dc.lft.to/lastmile_qr_scan", "ios": "https://dc.lft.to/lastmile_qr_scan"}, "fusion_lat": 0.0, "is_reserved": 0, "lat": 38.9248235, "name": "c6cb2e5ddbe5f971e8687969a125443e", "bike_id": "c6cb2e5ddbe5f971e8687969a125443e", "is_disabled": 0, "fusion_lon": 0.0, "type": "electric_scooter", "lon": -77.05211816666667}, {"rental_uris": {"android": "https://dc.lft.to/lastmile_qr_scan", "ios": "https://dc.lft.to/lastmile_qr_scan"}, "fusion_lat": 0.0, "is_reserved": 0, "lat": 38.876571, "name": "e7d9d63c82df5e949f142f64f089e18c", "bike_id": "e7d9d63c82df5e949f142f64f089e18c", "is_disabled": 0, "fusion_lon": 0.0, "type": "electric_scooter", "lon": -77.0041475}, {"rental_uris": {"android": "https://dc.lft.to/lastmile_qr_scan", "ios": "https://dc.lft.to/lastmile_qr_scan"}, "fusion_lat": 0.0, "is_reserved": 0, "lat": 38.92453616666667, "name": "1a55435714b8ea125282fc95a58df569", "bike_id": "1a55435714b8ea125282fc95a58df569", "is_disabled": 0, "fusion_lon": 0.0, "type": "electric_scooter", "lon": -77.04102016666667}, {"rental_uris": {"android": "https://dc.lft.to/lastmile_qr_scan", "ios": "https://dc.lft.to/lastmile_qr_scan"}, "fusion_lat": 0.0, "is_reserved": 0, "lat": 38.91783733333333, "name": "ad65c5f9c4179864b82ec8c511672862", "bike_id": "ad65c5f9c4179864b82ec8c511672862", "is_disabled": 0, "fusion_lon": 0.0, "type": "electric_scooter", "lon": -77.03442133333333}, {"rental_uris": {"android": "https://dc.lft.to/lastmile_qr_scan", "ios": "https://dc.lft.to/lastmile_qr_scan"}, "fusion_lat": 0.0, "is_reserved": 0, "lat": 38.941288666666665, "name": "9e3f436b3a1cf89b5168060a4cd5e303", "bike_id": "9e3f436b3a1cf89b5168060a4cd5e303", "is_disabled": 0, "fusion_lon": 0.0, "type": "electric_scooter", "lon": -77.0617565}, {"rental_uris": {"android": "https://dc.lft.to/lastmile_qr_scan", "ios": "https://dc.lft.to/lastmile_qr_scan"}, "fusion_lat": 0.0, "is_reserved": 0, "lat": 38.92329516666667, "name": "b89438f463825f2bbfbe0e2fe709e610", "bike_id": "b89438f463825f2bbfbe0e2fe709e610", "is_disabled": 0, "fusion_lon": 0.0, "type": "electric_scooter", "lon": -77.00892333333333}, {"rental_uris": {"android": "https://dc.lft.to/lastmile_qr_scan", "ios": "https://dc.lft.to/lastmile_qr_scan"}, "fusion_lat": 0.0, "is_reserved": 0, "lat": 38.90027216666667, "name": "20ba7832d15fdc224849728686112550", "bike_id": "20ba7832d15fdc224849728686112550", "is_disabled": 0, "fusion_lon": 0.0, "type": "electric_scooter", "lon": -77.02733483333333}, {"rental_uris": {"android": "https://dc.lft.to/lastmile_qr_scan", "ios": "https://dc.lft.to/lastmile_qr_scan"}, "fusion_lat": 0.0, "is_reserved": 0, "lat": 38.90026983333333, "name": "e01181e2f7e13cb3efe93c91cf34d5a8", "bike_id": "e01181e2f7e13cb3efe93c91cf34d5a8", "is_disabled": 0, "fusion_lon": 0.0, "type": "electric_bike", "lon": -76.98028916666667}, {"rental_uris": {"android": "https://dc.lft.to/lastmile_qr_scan", "ios": "https://dc.lft.to/lastmile_qr_scan"}, "fusion_lat": 0.0, "is_reserved": 0, "lat": 38.93494716666667, "name": "ee9b090bbf2433262554e247dbd7da5f", "bike_id": "ee9b090bbf2433262554e247dbd7da5f", "is_disabled": 0, "fusion_lon": 0.0, "type": "electric_scooter", "lon": -77.02730216666667}, {"rental_uris": {"android": "https://dc.lft.to/lastmile_qr_scan", "ios": "https://dc.lft.to/lastmile_qr_scan"}, "fusion_lat": 0.0, "is_reserved": 0, "lat": 38.915605, "name": "56cb35206d64b4d908a6193035b0fce3", "bike_id": "56cb35206d64b4d908a6193035b0fce3", "is_disabled": 0, "fusion_lon": 0.0, "type": "electric_scooter", "lon": -77.03246516666667}, {"rental_uris": {"android": "https://dc.lft.to/lastmile_qr_scan", "ios": "https://dc.lft.to/lastmile_qr_scan"}, "fusion_lat": 0.0, "is_reserved": 0, "lat": 38.917138333333334, "name": "0e8df1c4ac5c46d4176e1e563a30467b", "bike_id": "0e8df1c4ac5c46d4176e1e563a30467b", "is_disabled": 0, "fusion_lon": 0.0, "type": "electric_scooter", "lon": -77.03353116666666}, {"rental_uris": {"android": "https://dc.lft.to/lastmile_qr_scan", "ios": "https://dc.lft.to/lastmile_qr_scan"}, "fusion_lat": 0.0, "is_reserved": 0, "lat": 38.92177233333334, "name": "e70023032efa2d932cc662747ca48dc4", "bike_id": "e70023032efa2d932cc662747ca48dc4", "is_disabled": 0, "fusion_lon": 0.0, "type": "electric_scooter", "lon": -76.99838583333333}, {"rental_uris": {"android": "https://dc.lft.to/lastmile_qr_scan", "ios": "https://dc.lft.to/lastmile_qr_scan"}, "fusion_lat": 0.0, "is_reserved": 0, "lat": 38.885213666666665, "name": "ff193e9ed0fdb5ebf180f7afbd31a3a6", "bike_id": "ff193e9ed0fdb5ebf180f7afbd31a3a6", "is_disabled": 0, "fusion_lon": 0.0, "type": "electric_scooter", "lon": -76.97709733333333}, {"rental_uris": {"android": "https://dc.lft.to/lastmile_qr_scan", "ios": "https://dc.lft.to/lastmile_qr_scan"}, "fusion_lat": 0.0, "is_reserved": 0, "lat": 38.915493166666664, "name": "9ca158e1549e24180b85b0eea7eceb0d", "bike_id": "9ca158e1549e24180b85b0eea7eceb0d", "is_disabled": 0, "fusion_lon": 0.0, "type": "electric_scooter", "lon": -77.04709783333334}, {"rental_uris": {"android": "https://dc.lft.to/lastmile_qr_scan", "ios": "https://dc.lft.to/lastmile_qr_scan"}, "fusion_lat": 0.0, "is_reserved": 0, "lat": 38.96029683333333, "name": "f07d374229b08f91d61c1eae17bc837c", "bike_id": "f07d374229b08f91d61c1eae17bc837c", "is_disabled": 0, "fusion_lon": 0.0, "type": "electric_scooter", "lon": -77.02430266666667}, {"rental_uris": {"android": "https://dc.lft.to/lastmile_qr_scan", "ios": "https://dc.lft.to/lastmile_qr_scan"}, "fusion_lat": 0.0, "is_reserved": 0, "lat": 38.87401166666667, "name": "2ecd719adf44614af37a6fb39420265c", "bike_id": "2ecd719adf44614af37a6fb39420265c", "is_disabled": 0, "fusion_lon": 0.0, "type": "electric_scooter", "lon": -77.00032316666666}, {"rental_uris": {"android": "https://dc.lft.to/lastmile_qr_scan", "ios": "https://dc.lft.to/lastmile_qr_scan"}, "fusion_lat": 0.0, "is_reserved": 0, "lat": 38.9029015, "name": "120ca356bd9082c5883e5abd499d902c", "bike_id": "120ca356bd9082c5883e5abd499d902c", "is_disabled": 0, "fusion_lon": 0.0, "type": "electric_scooter", "lon": -77.05801283333334}, {"rental_uris": {"android": "https://dc.lft.to/lastmile_qr_scan", "ios": "https://dc.lft.to/lastmile_qr_scan"}, "fusion_lat": 0.0, "is_reserved": 0, "lat": 38.92225583333333, "name": "77f1e9343499bf4c1997066cb8b6d053", "bike_id": "77f1e9343499bf4c1997066cb8b6d053", "is_disabled": 0, "fusion_lon": 0.0, "type": "electric_scooter", "lon": -77.04358533333334}, {"rental_uris": {"android": "https://dc.lft.to/lastmile_qr_scan", "ios": "https://dc.lft.to/lastmile_qr_scan"}, "fusion_lat": 0.0, "is_reserved": 0, "lat": 38.85709133333334, "name": "908691325b7098f06dcf4e48abb0704c", "bike_id": "908691325b7098f06dcf4e48abb0704c", "is_disabled": 0, "fusion_lon": 0.0, "type": "electric_scooter", "lon": -76.98211633333334}, {"rental_uris": {"android": "https://dc.lft.to/lastmile_qr_scan", "ios": "https://dc.lft.to/lastmile_qr_scan"}, "fusion_lat": 0.0, "is_reserved": 0, "lat": 38.9233225, "name": "0f032a56c878016761a67b0ddf4ee110", "bike_id": "0f032a56c878016761a67b0ddf4ee110", "is_disabled": 0, "fusion_lon": 0.0, "type": "electric_scooter", "lon": -77.03544866666667}, {"rental_uris": {"android": "https://dc.lft.to/lastmile_qr_scan", "ios": "https://dc.lft.to/lastmile_qr_scan"}, "fusion_lat": 0.0, "is_reserved": 0, "lat": 38.898674, "name": "df9f1184cc06fa65acbf7fa06306dfe1", "bike_id": "df9f1184cc06fa65acbf7fa06306dfe1", "is_disabled": 0, "fusion_lon": 0.0, "type": "electric_scooter", "lon": -76.94677783333333}, {"rental_uris": {"android": "https://dc.lft.to/lastmile_qr_scan", "ios": "https://dc.lft.to/lastmile_qr_scan"}, "fusion_lat": 0.0, "is_reserved": 0, "lat": 38.870678, "name": "11f8e01ed9addff59d2c93f8ee6d81e2", "bike_id": "11f8e01ed9addff59d2c93f8ee6d81e2", "is_disabled": 0, "fusion_lon": 0.0, "type": "electric_scooter", "lon": -76.97910083333333}, {"rental_uris": {"android": "https://dc.lft.to/lastmile_qr_scan", "ios": "https://dc.lft.to/lastmile_qr_scan"}, "fusion_lat": 0.0, "is_reserved": 0, "lat": 38.8835295, "name": "2924898d35fe993d702e3d35aeab5cbe", "bike_id": "2924898d35fe993d702e3d35aeab5cbe", "is_disabled": 0, "fusion_lon": 0.0, "type": "electric_scooter", "lon": -76.992701}, {"rental_uris": {"android": "https://dc.lft.to/lastmile_qr_scan", "ios": "https://dc.lft.to/lastmile_qr_scan"}, "fusion_lat": 0.0, "is_reserved": 0, "lat": 38.920373166666664, "name": "d9460e2d533933d5a46c8e5bd4a8fbd8", "bike_id": "d9460e2d533933d5a46c8e5bd4a8fbd8", "is_disabled": 0, "fusion_lon": 0.0, "type": "electric_scooter", "lon": -77.04826933333334}, {"rental_uris": {"android": "https://dc.lft.to/lastmile_qr_scan", "ios": "https://dc.lft.to/lastmile_qr_scan"}, "fusion_lat": 0.0, "is_reserved": 0, "lat": 38.916831, "name": "4677767ec340d4492502303113d0cd80", "bike_id": "4677767ec340d4492502303113d0cd80", "is_disabled": 0, "fusion_lon": 0.0, "type": "electric_scooter", "lon": -77.04140433333333}, {"rental_uris": {"android": "https://dc.lft.to/lastmile_qr_scan", "ios": "https://dc.lft.to/lastmile_qr_scan"}, "fusion_lat": 0.0, "is_reserved": 0, "lat": 38.94410633333333, "name": "6849d4a353750466a6b51210f655f789", "bike_id": "6849d4a353750466a6b51210f655f789", "is_disabled": 0, "fusion_lon": 0.0, "type": "electric_scooter", "lon": -77.06317916666667}, {"rental_uris": {"android": "https://dc.lft.to/lastmile_qr_scan", "ios": "https://dc.lft.to/lastmile_qr_scan"}, "fusion_lat": 0.0, "is_reserved": 0, "lat": 38.9155085, "name": "83c0c9378c5ad5eb8c5da54f5e98bc41", "bike_id": "83c0c9378c5ad5eb8c5da54f5e98bc41", "is_disabled": 0, "fusion_lon": 0.0, "type": "electric_scooter", "lon": -77.02131216666666}, {"rental_uris": {"android": "https://dc.lft.to/lastmile_qr_scan", "ios": "https://dc.lft.to/lastmile_qr_scan"}, "fusion_lat": 0.0, "is_reserved": 0, "lat": 38.897437833333335, "name": "c93ade2b035001dfcf4697c3ca0d643e", "bike_id": "c93ade2b035001dfcf4697c3ca0d643e", "is_disabled": 0, "fusion_lon": 0.0, "type": "electric_scooter", "lon": -77.0247835}, {"rental_uris": {"android": "https://dc.lft.to/lastmile_qr_scan", "ios": "https://dc.lft.to/lastmile_qr_scan"}, "fusion_lat": 0.0, "is_reserved": 0, "lat": 38.9325215, "name": "a2742beee22c4b3e81202ae9977e6019", "bike_id": "a2742beee22c4b3e81202ae9977e6019", "is_disabled": 0, "fusion_lon": 0.0, "type": "electric_scooter", "lon": -77.03096333333333}, {"rental_uris": {"android": "https://dc.lft.to/lastmile_qr_scan", "ios": "https://dc.lft.to/lastmile_qr_scan"}, "fusion_lat": 0.0, "is_reserved": 0, "lat": 38.8986295, "name": "78f241bd2ad78669a3d9eaa8e39873f1", "bike_id": "78f241bd2ad78669a3d9eaa8e39873f1", "is_disabled": 0, "fusion_lon": 0.0, "type": "electric_scooter", "lon": -77.01960566666666}, {"rental_uris": {"android": "https://dc.lft.to/lastmile_qr_scan", "ios": "https://dc.lft.to/lastmile_qr_scan"}, "fusion_lat": 0.0, "is_reserved": 0, "lat": 38.91815233333333, "name": "b180d0747b7cb308c362f3a92077c7d4", "bike_id": "b180d0747b7cb308c362f3a92077c7d4", "is_disabled": 0, "fusion_lon": 0.0, "type": "electric_scooter", "lon": -77.03984666666666}, {"rental_uris": {"android": "https://dc.lft.to/lastmile_qr_scan", "ios": "https://dc.lft.to/lastmile_qr_scan"}, "fusion_lat": 0.0, "is_reserved": 0, "lat": 38.916041, "name": "228dda725562eb19c0e7f7d9d90625f2", "bike_id": "228dda725562eb19c0e7f7d9d90625f2", "is_disabled": 0, "fusion_lon": 0.0, "type": "electric_scooter", "lon": -77.02411133333334}, {"rental_uris": {"android": "https://dc.lft.to/lastmile_qr_scan", "ios": "https://dc.lft.to/lastmile_qr_scan"}, "fusion_lat": 0.0, "is_reserved": 0, "lat": 38.900538, "name": "c18dd695fd258fbbfb76ca67881682cf", "bike_id": "c18dd695fd258fbbfb76ca67881682cf", "is_disabled": 0, "fusion_lon": 0.0, "type": "electric_scooter", "lon": -77.048168}, {"rental_uris": {"android": "https://dc.lft.to/lastmile_qr_scan", "ios": "https://dc.lft.to/lastmile_qr_scan"}, "fusion_lat": 0.0, "is_reserved": 0, "lat": 38.9155105, "name": "de9285291e6d0b976a99416043f7f1c1", "bike_id": "de9285291e6d0b976a99416043f7f1c1", "is_disabled": 0, "fusion_lon": 0.0, "type": "electric_scooter", "lon": -77.02365316666666}, {"rental_uris": {"android": "https://dc.lft.to/lastmile_qr_scan", "ios": "https://dc.lft.to/lastmile_qr_scan"}, "fusion_lat": 0.0, "is_reserved": 0, "lat": 38.89742016666667, "name": "1bc2d6d3a2bf9750c5df94d6890d4b67", "bike_id": "1bc2d6d3a2bf9750c5df94d6890d4b67", "is_disabled": 0, "fusion_lon": 0.0, "type": "electric_scooter", "lon": -77.0166875}, {"rental_uris": {"android": "https://dc.lft.to/lastmile_qr_scan", "ios": "https://dc.lft.to/lastmile_qr_scan"}, "fusion_lat": 0.0, "is_reserved": 0, "lat": 38.873868, "name": "4155e300522321cb6da801e9c64a8e27", "bike_id": "4155e300522321cb6da801e9c64a8e27", "is_disabled": 0, "fusion_lon": 0.0, "type": "electric_scooter", "lon": -77.00187216666667}, {"rental_uris": {"android": "https://dc.lft.to/lastmile_qr_scan", "ios": "https://dc.lft.to/lastmile_qr_scan"}, "fusion_lat": 0.0, "is_reserved": 0, "lat": 38.898450833333335, "name": "20c04644b6eea47a05a53bc5be3ae8eb", "bike_id": "20c04644b6eea47a05a53bc5be3ae8eb", "is_disabled": 0, "fusion_lon": 0.0, "type": "electric_bike", "lon": -76.94225783333333}, {"rental_uris": {"android": "https://dc.lft.to/lastmile_qr_scan", "ios": "https://dc.lft.to/lastmile_qr_scan"}, "fusion_lat": 0.0, "is_reserved": 0, "lat": 38.9171675, "name": "8b1549dbe99a85196ff42cb0a9fdbefb", "bike_id": "8b1549dbe99a85196ff42cb0a9fdbefb", "is_disabled": 0, "fusion_lon": 0.0, "type": "electric_scooter", "lon": -77.0333895}, {"rental_uris": {"android": "https://dc.lft.to/lastmile_qr_scan", "ios": "https://dc.lft.to/lastmile_qr_scan"}, "fusion_lat": 0.0, "is_reserved": 0, "lat": 38.899763666666665, "name": "0386ba0ea48c6e2ed8d90969feea7ac4", "bike_id": "0386ba0ea48c6e2ed8d90969feea7ac4", "is_disabled": 0, "fusion_lon": 0.0, "type": "electric_scooter", "lon": -77.02699216666667}, {"rental_uris": {"android": "https://dc.lft.to/lastmile_qr_scan", "ios": "https://dc.lft.to/lastmile_qr_scan"}, "fusion_lat": 0.0, "is_reserved": 0, "lat": 38.89555166666667, "name": "6c7cf2aab623b01a923a0931f8736f58", "bike_id": "6c7cf2aab623b01a923a0931f8736f58", "is_disabled": 0, "fusion_lon": 0.0, "type": "electric_scooter", "lon": -77.02211316666667}, {"rental_uris": {"android": "https://dc.lft.to/lastmile_qr_scan", "ios": "https://dc.lft.to/lastmile_qr_scan"}, "fusion_lat": 0.0, "is_reserved": 0, "lat": 38.91492183333333, "name": "098de85d167a0aba01179aa2f78e98bd", "bike_id": "098de85d167a0aba01179aa2f78e98bd", "is_disabled": 0, "fusion_lon": 0.0, "type": "electric_scooter", "lon": -77.0185855}, {"rental_uris": {"android": "https://dc.lft.to/lastmile_qr_scan", "ios": "https://dc.lft.to/lastmile_qr_scan"}, "fusion_lat": 0.0, "is_reserved": 0, "lat": 38.90269683333333, "name": "cfdb107485f3248bd4ec6a2795034b7d", "bike_id": "cfdb107485f3248bd4ec6a2795034b7d", "is_disabled": 0, "fusion_lon": 0.0, "type": "electric_scooter", "lon": -77.03939866666667}, {"rental_uris": {"android": "https://dc.lft.to/lastmile_qr_scan", "ios": "https://dc.lft.to/lastmile_qr_scan"}, "fusion_lat": 0.0, "is_reserved": 0, "lat": 38.892237, "name": "ca965f304d5b94e2df1fbf759c219747", "bike_id": "ca965f304d5b94e2df1fbf759c219747", "is_disabled": 0, "fusion_lon": 0.0, "type": "electric_scooter", "lon": -77.0222785}, {"rental_uris": {"android": "https://dc.lft.to/lastmile_qr_scan", "ios": "https://dc.lft.to/lastmile_qr_scan"}, "fusion_lat": 0.0, "is_reserved": 0, "lat": 38.929445, "name": "45ff796db9be642f2bffa4a4f323c16a", "bike_id": "45ff796db9be642f2bffa4a4f323c16a", "is_disabled": 0, "fusion_lon": 0.0, "type": "electric_scooter", "lon": -77.0040715}, {"rental_uris": {"android": "https://dc.lft.to/lastmile_qr_scan", "ios": "https://dc.lft.to/lastmile_qr_scan"}, "fusion_lat": 0.0, "is_reserved": 0, "lat": 38.918156333333336, "name": "98c5a83660e0655bc4d4229fb2a7178a", "bike_id": "98c5a83660e0655bc4d4229fb2a7178a", "is_disabled": 0, "fusion_lon": 0.0, "type": "electric_scooter", "lon": -77.03030533333333}, {"rental_uris": {"android": "https://dc.lft.to/lastmile_qr_scan", "ios": "https://dc.lft.to/lastmile_qr_scan"}, "fusion_lat": 0.0, "is_reserved": 0, "lat": 38.90067633333334, "name": "c868166e78a675bc99d25b6837885b89", "bike_id": "c868166e78a675bc99d25b6837885b89", "is_disabled": 0, "fusion_lon": 0.0, "type": "electric_scooter", "lon": -76.92746033333333}, {"rental_uris": {"android": "https://dc.lft.to/lastmile_qr_scan", "ios": "https://dc.lft.to/lastmile_qr_scan"}, "fusion_lat": 0.0, "is_reserved": 0, "lat": 38.916154, "name": "9c3b7fa765249164871726a868a9b915", "bike_id": "9c3b7fa765249164871726a868a9b915", "is_disabled": 0, "fusion_lon": 0.0, "type": "electric_bike", "lon": -77.0216995}, {"rental_uris": {"android": "https://dc.lft.to/lastmile_qr_scan", "ios": "https://dc.lft.to/lastmile_qr_scan"}, "fusion_lat": 0.0, "is_reserved": 0, "lat": 38.887237, "name": "58df9bdad9c544bf85dcfcb9ed16bb5c", "bike_id": "58df9bdad9c544bf85dcfcb9ed16bb5c", "is_disabled": 0, "fusion_lon": 0.0, "type": "electric_scooter", "lon": -76.983565}, {"rental_uris": {"android": "https://dc.lft.to/lastmile_qr_scan", "ios": "https://dc.lft.to/lastmile_qr_scan"}, "fusion_lat": 0.0, "is_reserved": 0, "lat": 38.876598333333334, "name": "0483af1346509a95be493d773d6b1f07", "bike_id": "0483af1346509a95be493d773d6b1f07", "is_disabled": 0, "fusion_lon": 0.0, "type": "electric_scooter", "lon": -77.01574783333334}, {"rental_uris": {"android": "https://dc.lft.to/lastmile_qr_scan", "ios": "https://dc.lft.to/lastmile_qr_scan"}, "fusion_lat": 0.0, "is_reserved": 0, "lat": 38.91734183333333, "name": "dabbb1484881ad4a8dc94de4134185bd", "bike_id": "dabbb1484881ad4a8dc94de4134185bd", "is_disabled": 0, "fusion_lon": 0.0, "type": "electric_scooter", "lon": -77.04168083333333}, {"rental_uris": {"android": "https://dc.lft.to/lastmile_qr_scan", "ios": "https://dc.lft.to/lastmile_qr_scan"}, "fusion_lat": 0.0, "is_reserved": 0, "lat": 38.922118833333336, "name": "6eda5171a0b5853ebc8309bc4decb012", "bike_id": "6eda5171a0b5853ebc8309bc4decb012", "is_disabled": 0, "fusion_lon": 0.0, "type": "electric_scooter", "lon": -77.02659883333334}, {"rental_uris": {"android": "https://dc.lft.to/lastmile_qr_scan", "ios": "https://dc.lft.to/lastmile_qr_scan"}, "fusion_lat": 0.0, "is_reserved": 0, "lat": 38.90969883333333, "name": "18d52e7fa220c45207882ff63ec8c5a2", "bike_id": "18d52e7fa220c45207882ff63ec8c5a2", "is_disabled": 0, "fusion_lon": 0.0, "type": "electric_scooter", "lon": -77.02582316666667}, {"rental_uris": {"android": "https://dc.lft.to/lastmile_qr_scan", "ios": "https://dc.lft.to/lastmile_qr_scan"}, "fusion_lat": 0.0, "is_reserved": 0, "lat": 38.9246685, "name": "da4a83432565d5b82dd5b6df4511a372", "bike_id": "da4a83432565d5b82dd5b6df4511a372", "is_disabled": 0, "fusion_lon": 0.0, "type": "electric_scooter", "lon": -77.0221415}, {"rental_uris": {"android": "https://dc.lft.to/lastmile_qr_scan", "ios": "https://dc.lft.to/lastmile_qr_scan"}, "fusion_lat": 0.0, "is_reserved": 0, "lat": 38.912893833333335, "name": "bea07f39284267a699b6880576a7c2a9", "bike_id": "bea07f39284267a699b6880576a7c2a9", "is_disabled": 0, "fusion_lon": 0.0, "type": "electric_scooter", "lon": -76.9854365}, {"rental_uris": {"android": "https://dc.lft.to/lastmile_qr_scan", "ios": "https://dc.lft.to/lastmile_qr_scan"}, "fusion_lat": 0.0, "is_reserved": 0, "lat": 38.9521665, "name": "df258ede13f893ccb0f3673c167f2c7f", "bike_id": "df258ede13f893ccb0f3673c167f2c7f", "is_disabled": 0, "fusion_lon": 0.0, "type": "electric_scooter", "lon": -77.069725}, {"rental_uris": {"android": "https://dc.lft.to/lastmile_qr_scan", "ios": "https://dc.lft.to/lastmile_qr_scan"}, "fusion_lat": 0.0, "is_reserved": 0, "lat": 38.89609516666667, "name": "a49852f65df0d646673868242c45ad9d", "bike_id": "a49852f65df0d646673868242c45ad9d", "is_disabled": 0, "fusion_lon": 0.0, "type": "electric_scooter", "lon": -77.0221075}, {"rental_uris": {"android": "https://dc.lft.to/lastmile_qr_scan", "ios": "https://dc.lft.to/lastmile_qr_scan"}, "fusion_lat": 0.0, "is_reserved": 0, "lat": 38.89366866666667, "name": "4be1caebe8ec23d67154e72104ed0163", "bike_id": "4be1caebe8ec23d67154e72104ed0163", "is_disabled": 0, "fusion_lon": 0.0, "type": "electric_scooter", "lon": -77.00331683333333}, {"rental_uris": {"android": "https://dc.lft.to/lastmile_qr_scan", "ios": "https://dc.lft.to/lastmile_qr_scan"}, "fusion_lat": 0.0, "is_reserved": 0, "lat": 38.8781415, "name": "d1bd9a579c30c66f08de7ac273c22072", "bike_id": "d1bd9a579c30c66f08de7ac273c22072", "is_disabled": 0, "fusion_lon": 0.0, "type": "electric_scooter", "lon": -77.022726}, {"rental_uris": {"android": "https://dc.lft.to/lastmile_qr_scan", "ios": "https://dc.lft.to/lastmile_qr_scan"}, "fusion_lat": 0.0, "is_reserved": 0, "lat": 38.90777816666667, "name": "d8c8e997763c1d5cec47451c4fa60751", "bike_id": "d8c8e997763c1d5cec47451c4fa60751", "is_disabled": 0, "fusion_lon": 0.0, "type": "electric_scooter", "lon": -77.03759033333333}, {"rental_uris": {"android": "https://dc.lft.to/lastmile_qr_scan", "ios": "https://dc.lft.to/lastmile_qr_scan"}, "fusion_lat": 0.0, "is_reserved": 0, "lat": 38.9002235, "name": "1dc9bae2ce666b02612d59474336e857", "bike_id": "1dc9bae2ce666b02612d59474336e857", "is_disabled": 0, "fusion_lon": 0.0, "type": "electric_scooter", "lon": -76.99850466666666}, {"rental_uris": {"android": "https://dc.lft.to/lastmile_qr_scan", "ios": "https://dc.lft.to/lastmile_qr_scan"}, "fusion_lat": 0.0, "is_reserved": 0, "lat": 38.9015865, "name": "a76840b2c6b3435dbc82034f213dd1fe", "bike_id": "a76840b2c6b3435dbc82034f213dd1fe", "is_disabled": 0, "fusion_lon": 0.0, "type": "electric_scooter", "lon": -77.04657366666666}, {"rental_uris": {"android": "https://dc.lft.to/lastmile_qr_scan", "ios": "https://dc.lft.to/lastmile_qr_scan"}, "fusion_lat": 0.0, "is_reserved": 0, "lat": 38.903304166666665, "name": "ba5168557b7a9b2deb7ad9c495c8ddc0", "bike_id": "ba5168557b7a9b2deb7ad9c495c8ddc0", "is_disabled": 0, "fusion_lon": 0.0, "type": "electric_scooter", "lon": -77.046695}, {"rental_uris": {"android": "https://dc.lft.to/lastmile_qr_scan", "ios": "https://dc.lft.to/lastmile_qr_scan"}, "fusion_lat": 0.0, "is_reserved": 0, "lat": 38.92406, "name": "620e0558b4fcd5370b614ffdd6412cae", "bike_id": "620e0558b4fcd5370b614ffdd6412cae", "is_disabled": 0, "fusion_lon": 0.0, "type": "electric_scooter", "lon": -77.03534}, {"rental_uris": {"android": "https://dc.lft.to/lastmile_qr_scan", "ios": "https://dc.lft.to/lastmile_qr_scan"}, "fusion_lat": 0.0, "is_reserved": 0, "lat": 38.907374, "name": "f8d76079c5ecc5a9b05aa8fde25c5b47", "bike_id": "f8d76079c5ecc5a9b05aa8fde25c5b47", "is_disabled": 0, "fusion_lon": 0.0, "type": "electric_scooter", "lon": -76.93485233333334}, {"rental_uris": {"android": "https://dc.lft.to/lastmile_qr_scan", "ios": "https://dc.lft.to/lastmile_qr_scan"}, "fusion_lat": 0.0, "is_reserved": 0, "lat": 38.937058666666665, "name": "5370ef429a8abdc7c56689d05549f9da", "bike_id": "5370ef429a8abdc7c56689d05549f9da", "is_disabled": 0, "fusion_lon": 0.0, "type": "electric_scooter", "lon": -77.0559485}, {"rental_uris": {"android": "https://dc.lft.to/lastmile_qr_scan", "ios": "https://dc.lft.to/lastmile_qr_scan"}, "fusion_lat": 0.0, "is_reserved": 0, "lat": 38.91200583333333, "name": "c4d506944ae30a1847e2ff8193df58e7", "bike_id": "c4d506944ae30a1847e2ff8193df58e7", "is_disabled": 0, "fusion_lon": 0.0, "type": "electric_scooter", "lon": -77.0384615}, {"rental_uris": {"android": "https://dc.lft.to/lastmile_qr_scan", "ios": "https://dc.lft.to/lastmile_qr_scan"}, "fusion_lat": 0.0, "is_reserved": 0, "lat": 38.894036666666665, "name": "19b21140cfea3cb6c975c036515570b0", "bike_id": "19b21140cfea3cb6c975c036515570b0", "is_disabled": 0, "fusion_lon": 0.0, "type": "electric_scooter", "lon": -77.02314}, {"rental_uris": {"android": "https://dc.lft.to/lastmile_qr_scan", "ios": "https://dc.lft.to/lastmile_qr_scan"}, "fusion_lat": 0.0, "is_reserved": 0, "lat": 38.9207625, "name": "e0fac86cf4c3a8b1f05d7e3847647800", "bike_id": "e0fac86cf4c3a8b1f05d7e3847647800", "is_disabled": 0, "fusion_lon": 0.0, "type": "electric_scooter", "lon": -77.025043}, {"rental_uris": {"android": "https://dc.lft.to/lastmile_qr_scan", "ios": "https://dc.lft.to/lastmile_qr_scan"}, "fusion_lat": 0.0, "is_reserved": 0, "lat": 38.931218333333334, "name": "4645c1845ce47213b9ff365846908a2c", "bike_id": "4645c1845ce47213b9ff365846908a2c", "is_disabled": 0, "fusion_lon": 0.0, "type": "electric_bike", "lon": -77.02714533333334}, {"rental_uris": {"android": "https://dc.lft.to/lastmile_qr_scan", "ios": "https://dc.lft.to/lastmile_qr_scan"}, "fusion_lat": 0.0, "is_reserved": 0, "lat": 38.91882433333333, "name": "b6752a2e43eee58e14c54c9e904e728d", "bike_id": "b6752a2e43eee58e14c54c9e904e728d", "is_disabled": 0, "fusion_lon": 0.0, "type": "electric_scooter", "lon": -77.04175333333333}, {"rental_uris": {"android": "https://dc.lft.to/lastmile_qr_scan", "ios": "https://dc.lft.to/lastmile_qr_scan"}, "fusion_lat": 0.0, "is_reserved": 0, "lat": 38.88605716666667, "name": "c41a94742daabe1794c4ad661ac1cc55", "bike_id": "c41a94742daabe1794c4ad661ac1cc55", "is_disabled": 0, "fusion_lon": 0.0, "type": "electric_scooter", "lon": -77.00400333333333}, {"rental_uris": {"android": "https://dc.lft.to/lastmile_qr_scan", "ios": "https://dc.lft.to/lastmile_qr_scan"}, "fusion_lat": 0.0, "is_reserved": 0, "lat": 38.89883866666667, "name": "e39c09a0c41dc8849e79399cc4144b12", "bike_id": "e39c09a0c41dc8849e79399cc4144b12", "is_disabled": 0, "fusion_lon": 0.0, "type": "electric_scooter", "lon": -77.046751}, {"rental_uris": {"android": "https://dc.lft.to/lastmile_qr_scan", "ios": "https://dc.lft.to/lastmile_qr_scan"}, "fusion_lat": 0.0, "is_reserved": 0, "lat": 38.916213166666665, "name": "91e331d01914191f0a02a804ac6501a3", "bike_id": "91e331d01914191f0a02a804ac6501a3", "is_disabled": 0, "fusion_lon": 0.0, "type": "electric_scooter", "lon": -77.00213766666667}, {"rental_uris": {"android": "https://dc.lft.to/lastmile_qr_scan", "ios": "https://dc.lft.to/lastmile_qr_scan"}, "fusion_lat": 0.0, "is_reserved": 0, "lat": 38.910119, "name": "46ccf2563a438aff8b0672e79f9fe9f5", "bike_id": "46ccf2563a438aff8b0672e79f9fe9f5", "is_disabled": 0, "fusion_lon": 0.0, "type": "electric_scooter", "lon": -77.052743}, {"rental_uris": {"android": "https://dc.lft.to/lastmile_qr_scan", "ios": "https://dc.lft.to/lastmile_qr_scan"}, "fusion_lat": 0.0, "is_reserved": 0, "lat": 38.91345, "name": "49da8bb93c9d3be188b5b8ecf2eab8c6", "bike_id": "49da8bb93c9d3be188b5b8ecf2eab8c6", "is_disabled": 0, "fusion_lon": 0.0, "type": "electric_scooter", "lon": -77.03190283333333}, {"rental_uris": {"android": "https://dc.lft.to/lastmile_qr_scan", "ios": "https://dc.lft.to/lastmile_qr_scan"}, "fusion_lat": 0.0, "is_reserved": 0, "lat": 38.917849, "name": "b759b07943f6a82c0dae08a91a9c8b07", "bike_id": "b759b07943f6a82c0dae08a91a9c8b07", "is_disabled": 0, "fusion_lon": 0.0, "type": "electric_scooter", "lon": -77.034328}, {"rental_uris": {"android": "https://dc.lft.to/lastmile_qr_scan", "ios": "https://dc.lft.to/lastmile_qr_scan"}, "fusion_lat": 0.0, "is_reserved": 0, "lat": 38.914069833333336, "name": "1291a2acbedfd60c98c480446f20ae99", "bike_id": "1291a2acbedfd60c98c480446f20ae99", "is_disabled": 0, "fusion_lon": 0.0, "type": "electric_scooter", "lon": -77.03172233333333}, {"rental_uris": {"android": "https://dc.lft.to/lastmile_qr_scan", "ios": "https://dc.lft.to/lastmile_qr_scan"}, "fusion_lat": 0.0, "is_reserved": 0, "lat": 38.90110083333333, "name": "0fc2c0d1ff7a9ae977b9ad3ccc8c3248", "bike_id": "0fc2c0d1ff7a9ae977b9ad3ccc8c3248", "is_disabled": 0, "fusion_lon": 0.0, "type": "electric_scooter", "lon": -77.02539883333333}, {"rental_uris": {"android": "https://dc.lft.to/lastmile_qr_scan", "ios": "https://dc.lft.to/lastmile_qr_scan"}, "fusion_lat": 0.0, "is_reserved": 0, "lat": 38.9011185, "name": "3ab74deb5b4d2ac4f7f6f37f059da7b4", "bike_id": "3ab74deb5b4d2ac4f7f6f37f059da7b4", "is_disabled": 0, "fusion_lon": 0.0, "type": "electric_scooter", "lon": -77.04476966666667}, {"rental_uris": {"android": "https://dc.lft.to/lastmile_qr_scan", "ios": "https://dc.lft.to/lastmile_qr_scan"}, "fusion_lat": 0.0, "is_reserved": 0, "lat": 38.933236, "name": "ff0f52650273449d1af66c9f4eb8b5ee", "bike_id": "ff0f52650273449d1af66c9f4eb8b5ee", "is_disabled": 0, "fusion_lon": 0.0, "type": "electric_scooter", "lon": -77.03785866666666}, {"rental_uris": {"android": "https://dc.lft.to/lastmile_qr_scan", "ios": "https://dc.lft.to/lastmile_qr_scan"}, "fusion_lat": 0.0, "is_reserved": 0, "lat": 38.9433135, "name": "06082d04fe2084ea7ba5324cd952147a", "bike_id": "06082d04fe2084ea7ba5324cd952147a", "is_disabled": 0, "fusion_lon": 0.0, "type": "electric_scooter", "lon": -77.01551216666667}, {"rental_uris": {"android": "https://dc.lft.to/lastmile_qr_scan", "ios": "https://dc.lft.to/lastmile_qr_scan"}, "fusion_lat": 0.0, "is_reserved": 0, "lat": 38.92642216666667, "name": "271cdc14e43a15a2381dd60c2d1164dd", "bike_id": "271cdc14e43a15a2381dd60c2d1164dd", "is_disabled": 0, "fusion_lon": 0.0, "type": "electric_scooter", "lon": -77.02506133333333}, {"rental_uris": {"android": "https://dc.lft.to/lastmile_qr_scan", "ios": "https://dc.lft.to/lastmile_qr_scan"}, "fusion_lat": 0.0, "is_reserved": 0, "lat": 38.934961, "name": "af5f54700515d9738f1be3f82dcd0ad9", "bike_id": "af5f54700515d9738f1be3f82dcd0ad9", "is_disabled": 0, "fusion_lon": 0.0, "type": "electric_scooter", "lon": -77.04457483333333}, {"rental_uris": {"android": "https://dc.lft.to/lastmile_qr_scan", "ios": "https://dc.lft.to/lastmile_qr_scan"}, "fusion_lat": 0.0, "is_reserved": 0, "lat": 38.92131033333333, "name": "5ac6908b53a08bd221d77cac56031eb0", "bike_id": "5ac6908b53a08bd221d77cac56031eb0", "is_disabled": 0, "fusion_lon": 0.0, "type": "electric_scooter", "lon": -77.04131016666666}, {"rental_uris": {"android": "https://dc.lft.to/lastmile_qr_scan", "ios": "https://dc.lft.to/lastmile_qr_scan"}, "fusion_lat": 0.0, "is_reserved": 0, "lat": 38.92307266666667, "name": "b9215fb9be40426ab85ab22e1e310084", "bike_id": "b9215fb9be40426ab85ab22e1e310084", "is_disabled": 0, "fusion_lon": 0.0, "type": "electric_scooter", "lon": -77.04212283333334}, {"rental_uris": {"android": "https://dc.lft.to/lastmile_qr_scan", "ios": "https://dc.lft.to/lastmile_qr_scan"}, "fusion_lat": 0.0, "is_reserved": 0, "lat": 38.89878783333333, "name": "dd686ad80d2bdc75c7344a5b9ce7457c", "bike_id": "dd686ad80d2bdc75c7344a5b9ce7457c", "is_disabled": 0, "fusion_lon": 0.0, "type": "electric_scooter", "lon": -76.98839066666666}, {"rental_uris": {"android": "https://dc.lft.to/lastmile_qr_scan", "ios": "https://dc.lft.to/lastmile_qr_scan"}, "fusion_lat": 0.0, "is_reserved": 0, "lat": 38.924640833333335, "name": "ac17430cbe678a9d930399e03e7d01a3", "bike_id": "ac17430cbe678a9d930399e03e7d01a3", "is_disabled": 0, "fusion_lon": 0.0, "type": "electric_scooter", "lon": -77.02695066666666}, {"rental_uris": {"android": "https://dc.lft.to/lastmile_qr_scan", "ios": "https://dc.lft.to/lastmile_qr_scan"}, "fusion_lat": 0.0, "is_reserved": 0, "lat": 38.89777216666667, "name": "2e31690061535ac2cc2e795ac8a211b5", "bike_id": "2e31690061535ac2cc2e795ac8a211b5", "is_disabled": 0, "fusion_lon": 0.0, "type": "electric_scooter", "lon": -76.992776}, {"rental_uris": {"android": "https://dc.lft.to/lastmile_qr_scan", "ios": "https://dc.lft.to/lastmile_qr_scan"}, "fusion_lat": 0.0, "is_reserved": 0, "lat": 38.918473166666665, "name": "886c06e86f8b61be1126a8855c83b449", "bike_id": "886c06e86f8b61be1126a8855c83b449", "is_disabled": 0, "fusion_lon": 0.0, "type": "electric_scooter", "lon": -77.02432016666667}, {"rental_uris": {"android": "https://dc.lft.to/lastmile_qr_scan", "ios": "https://dc.lft.to/lastmile_qr_scan"}, "fusion_lat": 0.0, "is_reserved": 0, "lat": 38.8872455, "name": "fdc8cccbf83ce8c3ecf9a032631c6378", "bike_id": "fdc8cccbf83ce8c3ecf9a032631c6378", "is_disabled": 0, "fusion_lon": 0.0, "type": "electric_scooter", "lon": -76.996799}, {"rental_uris": {"android": "https://dc.lft.to/lastmile_qr_scan", "ios": "https://dc.lft.to/lastmile_qr_scan"}, "fusion_lat": 0.0, "is_reserved": 0, "lat": 38.921023, "name": "21bed2325d9d8159f7b5d23ec32f2b31", "bike_id": "21bed2325d9d8159f7b5d23ec32f2b31", "is_disabled": 0, "fusion_lon": 0.0, "type": "electric_scooter", "lon": -77.04191583333333}, {"rental_uris": {"android": "https://dc.lft.to/lastmile_qr_scan", "ios": "https://dc.lft.to/lastmile_qr_scan"}, "fusion_lat": 0.0, "is_reserved": 0, "lat": 38.98988766666667, "name": "ba56082b47ff925355c475f7a3449a4e", "bike_id": "ba56082b47ff925355c475f7a3449a4e", "is_disabled": 0, "fusion_lon": 0.0, "type": "electric_scooter", "lon": -77.03360666666667}, {"rental_uris": {"android": "https://dc.lft.to/lastmile_qr_scan", "ios": "https://dc.lft.to/lastmile_qr_scan"}, "fusion_lat": 0.0, "is_reserved": 0, "lat": 38.92362633333333, "name": "9bdd44cb0df8390c6c317ffce44ea4f6", "bike_id": "9bdd44cb0df8390c6c317ffce44ea4f6", "is_disabled": 0, "fusion_lon": 0.0, "type": "electric_scooter", "lon": -77.01955883333333}, {"rental_uris": {"android": "https://dc.lft.to/lastmile_qr_scan", "ios": "https://dc.lft.to/lastmile_qr_scan"}, "fusion_lat": 0.0, "is_reserved": 0, "lat": 38.928427666666664, "name": "add0cdd1c02a4a065a39209a84bd51a0", "bike_id": "add0cdd1c02a4a065a39209a84bd51a0", "is_disabled": 0, "fusion_lon": 0.0, "type": "electric_scooter", "lon": -77.024873}, {"rental_uris": {"android": "https://dc.lft.to/lastmile_qr_scan", "ios": "https://dc.lft.to/lastmile_qr_scan"}, "fusion_lat": 0.0, "is_reserved": 0, "lat": 38.89608533333333, "name": "5afea1b5942cafaaabef67d8bbc8ce46", "bike_id": "5afea1b5942cafaaabef67d8bbc8ce46", "is_disabled": 0, "fusion_lon": 0.0, "type": "electric_scooter", "lon": -76.97288383333333}, {"rental_uris": {"android": "https://dc.lft.to/lastmile_qr_scan", "ios": "https://dc.lft.to/lastmile_qr_scan"}, "fusion_lat": 0.0, "is_reserved": 0, "lat": 38.915364333333336, "name": "fa963e979973eb1b6bd58631ed27aaa4", "bike_id": "fa963e979973eb1b6bd58631ed27aaa4", "is_disabled": 0, "fusion_lon": 0.0, "type": "electric_scooter", "lon": -77.0200045}, {"rental_uris": {"android": "https://dc.lft.to/lastmile_qr_scan", "ios": "https://dc.lft.to/lastmile_qr_scan"}, "fusion_lat": 0.0, "is_reserved": 0, "lat": 38.90271516666667, "name": "bd2186f7baeae74612ece1f33607b25b", "bike_id": "bd2186f7baeae74612ece1f33607b25b", "is_disabled": 0, "fusion_lon": 0.0, "type": "electric_scooter", "lon": -77.04206983333333}, {"rental_uris": {"android": "https://dc.lft.to/lastmile_qr_scan", "ios": "https://dc.lft.to/lastmile_qr_scan"},