{"data": {"bikes": [{"name": "21665d417b3fa4e410ca7c97129a0300", "fusion_lat": 0.0, "type": "electric_scooter", "lat": 38.94330633333333, "is_reserved": 0, "is_disabled": 0, "fusion_lon": 0.0, "bike_id": "21665d417b3fa4e410ca7c97129a0300", "lon": -77.06043016666666, "rental_uris": {"ios": "https://dc.lft.to/lastmile_qr_scan", "android": "https://dc.lft.to/lastmile_qr_scan"}}, {"name": "6fd1e51772ce4e77b4d32d5fd101c5dd", "fusion_lat": 0.0, "type": "electric_scooter", "lat": 38.895602833333335, "is_reserved": 0, "is_disabled": 0, "fusion_lon": 0.0, "bike_id": "6fd1e51772ce4e77b4d32d5fd101c5dd", "lon": -77.04676433333333, "rental_uris": {"ios": "https://dc.lft.to/lastmile_qr_scan", "android": "https://dc.lft.to/lastmile_qr_scan"}}, {"name": "6a56d4cfcc993c44d2e9b053a81260f4", "fusion_lat": 0.0, "type": "electric_scooter", "lat": 38.870852166666666, "is_reserved": 0, "is_disabled": 0, "fusion_lon": 0.0, "bike_id": "6a56d4cfcc993c44d2e9b053a81260f4", "lon": -77.0112205, "rental_uris": {"ios": "https://dc.lft.to/lastmile_qr_scan", "android": "https://dc.lft.to/lastmile_qr_scan"}}, {"name": "f69176f6a1febc017436ce3f062e286a", "fusion_lat": 0.0, "type": "electric_scooter", "lat": 38.9345855, "is_reserved": 0, "is_disabled": 0, "fusion_lon": 0.0, "bike_id": "f69176f6a1febc017436ce3f062e286a", "lon": -77.086401, "rental_uris": {"ios": "https://dc.lft.to/lastmile_qr_scan", "android": "https://dc.lft.to/lastmile_qr_scan"}}, {"name": "7ee863a180fbf2d6a6c40c8018627994", "fusion_lat": 0.0, "type": "electric_scooter", "lat": 38.88778833333333, "is_reserved": 0, "is_disabled": 0, "fusion_lon": 0.0, "bike_id": "7ee863a180fbf2d6a6c40c8018627994", "lon": -76.9553255, "rental_uris": {"ios": "https://dc.lft.to/lastmile_qr_scan", "android": "https://dc.lft.to/lastmile_qr_scan"}}, {"name": "78cccef0cb0218814b67b177f9debae2", "fusion_lat": 0.0, "type": "electric_scooter", "lat": 38.90569883333333, "is_reserved": 0, "is_disabled": 0, "fusion_lon": 0.0, "bike_id": "78cccef0cb0218814b67b177f9debae2", "lon": -77.05706783333333, "rental_uris": {"ios": "https://dc.lft.to/lastmile_qr_scan", "android": "https://dc.lft.to/lastmile_qr_scan"}}, {"name": "2fde832d48e951af63432344e3f057bf", "fusion_lat": 0.0, "type": "electric_scooter", "lat": 38.86913533333333, "is_reserved": 0, "is_disabled": 0, "fusion_lon": 0.0, "bike_id": "2fde832d48e951af63432344e3f057bf", "lon": -76.97501316666667, "rental_uris": {"ios": "https://dc.lft.to/lastmile_qr_scan", "android": "https://dc.lft.to/lastmile_qr_scan"}}, {"name": "47c368e590f56aeaf3c5a2dcb9e41362", "fusion_lat": 0.0, "type": "electric_scooter", "lat": 38.8851265, "is_reserved": 0, "is_disabled": 0, "fusion_lon": 0.0, "bike_id": "47c368e590f56aeaf3c5a2dcb9e41362", "lon": -77.03359333333333, "rental_uris": {"ios": "https://dc.lft.to/lastmile_qr_scan", "android": "https://dc.lft.to/lastmile_qr_scan"}}, {"name": "63e62b88f8e431905edb1996404f4203", "fusion_lat": 0.0, "type": "electric_scooter", "lat": 38.91052233333333, "is_reserved": 0, "is_disabled": 0, "fusion_lon": 0.0, "bike_id": "63e62b88f8e431905edb1996404f4203", "lon": -77.0457215, "rental_uris": {"ios": "https://dc.lft.to/lastmile_qr_scan", "android": "https://dc.lft.to/lastmile_qr_scan"}}, {"name": "b34ab416a639428bf68c76ca32e70234", "fusion_lat": 0.0, "type": "electric_scooter", "lat": 38.902345833333335, "is_reserved": 0, "is_disabled": 0, "fusion_lon": 0.0, "bike_id": "b34ab416a639428bf68c76ca32e70234", "lon": -77.02308583333334, "rental_uris": {"ios": "https://dc.lft.to/lastmile_qr_scan", "android": "https://dc.lft.to/lastmile_qr_scan"}}, {"name": "81657b97720b3e065d80b9d7a947e366", "fusion_lat": 0.0, "type": "electric_scooter", "lat": 38.9002395, "is_reserved": 0, "is_disabled": 0, "fusion_lon": 0.0, "bike_id": "81657b97720b3e065d80b9d7a947e366", "lon": -76.998603, "rental_uris": {"ios": "https://dc.lft.to/lastmile_qr_scan", "android": "https://dc.lft.to/lastmile_qr_scan"}}, {"name": "7b767d20dfcc65c1460c2aca7b53742c", "fusion_lat": 0.0, "type": "electric_scooter", "lat": 38.91871783333333, "is_reserved": 0, "is_disabled": 0, "fusion_lon": 0.0, "bike_id": "7b767d20dfcc65c1460c2aca7b53742c", "lon": -77.04221116666666, "rental_uris": {"ios": "https://dc.lft.to/lastmile_qr_scan", "android": "https://dc.lft.to/lastmile_qr_scan"}}, {"name": "e733d5d40a3d1a1b4f8443d8b9e0d8ab", "fusion_lat": 0.0, "type": "electric_scooter", "lat": 38.903458, "is_reserved": 0, "is_disabled": 0, "fusion_lon": 0.0, "bike_id": "e733d5d40a3d1a1b4f8443d8b9e0d8ab", "lon": -77.020619, "rental_uris": {"ios": "https://dc.lft.to/lastmile_qr_scan", "android": "https://dc.lft.to/lastmile_qr_scan"}}, {"name": "4e9fd5d3d09f34136df131ae7d5b8858", "fusion_lat": 0.0, "type": "electric_scooter", "lat": 38.87376916666667, "is_reserved": 0, "is_disabled": 0, "fusion_lon": 0.0, "bike_id": "4e9fd5d3d09f34136df131ae7d5b8858", "lon": -77.00039516666666, "rental_uris": {"ios": "https://dc.lft.to/lastmile_qr_scan", "android": "https://dc.lft.to/lastmile_qr_scan"}}, {"name": "4b0bd92080f9d5939ecb5fac230de722", "fusion_lat": 0.0, "type": "electric_bike", "lat": 38.878922333333335, "is_reserved": 0, "is_disabled": 0, "fusion_lon": 0.0, "bike_id": "4b0bd92080f9d5939ecb5fac230de722", "lon": -77.02299866666667, "rental_uris": {"ios": "https://dc.lft.to/lastmile_qr_scan", "android": "https://dc.lft.to/lastmile_qr_scan"}}, {"name": "f672ddb5995b0f0b2a0961b3810b4e33", "fusion_lat": 0.0, "type": "electric_bike", "lat": 38.93525283333334, "is_reserved": 0, "is_disabled": 0, "fusion_lon": 0.0, "bike_id": "f672ddb5995b0f0b2a0961b3810b4e33", "lon": -77.05692166666667, "rental_uris": {"ios": "https://dc.lft.to/lastmile_qr_scan", "android": "https://dc.lft.to/lastmile_qr_scan"}}, {"name": "e470cb062561fa858f4297d2e65e2753", "fusion_lat": 0.0, "type": "electric_scooter", "lat": 38.905216333333335, "is_reserved": 0, "is_disabled": 0, "fusion_lon": 0.0, "bike_id": "e470cb062561fa858f4297d2e65e2753", "lon": -77.02950283333334, "rental_uris": {"ios": "https://dc.lft.to/lastmile_qr_scan", "android": "https://dc.lft.to/lastmile_qr_scan"}}, {"name": "487eef06efedc308cdb5b21e5a545afc", "fusion_lat": 0.0, "type": "electric_scooter", "lat": 38.919110333333336, "is_reserved": 0, "is_disabled": 0, "fusion_lon": 0.0, "bike_id": "487eef06efedc308cdb5b21e5a545afc", "lon": -77.021345, "rental_uris": {"ios": "https://dc.lft.to/lastmile_qr_scan", "android": "https://dc.lft.to/lastmile_qr_scan"}}, {"name": "0bb2f2afbbf3d5f1760974c4fb8c127f", "fusion_lat": 0.0, "type": "electric_scooter", "lat": 38.90946483333333, "is_reserved": 0, "is_disabled": 0, "fusion_lon": 0.0, "bike_id": "0bb2f2afbbf3d5f1760974c4fb8c127f", "lon": -77.047189, "rental_uris": {"ios": "https://dc.lft.to/lastmile_qr_scan", "android": "https://dc.lft.to/lastmile_qr_scan"}}, {"name": "201ddb447b9b827164fab92fd2d88208", "fusion_lat": 0.0, "type": "electric_scooter", "lat": 38.902144666666665, "is_reserved": 0, "is_disabled": 0, "fusion_lon": 0.0, "bike_id": "201ddb447b9b827164fab92fd2d88208", "lon": -77.02333783333333, "rental_uris": {"ios": "https://dc.lft.to/lastmile_qr_scan", "android": "https://dc.lft.to/lastmile_qr_scan"}}, {"name": "5135b48a8242ccc175df30d7d57900de", "fusion_lat": 0.0, "type": "electric_bike", "lat": 38.92876116666667, "is_reserved": 0, "is_disabled": 0, "fusion_lon": 0.0, "bike_id": "5135b48a8242ccc175df30d7d57900de", "lon": -77.033545, "rental_uris": {"ios": "https://dc.lft.to/lastmile_qr_scan", "android": "https://dc.lft.to/lastmile_qr_scan"}}, {"name": "dc3a28f53618d367d602a0b495db778d", "fusion_lat": 0.0, "type": "electric_scooter", "lat": 38.921494333333335, "is_reserved": 0, "is_disabled": 0, "fusion_lon": 0.0, "bike_id": "dc3a28f53618d367d602a0b495db778d", "lon": -77.03506633333333, "rental_uris": {"ios": "https://dc.lft.to/lastmile_qr_scan", "android": "https://dc.lft.to/lastmile_qr_scan"}}, {"name": "6f48e6741a0ac970e9e2e37381650d4d", "fusion_lat": 0.0, "type": "electric_scooter", "lat": 38.941255166666664, "is_reserved": 0, "is_disabled": 0, "fusion_lon": 0.0, "bike_id": "6f48e6741a0ac970e9e2e37381650d4d", "lon": -77.020517, "rental_uris": {"ios": "https://dc.lft.to/lastmile_qr_scan", "android": "https://dc.lft.to/lastmile_qr_scan"}}, {"name": "2df03f7ddcb3b8c362e318ce772d05d2", "fusion_lat": 0.0, "type": "electric_scooter", "lat": 38.86351833333333, "is_reserved": 0, "is_disabled": 0, "fusion_lon": 0.0, "bike_id": "2df03f7ddcb3b8c362e318ce772d05d2", "lon": -76.99067016666666, "rental_uris": {"ios": "https://dc.lft.to/lastmile_qr_scan", "android": "https://dc.lft.to/lastmile_qr_scan"}}, {"name": "83bf611324ce1b2d47f19b9302046094", "fusion_lat": 0.0, "type": "electric_bike", "lat": 38.94168783333333, "is_reserved": 0, "is_disabled": 0, "fusion_lon": 0.0, "bike_id": "83bf611324ce1b2d47f19b9302046094", "lon": -77.032831, "rental_uris": {"ios": "https://dc.lft.to/lastmile_qr_scan", "android": "https://dc.lft.to/lastmile_qr_scan"}}, {"name": "754bc37950bba8c9a4214a52f5cf129f", "fusion_lat": 0.0, "type": "electric_scooter", "lat": 38.91220116666667, "is_reserved": 0, "is_disabled": 0, "fusion_lon": 0.0, "bike_id": "754bc37950bba8c9a4214a52f5cf129f", "lon": -77.03847333333333, "rental_uris": {"ios": "https://dc.lft.to/lastmile_qr_scan", "android": "https://dc.lft.to/lastmile_qr_scan"}}, {"name": "32acb9dc9565fab7a4a2e14d6877b8f1", "fusion_lat": 0.0, "type": "electric_bike", "lat": 39.024138666666666, "is_reserved": 0, "is_disabled": 0, "fusion_lon": 0.0, "bike_id": "32acb9dc9565fab7a4a2e14d6877b8f1", "lon": -77.12503383333333, "rental_uris": {"ios": "https://dc.lft.to/lastmile_qr_scan", "android": "https://dc.lft.to/lastmile_qr_scan"}}, {"name": "4a8faf46db43ba6c50cde232fbd89eaf", "fusion_lat": 0.0, "type": "electric_scooter", "lat": 38.91806116666667, "is_reserved": 0, "is_disabled": 0, "fusion_lon": 0.0, "bike_id": "4a8faf46db43ba6c50cde232fbd89eaf", "lon": -77.02497333333334, "rental_uris": {"ios": "https://dc.lft.to/lastmile_qr_scan", "android": "https://dc.lft.to/lastmile_qr_scan"}}, {"name": "3bd4a8b937e8f9ba3ebd97b1ffc2c6d4", "fusion_lat": 0.0, "type": "electric_scooter", "lat": 38.9234105, "is_reserved": 0, "is_disabled": 0, "fusion_lon": 0.0, "bike_id": "3bd4a8b937e8f9ba3ebd97b1ffc2c6d4", "lon": -77.05015816666666, "rental_uris": {"ios": "https://dc.lft.to/lastmile_qr_scan", "android": "https://dc.lft.to/lastmile_qr_scan"}}, {"name": "34448f64671792b598ce06c4b80f86be", "fusion_lat": 0.0, "type": "electric_scooter", "lat": 38.881181, "is_reserved": 0, "is_disabled": 0, "fusion_lon": 0.0, "bike_id": "34448f64671792b598ce06c4b80f86be", "lon": -77.01659983333333, "rental_uris": {"ios": "https://dc.lft.to/lastmile_qr_scan", "android": "https://dc.lft.to/lastmile_qr_scan"}}, {"name": "16dd42b70cfa866e0956d33fe12fb824", "fusion_lat": 0.0, "type": "electric_scooter", "lat": 38.89596483333333, "is_reserved": 0, "is_disabled": 0, "fusion_lon": 0.0, "bike_id": "16dd42b70cfa866e0956d33fe12fb824", "lon": -77.04136733333333, "rental_uris": {"ios": "https://dc.lft.to/lastmile_qr_scan", "android": "https://dc.lft.to/lastmile_qr_scan"}}, {"name": "2b87f917c7b1bb64fce1bcd0cb9cbbff", "fusion_lat": 0.0, "type": "electric_scooter", "lat": 38.91561933333333, "is_reserved": 0, "is_disabled": 0, "fusion_lon": 0.0, "bike_id": "2b87f917c7b1bb64fce1bcd0cb9cbbff", "lon": -77.038944, "rental_uris": {"ios": "https://dc.lft.to/lastmile_qr_scan", "android": "https://dc.lft.to/lastmile_qr_scan"}}, {"name": "1956d70096e5f0c3240351e5db07e59c", "fusion_lat": 0.0, "type": "electric_scooter", "lat": 38.883744666666665, "is_reserved": 0, "is_disabled": 0, "fusion_lon": 0.0, "bike_id": "1956d70096e5f0c3240351e5db07e59c", "lon": -76.99522983333334, "rental_uris": {"ios": "https://dc.lft.to/lastmile_qr_scan", "android": "https://dc.lft.to/lastmile_qr_scan"}}, {"name": "bf4d4061be85ad12ef879ef98567d66c", "fusion_lat": 0.0, "type": "electric_scooter", "lat": 38.905614666666665, "is_reserved": 0, "is_disabled": 0, "fusion_lon": 0.0, "bike_id": "bf4d4061be85ad12ef879ef98567d66c", "lon": -77.02805733333334, "rental_uris": {"ios": "https://dc.lft.to/lastmile_qr_scan", "android": "https://dc.lft.to/lastmile_qr_scan"}}, {"name": "c918d35c5a66ebed73039d11a2fc7b47", "fusion_lat": 0.0, "type": "electric_scooter", "lat": 38.904769, "is_reserved": 0, "is_disabled": 0, "fusion_lon": 0.0, "bike_id": "c918d35c5a66ebed73039d11a2fc7b47", "lon": -77.02805283333333, "rental_uris": {"ios": "https://dc.lft.to/lastmile_qr_scan", "android": "https://dc.lft.to/lastmile_qr_scan"}}, {"name": "51a4ed9e5ce13f8a446ffc34482abbf0", "fusion_lat": 0.0, "type": "electric_bike", "lat": 38.928655166666665, "is_reserved": 0, "is_disabled": 0, "fusion_lon": 0.0, "bike_id": "51a4ed9e5ce13f8a446ffc34482abbf0", "lon": -76.96105416666667, "rental_uris": {"ios": "https://dc.lft.to/lastmile_qr_scan", "android": "https://dc.lft.to/lastmile_qr_scan"}}, {"name": "9ec5416c3e0415638897048b6b32a3c3", "fusion_lat": 0.0, "type": "electric_scooter", "lat": 38.8874245, "is_reserved": 0, "is_disabled": 0, "fusion_lon": 0.0, "bike_id": "9ec5416c3e0415638897048b6b32a3c3", "lon": -77.0154195, "rental_uris": {"ios": "https://dc.lft.to/lastmile_qr_scan", "android": "https://dc.lft.to/lastmile_qr_scan"}}, {"name": "29b9d47c1b751865152837193bb0c596", "fusion_lat": 0.0, "type": "electric_scooter", "lat": 38.862433833333334, "is_reserved": 0, "is_disabled": 0, "fusion_lon": 0.0, "bike_id": "29b9d47c1b751865152837193bb0c596", "lon": -76.99495683333333, "rental_uris": {"ios": "https://dc.lft.to/lastmile_qr_scan", "android": "https://dc.lft.to/lastmile_qr_scan"}}, {"name": "eb4e116858bf88a8d79ffdf14c6137c0", "fusion_lat": 0.0, "type": "electric_scooter", "lat": 38.941081, "is_reserved": 0, "is_disabled": 0, "fusion_lon": 0.0, "bike_id": "eb4e116858bf88a8d79ffdf14c6137c0", "lon": -77.02670183333333, "rental_uris": {"ios": "https://dc.lft.to/lastmile_qr_scan", "android": "https://dc.lft.to/lastmile_qr_scan"}}, {"name": "9f470531765266a55a91002514706965", "fusion_lat": 0.0, "type": "electric_scooter", "lat": 38.965634333333334, "is_reserved": 0, "is_disabled": 0, "fusion_lon": 0.0, "bike_id": "9f470531765266a55a91002514706965", "lon": -77.01625966666667, "rental_uris": {"ios": "https://dc.lft.to/lastmile_qr_scan", "android": "https://dc.lft.to/lastmile_qr_scan"}}, {"name": "50779859e39c847f24dfd41068be1621", "fusion_lat": 0.0, "type": "electric_scooter", "lat": 38.905727666666664, "is_reserved": 0, "is_disabled": 0, "fusion_lon": 0.0, "bike_id": "50779859e39c847f24dfd41068be1621", "lon": -77.02103283333334, "rental_uris": {"ios": "https://dc.lft.to/lastmile_qr_scan", "android": "https://dc.lft.to/lastmile_qr_scan"}}, {"name": "1118c48799f07cb557ba22286068f675", "fusion_lat": 0.0, "type": "electric_scooter", "lat": 38.89671833333333, "is_reserved": 0, "is_disabled": 0, "fusion_lon": 0.0, "bike_id": "1118c48799f07cb557ba22286068f675", "lon": -77.02980933333333, "rental_uris": {"ios": "https://dc.lft.to/lastmile_qr_scan", "android": "https://dc.lft.to/lastmile_qr_scan"}}, {"name": "5514607af1086d84c48676a8a32c77b9", "fusion_lat": 0.0, "type": "electric_scooter", "lat": 38.93863016666667, "is_reserved": 0, "is_disabled": 0, "fusion_lon": 0.0, "bike_id": "5514607af1086d84c48676a8a32c77b9", "lon": -77.02651416666667, "rental_uris": {"ios": "https://dc.lft.to/lastmile_qr_scan", "android": "https://dc.lft.to/lastmile_qr_scan"}}, {"name": "b042038c66cba1785df0df9246cb4e3b", "fusion_lat": 0.0, "type": "electric_scooter", "lat": 38.90362483333333, "is_reserved": 0, "is_disabled": 0, "fusion_lon": 0.0, "bike_id": "b042038c66cba1785df0df9246cb4e3b", "lon": -77.00339466666667, "rental_uris": {"ios": "https://dc.lft.to/lastmile_qr_scan", "android": "https://dc.lft.to/lastmile_qr_scan"}}, {"name": "a7d6fc50a01bf6634dfe7a1d984023c2", "fusion_lat": 0.0, "type": "electric_scooter", "lat": 38.922596166666665, "is_reserved": 0, "is_disabled": 0, "fusion_lon": 0.0, "bike_id": "a7d6fc50a01bf6634dfe7a1d984023c2", "lon": -77.03521383333333, "rental_uris": {"ios": "https://dc.lft.to/lastmile_qr_scan", "android": "https://dc.lft.to/lastmile_qr_scan"}}, {"name": "0351194e602fdb88b70b9ae667a5eb8d", "fusion_lat": 0.0, "type": "electric_scooter", "lat": 38.9248115, "is_reserved": 0, "is_disabled": 0, "fusion_lon": 0.0, "bike_id": "0351194e602fdb88b70b9ae667a5eb8d", "lon": -77.029967, "rental_uris": {"ios": "https://dc.lft.to/lastmile_qr_scan", "android": "https://dc.lft.to/lastmile_qr_scan"}}, {"name": "8c9bda3c69b12c8a11d186fa71a1794f", "fusion_lat": 0.0, "type": "electric_scooter", "lat": 38.9259675, "is_reserved": 0, "is_disabled": 0, "fusion_lon": 0.0, "bike_id": "8c9bda3c69b12c8a11d186fa71a1794f", "lon": -77.0085305, "rental_uris": {"ios": "https://dc.lft.to/lastmile_qr_scan", "android": "https://dc.lft.to/lastmile_qr_scan"}}, {"name": "7440a646c217af8436af207b2c02f4ef", "fusion_lat": 0.0, "type": "electric_scooter", "lat": 38.93037566666667, "is_reserved": 0, "is_disabled": 0, "fusion_lon": 0.0, "bike_id": "7440a646c217af8436af207b2c02f4ef", "lon": -77.0836615, "rental_uris": {"ios": "https://dc.lft.to/lastmile_qr_scan", "android": "https://dc.lft.to/lastmile_qr_scan"}}, {"name": "a169a9b3f3026571a2707a89333526b4", "fusion_lat": 0.0, "type": "electric_scooter", "lat": 38.9389225, "is_reserved": 0, "is_disabled": 0, "fusion_lon": 0.0, "bike_id": "a169a9b3f3026571a2707a89333526b4", "lon": -77.0175735, "rental_uris": {"ios": "https://dc.lft.to/lastmile_qr_scan", "android": "https://dc.lft.to/lastmile_qr_scan"}}, {"name": "2f024356fa171d0bcb1d22d0a89cab59", "fusion_lat": 0.0, "type": "electric_scooter", "lat": 38.91414816666666, "is_reserved": 0, "is_disabled": 0, "fusion_lon": 0.0, "bike_id": "2f024356fa171d0bcb1d22d0a89cab59", "lon": -77.04498666666667, "rental_uris": {"ios": "https://dc.lft.to/lastmile_qr_scan", "android": "https://dc.lft.to/lastmile_qr_scan"}}, {"name": "7fe538b40a08403998074d7a0cd49643", "fusion_lat": 0.0, "type": "electric_scooter", "lat": 38.89859233333333, "is_reserved": 0, "is_disabled": 0, "fusion_lon": 0.0, "bike_id": "7fe538b40a08403998074d7a0cd49643", "lon": -77.03343133333334, "rental_uris": {"ios": "https://dc.lft.to/lastmile_qr_scan", "android": "https://dc.lft.to/lastmile_qr_scan"}}, {"name": "c2eefe6e76b5417f6d3ad527edb2856f", "fusion_lat": 0.0, "type": "electric_scooter", "lat": 38.91551483333333, "is_reserved": 0, "is_disabled": 0, "fusion_lon": 0.0, "bike_id": "c2eefe6e76b5417f6d3ad527edb2856f", "lon": -77.032447, "rental_uris": {"ios": "https://dc.lft.to/lastmile_qr_scan", "android": "https://dc.lft.to/lastmile_qr_scan"}}, {"name": "f2910a7482ebe934a144a74b4969a24a", "fusion_lat": 0.0, "type": "electric_scooter", "lat": 38.886988833333334, "is_reserved": 0, "is_disabled": 0, "fusion_lon": 0.0, "bike_id": "f2910a7482ebe934a144a74b4969a24a", "lon": -77.02823016666666, "rental_uris": {"ios": "https://dc.lft.to/lastmile_qr_scan", "android": "https://dc.lft.to/lastmile_qr_scan"}}, {"name": "d68b3f4302ec13645801036cffdc6468", "fusion_lat": 0.0, "type": "electric_scooter", "lat": 38.9128675, "is_reserved": 0, "is_disabled": 0, "fusion_lon": 0.0, "bike_id": "d68b3f4302ec13645801036cffdc6468", "lon": -76.93795766666666, "rental_uris": {"ios": "https://dc.lft.to/lastmile_qr_scan", "android": "https://dc.lft.to/lastmile_qr_scan"}}, {"name": "be1d89dab9ad2a21b2aea312b58f7539", "fusion_lat": 0.0, "type": "electric_scooter", "lat": 38.90574516666667, "is_reserved": 0, "is_disabled": 0, "fusion_lon": 0.0, "bike_id": "be1d89dab9ad2a21b2aea312b58f7539", "lon": -77.03450733333334, "rental_uris": {"ios": "https://dc.lft.to/lastmile_qr_scan", "android": "https://dc.lft.to/lastmile_qr_scan"}}, {"name": "d6eddcbd7133d84111d422ad357d3797", "fusion_lat": 0.0, "type": "electric_scooter", "lat": 38.92666066666666, "is_reserved": 0, "is_disabled": 0, "fusion_lon": 0.0, "bike_id": "d6eddcbd7133d84111d422ad357d3797", "lon": -76.995557, "rental_uris": {"ios": "https://dc.lft.to/lastmile_qr_scan", "android": "https://dc.lft.to/lastmile_qr_scan"}}, {"name": "84503b4a7d9871b4755639101ce73bc1", "fusion_lat": 0.0, "type": "electric_bike", "lat": 38.878912, "is_reserved": 0, "is_disabled": 0, "fusion_lon": 0.0, "bike_id": "84503b4a7d9871b4755639101ce73bc1", "lon": -77.108895, "rental_uris": {"ios": "https://dc.lft.to/lastmile_qr_scan", "android": "https://dc.lft.to/lastmile_qr_scan"}}, {"name": "1a74388dfd6ecc619d637d902a946563", "fusion_lat": 0.0, "type": "electric_scooter", "lat": 38.899609166666664, "is_reserved": 0, "is_disabled": 0, "fusion_lon": 0.0, "bike_id": "1a74388dfd6ecc619d637d902a946563", "lon": -77.03940083333333, "rental_uris": {"ios": "https://dc.lft.to/lastmile_qr_scan", "android": "https://dc.lft.to/lastmile_qr_scan"}}, {"name": "e8f4317f4278779dea3b3219f24055f6", "fusion_lat": 0.0, "type": "electric_scooter", "lat": 38.8952595, "is_reserved": 0, "is_disabled": 0, "fusion_lon": 0.0, "bike_id": "e8f4317f4278779dea3b3219f24055f6", "lon": -76.94907683333334, "rental_uris": {"ios": "https://dc.lft.to/lastmile_qr_scan", "android": "https://dc.lft.to/lastmile_qr_scan"}}, {"name": "5fc2d0dad69dedee78394f73e6b66648", "fusion_lat": 0.0, "type": "electric_scooter", "lat": 38.919267, "is_reserved": 0, "is_disabled": 0, "fusion_lon": 0.0, "bike_id": "5fc2d0dad69dedee78394f73e6b66648", "lon": -77.04494933333334, "rental_uris": {"ios": "https://dc.lft.to/lastmile_qr_scan", "android": "https://dc.lft.to/lastmile_qr_scan"}}, {"name": "f20e7fd540c50ab0961907060b61092c", "fusion_lat": 0.0, "type": "electric_bike", "lat": 38.8865515, "is_reserved": 0, "is_disabled": 0, "fusion_lon": 0.0, "bike_id": "f20e7fd540c50ab0961907060b61092c", "lon": -77.16234283333333, "rental_uris": {"ios": "https://dc.lft.to/lastmile_qr_scan", "android": "https://dc.lft.to/lastmile_qr_scan"}}, {"name": "5944a96e1d001de6988c4fd3648a1f73", "fusion_lat": 0.0, "type": "electric_scooter", "lat": 38.898319666666666, "is_reserved": 0, "is_disabled": 0, "fusion_lon": 0.0, "bike_id": "5944a96e1d001de6988c4fd3648a1f73", "lon": -77.03346083333334, "rental_uris": {"ios": "https://dc.lft.to/lastmile_qr_scan", "android": "https://dc.lft.to/lastmile_qr_scan"}}, {"name": "b88016ae9690a41241a071431bbb6445", "fusion_lat": 0.0, "type": "electric_scooter", "lat": 38.876462333333336, "is_reserved": 0, "is_disabled": 0, "fusion_lon": 0.0, "bike_id": "b88016ae9690a41241a071431bbb6445", "lon": -76.96505433333333, "rental_uris": {"ios": "https://dc.lft.to/lastmile_qr_scan", "android": "https://dc.lft.to/lastmile_qr_scan"}}, {"name": "0a33b61fd33f7659e61e9e0e2a7137a6", "fusion_lat": 0.0, "type": "electric_scooter", "lat": 38.896130666666664, "is_reserved": 0, "is_disabled": 0, "fusion_lon": 0.0, "bike_id": "0a33b61fd33f7659e61e9e0e2a7137a6", "lon": -77.02382316666667, "rental_uris": {"ios": "https://dc.lft.to/lastmile_qr_scan", "android": "https://dc.lft.to/lastmile_qr_scan"}}, {"name": "e0bbe72ca0bd1e8aadd84c846115ea0b", "fusion_lat": 0.0, "type": "electric_scooter", "lat": 38.89725816666667, "is_reserved": 0, "is_disabled": 0, "fusion_lon": 0.0, "bike_id": "e0bbe72ca0bd1e8aadd84c846115ea0b", "lon": -77.04646366666667, "rental_uris": {"ios": "https://dc.lft.to/lastmile_qr_scan", "android": "https://dc.lft.to/lastmile_qr_scan"}}, {"name": "a6dcaf7c427b246b32ecaabef83a2131", "fusion_lat": 0.0, "type": "electric_scooter", "lat": 38.90578583333333, "is_reserved": 0, "is_disabled": 0, "fusion_lon": 0.0, "bike_id": "a6dcaf7c427b246b32ecaabef83a2131", "lon": -77.01421666666667, "rental_uris": {"ios": "https://dc.lft.to/lastmile_qr_scan", "android": "https://dc.lft.to/lastmile_qr_scan"}}, {"name": "9664a5bde0123686e233b89077216dbe", "fusion_lat": 0.0, "type": "electric_scooter", "lat": 38.9118505, "is_reserved": 0, "is_disabled": 0, "fusion_lon": 0.0, "bike_id": "9664a5bde0123686e233b89077216dbe", "lon": -77.044989, "rental_uris": {"ios": "https://dc.lft.to/lastmile_qr_scan", "android": "https://dc.lft.to/lastmile_qr_scan"}}, {"name": "70d6418ec963b55e568b08863f0f73e6", "fusion_lat": 0.0, "type": "electric_bike", "lat": 38.955424, "is_reserved": 0, "is_disabled": 0, "fusion_lon": 0.0, "bike_id": "70d6418ec963b55e568b08863f0f73e6", "lon": -77.01612416666667, "rental_uris": {"ios": "https://dc.lft.to/lastmile_qr_scan", "android": "https://dc.lft.to/lastmile_qr_scan"}}, {"name": "fe14e353d0155ff8197c5f6823db5f40", "fusion_lat": 0.0, "type": "electric_scooter", "lat": 38.907426, "is_reserved": 0, "is_disabled": 0, "fusion_lon": 0.0, "bike_id": "fe14e353d0155ff8197c5f6823db5f40", "lon": -77.032111, "rental_uris": {"ios": "https://dc.lft.to/lastmile_qr_scan", "android": "https://dc.lft.to/lastmile_qr_scan"}}, {"name": "df40653e2f101860e6442e940ab86a13", "fusion_lat": 0.0, "type": "electric_scooter", "lat": 38.89601566666666, "is_reserved": 0, "is_disabled": 0, "fusion_lon": 0.0, "bike_id": "df40653e2f101860e6442e940ab86a13", "lon": -77.04116516666667, "rental_uris": {"ios": "https://dc.lft.to/lastmile_qr_scan", "android": "https://dc.lft.to/lastmile_qr_scan"}}, {"name": "dc9b1206da259d61ef67783b89b511b7", "fusion_lat": 0.0, "type": "electric_bike", "lat": 39.1056625, "is_reserved": 0, "is_disabled": 0, "fusion_lon": 0.0, "bike_id": "dc9b1206da259d61ef67783b89b511b7", "lon": -77.152698, "rental_uris": {"ios": "https://dc.lft.to/lastmile_qr_scan", "android": "https://dc.lft.to/lastmile_qr_scan"}}, {"name": "f9a3344b4c0f0512809ffd86e78a5234", "fusion_lat": 0.0, "type": "electric_scooter", "lat": 38.910340833333336, "is_reserved": 0, "is_disabled": 0, "fusion_lon": 0.0, "bike_id": "f9a3344b4c0f0512809ffd86e78a5234", "lon": -77.03799916666667, "rental_uris": {"ios": "https://dc.lft.to/lastmile_qr_scan", "android": "https://dc.lft.to/lastmile_qr_scan"}}, {"name": "4451f93944ace71017c4d6dbd40803c0", "fusion_lat": 0.0, "type": "electric_scooter", "lat": 38.902770333333336, "is_reserved": 0, "is_disabled": 0, "fusion_lon": 0.0, "bike_id": "4451f93944ace71017c4d6dbd40803c0", "lon": -77.03680833333334, "rental_uris": {"ios": "https://dc.lft.to/lastmile_qr_scan", "android": "https://dc.lft.to/lastmile_qr_scan"}}, {"name": "daf98b9abcb1218a42560010a5b793bd", "fusion_lat": 0.0, "type": "electric_bike", "lat": 38.893533833333336, "is_reserved": 0, "is_disabled": 0, "fusion_lon": 0.0, "bike_id": "daf98b9abcb1218a42560010a5b793bd", "lon": -77.187377, "rental_uris": {"ios": "https://dc.lft.to/lastmile_qr_scan", "android": "https://dc.lft.to/lastmile_qr_scan"}}, {"name": "6204a03ee889f3ead3be717bd4ee9d9d", "fusion_lat": 0.0, "type": "electric_bike", "lat": 38.881248, "is_reserved": 0, "is_disabled": 0, "fusion_lon": 0.0, "bike_id": "6204a03ee889f3ead3be717bd4ee9d9d", "lon": -77.016693, "rental_uris": {"ios": "https://dc.lft.to/lastmile_qr_scan", "android": "https://dc.lft.to/lastmile_qr_scan"}}, {"name": "e5f011a1b30d8363150ef980ce6b5657", "fusion_lat": 0.0, "type": "electric_scooter", "lat": 38.928449, "is_reserved": 0, "is_disabled": 0, "fusion_lon": 0.0, "bike_id": "e5f011a1b30d8363150ef980ce6b5657", "lon": -77.013551, "rental_uris": {"ios": "https://dc.lft.to/lastmile_qr_scan", "android": "https://dc.lft.to/lastmile_qr_scan"}}, {"name": "cacd6dfd89ca86e84e51a12ffa9eafbb", "fusion_lat": 0.0, "type": "electric_bike", "lat": 38.966219333333335, "is_reserved": 0, "is_disabled": 0, "fusion_lon": 0.0, "bike_id": "cacd6dfd89ca86e84e51a12ffa9eafbb", "lon": -76.97668, "rental_uris": {"ios": "https://dc.lft.to/lastmile_qr_scan", "android": "https://dc.lft.to/lastmile_qr_scan"}}, {"name": "76ea466aeb4500b437c527518f468f27", "fusion_lat": 0.0, "type": "electric_scooter", "lat": 38.88361966666667, "is_reserved": 0, "is_disabled": 0, "fusion_lon": 0.0, "bike_id": "76ea466aeb4500b437c527518f468f27", "lon": -77.03176066666667, "rental_uris": {"ios": "https://dc.lft.to/lastmile_qr_scan", "android": "https://dc.lft.to/lastmile_qr_scan"}}, {"name": "715d1de8d1b87f7dff4d6ee2bed364a8", "fusion_lat": 0.0, "type": "electric_scooter", "lat": 38.93452683333334, "is_reserved": 0, "is_disabled": 0, "fusion_lon": 0.0, "bike_id": "715d1de8d1b87f7dff4d6ee2bed364a8", "lon": -77.03099316666666, "rental_uris": {"ios": "https://dc.lft.to/lastmile_qr_scan", "android": "https://dc.lft.to/lastmile_qr_scan"}}, {"name": "5a06d7646efb01cfa3d337d9dfc27f11", "fusion_lat": 0.0, "type": "electric_scooter", "lat": 38.90742516666667, "is_reserved": 0, "is_disabled": 0, "fusion_lon": 0.0, "bike_id": "5a06d7646efb01cfa3d337d9dfc27f11", "lon": -77.03215533333334, "rental_uris": {"ios": "https://dc.lft.to/lastmile_qr_scan", "android": "https://dc.lft.to/lastmile_qr_scan"}}, {"name": "50bc78c88446cdc06b4883e23e964de3", "fusion_lat": 0.0, "type": "electric_scooter", "lat": 38.919315166666664, "is_reserved": 0, "is_disabled": 0, "fusion_lon": 0.0, "bike_id": "50bc78c88446cdc06b4883e23e964de3", "lon": -77.04166533333333, "rental_uris": {"ios": "https://dc.lft.to/lastmile_qr_scan", "android": "https://dc.lft.to/lastmile_qr_scan"}}, {"name": "f472c6889cb821e955bf8ee3306fc46f", "fusion_lat": 0.0, "type": "electric_scooter", "lat": 38.912532666666664, "is_reserved": 0, "is_disabled": 0, "fusion_lon": 0.0, "bike_id": "f472c6889cb821e955bf8ee3306fc46f", "lon": -77.009552, "rental_uris": {"ios": "https://dc.lft.to/lastmile_qr_scan", "android": "https://dc.lft.to/lastmile_qr_scan"}}, {"name": "b25d9453c86316ef669965367ec40fad", "fusion_lat": 0.0, "type": "electric_bike", "lat": 38.879300666666666, "is_reserved": 0, "is_disabled": 0, "fusion_lon": 0.0, "bike_id": "b25d9453c86316ef669965367ec40fad", "lon": -77.00544683333334, "rental_uris": {"ios": "https://dc.lft.to/lastmile_qr_scan", "android": "https://dc.lft.to/lastmile_qr_scan"}}, {"name": "ad3033950270b0c1f4adc9c350435d0d", "fusion_lat": 0.0, "type": "electric_bike", "lat": 39.089025666666664, "is_reserved": 0, "is_disabled": 0, "fusion_lon": 0.0, "bike_id": "ad3033950270b0c1f4adc9c350435d0d", "lon": -77.17846816666666, "rental_uris": {"ios": "https://dc.lft.to/lastmile_qr_scan", "android": "https://dc.lft.to/lastmile_qr_scan"}}, {"name": "e128df1822dee397a7069aeedab43119", "fusion_lat": 0.0, "type": "electric_scooter", "lat": 38.909674333333335, "is_reserved": 0, "is_disabled": 0, "fusion_lon": 0.0, "bike_id": "e128df1822dee397a7069aeedab43119", "lon": -77.02313716666667, "rental_uris": {"ios": "https://dc.lft.to/lastmile_qr_scan", "android": "https://dc.lft.to/lastmile_qr_scan"}}, {"name": "5fe84a69045af77a50957d833371dcd3", "fusion_lat": 0.0, "type": "electric_scooter", "lat": 38.913328, "is_reserved": 0, "is_disabled": 0, "fusion_lon": 0.0, "bike_id": "5fe84a69045af77a50957d833371dcd3", "lon": -77.04564033333334, "rental_uris": {"ios": "https://dc.lft.to/lastmile_qr_scan", "android": "https://dc.lft.to/lastmile_qr_scan"}}, {"name": "4aca5d8c4b8d2a562f5b4da6433060e3", "fusion_lat": 0.0, "type": "electric_scooter", "lat": 38.91502166666667, "is_reserved": 0, "is_disabled": 0, "fusion_lon": 0.0, "bike_id": "4aca5d8c4b8d2a562f5b4da6433060e3", "lon": -77.03832533333333, "rental_uris": {"ios": "https://dc.lft.to/lastmile_qr_scan", "android": "https://dc.lft.to/lastmile_qr_scan"}}, {"name": "ca8b03c603d1a3f5019a2cc1b991fd88", "fusion_lat": 0.0, "type": "electric_scooter", "lat": 38.90750466666667, "is_reserved": 0, "is_disabled": 0, "fusion_lon": 0.0, "bike_id": "ca8b03c603d1a3f5019a2cc1b991fd88", "lon": -77.04498666666667, "rental_uris": {"ios": "https://dc.lft.to/lastmile_qr_scan", "android": "https://dc.lft.to/lastmile_qr_scan"}}, {"name": "b0e87923db8369a6223688f84c2e7948", "fusion_lat": 0.0, "type": "electric_scooter", "lat": 38.9072365, "is_reserved": 0, "is_disabled": 0, "fusion_lon": 0.0, "bike_id": "b0e87923db8369a6223688f84c2e7948", "lon": -77.030769, "rental_uris": {"ios": "https://dc.lft.to/lastmile_qr_scan", "android": "https://dc.lft.to/lastmile_qr_scan"}}, {"name": "638c7eaac03dc96f09211da2f3151766", "fusion_lat": 0.0, "type": "electric_scooter", "lat": 38.900214, "is_reserved": 0, "is_disabled": 0, "fusion_lon": 0.0, "bike_id": "638c7eaac03dc96f09211da2f3151766", "lon": -77.0354705, "rental_uris": {"ios": "https://dc.lft.to/lastmile_qr_scan", "android": "https://dc.lft.to/lastmile_qr_scan"}}, {"name": "a7f9cf4ffaad5ddf6c88d66df266fb9d", "fusion_lat": 0.0, "type": "electric_bike", "lat": 38.949618666666666, "is_reserved": 0, "is_disabled": 0, "fusion_lon": 0.0, "bike_id": "a7f9cf4ffaad5ddf6c88d66df266fb9d", "lon": -76.96106816666666, "rental_uris": {"ios": "https://dc.lft.to/lastmile_qr_scan", "android": "https://dc.lft.to/lastmile_qr_scan"}}, {"name": "9f34e5f9e81eb945a2cab23467d8a234", "fusion_lat": 0.0, "type": "electric_bike", "lat": 38.8460705, "is_reserved": 0, "is_disabled": 0, "fusion_lon": 0.0, "bike_id": "9f34e5f9e81eb945a2cab23467d8a234", "lon": -76.97834616666667, "rental_uris": {"ios": "https://dc.lft.to/lastmile_qr_scan", "android": "https://dc.lft.to/lastmile_qr_scan"}}, {"name": "442c4b6589c0b9a0cfdd12f04a30c035", "fusion_lat": 0.0, "type": "electric_scooter", "lat": 38.902102666666664, "is_reserved": 0, "is_disabled": 0, "fusion_lon": 0.0, "bike_id": "442c4b6589c0b9a0cfdd12f04a30c035", "lon": -77.05032833333334, "rental_uris": {"ios": "https://dc.lft.to/lastmile_qr_scan", "android": "https://dc.lft.to/lastmile_qr_scan"}}, {"name": "21db4bac01d05b223f28a67812ec9585", "fusion_lat": 0.0, "type": "electric_bike", "lat": 39.05814483333333, "is_reserved": 0, "is_disabled": 0, "fusion_lon": 0.0, "bike_id": "21db4bac01d05b223f28a67812ec9585", "lon": -77.12626583333333, "rental_uris": {"ios": "https://dc.lft.to/lastmile_qr_scan", "android": "https://dc.lft.to/lastmile_qr_scan"}}, {"name": "32bea12ecce3f52ae1e1698329819988", "fusion_lat": 0.0, "type": "electric_scooter", "lat": 38.900491833333334, "is_reserved": 0, "is_disabled": 0, "fusion_lon": 0.0, "bike_id": "32bea12ecce3f52ae1e1698329819988", "lon": -77.00068816666666, "rental_uris": {"ios": "https://dc.lft.to/lastmile_qr_scan", "android": "https://dc.lft.to/lastmile_qr_scan"}}, {"name": "e2e169a97aca1d9f7ff82f6782cbe9e1", "fusion_lat": 0.0, "type": "electric_scooter", "lat": 38.89735666666667, "is_reserved": 0, "is_disabled": 0, "fusion_lon": 0.0, "bike_id": "e2e169a97aca1d9f7ff82f6782cbe9e1", "lon": -77.00921166666667, "rental_uris": {"ios": "https://dc.lft.to/lastmile_qr_scan", "android": "https://dc.lft.to/lastmile_qr_scan"}}, {"name": "01dbdc23f4000e02aeae730b638e3e3c", "fusion_lat": 0.0, "type": "electric_scooter", "lat": 38.886571333333336, "is_reserved": 0, "is_disabled": 0, "fusion_lon": 0.0, "bike_id": "01dbdc23f4000e02aeae730b638e3e3c", "lon": -77.03387216666667, "rental_uris": {"ios": "https://dc.lft.to/lastmile_qr_scan", "android": "https://dc.lft.to/lastmile_qr_scan"}}, {"name": "d32a2b342a22105d96ba599d7bc49553", "fusion_lat": 0.0, "type": "electric_scooter", "lat": 38.903178, "is_reserved": 0, "is_disabled": 0, "fusion_lon": 0.0, "bike_id": "d32a2b342a22105d96ba599d7bc49553", "lon": -77.01626933333333, "rental_uris": {"ios": "https://dc.lft.to/lastmile_qr_scan", "android": "https://dc.lft.to/lastmile_qr_scan"}}, {"name": "1612c40570daa11dd0d1e3523274f0cb", "fusion_lat": 0.0, "type": "electric_bike", "lat": 38.936721, "is_reserved": 0, "is_disabled": 0, "fusion_lon": 0.0, "bike_id": "1612c40570daa11dd0d1e3523274f0cb", "lon": -76.9521, "rental_uris": {"ios": "https://dc.lft.to/lastmile_qr_scan", "android": "https://dc.lft.to/lastmile_qr_scan"}}, {"name": "e839a9da7533a38986ef7820c7ec2cbc", "fusion_lat": 0.0, "type": "electric_scooter", "lat": 38.89704916666667, "is_reserved": 0, "is_disabled": 0, "fusion_lon": 0.0, "bike_id": "e839a9da7533a38986ef7820c7ec2cbc", "lon": -77.0262355, "rental_uris": {"ios": "https://dc.lft.to/lastmile_qr_scan", "android": "https://dc.lft.to/lastmile_qr_scan"}}, {"name": "486f96028079541b9bac5b1a8df95c74", "fusion_lat": 0.0, "type": "electric_scooter", "lat": 38.883782833333335, "is_reserved": 0, "is_disabled": 0, "fusion_lon": 0.0, "bike_id": "486f96028079541b9bac5b1a8df95c74", "lon": -76.99522733333333, "rental_uris": {"ios": "https://dc.lft.to/lastmile_qr_scan", "android": "https://dc.lft.to/lastmile_qr_scan"}}, {"name": "cc868ca5d28c04b021553aaa39b437b9", "fusion_lat": 0.0, "type": "electric_scooter", "lat": 38.901228333333336, "is_reserved": 0, "is_disabled": 0, "fusion_lon": 0.0, "bike_id": "cc868ca5d28c04b021553aaa39b437b9", "lon": -77.0288625, "rental_uris": {"ios": "https://dc.lft.to/lastmile_qr_scan", "android": "https://dc.lft.to/lastmile_qr_scan"}}, {"name": "91d57fa84c3887ef86edb400c7812050", "fusion_lat": 0.0, "type": "electric_scooter", "lat": 38.8941485, "is_reserved": 0, "is_disabled": 0, "fusion_lon": 0.0, "bike_id": "91d57fa84c3887ef86edb400c7812050", "lon": -76.93966483333334, "rental_uris": {"ios": "https://dc.lft.to/lastmile_qr_scan", "android": "https://dc.lft.to/lastmile_qr_scan"}}, {"name": "192929c03b10745d6afbe0262b1371d3", "fusion_lat": 0.0, "type": "electric_scooter", "lat": 38.90308533333334, "is_reserved": 0, "is_disabled": 0, "fusion_lon": 0.0, "bike_id": "192929c03b10745d6afbe0262b1371d3", "lon": -77.0289145, "rental_uris": {"ios": "https://dc.lft.to/lastmile_qr_scan", "android": "https://dc.lft.to/lastmile_qr_scan"}}, {"name": "806965ca13904f8bf0c378b54550fb15", "fusion_lat": 0.0, "type": "electric_scooter", "lat": 38.87728933333333, "is_reserved": 0, "is_disabled": 0, "fusion_lon": 0.0, "bike_id": "806965ca13904f8bf0c378b54550fb15", "lon": -77.01764733333333, "rental_uris": {"ios": "https://dc.lft.to/lastmile_qr_scan", "android": "https://dc.lft.to/lastmile_qr_scan"}}, {"name": "6c2febc212ea1f162482b39d9d110561", "fusion_lat": 0.0, "type": "electric_bike", "lat": 38.940909, "is_reserved": 0, "is_disabled": 0, "fusion_lon": 0.0, "bike_id": "6c2febc212ea1f162482b39d9d110561", "lon": -77.03264283333333, "rental_uris": {"ios": "https://dc.lft.to/lastmile_qr_scan", "android": "https://dc.lft.to/lastmile_qr_scan"}}, {"name": "e88664ce2777ab6a3051c0200adcecaf", "fusion_lat": 0.0, "type": "electric_scooter", "lat": 38.90585166666666, "is_reserved": 0, "is_disabled": 0, "fusion_lon": 0.0, "bike_id": "e88664ce2777ab6a3051c0200adcecaf", "lon": -77.01615933333333, "rental_uris": {"ios": "https://dc.lft.to/lastmile_qr_scan", "android": "https://dc.lft.to/lastmile_qr_scan"}}, {"name": "dd0f4e694fe5c02f125a397ce7726d57", "fusion_lat": 0.0, "type": "electric_scooter", "lat": 38.884998333333336, "is_reserved": 0, "is_disabled": 0, "fusion_lon": 0.0, "bike_id": "dd0f4e694fe5c02f125a397ce7726d57", "lon": -77.015777, "rental_uris": {"ios": "https://dc.lft.to/lastmile_qr_scan", "android": "https://dc.lft.to/lastmile_qr_scan"}}, {"name": "a32b0783744e51128731e42c59670452", "fusion_lat": 0.0, "type": "electric_scooter", "lat": 38.9220505, "is_reserved": 0, "is_disabled": 0, "fusion_lon": 0.0, "bike_id": "a32b0783744e51128731e42c59670452", "lon": -77.04253916666667, "rental_uris": {"ios": "https://dc.lft.to/lastmile_qr_scan", "android": "https://dc.lft.to/lastmile_qr_scan"}}, {"name": "beeae2e52432fb27d3bcb4b62f781c75", "fusion_lat": 0.0, "type": "electric_scooter", "lat": 38.8463345, "is_reserved": 0, "is_disabled": 0, "fusion_lon": 0.0, "bike_id": "beeae2e52432fb27d3bcb4b62f781c75", "lon": -76.984443, "rental_uris": {"ios": "https://dc.lft.to/lastmile_qr_scan", "android": "https://dc.lft.to/lastmile_qr_scan"}}, {"name": "4088bd34272a37ae4c91a33a788a4553", "fusion_lat": 0.0, "type": "electric_scooter", "lat": 38.93815683333333, "is_reserved": 0, "is_disabled": 0, "fusion_lon": 0.0, "bike_id": "4088bd34272a37ae4c91a33a788a4553", "lon": -77.02476166666666, "rental_uris": {"ios": "https://dc.lft.to/lastmile_qr_scan", "android": "https://dc.lft.to/lastmile_qr_scan"}}, {"name": "d73fbba4c15547f61c82465224f25166", "fusion_lat": 0.0, "type": "electric_scooter", "lat": 38.9065575, "is_reserved": 0, "is_disabled": 0, "fusion_lon": 0.0, "bike_id": "d73fbba4c15547f61c82465224f25166", "lon": -77.0382905, "rental_uris": {"ios": "https://dc.lft.to/lastmile_qr_scan", "android": "https://dc.lft.to/lastmile_qr_scan"}}, {"name": "f5e9ab2eb0537d8936bbd114b75fa788", "fusion_lat": 0.0, "type": "electric_scooter", "lat": 38.937858, "is_reserved": 0, "is_disabled": 0, "fusion_lon": 0.0, "bike_id": "f5e9ab2eb0537d8936bbd114b75fa788", "lon": -77.05995833333333, "rental_uris": {"ios": "https://dc.lft.to/lastmile_qr_scan", "android": "https://dc.lft.to/lastmile_qr_scan"}}, {"name": "2f8ef1b8fb4958d2c59491a5f8186f79", "fusion_lat": 0.0, "type": "electric_scooter", "lat": 38.9025155, "is_reserved": 0, "is_disabled": 0, "fusion_lon": 0.0, "bike_id": "2f8ef1b8fb4958d2c59491a5f8186f79", "lon": -77.04365033333333, "rental_uris": {"ios": "https://dc.lft.to/lastmile_qr_scan", "android": "https://dc.lft.to/lastmile_qr_scan"}}, {"name": "6e100006e2829e1a7b33adecfa7c63c8", "fusion_lat": 0.0, "type": "electric_scooter", "lat": 38.89464066666667, "is_reserved": 0, "is_disabled": 0, "fusion_lon": 0.0, "bike_id": "6e100006e2829e1a7b33adecfa7c63c8", "lon": -77.02598816666666, "rental_uris": {"ios": "https://dc.lft.to/lastmile_qr_scan", "android": "https://dc.lft.to/lastmile_qr_scan"}}, {"name": "b7fd6a07f81a02ebad1cf422378895a1", "fusion_lat": 0.0, "type": "electric_scooter", "lat": 38.846816, "is_reserved": 0, "is_disabled": 0, "fusion_lon": 0.0, "bike_id": "b7fd6a07f81a02ebad1cf422378895a1", "lon": -76.99201966666666, "rental_uris": {"ios": "https://dc.lft.to/lastmile_qr_scan", "android": "https://dc.lft.to/lastmile_qr_scan"}}, {"name": "c2aa2dbfe64b4c223f2ee674b59b9e6b", "fusion_lat": 0.0, "type": "electric_scooter", "lat": 38.85800183333333, "is_reserved": 0, "is_disabled": 0, "fusion_lon": 0.0, "bike_id": "c2aa2dbfe64b4c223f2ee674b59b9e6b", "lon": -76.98644316666666, "rental_uris": {"ios": "https://dc.lft.to/lastmile_qr_scan", "android": "https://dc.lft.to/lastmile_qr_scan"}}, {"name": "de472fa711e5b02f0316c38b8844adc5", "fusion_lat": 0.0, "type": "electric_scooter", "lat": 38.88309, "is_reserved": 0, "is_disabled": 0, "fusion_lon": 0.0, "bike_id": "de472fa711e5b02f0316c38b8844adc5", "lon": -77.01655566666666, "rental_uris": {"ios": "https://dc.lft.to/lastmile_qr_scan", "android": "https://dc.lft.to/lastmile_qr_scan"}}, {"name": "b0fdfbeac84920593bebaa293834becf", "fusion_lat": 0.0, "type": "electric_scooter", "lat": 38.857133, "is_reserved": 0, "is_disabled": 0, "fusion_lon": 0.0, "bike_id": "b0fdfbeac84920593bebaa293834becf", "lon": -76.98085, "rental_uris": {"ios": "https://dc.lft.to/lastmile_qr_scan", "android": "https://dc.lft.to/lastmile_qr_scan"}}, {"name": "a37c7223aaeb98b2ddeacfed12b46cf4", "fusion_lat": 0.0, "type": "electric_scooter", "lat": 38.905886333333335, "is_reserved": 0, "is_disabled": 0, "fusion_lon": 0.0, "bike_id": "a37c7223aaeb98b2ddeacfed12b46cf4", "lon": -77.0700255, "rental_uris": {"ios": "https://dc.lft.to/lastmile_qr_scan", "android": "https://dc.lft.to/lastmile_qr_scan"}}, {"name": "53170a97f8f2b19c9afaea8f1f0a3011", "fusion_lat": 0.0, "type": "electric_scooter", "lat": 38.975009, "is_reserved": 0, "is_disabled": 0, "fusion_lon": 0.0, "bike_id": "53170a97f8f2b19c9afaea8f1f0a3011", "lon": -77.0172375, "rental_uris": {"ios": "https://dc.lft.to/lastmile_qr_scan", "android": "https://dc.lft.to/lastmile_qr_scan"}}, {"name": "0ed7150740aed01294792f42a0af27a1", "fusion_lat": 0.0, "type": "electric_bike", "lat": 38.99058616666667, "is_reserved": 0, "is_disabled": 0, "fusion_lon": 0.0, "bike_id": "0ed7150740aed01294792f42a0af27a1", "lon": -77.1002895, "rental_uris": {"ios": "https://dc.lft.to/lastmile_qr_scan", "android": "https://dc.lft.to/lastmile_qr_scan"}}, {"name": "0b1eeeef822d146eb389590ffa5ce05c", "fusion_lat": 0.0, "type": "electric_scooter", "lat": 38.914018, "is_reserved": 0, "is_disabled": 0, "fusion_lon": 0.0, "bike_id": "0b1eeeef822d146eb389590ffa5ce05c", "lon": -77.045702, "rental_uris": {"ios": "https://dc.lft.to/lastmile_qr_scan", "android": "https://dc.lft.to/lastmile_qr_scan"}}, {"name": "ebdb643a55535baca94da4c09fda7770", "fusion_lat": 0.0, "type": "electric_bike", "lat": 38.90429916666667, "is_reserved": 0, "is_disabled": 0, "fusion_lon": 0.0, "bike_id": "ebdb643a55535baca94da4c09fda7770", "lon": -77.04854283333333, "rental_uris": {"ios": "https://dc.lft.to/lastmile_qr_scan", "android": "https://dc.lft.to/lastmile_qr_scan"}}, {"name": "c17e5de0c4788bc7d8be58d141c6cc85", "fusion_lat": 0.0, "type": "electric_bike", "lat": 38.85228033333333, "is_reserved": 0, "is_disabled": 0, "fusion_lon": 0.0, "bike_id": "c17e5de0c4788bc7d8be58d141c6cc85", "lon": -77.103381, "rental_uris": {"ios": "https://dc.lft.to/lastmile_qr_scan", "android": "https://dc.lft.to/lastmile_qr_scan"}}, {"name": "99636dd3c1d1c6fd476159d79cccc70c", "fusion_lat": 0.0, "type": "electric_scooter", "lat": 38.91134666666667, "is_reserved": 0, "is_disabled": 0, "fusion_lon": 0.0, "bike_id": "99636dd3c1d1c6fd476159d79cccc70c", "lon": -77.04191866666666, "rental_uris": {"ios": "https://dc.lft.to/lastmile_qr_scan", "android": "https://dc.lft.to/lastmile_qr_scan"}}, {"name": "58b211954fa8baf27a5158d8187bedb0", "fusion_lat": 0.0, "type": "electric_scooter", "lat": 38.93398033333333, "is_reserved": 0, "is_disabled": 0, "fusion_lon": 0.0, "bike_id": "58b211954fa8baf27a5158d8187bedb0", "lon": -77.0272345, "rental_uris": {"ios": "https://dc.lft.to/lastmile_qr_scan", "android": "https://dc.lft.to/lastmile_qr_scan"}}, {"name": "9258d3ecee00da636544f77dd6a4d6b8", "fusion_lat": 0.0, "type": "electric_scooter", "lat": 38.88034533333333, "is_reserved": 0, "is_disabled": 0, "fusion_lon": 0.0, "bike_id": "9258d3ecee00da636544f77dd6a4d6b8", "lon": -76.92730416666667, "rental_uris": {"ios": "https://dc.lft.to/lastmile_qr_scan", "android": "https://dc.lft.to/lastmile_qr_scan"}}, {"name": "4258c7ebb2aa58c766c8c7bef4900f23", "fusion_lat": 0.0, "type": "electric_scooter", "lat": 38.90491466666667, "is_reserved": 0, "is_disabled": 0, "fusion_lon": 0.0, "bike_id": "4258c7ebb2aa58c766c8c7bef4900f23", "lon": -77.043305, "rental_uris": {"ios": "https://dc.lft.to/lastmile_qr_scan", "android": "https://dc.lft.to/lastmile_qr_scan"}}, {"name": "49cfa962b13b5138e8a979e81cfc3097", "fusion_lat": 0.0, "type": "electric_bike", "lat": 38.88038366666667, "is_reserved": 0, "is_disabled": 0, "fusion_lon": 0.0, "bike_id": "49cfa962b13b5138e8a979e81cfc3097", "lon": -77.01325533333333, "rental_uris": {"ios": "https://dc.lft.to/lastmile_qr_scan", "android": "https://dc.lft.to/lastmile_qr_scan"}}, {"name": "f335a75519abb9bcc35676dcb050777c", "fusion_lat": 0.0, "type": "electric_scooter", "lat": 38.90610866666667, "is_reserved": 0, "is_disabled": 0, "fusion_lon": 0.0, "bike_id": "f335a75519abb9bcc35676dcb050777c", "lon": -77.0366545, "rental_uris": {"ios": "https://dc.lft.to/lastmile_qr_scan", "android": "https://dc.lft.to/lastmile_qr_scan"}}, {"name": "8abc375227cb648e59b28c7a05148272", "fusion_lat": 0.0, "type": "electric_bike", "lat": 38.9284825, "is_reserved": 0, "is_disabled": 0, "fusion_lon": 0.0, "bike_id": "8abc375227cb648e59b28c7a05148272", "lon": -77.10677666666666, "rental_uris": {"ios": "https://dc.lft.to/lastmile_qr_scan", "android": "https://dc.lft.to/lastmile_qr_scan"}}, {"name": "92b78839489cf530141819f5da1223c5", "fusion_lat": 0.0, "type": "electric_scooter", "lat": 38.91273133333333, "is_reserved": 0, "is_disabled": 0, "fusion_lon": 0.0, "bike_id": "92b78839489cf530141819f5da1223c5", "lon": -77.02246283333334, "rental_uris": {"ios": "https://dc.lft.to/lastmile_qr_scan", "android": "https://dc.lft.to/lastmile_qr_scan"}}, {"name": "cab1519bea300cf10b86f4cc366d410d", "fusion_lat": 0.0, "type": "electric_scooter", "lat": 38.89725633333333, "is_reserved": 0, "is_disabled": 0, "fusion_lon": 0.0, "bike_id": "cab1519bea300cf10b86f4cc366d410d", "lon": -77.04341133333334, "rental_uris": {"ios": "https://dc.lft.to/lastmile_qr_scan", "android": "https://dc.lft.to/lastmile_qr_scan"}}, {"name": "f39af2a22218bc104bb09248df0b0ebc", "fusion_lat": 0.0, "type": "electric_scooter", "lat": 38.90285, "is_reserved": 0, "is_disabled": 0, "fusion_lon": 0.0, "bike_id": "f39af2a22218bc104bb09248df0b0ebc", "lon": -77.04262416666667, "rental_uris": {"ios": "https://dc.lft.to/lastmile_qr_scan", "android": "https://dc.lft.to/lastmile_qr_scan"}}, {"name": "6f48ccbde76d1ee9f9ba345b82646635", "fusion_lat": 0.0, "type": "electric_scooter", "lat": 38.93055783333333, "is_reserved": 0, "is_disabled": 0, "fusion_lon": 0.0, "bike_id": "6f48ccbde76d1ee9f9ba345b82646635", "lon": -77.02319933333334, "rental_uris": {"ios": "https://dc.lft.to/lastmile_qr_scan", "android": "https://dc.lft.to/lastmile_qr_scan"}}, {"name": "f685b84a716ffef00b58897049d812d3", "fusion_lat": 0.0, "type": "electric_scooter", "lat": 38.901326833333336, "is_reserved": 0, "is_disabled": 0, "fusion_lon": 0.0, "bike_id": "f685b84a716ffef00b58897049d812d3", "lon": -77.02544633333333, "rental_uris": {"ios": "https://dc.lft.to/lastmile_qr_scan", "android": "https://dc.lft.to/lastmile_qr_scan"}}, {"name": "4a0bb7f4636230c1d69357af46764c0f", "fusion_lat": 0.0, "type": "electric_scooter", "lat": 38.890157, "is_reserved": 0, "is_disabled": 0, "fusion_lon": 0.0, "bike_id": "4a0bb7f4636230c1d69357af46764c0f", "lon": -76.9373345, "rental_uris": {"ios": "https://dc.lft.to/lastmile_qr_scan", "android": "https://dc.lft.to/lastmile_qr_scan"}}, {"name": "5bdc557e3a72e6cb7a9ad8f45e77283e", "fusion_lat": 0.0, "type": "electric_scooter", "lat": 38.8973155, "is_reserved": 0, "is_disabled": 0, "fusion_lon": 0.0, "bike_id": "5bdc557e3a72e6cb7a9ad8f45e77283e", "lon": -77.04765366666666, "rental_uris": {"ios": "https://dc.lft.to/lastmile_qr_scan", "android": "https://dc.lft.to/lastmile_qr_scan"}}, {"name": "f9990754ff10c724986b7ea75f37cfa2", "fusion_lat": 0.0, "type": "electric_scooter", "lat": 38.9124835, "is_reserved": 0, "is_disabled": 0, "fusion_lon": 0.0, "bike_id": "f9990754ff10c724986b7ea75f37cfa2", "lon": -77.0076325, "rental_uris": {"ios": "https://dc.lft.to/lastmile_qr_scan", "android": "https://dc.lft.to/lastmile_qr_scan"}}, {"name": "b4287b9b6e51e3694f9f99207ce07c57", "fusion_lat": 0.0, "type": "electric_scooter", "lat": 38.86370616666667, "is_reserved": 0, "is_disabled": 0, "fusion_lon": 0.0, "bike_id": "b4287b9b6e51e3694f9f99207ce07c57", "lon": -77.01364166666667, "rental_uris": {"ios": "https://dc.lft.to/lastmile_qr_scan", "android": "https://dc.lft.to/lastmile_qr_scan"}}, {"name": "76785672cb8351c5ef3dea4126dbd16e", "fusion_lat": 0.0, "type": "electric_scooter", "lat": 38.9270095, "is_reserved": 0, "is_disabled": 0, "fusion_lon": 0.0, "bike_id": "76785672cb8351c5ef3dea4126dbd16e", "lon": -77.03732233333334, "rental_uris": {"ios": "https://dc.lft.to/lastmile_qr_scan", "android": "https://dc.lft.to/lastmile_qr_scan"}}, {"name": "36a08baf02caa15aeb75faa4ca005891", "fusion_lat": 0.0, "type": "electric_scooter", "lat": 38.924166, "is_reserved": 0, "is_disabled": 0, "fusion_lon": 0.0, "bike_id": "36a08baf02caa15aeb75faa4ca005891", "lon": -77.01949433333333, "rental_uris": {"ios": "https://dc.lft.to/lastmile_qr_scan", "android": "https://dc.lft.to/lastmile_qr_scan"}}, {"name": "e72ed3e91ce33ff91d9afbd152a0fef5", "fusion_lat": 0.0, "type": "electric_scooter", "lat": 38.90473166666666, "is_reserved": 0, "is_disabled": 0, "fusion_lon": 0.0, "bike_id": "e72ed3e91ce33ff91d9afbd152a0fef5", "lon": -77.041747, "rental_uris": {"ios": "https://dc.lft.to/lastmile_qr_scan", "android": "https://dc.lft.to/lastmile_qr_scan"}}, {"name": "4e12e9a81cb5a7666997fbf11473b597", "fusion_lat": 0.0, "type": "electric_scooter", "lat": 38.896652333333336, "is_reserved": 0, "is_disabled": 0, "fusion_lon": 0.0, "bike_id": "4e12e9a81cb5a7666997fbf11473b597", "lon": -77.04906533333333, "rental_uris": {"ios": "https://dc.lft.to/lastmile_qr_scan", "android": "https://dc.lft.to/lastmile_qr_scan"}}, {"name": "bc9d454de7f9cfb1a903ea70373fb25c", "fusion_lat": 0.0, "type": "electric_bike", "lat": 38.954777, "is_reserved": 0, "is_disabled": 0, "fusion_lon": 0.0, "bike_id": "bc9d454de7f9cfb1a903ea70373fb25c", "lon": -77.08240483333333, "rental_uris": {"ios": "https://dc.lft.to/lastmile_qr_scan", "android": "https://dc.lft.to/lastmile_qr_scan"}}, {"name": "fe3f1c335739a7bf7c38c603f5469842", "fusion_lat": 0.0, "type": "electric_scooter", "lat": 38.919331, "is_reserved": 0, "is_disabled": 0, "fusion_lon": 0.0, "bike_id": "fe3f1c335739a7bf7c38c603f5469842", "lon": -77.02391883333334, "rental_uris": {"ios": "https://dc.lft.to/lastmile_qr_scan", "android": "https://dc.lft.to/lastmile_qr_scan"}}, {"name": "31382f99f7153724c63e034f721689ff", "fusion_lat": 0.0, "type": "electric_scooter", "lat": 38.906583166666664, "is_reserved": 0, "is_disabled": 0, "fusion_lon": 0.0, "bike_id": "31382f99f7153724c63e034f721689ff", "lon": -77.03825316666666, "rental_uris": {"ios": "https://dc.lft.to/lastmile_qr_scan", "android": "https://dc.lft.to/lastmile_qr_scan"}}, {"name": "26834c1c0a6859539676e13a4a38e34d", "fusion_lat": 0.0, "type": "electric_scooter", "lat": 38.9053725, "is_reserved": 0, "is_disabled": 0, "fusion_lon": 0.0, "bike_id": "26834c1c0a6859539676e13a4a38e34d", "lon": -77.0220205, "rental_uris": {"ios": "https://dc.lft.to/lastmile_qr_scan", "android": "https://dc.lft.to/lastmile_qr_scan"}}, {"name": "7c54f3221c5b71afc53bf6fcf62b4cca", "fusion_lat": 0.0, "type": "electric_scooter", "lat": 38.90459, "is_reserved": 0, "is_disabled": 0, "fusion_lon": 0.0, "bike_id": "7c54f3221c5b71afc53bf6fcf62b4cca", "lon": -77.04169233333333, "rental_uris": {"ios": "https://dc.lft.to/lastmile_qr_scan", "android": "https://dc.lft.to/lastmile_qr_scan"}}, {"name": "eb038e5507d17017223afb6dfa373ead", "fusion_lat": 0.0, "type": "electric_scooter", "lat": 38.914791666666666, "is_reserved": 0, "is_disabled": 0, "fusion_lon": 0.0, "bike_id": "eb038e5507d17017223afb6dfa373ead", "lon": -77.04609366666666, "rental_uris": {"ios": "https://dc.lft.to/lastmile_qr_scan", "android": "https://dc.lft.to/lastmile_qr_scan"}}, {"name": "0273fae28b424ac43b46ae7a1c1e783f", "fusion_lat": 0.0, "type": "electric_scooter", "lat": 38.902416333333335, "is_reserved": 0, "is_disabled": 0, "fusion_lon": 0.0, "bike_id": "0273fae28b424ac43b46ae7a1c1e783f", "lon": -77.01958383333333, "rental_uris": {"ios": "https://dc.lft.to/lastmile_qr_scan", "android": "https://dc.lft.to/lastmile_qr_scan"}}, {"name": "f00a3f2a9f6354bdf21d96b34f7b9a4e", "fusion_lat": 0.0, "type": "electric_scooter", "lat": 38.91873966666667, "is_reserved": 0, "is_disabled": 0, "fusion_lon": 0.0, "bike_id": "f00a3f2a9f6354bdf21d96b34f7b9a4e", "lon": -77.03649733333333, "rental_uris": {"ios": "https://dc.lft.to/lastmile_qr_scan", "android": "https://dc.lft.to/lastmile_qr_scan"}}, {"name": "129eb9f3fd3d0f288c265259e037eef4", "fusion_lat": 0.0, "type": "electric_scooter", "lat": 38.90969316666666, "is_reserved": 0, "is_disabled": 0, "fusion_lon": 0.0, "bike_id": "129eb9f3fd3d0f288c265259e037eef4", "lon": -77.0448095, "rental_uris": {"ios": "https://dc.lft.to/lastmile_qr_scan", "android": "https://dc.lft.to/lastmile_qr_scan"}}, {"name": "892872aec831c3d9a2fd3613dc31f466", "fusion_lat": 0.0, "type": "electric_scooter", "lat": 38.88341533333333, "is_reserved": 0, "is_disabled": 0, "fusion_lon": 0.0, "bike_id": "892872aec831c3d9a2fd3613dc31f466", "lon": -77.031798, "rental_uris": {"ios": "https://dc.lft.to/lastmile_qr_scan", "android": "https://dc.lft.to/lastmile_qr_scan"}}, {"name": "b5468068db0c52dd1ea3899d2c6cbe14", "fusion_lat": 0.0, "type": "electric_scooter", "lat": 38.86509733333333, "is_reserved": 0, "is_disabled": 0, "fusion_lon": 0.0, "bike_id": "b5468068db0c52dd1ea3899d2c6cbe14", "lon": -76.97340016666666, "rental_uris": {"ios": "https://dc.lft.to/lastmile_qr_scan", "android": "https://dc.lft.to/lastmile_qr_scan"}}, {"name": "1296c66383d928c474a34fe70979b72a", "fusion_lat": 0.0, "type": "electric_scooter", "lat": 38.894707833333335, "is_reserved": 0, "is_disabled": 0, "fusion_lon": 0.0, "bike_id": "1296c66383d928c474a34fe70979b72a", "lon": -76.98399116666667, "rental_uris": {"ios": "https://dc.lft.to/lastmile_qr_scan", "android": "https://dc.lft.to/lastmile_qr_scan"}}, {"name": "ddf4060a535780977792ba00067ce505", "fusion_lat": 0.0, "type": "electric_scooter", "lat": 38.899175166666666, "is_reserved": 0, "is_disabled": 0, "fusion_lon": 0.0, "bike_id": "ddf4060a535780977792ba00067ce505", "lon": -76.933809, "rental_uris": {"ios": "https://dc.lft.to/lastmile_qr_scan", "android": "https://dc.lft.to/lastmile_qr_scan"}}, {"name": "e51c44e92ca5ecb68f358c434b68f22f", "fusion_lat": 0.0, "type": "electric_bike", "lat": 38.872251, "is_reserved": 0, "is_disabled": 0, "fusion_lon": 0.0, "bike_id": "e51c44e92ca5ecb68f358c434b68f22f", "lon": -77.01171533333333, "rental_uris": {"ios": "https://dc.lft.to/lastmile_qr_scan", "android": "https://dc.lft.to/lastmile_qr_scan"}}, {"name": "93221712221b5574a4a7c7fa19c1ad01", "fusion_lat": 0.0, "type": "electric_scooter", "lat": 38.8850505, "is_reserved": 0, "is_disabled": 0, "fusion_lon": 0.0, "bike_id": "93221712221b5574a4a7c7fa19c1ad01", "lon": -77.00572583333333, "rental_uris": {"ios": "https://dc.lft.to/lastmile_qr_scan", "android": "https://dc.lft.to/lastmile_qr_scan"}}, {"name": "9de656eca6dc710d553d34509cc96d50", "fusion_lat": 0.0, "type": "electric_scooter", "lat": 38.905589166666665, "is_reserved": 0, "is_disabled": 0, "fusion_lon": 0.0, "bike_id": "9de656eca6dc710d553d34509cc96d50", "lon": -77.04161783333333, "rental_uris": {"ios": "https://dc.lft.to/lastmile_qr_scan", "android": "https://dc.lft.to/lastmile_qr_scan"}}, {"name": "cbdfdcbf50140b98bf4df0eff31c9981", "fusion_lat": 0.0, "type": "electric_scooter", "lat": 38.94306366666667, "is_reserved": 0, "is_disabled": 0, "fusion_lon": 0.0, "bike_id": "cbdfdcbf50140b98bf4df0eff31c9981", "lon": -77.05907016666667, "rental_uris": {"ios": "https://dc.lft.to/lastmile_qr_scan", "android": "https://dc.lft.to/lastmile_qr_scan"}}, {"name": "55f6620837918943155e2470d46136c8", "fusion_lat": 0.0, "type": "electric_bike", "lat": 38.9397095, "is_reserved": 0, "is_disabled": 0, "fusion_lon": 0.0, "bike_id": "55f6620837918943155e2470d46136c8", "lon": -76.98653333333333, "rental_uris": {"ios": "https://dc.lft.to/lastmile_qr_scan", "android": "https://dc.lft.to/lastmile_qr_scan"}}, {"name": "c568efaa5a314fcc09f96ac00d0ca7b3", "fusion_lat": 0.0, "type": "electric_scooter", "lat": 38.87630733333334, "is_reserved": 0, "is_disabled": 0, "fusion_lon": 0.0, "bike_id": "c568efaa5a314fcc09f96ac00d0ca7b3", "lon": -77.00834116666667, "rental_uris": {"ios": "https://dc.lft.to/lastmile_qr_scan", "android": "https://dc.lft.to/lastmile_qr_scan"}}, {"name": "6ee82f90a9ac5d0c1a052ff62081103e", "fusion_lat": 0.0, "type": "electric_bike", "lat": 38.88131383333333, "is_reserved": 0, "is_disabled": 0, "fusion_lon": 0.0, "bike_id": "6ee82f90a9ac5d0c1a052ff62081103e", "lon": -76.98090683333334, "rental_uris": {"ios": "https://dc.lft.to/lastmile_qr_scan", "android": "https://dc.lft.to/lastmile_qr_scan"}}, {"name": "28541b9b6349c46468a6e1991f2426e2", "fusion_lat": 0.0, "type": "electric_scooter", "lat": 38.89857416666667, "is_reserved": 0, "is_disabled": 0, "fusion_lon": 0.0, "bike_id": "28541b9b6349c46468a6e1991f2426e2", "lon": -76.97556283333333, "rental_uris": {"ios": "https://dc.lft.to/lastmile_qr_scan", "android": "https://dc.lft.to/lastmile_qr_scan"}}, {"name": "65496946157834fd1f4ff6c9d37b2479", "fusion_lat": 0.0, "type": "electric_bike", "lat": 38.8343305, "is_reserved": 0, "is_disabled": 0, "fusion_lon": 0.0, "bike_id": "65496946157834fd1f4ff6c9d37b2479", "lon": -77.0082425, "rental_uris": {"ios": "https://dc.lft.to/lastmile_qr_scan", "android": "https://dc.lft.to/lastmile_qr_scan"}}, {"name": "26f1e3471031ce1b6e0a78b9e32dab85", "fusion_lat": 0.0, "type": "electric_scooter", "lat": 38.893566666666665, "is_reserved": 0, "is_disabled": 0, "fusion_lon": 0.0, "bike_id": "26f1e3471031ce1b6e0a78b9e32dab85", "lon": -76.94985666666666, "rental_uris": {"ios": "https://dc.lft.to/lastmile_qr_scan", "android": "https://dc.lft.to/lastmile_qr_scan"}}, {"name": "65634c0af2bb983539f25e84e89a583c", "fusion_lat": 0.0, "type": "electric_scooter", "lat": 38.897182666666666, "is_reserved": 0, "is_disabled": 0, "fusion_lon": 0.0, "bike_id": "65634c0af2bb983539f25e84e89a583c", "lon": -77.02402866666667, "rental_uris": {"ios": "https://dc.lft.to/lastmile_qr_scan", "android": "https://dc.lft.to/lastmile_qr_scan"}}, {"name": "a2aa551499a08194e907b3876c34016a", "fusion_lat": 0.0, "type": "electric_scooter", "lat": 38.8922145, "is_reserved": 0, "is_disabled": 0, "fusion_lon": 0.0, "bike_id": "a2aa551499a08194e907b3876c34016a", "lon": -77.01372733333334, "rental_uris": {"ios": "https://dc.lft.to/lastmile_qr_scan", "android": "https://dc.lft.to/lastmile_qr_scan"}}, {"name": "13875402206cdc8ae24e3fcc6fb858f9", "fusion_lat": 0.0, "type": "electric_scooter", "lat": 38.91044, "is_reserved": 0, "is_disabled": 0, "fusion_lon": 0.0, "bike_id": "13875402206cdc8ae24e3fcc6fb858f9", "lon": -77.04239683333333, "rental_uris": {"ios": "https://dc.lft.to/lastmile_qr_scan", "android": "https://dc.lft.to/lastmile_qr_scan"}}, {"name": "653cd4c1c0e9a9e016df14a0f2f787e8", "fusion_lat": 0.0, "type": "electric_scooter", "lat": 38.90042733333333, "is_reserved": 0, "is_disabled": 0, "fusion_lon": 0.0, "bike_id": "653cd4c1c0e9a9e016df14a0f2f787e8", "lon": -76.98840416666667, "rental_uris": {"ios": "https://dc.lft.to/lastmile_qr_scan", "android": "https://dc.lft.to/lastmile_qr_scan"}}, {"name": "bf5d4b8fbaf61d9982d9ca0e3774654c", "fusion_lat": 0.0, "type": "electric_scooter", "lat": 38.911054166666666, "is_reserved": 0, "is_disabled": 0, "fusion_lon": 0.0, "bike_id": "bf5d4b8fbaf61d9982d9ca0e3774654c", "lon": -77.03920316666667, "rental_uris": {"ios": "https://dc.lft.to/lastmile_qr_scan", "android": "https://dc.lft.to/lastmile_qr_scan"}}, {"name": "aee01b7338a97f1922f3ce499e651906", "fusion_lat": 0.0, "type": "electric_bike", "lat": 38.869020666666664, "is_reserved": 0, "is_disabled": 0, "fusion_lon": 0.0, "bike_id": "aee01b7338a97f1922f3ce499e651906", "lon": -77.13182733333333, "rental_uris": {"ios": "https://dc.lft.to/lastmile_qr_scan", "android": "https://dc.lft.to/lastmile_qr_scan"}}, {"name": "aa69ccbef412f5e165ee4a0f67c27f1c", "fusion_lat": 0.0, "type": "electric_scooter", "lat": 38.90695216666667, "is_reserved": 0, "is_disabled": 0, "fusion_lon": 0.0, "bike_id": "aa69ccbef412f5e165ee4a0f67c27f1c", "lon": -77.02406766666667, "rental_uris": {"ios": "https://dc.lft.to/lastmile_qr_scan", "android": "https://dc.lft.to/lastmile_qr_scan"}}, {"name": "d5b2bc13182b94bb646a9be13d659d1f", "fusion_lat": 0.0, "type": "electric_scooter", "lat": 38.91759533333333, "is_reserved": 0, "is_disabled": 0, "fusion_lon": 0.0, "bike_id": "d5b2bc13182b94bb646a9be13d659d1f", "lon": -77.0271085, "rental_uris": {"ios": "https://dc.lft.to/lastmile_qr_scan", "android": "https://dc.lft.to/lastmile_qr_scan"}}, {"name": "8d9bcc621bba8817aa51c1b60bf47256", "fusion_lat": 0.0, "type": "electric_scooter", "lat": 38.909660333333335, "is_reserved": 0, "is_disabled": 0, "fusion_lon": 0.0, "bike_id": "8d9bcc621bba8817aa51c1b60bf47256", "lon": -77.02176483333334, "rental_uris": {"ios": "https://dc.lft.to/lastmile_qr_scan", "android": "https://dc.lft.to/lastmile_qr_scan"}}, {"name": "267809c659a0f44726f0dfd089828a87", "fusion_lat": 0.0, "type": "electric_scooter", "lat": 38.8442205, "is_reserved": 0, "is_disabled": 0, "fusion_lon": 0.0, "bike_id": "267809c659a0f44726f0dfd089828a87", "lon": -76.99778416666666, "rental_uris": {"ios": "https://dc.lft.to/lastmile_qr_scan", "android": "https://dc.lft.to/lastmile_qr_scan"}}, {"name": "7f4de6e9c1d05d8fedaa1a80352c8ba2", "fusion_lat": 0.0, "type": "electric_scooter", "lat": 38.93150116666666, "is_reserved": 0, "is_disabled": 0, "fusion_lon": 0.0, "bike_id": "7f4de6e9c1d05d8fedaa1a80352c8ba2", "lon": -77.02975966666666, "rental_uris": {"ios": "https://dc.lft.to/lastmile_qr_scan", "android": "https://dc.lft.to/lastmile_qr_scan"}}, {"name": "e8478faee0c3bad834496be8b09ab11b", "fusion_lat": 0.0, "type": "electric_scooter", "lat": 38.92961533333333, "is_reserved": 0, "is_disabled": 0, "fusion_lon": 0.0, "bike_id": "e8478faee0c3bad834496be8b09ab11b", "lon": -77.04109666666666, "rental_uris": {"ios": "https://dc.lft.to/lastmile_qr_scan", "android": "https://dc.lft.to/lastmile_qr_scan"}}, {"name": "698f98ffbb13388d6905dcbdeab06bd1", "fusion_lat": 0.0, "type": "electric_scooter", "lat": 38.875794166666665, "is_reserved": 0, "is_disabled": 0, "fusion_lon": 0.0, "bike_id": "698f98ffbb13388d6905dcbdeab06bd1", "lon": -77.010682, "rental_uris": {"ios": "https://dc.lft.to/lastmile_qr_scan", "android": "https://dc.lft.to/lastmile_qr_scan"}}, {"name": "a4e637f5061393080b9206f99d2a1c07", "fusion_lat": 0.0, "type": "electric_scooter", "lat": 38.911067333333335, "is_reserved": 0, "is_disabled": 0, "fusion_lon": 0.0, "bike_id": "a4e637f5061393080b9206f99d2a1c07", "lon": -77.02461616666666, "rental_uris": {"ios": "https://dc.lft.to/lastmile_qr_scan", "android": "https://dc.lft.to/lastmile_qr_scan"}}, {"name": "baa5f49f2fb4cc5172d97fd04c80c6d7", "fusion_lat": 0.0, "type": "electric_scooter", "lat": 38.91756616666667, "is_reserved": 0, "is_disabled": 0, "fusion_lon": 0.0, "bike_id": "baa5f49f2fb4cc5172d97fd04c80c6d7", "lon": -77.09670516666667, "rental_uris": {"ios": "https://dc.lft.to/lastmile_qr_scan", "android": "https://dc.lft.to/lastmile_qr_scan"}}, {"name": "03c123b7ab645a2d855df26efdf0e6ab", "fusion_lat": 0.0, "type": "electric_scooter", "lat": 38.90984783333333, "is_reserved": 0, "is_disabled": 0, "fusion_lon": 0.0, "bike_id": "03c123b7ab645a2d855df26efdf0e6ab", "lon": -77.042606, "rental_uris": {"ios": "https://dc.lft.to/lastmile_qr_scan", "android": "https://dc.lft.to/lastmile_qr_scan"}}, {"name": "78bea35d5401f6dee32e742b78932cbf", "fusion_lat": 0.0, "type": "electric_scooter", "lat": 38.92512833333333, "is_reserved": 0, "is_disabled": 0, "fusion_lon": 0.0, "bike_id": "78bea35d5401f6dee32e742b78932cbf", "lon": -77.00176716666667, "rental_uris": {"ios": "https://dc.lft.to/lastmile_qr_scan", "android": "https://dc.lft.to/lastmile_qr_scan"}}, {"name": "99bf6e14abb4ead7005b4cc08ebf8511", "fusion_lat": 0.0, "type": "electric_scooter", "lat": 38.89502733333333, "is_reserved": 0, "is_disabled": 0, "fusion_lon": 0.0, "bike_id": "99bf6e14abb4ead7005b4cc08ebf8511", "lon": -77.01124216666666, "rental_uris": {"ios": "https://dc.lft.to/lastmile_qr_scan", "android": "https://dc.lft.to/lastmile_qr_scan"}}, {"name": "1c85a2ab79e1588eba9dd96a80b35ddc", "fusion_lat": 0.0, "type": "electric_scooter", "lat": 38.9169765, "is_reserved": 0, "is_disabled": 0, "fusion_lon": 0.0, "bike_id": "1c85a2ab79e1588eba9dd96a80b35ddc", "lon": -77.0187955, "rental_uris": {"ios": "https://dc.lft.to/lastmile_qr_scan", "android": "https://dc.lft.to/lastmile_qr_scan"}}, {"name": "ba99dc32bce5cb5cfae6c827980d46cf", "fusion_lat": 0.0, "type": "electric_scooter", "lat": 38.924864166666666, "is_reserved": 0, "is_disabled": 0, "fusion_lon": 0.0, "bike_id": "ba99dc32bce5cb5cfae6c827980d46cf", "lon": -77.02708966666667, "rental_uris": {"ios": "https://dc.lft.to/lastmile_qr_scan", "android": "https://dc.lft.to/lastmile_qr_scan"}}, {"name": "6b604b591ac7a0a853ed2574a477a9e5", "fusion_lat": 0.0, "type": "electric_scooter", "lat": 38.8955215, "is_reserved": 0, "is_disabled": 0, "fusion_lon": 0.0, "bike_id": "6b604b591ac7a0a853ed2574a477a9e5", "lon": -76.94876716666667, "rental_uris": {"ios": "https://dc.lft.to/lastmile_qr_scan", "android": "https://dc.lft.to/lastmile_qr_scan"}}, {"name": "c3b3e99bd03e1753d65331fcf7df981f", "fusion_lat": 0.0, "type": "electric_scooter", "lat": 38.93240816666667, "is_reserved": 0, "is_disabled": 0, "fusion_lon": 0.0, "bike_id": "c3b3e99bd03e1753d65331fcf7df981f", "lon": -77.03849266666667, "rental_uris": {"ios": "https://dc.lft.to/lastmile_qr_scan", "android": "https://dc.lft.to/lastmile_qr_scan"}}, {"name": "be0aeeb2525cbee4eadee01faad6cc4b", "fusion_lat": 0.0, "type": "electric_scooter", "lat": 38.896146333333334, "is_reserved": 0, "is_disabled": 0, "fusion_lon": 0.0, "bike_id": "be0aeeb2525cbee4eadee01faad6cc4b", "lon": -77.04465416666666, "rental_uris": {"ios": "https://dc.lft.to/lastmile_qr_scan", "android": "https://dc.lft.to/lastmile_qr_scan"}}, {"name": "8feadbc960032d8565ddfb07de3d94ce", "fusion_lat": 0.0, "type": "electric_scooter", "lat": 38.90257916666667, "is_reserved": 0, "is_disabled": 0, "fusion_lon": 0.0, "bike_id": "8feadbc960032d8565ddfb07de3d94ce", "lon": -77.01876733333333, "rental_uris": {"ios": "https://dc.lft.to/lastmile_qr_scan", "android": "https://dc.lft.to/lastmile_qr_scan"}}, {"name": "331464bde9db9759393f8d413d03df42", "fusion_lat": 0.0, "type": "electric_scooter", "lat": 38.866517, "is_reserved": 0, "is_disabled": 0, "fusion_lon": 0.0, "bike_id": "331464bde9db9759393f8d413d03df42", "lon": -76.98883466666666, "rental_uris": {"ios": "https://dc.lft.to/lastmile_qr_scan", "android": "https://dc.lft.to/lastmile_qr_scan"}}, {"name": "0a76664a93850a03dbafc4af19da18e1", "fusion_lat": 0.0, "type": "electric_scooter", "lat": 38.9067585, "is_reserved": 0, "is_disabled": 0, "fusion_lon": 0.0, "bike_id": "0a76664a93850a03dbafc4af19da18e1", "lon": -77.04662933333333, "rental_uris": {"ios": "https://dc.lft.to/lastmile_qr_scan", "android": "https://dc.lft.to/lastmile_qr_scan"}}, {"name": "99c5e896496336c52de416cbe46fa339", "fusion_lat": 0.0, "type": "electric_scooter", "lat": 38.912913, "is_reserved": 0, "is_disabled": 0, "fusion_lon": 0.0, "bike_id": "99c5e896496336c52de416cbe46fa339", "lon": -76.93742133333333, "rental_uris": {"ios": "https://dc.lft.to/lastmile_qr_scan", "android": "https://dc.lft.to/lastmile_qr_scan"}}, {"name": "815f92fe3b9099c973dda94d521fb3ce", "fusion_lat": 0.0, "type": "electric_scooter", "lat": 38.9198185, "is_reserved": 0, "is_disabled": 0, "fusion_lon": 0.0, "bike_id": "815f92fe3b9099c973dda94d521fb3ce", "lon": -77.02500816666667, "rental_uris": {"ios": "https://dc.lft.to/lastmile_qr_scan", "android": "https://dc.lft.to/lastmile_qr_scan"}}, {"name": "665df1982ac762dd123eb50c17073b3e", "fusion_lat": 0.0, "type": "electric_scooter", "lat": 38.9317695, "is_reserved": 0, "is_disabled": 0, "fusion_lon": 0.0, "bike_id": "665df1982ac762dd123eb50c17073b3e", "lon": -77.05611883333333, "rental_uris": {"ios": "https://dc.lft.to/lastmile_qr_scan", "android": "https://dc.lft.to/lastmile_qr_scan"}}, {"name": "5e48822bfd1b99ef90ab4ec3d0579a15", "fusion_lat": 0.0, "type": "electric_bike", "lat": 38.965489, "is_reserved": 0, "is_disabled": 0, "fusion_lon": 0.0, "bike_id": "5e48822bfd1b99ef90ab4ec3d0579a15", "lon": -77.03516216666667, "rental_uris": {"ios": "https://dc.lft.to/lastmile_qr_scan", "android": "https://dc.lft.to/lastmile_qr_scan"}}, {"name": "a760da687e20a2544209baa389bce0ba", "fusion_lat": 0.0, "type": "electric_scooter", "lat": 38.9243345, "is_reserved": 0, "is_disabled": 0, "fusion_lon": 0.0, "bike_id": "a760da687e20a2544209baa389bce0ba", "lon": -77.04141516666667, "rental_uris": {"ios": "https://dc.lft.to/lastmile_qr_scan", "android": "https://dc.lft.to/lastmile_qr_scan"}}, {"name": "0513096d47a42f2b2341846e58e27a96", "fusion_lat": 0.0, "type": "electric_scooter", "lat": 38.91984983333333, "is_reserved": 0, "is_disabled": 0, "fusion_lon": 0.0, "bike_id": "0513096d47a42f2b2341846e58e27a96", "lon": -77.033203, "rental_uris": {"ios": "https://dc.lft.to/lastmile_qr_scan", "android": "https://dc.lft.to/lastmile_qr_scan"}}, {"name": "82a92d414abbacce3a1730651bf37cbe", "fusion_lat": 0.0, "type": "electric_scooter", "lat": 38.87705033333334, "is_reserved": 0, "is_disabled": 0, "fusion_lon": 0.0, "bike_id": "82a92d414abbacce3a1730651bf37cbe", "lon": -76.99387016666667, "rental_uris": {"ios": "https://dc.lft.to/lastmile_qr_scan", "android": "https://dc.lft.to/lastmile_qr_scan"}}, {"name": "69f63fd3a55f91e8cf7e12be4a9955ed", "fusion_lat": 0.0, "type": "electric_scooter", "lat": 38.92059283333333, "is_reserved": 0, "is_disabled": 0, "fusion_lon": 0.0, "bike_id": "69f63fd3a55f91e8cf7e12be4a9955ed", "lon": -77.047003, "rental_uris": {"ios": "https://dc.lft.to/lastmile_qr_scan", "android": "https://dc.lft.to/lastmile_qr_scan"}}, {"name": "db7e69a54d2591709a8fe8b3796c3a01", "fusion_lat": 0.0, "type": "electric_scooter", "lat": 38.919726, "is_reserved": 0, "is_disabled": 0, "fusion_lon": 0.0, "bike_id": "db7e69a54d2591709a8fe8b3796c3a01", "lon": -77.02522583333334, "rental_uris": {"ios": "https://dc.lft.to/lastmile_qr_scan", "android": "https://dc.lft.to/lastmile_qr_scan"}}, {"name": "59d678c3ab583502bf0a1110cc8aa00c", "fusion_lat": 0.0, "type": "electric_scooter", "lat": 38.89085816666667, "is_reserved": 0, "is_disabled": 0, "fusion_lon": 0.0, "bike_id": "59d678c3ab583502bf0a1110cc8aa00c", "lon": -76.9978925, "rental_uris": {"ios": "https://dc.lft.to/lastmile_qr_scan", "android": "https://dc.lft.to/lastmile_qr_scan"}}, {"name": "367e765dfcbf475c3692f1db099eac23", "fusion_lat": 0.0, "type": "electric_scooter", "lat": 38.902673166666666, "is_reserved": 0, "is_disabled": 0, "fusion_lon": 0.0, "bike_id": "367e765dfcbf475c3692f1db099eac23", "lon": -77.04462133333334, "rental_uris": {"ios": "https://dc.lft.to/lastmile_qr_scan", "android": "https://dc.lft.to/lastmile_qr_scan"}}, {"name": "e71fabe6e6f06d1f5aca5aed3f973db6", "fusion_lat": 0.0, "type": "electric_scooter", "lat": 38.89725283333333, "is_reserved": 0, "is_disabled": 0, "fusion_lon": 0.0, "bike_id": "e71fabe6e6f06d1f5aca5aed3f973db6", "lon": -77.043366, "rental_uris": {"ios": "https://dc.lft.to/lastmile_qr_scan", "android": "https://dc.lft.to/lastmile_qr_scan"}}, {"name": "ff3b7f263237cc7bd0904630620a5176", "fusion_lat": 0.0, "type": "electric_scooter", "lat": 38.91667, "is_reserved": 0, "is_disabled": 0, "fusion_lon": 0.0, "bike_id": "ff3b7f263237cc7bd0904630620a5176", "lon": -77.04205233333333, "rental_uris": {"ios": "https://dc.lft.to/lastmile_qr_scan", "android": "https://dc.lft.to/lastmile_qr_scan"}}, {"name": "b5d0a872d51b4ba9e48c5ef18761169a", "fusion_lat": 0.0, "type": "electric_scooter", "lat": 38.892212666666666, "is_reserved": 0, "is_disabled": 0, "fusion_lon": 0.0, "bike_id": "b5d0a872d51b4ba9e48c5ef18761169a", "lon": -77.0320525, "rental_uris": {"ios": "https://dc.lft.to/lastmile_qr_scan", "android": "https://dc.lft.to/lastmile_qr_scan"}}, {"name": "a2dacff1dcd6d3ab347ad7381c60755c", "fusion_lat": 0.0, "type": "electric_scooter", "lat": 38.83232566666667, "is_reserved": 0, "is_disabled": 0, "fusion_lon": 0.0, "bike_id": "a2dacff1dcd6d3ab347ad7381c60755c", "lon": -76.988913, "rental_uris": {"ios": "https://dc.lft.to/lastmile_qr_scan", "android": "https://dc.lft.to/lastmile_qr_scan"}}, {"name": "3dba6a5b36f0698efae1f2f39b3cd834", "fusion_lat": 0.0, "type": "electric_scooter", "lat": 38.903757166666665, "is_reserved": 0, "is_disabled": 0, "fusion_lon": 0.0, "bike_id": "3dba6a5b36f0698efae1f2f39b3cd834", "lon": -77.02721433333333, "rental_uris": {"ios": "https://dc.lft.to/lastmile_qr_scan", "android": "https://dc.lft.to/lastmile_qr_scan"}}, {"name": "e8ab3699e3e8ed16d21db102d4dbafc8", "fusion_lat": 0.0, "type": "electric_scooter", "lat": 38.927508833333334, "is_reserved": 0, "is_disabled": 0, "fusion_lon": 0.0, "bike_id": "e8ab3699e3e8ed16d21db102d4dbafc8", "lon": -77.02421116666666, "rental_uris": {"ios": "https://dc.lft.to/lastmile_qr_scan", "android": "https://dc.lft.to/lastmile_qr_scan"}}, {"name": "6ff27c2857a6209f4b18af6ffe638744", "fusion_lat": 0.0, "type": "electric_bike", "lat": 38.84347366666667, "is_reserved": 0, "is_disabled": 0, "fusion_lon": 0.0, "bike_id": "6ff27c2857a6209f4b18af6ffe638744", "lon": -77.06401333333334, "rental_uris": {"ios": "https://dc.lft.to/lastmile_qr_scan", "android": "https://dc.lft.to/lastmile_qr_scan"}}, {"name": "639532eb1d7696a33f4e9e75b3e06e1e", "fusion_lat": 0.0, "type": "electric_scooter", "lat": 38.877103, "is_reserved": 0, "is_disabled": 0, "fusion_lon": 0.0, "bike_id": "639532eb1d7696a33f4e9e75b3e06e1e", "lon": -77.01758466666666, "rental_uris": {"ios": "https://dc.lft.to/lastmile_qr_scan", "android": "https://dc.lft.to/lastmile_qr_scan"}}, {"name": "92b063691582069025ef2f2e6423422c", "fusion_lat": 0.0, "type": "electric_scooter", "lat": 38.92379866666667, "is_reserved": 0, "is_disabled": 0, "fusion_lon": 0.0, "bike_id": "92b063691582069025ef2f2e6423422c", "lon": -77.01915583333333, "rental_uris": {"ios": "https://dc.lft.to/lastmile_qr_scan", "android": "https://dc.lft.to/lastmile_qr_scan"}}, {"name": "123abdbdbed04c04b97a0d280870312b", "fusion_lat": 0.0, "type": "electric_bike", "lat": 39.0334495, "is_reserved": 0, "is_disabled": 0, "fusion_lon": 0.0, "bike_id": "123abdbdbed04c04b97a0d280870312b", "lon": -77.04909266666667, "rental_uris": {"ios": "https://dc.lft.to/lastmile_qr_scan", "android": "https://dc.lft.to/lastmile_qr_scan"}}, {"name": "0b5bc8d23043a281769d4b96b8c13413", "fusion_lat": 0.0, "type": "electric_scooter", "lat": 38.939539, "is_reserved": 0, "is_disabled": 0, "fusion_lon": 0.0, "bike_id": "0b5bc8d23043a281769d4b96b8c13413", "lon": -77.0722975, "rental_uris": {"ios": "https://dc.lft.to/lastmile_qr_scan", "android": "https://dc.lft.to/lastmile_qr_scan"}}, {"name": "e123328f87bb918305d02d4a13bbb035", "fusion_lat": 0.0, "type": "electric_scooter", "lat": 38.91132916666667, "is_reserved": 0, "is_disabled": 0, "fusion_lon": 0.0, "bike_id": "e123328f87bb918305d02d4a13bbb035", "lon": -77.0417955, "rental_uris": {"ios": "https://dc.lft.to/lastmile_qr_scan", "android": "https://dc.lft.to/lastmile_qr_scan"}}, {"name": "fbb43e44bdba2740a81232effe7f9330", "fusion_lat": 0.0, "type": "electric_scooter", "lat": 38.88713516666667, "is_reserved": 0, "is_disabled": 0, "fusion_lon": 0.0, "bike_id": "fbb43e44bdba2740a81232effe7f9330", "lon": -77.01776333333333, "rental_uris": {"ios": "https://dc.lft.to/lastmile_qr_scan", "android": "https://dc.lft.to/lastmile_qr_scan"}}, {"name": "1825a74f16f7b1db837979db97d06610", "fusion_lat": 0.0, "type": "electric_scooter", "lat": 38.90208, "is_reserved": 0, "is_disabled": 0, "fusion_lon": 0.0, "bike_id": "1825a74f16f7b1db837979db97d06610", "lon": -77.06127483333333, "rental_uris": {"ios": "https://dc.lft.to/lastmile_qr_scan", "android": "https://dc.lft.to/lastmile_qr_scan"}}, {"name": "53eb77885f583b7597414c90fb89ddf7", "fusion_lat": 0.0, "type": "electric_scooter", "lat": 38.88575516666667, "is_reserved": 0, "is_disabled": 0, "fusion_lon": 0.0, "bike_id": "53eb77885f583b7597414c90fb89ddf7", "lon": -76.99501033333334, "rental_uris": {"ios": "https://dc.lft.to/lastmile_qr_scan", "android": "https://dc.lft.to/lastmile_qr_scan"}}, {"name": "ec97f5af5054be9a5507c8028f7c0cc1", "fusion_lat": 0.0, "type": "electric_bike", "lat": 38.94626316666667, "is_reserved": 0, "is_disabled": 0, "fusion_lon": 0.0, "bike_id": "ec97f5af5054be9a5507c8028f7c0cc1", "lon": -77.080473, "rental_uris": {"ios": "https://dc.lft.to/lastmile_qr_scan", "android": "https://dc.lft.to/lastmile_qr_scan"}}, {"name": "86e66793880363eee4684c63f2d91f27", "fusion_lat": 0.0, "type": "electric_scooter", "lat": 38.9577355, "is_reserved": 0, "is_disabled": 0, "fusion_lon": 0.0, "bike_id": "86e66793880363eee4684c63f2d91f27", "lon": -77.02754133333333, "rental_uris": {"ios": "https://dc.lft.to/lastmile_qr_scan", "android": "https://dc.lft.to/lastmile_qr_scan"}}, {"name": "396671ef29c6b72cb46877a811b8f32a", "fusion_lat": 0.0, "type": "electric_scooter", "lat": 38.912493, "is_reserved": 0, "is_disabled": 0, "fusion_lon": 0.0, "bike_id": "396671ef29c6b72cb46877a811b8f32a", "lon": -77.03840466666666, "rental_uris": {"ios": "https://dc.lft.to/lastmile_qr_scan", "android": "https://dc.lft.to/lastmile_qr_scan"}}, {"name": "a654041a2fd1c0623e629c4a6b08a3db", "fusion_lat": 0.0, "type": "electric_scooter", "lat": 38.90358466666667, "is_reserved": 0, "is_disabled": 0, "fusion_lon": 0.0, "bike_id": "a654041a2fd1c0623e629c4a6b08a3db", "lon": -77.04245183333333, "rental_uris": {"ios": "https://dc.lft.to/lastmile_qr_scan", "android": "https://dc.lft.to/lastmile_qr_scan"}}, {"name": "1b931c3c0d5a800ac9318c34ddefed05", "fusion_lat": 0.0, "type": "electric_bike", "lat": 38.942597666666664, "is_reserved": 0, "is_disabled": 0, "fusion_lon": 0.0, "bike_id": "1b931c3c0d5a800ac9318c34ddefed05", "lon": -77.02839233333333, "rental_uris": {"ios": "https://dc.lft.to/lastmile_qr_scan", "android": "https://dc.lft.to/lastmile_qr_scan"}}, {"name": "333c1b66eb0d2a18159f47273c4668e3", "fusion_lat": 0.0, "type": "electric_scooter", "lat": 38.9026975, "is_reserved": 0, "is_disabled": 0, "fusion_lon": 0.0, "bike_id": "333c1b66eb0d2a18159f47273c4668e3", "lon": -77.06256233333333, "rental_uris": {"ios": "https://dc.lft.to/lastmile_qr_scan", "android": "https://dc.lft.to/lastmile_qr_scan"}}, {"name": "f0e67835e5ee7299af7c05a3b6793abb", "fusion_lat": 0.0, "type": "electric_scooter", "lat": 38.91827383333333, "is_reserved": 0, "is_disabled": 0, "fusion_lon": 0.0, "bike_id": "f0e67835e5ee7299af7c05a3b6793abb", "lon": -77.04559616666667, "rental_uris": {"ios": "https://dc.lft.to/lastmile_qr_scan", "android": "https://dc.lft.to/lastmile_qr_scan"}}, {"name": "b93a897157074baa48a2812a27df80c4", "fusion_lat": 0.0, "type": "electric_bike", "lat": 38.84476, "is_reserved": 0, "is_disabled": 0, "fusion_lon": 0.0, "bike_id": "b93a897157074baa48a2812a27df80c4", "lon": -76.972146, "rental_uris": {"ios": "https://dc.lft.to/lastmile_qr_scan", "android": "https://dc.lft.to/lastmile_qr_scan"}}, {"name": "45dcb93bed138f03ffa0268d38dbde65", "fusion_lat": 0.0, "type": "electric_scooter", "lat": 38.91713983333333, "is_reserved": 0, "is_disabled": 0, "fusion_lon": 0.0, "bike_id": "45dcb93bed138f03ffa0268d38dbde65", "lon": -77.0186465, "rental_uris": {"ios": "https://dc.lft.to/lastmile_qr_scan", "android": "https://dc.lft.to/lastmile_qr_scan"}}, {"name": "cb5606e0e99fe015f032659786df1e98", "fusion_lat": 0.0, "type": "electric_scooter", "lat": 38.917552666666666, "is_reserved": 0, "is_disabled": 0, "fusion_lon": 0.0, "bike_id": "cb5606e0e99fe015f032659786df1e98", "lon": -77.02515666666666, "rental_uris": {"ios": "https://dc.lft.to/lastmile_qr_scan", "android": "https://dc.lft.to/lastmile_qr_scan"}}, {"name": "e6a15e05021d709a70e6b198196f56f7", "fusion_lat": 0.0, "type": "electric_scooter", "lat": 38.892422, "is_reserved": 0, "is_disabled": 0, "fusion_lon": 0.0, "bike_id": "e6a15e05021d709a70e6b198196f56f7", "lon": -77.03955516666667, "rental_uris": {"ios": "https://dc.lft.to/lastmile_qr_scan", "android": "https://dc.lft.to/lastmile_qr_scan"}}, {"name": "989a9997634da41d4dcdeedcaf541698", "fusion_lat": 0.0, "type": "electric_scooter", "lat": 38.897262, "is_reserved": 0, "is_disabled": 0, "fusion_lon": 0.0, "bike_id": "989a9997634da41d4dcdeedcaf541698", "lon": -77.04645266666667, "rental_uris": {"ios": "https://dc.lft.to/lastmile_qr_scan", "android": "https://dc.lft.to/lastmile_qr_scan"}}, {"name": "fac8bc88ed2e065cf9cdb082c5efe36c", "fusion_lat": 0.0, "type": "electric_scooter", "lat": 38.90972583333333, "is_reserved": 0, "is_disabled": 0, "fusion_lon": 0.0, "bike_id": "fac8bc88ed2e065cf9cdb082c5efe36c", "lon": -77.0343495, "rental_uris": {"ios": "https://dc.lft.to/lastmile_qr_scan", "android": "https://dc.lft.to/lastmile_qr_scan"}}, {"name": "d7cb93de44b41fe7613f7a6cc572c9b1", "fusion_lat": 0.0, "type": "electric_bike", "lat": 38.85427283333333, "is_reserved": 0, "is_disabled": 0, "fusion_lon": 0.0, "bike_id": "d7cb93de44b41fe7613f7a6cc572c9b1", "lon": -76.9096905, "rental_uris": {"ios": "https://dc.lft.to/lastmile_qr_scan", "android": "https://dc.lft.to/lastmile_qr_scan"}}, {"name": "6daafd50eaf9ac87b930cdd372d23d57", "fusion_lat": 0.0, "type": "electric_scooter", "lat": 38.921078, "is_reserved": 0, "is_disabled": 0, "fusion_lon": 0.0, "bike_id": "6daafd50eaf9ac87b930cdd372d23d57", "lon": -77.0420745, "rental_uris": {"ios": "https://dc.lft.to/lastmile_qr_scan", "android": "https://dc.lft.to/lastmile_qr_scan"}}, {"name": "1e09358838e9b4eaa8a8256429eac6ba", "fusion_lat": 0.0, "type": "electric_scooter", "lat": 38.91474983333333, "is_reserved": 0, "is_disabled": 0, "fusion_lon": 0.0, "bike_id": "1e09358838e9b4eaa8a8256429eac6ba", "lon": -77.02198866666667, "rental_uris": {"ios": "https://dc.lft.to/lastmile_qr_scan", "android": "https://dc.lft.to/lastmile_qr_scan"}}, {"name": "8403119cf1e7d54077e5e8d9e7e7b6bc", "fusion_lat": 0.0, "type": "electric_scooter", "lat": 38.93539166666667, "is_reserved": 0, "is_disabled": 0, "fusion_lon": 0.0, "bike_id": "8403119cf1e7d54077e5e8d9e7e7b6bc", "lon": -77.0340665, "rental_uris": {"ios": "https://dc.lft.to/lastmile_qr_scan", "android": "https://dc.lft.to/lastmile_qr_scan"}}, {"name": "05f7ef7f1fbc34d7726ccd38270a19c4", "fusion_lat": 0.0, "type": "electric_scooter", "lat": 38.92990183333333, "is_reserved": 0, "is_disabled": 0, "fusion_lon": 0.0, "bike_id": "05f7ef7f1fbc34d7726ccd38270a19c4", "lon": -77.023015, "rental_uris": {"ios": "https://dc.lft.to/lastmile_qr_scan", "android": "https://dc.lft.to/lastmile_qr_scan"}}, {"name": "3032f827e594c6797e33d15b26ffa871", "fusion_lat": 0.0, "type": "electric_scooter", "lat": 38.8922945, "is_reserved": 0, "is_disabled": 0, "fusion_lon": 0.0, "bike_id": "3032f827e594c6797e33d15b26ffa871", "lon": -77.0500165, "rental_uris": {"ios": "https://dc.lft.to/lastmile_qr_scan", "android": "https://dc.lft.to/lastmile_qr_scan"}}, {"name": "89a0c2d16451816ea930625fd50ad921", "fusion_lat": 0.0, "type": "electric_scooter", "lat": 38.916302333333334, "is_reserved": 0, "is_disabled": 0, "fusion_lon": 0.0, "bike_id": "89a0c2d16451816ea930625fd50ad921", "lon": -77.03012316666667, "rental_uris": {"ios": "https://dc.lft.to/lastmile_qr_scan", "android": "https://dc.lft.to/lastmile_qr_scan"}}, {"name": "3561991abcdad83855749f31c766e0d2", "fusion_lat": 0.0, "type": "electric_scooter", "lat": 38.906653, "is_reserved": 0, "is_disabled": 0, "fusion_lon": 0.0, "bike_id": "3561991abcdad83855749f31c766e0d2", "lon": -77.02710383333333, "rental_uris": {"ios": "https://dc.lft.to/lastmile_qr_scan", "android": "https://dc.lft.to/lastmile_qr_scan"}}, {"name": "957a3087003f330a1ea0322f121a3229", "fusion_lat": 0.0, "type": "electric_scooter", "lat": 38.895261, "is_reserved": 0, "is_disabled": 0, "fusion_lon": 0.0, "bike_id": "957a3087003f330a1ea0322f121a3229", "lon": -76.9489255, "rental_uris": {"ios": "https://dc.lft.to/lastmile_qr_scan", "android": "https://dc.lft.to/lastmile_qr_scan"}}, {"name": "b6ee558bda08c008267959a0cc05f869", "fusion_lat": 0.0, "type": "electric_bike", "lat": 38.81049516666667, "is_reserved": 0, "is_disabled": 0, "fusion_lon": 0.0, "bike_id": "b6ee558bda08c008267959a0cc05f869", "lon": -77.08514816666667, "rental_uris": {"ios": "https://dc.lft.to/lastmile_qr_scan", "android": "https://dc.lft.to/lastmile_qr_scan"}}, {"name": "3c1e5a83cf9d131a503495f9d9ef1e2c", "fusion_lat": 0.0, "type": "electric_scooter", "lat": 38.90726466666667, "is_reserved": 0, "is_disabled": 0, "fusion_lon": 0.0, "bike_id": "3c1e5a83cf9d131a503495f9d9ef1e2c", "lon": -77.00760433333333, "rental_uris": {"ios": "https://dc.lft.to/lastmile_qr_scan", "android": "https://dc.lft.to/lastmile_qr_scan"}}, {"name": "74d833c655a5cb8442b752f3eac5d20b", "fusion_lat": 0.0, "type": "electric_scooter", "lat": 38.87660366666667, "is_reserved": 0, "is_disabled": 0, "fusion_lon": 0.0, "bike_id": "74d833c655a5cb8442b752f3eac5d20b", "lon": -77.00073433333333, "rental_uris": {"ios": "https://dc.lft.to/lastmile_qr_scan", "android": "https://dc.lft.to/lastmile_qr_scan"}}, {"name": "e49d1bff74d1fc7409b5dd83dac29c1b", "fusion_lat": 0.0, "type": "electric_bike", "lat": 38.96858833333334, "is_reserved": 0, "is_disabled": 0, "fusion_lon": 0.0, "bike_id": "e49d1bff74d1fc7409b5dd83dac29c1b", "lon": -77.03332166666667, "rental_uris": {"ios": "https://dc.lft.to/lastmile_qr_scan", "android": "https://dc.lft.to/lastmile_qr_scan"}}, {"name": "bde732dfda605932d06ef475c17482aa", "fusion_lat": 0.0, "type": "electric_scooter", "lat": 38.874917333333336, "is_reserved": 0, "is_disabled": 0, "fusion_lon": 0.0, "bike_id": "bde732dfda605932d06ef475c17482aa", "lon": -77.00176366666666, "rental_uris": {"ios": "https://dc.lft.to/lastmile_qr_scan", "android": "https://dc.lft.to/lastmile_qr_scan"}}, {"name": "d06ac6b732f25a9d68eb10da18304df6", "fusion_lat": 0.0, "type": "electric_scooter", "lat": 38.914907666666664, "is_reserved": 0, "is_disabled": 0, "fusion_lon": 0.0, "bike_id": "d06ac6b732f25a9d68eb10da18304df6", "lon": -77.0324915, "rental_uris": {"ios": "https://dc.lft.to/lastmile_qr_scan", "android": "https://dc.lft.to/lastmile_qr_scan"}}, {"name": "6108f38830fb045b1d092b87cec55cdf", "fusion_lat": 0.0, "type": "electric_scooter", "lat": 38.932074166666666, "is_reserved": 0, "is_disabled": 0, "fusion_lon": 0.0, "bike_id": "6108f38830fb045b1d092b87cec55cdf", "lon": -77.02731416666667, "rental_uris": {"ios": "https://dc.lft.to/lastmile_qr_scan", "android": "https://dc.lft.to/lastmile_qr_scan"}}, {"name": "42ded66d588a377094448a6ee7f685fd", "fusion_lat": 0.0, "type": "electric_scooter", "lat": 38.91339266666667, "is_reserved": 0, "is_disabled": 0, "fusion_lon": 0.0, "bike_id": "42ded66d588a377094448a6ee7f685fd", "lon": -77.03120816666667, "rental_uris": {"ios": "https://dc.lft.to/lastmile_qr_scan", "android": "https://dc.lft.to/lastmile_qr_scan"}}, {"name": "04047266fea058154f488d560194d653", "fusion_lat": 0.0, "type": "electric_scooter", "lat": 38.903099, "is_reserved": 0, "is_disabled": 0, "fusion_lon": 0.0, "bike_id": "04047266fea058154f488d560194d653", "lon": -77.0417905, "rental_uris": {"ios": "https://dc.lft.to/lastmile_qr_scan", "android": "https://dc.lft.to/lastmile_qr_scan"}}, {"name": "350064f9418b1ab1329617e446516f65", "fusion_lat": 0.0, "type": "electric_bike", "lat": 38.96281233333333, "is_reserved": 0, "is_disabled": 0, "fusion_lon": 0.0, "bike_id": "350064f9418b1ab1329617e446516f65", "lon": -77.03253966666666, "rental_uris": {"ios": "https://dc.lft.to/lastmile_qr_scan", "android": "https://dc.lft.to/lastmile_qr_scan"}}, {"name": "02a1171bff86e0e9041efaa8b1b65d51", "fusion_lat": 0.0, "type": "electric_scooter", "lat": 38.919058666666665, "is_reserved": 0, "is_disabled": 0, "fusion_lon": 0.0, "bike_id": "02a1171bff86e0e9041efaa8b1b65d51", "lon": -77.03097116666666, "rental_uris": {"ios": "https://dc.lft.to/lastmile_qr_scan", "android": "https://dc.lft.to/lastmile_qr_scan"}}, {"name": "804134ab632a433434b5468c7b80b508", "fusion_lat": 0.0, "type": "electric_scooter", "lat": 38.930623833333335, "is_reserved": 0, "is_disabled": 0, "fusion_lon": 0.0, "bike_id": "804134ab632a433434b5468c7b80b508", "lon": -77.0395905, "rental_uris": {"ios": "https://dc.lft.to/lastmile_qr_scan", "android": "https://dc.lft.to/lastmile_qr_scan"}}, {"name": "17dcabbd2bc782d77e4c2e3a45f5aee5", "fusion_lat": 0.0, "type": "electric_scooter", "lat": 38.899683833333334, "is_reserved": 0, "is_disabled": 0, "fusion_lon": 0.0, "bike_id": "17dcabbd2bc782d77e4c2e3a45f5aee5", "lon": -77.03117566666667, "rental_uris": {"ios": "https://dc.lft.to/lastmile_qr_scan", "android": "https://dc.lft.to/lastmile_qr_scan"}}, {"name": "285b54094c2673bb4746cd5db064c244", "fusion_lat": 0.0, "type": "electric_scooter", "lat": 38.8972425, "is_reserved": 0, "is_disabled": 0, "fusion_lon": 0.0, "bike_id": "285b54094c2673bb4746cd5db064c244", "lon": -77.0325095, "rental_uris": {"ios": "https://dc.lft.to/lastmile_qr_scan", "android": "https://dc.lft.to/lastmile_qr_scan"}}, {"name": "3a6ea5930f105f5d1dfadfbc70735a92", "fusion_lat": 0.0, "type": "electric_scooter", "lat": 38.91864783333333, "is_reserved": 0, "is_disabled": 0, "fusion_lon": 0.0, "bike_id": "3a6ea5930f105f5d1dfadfbc70735a92", "lon": -77.043528, "rental_uris": {"ios": "https://dc.lft.to/lastmile_qr_scan", "android": "https://dc.lft.to/lastmile_qr_scan"}}, {"name": "b0b30ee48fa16f4430eb38e735a8345a", "fusion_lat": 0.0, "type": "electric_scooter", "lat": 38.8960925, "is_reserved": 0, "is_disabled": 0, "fusion_lon": 0.0, "bike_id": "b0b30ee48fa16f4430eb38e735a8345a", "lon": -77.04683783333333, "rental_uris": {"ios": "https://dc.lft.to/lastmile_qr_scan", "android": "https://dc.lft.to/lastmile_qr_scan"}}, {"name": "e32b0130e87abaa25d4928b6af164c8f", "fusion_lat": 0.0, "type": "electric_bike", "lat": 38.964961833333334, "is_reserved": 0, "is_disabled": 0, "fusion_lon": 0.0, "bike_id": "e32b0130e87abaa25d4928b6af164c8f", "lon": -77.06497966666667, "rental_uris": {"ios": "https://dc.lft.to/lastmile_qr_scan", "android": "https://dc.lft.to/lastmile_qr_scan"}}, {"name": "2dda990c6d56f0b7ba9cefa223281083", "fusion_lat": 0.0, "type": "electric_scooter", "lat": 38.9012555, "is_reserved": 0, "is_disabled": 0, "fusion_lon": 0.0, "bike_id": "2dda990c6d56f0b7ba9cefa223281083", "lon": -77.03002283333333, "rental_uris": {"ios": "https://dc.lft.to/lastmile_qr_scan", "android": "https://dc.lft.to/lastmile_qr_scan"}}, {"name": "59902f416d10f6bf5d5863dfd047fe1c", "fusion_lat": 0.0, "type": "electric_scooter", "lat": 38.89790416666666, "is_reserved": 0, "is_disabled": 0, "fusion_lon": 0.0, "bike_id": "59902f416d10f6bf5d5863dfd047fe1c", "lon": -76.94425633333333, "rental_uris": {"ios": "https://dc.lft.to/lastmile_qr_scan", "android": "https://dc.lft.to/lastmile_qr_scan"}}, {"name": "fae317c0db0023122febc0dfa1507bd1", "fusion_lat": 0.0, "type": "electric_scooter", "lat": 38.907107833333335, "is_reserved": 0, "is_disabled": 0, "fusion_lon": 0.0, "bike_id": "fae317c0db0023122febc0dfa1507bd1", "lon": -77.04159066666666, "rental_uris": {"ios": "https://dc.lft.to/lastmile_qr_scan", "android": "https://dc.lft.to/lastmile_qr_scan"}}, {"name": "13098750fc9c74394518db36acce33a7", "fusion_lat": 0.0, "type": "electric_scooter", "lat": 38.92468016666667, "is_reserved": 0, "is_disabled": 0, "fusion_lon": 0.0, "bike_id": "13098750fc9c74394518db36acce33a7", "lon": -77.02269016666666, "rental_uris": {"ios": "https://dc.lft.to/lastmile_qr_scan", "android": "https://dc.lft.to/lastmile_qr_scan"}}, {"name": "0f3ceba9fdb755f5dcd49463b84bf31c", "fusion_lat": 0.0, "type": "electric_scooter", "lat": 38.925677666666665, "is_reserved": 0, "is_disabled": 0, "fusion_lon": 0.0, "bike_id": "0f3ceba9fdb755f5dcd49463b84bf31c", "lon": -77.02845083333334, "rental_uris": {"ios": "https://dc.lft.to/lastmile_qr_scan", "android": "https://dc.lft.to/lastmile_qr_scan"}}, {"name": "060b14c2f77c5228a8cc00af6ac1bdde", "fusion_lat": 0.0, "type": "electric_scooter", "lat": 38.89965, "is_reserved": 0, "is_disabled": 0, "fusion_lon": 0.0, "bike_id": "060b14c2f77c5228a8cc00af6ac1bdde", "lon": -77.02951766666666, "rental_uris": {"ios": "https://dc.lft.to/lastmile_qr_scan", "android": "https://dc.lft.to/lastmile_qr_scan"}}, {"name": "40023540569aa28f990babfbd8e03f3c", "fusion_lat": 0.0, "type": "electric_scooter", "lat": 38.9227975, "is_reserved": 0, "is_disabled": 0, "fusion_lon": 0.0, "bike_id": "40023540569aa28f990babfbd8e03f3c", "lon": -77.04223666666667, "rental_uris": {"ios": "https://dc.lft.to/lastmile_qr_scan", "android": "https://dc.lft.to/lastmile_qr_scan"}}, {"name": "7b24fd61bca715d688fd30f0aedc23a1", "fusion_lat": 0.0, "type": "electric_scooter", "lat": 38.9027135, "is_reserved": 0, "is_disabled": 0, "fusion_lon": 0.0, "bike_id": "7b24fd61bca715d688fd30f0aedc23a1", "lon": -76.99850166666667, "rental_uris": {"ios": "https://dc.lft.to/lastmile_qr_scan", "android": "https://dc.lft.to/lastmile_qr_scan"}}, {"name": "6a1c3e3d945a81b26c6452e97c3092c4", "fusion_lat": 0.0, "type": "electric_scooter", "lat": 38.90770416666667, "is_reserved": 0, "is_disabled": 0, "fusion_lon": 0.0, "bike_id": "6a1c3e3d945a81b26c6452e97c3092c4", "lon": -77.0694235, "rental_uris": {"ios": "https://dc.lft.to/lastmile_qr_scan", "android": "https://dc.lft.to/lastmile_qr_scan"}}, {"name": "1b4e1509558c849633cc8e7a7e57c9f9", "fusion_lat": 0.0, "type": "electric_scooter", "lat": 38.90572816666667, "is_reserved": 0, "is_disabled": 0, "fusion_lon": 0.0, "bike_id": "1b4e1509558c849633cc8e7a7e57c9f9", "lon": -77.044546, "rental_uris": {"ios": "https://dc.lft.to/lastmile_qr_scan", "android": "https://dc.lft.to/lastmile_qr_scan"}}, {"name": "dde77f20e4f78bfb085ff376019c6933", "fusion_lat": 0.0, "type": "electric_scooter", "lat": 38.86246216666667, "is_reserved": 0, "is_disabled": 0, "fusion_lon": 0.0, "bike_id": "dde77f20e4f78bfb085ff376019c6933", "lon": -76.99530316666667, "rental_uris": {"ios": "https://dc.lft.to/lastmile_qr_scan", "android": "https://dc.lft.to/lastmile_qr_scan"}}, {"name": "504d23b17c3f994993756e7b0bc150b5", "fusion_lat": 0.0, "type": "electric_scooter", "lat": 38.904673333333335, "is_reserved": 0, "is_disabled": 0, "fusion_lon": 0.0, "bike_id": "504d23b17c3f994993756e7b0bc150b5", "lon": -77.06012283333334, "rental_uris": {"ios": "https://dc.lft.to/lastmile_qr_scan", "android": "https://dc.lft.to/lastmile_qr_scan"}}, {"name": "657c2e5f7496590d867bddf906d10abc", "fusion_lat": 0.0, "type": "electric_scooter", "lat": 38.907318333333336, "is_reserved": 0, "is_disabled": 0, "fusion_lon": 0.0, "bike_id": "657c2e5f7496590d867bddf906d10abc", "lon": -77.01069316666667, "rental_uris": {"ios": "https://dc.lft.to/lastmile_qr_scan", "android": "https://dc.lft.to/lastmile_qr_scan"}}, {"name": "f525b6a119d1722e1a0ec1a6139c9d82", "fusion_lat": 0.0, "type": "electric_scooter", "lat": 38.901467, "is_reserved": 0, "is_disabled": 0, "fusion_lon": 0.0, "bike_id": "f525b6a119d1722e1a0ec1a6139c9d82", "lon": -76.97424016666666, "rental_uris": {"ios": "https://dc.lft.to/lastmile_qr_scan", "android": "https://dc.lft.to/lastmile_qr_scan"}}, {"name": "f4c626587458f2cc0bbbe7bfc79875bd", "fusion_lat": 0.0, "type": "electric_scooter", "lat": 38.879482833333334, "is_reserved": 0, "is_disabled": 0, "fusion_lon": 0.0, "bike_id": "f4c626587458f2cc0bbbe7bfc79875bd", "lon": -76.983752, "rental_uris": {"ios": "https://dc.lft.to/lastmile_qr_scan", "android": "https://dc.lft.to/lastmile_qr_scan"}}, {"name": "f5f0503cba828325bcf96d6a1ada82bb", "fusion_lat": 0.0, "type": "electric_scooter", "lat": 38.94252433333333, "is_reserved": 0, "is_disabled": 0, "fusion_lon": 0.0, "bike_id": "f5f0503cba828325bcf96d6a1ada82bb", "lon": -77.041341, "rental_uris": {"ios": "https://dc.lft.to/lastmile_qr_scan", "android": "https://dc.lft.to/lastmile_qr_scan"}}, {"name": "49240622b6717f83d15cfce0e908ff7d", "fusion_lat": 0.0, "type": "electric_scooter", "lat": 38.91295683333333, "is_reserved": 0, "is_disabled": 0, "fusion_lon": 0.0, "bike_id": "49240622b6717f83d15cfce0e908ff7d", "lon": -77.0611445, "rental_uris": {"ios": "https://dc.lft.to/lastmile_qr_scan", "android": "https://dc.lft.to/lastmile_qr_scan"}}, {"name": "c819f3683594615178d39f045af115d8", "fusion_lat": 0.0, "type": "electric_scooter", "lat": 38.902575, "is_reserved": 0, "is_disabled": 0, "fusion_lon": 0.0, "bike_id": "c819f3683594615178d39f045af115d8", "lon": -77.04377033333333, "rental_uris": {"ios": "https://dc.lft.to/lastmile_qr_scan", "android": "https://dc.lft.to/lastmile_qr_scan"}}, {"name": "43a0d367ff0a3282974b3aad66a2c1d4", "fusion_lat": 0.0, "type": "electric_scooter", "lat": 38.937289, "is_reserved": 0, "is_disabled": 0, "fusion_lon": 0.0, "bike_id": "43a0d367ff0a3282974b3aad66a2c1d4", "lon": -77.03280766666667, "rental_uris": {"ios": "https://dc.lft.to/lastmile_qr_scan", "android": "https://dc.lft.to/lastmile_qr_scan"}}, {"name": "0c6acc4212e2f8cc5b0b5e39b5691aee", "fusion_lat": 0.0, "type": "electric_scooter", "lat": 38.90259133333333, "is_reserved": 0, "is_disabled": 0, "fusion_lon": 0.0, "bike_id": "0c6acc4212e2f8cc5b0b5e39b5691aee", "lon": -77.02648116666667, "rental_uris": {"ios": "https://dc.lft.to/lastmile_qr_scan", "android": "https://dc.lft.to/lastmile_qr_scan"}}, {"name": "9f60e70c0b2fcbc407db266bdc5abc99", "fusion_lat": 0.0, "type": "electric_scooter", "lat": 38.92825533333333, "is_reserved": 0, "is_disabled": 0, "fusion_lon": 0.0, "bike_id": "9f60e70c0b2fcbc407db266bdc5abc99", "lon": -77.02257116666667, "rental_uris": {"ios": "https://dc.lft.to/lastmile_qr_scan", "android": "https://dc.lft.to/lastmile_qr_scan"}}, {"name": "0f1fe07c94590e58f8316a1189969fdb", "fusion_lat": 0.0, "type": "electric_scooter", "lat": 38.92576833333333, "is_reserved": 0, "is_disabled": 0, "fusion_lon": 0.0, "bike_id": "0f1fe07c94590e58f8316a1189969fdb", "lon": -76.99496633333334, "rental_uris": {"ios": "https://dc.lft.to/lastmile_qr_scan", "android": "https://dc.lft.to/lastmile_qr_scan"}}, {"name": "bd4f8b5f776355153880e869d7b26705", "fusion_lat": 0.0, "type": "electric_bike", "lat": 38.96011166666667, "is_reserved": 0, "is_disabled": 0, "fusion_lon": 0.0, "bike_id": "bd4f8b5f776355153880e869d7b26705", "lon": -76.99872866666666, "rental_uris": {"ios": "https://dc.lft.to/lastmile_qr_scan", "android": "https://dc.lft.to/lastmile_qr_scan"}},