{"data": {"bikes": [{"is_reserved": 0, "fusion_lon": 0.0, "fusion_lat": 0.0, "name": "cf976fbdaa32ad3930467c6c0ce6ec13", "type": "electric_scooter", "is_disabled": 0, "lat": 38.911137, "rental_uris": {"android": "https://dc.lft.to/lastmile_qr_scan", "ios": "https://dc.lft.to/lastmile_qr_scan"}, "bike_id": "cf976fbdaa32ad3930467c6c0ce6ec13", "lon": -77.03829216666666}, {"is_reserved": 0, "fusion_lon": 0.0, "fusion_lat": 0.0, "name": "5d3d1671756174a03cb7fb177567f5a7", "type": "electric_scooter", "is_disabled": 0, "lat": 38.88021666666667, "rental_uris": {"android": "https://dc.lft.to/lastmile_qr_scan", "ios": "https://dc.lft.to/lastmile_qr_scan"}, "bike_id": "5d3d1671756174a03cb7fb177567f5a7", "lon": -76.984855}, {"is_reserved": 0, "fusion_lon": 0.0, "fusion_lat": 0.0, "name": "cceda38de5b4e5612633e207a6466171", "type": "electric_bike", "is_disabled": 0, "lat": 38.879883, "rental_uris": {"android": "https://dc.lft.to/lastmile_qr_scan", "ios": "https://dc.lft.to/lastmile_qr_scan"}, "bike_id": "cceda38de5b4e5612633e207a6466171", "lon": -76.9160595}, {"is_reserved": 0, "fusion_lon": 0.0, "fusion_lat": 0.0, "name": "73b729bd24d567028527c0d6fbd1026c", "type": "electric_scooter", "is_disabled": 0, "lat": 38.91889183333333, "rental_uris": {"android": "https://dc.lft.to/lastmile_qr_scan", "ios": "https://dc.lft.to/lastmile_qr_scan"}, "bike_id": "73b729bd24d567028527c0d6fbd1026c", "lon": -77.03491833333334}, {"is_reserved": 0, "fusion_lon": 0.0, "fusion_lat": 0.0, "name": "eeb98ba9834f1fdbd4c56559c8f1c790", "type": "electric_scooter", "is_disabled": 0, "lat": 38.9097165, "rental_uris": {"android": "https://dc.lft.to/lastmile_qr_scan", "ios": "https://dc.lft.to/lastmile_qr_scan"}, "bike_id": "eeb98ba9834f1fdbd4c56559c8f1c790", "lon": -77.03195283333334}, {"is_reserved": 0, "fusion_lon": 0.0, "fusion_lat": 0.0, "name": "51081c3fb93ce06b385916a7b0ebfbf6", "type": "electric_scooter", "is_disabled": 0, "lat": 38.906316, "rental_uris": {"android": "https://dc.lft.to/lastmile_qr_scan", "ios": "https://dc.lft.to/lastmile_qr_scan"}, "bike_id": "51081c3fb93ce06b385916a7b0ebfbf6", "lon": -77.04858966666667}, {"is_reserved": 0, "fusion_lon": 0.0, "fusion_lat": 0.0, "name": "4d68ab9b015e8f8a47a7bf9c4f5ea0ff", "type": "electric_scooter", "is_disabled": 0, "lat": 38.90397683333333, "rental_uris": {"android": "https://dc.lft.to/lastmile_qr_scan", "ios": "https://dc.lft.to/lastmile_qr_scan"}, "bike_id": "4d68ab9b015e8f8a47a7bf9c4f5ea0ff", "lon": -77.0421185}, {"is_reserved": 0, "fusion_lon": 0.0, "fusion_lat": 0.0, "name": "d32a28b3852358b84357f0ef3def42e5", "type": "electric_scooter", "is_disabled": 0, "lat": 38.914191, "rental_uris": {"android": "https://dc.lft.to/lastmile_qr_scan", "ios": "https://dc.lft.to/lastmile_qr_scan"}, "bike_id": "d32a28b3852358b84357f0ef3def42e5", "lon": -77.02591333333334}, {"is_reserved": 0, "fusion_lon": 0.0, "fusion_lat": 0.0, "name": "3ccce451e59fa206f11863c8141a917e", "type": "electric_scooter", "is_disabled": 0, "lat": 38.90399883333333, "rental_uris": {"android": "https://dc.lft.to/lastmile_qr_scan", "ios": "https://dc.lft.to/lastmile_qr_scan"}, "bike_id": "3ccce451e59fa206f11863c8141a917e", "lon": -77.02932116666666}, {"is_reserved": 0, "fusion_lon": 0.0, "fusion_lat": 0.0, "name": "2af9fe10b22a20416eca2727a90337aa", "type": "electric_scooter", "is_disabled": 0, "lat": 38.96112766666667, "rental_uris": {"android": "https://dc.lft.to/lastmile_qr_scan", "ios": "https://dc.lft.to/lastmile_qr_scan"}, "bike_id": "2af9fe10b22a20416eca2727a90337aa", "lon": -77.00948516666666}, {"is_reserved": 0, "fusion_lon": 0.0, "fusion_lat": 0.0, "name": "5242d66034499bb5ee2b140db2f23412", "type": "electric_scooter", "is_disabled": 0, "lat": 38.91694366666667, "rental_uris": {"android": "https://dc.lft.to/lastmile_qr_scan", "ios": "https://dc.lft.to/lastmile_qr_scan"}, "bike_id": "5242d66034499bb5ee2b140db2f23412", "lon": -77.0419635}, {"is_reserved": 0, "fusion_lon": 0.0, "fusion_lat": 0.0, "name": "3f970ed32f83bd86f11f2ca0e22730fd", "type": "electric_scooter", "is_disabled": 0, "lat": 38.900764833333334, "rental_uris": {"android": "https://dc.lft.to/lastmile_qr_scan", "ios": "https://dc.lft.to/lastmile_qr_scan"}, "bike_id": "3f970ed32f83bd86f11f2ca0e22730fd", "lon": -77.04857133333333}, {"is_reserved": 0, "fusion_lon": 0.0, "fusion_lat": 0.0, "name": "21211379f9696d845e948d002105aeee", "type": "electric_scooter", "is_disabled": 0, "lat": 38.9367245, "rental_uris": {"android": "https://dc.lft.to/lastmile_qr_scan", "ios": "https://dc.lft.to/lastmile_qr_scan"}, "bike_id": "21211379f9696d845e948d002105aeee", "lon": -77.03634966666667}, {"is_reserved": 0, "fusion_lon": 0.0, "fusion_lat": 0.0, "name": "61e6d35ab80af5cdf81974733eaa188b", "type": "electric_scooter", "is_disabled": 0, "lat": 38.9190715, "rental_uris": {"android": "https://dc.lft.to/lastmile_qr_scan", "ios": "https://dc.lft.to/lastmile_qr_scan"}, "bike_id": "61e6d35ab80af5cdf81974733eaa188b", "lon": -77.04806683333334}, {"is_reserved": 0, "fusion_lon": 0.0, "fusion_lat": 0.0, "name": "a41b04c7def425f6e7a185de030f25e4", "type": "electric_scooter", "is_disabled": 0, "lat": 38.9169235, "rental_uris": {"android": "https://dc.lft.to/lastmile_qr_scan", "ios": "https://dc.lft.to/lastmile_qr_scan"}, "bike_id": "a41b04c7def425f6e7a185de030f25e4", "lon": -77.025967}, {"is_reserved": 0, "fusion_lon": 0.0, "fusion_lat": 0.0, "name": "b563291953b2bacd923e69d40169fccb", "type": "electric_scooter", "is_disabled": 0, "lat": 38.882951, "rental_uris": {"android": "https://dc.lft.to/lastmile_qr_scan", "ios": "https://dc.lft.to/lastmile_qr_scan"}, "bike_id": "b563291953b2bacd923e69d40169fccb", "lon": -77.01739133333334}, {"is_reserved": 0, "fusion_lon": 0.0, "fusion_lat": 0.0, "name": "c08e3415b50ce68298b2d15ca27e6e8e", "type": "electric_scooter", "is_disabled": 0, "lat": 38.91705533333333, "rental_uris": {"android": "https://dc.lft.to/lastmile_qr_scan", "ios": "https://dc.lft.to/lastmile_qr_scan"}, "bike_id": "c08e3415b50ce68298b2d15ca27e6e8e", "lon": -77.034761}, {"is_reserved": 0, "fusion_lon": 0.0, "fusion_lat": 0.0, "name": "d99ecbd9c7980f5dd289b431f44f76d2", "type": "electric_scooter", "is_disabled": 0, "lat": 38.923276, "rental_uris": {"android": "https://dc.lft.to/lastmile_qr_scan", "ios": "https://dc.lft.to/lastmile_qr_scan"}, "bike_id": "d99ecbd9c7980f5dd289b431f44f76d2", "lon": -76.99907433333334}, {"is_reserved": 0, "fusion_lon": 0.0, "fusion_lat": 0.0, "name": "2f4d2a1f12223d02ba6790740fc5d006", "type": "electric_scooter", "is_disabled": 0, "lat": 38.9057375, "rental_uris": {"android": "https://dc.lft.to/lastmile_qr_scan", "ios": "https://dc.lft.to/lastmile_qr_scan"}, "bike_id": "2f4d2a1f12223d02ba6790740fc5d006", "lon": -77.00886516666667}, {"is_reserved": 0, "fusion_lon": 0.0, "fusion_lat": 0.0, "name": "ba6d943130818de2c38fe5f0ec4a0831", "type": "electric_scooter", "is_disabled": 0, "lat": 38.899143, "rental_uris": {"android": "https://dc.lft.to/lastmile_qr_scan", "ios": "https://dc.lft.to/lastmile_qr_scan"}, "bike_id": "ba6d943130818de2c38fe5f0ec4a0831", "lon": -76.933686}, {"is_reserved": 0, "fusion_lon": 0.0, "fusion_lat": 0.0, "name": "90838ffc9140d883f8437d38e9d9ec31", "type": "electric_scooter", "is_disabled": 0, "lat": 38.917151833333335, "rental_uris": {"android": "https://dc.lft.to/lastmile_qr_scan", "ios": "https://dc.lft.to/lastmile_qr_scan"}, "bike_id": "90838ffc9140d883f8437d38e9d9ec31", "lon": -77.008872}, {"is_reserved": 0, "fusion_lon": 0.0, "fusion_lat": 0.0, "name": "78024184fbbaefce66aafd17c5b01fc5", "type": "electric_scooter", "is_disabled": 0, "lat": 38.90155933333333, "rental_uris": {"android": "https://dc.lft.to/lastmile_qr_scan", "ios": "https://dc.lft.to/lastmile_qr_scan"}, "bike_id": "78024184fbbaefce66aafd17c5b01fc5", "lon": -76.9763045}, {"is_reserved": 0, "fusion_lon": 0.0, "fusion_lat": 0.0, "name": "4af3f9540207121e2ee711333530749e", "type": "electric_scooter", "is_disabled": 0, "lat": 38.92402666666667, "rental_uris": {"android": "https://dc.lft.to/lastmile_qr_scan", "ios": "https://dc.lft.to/lastmile_qr_scan"}, "bike_id": "4af3f9540207121e2ee711333530749e", "lon": -77.02695683333333}, {"is_reserved": 0, "fusion_lon": 0.0, "fusion_lat": 0.0, "name": "934df9f8a9604d94b144924707128ae6", "type": "electric_scooter", "is_disabled": 0, "lat": 38.90135516666667, "rental_uris": {"android": "https://dc.lft.to/lastmile_qr_scan", "ios": "https://dc.lft.to/lastmile_qr_scan"}, "bike_id": "934df9f8a9604d94b144924707128ae6", "lon": -77.0000595}, {"is_reserved": 0, "fusion_lon": 0.0, "fusion_lat": 0.0, "name": "6d048d08624c8d707f54270cff879914", "type": "electric_scooter", "is_disabled": 0, "lat": 38.862559, "rental_uris": {"android": "https://dc.lft.to/lastmile_qr_scan", "ios": "https://dc.lft.to/lastmile_qr_scan"}, "bike_id": "6d048d08624c8d707f54270cff879914", "lon": -76.99515483333333}, {"is_reserved": 0, "fusion_lon": 0.0, "fusion_lat": 0.0, "name": "5957d7f20c36c590c5c74a74a97f446d", "type": "electric_scooter", "is_disabled": 0, "lat": 38.922683166666665, "rental_uris": {"android": "https://dc.lft.to/lastmile_qr_scan", "ios": "https://dc.lft.to/lastmile_qr_scan"}, "bike_id": "5957d7f20c36c590c5c74a74a97f446d", "lon": -77.04285766666666}, {"is_reserved": 0, "fusion_lon": 0.0, "fusion_lat": 0.0, "name": "d58168376aec80fc19ac130a159af13c", "type": "electric_scooter", "is_disabled": 0, "lat": 38.91573866666667, "rental_uris": {"android": "https://dc.lft.to/lastmile_qr_scan", "ios": "https://dc.lft.to/lastmile_qr_scan"}, "bike_id": "d58168376aec80fc19ac130a159af13c", "lon": -77.02405016666667}, {"is_reserved": 0, "fusion_lon": 0.0, "fusion_lat": 0.0, "name": "a9e56e7b20e9767972ae1815542f9086", "type": "electric_scooter", "is_disabled": 0, "lat": 38.895049, "rental_uris": {"android": "https://dc.lft.to/lastmile_qr_scan", "ios": "https://dc.lft.to/lastmile_qr_scan"}, "bike_id": "a9e56e7b20e9767972ae1815542f9086", "lon": -76.93472716666666}, {"is_reserved": 0, "fusion_lon": 0.0, "fusion_lat": 0.0, "name": "90ca87dbce3d703917c63b7661591336", "type": "electric_scooter", "is_disabled": 0, "lat": 38.92273733333333, "rental_uris": {"android": "https://dc.lft.to/lastmile_qr_scan", "ios": "https://dc.lft.to/lastmile_qr_scan"}, "bike_id": "90ca87dbce3d703917c63b7661591336", "lon": -77.04281316666666}, {"is_reserved": 0, "fusion_lon": 0.0, "fusion_lat": 0.0, "name": "30d28cb888f6c35b2b1fa8843ce98586", "type": "electric_scooter", "is_disabled": 0, "lat": 38.88764116666667, "rental_uris": {"android": "https://dc.lft.to/lastmile_qr_scan", "ios": "https://dc.lft.to/lastmile_qr_scan"}, "bike_id": "30d28cb888f6c35b2b1fa8843ce98586", "lon": -76.98685516666667}, {"is_reserved": 0, "fusion_lon": 0.0, "fusion_lat": 0.0, "name": "57ecc8e1d04559d7e1aaf24159b26259", "type": "electric_scooter", "is_disabled": 0, "lat": 38.920474166666665, "rental_uris": {"android": "https://dc.lft.to/lastmile_qr_scan", "ios": "https://dc.lft.to/lastmile_qr_scan"}, "bike_id": "57ecc8e1d04559d7e1aaf24159b26259", "lon": -77.02422966666667}, {"is_reserved": 0, "fusion_lon": 0.0, "fusion_lat": 0.0, "name": "fa79392bc0fdf7e0d15803f0c0def3a1", "type": "electric_scooter", "is_disabled": 0, "lat": 38.903953, "rental_uris": {"android": "https://dc.lft.to/lastmile_qr_scan", "ios": "https://dc.lft.to/lastmile_qr_scan"}, "bike_id": "fa79392bc0fdf7e0d15803f0c0def3a1", "lon": -77.03842983333334}, {"is_reserved": 0, "fusion_lon": 0.0, "fusion_lat": 0.0, "name": "b520e8bdc631b14988566c88c3f3b4be", "type": "electric_bike", "is_disabled": 0, "lat": 39.056338, "rental_uris": {"android": "https://dc.lft.to/lastmile_qr_scan", "ios": "https://dc.lft.to/lastmile_qr_scan"}, "bike_id": "b520e8bdc631b14988566c88c3f3b4be", "lon": -77.12527533333333}, {"is_reserved": 0, "fusion_lon": 0.0, "fusion_lat": 0.0, "name": "b9b78017eb6f65d3ab370b49fbd6a635", "type": "electric_scooter", "is_disabled": 0, "lat": 38.945103333333336, "rental_uris": {"android": "https://dc.lft.to/lastmile_qr_scan", "ios": "https://dc.lft.to/lastmile_qr_scan"}, "bike_id": "b9b78017eb6f65d3ab370b49fbd6a635", "lon": -77.07453}, {"is_reserved": 0, "fusion_lon": 0.0, "fusion_lat": 0.0, "name": "3c9dda3bfcd51468d86998d52246ac87", "type": "electric_scooter", "is_disabled": 0, "lat": 38.89742416666667, "rental_uris": {"android": "https://dc.lft.to/lastmile_qr_scan", "ios": "https://dc.lft.to/lastmile_qr_scan"}, "bike_id": "3c9dda3bfcd51468d86998d52246ac87", "lon": -77.033452}, {"is_reserved": 0, "fusion_lon": 0.0, "fusion_lat": 0.0, "name": "5edfccd58d708e36f0dcc1366ed5ecf8", "type": "electric_scooter", "is_disabled": 0, "lat": 38.92447333333333, "rental_uris": {"android": "https://dc.lft.to/lastmile_qr_scan", "ios": "https://dc.lft.to/lastmile_qr_scan"}, "bike_id": "5edfccd58d708e36f0dcc1366ed5ecf8", "lon": -76.97914166666666}, {"is_reserved": 0, "fusion_lon": 0.0, "fusion_lat": 0.0, "name": "e84b36b76b6ca96992d52b8e416a6507", "type": "electric_scooter", "is_disabled": 0, "lat": 38.905024166666664, "rental_uris": {"android": "https://dc.lft.to/lastmile_qr_scan", "ios": "https://dc.lft.to/lastmile_qr_scan"}, "bike_id": "e84b36b76b6ca96992d52b8e416a6507", "lon": -77.02948516666666}, {"is_reserved": 0, "fusion_lon": 0.0, "fusion_lat": 0.0, "name": "cad609445e54cf654806807499681aa0", "type": "electric_scooter", "is_disabled": 0, "lat": 38.91026466666667, "rental_uris": {"android": "https://dc.lft.to/lastmile_qr_scan", "ios": "https://dc.lft.to/lastmile_qr_scan"}, "bike_id": "cad609445e54cf654806807499681aa0", "lon": -77.03441366666667}, {"is_reserved": 0, "fusion_lon": 0.0, "fusion_lat": 0.0, "name": "5eb57c7c4d005db9cf222ed6b0b6a2dc", "type": "electric_scooter", "is_disabled": 0, "lat": 38.90993383333333, "rental_uris": {"android": "https://dc.lft.to/lastmile_qr_scan", "ios": "https://dc.lft.to/lastmile_qr_scan"}, "bike_id": "5eb57c7c4d005db9cf222ed6b0b6a2dc", "lon": -77.02818566666667}, {"is_reserved": 0, "fusion_lon": 0.0, "fusion_lat": 0.0, "name": "c39b051d9366c48f65c1c344585cbbf9", "type": "electric_scooter", "is_disabled": 0, "lat": 38.91961033333333, "rental_uris": {"android": "https://dc.lft.to/lastmile_qr_scan", "ios": "https://dc.lft.to/lastmile_qr_scan"}, "bike_id": "c39b051d9366c48f65c1c344585cbbf9", "lon": -77.04305133333334}, {"is_reserved": 0, "fusion_lon": 0.0, "fusion_lat": 0.0, "name": "362cc1adb2255726b9d9e99b91d9de79", "type": "electric_scooter", "is_disabled": 0, "lat": 38.9188235, "rental_uris": {"android": "https://dc.lft.to/lastmile_qr_scan", "ios": "https://dc.lft.to/lastmile_qr_scan"}, "bike_id": "362cc1adb2255726b9d9e99b91d9de79", "lon": -77.029708}, {"is_reserved": 0, "fusion_lon": 0.0, "fusion_lat": 0.0, "name": "4468da5008cc27e03db6367723a788ed", "type": "electric_bike", "is_disabled": 0, "lat": 38.859354333333336, "rental_uris": {"android": "https://dc.lft.to/lastmile_qr_scan", "ios": "https://dc.lft.to/lastmile_qr_scan"}, "bike_id": "4468da5008cc27e03db6367723a788ed", "lon": -77.118299}, {"is_reserved": 0, "fusion_lon": 0.0, "fusion_lat": 0.0, "name": "0afe9b7430cf085c2f76491d217c6b78", "type": "electric_scooter", "is_disabled": 0, "lat": 38.8646425, "rental_uris": {"android": "https://dc.lft.to/lastmile_qr_scan", "ios": "https://dc.lft.to/lastmile_qr_scan"}, "bike_id": "0afe9b7430cf085c2f76491d217c6b78", "lon": -76.982307}, {"is_reserved": 0, "fusion_lon": 0.0, "fusion_lat": 0.0, "name": "e777df7d2f109571d812632d61fc27f1", "type": "electric_scooter", "is_disabled": 0, "lat": 38.939890166666665, "rental_uris": {"android": "https://dc.lft.to/lastmile_qr_scan", "ios": "https://dc.lft.to/lastmile_qr_scan"}, "bike_id": "e777df7d2f109571d812632d61fc27f1", "lon": -77.01739283333333}, {"is_reserved": 0, "fusion_lon": 0.0, "fusion_lat": 0.0, "name": "998bfbe5ba27c66319ae325d2058dbdf", "type": "electric_bike", "is_disabled": 0, "lat": 38.87419083333333, "rental_uris": {"android": "https://dc.lft.to/lastmile_qr_scan", "ios": "https://dc.lft.to/lastmile_qr_scan"}, "bike_id": "998bfbe5ba27c66319ae325d2058dbdf", "lon": -76.97165716666666}, {"is_reserved": 0, "fusion_lon": 0.0, "fusion_lat": 0.0, "name": "b1d38bc3f7408c1e7912cf857c7e0d07", "type": "electric_scooter", "is_disabled": 0, "lat": 38.908437166666666, "rental_uris": {"android": "https://dc.lft.to/lastmile_qr_scan", "ios": "https://dc.lft.to/lastmile_qr_scan"}, "bike_id": "b1d38bc3f7408c1e7912cf857c7e0d07", "lon": -77.038592}, {"is_reserved": 0, "fusion_lon": 0.0, "fusion_lat": 0.0, "name": "5940e6f0b07bb4350547a4246c6eed61", "type": "electric_bike", "is_disabled": 0, "lat": 38.823645166666665, "rental_uris": {"android": "https://dc.lft.to/lastmile_qr_scan", "ios": "https://dc.lft.to/lastmile_qr_scan"}, "bike_id": "5940e6f0b07bb4350547a4246c6eed61", "lon": -77.00216016666667}, {"is_reserved": 0, "fusion_lon": 0.0, "fusion_lat": 0.0, "name": "2e30aedc8b8baa46b01bd0c224846113", "type": "electric_scooter", "is_disabled": 0, "lat": 38.913643, "rental_uris": {"android": "https://dc.lft.to/lastmile_qr_scan", "ios": "https://dc.lft.to/lastmile_qr_scan"}, "bike_id": "2e30aedc8b8baa46b01bd0c224846113", "lon": -77.04559}, {"is_reserved": 0, "fusion_lon": 0.0, "fusion_lat": 0.0, "name": "66d3d043cfa5f61ab6dbe7a9eff209f5", "type": "electric_scooter", "is_disabled": 0, "lat": 38.956124333333335, "rental_uris": {"android": "https://dc.lft.to/lastmile_qr_scan", "ios": "https://dc.lft.to/lastmile_qr_scan"}, "bike_id": "66d3d043cfa5f61ab6dbe7a9eff209f5", "lon": -77.02781566666667}, {"is_reserved": 0, "fusion_lon": 0.0, "fusion_lat": 0.0, "name": "253bb5ea76f14e16e602f6cd5cc78d51", "type": "electric_bike", "is_disabled": 0, "lat": 38.957335666666665, "rental_uris": {"android": "https://dc.lft.to/lastmile_qr_scan", "ios": "https://dc.lft.to/lastmile_qr_scan"}, "bike_id": "253bb5ea76f14e16e602f6cd5cc78d51", "lon": -77.02422266666666}, {"is_reserved": 0, "fusion_lon": 0.0, "fusion_lat": 0.0, "name": "9511c419495b2c3f8d5294ca400274f9", "type": "electric_scooter", "is_disabled": 0, "lat": 38.8861115, "rental_uris": {"android": "https://dc.lft.to/lastmile_qr_scan", "ios": "https://dc.lft.to/lastmile_qr_scan"}, "bike_id": "9511c419495b2c3f8d5294ca400274f9", "lon": -77.00138783333334}, {"is_reserved": 0, "fusion_lon": 0.0, "fusion_lat": 0.0, "name": "ec96aeae90c9b88f85ae664211a0f53a", "type": "electric_scooter", "is_disabled": 0, "lat": 38.93042333333333, "rental_uris": {"android": "https://dc.lft.to/lastmile_qr_scan", "ios": "https://dc.lft.to/lastmile_qr_scan"}, "bike_id": "ec96aeae90c9b88f85ae664211a0f53a", "lon": -77.038007}, {"is_reserved": 0, "fusion_lon": 0.0, "fusion_lat": 0.0, "name": "b5da590e0537978666fb4f4bfd6b6407", "type": "electric_scooter", "is_disabled": 0, "lat": 38.92585583333333, "rental_uris": {"android": "https://dc.lft.to/lastmile_qr_scan", "ios": "https://dc.lft.to/lastmile_qr_scan"}, "bike_id": "b5da590e0537978666fb4f4bfd6b6407", "lon": -77.02680366666667}, {"is_reserved": 0, "fusion_lon": 0.0, "fusion_lat": 0.0, "name": "1f034eac43a23bd9e947662817363a4d", "type": "electric_scooter", "is_disabled": 0, "lat": 38.92194466666667, "rental_uris": {"android": "https://dc.lft.to/lastmile_qr_scan", "ios": "https://dc.lft.to/lastmile_qr_scan"}, "bike_id": "1f034eac43a23bd9e947662817363a4d", "lon": -77.04245816666666}, {"is_reserved": 0, "fusion_lon": 0.0, "fusion_lat": 0.0, "name": "8298d6ef3034ec5ba30349b146ada796", "type": "electric_scooter", "is_disabled": 0, "lat": 38.897322833333334, "rental_uris": {"android": "https://dc.lft.to/lastmile_qr_scan", "ios": "https://dc.lft.to/lastmile_qr_scan"}, "bike_id": "8298d6ef3034ec5ba30349b146ada796", "lon": -77.05478316666667}, {"is_reserved": 0, "fusion_lon": 0.0, "fusion_lat": 0.0, "name": "38659823301f91ddceaacfd1b804b22e", "type": "electric_scooter", "is_disabled": 0, "lat": 38.9532555, "rental_uris": {"android": "https://dc.lft.to/lastmile_qr_scan", "ios": "https://dc.lft.to/lastmile_qr_scan"}, "bike_id": "38659823301f91ddceaacfd1b804b22e", "lon": -77.07068883333334}, {"is_reserved": 0, "fusion_lon": 0.0, "fusion_lat": 0.0, "name": "f1b3e0a52a61d96d67d4011de2afeddd", "type": "electric_bike", "is_disabled": 0, "lat": 39.05786966666667, "rental_uris": {"android": "https://dc.lft.to/lastmile_qr_scan", "ios": "https://dc.lft.to/lastmile_qr_scan"}, "bike_id": "f1b3e0a52a61d96d67d4011de2afeddd", "lon": -77.15022233333333}, {"is_reserved": 0, "fusion_lon": 0.0, "fusion_lat": 0.0, "name": "11c00d63c93524c55a2886ada7bd0c0c", "type": "electric_scooter", "is_disabled": 0, "lat": 38.89520516666666, "rental_uris": {"android": "https://dc.lft.to/lastmile_qr_scan", "ios": "https://dc.lft.to/lastmile_qr_scan"}, "bike_id": "11c00d63c93524c55a2886ada7bd0c0c", "lon": -77.03958933333334}, {"is_reserved": 0, "fusion_lon": 0.0, "fusion_lat": 0.0, "name": "660e19d3519f798b97912e952d6c7b49", "type": "electric_scooter", "is_disabled": 0, "lat": 38.9035055, "rental_uris": {"android": "https://dc.lft.to/lastmile_qr_scan", "ios": "https://dc.lft.to/lastmile_qr_scan"}, "bike_id": "660e19d3519f798b97912e952d6c7b49", "lon": -77.05337466666667}, {"is_reserved": 0, "fusion_lon": 0.0, "fusion_lat": 0.0, "name": "91c9f135063c946be393ccbe9b15dbc4", "type": "electric_scooter", "is_disabled": 0, "lat": 38.924491333333336, "rental_uris": {"android": "https://dc.lft.to/lastmile_qr_scan", "ios": "https://dc.lft.to/lastmile_qr_scan"}, "bike_id": "91c9f135063c946be393ccbe9b15dbc4", "lon": -77.0575515}, {"is_reserved": 0, "fusion_lon": 0.0, "fusion_lat": 0.0, "name": "ab3bfd7278a1c2c91a71e73dc1cc73d3", "type": "electric_scooter", "is_disabled": 0, "lat": 38.923257166666666, "rental_uris": {"android": "https://dc.lft.to/lastmile_qr_scan", "ios": "https://dc.lft.to/lastmile_qr_scan"}, "bike_id": "ab3bfd7278a1c2c91a71e73dc1cc73d3", "lon": -77.035456}, {"is_reserved": 0, "fusion_lon": 0.0, "fusion_lat": 0.0, "name": "112006d9f95b01986af3370b3f09666c", "type": "electric_scooter", "is_disabled": 0, "lat": 38.91066166666667, "rental_uris": {"android": "https://dc.lft.to/lastmile_qr_scan", "ios": "https://dc.lft.to/lastmile_qr_scan"}, "bike_id": "112006d9f95b01986af3370b3f09666c", "lon": -77.04084}, {"is_reserved": 0, "fusion_lon": 0.0, "fusion_lat": 0.0, "name": "e0888e456eff7e1a4154b7c75989c671", "type": "electric_scooter", "is_disabled": 0, "lat": 38.9111955, "rental_uris": {"android": "https://dc.lft.to/lastmile_qr_scan", "ios": "https://dc.lft.to/lastmile_qr_scan"}, "bike_id": "e0888e456eff7e1a4154b7c75989c671", "lon": -77.03833516666667}, {"is_reserved": 0, "fusion_lon": 0.0, "fusion_lat": 0.0, "name": "4dcf3ce8e03dddc11095231cd98cf945", "type": "electric_scooter", "is_disabled": 0, "lat": 38.866578, "rental_uris": {"android": "https://dc.lft.to/lastmile_qr_scan", "ios": "https://dc.lft.to/lastmile_qr_scan"}, "bike_id": "4dcf3ce8e03dddc11095231cd98cf945", "lon": -76.98884533333333}, {"is_reserved": 0, "fusion_lon": 0.0, "fusion_lat": 0.0, "name": "a5231513e890a27c649d64ab5d6fa532", "type": "electric_scooter", "is_disabled": 0, "lat": 38.869906666666665, "rental_uris": {"android": "https://dc.lft.to/lastmile_qr_scan", "ios": "https://dc.lft.to/lastmile_qr_scan"}, "bike_id": "a5231513e890a27c649d64ab5d6fa532", "lon": -76.9759085}, {"is_reserved": 0, "fusion_lon": 0.0, "fusion_lat": 0.0, "name": "527350eacc215bcb7e4552e9ff97129a", "type": "electric_scooter", "is_disabled": 0, "lat": 38.905446166666664, "rental_uris": {"android": "https://dc.lft.to/lastmile_qr_scan", "ios": "https://dc.lft.to/lastmile_qr_scan"}, "bike_id": "527350eacc215bcb7e4552e9ff97129a", "lon": -77.00597416666666}, {"is_reserved": 0, "fusion_lon": 0.0, "fusion_lat": 0.0, "name": "93241d92ed2c12b3dfdbf5619b3b4363", "type": "electric_scooter", "is_disabled": 0, "lat": 38.9027175, "rental_uris": {"android": "https://dc.lft.to/lastmile_qr_scan", "ios": "https://dc.lft.to/lastmile_qr_scan"}, "bike_id": "93241d92ed2c12b3dfdbf5619b3b4363", "lon": -76.99563233333333}, {"is_reserved": 0, "fusion_lon": 0.0, "fusion_lat": 0.0, "name": "680f7f0e6ec91141020bb52daae1a609", "type": "electric_scooter", "is_disabled": 0, "lat": 38.87832383333333, "rental_uris": {"android": "https://dc.lft.to/lastmile_qr_scan", "ios": "https://dc.lft.to/lastmile_qr_scan"}, "bike_id": "680f7f0e6ec91141020bb52daae1a609", "lon": -76.96304233333333}, {"is_reserved": 0, "fusion_lon": 0.0, "fusion_lat": 0.0, "name": "28baec7f5df46c709a14545649e706dc", "type": "electric_scooter", "is_disabled": 0, "lat": 38.984556833333336, "rental_uris": {"android": "https://dc.lft.to/lastmile_qr_scan", "ios": "https://dc.lft.to/lastmile_qr_scan"}, "bike_id": "28baec7f5df46c709a14545649e706dc", "lon": -77.02639683333334}, {"is_reserved": 0, "fusion_lon": 0.0, "fusion_lat": 0.0, "name": "fc29d37c046514efcfff049dc2c49817", "type": "electric_scooter", "is_disabled": 0, "lat": 38.93232483333333, "rental_uris": {"android": "https://dc.lft.to/lastmile_qr_scan", "ios": "https://dc.lft.to/lastmile_qr_scan"}, "bike_id": "fc29d37c046514efcfff049dc2c49817", "lon": -77.03862816666667}, {"is_reserved": 0, "fusion_lon": 0.0, "fusion_lat": 0.0, "name": "f36d80f2f4750abcbaf928b9690e3633", "type": "electric_scooter", "is_disabled": 0, "lat": 38.91554433333334, "rental_uris": {"android": "https://dc.lft.to/lastmile_qr_scan", "ios": "https://dc.lft.to/lastmile_qr_scan"}, "bike_id": "f36d80f2f4750abcbaf928b9690e3633", "lon": -77.02051116666667}, {"is_reserved": 0, "fusion_lon": 0.0, "fusion_lat": 0.0, "name": "9e782ba9b3110ee168ed1480b7ad9cbe", "type": "electric_bike", "is_disabled": 0, "lat": 39.05275233333333, "rental_uris": {"android": "https://dc.lft.to/lastmile_qr_scan", "ios": "https://dc.lft.to/lastmile_qr_scan"}, "bike_id": "9e782ba9b3110ee168ed1480b7ad9cbe", "lon": -77.08067933333334}, {"is_reserved": 0, "fusion_lon": 0.0, "fusion_lat": 0.0, "name": "bfd9906fa2bf98591e56a865f06ffd4d", "type": "electric_scooter", "is_disabled": 0, "lat": 38.92117416666667, "rental_uris": {"android": "https://dc.lft.to/lastmile_qr_scan", "ios": "https://dc.lft.to/lastmile_qr_scan"}, "bike_id": "bfd9906fa2bf98591e56a865f06ffd4d", "lon": -77.04113066666666}, {"is_reserved": 0, "fusion_lon": 0.0, "fusion_lat": 0.0, "name": "5376c1ee65a43ebef0dc27b76a21bd17", "type": "electric_scooter", "is_disabled": 0, "lat": 38.88727083333333, "rental_uris": {"android": "https://dc.lft.to/lastmile_qr_scan", "ios": "https://dc.lft.to/lastmile_qr_scan"}, "bike_id": "5376c1ee65a43ebef0dc27b76a21bd17", "lon": -77.0283045}, {"is_reserved": 0, "fusion_lon": 0.0, "fusion_lat": 0.0, "name": "f2be00b2a7d782bdf06df541684cadcb", "type": "electric_scooter", "is_disabled": 0, "lat": 38.92162, "rental_uris": {"android": "https://dc.lft.to/lastmile_qr_scan", "ios": "https://dc.lft.to/lastmile_qr_scan"}, "bike_id": "f2be00b2a7d782bdf06df541684cadcb", "lon": -77.043546}, {"is_reserved": 0, "fusion_lon": 0.0, "fusion_lat": 0.0, "name": "264bcae19ec4b07148e1a0bc1a935b86", "type": "electric_scooter", "is_disabled": 0, "lat": 38.917038833333336, "rental_uris": {"android": "https://dc.lft.to/lastmile_qr_scan", "ios": "https://dc.lft.to/lastmile_qr_scan"}, "bike_id": "264bcae19ec4b07148e1a0bc1a935b86", "lon": -77.02276233333333}, {"is_reserved": 0, "fusion_lon": 0.0, "fusion_lat": 0.0, "name": "ac6cdad72585786f6108b6999f6b111d", "type": "electric_bike", "is_disabled": 0, "lat": 38.85421016666667, "rental_uris": {"android": "https://dc.lft.to/lastmile_qr_scan", "ios": "https://dc.lft.to/lastmile_qr_scan"}, "bike_id": "ac6cdad72585786f6108b6999f6b111d", "lon": -77.12077483333333}, {"is_reserved": 0, "fusion_lon": 0.0, "fusion_lat": 0.0, "name": "562232ec58d15eea4f8c962d273a332b", "type": "electric_scooter", "is_disabled": 0, "lat": 38.897500666666666, "rental_uris": {"android": "https://dc.lft.to/lastmile_qr_scan", "ios": "https://dc.lft.to/lastmile_qr_scan"}, "bike_id": "562232ec58d15eea4f8c962d273a332b", "lon": -77.04732583333333}, {"is_reserved": 0, "fusion_lon": 0.0, "fusion_lat": 0.0, "name": "bcd004be1f131d4de2730d304be91208", "type": "electric_scooter", "is_disabled": 0, "lat": 38.893948, "rental_uris": {"android": "https://dc.lft.to/lastmile_qr_scan", "ios": "https://dc.lft.to/lastmile_qr_scan"}, "bike_id": "bcd004be1f131d4de2730d304be91208", "lon": -77.02249566666667}, {"is_reserved": 0, "fusion_lon": 0.0, "fusion_lat": 0.0, "name": "2c29fa6584469578e2451858ece59d42", "type": "electric_scooter", "is_disabled": 0, "lat": 38.899313, "rental_uris": {"android": "https://dc.lft.to/lastmile_qr_scan", "ios": "https://dc.lft.to/lastmile_qr_scan"}, "bike_id": "2c29fa6584469578e2451858ece59d42", "lon": -76.94572616666666}, {"is_reserved": 0, "fusion_lon": 0.0, "fusion_lat": 0.0, "name": "db58593e56ef814b50d43adc467082e0", "type": "electric_scooter", "is_disabled": 0, "lat": 38.91258233333333, "rental_uris": {"android": "https://dc.lft.to/lastmile_qr_scan", "ios": "https://dc.lft.to/lastmile_qr_scan"}, "bike_id": "db58593e56ef814b50d43adc467082e0", "lon": -77.03183183333333}, {"is_reserved": 0, "fusion_lon": 0.0, "fusion_lat": 0.0, "name": "b54d96c47cc9ece768654e75a7488037", "type": "electric_scooter", "is_disabled": 0, "lat": 38.9081155, "rental_uris": {"android": "https://dc.lft.to/lastmile_qr_scan", "ios": "https://dc.lft.to/lastmile_qr_scan"}, "bike_id": "b54d96c47cc9ece768654e75a7488037", "lon": -77.0344615}, {"is_reserved": 0, "fusion_lon": 0.0, "fusion_lat": 0.0, "name": "0f833bb4eca850cfb11be101393e1fc8", "type": "electric_scooter", "is_disabled": 0, "lat": 38.93241916666667, "rental_uris": {"android": "https://dc.lft.to/lastmile_qr_scan", "ios": "https://dc.lft.to/lastmile_qr_scan"}, "bike_id": "0f833bb4eca850cfb11be101393e1fc8", "lon": -77.03846766666666}, {"is_reserved": 0, "fusion_lon": 0.0, "fusion_lat": 0.0, "name": "cb4fbba08c175cec8cd525c390340d41", "type": "electric_scooter", "is_disabled": 0, "lat": 38.91733133333334, "rental_uris": {"android": "https://dc.lft.to/lastmile_qr_scan", "ios": "https://dc.lft.to/lastmile_qr_scan"}, "bike_id": "cb4fbba08c175cec8cd525c390340d41", "lon": -77.0684395}, {"is_reserved": 0, "fusion_lon": 0.0, "fusion_lat": 0.0, "name": "b695b92e3170326af3e0bdbe8632492a", "type": "electric_scooter", "is_disabled": 0, "lat": 38.898992666666665, "rental_uris": {"android": "https://dc.lft.to/lastmile_qr_scan", "ios": "https://dc.lft.to/lastmile_qr_scan"}, "bike_id": "b695b92e3170326af3e0bdbe8632492a", "lon": -76.99157033333333}, {"is_reserved": 0, "fusion_lon": 0.0, "fusion_lat": 0.0, "name": "e6e14d749b2b01245dd8956f854bdc4c", "type": "electric_scooter", "is_disabled": 0, "lat": 38.90502216666667, "rental_uris": {"android": "https://dc.lft.to/lastmile_qr_scan", "ios": "https://dc.lft.to/lastmile_qr_scan"}, "bike_id": "e6e14d749b2b01245dd8956f854bdc4c", "lon": -76.9792645}, {"is_reserved": 0, "fusion_lon": 0.0, "fusion_lat": 0.0, "name": "0973c359e6b2627157916d770e3d146c", "type": "electric_scooter", "is_disabled": 0, "lat": 38.87116916666667, "rental_uris": {"android": "https://dc.lft.to/lastmile_qr_scan", "ios": "https://dc.lft.to/lastmile_qr_scan"}, "bike_id": "0973c359e6b2627157916d770e3d146c", "lon": -77.00758616666667}, {"is_reserved": 0, "fusion_lon": 0.0, "fusion_lat": 0.0, "name": "12aa6798a3f3c0411fcde82305824cc6", "type": "electric_scooter", "is_disabled": 0, "lat": 38.89914133333333, "rental_uris": {"android": "https://dc.lft.to/lastmile_qr_scan", "ios": "https://dc.lft.to/lastmile_qr_scan"}, "bike_id": "12aa6798a3f3c0411fcde82305824cc6", "lon": -76.9337945}, {"is_reserved": 0, "fusion_lon": 0.0, "fusion_lat": 0.0, "name": "564deda411037d64b3786224e54d62c8", "type": "electric_bike", "is_disabled": 0, "lat": 38.96620683333333, "rental_uris": {"android": "https://dc.lft.to/lastmile_qr_scan", "ios": "https://dc.lft.to/lastmile_qr_scan"}, "bike_id": "564deda411037d64b3786224e54d62c8", "lon": -77.03432616666667}, {"is_reserved": 0, "fusion_lon": 0.0, "fusion_lat": 0.0, "name": "5c49cbea3c75dc253c56bf61d7992a92", "type": "electric_bike", "is_disabled": 0, "lat": 38.893549666666665, "rental_uris": {"android": "https://dc.lft.to/lastmile_qr_scan", "ios": "https://dc.lft.to/lastmile_qr_scan"}, "bike_id": "5c49cbea3c75dc253c56bf61d7992a92", "lon": -77.18741233333333}, {"is_reserved": 0, "fusion_lon": 0.0, "fusion_lat": 0.0, "name": "10daa413c6ec5697a6d96ea1690ac6ae", "type": "electric_bike", "is_disabled": 0, "lat": 38.91925583333333, "rental_uris": {"android": "https://dc.lft.to/lastmile_qr_scan", "ios": "https://dc.lft.to/lastmile_qr_scan"}, "bike_id": "10daa413c6ec5697a6d96ea1690ac6ae", "lon": -77.07381233333334}, {"is_reserved": 0, "fusion_lon": 0.0, "fusion_lat": 0.0, "name": "28cfc06e64df379784a400b8f395d10c", "type": "electric_bike", "is_disabled": 0, "lat": 39.01367483333333, "rental_uris": {"android": "https://dc.lft.to/lastmile_qr_scan", "ios": "https://dc.lft.to/lastmile_qr_scan"}, "bike_id": "28cfc06e64df379784a400b8f395d10c", "lon": -76.92132333333333}, {"is_reserved": 0, "fusion_lon": 0.0, "fusion_lat": 0.0, "name": "d7b3dd38edd8fcb038c1f7d9f10270f8", "type": "electric_scooter", "is_disabled": 0, "lat": 38.90005516666667, "rental_uris": {"android": "https://dc.lft.to/lastmile_qr_scan", "ios": "https://dc.lft.to/lastmile_qr_scan"}, "bike_id": "d7b3dd38edd8fcb038c1f7d9f10270f8", "lon": -76.99845616666667}, {"is_reserved": 0, "fusion_lon": 0.0, "fusion_lat": 0.0, "name": "131b6a64154dbd9b0905082f4b58aaa9", "type": "electric_scooter", "is_disabled": 0, "lat": 38.892202166666664, "rental_uris": {"android": "https://dc.lft.to/lastmile_qr_scan", "ios": "https://dc.lft.to/lastmile_qr_scan"}, "bike_id": "131b6a64154dbd9b0905082f4b58aaa9", "lon": -77.04869216666667}, {"is_reserved": 0, "fusion_lon": 0.0, "fusion_lat": 0.0, "name": "f80d70d844c03567e7c18467b1b34a29", "type": "electric_scooter", "is_disabled": 0, "lat": 38.908901166666666, "rental_uris": {"android": "https://dc.lft.to/lastmile_qr_scan", "ios": "https://dc.lft.to/lastmile_qr_scan"}, "bike_id": "f80d70d844c03567e7c18467b1b34a29", "lon": -76.982345}, {"is_reserved": 0, "fusion_lon": 0.0, "fusion_lat": 0.0, "name": "984736b4432bf3c377180eb1a3cd17f4", "type": "electric_bike", "is_disabled": 0, "lat": 38.8956195, "rental_uris": {"android": "https://dc.lft.to/lastmile_qr_scan", "ios": "https://dc.lft.to/lastmile_qr_scan"}, "bike_id": "984736b4432bf3c377180eb1a3cd17f4", "lon": -77.12730066666667}, {"is_reserved": 0, "fusion_lon": 0.0, "fusion_lat": 0.0, "name": "a44ac71e479b299980befc30f0de0aac", "type": "electric_scooter", "is_disabled": 0, "lat": 38.8859895, "rental_uris": {"android": "https://dc.lft.to/lastmile_qr_scan", "ios": "https://dc.lft.to/lastmile_qr_scan"}, "bike_id": "a44ac71e479b299980befc30f0de0aac", "lon": -77.012439}, {"is_reserved": 0, "fusion_lon": 0.0, "fusion_lat": 0.0, "name": "65383be4fa99a62bef878e0b3905c0ae", "type": "electric_scooter", "is_disabled": 0, "lat": 38.86141533333333, "rental_uris": {"android": "https://dc.lft.to/lastmile_qr_scan", "ios": "https://dc.lft.to/lastmile_qr_scan"}, "bike_id": "65383be4fa99a62bef878e0b3905c0ae", "lon": -76.98379483333333}, {"is_reserved": 0, "fusion_lon": 0.0, "fusion_lat": 0.0, "name": "3603534b03ec2e1803fa51efea979a84", "type": "electric_scooter", "is_disabled": 0, "lat": 38.91960233333333, "rental_uris": {"android": "https://dc.lft.to/lastmile_qr_scan", "ios": "https://dc.lft.to/lastmile_qr_scan"}, "bike_id": "3603534b03ec2e1803fa51efea979a84", "lon": -77.02400466666667}, {"is_reserved": 0, "fusion_lon": 0.0, "fusion_lat": 0.0, "name": "7796ea07e7ac61f5108f20ff61d8bd9b", "type": "electric_scooter", "is_disabled": 0, "lat": 38.9358055, "rental_uris": {"android": "https://dc.lft.to/lastmile_qr_scan", "ios": "https://dc.lft.to/lastmile_qr_scan"}, "bike_id": "7796ea07e7ac61f5108f20ff61d8bd9b", "lon": -77.02127016666667}, {"is_reserved": 0, "fusion_lon": 0.0, "fusion_lat": 0.0, "name": "bd18039ce0700abbc8ca3d655d116732", "type": "electric_scooter", "is_disabled": 0, "lat": 38.917123333333336, "rental_uris": {"android": "https://dc.lft.to/lastmile_qr_scan", "ios": "https://dc.lft.to/lastmile_qr_scan"}, "bike_id": "bd18039ce0700abbc8ca3d655d116732", "lon": -77.03858516666666}, {"is_reserved": 0, "fusion_lon": 0.0, "fusion_lat": 0.0, "name": "39f9835b949d99c9c8f439877d0dc0c2", "type": "electric_scooter", "is_disabled": 0, "lat": 38.91418383333333, "rental_uris": {"android": "https://dc.lft.to/lastmile_qr_scan", "ios": "https://dc.lft.to/lastmile_qr_scan"}, "bike_id": "39f9835b949d99c9c8f439877d0dc0c2", "lon": -77.02160583333334}, {"is_reserved": 0, "fusion_lon": 0.0, "fusion_lat": 0.0, "name": "b946061b3964b88ead735ff4531df7aa", "type": "electric_scooter", "is_disabled": 0, "lat": 38.892230833333336, "rental_uris": {"android": "https://dc.lft.to/lastmile_qr_scan", "ios": "https://dc.lft.to/lastmile_qr_scan"}, "bike_id": "b946061b3964b88ead735ff4531df7aa", "lon": -77.0433445}, {"is_reserved": 0, "fusion_lon": 0.0, "fusion_lat": 0.0, "name": "e61cd6e823c668a7fa2040396de1eafa", "type": "electric_scooter", "is_disabled": 0, "lat": 38.915996, "rental_uris": {"android": "https://dc.lft.to/lastmile_qr_scan", "ios": "https://dc.lft.to/lastmile_qr_scan"}, "bike_id": "e61cd6e823c668a7fa2040396de1eafa", "lon": -77.024017}, {"is_reserved": 0, "fusion_lon": 0.0, "fusion_lat": 0.0, "name": "d3fd7f3d6b1bcc235553b9e710a34089", "type": "electric_scooter", "is_disabled": 0, "lat": 38.939499, "rental_uris": {"android": "https://dc.lft.to/lastmile_qr_scan", "ios": "https://dc.lft.to/lastmile_qr_scan"}, "bike_id": "d3fd7f3d6b1bcc235553b9e710a34089", "lon": -77.036672}, {"is_reserved": 0, "fusion_lon": 0.0, "fusion_lat": 0.0, "name": "e13897a80aa5ab7bce7eb25d9e3e0963", "type": "electric_scooter", "is_disabled": 0, "lat": 38.933336, "rental_uris": {"android": "https://dc.lft.to/lastmile_qr_scan", "ios": "https://dc.lft.to/lastmile_qr_scan"}, "bike_id": "e13897a80aa5ab7bce7eb25d9e3e0963", "lon": -77.02623966666667}, {"is_reserved": 0, "fusion_lon": 0.0, "fusion_lat": 0.0, "name": "3ab9b459c98f2a0018759b2677e934b4", "type": "electric_bike", "is_disabled": 0, "lat": 38.91166966666667, "rental_uris": {"android": "https://dc.lft.to/lastmile_qr_scan", "ios": "https://dc.lft.to/lastmile_qr_scan"}, "bike_id": "3ab9b459c98f2a0018759b2677e934b4", "lon": -77.00284266666667}, {"is_reserved": 0, "fusion_lon": 0.0, "fusion_lat": 0.0, "name": "51f35c3fefb3d8a89a30b4accecd47ee", "type": "electric_scooter", "is_disabled": 0, "lat": 38.88774, "rental_uris": {"android": "https://dc.lft.to/lastmile_qr_scan", "ios": "https://dc.lft.to/lastmile_qr_scan"}, "bike_id": "51f35c3fefb3d8a89a30b4accecd47ee", "lon": -76.95530283333333}, {"is_reserved": 0, "fusion_lon": 0.0, "fusion_lat": 0.0, "name": "4c2a7e6737fd08cf9e19a55cc0ff44ed", "type": "electric_scooter", "is_disabled": 0, "lat": 38.84315516666667, "rental_uris": {"android": "https://dc.lft.to/lastmile_qr_scan", "ios": "https://dc.lft.to/lastmile_qr_scan"}, "bike_id": "4c2a7e6737fd08cf9e19a55cc0ff44ed", "lon": -76.9993715}, {"is_reserved": 0, "fusion_lon": 0.0, "fusion_lat": 0.0, "name": "4b05271093e0ed7e29ad416d6cbca4f0", "type": "electric_scooter", "is_disabled": 0, "lat": 38.900365, "rental_uris": {"android": "https://dc.lft.to/lastmile_qr_scan", "ios": "https://dc.lft.to/lastmile_qr_scan"}, "bike_id": "4b05271093e0ed7e29ad416d6cbca4f0", "lon": -76.99626466666666}, {"is_reserved": 0, "fusion_lon": 0.0, "fusion_lat": 0.0, "name": "89c0fb4eb2ac7262aee7e583bee22279", "type": "electric_scooter", "is_disabled": 0, "lat": 38.898685, "rental_uris": {"android": "https://dc.lft.to/lastmile_qr_scan", "ios": "https://dc.lft.to/lastmile_qr_scan"}, "bike_id": "89c0fb4eb2ac7262aee7e583bee22279", "lon": -76.946619}, {"is_reserved": 0, "fusion_lon": 0.0, "fusion_lat": 0.0, "name": "0b82089475495149c335e7dab8c5b754", "type": "electric_scooter", "is_disabled": 0, "lat": 38.8934975, "rental_uris": {"android": "https://dc.lft.to/lastmile_qr_scan", "ios": "https://dc.lft.to/lastmile_qr_scan"}, "bike_id": "0b82089475495149c335e7dab8c5b754", "lon": -77.01724583333333}, {"is_reserved": 0, "fusion_lon": 0.0, "fusion_lat": 0.0, "name": "7a12b00a689851b149260bc9967e4b1f", "type": "electric_scooter", "is_disabled": 0, "lat": 38.91416783333333, "rental_uris": {"android": "https://dc.lft.to/lastmile_qr_scan", "ios": "https://dc.lft.to/lastmile_qr_scan"}, "bike_id": "7a12b00a689851b149260bc9967e4b1f", "lon": -77.03810633333333}, {"is_reserved": 0, "fusion_lon": 0.0, "fusion_lat": 0.0, "name": "2aff99cf790d03423eeb4f3cb28181fb", "type": "electric_bike", "is_disabled": 0, "lat": 38.8787175, "rental_uris": {"android": "https://dc.lft.to/lastmile_qr_scan", "ios": "https://dc.lft.to/lastmile_qr_scan"}, "bike_id": "2aff99cf790d03423eeb4f3cb28181fb", "lon": -76.99014633333333}, {"is_reserved": 0, "fusion_lon": 0.0, "fusion_lat": 0.0, "name": "8bb598f1e56fdbd7240f813bd6ead19c", "type": "electric_scooter", "is_disabled": 0, "lat": 38.900748166666666, "rental_uris": {"android": "https://dc.lft.to/lastmile_qr_scan", "ios": "https://dc.lft.to/lastmile_qr_scan"}, "bike_id": "8bb598f1e56fdbd7240f813bd6ead19c", "lon": -77.0489085}, {"is_reserved": 0, "fusion_lon": 0.0, "fusion_lat": 0.0, "name": "1414be70b9fcea2f91c89b4df978baf0", "type": "electric_bike", "is_disabled": 0, "lat": 38.854897666666666, "rental_uris": {"android": "https://dc.lft.to/lastmile_qr_scan", "ios": "https://dc.lft.to/lastmile_qr_scan"}, "bike_id": "1414be70b9fcea2f91c89b4df978baf0", "lon": -77.11611683333334}, {"is_reserved": 0, "fusion_lon": 0.0, "fusion_lat": 0.0, "name": "e739e714172f94ab649961bd9f53194d", "type": "electric_scooter", "is_disabled": 0, "lat": 38.90637916666667, "rental_uris": {"android": "https://dc.lft.to/lastmile_qr_scan", "ios": "https://dc.lft.to/lastmile_qr_scan"}, "bike_id": "e739e714172f94ab649961bd9f53194d", "lon": -77.04658433333333}, {"is_reserved": 0, "fusion_lon": 0.0, "fusion_lat": 0.0, "name": "786985cb18dea7a07ce658179fa7cfbc", "type": "electric_scooter", "is_disabled": 0, "lat": 38.91115583333333, "rental_uris": {"android": "https://dc.lft.to/lastmile_qr_scan", "ios": "https://dc.lft.to/lastmile_qr_scan"}, "bike_id": "786985cb18dea7a07ce658179fa7cfbc", "lon": -77.03151933333334}, {"is_reserved": 0, "fusion_lon": 0.0, "fusion_lat": 0.0, "name": "e33d882313760b10c67f78b3aa84c2a7", "type": "electric_scooter", "is_disabled": 0, "lat": 38.90061383333333, "rental_uris": {"android": "https://dc.lft.to/lastmile_qr_scan", "ios": "https://dc.lft.to/lastmile_qr_scan"}, "bike_id": "e33d882313760b10c67f78b3aa84c2a7", "lon": -77.045345}, {"is_reserved": 0, "fusion_lon": 0.0, "fusion_lat": 0.0, "name": "14f726929aab69697c21e1b38bcb40bf", "type": "electric_bike", "is_disabled": 0, "lat": 38.924596666666666, "rental_uris": {"android": "https://dc.lft.to/lastmile_qr_scan", "ios": "https://dc.lft.to/lastmile_qr_scan"}, "bike_id": "14f726929aab69697c21e1b38bcb40bf", "lon": -76.975572}, {"is_reserved": 0, "fusion_lon": 0.0, "fusion_lat": 0.0, "name": "54e27158258742913914d6be1ad7f72d", "type": "electric_scooter", "is_disabled": 0, "lat": 38.928849166666666, "rental_uris": {"android": "https://dc.lft.to/lastmile_qr_scan", "ios": "https://dc.lft.to/lastmile_qr_scan"}, "bike_id": "54e27158258742913914d6be1ad7f72d", "lon": -77.033536}, {"is_reserved": 0, "fusion_lon": 0.0, "fusion_lat": 0.0, "name": "5be929028f230cfb936a6060e6bf4c3d", "type": "electric_scooter", "is_disabled": 0, "lat": 38.91951533333334, "rental_uris": {"android": "https://dc.lft.to/lastmile_qr_scan", "ios": "https://dc.lft.to/lastmile_qr_scan"}, "bike_id": "5be929028f230cfb936a6060e6bf4c3d", "lon": -77.0236975}, {"is_reserved": 0, "fusion_lon": 0.0, "fusion_lat": 0.0, "name": "feece6d60c2288ac0e74d46c76a3949c", "type": "electric_scooter", "is_disabled": 0, "lat": 38.917051, "rental_uris": {"android": "https://dc.lft.to/lastmile_qr_scan", "ios": "https://dc.lft.to/lastmile_qr_scan"}, "bike_id": "feece6d60c2288ac0e74d46c76a3949c", "lon": -77.03310516666667}, {"is_reserved": 0, "fusion_lon": 0.0, "fusion_lat": 0.0, "name": "3401097595035856b390c721af5e8c5e", "type": "electric_scooter", "is_disabled": 0, "lat": 38.9308695, "rental_uris": {"android": "https://dc.lft.to/lastmile_qr_scan", "ios": "https://dc.lft.to/lastmile_qr_scan"}, "bike_id": "3401097595035856b390c721af5e8c5e", "lon": -77.02802466666667}, {"is_reserved": 0, "fusion_lon": 0.0, "fusion_lat": 0.0, "name": "49f3b9425e9af2eef152d3ddaa30bc70", "type": "electric_scooter", "is_disabled": 0, "lat": 38.904273833333335, "rental_uris": {"android": "https://dc.lft.to/lastmile_qr_scan", "ios": "https://dc.lft.to/lastmile_qr_scan"}, "bike_id": "49f3b9425e9af2eef152d3ddaa30bc70", "lon": -77.04327516666666}, {"is_reserved": 0, "fusion_lon": 0.0, "fusion_lat": 0.0, "name": "64a1e84bd9e4865171f2e2a9d03558b2", "type": "electric_scooter", "is_disabled": 0, "lat": 38.906326, "rental_uris": {"android": "https://dc.lft.to/lastmile_qr_scan", "ios": "https://dc.lft.to/lastmile_qr_scan"}, "bike_id": "64a1e84bd9e4865171f2e2a9d03558b2", "lon": -77.06874183333333}, {"is_reserved": 0, "fusion_lon": 0.0, "fusion_lat": 0.0, "name": "22f85b45e4820e615ff22a163c1257ef", "type": "electric_scooter", "is_disabled": 0, "lat": 38.95501316666667, "rental_uris": {"android": "https://dc.lft.to/lastmile_qr_scan", "ios": "https://dc.lft.to/lastmile_qr_scan"}, "bike_id": "22f85b45e4820e615ff22a163c1257ef", "lon": -77.02962666666667}, {"is_reserved": 0, "fusion_lon": 0.0, "fusion_lat": 0.0, "name": "2bc07bc44865dbc9d99b7d52d044c68b", "type": "electric_scooter", "is_disabled": 0, "lat": 38.9172415, "rental_uris": {"android": "https://dc.lft.to/lastmile_qr_scan", "ios": "https://dc.lft.to/lastmile_qr_scan"}, "bike_id": "2bc07bc44865dbc9d99b7d52d044c68b", "lon": -77.036597}, {"is_reserved": 0, "fusion_lon": 0.0, "fusion_lat": 0.0, "name": "72ed0e9a1fa76b1fae54a5d15d610c2e", "type": "electric_scooter", "is_disabled": 0, "lat": 38.91767183333333, "rental_uris": {"android": "https://dc.lft.to/lastmile_qr_scan", "ios": "https://dc.lft.to/lastmile_qr_scan"}, "bike_id": "72ed0e9a1fa76b1fae54a5d15d610c2e", "lon": -77.04555866666666}, {"is_reserved": 0, "fusion_lon": 0.0, "fusion_lat": 0.0, "name": "74cb5f5db9af7c3853f7baf4dd9c487b", "type": "electric_bike", "is_disabled": 0, "lat": 38.819097166666666, "rental_uris": {"android": "https://dc.lft.to/lastmile_qr_scan", "ios": "https://dc.lft.to/lastmile_qr_scan"}, "bike_id": "74cb5f5db9af7c3853f7baf4dd9c487b", "lon": -76.99912083333334}, {"is_reserved": 0, "fusion_lon": 0.0, "fusion_lat": 0.0, "name": "2e31fc2f65fa28114919a95784d47fde", "type": "electric_scooter", "is_disabled": 0, "lat": 38.9213065, "rental_uris": {"android": "https://dc.lft.to/lastmile_qr_scan", "ios": "https://dc.lft.to/lastmile_qr_scan"}, "bike_id": "2e31fc2f65fa28114919a95784d47fde", "lon": -77.0040315}, {"is_reserved": 0, "fusion_lon": 0.0, "fusion_lat": 0.0, "name": "0ef8292aa36c514d8fa130800fc28336", "type": "electric_scooter", "is_disabled": 0, "lat": 38.89235, "rental_uris": {"android": "https://dc.lft.to/lastmile_qr_scan", "ios": "https://dc.lft.to/lastmile_qr_scan"}, "bike_id": "0ef8292aa36c514d8fa130800fc28336", "lon": -77.03210666666666}, {"is_reserved": 0, "fusion_lon": 0.0, "fusion_lat": 0.0, "name": "b075f54d71842861f712c4505f8ed76f", "type": "electric_scooter", "is_disabled": 0, "lat": 38.917335666666666, "rental_uris": {"android": "https://dc.lft.to/lastmile_qr_scan", "ios": "https://dc.lft.to/lastmile_qr_scan"}, "bike_id": "b075f54d71842861f712c4505f8ed76f", "lon": -77.02289183333333}, {"is_reserved": 0, "fusion_lon": 0.0, "fusion_lat": 0.0, "name": "ff5492518da1698c248b5d09ebac014c", "type": "electric_scooter", "is_disabled": 0, "lat": 38.87011, "rental_uris": {"android": "https://dc.lft.to/lastmile_qr_scan", "ios": "https://dc.lft.to/lastmile_qr_scan"}, "bike_id": "ff5492518da1698c248b5d09ebac014c", "lon": -76.98085483333334}, {"is_reserved": 0, "fusion_lon": 0.0, "fusion_lat": 0.0, "name": "098ead166c0f5ec4ccfbee409f330b06", "type": "electric_scooter", "is_disabled": 0, "lat": 38.909531666666666, "rental_uris": {"android": "https://dc.lft.to/lastmile_qr_scan", "ios": "https://dc.lft.to/lastmile_qr_scan"}, "bike_id": "098ead166c0f5ec4ccfbee409f330b06", "lon": -77.03865933333333}, {"is_reserved": 0, "fusion_lon": 0.0, "fusion_lat": 0.0, "name": "02f07ccaa27d7c86bed9e33977eac2c1", "type": "electric_scooter", "is_disabled": 0, "lat": 38.984602833333334, "rental_uris": {"android": "https://dc.lft.to/lastmile_qr_scan", "ios": "https://dc.lft.to/lastmile_qr_scan"}, "bike_id": "02f07ccaa27d7c86bed9e33977eac2c1", "lon": -77.0268155}, {"is_reserved": 0, "fusion_lon": 0.0, "fusion_lat": 0.0, "name": "8ac360c65b96cf83846213c4f5b9a706", "type": "electric_scooter", "is_disabled": 0, "lat": 38.914157833333334, "rental_uris": {"android": "https://dc.lft.to/lastmile_qr_scan", "ios": "https://dc.lft.to/lastmile_qr_scan"}, "bike_id": "8ac360c65b96cf83846213c4f5b9a706", "lon": -77.031513}, {"is_reserved": 0, "fusion_lon": 0.0, "fusion_lat": 0.0, "name": "8c1391295bf3e1cebab2214508ac3f8e", "type": "electric_scooter", "is_disabled": 0, "lat": 38.877168833333336, "rental_uris": {"android": "https://dc.lft.to/lastmile_qr_scan", "ios": "https://dc.lft.to/lastmile_qr_scan"}, "bike_id": "8c1391295bf3e1cebab2214508ac3f8e", "lon": -77.00571616666667}, {"is_reserved": 0, "fusion_lon": 0.0, "fusion_lat": 0.0, "name": "eb9ba30c511a33d7286d805ce08bca27", "type": "electric_scooter", "is_disabled": 0, "lat": 38.87846, "rental_uris": {"android": "https://dc.lft.to/lastmile_qr_scan", "ios": "https://dc.lft.to/lastmile_qr_scan"}, "bike_id": "eb9ba30c511a33d7286d805ce08bca27", "lon": -77.03021566666666}, {"is_reserved": 0, "fusion_lon": 0.0, "fusion_lat": 0.0, "name": "e8fdce775ab572e4e7ff433500fa4ade", "type": "electric_scooter", "is_disabled": 0, "lat": 38.935644333333336, "rental_uris": {"android": "https://dc.lft.to/lastmile_qr_scan", "ios": "https://dc.lft.to/lastmile_qr_scan"}, "bike_id": "e8fdce775ab572e4e7ff433500fa4ade", "lon": -77.07312516666667}, {"is_reserved": 0, "fusion_lon": 0.0, "fusion_lat": 0.0, "name": "78f2e90523e98479ba14f4ec8a63d24c", "type": "electric_scooter", "is_disabled": 0, "lat": 38.919205166666664, "rental_uris": {"android": "https://dc.lft.to/lastmile_qr_scan", "ios": "https://dc.lft.to/lastmile_qr_scan"}, "bike_id": "78f2e90523e98479ba14f4ec8a63d24c", "lon": -77.02523633333334}, {"is_reserved": 0, "fusion_lon": 0.0, "fusion_lat": 0.0, "name": "25fb4f4ea8919cccd6ca48bd0e51cf61", "type": "electric_scooter", "is_disabled": 0, "lat": 38.895319, "rental_uris": {"android": "https://dc.lft.to/lastmile_qr_scan", "ios": "https://dc.lft.to/lastmile_qr_scan"}, "bike_id": "25fb4f4ea8919cccd6ca48bd0e51cf61", "lon": -77.02865783333333}, {"is_reserved": 0, "fusion_lon": 0.0, "fusion_lat": 0.0, "name": "9823a0c18374d5ad34df5986592ec640", "type": "electric_scooter", "is_disabled": 0, "lat": 38.9487235, "rental_uris": {"android": "https://dc.lft.to/lastmile_qr_scan", "ios": "https://dc.lft.to/lastmile_qr_scan"}, "bike_id": "9823a0c18374d5ad34df5986592ec640", "lon": -77.0389225}, {"is_reserved": 0, "fusion_lon": 0.0, "fusion_lat": 0.0, "name": "9914e7ea53d2c25d4012c3fbf75f0d44", "type": "electric_scooter", "is_disabled": 0, "lat": 38.91469466666667, "rental_uris": {"android": "https://dc.lft.to/lastmile_qr_scan", "ios": "https://dc.lft.to/lastmile_qr_scan"}, "bike_id": "9914e7ea53d2c25d4012c3fbf75f0d44", "lon": -77.03198333333333}, {"is_reserved": 0, "fusion_lon": 0.0, "fusion_lat": 0.0, "name": "edc5d47f3a13797da5616120797e1285", "type": "electric_bike", "is_disabled": 0, "lat": 38.9415115, "rental_uris": {"android": "https://dc.lft.to/lastmile_qr_scan", "ios": "https://dc.lft.to/lastmile_qr_scan"}, "bike_id": "edc5d47f3a13797da5616120797e1285", "lon": -77.0019805}, {"is_reserved": 0, "fusion_lon": 0.0, "fusion_lat": 0.0, "name": "523223f9ac285faa69008ba132438208", "type": "electric_scooter", "is_disabled": 0, "lat": 38.915778333333336, "rental_uris": {"android": "https://dc.lft.to/lastmile_qr_scan", "ios": "https://dc.lft.to/lastmile_qr_scan"}, "bike_id": "523223f9ac285faa69008ba132438208", "lon": -77.012515}, {"is_reserved": 0, "fusion_lon": 0.0, "fusion_lat": 0.0, "name": "6b8d32fa965a22ffd5c9d8f769ffdb98", "type": "electric_scooter", "is_disabled": 0, "lat": 38.91265083333333, "rental_uris": {"android": "https://dc.lft.to/lastmile_qr_scan", "ios": "https://dc.lft.to/lastmile_qr_scan"}, "bike_id": "6b8d32fa965a22ffd5c9d8f769ffdb98", "lon": -77.03862966666667}, {"is_reserved": 0, "fusion_lon": 0.0, "fusion_lat": 0.0, "name": "9c35ce1b153399c76bb626c6fd68ecd6", "type": "electric_scooter", "is_disabled": 0, "lat": 38.907207, "rental_uris": {"android": "https://dc.lft.to/lastmile_qr_scan", "ios": "https://dc.lft.to/lastmile_qr_scan"}, "bike_id": "9c35ce1b153399c76bb626c6fd68ecd6", "lon": -77.04815116666667}, {"is_reserved": 0, "fusion_lon": 0.0, "fusion_lat": 0.0, "name": "e0348b7e7b8906cb016853cb1b5186b7", "type": "electric_scooter", "is_disabled": 0, "lat": 38.9015855, "rental_uris": {"android": "https://dc.lft.to/lastmile_qr_scan", "ios": "https://dc.lft.to/lastmile_qr_scan"}, "bike_id": "e0348b7e7b8906cb016853cb1b5186b7", "lon": -77.04037216666667}, {"is_reserved": 0, "fusion_lon": 0.0, "fusion_lat": 0.0, "name": "34ab6525b7f5d31243445bb6f7d3193a", "type": "electric_scooter", "is_disabled": 0, "lat": 38.90331916666667, "rental_uris": {"android": "https://dc.lft.to/lastmile_qr_scan", "ios": "https://dc.lft.to/lastmile_qr_scan"}, "bike_id": "34ab6525b7f5d31243445bb6f7d3193a", "lon": -77.005483}, {"is_reserved": 0, "fusion_lon": 0.0, "fusion_lat": 0.0, "name": "7f9048b5f014a630761510b51ce93dd1", "type": "electric_scooter", "is_disabled": 0, "lat": 38.913866, "rental_uris": {"android": "https://dc.lft.to/lastmile_qr_scan", "ios": "https://dc.lft.to/lastmile_qr_scan"}, "bike_id": "7f9048b5f014a630761510b51ce93dd1", "lon": -77.0170315}, {"is_reserved": 0, "fusion_lon": 0.0, "fusion_lat": 0.0, "name": "a76644574bd14ffc069658f324bbb55d", "type": "electric_scooter", "is_disabled": 0, "lat": 38.89017033333333, "rental_uris": {"android": "https://dc.lft.to/lastmile_qr_scan", "ios": "https://dc.lft.to/lastmile_qr_scan"}, "bike_id": "a76644574bd14ffc069658f324bbb55d", "lon": -76.93732533333333}, {"is_reserved": 0, "fusion_lon": 0.0, "fusion_lat": 0.0, "name": "3914129e7ba07bee8da96837a2956874", "type": "electric_scooter", "is_disabled": 0, "lat": 38.901414333333335, "rental_uris": {"android": "https://dc.lft.to/lastmile_qr_scan", "ios": "https://dc.lft.to/lastmile_qr_scan"}, "bike_id": "3914129e7ba07bee8da96837a2956874", "lon": -77.032715}, {"is_reserved": 0, "fusion_lon": 0.0, "fusion_lat": 0.0, "name": "947bbd3e5817118fc38f957b150740cd", "type": "electric_scooter", "is_disabled": 0, "lat": 38.90974533333333, "rental_uris": {"android": "https://dc.lft.to/lastmile_qr_scan", "ios": "https://dc.lft.to/lastmile_qr_scan"}, "bike_id": "947bbd3e5817118fc38f957b150740cd", "lon": -77.0385975}, {"is_reserved": 0, "fusion_lon": 0.0, "fusion_lat": 0.0, "name": "845b6e346b9f8abeec60dfc3f39d3b16", "type": "electric_scooter", "is_disabled": 0, "lat": 38.917925333333336, "rental_uris": {"android": "https://dc.lft.to/lastmile_qr_scan", "ios": "https://dc.lft.to/lastmile_qr_scan"}, "bike_id": "845b6e346b9f8abeec60dfc3f39d3b16", "lon": -77.03202216666666}, {"is_reserved": 0, "fusion_lon": 0.0, "fusion_lat": 0.0, "name": "553ef7e2c037dc99f22f3a73b6623c01", "type": "electric_scooter", "is_disabled": 0, "lat": 38.934814833333334, "rental_uris": {"android": "https://dc.lft.to/lastmile_qr_scan", "ios": "https://dc.lft.to/lastmile_qr_scan"}, "bike_id": "553ef7e2c037dc99f22f3a73b6623c01", "lon": -77.06481416666666}, {"is_reserved": 0, "fusion_lon": 0.0, "fusion_lat": 0.0, "name": "74206c30ed96423b7b7a59bd0b209e11", "type": "electric_scooter", "is_disabled": 0, "lat": 38.897854333333335, "rental_uris": {"android": "https://dc.lft.to/lastmile_qr_scan", "ios": "https://dc.lft.to/lastmile_qr_scan"}, "bike_id": "74206c30ed96423b7b7a59bd0b209e11", "lon": -77.04011883333334}, {"is_reserved": 0, "fusion_lon": 0.0, "fusion_lat": 0.0, "name": "c87e76449b2234cf58b2cabc2c59b85b", "type": "electric_scooter", "is_disabled": 0, "lat": 38.920513, "rental_uris": {"android": "https://dc.lft.to/lastmile_qr_scan", "ios": "https://dc.lft.to/lastmile_qr_scan"}, "bike_id": "c87e76449b2234cf58b2cabc2c59b85b", "lon": -77.03467383333333}, {"is_reserved": 0, "fusion_lon": 0.0, "fusion_lat": 0.0, "name": "fa0075ea69a69457a0947214e4eddd79", "type": "electric_scooter", "is_disabled": 0, "lat": 38.95197616666667, "rental_uris": {"android": "https://dc.lft.to/lastmile_qr_scan", "ios": "https://dc.lft.to/lastmile_qr_scan"}, "bike_id": "fa0075ea69a69457a0947214e4eddd79", "lon": -77.0274495}, {"is_reserved": 0, "fusion_lon": 0.0, "fusion_lat": 0.0, "name": "be837ea563a9bab2338f69f784f8316c", "type": "electric_scooter", "is_disabled": 0, "lat": 38.875395, "rental_uris": {"android": "https://dc.lft.to/lastmile_qr_scan", "ios": "https://dc.lft.to/lastmile_qr_scan"}, "bike_id": "be837ea563a9bab2338f69f784f8316c", "lon": -77.00600166666666}, {"is_reserved": 0, "fusion_lon": 0.0, "fusion_lat": 0.0, "name": "0b78897c7874202abeff70c59201d6e5", "type": "electric_scooter", "is_disabled": 0, "lat": 38.915557166666666, "rental_uris": {"android": "https://dc.lft.to/lastmile_qr_scan", "ios": "https://dc.lft.to/lastmile_qr_scan"}, "bike_id": "0b78897c7874202abeff70c59201d6e5", "lon": -77.00367016666667}, {"is_reserved": 0, "fusion_lon": 0.0, "fusion_lat": 0.0, "name": "b11ecc86dc822c501bfd2cf7de49d53a", "type": "electric_scooter", "is_disabled": 0, "lat": 38.9079935, "rental_uris": {"android": "https://dc.lft.to/lastmile_qr_scan", "ios": "https://dc.lft.to/lastmile_qr_scan"}, "bike_id": "b11ecc86dc822c501bfd2cf7de49d53a", "lon": -77.0320415}, {"is_reserved": 0, "fusion_lon": 0.0, "fusion_lat": 0.0, "name": "c3332616d58ce57b818e3378978f0d39", "type": "electric_scooter", "is_disabled": 0, "lat": 38.89736466666667, "rental_uris": {"android": "https://dc.lft.to/lastmile_qr_scan", "ios": "https://dc.lft.to/lastmile_qr_scan"}, "bike_id": "c3332616d58ce57b818e3378978f0d39", "lon": -77.033564}, {"is_reserved": 0, "fusion_lon": 0.0, "fusion_lat": 0.0, "name": "8f3705e4161964ca38aad5da46fa11c9", "type": "electric_scooter", "is_disabled": 0, "lat": 38.90532433333333, "rental_uris": {"android": "https://dc.lft.to/lastmile_qr_scan", "ios": "https://dc.lft.to/lastmile_qr_scan"}, "bike_id": "8f3705e4161964ca38aad5da46fa11c9", "lon": -77.02195533333334}, {"is_reserved": 0, "fusion_lon": 0.0, "fusion_lat": 0.0, "name": "36a305f9fd57a7a5837f5531a785116b", "type": "electric_scooter", "is_disabled": 0, "lat": 38.92334666666667, "rental_uris": {"android": "https://dc.lft.to/lastmile_qr_scan", "ios": "https://dc.lft.to/lastmile_qr_scan"}, "bike_id": "36a305f9fd57a7a5837f5531a785116b", "lon": -77.036221}, {"is_reserved": 0, "fusion_lon": 0.0, "fusion_lat": 0.0, "name": "406e1e97fec9ed7dd9693b3718d7947e", "type": "electric_bike", "is_disabled": 0, "lat": 38.96809316666667, "rental_uris": {"android": "https://dc.lft.to/lastmile_qr_scan", "ios": "https://dc.lft.to/lastmile_qr_scan"}, "bike_id": "406e1e97fec9ed7dd9693b3718d7947e", "lon": -77.000262}, {"is_reserved": 0, "fusion_lon": 0.0, "fusion_lat": 0.0, "name": "b1fbb9aea4173b96833623bf00fe29ea", "type": "electric_scooter", "is_disabled": 0, "lat": 38.961141833333336, "rental_uris": {"android": "https://dc.lft.to/lastmile_qr_scan", "ios": "https://dc.lft.to/lastmile_qr_scan"}, "bike_id": "b1fbb9aea4173b96833623bf00fe29ea", "lon": -77.02790316666666}, {"is_reserved": 0, "fusion_lon": 0.0, "fusion_lat": 0.0, "name": "d57ee6c4875a87f90d1c4e588eadab7e", "type": "electric_scooter", "is_disabled": 0, "lat": 38.89236366666667, "rental_uris": {"android": "https://dc.lft.to/lastmile_qr_scan", "ios": "https://dc.lft.to/lastmile_qr_scan"}, "bike_id": "d57ee6c4875a87f90d1c4e588eadab7e", "lon": -77.03208183333334}, {"is_reserved": 0, "fusion_lon": 0.0, "fusion_lat": 0.0, "name": "c3aab440124949dab0c3a691cfb88dac", "type": "electric_scooter", "is_disabled": 0, "lat": 38.935374, "rental_uris": {"android": "https://dc.lft.to/lastmile_qr_scan", "ios": "https://dc.lft.to/lastmile_qr_scan"}, "bike_id": "c3aab440124949dab0c3a691cfb88dac", "lon": -77.02347566666667}, {"is_reserved": 0, "fusion_lon": 0.0, "fusion_lat": 0.0, "name": "ffcc37bd3b66807fed80e83fbc8ee5e4", "type": "electric_scooter", "is_disabled": 0, "lat": 38.90175133333334, "rental_uris": {"android": "https://dc.lft.to/lastmile_qr_scan", "ios": "https://dc.lft.to/lastmile_qr_scan"}, "bike_id": "ffcc37bd3b66807fed80e83fbc8ee5e4", "lon": -76.980115}, {"is_reserved": 0, "fusion_lon": 0.0, "fusion_lat": 0.0, "name": "3af4b82f30d099c04f71c44fb4e3d125", "type": "electric_bike", "is_disabled": 0, "lat": 38.94759616666666, "rental_uris": {"android": "https://dc.lft.to/lastmile_qr_scan", "ios": "https://dc.lft.to/lastmile_qr_scan"}, "bike_id": "3af4b82f30d099c04f71c44fb4e3d125", "lon": -77.02368766666666}, {"is_reserved": 0, "fusion_lon": 0.0, "fusion_lat": 0.0, "name": "a350f15e54f062259affb5be4049268e", "type": "electric_scooter", "is_disabled": 0, "lat": 38.900726666666664, "rental_uris": {"android": "https://dc.lft.to/lastmile_qr_scan", "ios": "https://dc.lft.to/lastmile_qr_scan"}, "bike_id": "a350f15e54f062259affb5be4049268e", "lon": -77.00212783333333}, {"is_reserved": 0, "fusion_lon": 0.0, "fusion_lat": 0.0, "name": "94ef0d7c999cac845d3a3c5d259cd250", "type": "electric_scooter", "is_disabled": 0, "lat": 38.916953, "rental_uris": {"android": "https://dc.lft.to/lastmile_qr_scan", "ios": "https://dc.lft.to/lastmile_qr_scan"}, "bike_id": "94ef0d7c999cac845d3a3c5d259cd250", "lon": -77.02283516666667}, {"is_reserved": 0, "fusion_lon": 0.0, "fusion_lat": 0.0, "name": "76844d8cc5b1652707ae037d9eb808e2", "type": "electric_scooter", "is_disabled": 0, "lat": 38.911863833333335, "rental_uris": {"android": "https://dc.lft.to/lastmile_qr_scan", "ios": "https://dc.lft.to/lastmile_qr_scan"}, "bike_id": "76844d8cc5b1652707ae037d9eb808e2", "lon": -77.00469833333334}, {"is_reserved": 0, "fusion_lon": 0.0, "fusion_lat": 0.0, "name": "193f23acf744a45eda07e4788b365d56", "type": "electric_scooter", "is_disabled": 0, "lat": 38.907129166666664, "rental_uris": {"android": "https://dc.lft.to/lastmile_qr_scan", "ios": "https://dc.lft.to/lastmile_qr_scan"}, "bike_id": "193f23acf744a45eda07e4788b365d56", "lon": -76.99820566666666}, {"is_reserved": 0, "fusion_lon": 0.0, "fusion_lat": 0.0, "name": "4afa09f0eb34255dbced90d517abb777", "type": "electric_scooter", "is_disabled": 0, "lat": 38.91106033333333, "rental_uris": {"android": "https://dc.lft.to/lastmile_qr_scan", "ios": "https://dc.lft.to/lastmile_qr_scan"}, "bike_id": "4afa09f0eb34255dbced90d517abb777", "lon": -77.024243}, {"is_reserved": 0, "fusion_lon": 0.0, "fusion_lat": 0.0, "name": "84e60d604b0fe278049ffe7e10c94cdd", "type": "electric_scooter", "is_disabled": 0, "lat": 38.8901545, "rental_uris": {"android": "https://dc.lft.to/lastmile_qr_scan", "ios": "https://dc.lft.to/lastmile_qr_scan"}, "bike_id": "84e60d604b0fe278049ffe7e10c94cdd", "lon": -76.93736283333334}, {"is_reserved": 0, "fusion_lon": 0.0, "fusion_lat": 0.0, "name": "6f91a4879ecb85568d0086d96ae45541", "type": "electric_scooter", "is_disabled": 0, "lat": 38.91573416666667, "rental_uris": {"android": "https://dc.lft.to/lastmile_qr_scan", "ios": "https://dc.lft.to/lastmile_qr_scan"}, "bike_id": "6f91a4879ecb85568d0086d96ae45541", "lon": -77.03195983333333}, {"is_reserved": 0, "fusion_lon": 0.0, "fusion_lat": 0.0, "name": "d617341c52b2f16d6177d2dff748327c", "type": "electric_scooter", "is_disabled": 0, "lat": 38.931713, "rental_uris": {"android": "https://dc.lft.to/lastmile_qr_scan", "ios": "https://dc.lft.to/lastmile_qr_scan"}, "bike_id": "d617341c52b2f16d6177d2dff748327c", "lon": -77.028093}, {"is_reserved": 0, "fusion_lon": 0.0, "fusion_lat": 0.0, "name": "44419092493bb8230212559c0c02a963", "type": "electric_scooter", "is_disabled": 0, "lat": 38.935311, "rental_uris": {"android": "https://dc.lft.to/lastmile_qr_scan", "ios": "https://dc.lft.to/lastmile_qr_scan"}, "bike_id": "44419092493bb8230212559c0c02a963", "lon": -77.03473333333334}, {"is_reserved": 0, "fusion_lon": 0.0, "fusion_lat": 0.0, "name": "a4682be5b44f3a266f912db5d526d972", "type": "electric_scooter", "is_disabled": 0, "lat": 38.92768066666667, "rental_uris": {"android": "https://dc.lft.to/lastmile_qr_scan", "ios": "https://dc.lft.to/lastmile_qr_scan"}, "bike_id": "a4682be5b44f3a266f912db5d526d972", "lon": -77.02067783333334}, {"is_reserved": 0, "fusion_lon": 0.0, "fusion_lat": 0.0, "name": "407813f48743c8bbc4bada0e2af8bad1", "type": "electric_scooter", "is_disabled": 0, "lat": 38.9211035, "rental_uris": {"android": "https://dc.lft.to/lastmile_qr_scan", "ios": "https://dc.lft.to/lastmile_qr_scan"}, "bike_id": "407813f48743c8bbc4bada0e2af8bad1", "lon": -77.03329883333333}, {"is_reserved": 0, "fusion_lon": 0.0, "fusion_lat": 0.0, "name": "fe9ae51407108f63fba11ffe2e687d23", "type": "electric_scooter", "is_disabled": 0, "lat": 38.93400966666667, "rental_uris": {"android": "https://dc.lft.to/lastmile_qr_scan", "ios": "https://dc.lft.to/lastmile_qr_scan"}, "bike_id": "fe9ae51407108f63fba11ffe2e687d23", "lon": -77.02210383333333}, {"is_reserved": 0, "fusion_lon": 0.0, "fusion_lat": 0.0, "name": "f87814604fc6dbc4bdc20d2b2430aa82", "type": "electric_scooter", "is_disabled": 0, "lat": 38.903771666666664, "rental_uris": {"android": "https://dc.lft.to/lastmile_qr_scan", "ios": "https://dc.lft.to/lastmile_qr_scan"}, "bike_id": "f87814604fc6dbc4bdc20d2b2430aa82", "lon": -77.04046183333334}, {"is_reserved": 0, "fusion_lon": 0.0, "fusion_lat": 0.0, "name": "aa03cada4634c67368567bbf0be5f555", "type": "electric_scooter", "is_disabled": 0, "lat": 38.866546166666666, "rental_uris": {"android": "https://dc.lft.to/lastmile_qr_scan", "ios": "https://dc.lft.to/lastmile_qr_scan"}, "bike_id": "aa03cada4634c67368567bbf0be5f555", "lon": -76.98522233333334}, {"is_reserved": 0, "fusion_lon": 0.0, "fusion_lat": 0.0, "name": "a3e3e95e6037dcdfabcbfadf186da990", "type": "electric_scooter", "is_disabled": 0, "lat": 38.9167825, "rental_uris": {"android": "https://dc.lft.to/lastmile_qr_scan", "ios": "https://dc.lft.to/lastmile_qr_scan"}, "bike_id": "a3e3e95e6037dcdfabcbfadf186da990", "lon": -77.02971566666666}, {"is_reserved": 0, "fusion_lon": 0.0, "fusion_lat": 0.0, "name": "37772c0df2f8b82e86cfe5cb490a8f3e", "type": "electric_scooter", "is_disabled": 0, "lat": 38.874581, "rental_uris": {"android": "https://dc.lft.to/lastmile_qr_scan", "ios": "https://dc.lft.to/lastmile_qr_scan"}, "bike_id": "37772c0df2f8b82e86cfe5cb490a8f3e", "lon": -77.00542983333334}, {"is_reserved": 0, "fusion_lon": 0.0, "fusion_lat": 0.0, "name": "71189a935d68e97c24db370c4f331ed9", "type": "electric_scooter", "is_disabled": 0, "lat": 38.90774366666667, "rental_uris": {"android": "https://dc.lft.to/lastmile_qr_scan", "ios": "https://dc.lft.to/lastmile_qr_scan"}, "bike_id": "71189a935d68e97c24db370c4f331ed9", "lon": -77.0383375}, {"is_reserved": 0, "fusion_lon": 0.0, "fusion_lat": 0.0, "name": "44ab31cc752afe2d7d3896649af030b2", "type": "electric_scooter", "is_disabled": 0, "lat": 38.86664316666667, "rental_uris": {"android": "https://dc.lft.to/lastmile_qr_scan", "ios": "https://dc.lft.to/lastmile_qr_scan"}, "bike_id": "44ab31cc752afe2d7d3896649af030b2", "lon": -76.9888365}, {"is_reserved": 0, "fusion_lon": 0.0, "fusion_lat": 0.0, "name": "a6e4829e434f3e16d1cc024a2ce30cce", "type": "electric_scooter", "is_disabled": 0, "lat": 38.919586333333335, "rental_uris": {"android": "https://dc.lft.to/lastmile_qr_scan", "ios": "https://dc.lft.to/lastmile_qr_scan"}, "bike_id": "a6e4829e434f3e16d1cc024a2ce30cce", "lon": -77.0238295}, {"is_reserved": 0, "fusion_lon": 0.0, "fusion_lat": 0.0, "name": "c507fbdcd20953a638a53f63eb3ef92a", "type": "electric_scooter", "is_disabled": 0, "lat": 38.911865, "rental_uris": {"android": "https://dc.lft.to/lastmile_qr_scan", "ios": "https://dc.lft.to/lastmile_qr_scan"}, "bike_id": "c507fbdcd20953a638a53f63eb3ef92a", "lon": -77.03835083333334}, {"is_reserved": 0, "fusion_lon": 0.0, "fusion_lat": 0.0, "name": "9cdd470e75b4645d1464fa2bd19868f1", "type": "electric_scooter", "is_disabled": 0, "lat": 38.923822333333334, "rental_uris": {"android": "https://dc.lft.to/lastmile_qr_scan", "ios": "https://dc.lft.to/lastmile_qr_scan"}, "bike_id": "9cdd470e75b4645d1464fa2bd19868f1", "lon": -77.0274425}, {"is_reserved": 0, "fusion_lon": 0.0, "fusion_lat": 0.0, "name": "b0b39b0df9c132a0d461757eafed2f2c", "type": "electric_scooter", "is_disabled": 0, "lat": 38.89220866666667, "rental_uris": {"android": "https://dc.lft.to/lastmile_qr_scan", "ios": "https://dc.lft.to/lastmile_qr_scan"}, "bike_id": "b0b39b0df9c132a0d461757eafed2f2c", "lon": -77.0437175}, {"is_reserved": 0, "fusion_lon": 0.0, "fusion_lat": 0.0, "name": "acbe67520938d3149cbcd5b1c14ce162", "type": "electric_scooter", "is_disabled": 0, "lat": 38.9097985, "rental_uris": {"android": "https://dc.lft.to/lastmile_qr_scan", "ios": "https://dc.lft.to/lastmile_qr_scan"}, "bike_id": "acbe67520938d3149cbcd5b1c14ce162", "lon": -77.0384455}, {"is_reserved": 0, "fusion_lon": 0.0, "fusion_lat": 0.0, "name": "7b16b9c3948b1edddef5c818f57a17ec", "type": "electric_scooter", "is_disabled": 0, "lat": 38.91901416666666, "rental_uris": {"android": "https://dc.lft.to/lastmile_qr_scan", "ios": "https://dc.lft.to/lastmile_qr_scan"}, "bike_id": "7b16b9c3948b1edddef5c818f57a17ec", "lon": -77.04467633333333}, {"is_reserved": 0, "fusion_lon": 0.0, "fusion_lat": 0.0, "name": "0cfd538c22a57a7c21c27b4e80a42fa7", "type": "electric_scooter", "is_disabled": 0, "lat": 38.93000816666667, "rental_uris": {"android": "https://dc.lft.to/lastmile_qr_scan", "ios": "https://dc.lft.to/lastmile_qr_scan"}, "bike_id": "0cfd538c22a57a7c21c27b4e80a42fa7", "lon": -77.01302833333334}, {"is_reserved": 0, "fusion_lon": 0.0, "fusion_lat": 0.0, "name": "4bbe1a03afb610195e181892ecc9afce", "type": "electric_scooter", "is_disabled": 0, "lat": 38.91662066666667, "rental_uris": {"android": "https://dc.lft.to/lastmile_qr_scan", "ios": "https://dc.lft.to/lastmile_qr_scan"}, "bike_id": "4bbe1a03afb610195e181892ecc9afce", "lon": -77.01920733333333}, {"is_reserved": 0, "fusion_lon": 0.0, "fusion_lat": 0.0, "name": "4f365ca5dde798d7cad481d9bf7076eb", "type": "electric_scooter", "is_disabled": 0, "lat": 38.90051066666667, "rental_uris": {"android": "https://dc.lft.to/lastmile_qr_scan", "ios": "https://dc.lft.to/lastmile_qr_scan"}, "bike_id": "4f365ca5dde798d7cad481d9bf7076eb", "lon": -77.04254116666667}, {"is_reserved": 0, "fusion_lon": 0.0, "fusion_lat": 0.0, "name": "78740acd1e3132fb1ad5a4bec23c15ca", "type": "electric_scooter", "is_disabled": 0, "lat": 38.89225783333333, "rental_uris": {"android": "https://dc.lft.to/lastmile_qr_scan", "ios": "https://dc.lft.to/lastmile_qr_scan"}, "bike_id": "78740acd1e3132fb1ad5a4bec23c15ca", "lon": -77.04373566666666}, {"is_reserved": 0, "fusion_lon": 0.0, "fusion_lat": 0.0, "name": "6c2d2043b9b9e5119f69f0c8b348fcc2", "type": "electric_scooter", "is_disabled": 0, "lat": 38.892214, "rental_uris": {"android": "https://dc.lft.to/lastmile_qr_scan", "ios": "https://dc.lft.to/lastmile_qr_scan"}, "bike_id": "6c2d2043b9b9e5119f69f0c8b348fcc2", "lon": -77.04374016666667}, {"is_reserved": 0, "fusion_lon": 0.0, "fusion_lat": 0.0, "name": "84f2fab22451b35b42eeb02404f346fd", "type": "electric_scooter", "is_disabled": 0, "lat": 38.89298083333333, "rental_uris": {"android": "https://dc.lft.to/lastmile_qr_scan", "ios": "https://dc.lft.to/lastmile_qr_scan"}, "bike_id": "84f2fab22451b35b42eeb02404f346fd", "lon": -76.93928733333334}, {"is_reserved": 0, "fusion_lon": 0.0, "fusion_lat": 0.0, "name": "36dfaa43326a4ff689cc3d37e674b09f", "type": "electric_scooter", "is_disabled": 0, "lat": 38.881263, "rental_uris": {"android": "https://dc.lft.to/lastmile_qr_scan", "ios": "https://dc.lft.to/lastmile_qr_scan"}, "bike_id": "36dfaa43326a4ff689cc3d37e674b09f", "lon": -77.0166545}, {"is_reserved": 0, "fusion_lon": 0.0, "fusion_lat": 0.0, "name": "6de6d00b33860cc491f6538512f34e25", "type": "electric_scooter", "is_disabled": 0, "lat": 38.90979083333333, "rental_uris": {"android": "https://dc.lft.to/lastmile_qr_scan", "ios": "https://dc.lft.to/lastmile_qr_scan"}, "bike_id": "6de6d00b33860cc491f6538512f34e25", "lon": -77.04230516666667}, {"is_reserved": 0, "fusion_lon": 0.0, "fusion_lat": 0.0, "name": "56372664805204cea02e1631a90b5a03", "type": "electric_scooter", "is_disabled": 0, "lat": 38.936742833333334, "rental_uris": {"android": "https://dc.lft.to/lastmile_qr_scan", "ios": "https://dc.lft.to/lastmile_qr_scan"}, "bike_id": "56372664805204cea02e1631a90b5a03", "lon": -77.03581633333333}, {"is_reserved": 0, "fusion_lon": 0.0, "fusion_lat": 0.0, "name": "1190d63d266337c16a29261ec9e862ec", "type": "electric_scooter", "is_disabled": 0, "lat": 38.907301, "rental_uris": {"android": "https://dc.lft.to/lastmile_qr_scan", "ios": "https://dc.lft.to/lastmile_qr_scan"}, "bike_id": "1190d63d266337c16a29261ec9e862ec", "lon": -76.98694983333333}, {"is_reserved": 0, "fusion_lon": 0.0, "fusion_lat": 0.0, "name": "d1b35b020065d7394e4d144546fbcbc8", "type": "electric_bike", "is_disabled": 0, "lat": 38.95925366666667, "rental_uris": {"android": "https://dc.lft.to/lastmile_qr_scan", "ios": "https://dc.lft.to/lastmile_qr_scan"}, "bike_id": "d1b35b020065d7394e4d144546fbcbc8", "lon": -76.92533466666667}, {"is_reserved": 0, "fusion_lon": 0.0, "fusion_lat": 0.0, "name": "3bad6a28239ce01a34188d63890e73aa", "type": "electric_scooter", "is_disabled": 0, "lat": 38.87231333333333, "rental_uris": {"android": "https://dc.lft.to/lastmile_qr_scan", "ios": "https://dc.lft.to/lastmile_qr_scan"}, "bike_id": "3bad6a28239ce01a34188d63890e73aa", "lon": -77.01169233333333}, {"is_reserved": 0, "fusion_lon": 0.0, "fusion_lat": 0.0, "name": "7f52c3bf2047697195acde638d220f6d", "type": "electric_scooter", "is_disabled": 0, "lat": 38.90554766666666, "rental_uris": {"android": "https://dc.lft.to/lastmile_qr_scan", "ios": "https://dc.lft.to/lastmile_qr_scan"}, "bike_id": "7f52c3bf2047697195acde638d220f6d", "lon": -77.03456316666667}, {"is_reserved": 0, "fusion_lon": 0.0, "fusion_lat": 0.0, "name": "3ad44271f8868d8f793ae4898f82fb53", "type": "electric_bike", "is_disabled": 0, "lat": 39.062933, "rental_uris": {"android": "https://dc.lft.to/lastmile_qr_scan", "ios": "https://dc.lft.to/lastmile_qr_scan"}, "bike_id": "3ad44271f8868d8f793ae4898f82fb53", "lon": -77.04978583333333}, {"is_reserved": 0, "fusion_lon": 0.0, "fusion_lat": 0.0, "name": "6e2da165fceea28d8a9339c92f764855", "type": "electric_scooter", "is_disabled": 0, "lat": 38.89219633333333, "rental_uris": {"android": "https://dc.lft.to/lastmile_qr_scan", "ios": "https://dc.lft.to/lastmile_qr_scan"}, "bike_id": "6e2da165fceea28d8a9339c92f764855", "lon": -77.02352583333334}, {"is_reserved": 0, "fusion_lon": 0.0, "fusion_lat": 0.0, "name": "a87d9b82763649dc2199278a7ee98ed6", "type": "electric_scooter", "is_disabled": 0, "lat": 38.90643566666667, "rental_uris": {"android": "https://dc.lft.to/lastmile_qr_scan", "ios": "https://dc.lft.to/lastmile_qr_scan"}, "bike_id": "a87d9b82763649dc2199278a7ee98ed6", "lon": -77.048039}, {"is_reserved": 0, "fusion_lon": 0.0, "fusion_lat": 0.0, "name": "987f2b6d3984b8620f3fb3f5449551b5", "type": "electric_scooter", "is_disabled": 0, "lat": 38.883039333333336, "rental_uris": {"android": "https://dc.lft.to/lastmile_qr_scan", "ios": "https://dc.lft.to/lastmile_qr_scan"}, "bike_id": "987f2b6d3984b8620f3fb3f5449551b5", "lon": -76.97863100000001}, {"is_reserved": 0, "fusion_lon": 0.0, "fusion_lat": 0.0, "name": "b405ed572bb7b5c23934461f8b24a3b8", "type": "electric_scooter", "is_disabled": 0, "lat": 38.8991575, "rental_uris": {"android": "https://dc.lft.to/lastmile_qr_scan", "ios": "https://dc.lft.to/lastmile_qr_scan"}, "bike_id": "b405ed572bb7b5c23934461f8b24a3b8", "lon": -76.9338595}, {"is_reserved": 0, "fusion_lon": 0.0, "fusion_lat": 0.0, "name": "23559c76d8fb6dbdac6b91947db31fb4", "type": "electric_scooter", "is_disabled": 0, "lat": 38.9268095, "rental_uris": {"android": "https://dc.lft.to/lastmile_qr_scan", "ios": "https://dc.lft.to/lastmile_qr_scan"}, "bike_id": "23559c76d8fb6dbdac6b91947db31fb4", "lon": -77.02993516666666}, {"is_reserved": 0, "fusion_lon": 0.0, "fusion_lat": 0.0, "name": "8d8a9f5cabed8f8412e8c1c74336faec", "type": "electric_scooter", "is_disabled": 0, "lat": 38.8931835, "rental_uris": {"android": "https://dc.lft.to/lastmile_qr_scan", "ios": "https://dc.lft.to/lastmile_qr_scan"}, "bike_id": "8d8a9f5cabed8f8412e8c1c74336faec", "lon": -76.94309283333334}, {"is_reserved": 0, "fusion_lon": 0.0, "fusion_lat": 0.0, "name": "b44aeec55eae21ad313553bb1b0b320e", "type": "electric_scooter", "is_disabled": 0, "lat": 38.907374833333336, "rental_uris": {"android": "https://dc.lft.to/lastmile_qr_scan", "ios": "https://dc.lft.to/lastmile_qr_scan"}, "bike_id": "b44aeec55eae21ad313553bb1b0b320e", "lon": -77.02694766666667}, {"is_reserved": 0, "fusion_lon": 0.0, "fusion_lat": 0.0, "name": "cbe3ff2c5d06fc12ad713b8facef6e83", "type": "electric_scooter", "is_disabled": 0, "lat": 38.91772666666667, "rental_uris": {"android": "https://dc.lft.to/lastmile_qr_scan", "ios": "https://dc.lft.to/lastmile_qr_scan"}, "bike_id": "cbe3ff2c5d06fc12ad713b8facef6e83", "lon": -77.045586}, {"is_reserved": 0, "fusion_lon": 0.0, "fusion_lat": 0.0, "name": "3948f4c5addb22a2ba5cbfaed51156fc", "type": "electric_bike", "is_disabled": 0, "lat": 38.914326833333334, "rental_uris": {"android": "https://dc.lft.to/lastmile_qr_scan", "ios": "https://dc.lft.to/lastmile_qr_scan"}, "bike_id": "3948f4c5addb22a2ba5cbfaed51156fc", "lon": -77.01703916666666}, {"is_reserved": 0, "fusion_lon": 0.0, "fusion_lat": 0.0, "name": "c3aee8a652f960d0d55e45d33676cb4a", "type": "electric_scooter", "is_disabled": 0, "lat": 38.915713333333336, "rental_uris": {"android": "https://dc.lft.to/lastmile_qr_scan", "ios": "https://dc.lft.to/lastmile_qr_scan"}, "bike_id": "c3aee8a652f960d0d55e45d33676cb4a", "lon": -77.019902}, {"is_reserved": 0, "fusion_lon": 0.0, "fusion_lat": 0.0, "name": "6133a38373c29e0b54a6b8a5adc68240", "type": "electric_scooter", "is_disabled": 0, "lat": 38.9004185, "rental_uris": {"android": "https://dc.lft.to/lastmile_qr_scan", "ios": "https://dc.lft.to/lastmile_qr_scan"}, "bike_id": "6133a38373c29e0b54a6b8a5adc68240", "lon": -77.04049716666667}, {"is_reserved": 0, "fusion_lon": 0.0, "fusion_lat": 0.0, "name": "8e6eb0462123f5c899df1caa3aa5337b", "type": "electric_scooter", "is_disabled": 0, "lat": 38.86734966666667, "rental_uris": {"android": "https://dc.lft.to/lastmile_qr_scan", "ios": "https://dc.lft.to/lastmile_qr_scan"}, "bike_id": "8e6eb0462123f5c899df1caa3aa5337b", "lon": -76.987825}, {"is_reserved": 0, "fusion_lon": 0.0, "fusion_lat": 0.0, "name": "864adb522da5c80d2790de99c9d138cf", "type": "electric_scooter", "is_disabled": 0, "lat": 38.86702116666667, "rental_uris": {"android": "https://dc.lft.to/lastmile_qr_scan", "ios": "https://dc.lft.to/lastmile_qr_scan"}, "bike_id": "864adb522da5c80d2790de99c9d138cf", "lon": -76.98717016666667}, {"is_reserved": 0, "fusion_lon": 0.0, "fusion_lat": 0.0, "name": "077dae116a0899abcafe024b5cdbe1cd", "type": "electric_scooter", "is_disabled": 0, "lat": 38.932398, "rental_uris": {"android": "https://dc.lft.to/lastmile_qr_scan", "ios": "https://dc.lft.to/lastmile_qr_scan"}, "bike_id": "077dae116a0899abcafe024b5cdbe1cd", "lon": -77.02949433333333}, {"is_reserved": 0, "fusion_lon": 0.0, "fusion_lat": 0.0, "name": "f55bfd228933cd33e5eee220885cc28f", "type": "electric_scooter", "is_disabled": 0, "lat": 38.893663, "rental_uris": {"android": "https://dc.lft.to/lastmile_qr_scan", "ios": "https://dc.lft.to/lastmile_qr_scan"}, "bike_id": "f55bfd228933cd33e5eee220885cc28f", "lon": -77.03210316666667}, {"is_reserved": 0, "fusion_lon": 0.0, "fusion_lat": 0.0, "name": "a17c5caba98971065d86558ebef7159f", "type": "electric_scooter", "is_disabled": 0, "lat": 38.915498, "rental_uris": {"android": "https://dc.lft.to/lastmile_qr_scan", "ios": "https://dc.lft.to/lastmile_qr_scan"}, "bike_id": "a17c5caba98971065d86558ebef7159f", "lon": -77.03852916666666}, {"is_reserved": 0, "fusion_lon": 0.0, "fusion_lat": 0.0, "name": "773e1793d8315b927096bd40ab3d11cd", "type": "electric_scooter", "is_disabled": 0, "lat": 38.899975166666664, "rental_uris": {"android": "https://dc.lft.to/lastmile_qr_scan", "ios": "https://dc.lft.to/lastmile_qr_scan"}, "bike_id": "773e1793d8315b927096bd40ab3d11cd", "lon": -76.99620916666667}, {"is_reserved": 0, "fusion_lon": 0.0, "fusion_lat": 0.0, "name": "810cf2554939eff10610f72f7f1a49ce", "type": "electric_scooter", "is_disabled": 0, "lat": 38.9231995, "rental_uris": {"android": "https://dc.lft.to/lastmile_qr_scan", "ios": "https://dc.lft.to/lastmile_qr_scan"}, "bike_id": "810cf2554939eff10610f72f7f1a49ce", "lon": -77.043929}, {"is_reserved": 0, "fusion_lon": 0.0, "fusion_lat": 0.0, "name": "cfce1fa09cf2fab96c78bd97640ed1b9", "type": "electric_scooter", "is_disabled": 0, "lat": 38.82387383333333, "rental_uris": {"android": "https://dc.lft.to/lastmile_qr_scan", "ios": "https://dc.lft.to/lastmile_qr_scan"}, "bike_id": "cfce1fa09cf2fab96c78bd97640ed1b9", "lon": -77.01194283333334}, {"is_reserved": 0, "fusion_lon": 0.0, "fusion_lat": 0.0, "name": "283b666e1daabb7ea7c5022da10c0bc1", "type": "electric_bike", "is_disabled": 0, "lat": 38.920154333333336, "rental_uris": {"android": "https://dc.lft.to/lastmile_qr_scan", "ios": "https://dc.lft.to/lastmile_qr_scan"}, "bike_id": "283b666e1daabb7ea7c5022da10c0bc1", "lon": -77.01315733333334}, {"is_reserved": 0, "fusion_lon": 0.0, "fusion_lat": 0.0, "name": "61b18f2e8b213b1290a1d554c73a2b6b", "type": "electric_scooter", "is_disabled": 0, "lat": 38.90903483333334, "rental_uris": {"android": "https://dc.lft.to/lastmile_qr_scan", "ios": "https://dc.lft.to/lastmile_qr_scan"}, "bike_id": "61b18f2e8b213b1290a1d554c73a2b6b", "lon": -77.07258883333333}, {"is_reserved": 0, "fusion_lon": 0.0, "fusion_lat": 0.0, "name": "cf641ee28875de432babf7a221f86849", "type": "electric_bike", "is_disabled": 0, "lat": 38.880459, "rental_uris": {"android": "https://dc.lft.to/lastmile_qr_scan", "ios": "https://dc.lft.to/lastmile_qr_scan"}, "bike_id": "cf641ee28875de432babf7a221f86849", "lon": -77.01136233333334}, {"is_reserved": 0, "fusion_lon": 0.0, "fusion_lat": 0.0, "name": "cfb8233c6cb2da260027e93577fef3fc", "type": "electric_scooter", "is_disabled": 0, "lat": 38.91115516666667, "rental_uris": {"android": "https://dc.lft.to/lastmile_qr_scan", "ios": "https://dc.lft.to/lastmile_qr_scan"}, "bike_id": "cfb8233c6cb2da260027e93577fef3fc", "lon": -77.038316}, {"is_reserved": 0, "fusion_lon": 0.0, "fusion_lat": 0.0, "name": "d015ef52d9b081178f28ceb701e1e70a", "type": "electric_scooter", "is_disabled": 0, "lat": 38.92949316666667, "rental_uris": {"android": "https://dc.lft.to/lastmile_qr_scan", "ios": "https://dc.lft.to/lastmile_qr_scan"}, "bike_id": "d015ef52d9b081178f28ceb701e1e70a", "lon": -77.01645666666667}, {"is_reserved": 0, "fusion_lon": 0.0, "fusion_lat": 0.0, "name": "b928b9f071ad0798d5ef947b2ab50bba", "type": "electric_scooter", "is_disabled": 0, "lat": 38.925968, "rental_uris": {"android": "https://dc.lft.to/lastmile_qr_scan", "ios": "https://dc.lft.to/lastmile_qr_scan"}, "bike_id": "b928b9f071ad0798d5ef947b2ab50bba", "lon": -77.03781883333333}, {"is_reserved": 0, "fusion_lon": 0.0, "fusion_lat": 0.0, "name": "e90a63bd5cf3155ad7f36f00f9dda2c5", "type": "electric_scooter", "is_disabled": 0, "lat": 38.902655833333334, "rental_uris": {"android": "https://dc.lft.to/lastmile_qr_scan", "ios": "https://dc.lft.to/lastmile_qr_scan"}, "bike_id": "e90a63bd5cf3155ad7f36f00f9dda2c5", "lon": -77.01782216666666}, {"is_reserved": 0, "fusion_lon": 0.0, "fusion_lat": 0.0, "name": "d789b90fd63f3b1ccb4350f8d58e1af2", "type": "electric_scooter", "is_disabled": 0, "lat": 38.957337, "rental_uris": {"android": "https://dc.lft.to/lastmile_qr_scan", "ios": "https://dc.lft.to/lastmile_qr_scan"}, "bike_id": "d789b90fd63f3b1ccb4350f8d58e1af2", "lon": -77.0240435}, {"is_reserved": 0, "fusion_lon": 0.0, "fusion_lat": 0.0, "name": "18070ae36acb91ca375d0634887a2efa", "type": "electric_bike", "is_disabled": 0, "lat": 38.80021433333334, "rental_uris": {"android": "https://dc.lft.to/lastmile_qr_scan", "ios": "https://dc.lft.to/lastmile_qr_scan"}, "bike_id": "18070ae36acb91ca375d0634887a2efa", "lon": -77.05483183333334}, {"is_reserved": 0, "fusion_lon": 0.0, "fusion_lat": 0.0, "name": "7c639f4ae7f00f8aa824a57e1a5a78f3", "type": "electric_scooter", "is_disabled": 0, "lat": 38.917600166666666, "rental_uris": {"android": "https://dc.lft.to/lastmile_qr_scan", "ios": "https://dc.lft.to/lastmile_qr_scan"}, "bike_id": "7c639f4ae7f00f8aa824a57e1a5a78f3", "lon": -77.025132}, {"is_reserved": 0, "fusion_lon": 0.0, "fusion_lat": 0.0, "name": "d63d686e74de5ca7e2232cdfcc7d95a3", "type": "electric_scooter", "is_disabled": 0, "lat": 38.8871585, "rental_uris": {"android": "https://dc.lft.to/lastmile_qr_scan", "ios": "https://dc.lft.to/lastmile_qr_scan"}, "bike_id": "d63d686e74de5ca7e2232cdfcc7d95a3", "lon": -77.02181466666667}, {"is_reserved": 0, "fusion_lon": 0.0, "fusion_lat": 0.0, "name": "dba81b1041fb3ad9d3cc7742e127ab7c", "type": "electric_scooter", "is_disabled": 0, "lat": 38.92008166666667, "rental_uris": {"android": "https://dc.lft.to/lastmile_qr_scan", "ios": "https://dc.lft.to/lastmile_qr_scan"}, "bike_id": "dba81b1041fb3ad9d3cc7742e127ab7c", "lon": -77.03890516666667}, {"is_reserved": 0, "fusion_lon": 0.0, "fusion_lat": 0.0, "name": "1f547fa4a3b924dd01466bf427171349", "type": "electric_scooter", "is_disabled": 0, "lat": 38.92866983333333, "rental_uris": {"android": "https://dc.lft.to/lastmile_qr_scan", "ios": "https://dc.lft.to/lastmile_qr_scan"}, "bike_id": "1f547fa4a3b924dd01466bf427171349", "lon": -77.03410033333333}, {"is_reserved": 0, "fusion_lon": 0.0, "fusion_lat": 0.0, "name": "7875a0f9c9d227ca41d01bd36ff8a0b3", "type": "electric_scooter", "is_disabled": 0, "lat": 38.934783, "rental_uris": {"android": "https://dc.lft.to/lastmile_qr_scan", "ios": "https://dc.lft.to/lastmile_qr_scan"}, "bike_id": "7875a0f9c9d227ca41d01bd36ff8a0b3", "lon": -77.05795866666666}, {"is_reserved": 0, "fusion_lon": 0.0, "fusion_lat": 0.0, "name": "4ea8501f238700954c9f6416c6c0ccad", "type": "electric_scooter", "is_disabled": 0, "lat": 38.90302233333333, "rental_uris": {"android": "https://dc.lft.to/lastmile_qr_scan", "ios": "https://dc.lft.to/lastmile_qr_scan"}, "bike_id": "4ea8501f238700954c9f6416c6c0ccad", "lon": -77.0433245}, {"is_reserved": 0, "fusion_lon": 0.0, "fusion_lat": 0.0, "name": "ce1854167dd07279b58faa37985b8391", "type": "electric_scooter", "is_disabled": 0, "lat": 38.91819866666667, "rental_uris": {"android": "https://dc.lft.to/lastmile_qr_scan", "ios": "https://dc.lft.to/lastmile_qr_scan"}, "bike_id": "ce1854167dd07279b58faa37985b8391", "lon": -77.02420866666667}, {"is_reserved": 0, "fusion_lon": 0.0, "fusion_lat": 0.0, "name": "e39b271e77d26c25bb9337075a8ab074", "type": "electric_scooter", "is_disabled": 0, "lat": 38.91705833333333, "rental_uris": {"android": "https://dc.lft.to/lastmile_qr_scan", "ios": "https://dc.lft.to/lastmile_qr_scan"}, "bike_id": "e39b271e77d26c25bb9337075a8ab074", "lon": -77.03473183333334}, {"is_reserved": 0, "fusion_lon": 0.0, "fusion_lat": 0.0, "name": "ff3ac0f96d333d59a17c920329d20f5a", "type": "electric_scooter", "is_disabled": 0, "lat": 38.9072555, "rental_uris": {"android": "https://dc.lft.to/lastmile_qr_scan", "ios": "https://dc.lft.to/lastmile_qr_scan"}, "bike_id": "ff3ac0f96d333d59a17c920329d20f5a", "lon": -77.03279966666666}, {"is_reserved": 0, "fusion_lon": 0.0, "fusion_lat": 0.0, "name": "9e662ed6834e69c81c6e8074b10957c5", "type": "electric_bike", "is_disabled": 0, "lat": 38.8773155, "rental_uris": {"android": "https://dc.lft.to/lastmile_qr_scan", "ios": "https://dc.lft.to/lastmile_qr_scan"}, "bike_id": "9e662ed6834e69c81c6e8074b10957c5", "lon": -76.981041}, {"is_reserved": 0, "fusion_lon": 0.0, "fusion_lat": 0.0, "name": "63afc5f74798650b5554feb43fb05e19", "type": "electric_scooter", "is_disabled": 0, "lat": 38.90544833333333, "rental_uris": {"android": "https://dc.lft.to/lastmile_qr_scan", "ios": "https://dc.lft.to/lastmile_qr_scan"}, "bike_id": "63afc5f74798650b5554feb43fb05e19", "lon": -77.0059425}, {"is_reserved": 0, "fusion_lon": 0.0, "fusion_lat": 0.0, "name": "0e72fec5c3c1c2f71ab4ccce5713f217", "type": "electric_scooter", "is_disabled": 0, "lat": 38.860594166666665, "rental_uris": {"android": "https://dc.lft.to/lastmile_qr_scan", "ios": "https://dc.lft.to/lastmile_qr_scan"}, "bike_id": "0e72fec5c3c1c2f71ab4ccce5713f217", "lon": -76.98419033333333}, {"is_reserved": 0, "fusion_lon": 0.0, "fusion_lat": 0.0, "name": "33d1a00b8b34676e778210e2a899bccc", "type": "electric_scooter", "is_disabled": 0, "lat": 38.929035666666664, "rental_uris": {"android": "https://dc.lft.to/lastmile_qr_scan", "ios": "https://dc.lft.to/lastmile_qr_scan"}, "bike_id": "33d1a00b8b34676e778210e2a899bccc", "lon": -77.03249733333334}, {"is_reserved": 0, "fusion_lon": 0.0, "fusion_lat": 0.0, "name": "c7d1745305d08ec0231990ad50c6db70", "type": "electric_scooter", "is_disabled": 0, "lat": 38.898543833333335, "rental_uris": {"android": "https://dc.lft.to/lastmile_qr_scan", "ios": "https://dc.lft.to/lastmile_qr_scan"}, "bike_id": "c7d1745305d08ec0231990ad50c6db70", "lon": -76.9320475}, {"is_reserved": 0, "fusion_lon": 0.0, "fusion_lat": 0.0, "name": "88da1c804b099c05e79c82a593f25f3e", "type": "electric_scooter", "is_disabled": 0, "lat": 38.900294333333335, "rental_uris": {"android": "https://dc.lft.to/lastmile_qr_scan", "ios": "https://dc.lft.to/lastmile_qr_scan"}, "bike_id": "88da1c804b099c05e79c82a593f25f3e", "lon": -76.98864516666667}, {"is_reserved": 0, "fusion_lon": 0.0, "fusion_lat": 0.0, "name": "a26d7ad5fcd2ea0f2e622dbc12f46f66", "type": "electric_scooter", "is_disabled": 0, "lat": 38.9191685, "rental_uris": {"android": "https://dc.lft.to/lastmile_qr_scan", "ios": "https://dc.lft.to/lastmile_qr_scan"}, "bike_id": "a26d7ad5fcd2ea0f2e622dbc12f46f66", "lon": -77.02501}, {"is_reserved": 0, "fusion_lon": 0.0, "fusion_lat": 0.0, "name": "4b57c4819e903acdd537afe8fe4a3f11", "type": "electric_scooter", "is_disabled": 0, "lat": 38.922412, "rental_uris": {"android": "https://dc.lft.to/lastmile_qr_scan", "ios": "https://dc.lft.to/lastmile_qr_scan"}, "bike_id": "4b57c4819e903acdd537afe8fe4a3f11", "lon": -77.03019683333333}, {"is_reserved": 0, "fusion_lon": 0.0, "fusion_lat": 0.0, "name": "e4c483867c767ff29cfd660e9fcc6161", "type": "electric_scooter", "is_disabled": 0, "lat": 38.880498, "rental_uris": {"android": "https://dc.lft.to/lastmile_qr_scan", "ios": "https://dc.lft.to/lastmile_qr_scan"}, "bike_id": "e4c483867c767ff29cfd660e9fcc6161", "lon": -77.01998416666666}, {"is_reserved": 0, "fusion_lon": 0.0, "fusion_lat": 0.0, "name": "c5d3c3e23a9e9618ca50ddb263d265a9", "type": "electric_scooter", "is_disabled": 0, "lat": 38.917071166666666, "rental_uris": {"android": "https://dc.lft.to/lastmile_qr_scan", "ios": "https://dc.lft.to/lastmile_qr_scan"}, "bike_id": "c5d3c3e23a9e9618ca50ddb263d265a9", "lon": -77.03101916666667}, {"is_reserved": 0, "fusion_lon": 0.0, "fusion_lat": 0.0, "name": "ff00daf58985daa4d0d9929424152e67", "type": "electric_bike", "is_disabled": 0, "lat": 38.926011833333334, "rental_uris": {"android": "https://dc.lft.to/lastmile_qr_scan", "ios": "https://dc.lft.to/lastmile_qr_scan"}, "bike_id": "ff00daf58985daa4d0d9929424152e67", "lon": -77.0242275}, {"is_reserved": 0, "fusion_lon": 0.0, "fusion_lat": 0.0, "name": "32818fa3f0fcb32fa8629f0296a671d4", "type": "electric_bike", "is_disabled": 0, "lat": 38.85441516666667, "rental_uris": {"android": "https://dc.lft.to/lastmile_qr_scan", "ios": "https://dc.lft.to/lastmile_qr_scan"}, "bike_id": "32818fa3f0fcb32fa8629f0296a671d4", "lon": -77.08326616666666}, {"is_reserved": 0, "fusion_lon": 0.0, "fusion_lat": 0.0, "name": "2295b8df461ecccc6b5b038a13e87130", "type": "electric_scooter", "is_disabled": 0, "lat": 38.93063633333333, "rental_uris": {"android": "https://dc.lft.to/lastmile_qr_scan", "ios": "https://dc.lft.to/lastmile_qr_scan"}, "bike_id": "2295b8df461ecccc6b5b038a13e87130", "lon": -77.03939716666666}, {"is_reserved": 0, "fusion_lon": 0.0, "fusion_lat": 0.0, "name": "91a6f99c4c37d245057bee35442fd3da", "type": "electric_scooter", "is_disabled": 0, "lat": 38.8874235, "rental_uris": {"android": "https://dc.lft.to/lastmile_qr_scan", "ios": "https://dc.lft.to/lastmile_qr_scan"}, "bike_id": "91a6f99c4c37d245057bee35442fd3da", "lon": -77.023832}, {"is_reserved": 0, "fusion_lon": 0.0, "fusion_lat": 0.0, "name": "74f891b70fdb0d394f1310989975c261", "type": "electric_scooter", "is_disabled": 0, "lat": 38.876471, "rental_uris": {"android": "https://dc.lft.to/lastmile_qr_scan", "ios": "https://dc.lft.to/lastmile_qr_scan"}, "bike_id": "74f891b70fdb0d394f1310989975c261", "lon": -77.005226}, {"is_reserved": 0, "fusion_lon": 0.0, "fusion_lat": 0.0, "name": "aac4975a7cee47851848441caaa7f90a", "type": "electric_scooter", "is_disabled": 0, "lat": 38.938719166666665, "rental_uris": {"android": "https://dc.lft.to/lastmile_qr_scan", "ios": "https://dc.lft.to/lastmile_qr_scan"}, "bike_id": "aac4975a7cee47851848441caaa7f90a", "lon": -77.02461966666667}, {"is_reserved": 0, "fusion_lon": 0.0, "fusion_lat": 0.0, "name": "c712d84aa96327e4c75c0777bffa414f", "type": "electric_scooter", "is_disabled": 0, "lat": 38.90733816666667, "rental_uris": {"android": "https://dc.lft.to/lastmile_qr_scan", "ios": "https://dc.lft.to/lastmile_qr_scan"}, "bike_id": "c712d84aa96327e4c75c0777bffa414f", "lon": -77.02973516666667}, {"is_reserved": 0, "fusion_lon": 0.0, "fusion_lat": 0.0, "name": "63ce56a4a2c9da27d7eba1061cc0b79d", "type": "electric_scooter", "is_disabled": 0, "lat": 38.910296833333334, "rental_uris": {"android": "https://dc.lft.to/lastmile_qr_scan", "ios": "https://dc.lft.to/lastmile_qr_scan"}, "bike_id": "63ce56a4a2c9da27d7eba1061cc0b79d", "lon": -77.03442616666666}, {"is_reserved": 0, "fusion_lon": 0.0, "fusion_lat": 0.0, "name": "9c358c1c68d371c1161578fb21806284", "type": "electric_scooter", "is_disabled": 0, "lat": 38.918325, "rental_uris": {"android": "https://dc.lft.to/lastmile_qr_scan", "ios": "https://dc.lft.to/lastmile_qr_scan"}, "bike_id": "9c358c1c68d371c1161578fb21806284", "lon": -77.024634}, {"is_reserved": 0, "fusion_lon": 0.0, "fusion_lat": 0.0, "name": "a577e5f01c749dd8ba1414af2562df65", "type": "electric_scooter", "is_disabled": 0, "lat": 38.875435333333336, "rental_uris": {"android": "https://dc.lft.to/lastmile_qr_scan", "ios": "https://dc.lft.to/lastmile_qr_scan"}, "bike_id": "a577e5f01c749dd8ba1414af2562df65", "lon": -77.0061365}, {"is_reserved": 0, "fusion_lon": 0.0, "fusion_lat": 0.0, "name": "9d6fcac0fafa4666923710f81c76c82e", "type": "electric_scooter", "is_disabled": 0, "lat": 38.934425, "rental_uris": {"android": "https://dc.lft.to/lastmile_qr_scan", "ios": "https://dc.lft.to/lastmile_qr_scan"}, "bike_id": "9d6fcac0fafa4666923710f81c76c82e", "lon": -76.99879083333333}, {"is_reserved": 0, "fusion_lon": 0.0, "fusion_lat": 0.0, "name": "48a0786a4cd13571752df341a9a7f4e6", "type": "electric_scooter", "is_disabled": 0, "lat": 38.92683533333334, "rental_uris": {"android": "https://dc.lft.to/lastmile_qr_scan", "ios": "https://dc.lft.to/lastmile_qr_scan"}, "bike_id": "48a0786a4cd13571752df341a9a7f4e6", "lon": -77.0279195}, {"is_reserved": 0, "fusion_lon": 0.0, "fusion_lat": 0.0, "name": "392594bccc718d0783d39aa314295c00", "type": "electric_scooter", "is_disabled": 0, "lat": 38.921608666666664, "rental_uris": {"android": "https://dc.lft.to/lastmile_qr_scan", "ios": "https://dc.lft.to/lastmile_qr_scan"}, "bike_id": "392594bccc718d0783d39aa314295c00", "lon": -77.04017716666667}, {"is_reserved": 0, "fusion_lon": 0.0, "fusion_lat": 0.0, "name": "5bf323e55dfa2060f68cf0938b84c2e0", "type": "electric_scooter", "is_disabled": 0, "lat": 38.90063716666667, "rental_uris": {"android": "https://dc.lft.to/lastmile_qr_scan", "ios": "https://dc.lft.to/lastmile_qr_scan"}, "bike_id": "5bf323e55dfa2060f68cf0938b84c2e0", "lon": -76.94691433333334}, {"is_reserved": 0, "fusion_lon": 0.0, "fusion_lat": 0.0, "name": "8805df6ecab97545f4e116e5e6f3389f", "type": "electric_scooter", "is_disabled": 0, "lat": 38.89222916666667, "rental_uris": {"android": "https://dc.lft.to/lastmile_qr_scan", "ios": "https://dc.lft.to/lastmile_qr_scan"}, "bike_id": "8805df6ecab97545f4e116e5e6f3389f", "lon": -77.0262925}, {"is_reserved": 0, "fusion_lon": 0.0, "fusion_lat": 0.0, "name": "d79b24d58dd791a76a132ce306695c1c", "type": "electric_bike", "is_disabled": 0, "lat": 38.96276683333333, "rental_uris": {"android": "https://dc.lft.to/lastmile_qr_scan", "ios": "https://dc.lft.to/lastmile_qr_scan"}, "bike_id": "d79b24d58dd791a76a132ce306695c1c", "lon": -77.01456716666667}, {"is_reserved": 0, "fusion_lon": 0.0, "fusion_lat": 0.0, "name": "44797d57d7b36cd18e033c275de57840", "type": "electric_bike", "is_disabled": 0, "lat": 38.930856166666665, "rental_uris": {"android": "https://dc.lft.to/lastmile_qr_scan", "ios": "https://dc.lft.to/lastmile_qr_scan"}, "bike_id": "44797d57d7b36cd18e033c275de57840", "lon": -77.02603333333333}, {"is_reserved": 0, "fusion_lon": 0.0, "fusion_lat": 0.0, "name": "3941e23c19001b516507db7dccf48a61", "type": "electric_scooter", "is_disabled": 0, "lat": 38.90369416666667, "rental_uris": {"android": "https://dc.lft.to/lastmile_qr_scan", "ios": "https://dc.lft.to/lastmile_qr_scan"}, "bike_id": "3941e23c19001b516507db7dccf48a61", "lon": -76.99711116666667}, {"is_reserved": 0, "fusion_lon": 0.0, "fusion_lat": 0.0, "name": "7e5981132618e3a04e2ab7f133d6a4ac", "type": "electric_scooter", "is_disabled": 0, "lat": 38.927541, "rental_uris": {"android": "https://dc.lft.to/lastmile_qr_scan", "ios": "https://dc.lft.to/lastmile_qr_scan"}, "bike_id": "7e5981132618e3a04e2ab7f133d6a4ac", "lon": -77.02421583333333}, {"is_reserved": 0, "fusion_lon": 0.0, "fusion_lat": 0.0, "name": "74f9e8bc68f1c7f28920abb067737c89", "type": "electric_scooter", "is_disabled": 0, "lat": 38.93702733333333, "rental_uris": {"android": "https://dc.lft.to/lastmile_qr_scan", "ios": "https://dc.lft.to/lastmile_qr_scan"}, "bike_id": "74f9e8bc68f1c7f28920abb067737c89", "lon": -77.02939683333334}, {"is_reserved": 0, "fusion_lon": 0.0, "fusion_lat": 0.0, "name": "4f3c41c6a27b0292aa3ac818c2a3ab34", "type": "electric_scooter", "is_disabled": 0, "lat": 38.907300166666666, "rental_uris": {"android": "https://dc.lft.to/lastmile_qr_scan", "ios": "https://dc.lft.to/lastmile_qr_scan"}, "bike_id": "4f3c41c6a27b0292aa3ac818c2a3ab34", "lon": -77.01073216666667}, {"is_reserved": 0, "fusion_lon": 0.0, "fusion_lat": 0.0, "name": "72f3ffa172674f8145243cc075e39a71", "type": "electric_bike", "is_disabled": 0, "lat": 39.04308266666666, "rental_uris": {"android": "https://dc.lft.to/lastmile_qr_scan", "ios": "https://dc.lft.to/lastmile_qr_scan"}, "bike_id": "72f3ffa172674f8145243cc075e39a71", "lon": -77.05159716666667}, {"is_reserved": 0, "fusion_lon": 0.0, "fusion_lat": 0.0, "name": "846161f1459a49bd2617f0fd52a5e8c0", "type": "electric_scooter", "is_disabled": 0, "lat": 38.921035333333336, "rental_uris": {"android": "https://dc.lft.to/lastmile_qr_scan", "ios": "https://dc.lft.to/lastmile_qr_scan"}, "bike_id": "846161f1459a49bd2617f0fd52a5e8c0", "lon": -77.039176}, {"is_reserved": 0, "fusion_lon": 0.0, "fusion_lat": 0.0, "name": "ad64979f9e51263bb8251afe10e04a07", "type": "electric_scooter", "is_disabled": 0, "lat": 38.89609983333333, "rental_uris": {"android": "https://dc.lft.to/lastmile_qr_scan", "ios": "https://dc.lft.to/lastmile_qr_scan"}, "bike_id": "ad64979f9e51263bb8251afe10e04a07", "lon": -76.99976}, {"is_reserved": 0, "fusion_lon": 0.0, "fusion_lat": 0.0, "name": "18e951cb1f8c1c1dc8feb52eb37464f6", "type": "electric_scooter", "is_disabled": 0, "lat": 38.900023166666664, "rental_uris": {"android": "https://dc.lft.to/lastmile_qr_scan", "ios": "https://dc.lft.to/lastmile_qr_scan"}, "bike_id": "18e951cb1f8c1c1dc8feb52eb37464f6", "lon": -76.996233}, {"is_reserved": 0, "fusion_lon": 0.0, "fusion_lat": 0.0, "name": "e1236dfc7e8d4c92e2f8737ea934b77f", "type": "electric_scooter", "is_disabled": 0, "lat": 38.911909333333334, "rental_uris": {"android": "https://dc.lft.to/lastmile_qr_scan", "ios": "https://dc.lft.to/lastmile_qr_scan"}, "bike_id": "e1236dfc7e8d4c92e2f8737ea934b77f", "lon": -77.00507783333333},