{"data": {"bikes": [{"fusion_lat": 0.0, "name": "f32519f415332d0544a8a2ec353acec4", "is_disabled": 0, "rental_uris": {"android": "https://dc.lft.to/lastmile_qr_scan", "ios": "https://dc.lft.to/lastmile_qr_scan"}, "fusion_lon": 0.0, "lat": 38.906236, "bike_id": "f32519f415332d0544a8a2ec353acec4", "type": "electric_scooter", "is_reserved": 0, "lon": -77.02401616666667}, {"fusion_lat": 0.0, "name": "565a6adda215e53265dae392336692ee", "is_disabled": 0, "rental_uris": {"android": "https://dc.lft.to/lastmile_qr_scan", "ios": "https://dc.lft.to/lastmile_qr_scan"}, "fusion_lon": 0.0, "lat": 38.896846333333336, "bike_id": "565a6adda215e53265dae392336692ee", "type": "electric_scooter", "is_reserved": 0, "lon": -76.9371465}, {"fusion_lat": 0.0, "name": "3e7a19747a1a2a577ac734785d593fbc", "is_disabled": 0, "rental_uris": {"android": "https://dc.lft.to/lastmile_qr_scan", "ios": "https://dc.lft.to/lastmile_qr_scan"}, "fusion_lon": 0.0, "lat": 38.9075405, "bike_id": "3e7a19747a1a2a577ac734785d593fbc", "type": "electric_scooter", "is_reserved": 0, "lon": -77.00372533333334}, {"fusion_lat": 0.0, "name": "801ece99a32fb5b9d4971d67a1340419", "is_disabled": 0, "rental_uris": {"android": "https://dc.lft.to/lastmile_qr_scan", "ios": "https://dc.lft.to/lastmile_qr_scan"}, "fusion_lon": 0.0, "lat": 38.9193465, "bike_id": "801ece99a32fb5b9d4971d67a1340419", "type": "electric_scooter", "is_reserved": 0, "lon": -77.07068916666667}, {"fusion_lat": 0.0, "name": "a6d121f2a1dbf6c3d6dfe719029797c1", "is_disabled": 0, "rental_uris": {"android": "https://dc.lft.to/lastmile_qr_scan", "ios": "https://dc.lft.to/lastmile_qr_scan"}, "fusion_lon": 0.0, "lat": 38.90030516666667, "bike_id": "a6d121f2a1dbf6c3d6dfe719029797c1", "type": "electric_scooter", "is_reserved": 0, "lon": -76.99863883333333}, {"fusion_lat": 0.0, "name": "fdc0bb5265445509a80b2c1d52cddba4", "is_disabled": 0, "rental_uris": {"android": "https://dc.lft.to/lastmile_qr_scan", "ios": "https://dc.lft.to/lastmile_qr_scan"}, "fusion_lon": 0.0, "lat": 38.9330915, "bike_id": "fdc0bb5265445509a80b2c1d52cddba4", "type": "electric_scooter", "is_reserved": 0, "lon": -77.03277483333333}, {"fusion_lat": 0.0, "name": "5e8ecc3a9ac1eff3b697bee39a0564b7", "is_disabled": 0, "rental_uris": {"android": "https://dc.lft.to/lastmile_qr_scan", "ios": "https://dc.lft.to/lastmile_qr_scan"}, "fusion_lon": 0.0, "lat": 38.910173666666665, "bike_id": "5e8ecc3a9ac1eff3b697bee39a0564b7", "type": "electric_scooter", "is_reserved": 0, "lon": -77.009204}, {"fusion_lat": 0.0, "name": "4113111ab363f6203c31d20e031468ba", "is_disabled": 0, "rental_uris": {"android": "https://dc.lft.to/lastmile_qr_scan", "ios": "https://dc.lft.to/lastmile_qr_scan"}, "fusion_lon": 0.0, "lat": 38.90386, "bike_id": "4113111ab363f6203c31d20e031468ba", "type": "electric_scooter", "is_reserved": 0, "lon": -77.04211833333333}, {"fusion_lat": 0.0, "name": "cabbc5d58ce0d5d5d782489f85d20a0b", "is_disabled": 0, "rental_uris": {"android": "https://dc.lft.to/lastmile_qr_scan", "ios": "https://dc.lft.to/lastmile_qr_scan"}, "fusion_lon": 0.0, "lat": 38.921615333333335, "bike_id": "cabbc5d58ce0d5d5d782489f85d20a0b", "type": "electric_scooter", "is_reserved": 0, "lon": -77.04124616666667}, {"fusion_lat": 0.0, "name": "f236288fad8ad5136b30460c3447dc09", "is_disabled": 0, "rental_uris": {"android": "https://dc.lft.to/lastmile_qr_scan", "ios": "https://dc.lft.to/lastmile_qr_scan"}, "fusion_lon": 0.0, "lat": 38.914081333333336, "bike_id": "f236288fad8ad5136b30460c3447dc09", "type": "electric_scooter", "is_reserved": 0, "lon": -77.03221083333334}, {"fusion_lat": 0.0, "name": "4a05d987bcc2efe8644458bf69f81f99", "is_disabled": 0, "rental_uris": {"android": "https://dc.lft.to/lastmile_qr_scan", "ios": "https://dc.lft.to/lastmile_qr_scan"}, "fusion_lon": 0.0, "lat": 38.800141833333335, "bike_id": "4a05d987bcc2efe8644458bf69f81f99", "type": "electric_bike", "is_reserved": 0, "lon": -77.054837}, {"fusion_lat": 0.0, "name": "bb3e265b569c30e5ee515de4fb704723", "is_disabled": 0, "rental_uris": {"android": "https://dc.lft.to/lastmile_qr_scan", "ios": "https://dc.lft.to/lastmile_qr_scan"}, "fusion_lon": 0.0, "lat": 38.987886333333336, "bike_id": "bb3e265b569c30e5ee515de4fb704723", "type": "electric_bike", "is_reserved": 0, "lon": -77.14094316666667}, {"fusion_lat": 0.0, "name": "104505238997a4f6241102ebae85bf2b", "is_disabled": 0, "rental_uris": {"android": "https://dc.lft.to/lastmile_qr_scan", "ios": "https://dc.lft.to/lastmile_qr_scan"}, "fusion_lon": 0.0, "lat": 38.941527666666666, "bike_id": "104505238997a4f6241102ebae85bf2b", "type": "electric_bike", "is_reserved": 0, "lon": -77.00197616666667}, {"fusion_lat": 0.0, "name": "156f24502c3247d54387946972869ced", "is_disabled": 0, "rental_uris": {"android": "https://dc.lft.to/lastmile_qr_scan", "ios": "https://dc.lft.to/lastmile_qr_scan"}, "fusion_lon": 0.0, "lat": 38.90423666666667, "bike_id": "156f24502c3247d54387946972869ced", "type": "electric_scooter", "is_reserved": 0, "lon": -77.01889766666666}, {"fusion_lat": 0.0, "name": "115ac74e5642c85de1c062e515647bdd", "is_disabled": 0, "rental_uris": {"android": "https://dc.lft.to/lastmile_qr_scan", "ios": "https://dc.lft.to/lastmile_qr_scan"}, "fusion_lon": 0.0, "lat": 38.95597816666667, "bike_id": "115ac74e5642c85de1c062e515647bdd", "type": "electric_bike", "is_reserved": 0, "lon": -77.010095}, {"fusion_lat": 0.0, "name": "d537e7654f07fce650c8c0fbfc0bd6dc", "is_disabled": 0, "rental_uris": {"android": "https://dc.lft.to/lastmile_qr_scan", "ios": "https://dc.lft.to/lastmile_qr_scan"}, "fusion_lon": 0.0, "lat": 38.919823, "bike_id": "d537e7654f07fce650c8c0fbfc0bd6dc", "type": "electric_scooter", "is_reserved": 0, "lon": -77.02499283333333}, {"fusion_lat": 0.0, "name": "31ecab91b808f268b466d55bd0ac3205", "is_disabled": 0, "rental_uris": {"android": "https://dc.lft.to/lastmile_qr_scan", "ios": "https://dc.lft.to/lastmile_qr_scan"}, "fusion_lon": 0.0, "lat": 38.9041235, "bike_id": "31ecab91b808f268b466d55bd0ac3205", "type": "electric_scooter", "is_reserved": 0, "lon": -76.97331466666667}, {"fusion_lat": 0.0, "name": "146eb588ab866147d3f8d14f575b88a3", "is_disabled": 0, "rental_uris": {"android": "https://dc.lft.to/lastmile_qr_scan", "ios": "https://dc.lft.to/lastmile_qr_scan"}, "fusion_lon": 0.0, "lat": 38.89941183333333, "bike_id": "146eb588ab866147d3f8d14f575b88a3", "type": "electric_scooter", "is_reserved": 0, "lon": -77.05000833333334}, {"fusion_lat": 0.0, "name": "4d7c072163e5780ae63374de69080c17", "is_disabled": 0, "rental_uris": {"android": "https://dc.lft.to/lastmile_qr_scan", "ios": "https://dc.lft.to/lastmile_qr_scan"}, "fusion_lon": 0.0, "lat": 38.91803316666667, "bike_id": "4d7c072163e5780ae63374de69080c17", "type": "electric_scooter", "is_reserved": 0, "lon": -77.03202}, {"fusion_lat": 0.0, "name": "cd2706e88f557713e9b22bf0961fe38b", "is_disabled": 0, "rental_uris": {"android": "https://dc.lft.to/lastmile_qr_scan", "ios": "https://dc.lft.to/lastmile_qr_scan"}, "fusion_lon": 0.0, "lat": 38.91930716666667, "bike_id": "cd2706e88f557713e9b22bf0961fe38b", "type": "electric_scooter", "is_reserved": 0, "lon": -77.03484133333333}, {"fusion_lat": 0.0, "name": "6d02d6ead67cbabec58d92e5a3474ee2", "is_disabled": 0, "rental_uris": {"android": "https://dc.lft.to/lastmile_qr_scan", "ios": "https://dc.lft.to/lastmile_qr_scan"}, "fusion_lon": 0.0, "lat": 38.88994683333333, "bike_id": "6d02d6ead67cbabec58d92e5a3474ee2", "type": "electric_scooter", "is_reserved": 0, "lon": -76.98229433333333}, {"fusion_lat": 0.0, "name": "ae98c4b65725fcdb3a882be9c217bf15", "is_disabled": 0, "rental_uris": {"android": "https://dc.lft.to/lastmile_qr_scan", "ios": "https://dc.lft.to/lastmile_qr_scan"}, "fusion_lon": 0.0, "lat": 38.9204595, "bike_id": "ae98c4b65725fcdb3a882be9c217bf15", "type": "electric_scooter", "is_reserved": 0, "lon": -77.02366566666667}, {"fusion_lat": 0.0, "name": "71538149d3d795c8a9deb168c4615ea3", "is_disabled": 0, "rental_uris": {"android": "https://dc.lft.to/lastmile_qr_scan", "ios": "https://dc.lft.to/lastmile_qr_scan"}, "fusion_lon": 0.0, "lat": 38.90216083333333, "bike_id": "71538149d3d795c8a9deb168c4615ea3", "type": "electric_scooter", "is_reserved": 0, "lon": -77.02363066666666}, {"fusion_lat": 0.0, "name": "7729d9b182792cb44c9fe79bc6a24fcd", "is_disabled": 0, "rental_uris": {"android": "https://dc.lft.to/lastmile_qr_scan", "ios": "https://dc.lft.to/lastmile_qr_scan"}, "fusion_lon": 0.0, "lat": 38.9244865, "bike_id": "7729d9b182792cb44c9fe79bc6a24fcd", "type": "electric_scooter", "is_reserved": 0, "lon": -77.03401783333334}, {"fusion_lat": 0.0, "name": "746f3f696e907c8a707a4c305fc0de8e", "is_disabled": 0, "rental_uris": {"android": "https://dc.lft.to/lastmile_qr_scan", "ios": "https://dc.lft.to/lastmile_qr_scan"}, "fusion_lon": 0.0, "lat": 38.93852433333333, "bike_id": "746f3f696e907c8a707a4c305fc0de8e", "type": "electric_scooter", "is_reserved": 0, "lon": -77.03393183333333}, {"fusion_lat": 0.0, "name": "110db0683d4969e276844618cb13144c", "is_disabled": 0, "rental_uris": {"android": "https://dc.lft.to/lastmile_qr_scan", "ios": "https://dc.lft.to/lastmile_qr_scan"}, "fusion_lon": 0.0, "lat": 38.92793433333333, "bike_id": "110db0683d4969e276844618cb13144c", "type": "electric_scooter", "is_reserved": 0, "lon": -77.03148983333334}, {"fusion_lat": 0.0, "name": "0b6974a19f5b5351e85969b0b8f5b047", "is_disabled": 0, "rental_uris": {"android": "https://dc.lft.to/lastmile_qr_scan", "ios": "https://dc.lft.to/lastmile_qr_scan"}, "fusion_lon": 0.0, "lat": 38.93426516666667, "bike_id": "0b6974a19f5b5351e85969b0b8f5b047", "type": "electric_scooter", "is_reserved": 0, "lon": -77.04005433333333}, {"fusion_lat": 0.0, "name": "42b89a75d5aaf58a7397c1a5e7fb380b", "is_disabled": 0, "rental_uris": {"android": "https://dc.lft.to/lastmile_qr_scan", "ios": "https://dc.lft.to/lastmile_qr_scan"}, "fusion_lon": 0.0, "lat": 38.90567983333333, "bike_id": "42b89a75d5aaf58a7397c1a5e7fb380b", "type": "electric_scooter", "is_reserved": 0, "lon": -77.02494683333333}, {"fusion_lat": 0.0, "name": "d60609ec6f79ab4f8f65a2014f2d8f26", "is_disabled": 0, "rental_uris": {"android": "https://dc.lft.to/lastmile_qr_scan", "ios": "https://dc.lft.to/lastmile_qr_scan"}, "fusion_lon": 0.0, "lat": 38.919945, "bike_id": "d60609ec6f79ab4f8f65a2014f2d8f26", "type": "electric_scooter", "is_reserved": 0, "lon": -77.0238675}, {"fusion_lat": 0.0, "name": "275132112c2ebd3e87bdca37c89b44e6", "is_disabled": 0, "rental_uris": {"android": "https://dc.lft.to/lastmile_qr_scan", "ios": "https://dc.lft.to/lastmile_qr_scan"}, "fusion_lon": 0.0, "lat": 38.931159, "bike_id": "275132112c2ebd3e87bdca37c89b44e6", "type": "electric_scooter", "is_reserved": 0, "lon": -77.02137133333333}, {"fusion_lat": 0.0, "name": "0fdc9592bb228c89c102808c7ba88216", "is_disabled": 0, "rental_uris": {"android": "https://dc.lft.to/lastmile_qr_scan", "ios": "https://dc.lft.to/lastmile_qr_scan"}, "fusion_lon": 0.0, "lat": 38.917643, "bike_id": "0fdc9592bb228c89c102808c7ba88216", "type": "electric_scooter", "is_reserved": 0, "lon": -77.02404683333333}, {"fusion_lat": 0.0, "name": "3034702dd6b0c4577ed0d6be9c459583", "is_disabled": 0, "rental_uris": {"android": "https://dc.lft.to/lastmile_qr_scan", "ios": "https://dc.lft.to/lastmile_qr_scan"}, "fusion_lon": 0.0, "lat": 38.876263, "bike_id": "3034702dd6b0c4577ed0d6be9c459583", "type": "electric_scooter", "is_reserved": 0, "lon": -77.0012115}, {"fusion_lat": 0.0, "name": "7ea606abf00af3a8b9a59010f13008ca", "is_disabled": 0, "rental_uris": {"android": "https://dc.lft.to/lastmile_qr_scan", "ios": "https://dc.lft.to/lastmile_qr_scan"}, "fusion_lon": 0.0, "lat": 38.881229833333336, "bike_id": "7ea606abf00af3a8b9a59010f13008ca", "type": "electric_scooter", "is_reserved": 0, "lon": -76.99284633333333}, {"fusion_lat": 0.0, "name": "b1376474e7af9aae2457ab492e1d209a", "is_disabled": 0, "rental_uris": {"android": "https://dc.lft.to/lastmile_qr_scan", "ios": "https://dc.lft.to/lastmile_qr_scan"}, "fusion_lon": 0.0, "lat": 38.8951395, "bike_id": "b1376474e7af9aae2457ab492e1d209a", "type": "electric_scooter", "is_reserved": 0, "lon": -76.9808485}, {"fusion_lat": 0.0, "name": "2ac5cb07d0b6970ca416205246933845", "is_disabled": 0, "rental_uris": {"android": "https://dc.lft.to/lastmile_qr_scan", "ios": "https://dc.lft.to/lastmile_qr_scan"}, "fusion_lon": 0.0, "lat": 38.901788833333335, "bike_id": "2ac5cb07d0b6970ca416205246933845", "type": "electric_scooter", "is_reserved": 0, "lon": -76.941454}, {"fusion_lat": 0.0, "name": "d645ee0b6ac4968555df067b9c9d2693", "is_disabled": 0, "rental_uris": {"android": "https://dc.lft.to/lastmile_qr_scan", "ios": "https://dc.lft.to/lastmile_qr_scan"}, "fusion_lon": 0.0, "lat": 38.91791933333333, "bike_id": "d645ee0b6ac4968555df067b9c9d2693", "type": "electric_scooter", "is_reserved": 0, "lon": -77.02312816666667}, {"fusion_lat": 0.0, "name": "d47c56ab8395bf9c34e0ba170cad0585", "is_disabled": 0, "rental_uris": {"android": "https://dc.lft.to/lastmile_qr_scan", "ios": "https://dc.lft.to/lastmile_qr_scan"}, "fusion_lon": 0.0, "lat": 38.90565466666666, "bike_id": "d47c56ab8395bf9c34e0ba170cad0585", "type": "electric_scooter", "is_reserved": 0, "lon": -77.026579}, {"fusion_lat": 0.0, "name": "ddabeaf4c0ca5d154c66f8d5ac2ca526", "is_disabled": 0, "rental_uris": {"android": "https://dc.lft.to/lastmile_qr_scan", "ios": "https://dc.lft.to/lastmile_qr_scan"}, "fusion_lon": 0.0, "lat": 38.907936666666664, "bike_id": "ddabeaf4c0ca5d154c66f8d5ac2ca526", "type": "electric_scooter", "is_reserved": 0, "lon": -77.0318625}, {"fusion_lat": 0.0, "name": "f9f667729e75d0f1a78d24f72bdc339f", "is_disabled": 0, "rental_uris": {"android": "https://dc.lft.to/lastmile_qr_scan", "ios": "https://dc.lft.to/lastmile_qr_scan"}, "fusion_lon": 0.0, "lat": 38.92035716666667, "bike_id": "f9f667729e75d0f1a78d24f72bdc339f", "type": "electric_bike", "is_reserved": 0, "lon": -76.979602}, {"fusion_lat": 0.0, "name": "a5f8e5d2d77546d59f303fa64e0f9386", "is_disabled": 0, "rental_uris": {"android": "https://dc.lft.to/lastmile_qr_scan", "ios": "https://dc.lft.to/lastmile_qr_scan"}, "fusion_lon": 0.0, "lat": 38.9183695, "bike_id": "a5f8e5d2d77546d59f303fa64e0f9386", "type": "electric_scooter", "is_reserved": 0, "lon": -77.02409}, {"fusion_lat": 0.0, "name": "14afd86924da37baab3f8c719c1f3894", "is_disabled": 0, "rental_uris": {"android": "https://dc.lft.to/lastmile_qr_scan", "ios": "https://dc.lft.to/lastmile_qr_scan"}, "fusion_lon": 0.0, "lat": 38.957327, "bike_id": "14afd86924da37baab3f8c719c1f3894", "type": "electric_scooter", "is_reserved": 0, "lon": -77.0240505}, {"fusion_lat": 0.0, "name": "66d958d279bfdfead8aea49246da9fa5", "is_disabled": 0, "rental_uris": {"android": "https://dc.lft.to/lastmile_qr_scan", "ios": "https://dc.lft.to/lastmile_qr_scan"}, "fusion_lon": 0.0, "lat": 38.93558816666667, "bike_id": "66d958d279bfdfead8aea49246da9fa5", "type": "electric_scooter", "is_reserved": 0, "lon": -77.0818665}, {"fusion_lat": 0.0, "name": "83261c3bec81c87202f19cf1b556f2b2", "is_disabled": 0, "rental_uris": {"android": "https://dc.lft.to/lastmile_qr_scan", "ios": "https://dc.lft.to/lastmile_qr_scan"}, "fusion_lon": 0.0, "lat": 38.916469166666666, "bike_id": "83261c3bec81c87202f19cf1b556f2b2", "type": "electric_bike", "is_reserved": 0, "lon": -76.98223916666667}, {"fusion_lat": 0.0, "name": "152d2bf4cef940aaf46572a329cefa84", "is_disabled": 0, "rental_uris": {"android": "https://dc.lft.to/lastmile_qr_scan", "ios": "https://dc.lft.to/lastmile_qr_scan"}, "fusion_lon": 0.0, "lat": 38.89967333333333, "bike_id": "152d2bf4cef940aaf46572a329cefa84", "type": "electric_bike", "is_reserved": 0, "lon": -76.986748}, {"fusion_lat": 0.0, "name": "ee9245053abddf992e73f1d47921d5e4", "is_disabled": 0, "rental_uris": {"android": "https://dc.lft.to/lastmile_qr_scan", "ios": "https://dc.lft.to/lastmile_qr_scan"}, "fusion_lon": 0.0, "lat": 38.93065583333333, "bike_id": "ee9245053abddf992e73f1d47921d5e4", "type": "electric_scooter", "is_reserved": 0, "lon": -77.03941083333333}, {"fusion_lat": 0.0, "name": "4dff94e17b496f9171cdf16b5ed7ee04", "is_disabled": 0, "rental_uris": {"android": "https://dc.lft.to/lastmile_qr_scan", "ios": "https://dc.lft.to/lastmile_qr_scan"}, "fusion_lon": 0.0, "lat": 38.9074145, "bike_id": "4dff94e17b496f9171cdf16b5ed7ee04", "type": "electric_scooter", "is_reserved": 0, "lon": -77.0449575}, {"fusion_lat": 0.0, "name": "f9458ddc0cbc27cde0e27c8ad4a2ae6f", "is_disabled": 0, "rental_uris": {"android": "https://dc.lft.to/lastmile_qr_scan", "ios": "https://dc.lft.to/lastmile_qr_scan"}, "fusion_lon": 0.0, "lat": 38.922594833333335, "bike_id": "f9458ddc0cbc27cde0e27c8ad4a2ae6f", "type": "electric_bike", "is_reserved": 0, "lon": -77.0702855}, {"fusion_lat": 0.0, "name": "d3a7d264e1ef238b85cda0643124b85e", "is_disabled": 0, "rental_uris": {"android": "https://dc.lft.to/lastmile_qr_scan", "ios": "https://dc.lft.to/lastmile_qr_scan"}, "fusion_lon": 0.0, "lat": 38.890127166666666, "bike_id": "d3a7d264e1ef238b85cda0643124b85e", "type": "electric_scooter", "is_reserved": 0, "lon": -76.93741516666667}, {"fusion_lat": 0.0, "name": "1893fab22bbc9f61634c5745773a1ac9", "is_disabled": 0, "rental_uris": {"android": "https://dc.lft.to/lastmile_qr_scan", "ios": "https://dc.lft.to/lastmile_qr_scan"}, "fusion_lon": 0.0, "lat": 38.9246245, "bike_id": "1893fab22bbc9f61634c5745773a1ac9", "type": "electric_scooter", "is_reserved": 0, "lon": -77.0240915}, {"fusion_lat": 0.0, "name": "29f03977528c487cf513d597b26404e4", "is_disabled": 0, "rental_uris": {"android": "https://dc.lft.to/lastmile_qr_scan", "ios": "https://dc.lft.to/lastmile_qr_scan"}, "fusion_lon": 0.0, "lat": 38.9017835, "bike_id": "29f03977528c487cf513d597b26404e4", "type": "electric_scooter", "is_reserved": 0, "lon": -77.05907283333333}, {"fusion_lat": 0.0, "name": "c21214f21ba034a249bfca088d5b7ae2", "is_disabled": 0, "rental_uris": {"android": "https://dc.lft.to/lastmile_qr_scan", "ios": "https://dc.lft.to/lastmile_qr_scan"}, "fusion_lon": 0.0, "lat": 38.90868783333333, "bike_id": "c21214f21ba034a249bfca088d5b7ae2", "type": "electric_scooter", "is_reserved": 0, "lon": -76.9996055}, {"fusion_lat": 0.0, "name": "45359ef627078aab5e53a865627c7f62", "is_disabled": 0, "rental_uris": {"android": "https://dc.lft.to/lastmile_qr_scan", "ios": "https://dc.lft.to/lastmile_qr_scan"}, "fusion_lon": 0.0, "lat": 38.914185333333336, "bike_id": "45359ef627078aab5e53a865627c7f62", "type": "electric_scooter", "is_reserved": 0, "lon": -77.03170616666667}, {"fusion_lat": 0.0, "name": "e05f3f1b5f1b9e03d7cec6555ec2ec41", "is_disabled": 0, "rental_uris": {"android": "https://dc.lft.to/lastmile_qr_scan", "ios": "https://dc.lft.to/lastmile_qr_scan"}, "fusion_lon": 0.0, "lat": 38.9346065, "bike_id": "e05f3f1b5f1b9e03d7cec6555ec2ec41", "type": "electric_scooter", "is_reserved": 0, "lon": -77.05781933333333}, {"fusion_lat": 0.0, "name": "3c5a970f40390fd929af1a5a7fa138f8", "is_disabled": 0, "rental_uris": {"android": "https://dc.lft.to/lastmile_qr_scan", "ios": "https://dc.lft.to/lastmile_qr_scan"}, "fusion_lon": 0.0, "lat": 38.92073633333333, "bike_id": "3c5a970f40390fd929af1a5a7fa138f8", "type": "electric_scooter", "is_reserved": 0, "lon": -77.02852483333334}, {"fusion_lat": 0.0, "name": "1e041baaf2d56ef1530926d1b481bbfa", "is_disabled": 0, "rental_uris": {"android": "https://dc.lft.to/lastmile_qr_scan", "ios": "https://dc.lft.to/lastmile_qr_scan"}, "fusion_lon": 0.0, "lat": 38.91550266666667, "bike_id": "1e041baaf2d56ef1530926d1b481bbfa", "type": "electric_scooter", "is_reserved": 0, "lon": -77.03245183333334}, {"fusion_lat": 0.0, "name": "3bab7eef890613f39889be6e4b85af76", "is_disabled": 0, "rental_uris": {"android": "https://dc.lft.to/lastmile_qr_scan", "ios": "https://dc.lft.to/lastmile_qr_scan"}, "fusion_lon": 0.0, "lat": 38.920298333333335, "bike_id": "3bab7eef890613f39889be6e4b85af76", "type": "electric_scooter", "is_reserved": 0, "lon": -77.03071366666667}, {"fusion_lat": 0.0, "name": "0b88333a16905747cd220f4fd8553f93", "is_disabled": 0, "rental_uris": {"android": "https://dc.lft.to/lastmile_qr_scan", "ios": "https://dc.lft.to/lastmile_qr_scan"}, "fusion_lon": 0.0, "lat": 38.9021135, "bike_id": "0b88333a16905747cd220f4fd8553f93", "type": "electric_scooter", "is_reserved": 0, "lon": -77.02358983333333}, {"fusion_lat": 0.0, "name": "041fd203fcdddc2b01359a0a89bf7017", "is_disabled": 0, "rental_uris": {"android": "https://dc.lft.to/lastmile_qr_scan", "ios": "https://dc.lft.to/lastmile_qr_scan"}, "fusion_lon": 0.0, "lat": 38.88475066666667, "bike_id": "041fd203fcdddc2b01359a0a89bf7017", "type": "electric_scooter", "is_reserved": 0, "lon": -77.02434883333333}, {"fusion_lat": 0.0, "name": "631a1a690349ee3d339c3ce76ec55a5a", "is_disabled": 0, "rental_uris": {"android": "https://dc.lft.to/lastmile_qr_scan", "ios": "https://dc.lft.to/lastmile_qr_scan"}, "fusion_lon": 0.0, "lat": 38.96757316666667, "bike_id": "631a1a690349ee3d339c3ce76ec55a5a", "type": "electric_bike", "is_reserved": 0, "lon": -77.027946}, {"fusion_lat": 0.0, "name": "4d682d35f982961e06d4abfacacd1779", "is_disabled": 0, "rental_uris": {"android": "https://dc.lft.to/lastmile_qr_scan", "ios": "https://dc.lft.to/lastmile_qr_scan"}, "fusion_lon": 0.0, "lat": 38.926942, "bike_id": "4d682d35f982961e06d4abfacacd1779", "type": "electric_scooter", "is_reserved": 0, "lon": -77.02425866666667}, {"fusion_lat": 0.0, "name": "a4d3485fbd10c523d50c13b7125d1f44", "is_disabled": 0, "rental_uris": {"android": "https://dc.lft.to/lastmile_qr_scan", "ios": "https://dc.lft.to/lastmile_qr_scan"}, "fusion_lon": 0.0, "lat": 38.959619333333336, "bike_id": "a4d3485fbd10c523d50c13b7125d1f44", "type": "electric_bike", "is_reserved": 0, "lon": -76.98156283333333}, {"fusion_lat": 0.0, "name": "48a5258bc27fc392432c8d18ec4b55ee", "is_disabled": 0, "rental_uris": {"android": "https://dc.lft.to/lastmile_qr_scan", "ios": "https://dc.lft.to/lastmile_qr_scan"}, "fusion_lon": 0.0, "lat": 38.92860533333333, "bike_id": "48a5258bc27fc392432c8d18ec4b55ee", "type": "electric_scooter", "is_reserved": 0, "lon": -77.0310225}, {"fusion_lat": 0.0, "name": "6ae92bdeeb58c64b00c2db166852873a", "is_disabled": 0, "rental_uris": {"android": "https://dc.lft.to/lastmile_qr_scan", "ios": "https://dc.lft.to/lastmile_qr_scan"}, "fusion_lon": 0.0, "lat": 38.95738583333333, "bike_id": "6ae92bdeeb58c64b00c2db166852873a", "type": "electric_bike", "is_reserved": 0, "lon": -76.980837}, {"fusion_lat": 0.0, "name": "89512238e7348f0f555071eb97e73016", "is_disabled": 0, "rental_uris": {"android": "https://dc.lft.to/lastmile_qr_scan", "ios": "https://dc.lft.to/lastmile_qr_scan"}, "fusion_lon": 0.0, "lat": 38.905180333333334, "bike_id": "89512238e7348f0f555071eb97e73016", "type": "electric_bike", "is_reserved": 0, "lon": -77.056804}, {"fusion_lat": 0.0, "name": "702c5b6da8d09ff3b2a80a0b29a1661c", "is_disabled": 0, "rental_uris": {"android": "https://dc.lft.to/lastmile_qr_scan", "ios": "https://dc.lft.to/lastmile_qr_scan"}, "fusion_lon": 0.0, "lat": 38.922066666666666, "bike_id": "702c5b6da8d09ff3b2a80a0b29a1661c", "type": "electric_scooter", "is_reserved": 0, "lon": -77.08073366666666}, {"fusion_lat": 0.0, "name": "080af3f55dddb29be6b87c4518f72b8d", "is_disabled": 0, "rental_uris": {"android": "https://dc.lft.to/lastmile_qr_scan", "ios": "https://dc.lft.to/lastmile_qr_scan"}, "fusion_lon": 0.0, "lat": 38.9122875, "bike_id": "080af3f55dddb29be6b87c4518f72b8d", "type": "electric_scooter", "is_reserved": 0, "lon": -77.01898266666667}, {"fusion_lat": 0.0, "name": "813b1cabbbbe9eff07ca4b4cfef3adc3", "is_disabled": 0, "rental_uris": {"android": "https://dc.lft.to/lastmile_qr_scan", "ios": "https://dc.lft.to/lastmile_qr_scan"}, "fusion_lon": 0.0, "lat": 38.899098, "bike_id": "813b1cabbbbe9eff07ca4b4cfef3adc3", "type": "electric_scooter", "is_reserved": 0, "lon": -76.93350866666667}, {"fusion_lat": 0.0, "name": "80e229dc42a791573fd3166e7c0496d8", "is_disabled": 0, "rental_uris": {"android": "https://dc.lft.to/lastmile_qr_scan", "ios": "https://dc.lft.to/lastmile_qr_scan"}, "fusion_lon": 0.0, "lat": 38.936134333333335, "bike_id": "80e229dc42a791573fd3166e7c0496d8", "type": "electric_scooter", "is_reserved": 0, "lon": -77.03194516666667}, {"fusion_lat": 0.0, "name": "04d4c8e2e10f4bc22d32b6aba0c662fa", "is_disabled": 0, "rental_uris": {"android": "https://dc.lft.to/lastmile_qr_scan", "ios": "https://dc.lft.to/lastmile_qr_scan"}, "fusion_lon": 0.0, "lat": 38.87764133333334, "bike_id": "04d4c8e2e10f4bc22d32b6aba0c662fa", "type": "electric_scooter", "is_reserved": 0, "lon": -76.99384116666667}, {"fusion_lat": 0.0, "name": "7ee649e5e99d475c7e3321516d45e163", "is_disabled": 0, "rental_uris": {"android": "https://dc.lft.to/lastmile_qr_scan", "ios": "https://dc.lft.to/lastmile_qr_scan"}, "fusion_lon": 0.0, "lat": 38.9226115, "bike_id": "7ee649e5e99d475c7e3321516d45e163", "type": "electric_scooter", "is_reserved": 0, "lon": -77.01845216666666}, {"fusion_lat": 0.0, "name": "2d78e4ad691e45c048d69480b7d8448d", "is_disabled": 0, "rental_uris": {"android": "https://dc.lft.to/lastmile_qr_scan", "ios": "https://dc.lft.to/lastmile_qr_scan"}, "fusion_lon": 0.0, "lat": 38.894858, "bike_id": "2d78e4ad691e45c048d69480b7d8448d", "type": "electric_scooter", "is_reserved": 0, "lon": -77.03378633333334}, {"fusion_lat": 0.0, "name": "3ce3fb0fb525cd373b665ba8df1d0163", "is_disabled": 0, "rental_uris": {"android": "https://dc.lft.to/lastmile_qr_scan", "ios": "https://dc.lft.to/lastmile_qr_scan"}, "fusion_lon": 0.0, "lat": 38.90409783333333, "bike_id": "3ce3fb0fb525cd373b665ba8df1d0163", "type": "electric_scooter", "is_reserved": 0, "lon": -76.97331233333334}, {"fusion_lat": 0.0, "name": "692a816d74e1e3ab843938831a5cadb0", "is_disabled": 0, "rental_uris": {"android": "https://dc.lft.to/lastmile_qr_scan", "ios": "https://dc.lft.to/lastmile_qr_scan"}, "fusion_lon": 0.0, "lat": 38.894437833333335, "bike_id": "692a816d74e1e3ab843938831a5cadb0", "type": "electric_scooter", "is_reserved": 0, "lon": -76.974867}, {"fusion_lat": 0.0, "name": "67dd5bbe24b1ad501c62d2f948738003", "is_disabled": 0, "rental_uris": {"android": "https://dc.lft.to/lastmile_qr_scan", "ios": "https://dc.lft.to/lastmile_qr_scan"}, "fusion_lon": 0.0, "lat": 38.899822666666665, "bike_id": "67dd5bbe24b1ad501c62d2f948738003", "type": "electric_scooter", "is_reserved": 0, "lon": -77.02216816666666}, {"fusion_lat": 0.0, "name": "9cf35d2476e40d206e43ec8899ec43f3", "is_disabled": 0, "rental_uris": {"android": "https://dc.lft.to/lastmile_qr_scan", "ios": "https://dc.lft.to/lastmile_qr_scan"}, "fusion_lon": 0.0, "lat": 38.905039, "bike_id": "9cf35d2476e40d206e43ec8899ec43f3", "type": "electric_scooter", "is_reserved": 0, "lon": -77.051242}, {"fusion_lat": 0.0, "name": "66ed2418dc2bd385ebdc85ce9cd19f8a", "is_disabled": 0, "rental_uris": {"android": "https://dc.lft.to/lastmile_qr_scan", "ios": "https://dc.lft.to/lastmile_qr_scan"}, "fusion_lon": 0.0, "lat": 38.83414966666667, "bike_id": "66ed2418dc2bd385ebdc85ce9cd19f8a", "type": "electric_bike", "is_reserved": 0, "lon": -77.003216}, {"fusion_lat": 0.0, "name": "6290e582025e8e2ca51d03474f9925c7", "is_disabled": 0, "rental_uris": {"android": "https://dc.lft.to/lastmile_qr_scan", "ios": "https://dc.lft.to/lastmile_qr_scan"}, "fusion_lon": 0.0, "lat": 38.907206333333335, "bike_id": "6290e582025e8e2ca51d03474f9925c7", "type": "electric_scooter", "is_reserved": 0, "lon": -77.05136133333333}, {"fusion_lat": 0.0, "name": "5fcabb589b20632f7b963fc40e1d424f", "is_disabled": 0, "rental_uris": {"android": "https://dc.lft.to/lastmile_qr_scan", "ios": "https://dc.lft.to/lastmile_qr_scan"}, "fusion_lon": 0.0, "lat": 38.933060833333336, "bike_id": "5fcabb589b20632f7b963fc40e1d424f", "type": "electric_scooter", "is_reserved": 0, "lon": -77.03085966666667}, {"fusion_lat": 0.0, "name": "46355f180d3ace5962a74a0fc9e01b9a", "is_disabled": 0, "rental_uris": {"android": "https://dc.lft.to/lastmile_qr_scan", "ios": "https://dc.lft.to/lastmile_qr_scan"}, "fusion_lon": 0.0, "lat": 38.905886833333334, "bike_id": "46355f180d3ace5962a74a0fc9e01b9a", "type": "electric_scooter", "is_reserved": 0, "lon": -77.03865383333333}, {"fusion_lat": 0.0, "name": "a6e1c52fc0eec19105338ef6490db43f", "is_disabled": 0, "rental_uris": {"android": "https://dc.lft.to/lastmile_qr_scan", "ios": "https://dc.lft.to/lastmile_qr_scan"}, "fusion_lon": 0.0, "lat": 39.0705655, "bike_id": "a6e1c52fc0eec19105338ef6490db43f", "type": "electric_bike", "is_reserved": 0, "lon": -77.11485}, {"fusion_lat": 0.0, "name": "e635e79d38ca6680b1809058c64b8825", "is_disabled": 0, "rental_uris": {"android": "https://dc.lft.to/lastmile_qr_scan", "ios": "https://dc.lft.to/lastmile_qr_scan"}, "fusion_lon": 0.0, "lat": 38.92247483333333, "bike_id": "e635e79d38ca6680b1809058c64b8825", "type": "electric_scooter", "is_reserved": 0, "lon": -77.02217833333333}, {"fusion_lat": 0.0, "name": "2236bc1742de6b6c7ff262627c409002", "is_disabled": 0, "rental_uris": {"android": "https://dc.lft.to/lastmile_qr_scan", "ios": "https://dc.lft.to/lastmile_qr_scan"}, "fusion_lon": 0.0, "lat": 38.923444, "bike_id": "2236bc1742de6b6c7ff262627c409002", "type": "electric_scooter", "is_reserved": 0, "lon": -77.0297495}, {"fusion_lat": 0.0, "name": "597802581d70ec823026271613866adb", "is_disabled": 0, "rental_uris": {"android": "https://dc.lft.to/lastmile_qr_scan", "ios": "https://dc.lft.to/lastmile_qr_scan"}, "fusion_lon": 0.0, "lat": 38.92477, "bike_id": "597802581d70ec823026271613866adb", "type": "electric_scooter", "is_reserved": 0, "lon": -77.02894916666666}, {"fusion_lat": 0.0, "name": "c16b6592c78092ddaa53bf80911eaaa1", "is_disabled": 0, "rental_uris": {"android": "https://dc.lft.to/lastmile_qr_scan", "ios": "https://dc.lft.to/lastmile_qr_scan"}, "fusion_lon": 0.0, "lat": 38.883035, "bike_id": "c16b6592c78092ddaa53bf80911eaaa1", "type": "electric_scooter", "is_reserved": 0, "lon": -76.94855133333333}, {"fusion_lat": 0.0, "name": "ca13362f8a36dc5687baaa6db80dc701", "is_disabled": 0, "rental_uris": {"android": "https://dc.lft.to/lastmile_qr_scan", "ios": "https://dc.lft.to/lastmile_qr_scan"}, "fusion_lon": 0.0, "lat": 38.92250516666667, "bike_id": "ca13362f8a36dc5687baaa6db80dc701", "type": "electric_scooter", "is_reserved": 0, "lon": -77.0747265}, {"fusion_lat": 0.0, "name": "112acc276283a2ec590e99a1394e7b51", "is_disabled": 0, "rental_uris": {"android": "https://dc.lft.to/lastmile_qr_scan", "ios": "https://dc.lft.to/lastmile_qr_scan"}, "fusion_lon": 0.0, "lat": 38.914148833333336, "bike_id": "112acc276283a2ec590e99a1394e7b51", "type": "electric_scooter", "is_reserved": 0, "lon": -77.039959}, {"fusion_lat": 0.0, "name": "bdb03f509dd5e9d7b6258fa62a7d2b0a", "is_disabled": 0, "rental_uris": {"android": "https://dc.lft.to/lastmile_qr_scan", "ios": "https://dc.lft.to/lastmile_qr_scan"}, "fusion_lon": 0.0, "lat": 38.935098333333336, "bike_id": "bdb03f509dd5e9d7b6258fa62a7d2b0a", "type": "electric_scooter", "is_reserved": 0, "lon": -77.033538}, {"fusion_lat": 0.0, "name": "7578b7eff4522bca8d572fdf93f56019", "is_disabled": 0, "rental_uris": {"android": "https://dc.lft.to/lastmile_qr_scan", "ios": "https://dc.lft.to/lastmile_qr_scan"}, "fusion_lon": 0.0, "lat": 38.93194066666667, "bike_id": "7578b7eff4522bca8d572fdf93f56019", "type": "electric_bike", "is_reserved": 0, "lon": -77.2293055}, {"fusion_lat": 0.0, "name": "4d2ff81e98d83c11f66ad67c8ee8fa6e", "is_disabled": 0, "rental_uris": {"android": "https://dc.lft.to/lastmile_qr_scan", "ios": "https://dc.lft.to/lastmile_qr_scan"}, "fusion_lon": 0.0, "lat": 38.928648333333335, "bike_id": "4d2ff81e98d83c11f66ad67c8ee8fa6e", "type": "electric_scooter", "is_reserved": 0, "lon": -77.0337595}, {"fusion_lat": 0.0, "name": "878afdc7931ac33907838b069f413a63", "is_disabled": 0, "rental_uris": {"android": "https://dc.lft.to/lastmile_qr_scan", "ios": "https://dc.lft.to/lastmile_qr_scan"}, "fusion_lon": 0.0, "lat": 38.878806166666664, "bike_id": "878afdc7931ac33907838b069f413a63", "type": "electric_scooter", "is_reserved": 0, "lon": -77.023157}, {"fusion_lat": 0.0, "name": "d884103e74184cd1feab21aebd4c8341", "is_disabled": 0, "rental_uris": {"android": "https://dc.lft.to/lastmile_qr_scan", "ios": "https://dc.lft.to/lastmile_qr_scan"}, "fusion_lon": 0.0, "lat": 38.9944295, "bike_id": "d884103e74184cd1feab21aebd4c8341", "type": "electric_bike", "is_reserved": 0, "lon": -76.99590416666666}, {"fusion_lat": 0.0, "name": "efdec468421dfdc2423bb87c897c3f1c", "is_disabled": 0, "rental_uris": {"android": "https://dc.lft.to/lastmile_qr_scan", "ios": "https://dc.lft.to/lastmile_qr_scan"}, "fusion_lon": 0.0, "lat": 38.9166305, "bike_id": "efdec468421dfdc2423bb87c897c3f1c", "type": "electric_scooter", "is_reserved": 0, "lon": -77.03470083333333}, {"fusion_lat": 0.0, "name": "6e11e873f277248e193f111f0c5bf211", "is_disabled": 0, "rental_uris": {"android": "https://dc.lft.to/lastmile_qr_scan", "ios": "https://dc.lft.to/lastmile_qr_scan"}, "fusion_lon": 0.0, "lat": 38.94049566666666, "bike_id": "6e11e873f277248e193f111f0c5bf211", "type": "electric_bike", "is_reserved": 0, "lon": -76.90424766666666}, {"fusion_lat": 0.0, "name": "e13b5c36fc524d025571b12bf760c593", "is_disabled": 0, "rental_uris": {"android": "https://dc.lft.to/lastmile_qr_scan", "ios": "https://dc.lft.to/lastmile_qr_scan"}, "fusion_lon": 0.0, "lat": 38.902437, "bike_id": "e13b5c36fc524d025571b12bf760c593", "type": "electric_scooter", "is_reserved": 0, "lon": -77.044567}, {"fusion_lat": 0.0, "name": "d9c15cfce9b18b3a28279cf4dbd4e41c", "is_disabled": 0, "rental_uris": {"android": "https://dc.lft.to/lastmile_qr_scan", "ios": "https://dc.lft.to/lastmile_qr_scan"}, "fusion_lon": 0.0, "lat": 38.8710825, "bike_id": "d9c15cfce9b18b3a28279cf4dbd4e41c", "type": "electric_scooter", "is_reserved": 0, "lon": -76.96591033333333}, {"fusion_lat": 0.0, "name": "b4f4ce5e6ab55ad07916feaf650df382", "is_disabled": 0, "rental_uris": {"android": "https://dc.lft.to/lastmile_qr_scan", "ios": "https://dc.lft.to/lastmile_qr_scan"}, "fusion_lon": 0.0, "lat": 38.907098, "bike_id": "b4f4ce5e6ab55ad07916feaf650df382", "type": "electric_scooter", "is_reserved": 0, "lon": -76.99967066666666}, {"fusion_lat": 0.0, "name": "7ad6934458dba427dc2a1536a4277aff", "is_disabled": 0, "rental_uris": {"android": "https://dc.lft.to/lastmile_qr_scan", "ios": "https://dc.lft.to/lastmile_qr_scan"}, "fusion_lon": 0.0, "lat": 38.917167, "bike_id": "7ad6934458dba427dc2a1536a4277aff", "type": "electric_scooter", "is_reserved": 0, "lon": -77.0290165}, {"fusion_lat": 0.0, "name": "3bc6aac6b95b877d160b374815525b25", "is_disabled": 0, "rental_uris": {"android": "https://dc.lft.to/lastmile_qr_scan", "ios": "https://dc.lft.to/lastmile_qr_scan"}, "fusion_lon": 0.0, "lat": 38.98667916666667, "bike_id": "3bc6aac6b95b877d160b374815525b25", "type": "electric_bike", "is_reserved": 0, "lon": -77.000016}, {"fusion_lat": 0.0, "name": "895de4d2a96eeea0d45ac5fb51c04438", "is_disabled": 0, "rental_uris": {"android": "https://dc.lft.to/lastmile_qr_scan", "ios": "https://dc.lft.to/lastmile_qr_scan"}, "fusion_lon": 0.0, "lat": 38.93545683333333, "bike_id": "895de4d2a96eeea0d45ac5fb51c04438", "type": "electric_scooter", "is_reserved": 0, "lon": -77.03264166666666}, {"fusion_lat": 0.0, "name": "eb4fa52594c3f23a0a9c003e915f5595", "is_disabled": 0, "rental_uris": {"android": "https://dc.lft.to/lastmile_qr_scan", "ios": "https://dc.lft.to/lastmile_qr_scan"}, "fusion_lon": 0.0, "lat": 38.91719166666667, "bike_id": "eb4fa52594c3f23a0a9c003e915f5595", "type": "electric_scooter", "is_reserved": 0, "lon": -77.04154183333333}, {"fusion_lat": 0.0, "name": "aabd7fdea3bef5ee5baadd23d362b0ad", "is_disabled": 0, "rental_uris": {"android": "https://dc.lft.to/lastmile_qr_scan", "ios": "https://dc.lft.to/lastmile_qr_scan"}, "fusion_lon": 0.0, "lat": 38.89300216666667, "bike_id": "aabd7fdea3bef5ee5baadd23d362b0ad", "type": "electric_scooter", "is_reserved": 0, "lon": -77.02181}, {"fusion_lat": 0.0, "name": "1d5d91e588a23f2581d1569b6251d3b6", "is_disabled": 0, "rental_uris": {"android": "https://dc.lft.to/lastmile_qr_scan", "ios": "https://dc.lft.to/lastmile_qr_scan"}, "fusion_lon": 0.0, "lat": 38.90868416666667, "bike_id": "1d5d91e588a23f2581d1569b6251d3b6", "type": "electric_scooter", "is_reserved": 0, "lon": -77.04290516666667}, {"fusion_lat": 0.0, "name": "a871e26e77a8caa56bf5449ddaf0ed6b", "is_disabled": 0, "rental_uris": {"android": "https://dc.lft.to/lastmile_qr_scan", "ios": "https://dc.lft.to/lastmile_qr_scan"}, "fusion_lon": 0.0, "lat": 38.8973745, "bike_id": "a871e26e77a8caa56bf5449ddaf0ed6b", "type": "electric_bike", "is_reserved": 0, "lon": -76.920464}, {"fusion_lat": 0.0, "name": "e080ebcefc45a6186c26b89855f859b2", "is_disabled": 0, "rental_uris": {"android": "https://dc.lft.to/lastmile_qr_scan", "ios": "https://dc.lft.to/lastmile_qr_scan"}, "fusion_lon": 0.0, "lat": 38.91125783333333, "bike_id": "e080ebcefc45a6186c26b89855f859b2", "type": "electric_scooter", "is_reserved": 0, "lon": -77.020998}, {"fusion_lat": 0.0, "name": "0224cda50519b2d15293fedc757b89b4", "is_disabled": 0, "rental_uris": {"android": "https://dc.lft.to/lastmile_qr_scan", "ios": "https://dc.lft.to/lastmile_qr_scan"}, "fusion_lon": 0.0, "lat": 38.89697566666667, "bike_id": "0224cda50519b2d15293fedc757b89b4", "type": "electric_scooter", "is_reserved": 0, "lon": -77.04338283333334}, {"fusion_lat": 0.0, "name": "2f5185bc8f167046c5fabcc76e7f3544", "is_disabled": 0, "rental_uris": {"android": "https://dc.lft.to/lastmile_qr_scan", "ios": "https://dc.lft.to/lastmile_qr_scan"}, "fusion_lon": 0.0, "lat": 38.911221833333336, "bike_id": "2f5185bc8f167046c5fabcc76e7f3544", "type": "electric_scooter", "is_reserved": 0, "lon": -77.02761983333333}, {"fusion_lat": 0.0, "name": "1d80cb73a1907343e386eefefb0090d4", "is_disabled": 0, "rental_uris": {"android": "https://dc.lft.to/lastmile_qr_scan", "ios": "https://dc.lft.to/lastmile_qr_scan"}, "fusion_lon": 0.0, "lat": 38.9618555, "bike_id": "1d80cb73a1907343e386eefefb0090d4", "type": "electric_bike", "is_reserved": 0, "lon": -77.05268133333334}, {"fusion_lat": 0.0, "name": "66b89c9926f8fefea940d31f93a8188d", "is_disabled": 0, "rental_uris": {"android": "https://dc.lft.to/lastmile_qr_scan", "ios": "https://dc.lft.to/lastmile_qr_scan"}, "fusion_lon": 0.0, "lat": 38.89112183333334, "bike_id": "66b89c9926f8fefea940d31f93a8188d", "type": "electric_scooter", "is_reserved": 0, "lon": -76.94383233333333}, {"fusion_lat": 0.0, "name": "967d6df78ba637498e305c0e3a83ac0e", "is_disabled": 0, "rental_uris": {"android": "https://dc.lft.to/lastmile_qr_scan", "ios": "https://dc.lft.to/lastmile_qr_scan"}, "fusion_lon": 0.0, "lat": 38.969897833333334, "bike_id": "967d6df78ba637498e305c0e3a83ac0e", "type": "electric_scooter", "is_reserved": 0, "lon": -77.011626}, {"fusion_lat": 0.0, "name": "4163e1b2f7829799b79f3d836d198523", "is_disabled": 0, "rental_uris": {"android": "https://dc.lft.to/lastmile_qr_scan", "ios": "https://dc.lft.to/lastmile_qr_scan"}, "fusion_lon": 0.0, "lat": 38.973759, "bike_id": "4163e1b2f7829799b79f3d836d198523", "type": "electric_scooter", "is_reserved": 0, "lon": -77.01284566666666}, {"fusion_lat": 0.0, "name": "96197c9729942207c313c87ef3fc52a0", "is_disabled": 0, "rental_uris": {"android": "https://dc.lft.to/lastmile_qr_scan", "ios": "https://dc.lft.to/lastmile_qr_scan"}, "fusion_lon": 0.0, "lat": 38.9091425, "bike_id": "96197c9729942207c313c87ef3fc52a0", "type": "electric_scooter", "is_reserved": 0, "lon": -77.0727825}, {"fusion_lat": 0.0, "name": "ce1ff3c2d323e5eee58eea25faca7952", "is_disabled": 0, "rental_uris": {"android": "https://dc.lft.to/lastmile_qr_scan", "ios": "https://dc.lft.to/lastmile_qr_scan"}, "fusion_lon": 0.0, "lat": 38.913982833333336, "bike_id": "ce1ff3c2d323e5eee58eea25faca7952", "type": "electric_scooter", "is_reserved": 0, "lon": -77.0199805}, {"fusion_lat": 0.0, "name": "713ff609b8b17da71448cf9b1fada45a", "is_disabled": 0, "rental_uris": {"android": "https://dc.lft.to/lastmile_qr_scan", "ios": "https://dc.lft.to/lastmile_qr_scan"}, "fusion_lon": 0.0, "lat": 38.930632833333334, "bike_id": "713ff609b8b17da71448cf9b1fada45a", "type": "electric_scooter", "is_reserved": 0, "lon": -77.0405595}, {"fusion_lat": 0.0, "name": "f4ec68af5d26355411928ea08f38117e", "is_disabled": 0, "rental_uris": {"android": "https://dc.lft.to/lastmile_qr_scan", "ios": "https://dc.lft.to/lastmile_qr_scan"}, "fusion_lon": 0.0, "lat": 38.90413816666667, "bike_id": "f4ec68af5d26355411928ea08f38117e", "type": "electric_scooter", "is_reserved": 0, "lon": -77.02504383333333}, {"fusion_lat": 0.0, "name": "cf1f5a98357ea054da9954108a2a838b", "is_disabled": 0, "rental_uris": {"android": "https://dc.lft.to/lastmile_qr_scan", "ios": "https://dc.lft.to/lastmile_qr_scan"}, "fusion_lon": 0.0, "lat": 38.8987655, "bike_id": "cf1f5a98357ea054da9954108a2a838b", "type": "electric_scooter", "is_reserved": 0, "lon": -76.93185183333334}, {"fusion_lat": 0.0, "name": "4abe0f42cddb4e0b6f87faa9004507e4", "is_disabled": 0, "rental_uris": {"android": "https://dc.lft.to/lastmile_qr_scan", "ios": "https://dc.lft.to/lastmile_qr_scan"}, "fusion_lon": 0.0, "lat": 38.883131166666665, "bike_id": "4abe0f42cddb4e0b6f87faa9004507e4", "type": "electric_scooter", "is_reserved": 0, "lon": -77.01721133333334}, {"fusion_lat": 0.0, "name": "a2c1b7086accb393be4748b3fe8d3a69", "is_disabled": 0, "rental_uris": {"android": "https://dc.lft.to/lastmile_qr_scan", "ios": "https://dc.lft.to/lastmile_qr_scan"}, "fusion_lon": 0.0, "lat": 38.905328, "bike_id": "a2c1b7086accb393be4748b3fe8d3a69", "type": "electric_scooter", "is_reserved": 0, "lon": -77.02198833333334}, {"fusion_lat": 0.0, "name": "e1807bf885e892d61d4e473110a1b6b6", "is_disabled": 0, "rental_uris": {"android": "https://dc.lft.to/lastmile_qr_scan", "ios": "https://dc.lft.to/lastmile_qr_scan"}, "fusion_lon": 0.0, "lat": 38.87402083333333, "bike_id": "e1807bf885e892d61d4e473110a1b6b6", "type": "electric_scooter", "is_reserved": 0, "lon": -77.00001383333333}, {"fusion_lat": 0.0, "name": "19431279e4533c356b142dc58e4fb51f", "is_disabled": 0, "rental_uris": {"android": "https://dc.lft.to/lastmile_qr_scan", "ios": "https://dc.lft.to/lastmile_qr_scan"}, "fusion_lon": 0.0, "lat": 38.92750383333333, "bike_id": "19431279e4533c356b142dc58e4fb51f", "type": "electric_scooter", "is_reserved": 0, "lon": -77.02430233333334}, {"fusion_lat": 0.0, "name": "fb8fb47cf25dc7a98378fe2884beb53f", "is_disabled": 0, "rental_uris": {"android": "https://dc.lft.to/lastmile_qr_scan", "ios": "https://dc.lft.to/lastmile_qr_scan"}, "fusion_lon": 0.0, "lat": 38.9147575, "bike_id": "fb8fb47cf25dc7a98378fe2884beb53f", "type": "electric_scooter", "is_reserved": 0, "lon": -77.02393283333333}, {"fusion_lat": 0.0, "name": "29145e7865b7d9176dc86c495a567684", "is_disabled": 0, "rental_uris": {"android": "https://dc.lft.to/lastmile_qr_scan", "ios": "https://dc.lft.to/lastmile_qr_scan"}, "fusion_lon": 0.0, "lat": 38.916871, "bike_id": "29145e7865b7d9176dc86c495a567684", "type": "electric_scooter", "is_reserved": 0, "lon": -77.02895733333334}, {"fusion_lat": 0.0, "name": "98d0520863fd0dd9b2de7c0c5ce43548", "is_disabled": 0, "rental_uris": {"android": "https://dc.lft.to/lastmile_qr_scan", "ios": "https://dc.lft.to/lastmile_qr_scan"}, "fusion_lon": 0.0, "lat": 38.90440383333333, "bike_id": "98d0520863fd0dd9b2de7c0c5ce43548", "type": "electric_scooter", "is_reserved": 0, "lon": -77.02330383333333}, {"fusion_lat": 0.0, "name": "770987e64a21dae92339fb9a5d09a66c", "is_disabled": 0, "rental_uris": {"android": "https://dc.lft.to/lastmile_qr_scan", "ios": "https://dc.lft.to/lastmile_qr_scan"}, "fusion_lon": 0.0, "lat": 38.896239, "bike_id": "770987e64a21dae92339fb9a5d09a66c", "type": "electric_scooter", "is_reserved": 0, "lon": -77.00917866666667}, {"fusion_lat": 0.0, "name": "0a00c7d8233a6901ff626880c7d93195", "is_disabled": 0, "rental_uris": {"android": "https://dc.lft.to/lastmile_qr_scan", "ios": "https://dc.lft.to/lastmile_qr_scan"}, "fusion_lon": 0.0, "lat": 38.935218666666664, "bike_id": "0a00c7d8233a6901ff626880c7d93195", "type": "electric_scooter", "is_reserved": 0, "lon": -77.07266916666667}, {"fusion_lat": 0.0, "name": "da303a94422a28655dc4accff401961b", "is_disabled": 0, "rental_uris": {"android": "https://dc.lft.to/lastmile_qr_scan", "ios": "https://dc.lft.to/lastmile_qr_scan"}, "fusion_lon": 0.0, "lat": 38.87886266666667, "bike_id": "da303a94422a28655dc4accff401961b", "type": "electric_scooter", "is_reserved": 0, "lon": -77.02259333333333}, {"fusion_lat": 0.0, "name": "e2901b6163830b59704585ccfc9095e4", "is_disabled": 0, "rental_uris": {"android": "https://dc.lft.to/lastmile_qr_scan", "ios": "https://dc.lft.to/lastmile_qr_scan"}, "fusion_lon": 0.0, "lat": 38.847556833333336, "bike_id": "e2901b6163830b59704585ccfc9095e4", "type": "electric_scooter", "is_reserved": 0, "lon": -76.99498166666666}, {"fusion_lat": 0.0, "name": "5f5f774ec259ad3bf6368eb66997f278", "is_disabled": 0, "rental_uris": {"android": "https://dc.lft.to/lastmile_qr_scan", "ios": "https://dc.lft.to/lastmile_qr_scan"}, "fusion_lon": 0.0, "lat": 39.052504666666664, "bike_id": "5f5f774ec259ad3bf6368eb66997f278", "type": "electric_bike", "is_reserved": 0, "lon": -77.08071283333334}, {"fusion_lat": 0.0, "name": "86b41eca1628ed887b22138c29b7dd8b", "is_disabled": 0, "rental_uris": {"android": "https://dc.lft.to/lastmile_qr_scan", "ios": "https://dc.lft.to/lastmile_qr_scan"}, "fusion_lon": 0.0, "lat": 38.90703233333333, "bike_id": "86b41eca1628ed887b22138c29b7dd8b", "type": "electric_scooter", "is_reserved": 0, "lon": -76.9870075}, {"fusion_lat": 0.0, "name": "c482fdebb9c57ba261d5145ce7139f5c", "is_disabled": 0, "rental_uris": {"android": "https://dc.lft.to/lastmile_qr_scan", "ios": "https://dc.lft.to/lastmile_qr_scan"}, "fusion_lon": 0.0, "lat": 38.939001166666664, "bike_id": "c482fdebb9c57ba261d5145ce7139f5c", "type": "electric_scooter", "is_reserved": 0, "lon": -77.0331895}, {"fusion_lat": 0.0, "name": "3ad188a30d9e3f3658cd16af3a828e0e", "is_disabled": 0, "rental_uris": {"android": "https://dc.lft.to/lastmile_qr_scan", "ios": "https://dc.lft.to/lastmile_qr_scan"}, "fusion_lon": 0.0, "lat": 38.92612733333333, "bike_id": "3ad188a30d9e3f3658cd16af3a828e0e", "type": "electric_scooter", "is_reserved": 0, "lon": -77.02162516666667}, {"fusion_lat": 0.0, "name": "07a541acdf6b152ae59e7eccbbe226cd", "is_disabled": 0, "rental_uris": {"android": "https://dc.lft.to/lastmile_qr_scan", "ios": "https://dc.lft.to/lastmile_qr_scan"}, "fusion_lon": 0.0, "lat": 38.93422433333333, "bike_id": "07a541acdf6b152ae59e7eccbbe226cd", "type": "electric_scooter", "is_reserved": 0, "lon": -77.028413}, {"fusion_lat": 0.0, "name": "483579c98d2097211215a368dc44d25b", "is_disabled": 0, "rental_uris": {"android": "https://dc.lft.to/lastmile_qr_scan", "ios": "https://dc.lft.to/lastmile_qr_scan"}, "fusion_lon": 0.0, "lat": 38.924381, "bike_id": "483579c98d2097211215a368dc44d25b", "type": "electric_scooter", "is_reserved": 0, "lon": -77.034046}, {"fusion_lat": 0.0, "name": "fc54f6d89380e8485ab6d9af75ee70bb", "is_disabled": 0, "rental_uris": {"android": "https://dc.lft.to/lastmile_qr_scan", "ios": "https://dc.lft.to/lastmile_qr_scan"}, "fusion_lon": 0.0, "lat": 38.94517866666666, "bike_id": "fc54f6d89380e8485ab6d9af75ee70bb", "type": "electric_scooter", "is_reserved": 0, "lon": -77.03889066666666}, {"fusion_lat": 0.0, "name": "9403346a87f96ceccfd4004b77a023dc", "is_disabled": 0, "rental_uris": {"android": "https://dc.lft.to/lastmile_qr_scan", "ios": "https://dc.lft.to/lastmile_qr_scan"}, "fusion_lon": 0.0, "lat": 38.92322016666667, "bike_id": "9403346a87f96ceccfd4004b77a023dc", "type": "electric_scooter", "is_reserved": 0, "lon": -77.0367025}, {"fusion_lat": 0.0, "name": "ddb857f16bab207f4e2d96ef4462edcb", "is_disabled": 0, "rental_uris": {"android": "https://dc.lft.to/lastmile_qr_scan", "ios": "https://dc.lft.to/lastmile_qr_scan"}, "fusion_lon": 0.0, "lat": 38.92086416666667, "bike_id": "ddb857f16bab207f4e2d96ef4462edcb", "type": "electric_scooter", "is_reserved": 0, "lon": -77.024281}, {"fusion_lat": 0.0, "name": "28b61aa68d87132ce739064578222cb4", "is_disabled": 0, "rental_uris": {"android": "https://dc.lft.to/lastmile_qr_scan", "ios": "https://dc.lft.to/lastmile_qr_scan"}, "fusion_lon": 0.0, "lat": 38.937089666666665, "bike_id": "28b61aa68d87132ce739064578222cb4", "type": "electric_scooter", "is_reserved": 0, "lon": -77.06104783333333}, {"fusion_lat": 0.0, "name": "855f0b54933f3a45d6d582da0c35e6cb", "is_disabled": 0, "rental_uris": {"android": "https://dc.lft.to/lastmile_qr_scan", "ios": "https://dc.lft.to/lastmile_qr_scan"}, "fusion_lon": 0.0, "lat": 38.89008783333333, "bike_id": "855f0b54933f3a45d6d582da0c35e6cb", "type": "electric_scooter", "is_reserved": 0, "lon": -76.93743933333333}, {"fusion_lat": 0.0, "name": "b789333f25ad31026f4554439e566653", "is_disabled": 0, "rental_uris": {"android": "https://dc.lft.to/lastmile_qr_scan", "ios": "https://dc.lft.to/lastmile_qr_scan"}, "fusion_lon": 0.0, "lat": 38.847561666666664, "bike_id": "b789333f25ad31026f4554439e566653", "type": "electric_scooter", "is_reserved": 0, "lon": -76.99499716666666}, {"fusion_lat": 0.0, "name": "9be26d92a2caaec851d4f529438acdfd", "is_disabled": 0, "rental_uris": {"android": "https://dc.lft.to/lastmile_qr_scan", "ios": "https://dc.lft.to/lastmile_qr_scan"}, "fusion_lon": 0.0, "lat": 38.892296333333334, "bike_id": "9be26d92a2caaec851d4f529438acdfd", "type": "electric_scooter", "is_reserved": 0, "lon": -77.02894883333333}, {"fusion_lat": 0.0, "name": "8e7fbc2eeb5c28c7990fd54894ad4960", "is_disabled": 0, "rental_uris": {"android": "https://dc.lft.to/lastmile_qr_scan", "ios": "https://dc.lft.to/lastmile_qr_scan"}, "fusion_lon": 0.0, "lat": 38.918178, "bike_id": "8e7fbc2eeb5c28c7990fd54894ad4960", "type": "electric_scooter", "is_reserved": 0, "lon": -77.02587266666667}, {"fusion_lat": 0.0, "name": "b51d633e878aa52c1357db5a87c0f9a2", "is_disabled": 0, "rental_uris": {"android": "https://dc.lft.to/lastmile_qr_scan", "ios": "https://dc.lft.to/lastmile_qr_scan"}, "fusion_lon": 0.0, "lat": 38.8871415, "bike_id": "b51d633e878aa52c1357db5a87c0f9a2", "type": "electric_scooter", "is_reserved": 0, "lon": -76.99689866666667}, {"fusion_lat": 0.0, "name": "113b0567c0093bd345ed37889cc3f10d", "is_disabled": 0, "rental_uris": {"android": "https://dc.lft.to/lastmile_qr_scan", "ios": "https://dc.lft.to/lastmile_qr_scan"}, "fusion_lon": 0.0, "lat": 38.89623266666667, "bike_id": "113b0567c0093bd345ed37889cc3f10d", "type": "electric_scooter", "is_reserved": 0, "lon": -77.031705}, {"fusion_lat": 0.0, "name": "0db8ab18cb18a9b067f3cd1f37206218", "is_disabled": 0, "rental_uris": {"android": "https://dc.lft.to/lastmile_qr_scan", "ios": "https://dc.lft.to/lastmile_qr_scan"}, "fusion_lon": 0.0, "lat": 38.884939, "bike_id": "0db8ab18cb18a9b067f3cd1f37206218", "type": "electric_scooter", "is_reserved": 0, "lon": -77.010854}, {"fusion_lat": 0.0, "name": "6480d5d9324da804fdeb1b4a506d9e2e", "is_disabled": 0, "rental_uris": {"android": "https://dc.lft.to/lastmile_qr_scan", "ios": "https://dc.lft.to/lastmile_qr_scan"}, "fusion_lon": 0.0, "lat": 38.913192333333335, "bike_id": "6480d5d9324da804fdeb1b4a506d9e2e", "type": "electric_scooter", "is_reserved": 0, "lon": -77.0213005}, {"fusion_lat": 0.0, "name": "c9942684a4fcaff3d10dfaad11f6346b", "is_disabled": 0, "rental_uris": {"android": "https://dc.lft.to/lastmile_qr_scan", "ios": "https://dc.lft.to/lastmile_qr_scan"}, "fusion_lon": 0.0, "lat": 38.90864283333333, "bike_id": "c9942684a4fcaff3d10dfaad11f6346b", "type": "electric_scooter", "is_reserved": 0, "lon": -76.99960833333333}, {"fusion_lat": 0.0, "name": "3f52d38c4258ceb6a1c93f168d8ee693", "is_disabled": 0, "rental_uris": {"android": "https://dc.lft.to/lastmile_qr_scan", "ios": "https://dc.lft.to/lastmile_qr_scan"}, "fusion_lon": 0.0, "lat": 38.88344433333333, "bike_id": "3f52d38c4258ceb6a1c93f168d8ee693", "type": "electric_scooter", "is_reserved": 0, "lon": -77.016686}, {"fusion_lat": 0.0, "name": "8f5cab379404031b4cf8fb2f965d5d08", "is_disabled": 0, "rental_uris": {"android": "https://dc.lft.to/lastmile_qr_scan", "ios": "https://dc.lft.to/lastmile_qr_scan"}, "fusion_lon": 0.0, "lat": 38.92127966666666, "bike_id": "8f5cab379404031b4cf8fb2f965d5d08", "type": "electric_scooter", "is_reserved": 0, "lon": -77.0435755}, {"fusion_lat": 0.0, "name": "063d68601a50977d0dee083a2dc2d4da", "is_disabled": 0, "rental_uris": {"android": "https://dc.lft.to/lastmile_qr_scan", "ios": "https://dc.lft.to/lastmile_qr_scan"}, "fusion_lon": 0.0, "lat": 38.923257666666665, "bike_id": "063d68601a50977d0dee083a2dc2d4da", "type": "electric_scooter", "is_reserved": 0, "lon": -77.04302216666666}, {"fusion_lat": 0.0, "name": "507419d9481b9d9f4f9b38f9a21b3a24", "is_disabled": 0, "rental_uris": {"android": "https://dc.lft.to/lastmile_qr_scan", "ios": "https://dc.lft.to/lastmile_qr_scan"}, "fusion_lon": 0.0, "lat": 38.890175, "bike_id": "507419d9481b9d9f4f9b38f9a21b3a24", "type": "electric_scooter", "is_reserved": 0, "lon": -76.93729083333334}, {"fusion_lat": 0.0, "name": "23a4b1e49618141b03c97d846cd83694", "is_disabled": 0, "rental_uris": {"android": "https://dc.lft.to/lastmile_qr_scan", "ios": "https://dc.lft.to/lastmile_qr_scan"}, "fusion_lon": 0.0, "lat": 38.870935833333334, "bike_id": "23a4b1e49618141b03c97d846cd83694", "type": "electric_scooter", "is_reserved": 0, "lon": -77.01212233333334}, {"fusion_lat": 0.0, "name": "ffb30e9cc77aa75cbb57313b62f1d9ed", "is_disabled": 0, "rental_uris": {"android": "https://dc.lft.to/lastmile_qr_scan", "ios": "https://dc.lft.to/lastmile_qr_scan"}, "fusion_lon": 0.0, "lat": 38.85607733333333, "bike_id": "ffb30e9cc77aa75cbb57313b62f1d9ed", "type": "electric_scooter", "is_reserved": 0, "lon": -76.97261416666667}, {"fusion_lat": 0.0, "name": "82013f827d17c07edabed36996cc3de6", "is_disabled": 0, "rental_uris": {"android": "https://dc.lft.to/lastmile_qr_scan", "ios": "https://dc.lft.to/lastmile_qr_scan"}, "fusion_lon": 0.0, "lat": 38.863355, "bike_id": "82013f827d17c07edabed36996cc3de6", "type": "electric_bike", "is_reserved": 0, "lon": -76.98717716666667}, {"fusion_lat": 0.0, "name": "bea4b29275985cfbe9636fab6cbda471", "is_disabled": 0, "rental_uris": {"android": "https://dc.lft.to/lastmile_qr_scan", "ios": "https://dc.lft.to/lastmile_qr_scan"}, "fusion_lon": 0.0, "lat": 38.93012816666667, "bike_id": "bea4b29275985cfbe9636fab6cbda471", "type": "electric_scooter", "is_reserved": 0, "lon": -77.03240416666667}, {"fusion_lat": 0.0, "name": "f464df9f16ae82440bd624011d362ade", "is_disabled": 0, "rental_uris": {"android": "https://dc.lft.to/lastmile_qr_scan", "ios": "https://dc.lft.to/lastmile_qr_scan"}, "fusion_lon": 0.0, "lat": 38.92610216666667, "bike_id": "f464df9f16ae82440bd624011d362ade", "type": "electric_scooter", "is_reserved": 0, "lon": -77.03962783333333}, {"fusion_lat": 0.0, "name": "1844372f5190a64f21a606288c5ac5d3", "is_disabled": 0, "rental_uris": {"android": "https://dc.lft.to/lastmile_qr_scan", "ios": "https://dc.lft.to/lastmile_qr_scan"}, "fusion_lon": 0.0, "lat": 38.883006333333334, "bike_id": "1844372f5190a64f21a606288c5ac5d3", "type": "electric_scooter", "is_reserved": 0, "lon": -76.9485295}, {"fusion_lat": 0.0, "name": "1eb4653a3aed7e0e4320954614efe11f", "is_disabled": 0, "rental_uris": {"android": "https://dc.lft.to/lastmile_qr_scan", "ios": "https://dc.lft.to/lastmile_qr_scan"}, "fusion_lon": 0.0, "lat": 38.91697116666667, "bike_id": "1eb4653a3aed7e0e4320954614efe11f", "type": "electric_scooter", "is_reserved": 0, "lon": -77.023064}, {"fusion_lat": 0.0, "name": "5968c7359ed25d69fb7090b558538ad1", "is_disabled": 0, "rental_uris": {"android": "https://dc.lft.to/lastmile_qr_scan", "ios": "https://dc.lft.to/lastmile_qr_scan"}, "fusion_lon": 0.0, "lat": 38.80756933333333, "bike_id": "5968c7359ed25d69fb7090b558538ad1", "type": "electric_bike", "is_reserved": 0, "lon": -77.0945265}, {"fusion_lat": 0.0, "name": "e73bdbcd7f62003904683427748fb1db", "is_disabled": 0, "rental_uris": {"android": "https://dc.lft.to/lastmile_qr_scan", "ios": "https://dc.lft.to/lastmile_qr_scan"}, "fusion_lon": 0.0, "lat": 38.887754, "bike_id": "e73bdbcd7f62003904683427748fb1db", "type": "electric_scooter", "is_reserved": 0, "lon": -77.01509933333334}, {"fusion_lat": 0.0, "name": "7afb7d205e89e64624dadfcd25f29282", "is_disabled": 0, "rental_uris": {"android": "https://dc.lft.to/lastmile_qr_scan", "ios": "https://dc.lft.to/lastmile_qr_scan"}, "fusion_lon": 0.0, "lat": 38.900173833333334, "bike_id": "7afb7d205e89e64624dadfcd25f29282", "type": "electric_scooter", "is_reserved": 0, "lon": -77.01114166666666}, {"fusion_lat": 0.0, "name": "7718a47777defbdb70a577dc81d11f88", "is_disabled": 0, "rental_uris": {"android": "https://dc.lft.to/lastmile_qr_scan", "ios": "https://dc.lft.to/lastmile_qr_scan"}, "fusion_lon": 0.0, "lat": 38.86018516666667, "bike_id": "7718a47777defbdb70a577dc81d11f88", "type": "electric_bike", "is_reserved": 0, "lon": -77.12806333333333}, {"fusion_lat": 0.0, "name": "08bdbf35f9156bcb09d11c4eddc2f10d", "is_disabled": 0, "rental_uris": {"android": "https://dc.lft.to/lastmile_qr_scan", "ios": "https://dc.lft.to/lastmile_qr_scan"}, "fusion_lon": 0.0, "lat": 38.90410966666666, "bike_id": "08bdbf35f9156bcb09d11c4eddc2f10d", "type": "electric_scooter", "is_reserved": 0, "lon": -77.02064916666667}, {"fusion_lat": 0.0, "name": "6dac060f92ab4abbcf6e420f536a2511", "is_disabled": 0, "rental_uris": {"android": "https://dc.lft.to/lastmile_qr_scan", "ios": "https://dc.lft.to/lastmile_qr_scan"}, "fusion_lon": 0.0, "lat": 38.929543333333335, "bike_id": "6dac060f92ab4abbcf6e420f536a2511", "type": "electric_scooter", "is_reserved": 0, "lon": -77.02879766666666}, {"fusion_lat": 0.0, "name": "7cc4269f70e245d5414d95979801bddb", "is_disabled": 0, "rental_uris": {"android": "https://dc.lft.to/lastmile_qr_scan", "ios": "https://dc.lft.to/lastmile_qr_scan"}, "fusion_lon": 0.0, "lat": 38.930781333333336, "bike_id": "7cc4269f70e245d5414d95979801bddb", "type": "electric_scooter", "is_reserved": 0, "lon": -77.0776565}, {"fusion_lat": 0.0, "name": "7338e6ae68058325e8cb9380782d7bcd", "is_disabled": 0, "rental_uris": {"android": "https://dc.lft.to/lastmile_qr_scan", "ios": "https://dc.lft.to/lastmile_qr_scan"}, "fusion_lon": 0.0, "lat": 38.90067833333333, "bike_id": "7338e6ae68058325e8cb9380782d7bcd", "type": "electric_scooter", "is_reserved": 0, "lon": -77.0453735}, {"fusion_lat": 0.0, "name": "45a501059d06ca07a0fe32be24331c9e", "is_disabled": 0, "rental_uris": {"android": "https://dc.lft.to/lastmile_qr_scan", "ios": "https://dc.lft.to/lastmile_qr_scan"}, "fusion_lon": 0.0, "lat": 38.904079333333335, "bike_id": "45a501059d06ca07a0fe32be24331c9e", "type": "electric_scooter", "is_reserved": 0, "lon": -76.973314}, {"fusion_lat": 0.0, "name": "3ab8384c3c560dcbb6c063c4f46d0696", "is_disabled": 0, "rental_uris": {"android": "https://dc.lft.to/lastmile_qr_scan", "ios": "https://dc.lft.to/lastmile_qr_scan"}, "fusion_lon": 0.0, "lat": 38.90136016666666, "bike_id": "3ab8384c3c560dcbb6c063c4f46d0696", "type": "electric_scooter", "is_reserved": 0, "lon": -77.03322716666666}, {"fusion_lat": 0.0, "name": "18f8d6592169dc46eff62999ddff2ef5", "is_disabled": 0, "rental_uris": {"android": "https://dc.lft.to/lastmile_qr_scan", "ios": "https://dc.lft.to/lastmile_qr_scan"}, "fusion_lon": 0.0, "lat": 38.9073185, "bike_id": "18f8d6592169dc46eff62999ddff2ef5", "type": "electric_scooter", "is_reserved": 0, "lon": -77.01216}, {"fusion_lat": 0.0, "name": "c560801b6f55ddd2fa5666db42b870cc", "is_disabled": 0, "rental_uris": {"android": "https://dc.lft.to/lastmile_qr_scan", "ios": "https://dc.lft.to/lastmile_qr_scan"}, "fusion_lon": 0.0, "lat": 38.902585333333334, "bike_id": "c560801b6f55ddd2fa5666db42b870cc", "type": "electric_scooter", "is_reserved": 0, "lon": -76.974513}, {"fusion_lat": 0.0, "name": "e0171715d0f240d11676aad4537040f3", "is_disabled": 0, "rental_uris": {"android": "https://dc.lft.to/lastmile_qr_scan", "ios": "https://dc.lft.to/lastmile_qr_scan"}, "fusion_lon": 0.0, "lat": 38.9523685, "bike_id": "e0171715d0f240d11676aad4537040f3", "type": "electric_scooter", "is_reserved": 0, "lon": -76.99007383333333}, {"fusion_lat": 0.0, "name": "bd685df60a6c62ccc53028435606ce0e", "is_disabled": 0, "rental_uris": {"android": "https://dc.lft.to/lastmile_qr_scan", "ios": "https://dc.lft.to/lastmile_qr_scan"}, "fusion_lon": 0.0, "lat": 38.897288, "bike_id": "bd685df60a6c62ccc53028435606ce0e", "type": "electric_scooter", "is_reserved": 0, "lon": -76.94703266666667}, {"fusion_lat": 0.0, "name": "ea0698beb076356b3dbaf720f150ca1a", "is_disabled": 0, "rental_uris": {"android": "https://dc.lft.to/lastmile_qr_scan", "ios": "https://dc.lft.to/lastmile_qr_scan"}, "fusion_lon": 0.0, "lat": 38.923424833333335, "bike_id": "ea0698beb076356b3dbaf720f150ca1a", "type": "electric_scooter", "is_reserved": 0, "lon": -77.02444183333333}, {"fusion_lat": 0.0, "name": "2129b1853889e143d9ae350381063add", "is_disabled": 0, "rental_uris": {"android": "https://dc.lft.to/lastmile_qr_scan", "ios": "https://dc.lft.to/lastmile_qr_scan"}, "fusion_lon": 0.0, "lat": 38.8957685, "bike_id": "2129b1853889e143d9ae350381063add", "type": "electric_scooter", "is_reserved": 0, "lon": -77.027158}, {"fusion_lat": 0.0, "name": "9121c3a02aa35157a9638bd1663ee2af", "is_disabled": 0, "rental_uris": {"android": "https://dc.lft.to/lastmile_qr_scan", "ios": "https://dc.lft.to/lastmile_qr_scan"}, "fusion_lon": 0.0, "lat": 38.886021666666664, "bike_id": "9121c3a02aa35157a9638bd1663ee2af", "type": "electric_scooter", "is_reserved": 0, "lon": -77.003427}, {"fusion_lat": 0.0, "name": "7cf38e204a73efb6b028ec3959f705fd", "is_disabled": 0, "rental_uris": {"android": "https://dc.lft.to/lastmile_qr_scan", "ios": "https://dc.lft.to/lastmile_qr_scan"}, "fusion_lon": 0.0, "lat": 38.907955666666666, "bike_id": "7cf38e204a73efb6b028ec3959f705fd", "type": "electric_scooter", "is_reserved": 0, "lon": -77.01116083333334}, {"fusion_lat": 0.0, "name": "3b8dfa3847303ab46b78584e69e3f5b8", "is_disabled": 0, "rental_uris": {"android": "https://dc.lft.to/lastmile_qr_scan", "ios": "https://dc.lft.to/lastmile_qr_scan"}, "fusion_lon": 0.0, "lat": 38.916572, "bike_id": "3b8dfa3847303ab46b78584e69e3f5b8", "type": "electric_scooter", "is_reserved": 0, "lon": -77.02816133333333}, {"fusion_lat": 0.0, "name": "2cc18c4e0f672c23a27fdce073e2c25a", "is_disabled": 0, "rental_uris": {"android": "https://dc.lft.to/lastmile_qr_scan", "ios": "https://dc.lft.to/lastmile_qr_scan"}, "fusion_lon": 0.0, "lat": 38.919187, "bike_id": "2cc18c4e0f672c23a27fdce073e2c25a", "type": "electric_scooter", "is_reserved": 0, "lon": -77.00973616666667}, {"fusion_lat": 0.0, "name": "8d5082e59d931c21be80f0a2a8d65811", "is_disabled": 0, "rental_uris": {"android": "https://dc.lft.to/lastmile_qr_scan", "ios": "https://dc.lft.to/lastmile_qr_scan"}, "fusion_lon": 0.0, "lat": 38.896087, "bike_id": "8d5082e59d931c21be80f0a2a8d65811", "type": "electric_scooter", "is_reserved": 0, "lon": -77.00927516666667}, {"fusion_lat": 0.0, "name": "4b2b8913aeff9cae5bf9edff0f5f7e72", "is_disabled": 0, "rental_uris": {"android": "https://dc.lft.to/lastmile_qr_scan", "ios": "https://dc.lft.to/lastmile_qr_scan"}, "fusion_lon": 0.0, "lat": 38.92872766666667, "bike_id": "4b2b8913aeff9cae5bf9edff0f5f7e72", "type": "electric_scooter", "is_reserved": 0, "lon": -77.01359783333334}, {"fusion_lat": 0.0, "name": "056fc0ba08cf612dd610c5c10f7202b7", "is_disabled": 0, "rental_uris": {"android": "https://dc.lft.to/lastmile_qr_scan", "ios": "https://dc.lft.to/lastmile_qr_scan"}, "fusion_lon": 0.0, "lat": 38.900673, "bike_id": "056fc0ba08cf612dd610c5c10f7202b7", "type": "electric_scooter", "is_reserved": 0, "lon": -77.05424216666667}, {"fusion_lat": 0.0, "name": "a3f67c97cc2e6c09860b9d4308634053", "is_disabled": 0, "rental_uris": {"android": "https://dc.lft.to/lastmile_qr_scan", "ios": "https://dc.lft.to/lastmile_qr_scan"}, "fusion_lon": 0.0, "lat": 38.8862005, "bike_id": "a3f67c97cc2e6c09860b9d4308634053", "type": "electric_scooter", "is_reserved": 0, "lon": -77.01947583333333}, {"fusion_lat": 0.0, "name": "86a6c2e37af0147c0a68369a0d834623", "is_disabled": 0, "rental_uris": {"android": "https://dc.lft.to/lastmile_qr_scan", "ios": "https://dc.lft.to/lastmile_qr_scan"}, "fusion_lon": 0.0, "lat": 38.886118333333336, "bike_id": "86a6c2e37af0147c0a68369a0d834623", "type": "electric_scooter", "is_reserved": 0, "lon": -77.01247216666667}, {"fusion_lat": 0.0, "name": "f305c1d12a0cf0b7fe927d8c679a674d", "is_disabled": 0, "rental_uris": {"android": "https://dc.lft.to/lastmile_qr_scan", "ios": "https://dc.lft.to/lastmile_qr_scan"}, "fusion_lon": 0.0, "lat": 38.905137, "bike_id": "f305c1d12a0cf0b7fe927d8c679a674d", "type": "electric_scooter", "is_reserved": 0, "lon": -77.06885883333334}, {"fusion_lat": 0.0, "name": "a5745ebe11f0f768e9cb5b72dd2adb75", "is_disabled": 0, "rental_uris": {"android": "https://dc.lft.to/lastmile_qr_scan", "ios": "https://dc.lft.to/lastmile_qr_scan"}, "fusion_lon": 0.0, "lat": 38.900015333333336, "bike_id": "a5745ebe11f0f768e9cb5b72dd2adb75", "type": "electric_scooter", "is_reserved": 0, "lon": -76.99627366666667}, {"fusion_lat": 0.0, "name": "0dae216c2a3cd9f3f9c59ee8a85dbcae", "is_disabled": 0, "rental_uris": {"android": "https://dc.lft.to/lastmile_qr_scan", "ios": "https://dc.lft.to/lastmile_qr_scan"}, "fusion_lon": 0.0, "lat": 38.90872533333334, "bike_id": "0dae216c2a3cd9f3f9c59ee8a85dbcae", "type": "electric_scooter", "is_reserved": 0, "lon": -77.06398716666666}, {"fusion_lat": 0.0, "name": "4ac6005641d49965f78fce22fc0decaf", "is_disabled": 0, "rental_uris": {"android": "https://dc.lft.to/lastmile_qr_scan", "ios": "https://dc.lft.to/lastmile_qr_scan"}, "fusion_lon": 0.0, "lat": 38.9321825, "bike_id": "4ac6005641d49965f78fce22fc0decaf", "type": "electric_scooter", "is_reserved": 0, "lon": -77.03515783333333}, {"fusion_lat": 0.0, "name": "d8b1a455f151942305342d6ee4509002", "is_disabled": 0, "rental_uris": {"android": "https://dc.lft.to/lastmile_qr_scan", "ios": "https://dc.lft.to/lastmile_qr_scan"}, "fusion_lon": 0.0, "lat": 38.9185735, "bike_id": "d8b1a455f151942305342d6ee4509002", "type": "electric_scooter", "is_reserved": 0, "lon": -76.96110666666667}, {"fusion_lat": 0.0, "name": "65b85f612474389f8576be457d5fa652", "is_disabled": 0, "rental_uris": {"android": "https://dc.lft.to/lastmile_qr_scan", "ios": "https://dc.lft.to/lastmile_qr_scan"}, "fusion_lon": 0.0, "lat": 38.91712916666667, "bike_id": "65b85f612474389f8576be457d5fa652", "type": "electric_scooter", "is_reserved": 0, "lon": -77.02899633333334}, {"fusion_lat": 0.0, "name": "c63f27e52f9b68362afcd1a4854e644c", "is_disabled": 0, "rental_uris": {"android": "https://dc.lft.to/lastmile_qr_scan", "ios": "https://dc.lft.to/lastmile_qr_scan"}, "fusion_lon": 0.0, "lat": 38.915424333333334, "bike_id": "c63f27e52f9b68362afcd1a4854e644c", "type": "electric_scooter", "is_reserved": 0, "lon": -76.983697}, {"fusion_lat": 0.0, "name": "3b9bde2d2be4d0c4fdf57e376b86117a", "is_disabled": 0, "rental_uris": {"android": "https://dc.lft.to/lastmile_qr_scan", "ios": "https://dc.lft.to/lastmile_qr_scan"}, "fusion_lon": 0.0, "lat": 38.92319583333333, "bike_id": "3b9bde2d2be4d0c4fdf57e376b86117a", "type": "electric_scooter", "is_reserved": 0, "lon": -77.028982}, {"fusion_lat": 0.0, "name": "07cdb88b99cfea247e697240c4c585d1", "is_disabled": 0, "rental_uris": {"android": "https://dc.lft.to/lastmile_qr_scan", "ios": "https://dc.lft.to/lastmile_qr_scan"}, "fusion_lon": 0.0, "lat": 38.91253616666667, "bike_id": "07cdb88b99cfea247e697240c4c585d1", "type": "electric_scooter", "is_reserved": 0, "lon": -77.01995583333333}, {"fusion_lat": 0.0, "name": "1ea9b19628b30cb3ffea47eec07343fe", "is_disabled": 0, "rental_uris": {"android": "https://dc.lft.to/lastmile_qr_scan", "ios": "https://dc.lft.to/lastmile_qr_scan"}, "fusion_lon": 0.0, "lat": 38.896670666666665, "bike_id": "1ea9b19628b30cb3ffea47eec07343fe", "type": "electric_bike", "is_reserved": 0, "lon": -76.98698166666667}, {"fusion_lat": 0.0, "name": "8a94677ecbecde978705772cf0dc7691", "is_disabled": 0, "rental_uris": {"android": "https://dc.lft.to/lastmile_qr_scan", "ios": "https://dc.lft.to/lastmile_qr_scan"}, "fusion_lon": 0.0, "lat": 38.90600416666667, "bike_id": "8a94677ecbecde978705772cf0dc7691", "type": "electric_scooter", "is_reserved": 0, "lon": -77.06348066666666}, {"fusion_lat": 0.0, "name": "5ef3de5ce5a7c26f857632466aa29a11", "is_disabled": 0, "rental_uris": {"android": "https://dc.lft.to/lastmile_qr_scan", "ios": "https://dc.lft.to/lastmile_qr_scan"}, "fusion_lon": 0.0, "lat": 38.881920666666666, "bike_id": "5ef3de5ce5a7c26f857632466aa29a11", "type": "electric_scooter", "is_reserved": 0, "lon": -77.0286305}, {"fusion_lat": 0.0, "name": "63ee348d8630b6e72bf861becce784cd", "is_disabled": 0, "rental_uris": {"android": "https://dc.lft.to/lastmile_qr_scan", "ios": "https://dc.lft.to/lastmile_qr_scan"}, "fusion_lon": 0.0, "lat": 38.89091533333333, "bike_id": "63ee348d8630b6e72bf861becce784cd", "type": "electric_scooter", "is_reserved": 0, "lon": -76.91927083333333}, {"fusion_lat": 0.0, "name": "ba091475209f730839d013cbf1133079", "is_disabled": 0, "rental_uris": {"android": "https://dc.lft.to/lastmile_qr_scan", "ios": "https://dc.lft.to/lastmile_qr_scan"}, "fusion_lon": 0.0, "lat": 38.93813, "bike_id": "ba091475209f730839d013cbf1133079", "type": "electric_scooter", "is_reserved": 0, "lon": -76.99692533333334}, {"fusion_lat": 0.0, "name": "e48d50c2408f764cb117d03172817923", "is_disabled": 0, "rental_uris": {"android": "https://dc.lft.to/lastmile_qr_scan", "ios": "https://dc.lft.to/lastmile_qr_scan"}, "fusion_lon": 0.0, "lat": 38.94435033333333, "bike_id": "e48d50c2408f764cb117d03172817923", "type": "electric_bike", "is_reserved": 0, "lon": -77.02602316666666}, {"fusion_lat": 0.0, "name": "87e671ac8f9f7b9fa2e5f151ef280f1d", "is_disabled": 0, "rental_uris": {"android": "https://dc.lft.to/lastmile_qr_scan", "ios": "https://dc.lft.to/lastmile_qr_scan"}, "fusion_lon": 0.0, "lat": 38.908850666666666, "bike_id": "87e671ac8f9f7b9fa2e5f151ef280f1d", "type": "electric_scooter", "is_reserved": 0, "lon": -77.04321833333333}, {"fusion_lat": 0.0, "name": "a147ddd14f29fac6f9bdabeb4f87d446", "is_disabled": 0, "rental_uris": {"android": "https://dc.lft.to/lastmile_qr_scan", "ios": "https://dc.lft.to/lastmile_qr_scan"}, "fusion_lon": 0.0, "lat": 38.93224816666667, "bike_id": "a147ddd14f29fac6f9bdabeb4f87d446", "type": "electric_scooter", "is_reserved": 0, "lon": -77.03431333333333}, {"fusion_lat": 0.0, "name": "6c7d8d48c0a30baab4ddc8b62131fd19", "is_disabled": 0, "rental_uris": {"android": "https://dc.lft.to/lastmile_qr_scan", "ios": "https://dc.lft.to/lastmile_qr_scan"}, "fusion_lon": 0.0, "lat": 38.914063, "bike_id": "6c7d8d48c0a30baab4ddc8b62131fd19", "type": "electric_scooter", "is_reserved": 0, "lon": -77.03227516666666}, {"fusion_lat": 0.0, "name": "42fe955bba26b93c633d705672cfae11", "is_disabled": 0, "rental_uris": {"android": "https://dc.lft.to/lastmile_qr_scan", "ios": "https://dc.lft.to/lastmile_qr_scan"}, "fusion_lon": 0.0, "lat": 38.9261495, "bike_id": "42fe955bba26b93c633d705672cfae11", "type": "electric_scooter", "is_reserved": 0, "lon": -77.02162766666666}, {"fusion_lat": 0.0, "name": "c0a93e0a7c6291ccf80d4c4e9e2bcdea", "is_disabled": 0, "rental_uris": {"android": "https://dc.lft.to/lastmile_qr_scan", "ios": "https://dc.lft.to/lastmile_qr_scan"}, "fusion_lon": 0.0, "lat": 38.88578166666667, "bike_id": "c0a93e0a7c6291ccf80d4c4e9e2bcdea", "type": "electric_scooter", "is_reserved": 0, "lon": -77.01213683333333}, {"fusion_lat": 0.0, "name": "d0c0112d0e8d84b10b874321df0d0e43", "is_disabled": 0, "rental_uris": {"android": "https://dc.lft.to/lastmile_qr_scan", "ios": "https://dc.lft.to/lastmile_qr_scan"}, "fusion_lon": 0.0, "lat": 38.9225405, "bike_id": "d0c0112d0e8d84b10b874321df0d0e43", "type": "electric_scooter", "is_reserved": 0, "lon": -77.0389285}, {"fusion_lat": 0.0, "name": "44a58fba41ab87b6876ae4315e733217", "is_disabled": 0, "rental_uris": {"android": "https://dc.lft.to/lastmile_qr_scan", "ios": "https://dc.lft.to/lastmile_qr_scan"}, "fusion_lon": 0.0, "lat": 38.798542166666664, "bike_id": "44a58fba41ab87b6876ae4315e733217", "type": "electric_bike", "is_reserved": 0, "lon": -77.063102}, {"fusion_lat": 0.0, "name": "36d26f2e6651ada477fff1475966b7a1", "is_disabled": 0, "rental_uris": {"android": "https://dc.lft.to/lastmile_qr_scan", "ios": "https://dc.lft.to/lastmile_qr_scan"}, "fusion_lon": 0.0, "lat": 38.8986035, "bike_id": "36d26f2e6651ada477fff1475966b7a1", "type": "electric_scooter", "is_reserved": 0, "lon": -76.97671}, {"fusion_lat": 0.0, "name": "fec8a970ef7e386d0b74375d4bee491e", "is_disabled": 0, "rental_uris": {"android": "https://dc.lft.to/lastmile_qr_scan", "ios": "https://dc.lft.to/lastmile_qr_scan"}, "fusion_lon": 0.0, "lat": 38.90293233333333, "bike_id": "fec8a970ef7e386d0b74375d4bee491e", "type": "electric_scooter", "is_reserved": 0, "lon": -77.02708016666666}, {"fusion_lat": 0.0, "name": "931bf72fc9848beac7dfd649bddd874c", "is_disabled": 0, "rental_uris": {"android": "https://dc.lft.to/lastmile_qr_scan", "ios": "https://dc.lft.to/lastmile_qr_scan"}, "fusion_lon": 0.0, "lat": 38.885402, "bike_id": "931bf72fc9848beac7dfd649bddd874c", "type": "electric_scooter", "is_reserved": 0, "lon": -77.00047033333334}, {"fusion_lat": 0.0, "name": "28986c675b08e639b2470aa9b501e0e7", "is_disabled": 0, "rental_uris": {"android": "https://dc.lft.to/lastmile_qr_scan", "ios": "https://dc.lft.to/lastmile_qr_scan"}, "fusion_lon": 0.0, "lat": 38.9370045, "bike_id": "28986c675b08e639b2470aa9b501e0e7", "type": "electric_scooter", "is_reserved": 0, "lon": -77.05593633333334}, {"fusion_lat": 0.0, "name": "8cbd7ce9c59b7cb9481e906437d32980", "is_disabled": 0, "rental_uris": {"android": "https://dc.lft.to/lastmile_qr_scan", "ios": "https://dc.lft.to/lastmile_qr_scan"}, "fusion_lon": 0.0, "lat": 38.920791666666666, "bike_id": "8cbd7ce9c59b7cb9481e906437d32980", "type": "electric_scooter", "is_reserved": 0, "lon": -77.02307566666667}, {"fusion_lat": 0.0, "name": "f6e17cd503bdfc8589b5e10d945907e9", "is_disabled": 0, "rental_uris": {"android": "https://dc.lft.to/lastmile_qr_scan", "ios": "https://dc.lft.to/lastmile_qr_scan"}, "fusion_lon": 0.0, "lat": 38.91760983333333, "bike_id": "f6e17cd503bdfc8589b5e10d945907e9", "type": "electric_scooter", "is_reserved": 0, "lon": -77.03069833333333}, {"fusion_lat": 0.0, "name": "113eed52ef86df91676476be7d021b2b", "is_disabled": 0, "rental_uris": {"android": "https://dc.lft.to/lastmile_qr_scan", "ios": "https://dc.lft.to/lastmile_qr_scan"}, "fusion_lon": 0.0, "lat": 38.93066433333333, "bike_id": "113eed52ef86df91676476be7d021b2b", "type": "electric_scooter", "is_reserved": 0, "lon": -77.02175916666667}, {"fusion_lat": 0.0, "name": "7bd95ce94a2a9af310ab9c2d706f6c94", "is_disabled": 0, "rental_uris": {"android": "https://dc.lft.to/lastmile_qr_scan", "ios": "https://dc.lft.to/lastmile_qr_scan"}, "fusion_lon": 0.0, "lat": 38.907449166666666, "bike_id": "7bd95ce94a2a9af310ab9c2d706f6c94", "type": "electric_scooter", "is_reserved": 0, "lon": -77.00376683333333}, {"fusion_lat": 0.0, "name": "edd628e4b3ab9c323326e9006103c437", "is_disabled": 0, "rental_uris": {"android": "https://dc.lft.to/lastmile_qr_scan", "ios": "https://dc.lft.to/lastmile_qr_scan"}, "fusion_lon": 0.0, "lat": 38.9315375, "bike_id": "edd628e4b3ab9c323326e9006103c437", "type": "electric_scooter", "is_reserved": 0, "lon": -77.02362616666667}, {"fusion_lat": 0.0, "name": "65d4367e5d68484f2b3b25833828b6a7", "is_disabled": 0, "rental_uris": {"android": "https://dc.lft.to/lastmile_qr_scan", "ios": "https://dc.lft.to/lastmile_qr_scan"}, "fusion_lon": 0.0, "lat": 38.897373, "bike_id": "65d4367e5d68484f2b3b25833828b6a7", "type": "electric_scooter", "is_reserved": 0, "lon": -77.00772366666666}, {"fusion_lat": 0.0, "name": "0ee705b6089d73e9f78ca1937e9111fe", "is_disabled": 0, "rental_uris": {"android": "https://dc.lft.to/lastmile_qr_scan", "ios": "https://dc.lft.to/lastmile_qr_scan"}, "fusion_lon": 0.0, "lat": 38.9039825, "bike_id": "0ee705b6089d73e9f78ca1937e9111fe", "type": "electric_scooter", "is_reserved": 0, "lon": -77.06778766666666}, {"fusion_lat": 0.0, "name": "67791af7a825ba064e8c0766fe8b2bd0", "is_disabled": 0, "rental_uris": {"android": "https://dc.lft.to/lastmile_qr_scan", "ios": "https://dc.lft.to/lastmile_qr_scan"}, "fusion_lon": 0.0, "lat": 38.89719566666667, "bike_id": "67791af7a825ba064e8c0766fe8b2bd0", "type": "electric_scooter", "is_reserved": 0, "lon": -77.02342866666666}, {"fusion_lat": 0.0, "name": "a9ff520f4b9875076a4030e40592933c", "is_disabled": 0, "rental_uris": {"android": "https://dc.lft.to/lastmile_qr_scan", "ios": "https://dc.lft.to/lastmile_qr_scan"}, "fusion_lon": 0.0, "lat": 38.8961535, "bike_id": "a9ff520f4b9875076a4030e40592933c", "type": "electric_scooter", "is_reserved": 0, "lon": -77.009217}, {"fusion_lat": 0.0, "name": "b5d8367965ced340dc9940040afb7a5f", "is_disabled": 0, "rental_uris": {"android": "https://dc.lft.to/lastmile_qr_scan", "ios": "https://dc.lft.to/lastmile_qr_scan"}, "fusion_lon": 0.0, "lat": 38.91112616666667, "bike_id": "b5d8367965ced340dc9940040afb7a5f", "type": "electric_scooter", "is_reserved": 0, "lon": -77.08135216666666}, {"fusion_lat": 0.0, "name": "cbd8904d893d556b597dd658cc9e853e", "is_disabled": 0, "rental_uris": {"android": "https://dc.lft.to/lastmile_qr_scan", "ios": "https://dc.lft.to/lastmile_qr_scan"}, "fusion_lon": 0.0, "lat": 38.92133283333333, "bike_id": "cbd8904d893d556b597dd658cc9e853e", "type": "electric_scooter", "is_reserved": 0, "lon": -77.0179325}, {"fusion_lat": 0.0, "name": "ea31cae0900424f30c4294a18656f9a2", "is_disabled": 0, "rental_uris": {"android": "https://dc.lft.to/lastmile_qr_scan", "ios": "https://dc.lft.to/lastmile_qr_scan"}, "fusion_lon": 0.0, "lat": 38.907613833333336, "bike_id": "ea31cae0900424f30c4294a18656f9a2", "type": "electric_scooter", "is_reserved": 0, "lon": -77.05694616666666}, {"fusion_lat": 0.0, "name": "16436b27ba7d0a4bf0d694e15c7ea369", "is_disabled": 0, "rental_uris": {"android": "https://dc.lft.to/lastmile_qr_scan", "ios": "https://dc.lft.to/lastmile_qr_scan"}, "fusion_lon": 0.0, "lat": 38.9095315, "bike_id": "16436b27ba7d0a4bf0d694e15c7ea369", "type": "electric_bike", "is_reserved": 0, "lon": -76.98447383333334}, {"fusion_lat": 0.0, "name": "9453030e95c3d2f668c67caa9090d6b4", "is_disabled": 0, "rental_uris": {"android": "https://dc.lft.to/lastmile_qr_scan", "ios": "https://dc.lft.to/lastmile_qr_scan"}, "fusion_lon": 0.0, "lat": 38.902351333333336, "bike_id": "9453030e95c3d2f668c67caa9090d6b4", "type": "electric_scooter", "is_reserved": 0, "lon": -77.05913416666667}, {"fusion_lat": 0.0, "name": "f2ab12c19365c7bb9775425c8e6e37ea", "is_disabled": 0, "rental_uris": {"android": "https://dc.lft.to/lastmile_qr_scan", "ios": "https://dc.lft.to/lastmile_qr_scan"}, "fusion_lon": 0.0, "lat": 38.92543833333333, "bike_id": "f2ab12c19365c7bb9775425c8e6e37ea", "type": "electric_scooter", "is_reserved": 0, "lon": -77.02591233333334}, {"fusion_lat": 0.0, "name": "bb084480af3ce0d78bb9ab892fcaaf22", "is_disabled": 0, "rental_uris": {"android": "https://dc.lft.to/lastmile_qr_scan", "ios": "https://dc.lft.to/lastmile_qr_scan"}, "fusion_lon": 0.0, "lat": 38.838558166666665, "bike_id": "bb084480af3ce0d78bb9ab892fcaaf22", "type": "electric_scooter", "is_reserved": 0, "lon": -76.9970545}, {"fusion_lat": 0.0, "name": "0dd76e26e41ac88797a7b7b19c9588aa", "is_disabled": 0, "rental_uris": {"android": "https://dc.lft.to/lastmile_qr_scan", "ios": "https://dc.lft.to/lastmile_qr_scan"}, "fusion_lon": 0.0, "lat": 38.9300195, "bike_id": "0dd76e26e41ac88797a7b7b19c9588aa", "type": "electric_scooter", "is_reserved": 0, "lon": -77.0379955}, {"fusion_lat": 0.0, "name": "c97ecdcda758004a9b5336c8f3d13fb3", "is_disabled": 0, "rental_uris": {"android": "https://dc.lft.to/lastmile_qr_scan", "ios": "https://dc.lft.to/lastmile_qr_scan"}, "fusion_lon": 0.0, "lat": 38.92075233333333, "bike_id": "c97ecdcda758004a9b5336c8f3d13fb3", "type": "electric_scooter", "is_reserved": 0, "lon": -77.02308566666666}, {"fusion_lat": 0.0, "name": "48ff2f5e7894970310543901a26898e2", "is_disabled": 0, "rental_uris": {"android": "https://dc.lft.to/lastmile_qr_scan", "ios": "https://dc.lft.to/lastmile_qr_scan"}, "fusion_lon": 0.0, "lat": 38.89880566666667, "bike_id": "48ff2f5e7894970310543901a26898e2", "type": "electric_scooter", "is_reserved": 0, "lon": -77.02819966666667}, {"fusion_lat": 0.0, "name": "5a42e348c5fa503d000930460e32c01a", "is_disabled": 0, "rental_uris": {"android": "https://dc.lft.to/lastmile_qr_scan", "ios": "https://dc.lft.to/lastmile_qr_scan"}, "fusion_lon": 0.0, "lat": 38.9287715, "bike_id": "5a42e348c5fa503d000930460e32c01a", "type": "electric_scooter", "is_reserved": 0, "lon": -77.03234916666666}, {"fusion_lat": 0.0, "name": "d0267ecee2fd2adc1f7b96a71b9b3c56", "is_disabled": 0, "rental_uris": {"android": "https://dc.lft.to/lastmile_qr_scan", "ios": "https://dc.lft.to/lastmile_qr_scan"}, "fusion_lon": 0.0, "lat": 38.933309333333334, "bike_id": "d0267ecee2fd2adc1f7b96a71b9b3c56", "type": "electric_scooter", "is_reserved": 0, "lon": -77.03262283333333}, {"fusion_lat": 0.0, "name": "747354eddc288d3162a69bdb76bc070f", "is_disabled": 0, "rental_uris": {"android": "https://dc.lft.to/lastmile_qr_scan", "ios": "https://dc.lft.to/lastmile_qr_scan"}, "fusion_lon": 0.0, "lat": 38.920678833333334, "bike_id": "747354eddc288d3162a69bdb76bc070f", "type": "electric_scooter", "is_reserved": 0, "lon": -77.0437895}, {"fusion_lat": 0.0, "name": "e6cf94c2c887144ca237f4353e70a10f", "is_disabled": 0, "rental_uris": {"android": "https://dc.lft.to/lastmile_qr_scan", "ios": "https://dc.lft.to/lastmile_qr_scan"}, "fusion_lon": 0.0, "lat": 38.91563683333333, "bike_id": "e6cf94c2c887144ca237f4353e70a10f", "type": "electric_scooter", "is_reserved": 0, "lon": -77.0315655}, {"fusion_lat": 0.0, "name": "03d5936bbe729877e19c71318eaacbca", "is_disabled": 0, "rental_uris": {"android": "https://dc.lft.to/lastmile_qr_scan", "ios": "https://dc.lft.to/lastmile_qr_scan"}, "fusion_lon": 0.0, "lat": 38.920838833333335, "bike_id": "03d5936bbe729877e19c71318eaacbca", "type": "electric_scooter", "is_reserved": 0, "lon": -77.0240115}, {"fusion_lat": 0.0, "name": "2aabf71104f3a3277d2d514ed3f74ee8", "is_disabled": 0, "rental_uris": {"android": "https://dc.lft.to/lastmile_qr_scan", "ios": "https://dc.lft.to/lastmile_qr_scan"}, "fusion_lon": 0.0, "lat": 38.883894833333336, "bike_id": "2aabf71104f3a3277d2d514ed3f74ee8", "type": "electric_scooter", "is_reserved": 0, "lon": -77.03041316666666}, {"fusion_lat": 0.0, "name": "3dd1267514e0a675a97a74a8618098cd", "is_disabled": 0, "rental_uris": {"android": "https://dc.lft.to/lastmile_qr_scan", "ios": "https://dc.lft.to/lastmile_qr_scan"}, "fusion_lon": 0.0, "lat": 38.931959666666664, "bike_id": "3dd1267514e0a675a97a74a8618098cd", "type": "electric_scooter", "is_reserved": 0, "lon": -77.025129}, {"fusion_lat": 0.0, "name": "ef50f33bec0987ff5cfaf40eea11ac71", "is_disabled": 0, "rental_uris": {"android": "https://dc.lft.to/lastmile_qr_scan", "ios": "https://dc.lft.to/lastmile_qr_scan"}, "fusion_lon": 0.0, "lat": 39.041820333333334, "bike_id": "ef50f33bec0987ff5cfaf40eea11ac71", "type": "electric_bike", "is_reserved": 0, "lon": -77.05236816666667}, {"fusion_lat": 0.0, "name": "b1729f73a0ab6f5dfd706bada67fb3b5", "is_disabled": 0, "rental_uris": {"android": "https://dc.lft.to/lastmile_qr_scan", "ios": "https://dc.lft.to/lastmile_qr_scan"}, "fusion_lon": 0.0, "lat": 38.8782375, "bike_id": "b1729f73a0ab6f5dfd706bada67fb3b5", "type": "electric_scooter", "is_reserved": 0, "lon": -76.99007866666666}, {"fusion_lat": 0.0, "name": "63ac104fe83c49ab7aadcd47e5756d8d", "is_disabled": 0, "rental_uris": {"android": "https://dc.lft.to/lastmile_qr_scan", "ios": "https://dc.lft.to/lastmile_qr_scan"}, "fusion_lon": 0.0, "lat": 38.92324383333333, "bike_id": "63ac104fe83c49ab7aadcd47e5756d8d", "type": "electric_scooter", "is_reserved": 0, "lon": -77.02971566666666}, {"fusion_lat": 0.0, "name": "a7b023b7cc6131b6c5481b86a263e086", "is_disabled": 0, "rental_uris": {"android": "https://dc.lft.to/lastmile_qr_scan", "ios": "https://dc.lft.to/lastmile_qr_scan"}, "fusion_lon": 0.0, "lat": 38.908644833333334, "bike_id": "a7b023b7cc6131b6c5481b86a263e086", "type": "electric_scooter", "is_reserved": 0, "lon": -77.00931933333334}, {"fusion_lat": 0.0, "name": "a7ab50b563ba62e6e42a2ed1c8b7f6f3", "is_disabled": 0, "rental_uris": {"android": "https://dc.lft.to/lastmile_qr_scan", "ios": "https://dc.lft.to/lastmile_qr_scan"}, "fusion_lon": 0.0, "lat": 38.8762505, "bike_id": "a7ab50b563ba62e6e42a2ed1c8b7f6f3", "type": "electric_scooter", "is_reserved": 0, "lon": -77.001125}, {"fusion_lat": 0.0, "name": "bc298f961518407cd3582ca89183f32d", "is_disabled": 0, "rental_uris": {"android": "https://dc.lft.to/lastmile_qr_scan", "ios": "https://dc.lft.to/lastmile_qr_scan"}, "fusion_lon": 0.0, "lat": 38.919555333333335, "bike_id": "bc298f961518407cd3582ca89183f32d", "type": "electric_bike", "is_reserved": 0, "lon": -77.1011115}, {"fusion_lat": 0.0, "name": "299ce45bb2eef4562ffb4ce984b42904", "is_disabled": 0, "rental_uris": {"android": "https://dc.lft.to/lastmile_qr_scan", "ios": "https://dc.lft.to/lastmile_qr_scan"}, "fusion_lon": 0.0, "lat": 38.906509166666666, "bike_id": "299ce45bb2eef4562ffb4ce984b42904", "type": "electric_scooter", "is_reserved": 0, "lon": -77.01414216666667}, {"fusion_lat": 0.0, "name": "512e23ae679ccf3dad90c041ea25a719", "is_disabled": 0, "rental_uris": {"android": "https://dc.lft.to/lastmile_qr_scan", "ios": "https://dc.lft.to/lastmile_qr_scan"}, "fusion_lon": 0.0, "lat": 38.922228, "bike_id": "512e23ae679ccf3dad90c041ea25a719", "type": "electric_scooter", "is_reserved": 0, "lon": -76.98376766666667}, {"fusion_lat": 0.0, "name": "4b99e398a45c4813919a4de65aaa0451", "is_disabled": 0, "rental_uris": {"android": "https://dc.lft.to/lastmile_qr_scan", "ios": "https://dc.lft.to/lastmile_qr_scan"}, "fusion_lon": 0.0, "lat": 38.92699233333333, "bike_id": "4b99e398a45c4813919a4de65aaa0451", "type": "electric_scooter", "is_reserved": 0, "lon": -77.0242695}, {"fusion_lat": 0.0, "name": "b94e9b0cbf15883522b12806e5cda60e", "is_disabled": 0, "rental_uris": {"android": "https://dc.lft.to/lastmile_qr_scan", "ios": "https://dc.lft.to/lastmile_qr_scan"}, "fusion_lon": 0.0, "lat": 38.9563635, "bike_id": "b94e9b0cbf15883522b12806e5cda60e", "type": "electric_scooter", "is_reserved": 0, "lon": -77.03305783333333}, {"fusion_lat": 0.0, "name": "7def53bbaa81293e974c768a470867b7", "is_disabled": 0, "rental_uris": {"android": "https://dc.lft.to/lastmile_qr_scan", "ios": "https://dc.lft.to/lastmile_qr_scan"}, "fusion_lon": 0.0, "lat": 38.8877745, "bike_id": "7def53bbaa81293e974c768a470867b7", "type": "electric_scooter", "is_reserved": 0, "lon": -77.015024}, {"fusion_lat": 0.0, "name": "3ff2697d438c250df26db05955fe52c3", "is_disabled": 0, "rental_uris": {"android": "https://dc.lft.to/lastmile_qr_scan", "ios": "https://dc.lft.to/lastmile_qr_scan"}, "fusion_lon": 0.0, "lat": 38.95745733333333, "bike_id": "3ff2697d438c250df26db05955fe52c3", "type": "electric_bike", "is_reserved": 0, "lon": -76.97256183333333}, {"fusion_lat": 0.0, "name": "11f083249561714578b8030e44379c0c", "is_disabled": 0, "rental_uris": {"android": "https://dc.lft.to/lastmile_qr_scan", "ios": "https://dc.lft.to/lastmile_qr_scan"}, "fusion_lon": 0.0, "lat": 38.89981066666667, "bike_id": "11f083249561714578b8030e44379c0c", "type": "electric_scooter", "is_reserved": 0, "lon": -77.01492916666666}, {"fusion_lat": 0.0, "name": "95cc9043c95a2b14181f0fb16240821e", "is_disabled": 0, "rental_uris": {"android": "https://dc.lft.to/lastmile_qr_scan", "ios": "https://dc.lft.to/lastmile_qr_scan"}, "fusion_lon": 0.0, "lat": 38.901120166666665, "bike_id": "95cc9043c95a2b14181f0fb16240821e", "type": "electric_scooter", "is_reserved": 0, "lon": -77.03188166666666}, {"fusion_lat": 0.0, "name": "5589dbb4797739d0fc1600d16e2ea7f4", "is_disabled": 0, "rental_uris": {"android": "https://dc.lft.to/lastmile_qr_scan", "ios": "https://dc.lft.to/lastmile_qr_scan"}, "fusion_lon": 0.0, "lat": 38.919871, "bike_id": "5589dbb4797739d0fc1600d16e2ea7f4", "type": "electric_scooter", "is_reserved": 0, "lon": -77.0332185}, {"fusion_lat": 0.0, "name": "8196ae7406489b49f9f217e99aaea5bb", "is_disabled": 0, "rental_uris": {"android": "https://dc.lft.to/lastmile_qr_scan", "ios": "https://dc.lft.to/lastmile_qr_scan"}, "fusion_lon": 0.0, "lat": 38.900113833333336, "bike_id": "8196ae7406489b49f9f217e99aaea5bb", "type": "electric_scooter", "is_reserved": 0, "lon": -77.0447675}, {"fusion_lat": 0.0, "name": "25bd4c8537dd1acefb8984b256e8ad81", "is_disabled": 0, "rental_uris": {"android": "https://dc.lft.to/lastmile_qr_scan", "ios": "https://dc.lft.to/lastmile_qr_scan"}, "fusion_lon": 0.0, "lat": 38.92091216666667, "bike_id": "25bd4c8537dd1acefb8984b256e8ad81", "type": "electric_scooter", "is_reserved": 0, "lon": -77.07376283333333}, {"fusion_lat": 0.0, "name": "d6cbead70218d469b2abc7ee8010ad36", "is_disabled": 0, "rental_uris": {"android": "https://dc.lft.to/lastmile_qr_scan", "ios": "https://dc.lft.to/lastmile_qr_scan"}, "fusion_lon": 0.0, "lat": 38.925151, "bike_id": "d6cbead70218d469b2abc7ee8010ad36", "type": "electric_scooter", "is_reserved": 0, "lon": -77.02324883333333}, {"fusion_lat": 0.0, "name": "3f6a8357b94dbe00d24f72f566162ee2", "is_disabled": 0, "rental_uris": {"android": "https://dc.lft.to/lastmile_qr_scan", "ios": "https://dc.lft.to/lastmile_qr_scan"}, "fusion_lon": 0.0, "lat": 38.9587745, "bike_id": "3f6a8357b94dbe00d24f72f566162ee2", "type": "electric_bike", "is_reserved": 0, "lon": -76.97050333333334}, {"fusion_lat": 0.0, "name": "bd3eedce85cda317d457bf8f45e3ba40", "is_disabled": 0, "rental_uris": {"android": "https://dc.lft.to/lastmile_qr_scan", "ios": "https://dc.lft.to/lastmile_qr_scan"}, "fusion_lon": 0.0, "lat": 38.91332716666667, "bike_id": "bd3eedce85cda317d457bf8f45e3ba40", "type": "electric_scooter", "is_reserved": 0, "lon": -77.050369}, {"fusion_lat": 0.0, "name": "2d5da37b3c79b40199b67920e18fa7dd", "is_disabled": 0, "rental_uris": {"android": "https://dc.lft.to/lastmile_qr_scan", "ios": "https://dc.lft.to/lastmile_qr_scan"}, "fusion_lon": 0.0, "lat": 38.92765383333333, "bike_id": "2d5da37b3c79b40199b67920e18fa7dd", "type": "electric_scooter", "is_reserved": 0, "lon": -77.01617516666667}, {"fusion_lat": 0.0, "name": "3d5c5584e613109c87798c94710d10d2", "is_disabled": 0, "rental_uris": {"android": "https://dc.lft.to/lastmile_qr_scan", "ios": "https://dc.lft.to/lastmile_qr_scan"}, "fusion_lon": 0.0, "lat": 38.91574, "bike_id": "3d5c5584e613109c87798c94710d10d2", "type": "electric_scooter", "is_reserved": 0, "lon": -77.0675715}, {"fusion_lat": 0.0, "name": "25d3bbb9d5fce6cd96e792bbe98f1832", "is_disabled": 0, "rental_uris": {"android": "https://dc.lft.to/lastmile_qr_scan", "ios": "https://dc.lft.to/lastmile_qr_scan"}, "fusion_lon": 0.0, "lat": 38.944088, "bike_id": "25d3bbb9d5fce6cd96e792bbe98f1832", "type": "electric_scooter", "is_reserved": 0, "lon": -77.03206633333333}, {"fusion_lat": 0.0, "name": "c2d5de73fb023251f0e1c541be4c9d2e", "is_disabled": 0, "rental_uris": {"android": "https://dc.lft.to/lastmile_qr_scan", "ios": "https://dc.lft.to/lastmile_qr_scan"}, "fusion_lon": 0.0, "lat": 38.87897233333333, "bike_id": "c2d5de73fb023251f0e1c541be4c9d2e", "type": "electric_scooter", "is_reserved": 0, "lon": -77.01364133333334}, {"fusion_lat": 0.0, "name": "9b7356dea0512999e48495cf6e119c11", "is_disabled": 0, "rental_uris": {"android": "https://dc.lft.to/lastmile_qr_scan", "ios": "https://dc.lft.to/lastmile_qr_scan"}, "fusion_lon": 0.0, "lat": 38.92603366666667, "bike_id": "9b7356dea0512999e48495cf6e119c11", "type": "electric_scooter", "is_reserved": 0, "lon": -77.02154483333334}, {"fusion_lat": 0.0, "name": "367afe77db489d5239ad89504457701e", "is_disabled": 0, "rental_uris": {"android": "https://dc.lft.to/lastmile_qr_scan", "ios": "https://dc.lft.to/lastmile_qr_scan"}, "fusion_lon": 0.0, "lat": 38.89738, "bike_id": "367afe77db489d5239ad89504457701e", "type": "electric_scooter", "is_reserved": 0, "lon": -76.9471875}, {"fusion_lat": 0.0, "name": "c32a5b12b454355a4d4b9b1ceafb687e", "is_disabled": 0, "rental_uris": {"android": "https://dc.lft.to/lastmile_qr_scan", "ios": "https://dc.lft.to/lastmile_qr_scan"}, "fusion_lon": 0.0, "lat": 38.91264666666667, "bike_id": "c32a5b12b454355a4d4b9b1ceafb687e", "type": "electric_scooter", "is_reserved": 0, "lon": -77.03209466666667}, {"fusion_lat": 0.0, "name": "31cf3c23b3264cc4523342cea91350d5", "is_disabled": 0, "rental_uris": {"android": "https://dc.lft.to/lastmile_qr_scan", "ios": "https://dc.lft.to/lastmile_qr_scan"}, "fusion_lon": 0.0, "lat": 38.892861833333335, "bike_id": "31cf3c23b3264cc4523342cea91350d5", "type": "electric_scooter", "is_reserved": 0, "lon": -76.98308633333333}, {"fusion_lat": 0.0, "name": "c566b3359472cd52d505906b9a19db73", "is_disabled": 0, "rental_uris": {"android": "https://dc.lft.to/lastmile_qr_scan", "ios": "https://dc.lft.to/lastmile_qr_scan"}, "fusion_lon": 0.0, "lat": 38.94896516666667, "bike_id": "c566b3359472cd52d505906b9a19db73", "type": "electric_bike", "is_reserved": 0, "lon": -76.96376466666666}, {"fusion_lat": 0.0, "name": "18860ecf99645bc86f418736de95b49c", "is_disabled": 0, "rental_uris": {"android": "https://dc.lft.to/lastmile_qr_scan", "ios": "https://dc.lft.to/lastmile_qr_scan"}, "fusion_lon": 0.0, "lat": 38.92016233333333, "bike_id": "18860ecf99645bc86f418736de95b49c", "type": "electric_scooter", "is_reserved": 0, "lon": -77.03134683333333}, {"fusion_lat": 0.0, "name": "b9ee5b070f176ab6e59e4d8a75de882f", "is_disabled": 0, "rental_uris": {"android": "https://dc.lft.to/lastmile_qr_scan", "ios": "https://dc.lft.to/lastmile_qr_scan"}, "fusion_lon": 0.0, "lat": 38.904625833333334, "bike_id": "b9ee5b070f176ab6e59e4d8a75de882f", "type": "electric_scooter", "is_reserved": 0, "lon": -77.03199833333333}, {"fusion_lat": 0.0, "name": "59a661aef72313b851223a9e42a34d80", "is_disabled": 0, "rental_uris": {"android": "https://dc.lft.to/lastmile_qr_scan", "ios": "https://dc.lft.to/lastmile_qr_scan"}, "fusion_lon": 0.0, "lat": 38.9207165, "bike_id": "59a661aef72313b851223a9e42a34d80", "type": "electric_scooter", "is_reserved": 0, "lon": -77.00213266666667}, {"fusion_lat": 0.0, "name": "67be1366d491156a655ab93e6929f602", "is_disabled": 0, "rental_uris": {"android": "https://dc.lft.to/lastmile_qr_scan", "ios": "https://dc.lft.to/lastmile_qr_scan"}, "fusion_lon": 0.0, "lat": 38.90900366666666, "bike_id": "67be1366d491156a655ab93e6929f602", "type": "electric_scooter", "is_reserved": 0, "lon": -77.0327685}, {"fusion_lat": 0.0, "name": "03797cc6d2ef2f96239e6c3e40442b80", "is_disabled": 0, "rental_uris": {"android": "https://dc.lft.to/lastmile_qr_scan", "ios": "https://dc.lft.to/lastmile_qr_scan"}, "fusion_lon": 0.0, "lat": 38.935936833333336, "bike_id": "03797cc6d2ef2f96239e6c3e40442b80", "type": "electric_scooter", "is_reserved": 0, "lon": -77.022857}, {"fusion_lat": 0.0, "name": "625f77b7e5153c485ea9c6d51af9f9e1", "is_disabled": 0, "rental_uris": {"android": "https://dc.lft.to/lastmile_qr_scan", "ios": "https://dc.lft.to/lastmile_qr_scan"}, "fusion_lon": 0.0, "lat": 38.9064365, "bike_id": "625f77b7e5153c485ea9c6d51af9f9e1", "type": "electric_scooter", "is_reserved": 0, "lon": -77.0179585}, {"fusion_lat": 0.0, "name": "d61d9747f908e17082be796232d26759", "is_disabled": 0, "rental_uris": {"android": "https://dc.lft.to/lastmile_qr_scan", "ios": "https://dc.lft.to/lastmile_qr_scan"}, "fusion_lon": 0.0, "lat": 38.9038835, "bike_id": "d61d9747f908e17082be796232d26759", "type": "electric_scooter", "is_reserved": 0, "lon": -77.0182925}, {"fusion_lat": 0.0, "name": "684cf73dc94eb477e2cb3fc2aafceebb", "is_disabled": 0, "rental_uris": {"android": "https://dc.lft.to/lastmile_qr_scan", "ios": "https://dc.lft.to/lastmile_qr_scan"}, "fusion_lon": 0.0, "lat": 38.927945666666666, "bike_id": "684cf73dc94eb477e2cb3fc2aafceebb", "type": "electric_scooter", "is_reserved": 0, "lon": -77.03214416666667}, {"fusion_lat": 0.0, "name": "a0692da7afa1712c004e36eac0991854", "is_disabled": 0, "rental_uris": {"android": "https://dc.lft.to/lastmile_qr_scan", "ios": "https://dc.lft.to/lastmile_qr_scan"}, "fusion_lon": 0.0, "lat": 38.91304066666667, "bike_id": "a0692da7afa1712c004e36eac0991854", "type": "electric_scooter", "is_reserved": 0, "lon": -77.048712}, {"fusion_lat": 0.0, "name": "c6186b0ec72aea822e0a659f28079cd2", "is_disabled": 0, "rental_uris": {"android": "https://dc.lft.to/lastmile_qr_scan", "ios": "https://dc.lft.to/lastmile_qr_scan"}, "fusion_lon": 0.0, "lat": 38.917623666666664, "bike_id": "c6186b0ec72aea822e0a659f28079cd2", "type": "electric_scooter", "is_reserved": 0, "lon": -77.03642116666667}, {"fusion_lat": 0.0, "name": "23e40a05dc292e75da9a8f9d28c70132", "is_disabled": 0, "rental_uris": {"android": "https://dc.lft.to/lastmile_qr_scan", "ios": "https://dc.lft.to/lastmile_qr_scan"}, "fusion_lon": 0.0, "lat": 38.80492133333333, "bike_id": "23e40a05dc292e75da9a8f9d28c70132", "type": "electric_bike", "is_reserved": 0, "lon": -77.1016525}, {"fusion_lat": 0.0, "name": "0515f1e81731dce85d196dcdfbc6ea00", "is_disabled": 0, "rental_uris": {"android": "https://dc.lft.to/lastmile_qr_scan", "ios": "https://dc.lft.to/lastmile_qr_scan"}, "fusion_lon": 0.0, "lat": 38.919711, "bike_id": "0515f1e81731dce85d196dcdfbc6ea00", "type": "electric_scooter", "is_reserved": 0, "lon": -77.0708565}, {"fusion_lat": 0.0, "name": "7be6c7ee4e8048e95fe5ef757d1742f0", "is_disabled": 0, "rental_uris": {"android": "https://dc.lft.to/lastmile_qr_scan", "ios": "https://dc.lft.to/lastmile_qr_scan"}, "fusion_lon": 0.0, "lat": 38.86165883333334, "bike_id": "7be6c7ee4e8048e95fe5ef757d1742f0", "type": "electric_scooter", "is_reserved": 0, "lon": -76.983672}, {"fusion_lat": 0.0, "name": "d3d95ac6d4df3f3d5835f20db58c1767", "is_disabled": 0, "rental_uris": {"android": "https://dc.lft.to/lastmile_qr_scan", "ios": "https://dc.lft.to/lastmile_qr_scan"}, "fusion_lon": 0.0, "lat": 38.90972583333333, "bike_id": "d3d95ac6d4df3f3d5835f20db58c1767", "type": "electric_scooter", "is_reserved": 0, "lon": -77.01107716666667}, {"fusion_lat": 0.0, "name": "9d56a1a6ec538a55f51df7aabe869199", "is_disabled": 0, "rental_uris": {"android": "https://dc.lft.to/lastmile_qr_scan", "ios": "https://dc.lft.to/lastmile_qr_scan"}, "fusion_lon": 0.0, "lat": 38.887695666666666, "bike_id": "9d56a1a6ec538a55f51df7aabe869199", "type": "electric_scooter", "is_reserved": 0, "lon": -76.977549}, {"fusion_lat": 0.0, "name": "a4a9bff7baeead8158436515ba49664f", "is_disabled": 0, "rental_uris": {"android": "https://dc.lft.to/lastmile_qr_scan", "ios": "https://dc.lft.to/lastmile_qr_scan"}, "fusion_lon": 0.0, "lat": 38.90949616666666, "bike_id": "a4a9bff7baeead8158436515ba49664f", "type": "electric_scooter", "is_reserved": 0, "lon": -76.98545433333334}, {"fusion_lat": 0.0, "name": "f3e63855ad7bb5a96f18e35ea53edc22", "is_disabled": 0, "rental_uris": {"android": "https://dc.lft.to/lastmile_qr_scan", "ios": "https://dc.lft.to/lastmile_qr_scan"}, "fusion_lon": 0.0, "lat": 38.8814055, "bike_id": "f3e63855ad7bb5a96f18e35ea53edc22", "type": "electric_scooter", "is_reserved": 0, "lon": -77.02707033333333}, {"fusion_lat": 0.0, "name": "30d0d5afb4e01b1871fa1b604929f30f", "is_disabled": 0, "rental_uris": {"android": "https://dc.lft.to/lastmile_qr_scan", "ios": "https://dc.lft.to/lastmile_qr_scan"}, "fusion_lon": 0.0, "lat": 38.82465333333333, "bike_id": "30d0d5afb4e01b1871fa1b604929f30f", "type": "electric_bike", "is_reserved": 0, "lon": -77.00795816666667}, {"fusion_lat": 0.0, "name": "d30113977e3848bc9e245d572555588d", "is_disabled": 0, "rental_uris": {"android": "https://dc.lft.to/lastmile_qr_scan", "ios": "https://dc.lft.to/lastmile_qr_scan"}, "fusion_lon": 0.0, "lat": 38.913654666666666, "bike_id": "d30113977e3848bc9e245d572555588d", "type": "electric_scooter", "is_reserved": 0, "lon": -77.04556816666667}, {"fusion_lat": 0.0, "name": "e1525129f40ef74a178488c780cc3cfa", "is_disabled": 0, "rental_uris": {"android": "https://dc.lft.to/lastmile_qr_scan", "ios": "https://dc.lft.to/lastmile_qr_scan"}, "fusion_lon": 0.0, "lat": 38.92505633333333, "bike_id": "e1525129f40ef74a178488c780cc3cfa", "type": "electric_scooter", "is_reserved": 0, "lon": -77.05217966666666}, {"fusion_lat": 0.0, "name": "32409c7720e2b82596ba5da3e121c6c0", "is_disabled": 0, "rental_uris": {"android": "https://dc.lft.to/lastmile_qr_scan", "ios": "https://dc.lft.to/lastmile_qr_scan"},