{"data": {"bikes": [{"rental_uris": {"android": "https://dc.lft.to/lastmile_qr_scan", "ios": "https://dc.lft.to/lastmile_qr_scan"}, "is_reserved": 0, "is_disabled": 0, "name": "9f6a93d8a0a378ef2ddd5b5bd1592cc2", "bike_id": "9f6a93d8a0a378ef2ddd5b5bd1592cc2", "fusion_lat": 0.0, "lon": -76.94032183333333, "type": "electric_bike", "fusion_lon": 0.0, "lat": 38.908236}, {"rental_uris": {"android": "https://dc.lft.to/lastmile_qr_scan", "ios": "https://dc.lft.to/lastmile_qr_scan"}, "is_reserved": 0, "is_disabled": 0, "name": "9183add4ad82f7d88cd7477e19a04d8f", "bike_id": "9183add4ad82f7d88cd7477e19a04d8f", "fusion_lat": 0.0, "lon": -76.99025416666667, "type": "electric_bike", "fusion_lon": 0.0, "lat": 38.83590266666667}, {"rental_uris": {"android": "https://dc.lft.to/lastmile_qr_scan", "ios": "https://dc.lft.to/lastmile_qr_scan"}, "is_reserved": 0, "is_disabled": 0, "name": "77afadf9aea8d84950610ebb4c664c36", "bike_id": "77afadf9aea8d84950610ebb4c664c36", "fusion_lat": 0.0, "lon": -77.00609783333333, "type": "electric_scooter", "fusion_lon": 0.0, "lat": 38.90578683333333}, {"rental_uris": {"android": "https://dc.lft.to/lastmile_qr_scan", "ios": "https://dc.lft.to/lastmile_qr_scan"}, "is_reserved": 0, "is_disabled": 0, "name": "4f966599a04f047514709efe4139b19c", "bike_id": "4f966599a04f047514709efe4139b19c", "fusion_lat": 0.0, "lon": -76.97224183333333, "type": "electric_bike", "fusion_lon": 0.0, "lat": 38.900338166666664}, {"rental_uris": {"android": "https://dc.lft.to/lastmile_qr_scan", "ios": "https://dc.lft.to/lastmile_qr_scan"}, "is_reserved": 0, "is_disabled": 0, "name": "721011dd7b2c899a52feee757a712acd", "bike_id": "721011dd7b2c899a52feee757a712acd", "fusion_lat": 0.0, "lon": -77.02314066666666, "type": "electric_scooter", "fusion_lon": 0.0, "lat": 38.92737916666667}, {"rental_uris": {"android": "https://dc.lft.to/lastmile_qr_scan", "ios": "https://dc.lft.to/lastmile_qr_scan"}, "is_reserved": 0, "is_disabled": 0, "name": "1101ea2f3583ac0584d80520128a0b9c", "bike_id": "1101ea2f3583ac0584d80520128a0b9c", "fusion_lat": 0.0, "lon": -77.01957533333334, "type": "electric_scooter", "fusion_lon": 0.0, "lat": 38.923234}, {"rental_uris": {"android": "https://dc.lft.to/lastmile_qr_scan", "ios": "https://dc.lft.to/lastmile_qr_scan"}, "is_reserved": 0, "is_disabled": 0, "name": "6f1799b5c63b42b9fa8c114b3bf9bee1", "bike_id": "6f1799b5c63b42b9fa8c114b3bf9bee1", "fusion_lat": 0.0, "lon": -77.03472266666667, "type": "electric_scooter", "fusion_lon": 0.0, "lat": 38.91385266666666}, {"rental_uris": {"android": "https://dc.lft.to/lastmile_qr_scan", "ios": "https://dc.lft.to/lastmile_qr_scan"}, "is_reserved": 0, "is_disabled": 0, "name": "fb005b3d0572cf1331427fe9d74a9cd0", "bike_id": "fb005b3d0572cf1331427fe9d74a9cd0", "fusion_lat": 0.0, "lon": -77.0338235, "type": "electric_scooter", "fusion_lon": 0.0, "lat": 38.899587833333335}, {"rental_uris": {"android": "https://dc.lft.to/lastmile_qr_scan", "ios": "https://dc.lft.to/lastmile_qr_scan"}, "is_reserved": 0, "is_disabled": 0, "name": "83e254ab2ecbfad4d7b15a81a55e0f20", "bike_id": "83e254ab2ecbfad4d7b15a81a55e0f20", "fusion_lat": 0.0, "lon": -77.022649, "type": "electric_scooter", "fusion_lon": 0.0, "lat": 38.90278583333333}, {"rental_uris": {"android": "https://dc.lft.to/lastmile_qr_scan", "ios": "https://dc.lft.to/lastmile_qr_scan"}, "is_reserved": 0, "is_disabled": 0, "name": "1bca0517a341a2871b5c1bb5049d8c8e", "bike_id": "1bca0517a341a2871b5c1bb5049d8c8e", "fusion_lat": 0.0, "lon": -77.02544683333333, "type": "electric_scooter", "fusion_lon": 0.0, "lat": 38.891981333333334}, {"rental_uris": {"android": "https://dc.lft.to/lastmile_qr_scan", "ios": "https://dc.lft.to/lastmile_qr_scan"}, "is_reserved": 0, "is_disabled": 0, "name": "c674d38302e22f702f1be58f9e6dd1b5", "bike_id": "c674d38302e22f702f1be58f9e6dd1b5", "fusion_lat": 0.0, "lon": -77.0071155, "type": "electric_bike", "fusion_lon": 0.0, "lat": 38.95233566666667}, {"rental_uris": {"android": "https://dc.lft.to/lastmile_qr_scan", "ios": "https://dc.lft.to/lastmile_qr_scan"}, "is_reserved": 0, "is_disabled": 0, "name": "7dbe7745c1cc12aeb351eb7d16b24d4e", "bike_id": "7dbe7745c1cc12aeb351eb7d16b24d4e", "fusion_lat": 0.0, "lon": -77.02326333333333, "type": "electric_scooter", "fusion_lon": 0.0, "lat": 38.91713033333333}, {"rental_uris": {"android": "https://dc.lft.to/lastmile_qr_scan", "ios": "https://dc.lft.to/lastmile_qr_scan"}, "is_reserved": 0, "is_disabled": 0, "name": "326b9e9f5720f2ccc243a8c19c700947", "bike_id": "326b9e9f5720f2ccc243a8c19c700947", "fusion_lat": 0.0, "lon": -77.09612266666667, "type": "electric_bike", "fusion_lon": 0.0, "lat": 38.87881816666667}, {"rental_uris": {"android": "https://dc.lft.to/lastmile_qr_scan", "ios": "https://dc.lft.to/lastmile_qr_scan"}, "is_reserved": 0, "is_disabled": 0, "name": "7fc3d97cd2455857dc8e453ce88e0acf", "bike_id": "7fc3d97cd2455857dc8e453ce88e0acf", "fusion_lat": 0.0, "lon": -77.02565966666667, "type": "electric_scooter", "fusion_lon": 0.0, "lat": 38.88749283333333}, {"rental_uris": {"android": "https://dc.lft.to/lastmile_qr_scan", "ios": "https://dc.lft.to/lastmile_qr_scan"}, "is_reserved": 0, "is_disabled": 0, "name": "b44fef05620a2543c5b907dee1ad2e2d", "bike_id": "b44fef05620a2543c5b907dee1ad2e2d", "fusion_lat": 0.0, "lon": -76.99121433333333, "type": "electric_scooter", "fusion_lon": 0.0, "lat": 38.91024483333333}, {"rental_uris": {"android": "https://dc.lft.to/lastmile_qr_scan", "ios": "https://dc.lft.to/lastmile_qr_scan"}, "is_reserved": 0, "is_disabled": 0, "name": "e398a2e0004e47eb1891e070b796b7bc", "bike_id": "e398a2e0004e47eb1891e070b796b7bc", "fusion_lat": 0.0, "lon": -77.045148, "type": "electric_scooter", "fusion_lon": 0.0, "lat": 38.91287}, {"rental_uris": {"android": "https://dc.lft.to/lastmile_qr_scan", "ios": "https://dc.lft.to/lastmile_qr_scan"}, "is_reserved": 0, "is_disabled": 0, "name": "6c2615759d81fad9709f9079c4efb979", "bike_id": "6c2615759d81fad9709f9079c4efb979", "fusion_lat": 0.0, "lon": -77.02530533333334, "type": "electric_scooter", "fusion_lon": 0.0, "lat": 38.89955033333333}, {"rental_uris": {"android": "https://dc.lft.to/lastmile_qr_scan", "ios": "https://dc.lft.to/lastmile_qr_scan"}, "is_reserved": 0, "is_disabled": 0, "name": "084fdfcf4a074995c264d1d99a626539", "bike_id": "084fdfcf4a074995c264d1d99a626539", "fusion_lat": 0.0, "lon": -77.03352933333333, "type": "electric_scooter", "fusion_lon": 0.0, "lat": 38.93574516666666}, {"rental_uris": {"android": "https://dc.lft.to/lastmile_qr_scan", "ios": "https://dc.lft.to/lastmile_qr_scan"}, "is_reserved": 0, "is_disabled": 0, "name": "43f9a690934cb68ddb484705248430c4", "bike_id": "43f9a690934cb68ddb484705248430c4", "fusion_lat": 0.0, "lon": -77.04010516666666, "type": "electric_scooter", "fusion_lon": 0.0, "lat": 38.918415833333334}, {"rental_uris": {"android": "https://dc.lft.to/lastmile_qr_scan", "ios": "https://dc.lft.to/lastmile_qr_scan"}, "is_reserved": 0, "is_disabled": 0, "name": "de29f170d087f76060ebb5da2374f8b7", "bike_id": "de29f170d087f76060ebb5da2374f8b7", "fusion_lat": 0.0, "lon": -77.0680095, "type": "electric_scooter", "fusion_lon": 0.0, "lat": 38.91566733333333}, {"rental_uris": {"android": "https://dc.lft.to/lastmile_qr_scan", "ios": "https://dc.lft.to/lastmile_qr_scan"}, "is_reserved": 0, "is_disabled": 0, "name": "f2d10d5c68c2bef8a86db11f8039927c", "bike_id": "f2d10d5c68c2bef8a86db11f8039927c", "fusion_lat": 0.0, "lon": -77.021212, "type": "electric_scooter", "fusion_lon": 0.0, "lat": 38.8996845}, {"rental_uris": {"android": "https://dc.lft.to/lastmile_qr_scan", "ios": "https://dc.lft.to/lastmile_qr_scan"}, "is_reserved": 0, "is_disabled": 0, "name": "2e3b7851d2244cce3a86fc2e45b78203", "bike_id": "2e3b7851d2244cce3a86fc2e45b78203", "fusion_lat": 0.0, "lon": -77.03387533333333, "type": "electric_scooter", "fusion_lon": 0.0, "lat": 38.90095733333333}, {"rental_uris": {"android": "https://dc.lft.to/lastmile_qr_scan", "ios": "https://dc.lft.to/lastmile_qr_scan"}, "is_reserved": 0, "is_disabled": 0, "name": "fc18bae2b36d3c2fced841031d010928", "bike_id": "fc18bae2b36d3c2fced841031d010928", "fusion_lat": 0.0, "lon": -77.03169283333334, "type": "electric_scooter", "fusion_lon": 0.0, "lat": 38.914172}, {"rental_uris": {"android": "https://dc.lft.to/lastmile_qr_scan", "ios": "https://dc.lft.to/lastmile_qr_scan"}, "is_reserved": 0, "is_disabled": 0, "name": "64c18d2ff06573607a6115d2419eebd3", "bike_id": "64c18d2ff06573607a6115d2419eebd3", "fusion_lat": 0.0, "lon": -77.00602083333334, "type": "electric_scooter", "fusion_lon": 0.0, "lat": 38.90575833333333}, {"rental_uris": {"android": "https://dc.lft.to/lastmile_qr_scan", "ios": "https://dc.lft.to/lastmile_qr_scan"}, "is_reserved": 0, "is_disabled": 0, "name": "71510231ae71c46c7878ecb179a56e5d", "bike_id": "71510231ae71c46c7878ecb179a56e5d", "fusion_lat": 0.0, "lon": -77.0852905, "type": "electric_bike", "fusion_lon": 0.0, "lat": 38.856479}, {"rental_uris": {"android": "https://dc.lft.to/lastmile_qr_scan", "ios": "https://dc.lft.to/lastmile_qr_scan"}, "is_reserved": 0, "is_disabled": 0, "name": "4c823821319bb0f27ce72485ec667f6f", "bike_id": "4c823821319bb0f27ce72485ec667f6f", "fusion_lat": 0.0, "lon": -77.076576, "type": "electric_bike", "fusion_lon": 0.0, "lat": 38.8647265}, {"rental_uris": {"android": "https://dc.lft.to/lastmile_qr_scan", "ios": "https://dc.lft.to/lastmile_qr_scan"}, "is_reserved": 0, "is_disabled": 0, "name": "f3c4a4bc703bc66c7f18bed7b24bcb8d", "bike_id": "f3c4a4bc703bc66c7f18bed7b24bcb8d", "fusion_lat": 0.0, "lon": -77.04868616666667, "type": "electric_scooter", "fusion_lon": 0.0, "lat": 38.899593}, {"rental_uris": {"android": "https://dc.lft.to/lastmile_qr_scan", "ios": "https://dc.lft.to/lastmile_qr_scan"}, "is_reserved": 0, "is_disabled": 0, "name": "fe61ffb5fb70d5deb7c4bc8a12819136", "bike_id": "fe61ffb5fb70d5deb7c4bc8a12819136", "fusion_lat": 0.0, "lon": -76.98234966666666, "type": "electric_scooter", "fusion_lon": 0.0, "lat": 38.86895233333333}, {"rental_uris": {"android": "https://dc.lft.to/lastmile_qr_scan", "ios": "https://dc.lft.to/lastmile_qr_scan"}, "is_reserved": 0, "is_disabled": 0, "name": "7c6c798274a2ca83c4d77bfc312ac25b", "bike_id": "7c6c798274a2ca83c4d77bfc312ac25b", "fusion_lat": 0.0, "lon": -76.9899405, "type": "electric_scooter", "fusion_lon": 0.0, "lat": 38.8643025}, {"rental_uris": {"android": "https://dc.lft.to/lastmile_qr_scan", "ios": "https://dc.lft.to/lastmile_qr_scan"}, "is_reserved": 0, "is_disabled": 0, "name": "d2ccede49250687f633e6527a109aa55", "bike_id": "d2ccede49250687f633e6527a109aa55", "fusion_lat": 0.0, "lon": -77.03417683333333, "type": "electric_scooter", "fusion_lon": 0.0, "lat": 38.9308485}, {"rental_uris": {"android": "https://dc.lft.to/lastmile_qr_scan", "ios": "https://dc.lft.to/lastmile_qr_scan"}, "is_reserved": 0, "is_disabled": 0, "name": "a52246728beb329bbd2ee4203b6e7f4f", "bike_id": "a52246728beb329bbd2ee4203b6e7f4f", "fusion_lat": 0.0, "lon": -77.0409235, "type": "electric_scooter", "fusion_lon": 0.0, "lat": 38.90137466666667}, {"rental_uris": {"android": "https://dc.lft.to/lastmile_qr_scan", "ios": "https://dc.lft.to/lastmile_qr_scan"}, "is_reserved": 0, "is_disabled": 0, "name": "fece409a03d81710b7bf8881fa9aeaf6", "bike_id": "fece409a03d81710b7bf8881fa9aeaf6", "fusion_lat": 0.0, "lon": -76.99058816666667, "type": "electric_bike", "fusion_lon": 0.0, "lat": 38.937629}, {"rental_uris": {"android": "https://dc.lft.to/lastmile_qr_scan", "ios": "https://dc.lft.to/lastmile_qr_scan"}, "is_reserved": 0, "is_disabled": 0, "name": "2ad24343cf2fed77834f79f3f55df9cf", "bike_id": "2ad24343cf2fed77834f79f3f55df9cf", "fusion_lat": 0.0, "lon": -77.03853333333333, "type": "electric_scooter", "fusion_lon": 0.0, "lat": 38.9028255}, {"rental_uris": {"android": "https://dc.lft.to/lastmile_qr_scan", "ios": "https://dc.lft.to/lastmile_qr_scan"}, "is_reserved": 0, "is_disabled": 0, "name": "26881d732e9d71cc5dc0190182735f50", "bike_id": "26881d732e9d71cc5dc0190182735f50", "fusion_lat": 0.0, "lon": -77.06117333333333, "type": "electric_scooter", "fusion_lon": 0.0, "lat": 38.902431666666665}, {"rental_uris": {"android": "https://dc.lft.to/lastmile_qr_scan", "ios": "https://dc.lft.to/lastmile_qr_scan"}, "is_reserved": 0, "is_disabled": 0, "name": "98578df0b33bb6f1e86aaedd6fd9028c", "bike_id": "98578df0b33bb6f1e86aaedd6fd9028c", "fusion_lat": 0.0, "lon": -77.04093883333333, "type": "electric_scooter", "fusion_lon": 0.0, "lat": 38.901252166666666}, {"rental_uris": {"android": "https://dc.lft.to/lastmile_qr_scan", "ios": "https://dc.lft.to/lastmile_qr_scan"}, "is_reserved": 0, "is_disabled": 0, "name": "2bd0a5c7476c5d2453f8866ccf1e1cbe", "bike_id": "2bd0a5c7476c5d2453f8866ccf1e1cbe", "fusion_lat": 0.0, "lon": -77.00293666666667, "type": "electric_scooter", "fusion_lon": 0.0, "lat": 38.8919485}, {"rental_uris": {"android": "https://dc.lft.to/lastmile_qr_scan", "ios": "https://dc.lft.to/lastmile_qr_scan"}, "is_reserved": 0, "is_disabled": 0, "name": "9393c569da7d4e95f8bc7453582c36e3", "bike_id": "9393c569da7d4e95f8bc7453582c36e3", "fusion_lat": 0.0, "lon": -77.03044366666667, "type": "electric_scooter", "fusion_lon": 0.0, "lat": 38.90389666666667}, {"rental_uris": {"android": "https://dc.lft.to/lastmile_qr_scan", "ios": "https://dc.lft.to/lastmile_qr_scan"}, "is_reserved": 0, "is_disabled": 0, "name": "541f0280731c59df336c37097efaff61", "bike_id": "541f0280731c59df336c37097efaff61", "fusion_lat": 0.0, "lon": -77.05339733333334, "type": "electric_scooter", "fusion_lon": 0.0, "lat": 38.901663666666664}, {"rental_uris": {"android": "https://dc.lft.to/lastmile_qr_scan", "ios": "https://dc.lft.to/lastmile_qr_scan"}, "is_reserved": 0, "is_disabled": 0, "name": "2e148f2606adfc73f0e45a5b6e0b32fe", "bike_id": "2e148f2606adfc73f0e45a5b6e0b32fe", "fusion_lat": 0.0, "lon": -77.23411616666667, "type": "electric_bike", "fusion_lon": 0.0, "lat": 38.87580333333333}, {"rental_uris": {"android": "https://dc.lft.to/lastmile_qr_scan", "ios": "https://dc.lft.to/lastmile_qr_scan"}, "is_reserved": 0, "is_disabled": 0, "name": "ffcfd0c051eeaba9b4dcb5ce6d22e451", "bike_id": "ffcfd0c051eeaba9b4dcb5ce6d22e451", "fusion_lat": 0.0, "lon": -77.02295383333333, "type": "electric_scooter", "fusion_lon": 0.0, "lat": 38.916888}, {"rental_uris": {"android": "https://dc.lft.to/lastmile_qr_scan", "ios": "https://dc.lft.to/lastmile_qr_scan"}, "is_reserved": 0, "is_disabled": 0, "name": "f848eaa9fa32019f220a7c8a0c1c60a0", "bike_id": "f848eaa9fa32019f220a7c8a0c1c60a0", "fusion_lat": 0.0, "lon": -76.98847166666667, "type": "electric_scooter", "fusion_lon": 0.0, "lat": 38.900275}, {"rental_uris": {"android": "https://dc.lft.to/lastmile_qr_scan", "ios": "https://dc.lft.to/lastmile_qr_scan"}, "is_reserved": 0, "is_disabled": 0, "name": "465c0e74a6466c75e930680ca426edf9", "bike_id": "465c0e74a6466c75e930680ca426edf9", "fusion_lat": 0.0, "lon": -76.96815016666666, "type": "electric_scooter", "fusion_lon": 0.0, "lat": 38.847157333333335}, {"rental_uris": {"android": "https://dc.lft.to/lastmile_qr_scan", "ios": "https://dc.lft.to/lastmile_qr_scan"}, "is_reserved": 0, "is_disabled": 0, "name": "f2d5eb1bf60bbfdbd85c524350777a09", "bike_id": "f2d5eb1bf60bbfdbd85c524350777a09", "fusion_lat": 0.0, "lon": -77.038609, "type": "electric_scooter", "fusion_lon": 0.0, "lat": 38.93211066666667}, {"rental_uris": {"android": "https://dc.lft.to/lastmile_qr_scan", "ios": "https://dc.lft.to/lastmile_qr_scan"}, "is_reserved": 0, "is_disabled": 0, "name": "3a6fe9b5afc71c119b3906a3ce2e558f", "bike_id": "3a6fe9b5afc71c119b3906a3ce2e558f", "fusion_lat": 0.0, "lon": -77.07247233333334, "type": "electric_scooter", "fusion_lon": 0.0, "lat": 38.93951933333334}, {"rental_uris": {"android": "https://dc.lft.to/lastmile_qr_scan", "ios": "https://dc.lft.to/lastmile_qr_scan"}, "is_reserved": 0, "is_disabled": 0, "name": "20a4262a7ce4c80bd459120785210fc2", "bike_id": "20a4262a7ce4c80bd459120785210fc2", "fusion_lat": 0.0, "lon": -77.0289935, "type": "electric_bike", "fusion_lon": 0.0, "lat": 38.995082333333336}, {"rental_uris": {"android": "https://dc.lft.to/lastmile_qr_scan", "ios": "https://dc.lft.to/lastmile_qr_scan"}, "is_reserved": 0, "is_disabled": 0, "name": "6ba0381c22e640fb59af708cddc7454f", "bike_id": "6ba0381c22e640fb59af708cddc7454f", "fusion_lat": 0.0, "lon": -77.03172766666667, "type": "electric_scooter", "fusion_lon": 0.0, "lat": 38.8998065}, {"rental_uris": {"android": "https://dc.lft.to/lastmile_qr_scan", "ios": "https://dc.lft.to/lastmile_qr_scan"}, "is_reserved": 0, "is_disabled": 0, "name": "eda3e6eab37b906989a3718aab312b97", "bike_id": "eda3e6eab37b906989a3718aab312b97", "fusion_lat": 0.0, "lon": -77.02973366666667, "type": "electric_scooter", "fusion_lon": 0.0, "lat": 38.892286}, {"rental_uris": {"android": "https://dc.lft.to/lastmile_qr_scan", "ios": "https://dc.lft.to/lastmile_qr_scan"}, "is_reserved": 0, "is_disabled": 0, "name": "a1b28dbb84276c8e56e65cfa42a4e282", "bike_id": "a1b28dbb84276c8e56e65cfa42a4e282", "fusion_lat": 0.0, "lon": -77.23409616666666, "type": "electric_bike", "fusion_lon": 0.0, "lat": 38.87580033333333}, {"rental_uris": {"android": "https://dc.lft.to/lastmile_qr_scan", "ios": "https://dc.lft.to/lastmile_qr_scan"}, "is_reserved": 0, "is_disabled": 0, "name": "0d40d4a27c855d1aa425d364f542dc7c", "bike_id": "0d40d4a27c855d1aa425d364f542dc7c", "fusion_lat": 0.0, "lon": -76.9030105, "type": "electric_bike", "fusion_lon": 0.0, "lat": 39.00289883333333}, {"rental_uris": {"android": "https://dc.lft.to/lastmile_qr_scan", "ios": "https://dc.lft.to/lastmile_qr_scan"}, "is_reserved": 0, "is_disabled": 0, "name": "87b162c8077d948feb195826ed943b9e", "bike_id": "87b162c8077d948feb195826ed943b9e", "fusion_lat": 0.0, "lon": -77.01290416666667, "type": "electric_scooter", "fusion_lon": 0.0, "lat": 38.898361333333334}, {"rental_uris": {"android": "https://dc.lft.to/lastmile_qr_scan", "ios": "https://dc.lft.to/lastmile_qr_scan"}, "is_reserved": 0, "is_disabled": 0, "name": "b5b502ab078eb2a569045366aac49b24", "bike_id": "b5b502ab078eb2a569045366aac49b24", "fusion_lat": 0.0, "lon": -77.041808, "type": "electric_scooter", "fusion_lon": 0.0, "lat": 38.91727066666667}, {"rental_uris": {"android": "https://dc.lft.to/lastmile_qr_scan", "ios": "https://dc.lft.to/lastmile_qr_scan"}, "is_reserved": 0, "is_disabled": 0, "name": "6f748c2e6617477f98ea58bcf263d638", "bike_id": "6f748c2e6617477f98ea58bcf263d638", "fusion_lat": 0.0, "lon": -77.074349, "type": "electric_bike", "fusion_lon": 0.0, "lat": 38.91266783333333}, {"rental_uris": {"android": "https://dc.lft.to/lastmile_qr_scan", "ios": "https://dc.lft.to/lastmile_qr_scan"}, "is_reserved": 0, "is_disabled": 0, "name": "cf1f9553f6c84552d03cd722191a09d3", "bike_id": "cf1f9553f6c84552d03cd722191a09d3", "fusion_lat": 0.0, "lon": -77.01009266666667, "type": "electric_bike", "fusion_lon": 0.0, "lat": 38.956026}, {"rental_uris": {"android": "https://dc.lft.to/lastmile_qr_scan", "ios": "https://dc.lft.to/lastmile_qr_scan"}, "is_reserved": 0, "is_disabled": 0, "name": "2288d5d616579223e3ab7e299dec78a8", "bike_id": "2288d5d616579223e3ab7e299dec78a8", "fusion_lat": 0.0, "lon": -77.0337725, "type": "electric_scooter", "fusion_lon": 0.0, "lat": 38.8996525}, {"rental_uris": {"android": "https://dc.lft.to/lastmile_qr_scan", "ios": "https://dc.lft.to/lastmile_qr_scan"}, "is_reserved": 0, "is_disabled": 0, "name": "aec70e9bc4216ec90c1785692eb33f2f", "bike_id": "aec70e9bc4216ec90c1785692eb33f2f", "fusion_lat": 0.0, "lon": -77.0322555, "type": "electric_scooter", "fusion_lon": 0.0, "lat": 38.92540616666667}, {"rental_uris": {"android": "https://dc.lft.to/lastmile_qr_scan", "ios": "https://dc.lft.to/lastmile_qr_scan"}, "is_reserved": 0, "is_disabled": 0, "name": "5412d22651cf83df6da4c197e16bc994", "bike_id": "5412d22651cf83df6da4c197e16bc994", "fusion_lat": 0.0, "lon": -77.01223916666666, "type": "electric_scooter", "fusion_lon": 0.0, "lat": 38.897954166666665}, {"rental_uris": {"android": "https://dc.lft.to/lastmile_qr_scan", "ios": "https://dc.lft.to/lastmile_qr_scan"}, "is_reserved": 0, "is_disabled": 0, "name": "2769f93a780218c0d6ae4aaee83deb62", "bike_id": "2769f93a780218c0d6ae4aaee83deb62", "fusion_lat": 0.0, "lon": -77.05148266666667, "type": "electric_scooter", "fusion_lon": 0.0, "lat": 38.92372983333333}, {"rental_uris": {"android": "https://dc.lft.to/lastmile_qr_scan", "ios": "https://dc.lft.to/lastmile_qr_scan"}, "is_reserved": 0, "is_disabled": 0, "name": "6643f6a151102583dc92621f21c0a64f", "bike_id": "6643f6a151102583dc92621f21c0a64f", "fusion_lat": 0.0, "lon": -77.02235583333334, "type": "electric_scooter", "fusion_lon": 0.0, "lat": 38.898299}, {"rental_uris": {"android": "https://dc.lft.to/lastmile_qr_scan", "ios": "https://dc.lft.to/lastmile_qr_scan"}, "is_reserved": 0, "is_disabled": 0, "name": "532b9683ef72bb39aea33c6231c32687", "bike_id": "532b9683ef72bb39aea33c6231c32687", "fusion_lat": 0.0, "lon": -77.04153966666667, "type": "electric_scooter", "fusion_lon": 0.0, "lat": 38.91609066666667}, {"rental_uris": {"android": "https://dc.lft.to/lastmile_qr_scan", "ios": "https://dc.lft.to/lastmile_qr_scan"}, "is_reserved": 0, "is_disabled": 0, "name": "998d4265b42a452cca9a21fa960429ca", "bike_id": "998d4265b42a452cca9a21fa960429ca", "fusion_lat": 0.0, "lon": -77.024882, "type": "electric_scooter", "fusion_lon": 0.0, "lat": 38.94183483333333}, {"rental_uris": {"android": "https://dc.lft.to/lastmile_qr_scan", "ios": "https://dc.lft.to/lastmile_qr_scan"}, "is_reserved": 0, "is_disabled": 0, "name": "354bf260094600f9d0493b3a78f20d17", "bike_id": "354bf260094600f9d0493b3a78f20d17", "fusion_lat": 0.0, "lon": -76.92505516666667, "type": "electric_scooter", "fusion_lon": 0.0, "lat": 38.88603483333333}, {"rental_uris": {"android": "https://dc.lft.to/lastmile_qr_scan", "ios": "https://dc.lft.to/lastmile_qr_scan"}, "is_reserved": 0, "is_disabled": 0, "name": "6804e6f52582b3f128a71ebfbceff9c5", "bike_id": "6804e6f52582b3f128a71ebfbceff9c5", "fusion_lat": 0.0, "lon": -77.033087, "type": "electric_scooter", "fusion_lon": 0.0, "lat": 38.927441333333334}, {"rental_uris": {"android": "https://dc.lft.to/lastmile_qr_scan", "ios": "https://dc.lft.to/lastmile_qr_scan"}, "is_reserved": 0, "is_disabled": 0, "name": "84b9958635306049495f58cb87d24cd9", "bike_id": "84b9958635306049495f58cb87d24cd9", "fusion_lat": 0.0, "lon": -77.03614216666666, "type": "electric_scooter", "fusion_lon": 0.0, "lat": 38.903706}, {"rental_uris": {"android": "https://dc.lft.to/lastmile_qr_scan", "ios": "https://dc.lft.to/lastmile_qr_scan"}, "is_reserved": 0, "is_disabled": 0, "name": "e9c7651cb4c23508144385848cf6bae0", "bike_id": "e9c7651cb4c23508144385848cf6bae0", "fusion_lat": 0.0, "lon": -77.003041, "type": "electric_scooter", "fusion_lon": 0.0, "lat": 38.87669483333333}, {"rental_uris": {"android": "https://dc.lft.to/lastmile_qr_scan", "ios": "https://dc.lft.to/lastmile_qr_scan"}, "is_reserved": 0, "is_disabled": 0, "name": "e98be144e8ca62eafbcb20ccfdfe313a", "bike_id": "e98be144e8ca62eafbcb20ccfdfe313a", "fusion_lat": 0.0, "lon": -76.993618, "type": "electric_scooter", "fusion_lon": 0.0, "lat": 38.877829}, {"rental_uris": {"android": "https://dc.lft.to/lastmile_qr_scan", "ios": "https://dc.lft.to/lastmile_qr_scan"}, "is_reserved": 0, "is_disabled": 0, "name": "a17a27d72a3e643911e4d8a9ebda5fc2", "bike_id": "a17a27d72a3e643911e4d8a9ebda5fc2", "fusion_lat": 0.0, "lon": -77.01705716666666, "type": "electric_scooter", "fusion_lon": 0.0, "lat": 38.8729245}, {"rental_uris": {"android": "https://dc.lft.to/lastmile_qr_scan", "ios": "https://dc.lft.to/lastmile_qr_scan"}, "is_reserved": 0, "is_disabled": 0, "name": "677ffd07b5df875ceda9881a27f63dd3", "bike_id": "677ffd07b5df875ceda9881a27f63dd3", "fusion_lat": 0.0, "lon": -76.961533, "type": "electric_bike", "fusion_lon": 0.0, "lat": 38.85615166666667}, {"rental_uris": {"android": "https://dc.lft.to/lastmile_qr_scan", "ios": "https://dc.lft.to/lastmile_qr_scan"}, "is_reserved": 0, "is_disabled": 0, "name": "d96ba39c152d04da67d255288f7ffc65", "bike_id": "d96ba39c152d04da67d255288f7ffc65", "fusion_lat": 0.0, "lon": -77.04140766666667, "type": "electric_scooter", "fusion_lon": 0.0, "lat": 38.9031965}, {"rental_uris": {"android": "https://dc.lft.to/lastmile_qr_scan", "ios": "https://dc.lft.to/lastmile_qr_scan"}, "is_reserved": 0, "is_disabled": 0, "name": "a1d6bc1fac00c5c4a69271986ca706d7", "bike_id": "a1d6bc1fac00c5c4a69271986ca706d7", "fusion_lat": 0.0, "lon": -77.00288983333333, "type": "electric_scooter", "fusion_lon": 0.0, "lat": 38.89355233333333}, {"rental_uris": {"android": "https://dc.lft.to/lastmile_qr_scan", "ios": "https://dc.lft.to/lastmile_qr_scan"}, "is_reserved": 0, "is_disabled": 0, "name": "08fe7616f6abd4f3d5a2fcc80ba1afe4", "bike_id": "08fe7616f6abd4f3d5a2fcc80ba1afe4", "fusion_lat": 0.0, "lon": -77.02712433333333, "type": "electric_scooter", "fusion_lon": 0.0, "lat": 38.9246575}, {"rental_uris": {"android": "https://dc.lft.to/lastmile_qr_scan", "ios": "https://dc.lft.to/lastmile_qr_scan"}, "is_reserved": 0, "is_disabled": 0, "name": "9a780db9f28f4b33bded073b1698166d", "bike_id": "9a780db9f28f4b33bded073b1698166d", "fusion_lat": 0.0, "lon": -77.02813333333333, "type": "electric_scooter", "fusion_lon": 0.0, "lat": 38.904592}, {"rental_uris": {"android": "https://dc.lft.to/lastmile_qr_scan", "ios": "https://dc.lft.to/lastmile_qr_scan"}, "is_reserved": 0, "is_disabled": 0, "name": "80a9d9bc62459b26bdc0bd226e236fa2", "bike_id": "80a9d9bc62459b26bdc0bd226e236fa2", "fusion_lat": 0.0, "lon": -77.02170666666666, "type": "electric_scooter", "fusion_lon": 0.0, "lat": 38.9082215}, {"rental_uris": {"android": "https://dc.lft.to/lastmile_qr_scan", "ios": "https://dc.lft.to/lastmile_qr_scan"}, "is_reserved": 0, "is_disabled": 0, "name": "777fef01aedfe8b9a70b7e3d0234cb7a", "bike_id": "777fef01aedfe8b9a70b7e3d0234cb7a", "fusion_lat": 0.0, "lon": -77.0454575, "type": "electric_scooter", "fusion_lon": 0.0, "lat": 38.90390283333333}, {"rental_uris": {"android": "https://dc.lft.to/lastmile_qr_scan", "ios": "https://dc.lft.to/lastmile_qr_scan"}, "is_reserved": 0, "is_disabled": 0, "name": "2a87a2e4bc76911d29542ca571b500d8", "bike_id": "2a87a2e4bc76911d29542ca571b500d8", "fusion_lat": 0.0, "lon": -77.087863, "type": "electric_scooter", "fusion_lon": 0.0, "lat": 38.935452833333336}, {"rental_uris": {"android": "https://dc.lft.to/lastmile_qr_scan", "ios": "https://dc.lft.to/lastmile_qr_scan"}, "is_reserved": 0, "is_disabled": 0, "name": "4a139fb2ef8fae6e7f1006ea454118e9", "bike_id": "4a139fb2ef8fae6e7f1006ea454118e9", "fusion_lat": 0.0, "lon": -77.03955966666666, "type": "electric_scooter", "fusion_lon": 0.0, "lat": 38.90143033333333}, {"rental_uris": {"android": "https://dc.lft.to/lastmile_qr_scan", "ios": "https://dc.lft.to/lastmile_qr_scan"}, "is_reserved": 0, "is_disabled": 0, "name": "1e4dfe6df51ed778c4ef8c3887097d21", "bike_id": "1e4dfe6df51ed778c4ef8c3887097d21", "fusion_lat": 0.0, "lon": -77.04477016666667, "type": "electric_scooter", "fusion_lon": 0.0, "lat": 38.90253833333333}, {"rental_uris": {"android": "https://dc.lft.to/lastmile_qr_scan", "ios": "https://dc.lft.to/lastmile_qr_scan"}, "is_reserved": 0, "is_disabled": 0, "name": "9ece539e432eec240309184d4106fa38", "bike_id": "9ece539e432eec240309184d4106fa38", "fusion_lat": 0.0, "lon": -77.047458, "type": "electric_scooter", "fusion_lon": 0.0, "lat": 38.905405}, {"rental_uris": {"android": "https://dc.lft.to/lastmile_qr_scan", "ios": "https://dc.lft.to/lastmile_qr_scan"}, "is_reserved": 0, "is_disabled": 0, "name": "3f11def0cc77563f6591a56331030d4c", "bike_id": "3f11def0cc77563f6591a56331030d4c", "fusion_lat": 0.0, "lon": -77.0220265, "type": "electric_scooter", "fusion_lon": 0.0, "lat": 38.90082833333334}, {"rental_uris": {"android": "https://dc.lft.to/lastmile_qr_scan", "ios": "https://dc.lft.to/lastmile_qr_scan"}, "is_reserved": 0, "is_disabled": 0, "name": "6f2675a25e389ab5785abf02d2249255", "bike_id": "6f2675a25e389ab5785abf02d2249255", "fusion_lat": 0.0, "lon": -77.02553033333334, "type": "electric_scooter", "fusion_lon": 0.0, "lat": 38.97004366666667}, {"rental_uris": {"android": "https://dc.lft.to/lastmile_qr_scan", "ios": "https://dc.lft.to/lastmile_qr_scan"}, "is_reserved": 0, "is_disabled": 0, "name": "d19eb472ead7d26911f60f7d7bd50a66", "bike_id": "d19eb472ead7d26911f60f7d7bd50a66", "fusion_lat": 0.0, "lon": -77.04307966666667, "type": "electric_scooter", "fusion_lon": 0.0, "lat": 38.923295}, {"rental_uris": {"android": "https://dc.lft.to/lastmile_qr_scan", "ios": "https://dc.lft.to/lastmile_qr_scan"}, "is_reserved": 0, "is_disabled": 0, "name": "fb6fcefb426d66a5a9f5d1340b1f646c", "bike_id": "fb6fcefb426d66a5a9f5d1340b1f646c", "fusion_lat": 0.0, "lon": -77.04591116666667, "type": "electric_scooter", "fusion_lon": 0.0, "lat": 38.9027195}, {"rental_uris": {"android": "https://dc.lft.to/lastmile_qr_scan", "ios": "https://dc.lft.to/lastmile_qr_scan"}, "is_reserved": 0, "is_disabled": 0, "name": "36570522c5e6752f61af57bc15597f66", "bike_id": "36570522c5e6752f61af57bc15597f66", "fusion_lat": 0.0, "lon": -77.051956, "type": "electric_scooter", "fusion_lon": 0.0, "lat": 38.9031225}, {"rental_uris": {"android": "https://dc.lft.to/lastmile_qr_scan", "ios": "https://dc.lft.to/lastmile_qr_scan"}, "is_reserved": 0, "is_disabled": 0, "name": "eaa9126ce634e4d34b959ae9fffab2da", "bike_id": "eaa9126ce634e4d34b959ae9fffab2da", "fusion_lat": 0.0, "lon": -77.04872316666666, "type": "electric_scooter", "fusion_lon": 0.0, "lat": 38.90902333333333}, {"rental_uris": {"android": "https://dc.lft.to/lastmile_qr_scan", "ios": "https://dc.lft.to/lastmile_qr_scan"}, "is_reserved": 0, "is_disabled": 0, "name": "64279f2a32cd50cd1a00e324d1425dbb", "bike_id": "64279f2a32cd50cd1a00e324d1425dbb", "fusion_lat": 0.0, "lon": -76.98012066666666, "type": "electric_bike", "fusion_lon": 0.0, "lat": 38.85317583333333}, {"rental_uris": {"android": "https://dc.lft.to/lastmile_qr_scan", "ios": "https://dc.lft.to/lastmile_qr_scan"}, "is_reserved": 0, "is_disabled": 0, "name": "aa33429b8d028ee4d5bc46096ba1727a", "bike_id": "aa33429b8d028ee4d5bc46096ba1727a", "fusion_lat": 0.0, "lon": -77.04498733333334, "type": "electric_scooter", "fusion_lon": 0.0, "lat": 38.892242333333336}, {"rental_uris": {"android": "https://dc.lft.to/lastmile_qr_scan", "ios": "https://dc.lft.to/lastmile_qr_scan"}, "is_reserved": 0, "is_disabled": 0, "name": "4dc9ee1e2d0d015aad66fe8b7e742538", "bike_id": "4dc9ee1e2d0d015aad66fe8b7e742538", "fusion_lat": 0.0, "lon": -77.03288566666667, "type": "electric_scooter", "fusion_lon": 0.0, "lat": 38.90008866666667}, {"rental_uris": {"android": "https://dc.lft.to/lastmile_qr_scan", "ios": "https://dc.lft.to/lastmile_qr_scan"}, "is_reserved": 0, "is_disabled": 0, "name": "89d85b30a4d2edbb9e783003d903ca6a", "bike_id": "89d85b30a4d2edbb9e783003d903ca6a", "fusion_lat": 0.0, "lon": -77.00617833333334, "type": "electric_scooter", "fusion_lon": 0.0, "lat": 38.905807833333334}, {"rental_uris": {"android": "https://dc.lft.to/lastmile_qr_scan", "ios": "https://dc.lft.to/lastmile_qr_scan"}, "is_reserved": 0, "is_disabled": 0, "name": "0af79be4adbe64c3708fdac32e5c8e14", "bike_id": "0af79be4adbe64c3708fdac32e5c8e14", "fusion_lat": 0.0, "lon": -77.0248715, "type": "electric_scooter", "fusion_lon": 0.0, "lat": 38.94188066666667}, {"rental_uris": {"android": "https://dc.lft.to/lastmile_qr_scan", "ios": "https://dc.lft.to/lastmile_qr_scan"}, "is_reserved": 0, "is_disabled": 0, "name": "b8d89bfd65980b890c037e69c3d8784b", "bike_id": "b8d89bfd65980b890c037e69c3d8784b", "fusion_lat": 0.0, "lon": -77.04652816666666, "type": "electric_scooter", "fusion_lon": 0.0, "lat": 38.89340516666667}, {"rental_uris": {"android": "https://dc.lft.to/lastmile_qr_scan", "ios": "https://dc.lft.to/lastmile_qr_scan"}, "is_reserved": 0, "is_disabled": 0, "name": "36262e7bfc0d8e8e4d992ce4f6f752f8", "bike_id": "36262e7bfc0d8e8e4d992ce4f6f752f8", "fusion_lat": 0.0, "lon": -77.036783, "type": "electric_scooter", "fusion_lon": 0.0, "lat": 38.91565166666667}, {"rental_uris": {"android": "https://dc.lft.to/lastmile_qr_scan", "ios": "https://dc.lft.to/lastmile_qr_scan"}, "is_reserved": 0, "is_disabled": 0, "name": "70bcf0fe887e13477edeab7b42450c5d", "bike_id": "70bcf0fe887e13477edeab7b42450c5d", "fusion_lat": 0.0, "lon": -76.98242583333334, "type": "electric_bike", "fusion_lon": 0.0, "lat": 38.952423333333336}, {"rental_uris": {"android": "https://dc.lft.to/lastmile_qr_scan", "ios": "https://dc.lft.to/lastmile_qr_scan"}, "is_reserved": 0, "is_disabled": 0, "name": "a4fdd8ff35ab01db8d80fefcc1a22b87", "bike_id": "a4fdd8ff35ab01db8d80fefcc1a22b87", "fusion_lat": 0.0, "lon": -77.03212316666666, "type": "electric_scooter", "fusion_lon": 0.0, "lat": 38.92067816666667}, {"rental_uris": {"android": "https://dc.lft.to/lastmile_qr_scan", "ios": "https://dc.lft.to/lastmile_qr_scan"}, "is_reserved": 0, "is_disabled": 0, "name": "de758e53f62519866d120a6733f20876", "bike_id": "de758e53f62519866d120a6733f20876", "fusion_lat": 0.0, "lon": -77.0488895, "type": "electric_scooter", "fusion_lon": 0.0, "lat": 38.905187166666664}, {"rental_uris": {"android": "https://dc.lft.to/lastmile_qr_scan", "ios": "https://dc.lft.to/lastmile_qr_scan"}, "is_reserved": 0, "is_disabled": 0, "name": "4162db02a776180355febf28b81356a3", "bike_id": "4162db02a776180355febf28b81356a3", "fusion_lat": 0.0, "lon": -77.023358, "type": "electric_scooter", "fusion_lon": 0.0, "lat": 38.94288366666667}, {"rental_uris": {"android": "https://dc.lft.to/lastmile_qr_scan", "ios": "https://dc.lft.to/lastmile_qr_scan"}, "is_reserved": 0, "is_disabled": 0, "name": "2cebce3215cd13b8e24fdcc205ef9736", "bike_id": "2cebce3215cd13b8e24fdcc205ef9736", "fusion_lat": 0.0, "lon": -77.0334675, "type": "electric_scooter", "fusion_lon": 0.0, "lat": 38.8990955}, {"rental_uris": {"android": "https://dc.lft.to/lastmile_qr_scan", "ios": "https://dc.lft.to/lastmile_qr_scan"}, "is_reserved": 0, "is_disabled": 0, "name": "96c9b9ec67c2b9e809b0f11720393d90", "bike_id": "96c9b9ec67c2b9e809b0f11720393d90", "fusion_lat": 0.0, "lon": -77.022712, "type": "electric_scooter", "fusion_lon": 0.0, "lat": 38.89986283333333}, {"rental_uris": {"android": "https://dc.lft.to/lastmile_qr_scan", "ios": "https://dc.lft.to/lastmile_qr_scan"}, "is_reserved": 0, "is_disabled": 0, "name": "3a18869e2e4b4343b04c732c90c1497c", "bike_id": "3a18869e2e4b4343b04c732c90c1497c", "fusion_lat": 0.0, "lon": -77.03218966666667, "type": "electric_scooter", "fusion_lon": 0.0, "lat": 38.896692333333334}, {"rental_uris": {"android": "https://dc.lft.to/lastmile_qr_scan", "ios": "https://dc.lft.to/lastmile_qr_scan"}, "is_reserved": 0, "is_disabled": 0, "name": "cc4922fce4e4eb6a09e4d3fb7ec1c913", "bike_id": "cc4922fce4e4eb6a09e4d3fb7ec1c913", "fusion_lat": 0.0, "lon": -77.03174133333333, "type": "electric_scooter", "fusion_lon": 0.0, "lat": 38.9141375}, {"rental_uris": {"android": "https://dc.lft.to/lastmile_qr_scan", "ios": "https://dc.lft.to/lastmile_qr_scan"}, "is_reserved": 0, "is_disabled": 0, "name": "3022d4916f410ec8fa234d616d5a26a5", "bike_id": "3022d4916f410ec8fa234d616d5a26a5", "fusion_lat": 0.0, "lon": -77.030087, "type": "electric_bike", "fusion_lon": 0.0, "lat": 38.9002835}, {"rental_uris": {"android": "https://dc.lft.to/lastmile_qr_scan", "ios": "https://dc.lft.to/lastmile_qr_scan"}, "is_reserved": 0, "is_disabled": 0, "name": "d47652af36a6eca114d638a0ee5fe30e", "bike_id": "d47652af36a6eca114d638a0ee5fe30e", "fusion_lat": 0.0, "lon": -77.00339366666667, "type": "electric_scooter", "fusion_lon": 0.0, "lat": 38.886383333333335}, {"rental_uris": {"android": "https://dc.lft.to/lastmile_qr_scan", "ios": "https://dc.lft.to/lastmile_qr_scan"}, "is_reserved": 0, "is_disabled": 0, "name": "fecf12064c738704b45954cad0b780a6", "bike_id": "fecf12064c738704b45954cad0b780a6", "fusion_lat": 0.0, "lon": -77.12932, "type": "electric_bike", "fusion_lon": 0.0, "lat": 38.86576683333333}, {"rental_uris": {"android": "https://dc.lft.to/lastmile_qr_scan", "ios": "https://dc.lft.to/lastmile_qr_scan"}, "is_reserved": 0, "is_disabled": 0, "name": "b7d58c4c377adaaaafd3db5ad789d910", "bike_id": "b7d58c4c377adaaaafd3db5ad789d910", "fusion_lat": 0.0, "lon": -77.044572, "type": "electric_scooter", "fusion_lon": 0.0, "lat": 38.902568}, {"rental_uris": {"android": "https://dc.lft.to/lastmile_qr_scan", "ios": "https://dc.lft.to/lastmile_qr_scan"}, "is_reserved": 0, "is_disabled": 0, "name": "bd409a62bf12488496ff6d8de1632c3f", "bike_id": "bd409a62bf12488496ff6d8de1632c3f", "fusion_lat": 0.0, "lon": -77.02921216666667, "type": "electric_scooter", "fusion_lon": 0.0, "lat": 38.899851}, {"rental_uris": {"android": "https://dc.lft.to/lastmile_qr_scan", "ios": "https://dc.lft.to/lastmile_qr_scan"}, "is_reserved": 0, "is_disabled": 0, "name": "e93e8b974ef3d2211a06e363f000f53b", "bike_id": "e93e8b974ef3d2211a06e363f000f53b", "fusion_lat": 0.0, "lon": -77.027829, "type": "electric_scooter", "fusion_lon": 0.0, "lat": 38.92955833333333}, {"rental_uris": {"android": "https://dc.lft.to/lastmile_qr_scan", "ios": "https://dc.lft.to/lastmile_qr_scan"}, "is_reserved": 0, "is_disabled": 0, "name": "019fc07c50312c9b9ea05363bb1a8199", "bike_id": "019fc07c50312c9b9ea05363bb1a8199", "fusion_lat": 0.0, "lon": -77.03329466666666, "type": "electric_scooter", "fusion_lon": 0.0, "lat": 38.902562}, {"rental_uris": {"android": "https://dc.lft.to/lastmile_qr_scan", "ios": "https://dc.lft.to/lastmile_qr_scan"}, "is_reserved": 0, "is_disabled": 0, "name": "f51837fa11123e94e13ca4dcf6925db0", "bike_id": "f51837fa11123e94e13ca4dcf6925db0", "fusion_lat": 0.0, "lon": -76.99483116666667, "type": "electric_scooter", "fusion_lon": 0.0, "lat": 38.8623365}, {"rental_uris": {"android": "https://dc.lft.to/lastmile_qr_scan", "ios": "https://dc.lft.to/lastmile_qr_scan"}, "is_reserved": 0, "is_disabled": 0, "name": "06fc168048ef52453372f788be6d7162", "bike_id": "06fc168048ef52453372f788be6d7162", "fusion_lat": 0.0, "lon": -77.016717, "type": "electric_scooter", "fusion_lon": 0.0, "lat": 38.92042133333333}, {"rental_uris": {"android": "https://dc.lft.to/lastmile_qr_scan", "ios": "https://dc.lft.to/lastmile_qr_scan"}, "is_reserved": 0, "is_disabled": 0, "name": "2e4f4ef1d5b4e3e82fcc0a0049d12da6", "bike_id": "2e4f4ef1d5b4e3e82fcc0a0049d12da6", "fusion_lat": 0.0, "lon": -77.02722016666667, "type": "electric_scooter", "fusion_lon": 0.0, "lat": 38.89851266666667}, {"rental_uris": {"android": "https://dc.lft.to/lastmile_qr_scan", "ios": "https://dc.lft.to/lastmile_qr_scan"}, "is_reserved": 0, "is_disabled": 0, "name": "3afe71fad5977f56d2b7692d4e094ad2", "bike_id": "3afe71fad5977f56d2b7692d4e094ad2", "fusion_lat": 0.0, "lon": -76.929659, "type": "electric_scooter", "fusion_lon": 0.0, "lat": 38.89634566666667}, {"rental_uris": {"android": "https://dc.lft.to/lastmile_qr_scan", "ios": "https://dc.lft.to/lastmile_qr_scan"}, "is_reserved": 0, "is_disabled": 0, "name": "c786697d32f45e20d08cbb88cd7864fa", "bike_id": "c786697d32f45e20d08cbb88cd7864fa", "fusion_lat": 0.0, "lon": -77.00622916666667, "type": "electric_scooter", "fusion_lon": 0.0, "lat": 38.871748}, {"rental_uris": {"android": "https://dc.lft.to/lastmile_qr_scan", "ios": "https://dc.lft.to/lastmile_qr_scan"}, "is_reserved": 0, "is_disabled": 0, "name": "5653b89e66309e1274a11caefe66e9c3", "bike_id": "5653b89e66309e1274a11caefe66e9c3", "fusion_lat": 0.0, "lon": -77.0462045, "type": "electric_scooter", "fusion_lon": 0.0, "lat": 38.89361983333333}, {"rental_uris": {"android": "https://dc.lft.to/lastmile_qr_scan", "ios": "https://dc.lft.to/lastmile_qr_scan"}, "is_reserved": 0, "is_disabled": 0, "name": "a4ec17e2339d58520b4b48bc32de5e0f", "bike_id": "a4ec17e2339d58520b4b48bc32de5e0f", "fusion_lat": 0.0, "lon": -77.00168716666667, "type": "electric_bike", "fusion_lon": 0.0, "lat": 38.8875595}, {"rental_uris": {"android": "https://dc.lft.to/lastmile_qr_scan", "ios": "https://dc.lft.to/lastmile_qr_scan"}, "is_reserved": 0, "is_disabled": 0, "name": "f1de82cbfeeaf641373b0526b565d18f", "bike_id": "f1de82cbfeeaf641373b0526b565d18f", "fusion_lat": 0.0, "lon": -77.02831033333334, "type": "electric_scooter", "fusion_lon": 0.0, "lat": 38.931706166666665}, {"rental_uris": {"android": "https://dc.lft.to/lastmile_qr_scan", "ios": "https://dc.lft.to/lastmile_qr_scan"}, "is_reserved": 0, "is_disabled": 0, "name": "4ff5e029bbaefc4f6aa96e3b7d60a9c5", "bike_id": "4ff5e029bbaefc4f6aa96e3b7d60a9c5", "fusion_lat": 0.0, "lon": -77.036002, "type": "electric_scooter", "fusion_lon": 0.0, "lat": 38.90116366666667}, {"rental_uris": {"android": "https://dc.lft.to/lastmile_qr_scan", "ios": "https://dc.lft.to/lastmile_qr_scan"}, "is_reserved": 0, "is_disabled": 0, "name": "63495ad253fa1f459f9c92c983cdf8ff", "bike_id": "63495ad253fa1f459f9c92c983cdf8ff", "fusion_lat": 0.0, "lon": -77.03410433333333, "type": "electric_scooter", "fusion_lon": 0.0, "lat": 38.9140415}, {"rental_uris": {"android": "https://dc.lft.to/lastmile_qr_scan", "ios": "https://dc.lft.to/lastmile_qr_scan"}, "is_reserved": 0, "is_disabled": 0, "name": "0720d4640c642c3bf7d6b09be4346c4d", "bike_id": "0720d4640c642c3bf7d6b09be4346c4d", "fusion_lat": 0.0, "lon": -77.02004983333333, "type": "electric_bike", "fusion_lon": 0.0, "lat": 39.0262005}, {"rental_uris": {"android": "https://dc.lft.to/lastmile_qr_scan", "ios": "https://dc.lft.to/lastmile_qr_scan"}, "is_reserved": 0, "is_disabled": 0, "name": "aad57b79ef04d05b4c81ae058c406dc1", "bike_id": "aad57b79ef04d05b4c81ae058c406dc1", "fusion_lat": 0.0, "lon": -77.03853366666667, "type": "electric_scooter", "fusion_lon": 0.0, "lat": 38.902772}, {"rental_uris": {"android": "https://dc.lft.to/lastmile_qr_scan", "ios": "https://dc.lft.to/lastmile_qr_scan"}, "is_reserved": 0, "is_disabled": 0, "name": "35c4efad68fbf0e6ec3b5dc55cfa4831", "bike_id": "35c4efad68fbf0e6ec3b5dc55cfa4831", "fusion_lat": 0.0, "lon": -77.112838, "type": "electric_bike", "fusion_lon": 0.0, "lat": 38.8310455}, {"rental_uris": {"android": "https://dc.lft.to/lastmile_qr_scan", "ios": "https://dc.lft.to/lastmile_qr_scan"}, "is_reserved": 0, "is_disabled": 0, "name": "fe05ebaa8486ba1821fa1b05abf337b0", "bike_id": "fe05ebaa8486ba1821fa1b05abf337b0", "fusion_lat": 0.0, "lon": -77.0038825, "type": "electric_bike", "fusion_lon": 0.0, "lat": 38.8343215}, {"rental_uris": {"android": "https://dc.lft.to/lastmile_qr_scan", "ios": "https://dc.lft.to/lastmile_qr_scan"}, "is_reserved": 0, "is_disabled": 0, "name": "f05cae384e68ac24329e632dd2236484", "bike_id": "f05cae384e68ac24329e632dd2236484", "fusion_lat": 0.0, "lon": -77.02691733333333, "type": "electric_scooter", "fusion_lon": 0.0, "lat": 38.930805166666666}, {"rental_uris": {"android": "https://dc.lft.to/lastmile_qr_scan", "ios": "https://dc.lft.to/lastmile_qr_scan"}, "is_reserved": 0, "is_disabled": 0, "name": "f943cbfe4d900dbe017d69b0c49bce68", "bike_id": "f943cbfe4d900dbe017d69b0c49bce68", "fusion_lat": 0.0, "lon": -77.01953533333334, "type": "electric_scooter", "fusion_lon": 0.0, "lat": 38.9233075}, {"rental_uris": {"android": "https://dc.lft.to/lastmile_qr_scan", "ios": "https://dc.lft.to/lastmile_qr_scan"}, "is_reserved": 0, "is_disabled": 0, "name": "3937389341e7c092bd020d407efd447e", "bike_id": "3937389341e7c092bd020d407efd447e", "fusion_lat": 0.0, "lon": -77.02315733333333, "type": "electric_scooter", "fusion_lon": 0.0, "lat": 38.89481333333333}, {"rental_uris": {"android": "https://dc.lft.to/lastmile_qr_scan", "ios": "https://dc.lft.to/lastmile_qr_scan"}, "is_reserved": 0, "is_disabled": 0, "name": "431b23e248fe8d801a4b90ac31b99f6e", "bike_id": "431b23e248fe8d801a4b90ac31b99f6e", "fusion_lat": 0.0, "lon": -77.0515395, "type": "electric_scooter", "fusion_lon": 0.0, "lat": 38.923768}, {"rental_uris": {"android": "https://dc.lft.to/lastmile_qr_scan", "ios": "https://dc.lft.to/lastmile_qr_scan"}, "is_reserved": 0, "is_disabled": 0, "name": "156145b645938ef6d023e55f9aeef72f", "bike_id": "156145b645938ef6d023e55f9aeef72f", "fusion_lat": 0.0, "lon": -77.05153616666666, "type": "electric_scooter", "fusion_lon": 0.0, "lat": 38.923774}, {"rental_uris": {"android": "https://dc.lft.to/lastmile_qr_scan", "ios": "https://dc.lft.to/lastmile_qr_scan"}, "is_reserved": 0, "is_disabled": 0, "name": "bdc7536fb0e1132962da94f6d6810eaa", "bike_id": "bdc7536fb0e1132962da94f6d6810eaa", "fusion_lat": 0.0, "lon": -77.02432216666666, "type": "electric_scooter", "fusion_lon": 0.0, "lat": 38.89444616666667}, {"rental_uris": {"android": "https://dc.lft.to/lastmile_qr_scan", "ios": "https://dc.lft.to/lastmile_qr_scan"}, "is_reserved": 0, "is_disabled": 0, "name": "b17e527dd91d07f2ad114ebfcb3fd91c", "bike_id": "b17e527dd91d07f2ad114ebfcb3fd91c", "fusion_lat": 0.0, "lon": -77.0459225, "type": "electric_scooter", "fusion_lon": 0.0, "lat": 38.913587666666665}, {"rental_uris": {"android": "https://dc.lft.to/lastmile_qr_scan", "ios": "https://dc.lft.to/lastmile_qr_scan"}, "is_reserved": 0, "is_disabled": 0, "name": "ad1f196a3ecbdb3090b671c5b2775df3", "bike_id": "ad1f196a3ecbdb3090b671c5b2775df3", "fusion_lat": 0.0, "lon": -77.0374545, "type": "electric_scooter", "fusion_lon": 0.0, "lat": 38.929115333333336}, {"rental_uris": {"android": "https://dc.lft.to/lastmile_qr_scan", "ios": "https://dc.lft.to/lastmile_qr_scan"}, "is_reserved": 0, "is_disabled": 0, "name": "1dbd02023201cf3aaddcf150d73c7c01", "bike_id": "1dbd02023201cf3aaddcf150d73c7c01", "fusion_lat": 0.0, "lon": -77.01353516666667, "type": "electric_scooter", "fusion_lon": 0.0, "lat": 38.887389166666665}, {"rental_uris": {"android": "https://dc.lft.to/lastmile_qr_scan", "ios": "https://dc.lft.to/lastmile_qr_scan"}, "is_reserved": 0, "is_disabled": 0, "name": "d822bec3605d0abe51de9bd1b0a7414a", "bike_id": "d822bec3605d0abe51de9bd1b0a7414a", "fusion_lat": 0.0, "lon": -76.98844933333334, "type": "electric_scooter", "fusion_lon": 0.0, "lat": 38.900303666666666}, {"rental_uris": {"android": "https://dc.lft.to/lastmile_qr_scan", "ios": "https://dc.lft.to/lastmile_qr_scan"}, "is_reserved": 0, "is_disabled": 0, "name": "f35d976b088eacc3e51671094cfd24b5", "bike_id": "f35d976b088eacc3e51671094cfd24b5", "fusion_lat": 0.0, "lon": -77.045549, "type": "electric_scooter", "fusion_lon": 0.0, "lat": 38.90246533333333}, {"rental_uris": {"android": "https://dc.lft.to/lastmile_qr_scan", "ios": "https://dc.lft.to/lastmile_qr_scan"}, "is_reserved": 0, "is_disabled": 0, "name": "805c079c9834f02137b743481fdd5b71", "bike_id": "805c079c9834f02137b743481fdd5b71", "fusion_lat": 0.0, "lon": -76.93802633333334, "type": "electric_bike", "fusion_lon": 0.0, "lat": 38.979736833333334}, {"rental_uris": {"android": "https://dc.lft.to/lastmile_qr_scan", "ios": "https://dc.lft.to/lastmile_qr_scan"}, "is_reserved": 0, "is_disabled": 0, "name": "d680d27da93ec83edb2048efb4988eb3", "bike_id": "d680d27da93ec83edb2048efb4988eb3", "fusion_lat": 0.0, "lon": -77.01755633333333, "type": "electric_scooter", "fusion_lon": 0.0, "lat": 38.902711333333336}, {"rental_uris": {"android": "https://dc.lft.to/lastmile_qr_scan", "ios": "https://dc.lft.to/lastmile_qr_scan"}, "is_reserved": 0, "is_disabled": 0, "name": "e83b7d65563646f7e8cc3f85afe7c69d", "bike_id": "e83b7d65563646f7e8cc3f85afe7c69d", "fusion_lat": 0.0, "lon": -77.0296185, "type": "electric_scooter", "fusion_lon": 0.0, "lat": 38.92747933333333}, {"rental_uris": {"android": "https://dc.lft.to/lastmile_qr_scan", "ios": "https://dc.lft.to/lastmile_qr_scan"}, "is_reserved": 0, "is_disabled": 0, "name": "2e5763cf2015f406b6238e8bbfb7da4a", "bike_id": "2e5763cf2015f406b6238e8bbfb7da4a", "fusion_lat": 0.0, "lon": -77.06947516666666, "type": "electric_bike", "fusion_lon": 0.0, "lat": 38.83627666666667}, {"rental_uris": {"android": "https://dc.lft.to/lastmile_qr_scan", "ios": "https://dc.lft.to/lastmile_qr_scan"}, "is_reserved": 0, "is_disabled": 0, "name": "e1bb72cdcf7170122ed134cad57f42bc", "bike_id": "e1bb72cdcf7170122ed134cad57f42bc", "fusion_lat": 0.0, "lon": -76.97332133333333, "type": "electric_scooter", "fusion_lon": 0.0, "lat": 38.9040815}, {"rental_uris": {"android": "https://dc.lft.to/lastmile_qr_scan", "ios": "https://dc.lft.to/lastmile_qr_scan"}, "is_reserved": 0, "is_disabled": 0, "name": "e3ff1be781cf51fd16d64b5499446b34", "bike_id": "e3ff1be781cf51fd16d64b5499446b34", "fusion_lat": 0.0, "lon": -77.04561383333333, "type": "electric_scooter", "fusion_lon": 0.0, "lat": 38.902625}, {"rental_uris": {"android": "https://dc.lft.to/lastmile_qr_scan", "ios": "https://dc.lft.to/lastmile_qr_scan"}, "is_reserved": 0, "is_disabled": 0, "name": "ee9074bbfe7fbb495851cf7496fccef5", "bike_id": "ee9074bbfe7fbb495851cf7496fccef5", "fusion_lat": 0.0, "lon": -77.03819466666667, "type": "electric_scooter", "fusion_lon": 0.0, "lat": 38.90676933333334}, {"rental_uris": {"android": "https://dc.lft.to/lastmile_qr_scan", "ios": "https://dc.lft.to/lastmile_qr_scan"}, "is_reserved": 0, "is_disabled": 0, "name": "3e7190bbdc8305cdabc66e259e2000ad", "bike_id": "3e7190bbdc8305cdabc66e259e2000ad", "fusion_lat": 0.0, "lon": -77.01347866666667, "type": "electric_scooter", "fusion_lon": 0.0, "lat": 38.94190416666667}, {"rental_uris": {"android": "https://dc.lft.to/lastmile_qr_scan", "ios": "https://dc.lft.to/lastmile_qr_scan"}, "is_reserved": 0, "is_disabled": 0, "name": "24c314cd4fba01528b86e32e228f0181", "bike_id": "24c314cd4fba01528b86e32e228f0181", "fusion_lat": 0.0, "lon": -77.058284, "type": "electric_scooter", "fusion_lon": 0.0, "lat": 38.93524383333333}, {"rental_uris": {"android": "https://dc.lft.to/lastmile_qr_scan", "ios": "https://dc.lft.to/lastmile_qr_scan"}, "is_reserved": 0, "is_disabled": 0, "name": "b45642d0a227e30234c36920db80d054", "bike_id": "b45642d0a227e30234c36920db80d054", "fusion_lat": 0.0, "lon": -77.00019683333333, "type": "electric_scooter", "fusion_lon": 0.0, "lat": 38.9198025}, {"rental_uris": {"android": "https://dc.lft.to/lastmile_qr_scan", "ios": "https://dc.lft.to/lastmile_qr_scan"}, "is_reserved": 0, "is_disabled": 0, "name": "dfe81fdf0ece567998128525d833057f", "bike_id": "dfe81fdf0ece567998128525d833057f", "fusion_lat": 0.0, "lon": -77.0244835, "type": "electric_scooter", "fusion_lon": 0.0, "lat": 38.949762166666666}, {"rental_uris": {"android": "https://dc.lft.to/lastmile_qr_scan", "ios": "https://dc.lft.to/lastmile_qr_scan"}, "is_reserved": 0, "is_disabled": 0, "name": "9e91a1be04bdbad4d0d0c770b3477417", "bike_id": "9e91a1be04bdbad4d0d0c770b3477417", "fusion_lat": 0.0, "lon": -77.02460866666667, "type": "electric_scooter", "fusion_lon": 0.0, "lat": 38.9578115}, {"rental_uris": {"android": "https://dc.lft.to/lastmile_qr_scan", "ios": "https://dc.lft.to/lastmile_qr_scan"}, "is_reserved": 0, "is_disabled": 0, "name": "93eb66e7c2aee492ce7faebf5719fca6", "bike_id": "93eb66e7c2aee492ce7faebf5719fca6", "fusion_lat": 0.0, "lon": -77.02485666666666, "type": "electric_scooter", "fusion_lon": 0.0, "lat": 38.920696}, {"rental_uris": {"android": "https://dc.lft.to/lastmile_qr_scan", "ios": "https://dc.lft.to/lastmile_qr_scan"}, "is_reserved": 0, "is_disabled": 0, "name": "bb1339d517e68c230c6a47d0ebfe66a8", "bike_id": "bb1339d517e68c230c6a47d0ebfe66a8", "fusion_lat": 0.0, "lon": -77.03368833333333, "type": "electric_scooter", "fusion_lon": 0.0, "lat": 38.90040583333333}, {"rental_uris": {"android": "https://dc.lft.to/lastmile_qr_scan", "ios": "https://dc.lft.to/lastmile_qr_scan"}, "is_reserved": 0, "is_disabled": 0, "name": "27d2dc887f06322cbfa761dc00803b97", "bike_id": "27d2dc887f06322cbfa761dc00803b97", "fusion_lat": 0.0, "lon": -77.02729333333333, "type": "electric_bike", "fusion_lon": 0.0, "lat": 38.89633366666666}, {"rental_uris": {"android": "https://dc.lft.to/lastmile_qr_scan", "ios": "https://dc.lft.to/lastmile_qr_scan"}, "is_reserved": 0, "is_disabled": 0, "name": "7c708781f86e15f28e4890e1e30d6767", "bike_id": "7c708781f86e15f28e4890e1e30d6767", "fusion_lat": 0.0, "lon": -77.04550533333334, "type": "electric_scooter", "fusion_lon": 0.0, "lat": 38.901323}, {"rental_uris": {"android": "https://dc.lft.to/lastmile_qr_scan", "ios": "https://dc.lft.to/lastmile_qr_scan"}, "is_reserved": 0, "is_disabled": 0, "name": "2d415db4032a42b5530804bce72ef604", "bike_id": "2d415db4032a42b5530804bce72ef604", "fusion_lat": 0.0, "lon": -77.12739033333334, "type": "electric_bike", "fusion_lon": 0.0, "lat": 38.8956805}, {"rental_uris": {"android": "https://dc.lft.to/lastmile_qr_scan", "ios": "https://dc.lft.to/lastmile_qr_scan"}, "is_reserved": 0, "is_disabled": 0, "name": "69219a40123ded4b18b37d63dd8d261f", "bike_id": "69219a40123ded4b18b37d63dd8d261f", "fusion_lat": 0.0, "lon": -77.02992366666666, "type": "electric_scooter", "fusion_lon": 0.0, "lat": 38.89749183333333}, {"rental_uris": {"android": "https://dc.lft.to/lastmile_qr_scan", "ios": "https://dc.lft.to/lastmile_qr_scan"}, "is_reserved": 0, "is_disabled": 0, "name": "7178c84fc6c88997c684453388df0ad9", "bike_id": "7178c84fc6c88997c684453388df0ad9", "fusion_lat": 0.0, "lon": -77.01158833333334, "type": "electric_scooter", "fusion_lon": 0.0, "lat": 38.896634}, {"rental_uris": {"android": "https://dc.lft.to/lastmile_qr_scan", "ios": "https://dc.lft.to/lastmile_qr_scan"}, "is_reserved": 0, "is_disabled": 0, "name": "38e4eb7fd65e624e3876a6b891a725d3", "bike_id": "38e4eb7fd65e624e3876a6b891a725d3", "fusion_lat": 0.0, "lon": -77.0387935, "type": "electric_bike", "fusion_lon": 0.0, "lat": 39.026224666666664}, {"rental_uris": {"android": "https://dc.lft.to/lastmile_qr_scan", "ios": "https://dc.lft.to/lastmile_qr_scan"}, "is_reserved": 0, "is_disabled": 0, "name": "0e13d583fa281e637ea5379a711166f4", "bike_id": "0e13d583fa281e637ea5379a711166f4", "fusion_lat": 0.0, "lon": -77.02271583333334, "type": "electric_scooter", "fusion_lon": 0.0, "lat": 38.898349333333336}, {"rental_uris": {"android": "https://dc.lft.to/lastmile_qr_scan", "ios": "https://dc.lft.to/lastmile_qr_scan"}, "is_reserved": 0, "is_disabled": 0, "name": "93e10e8843571c47305e389db80f10ed", "bike_id": "93e10e8843571c47305e389db80f10ed", "fusion_lat": 0.0, "lon": -76.94575133333333, "type": "electric_scooter", "fusion_lon": 0.0, "lat": 38.899206}, {"rental_uris": {"android": "https://dc.lft.to/lastmile_qr_scan", "ios": "https://dc.lft.to/lastmile_qr_scan"}, "is_reserved": 0, "is_disabled": 0, "name": "f32a0f253ef13afcbc0ed05eb8d40674", "bike_id": "f32a0f253ef13afcbc0ed05eb8d40674", "fusion_lat": 0.0, "lon": -77.02207833333334, "type": "electric_scooter", "fusion_lon": 0.0, "lat": 38.89528033333333}, {"rental_uris": {"android": "https://dc.lft.to/lastmile_qr_scan", "ios": "https://dc.lft.to/lastmile_qr_scan"}, "is_reserved": 0, "is_disabled": 0, "name": "3722785d40c70df475220efe43b85116", "bike_id": "3722785d40c70df475220efe43b85116", "fusion_lat": 0.0, "lon": -77.02381933333334, "type": "electric_scooter", "fusion_lon": 0.0, "lat": 38.89194466666667}, {"rental_uris": {"android": "https://dc.lft.to/lastmile_qr_scan", "ios": "https://dc.lft.to/lastmile_qr_scan"}, "is_reserved": 0, "is_disabled": 0, "name": "421769464a2a6736afa1e9633fd6f760", "bike_id": "421769464a2a6736afa1e9633fd6f760", "fusion_lat": 0.0, "lon": -76.998771, "type": "electric_bike", "fusion_lon": 0.0, "lat": 38.942873166666665}, {"rental_uris": {"android": "https://dc.lft.to/lastmile_qr_scan", "ios": "https://dc.lft.to/lastmile_qr_scan"}, "is_reserved": 0, "is_disabled": 0, "name": "6a7d2e44c99b85d094e8de6955b12761", "bike_id": "6a7d2e44c99b85d094e8de6955b12761", "fusion_lat": 0.0, "lon": -77.0021435, "type": "electric_scooter", "fusion_lon": 0.0, "lat": 38.904806666666666}, {"rental_uris": {"android": "https://dc.lft.to/lastmile_qr_scan", "ios": "https://dc.lft.to/lastmile_qr_scan"}, "is_reserved": 0, "is_disabled": 0, "name": "19f787693eb2096ce988a0786b3dab65", "bike_id": "19f787693eb2096ce988a0786b3dab65", "fusion_lat": 0.0, "lon": -77.00580733333334, "type": "electric_bike", "fusion_lon": 0.0, "lat": 38.900137666666666}, {"rental_uris": {"android": "https://dc.lft.to/lastmile_qr_scan", "ios": "https://dc.lft.to/lastmile_qr_scan"}, "is_reserved": 0, "is_disabled": 0, "name": "137e9fd2b948a052fb05099d1b065901", "bike_id": "137e9fd2b948a052fb05099d1b065901", "fusion_lat": 0.0, "lon": -77.0421025, "type": "electric_scooter", "fusion_lon": 0.0, "lat": 38.909273}, {"rental_uris": {"android": "https://dc.lft.to/lastmile_qr_scan", "ios": "https://dc.lft.to/lastmile_qr_scan"}, "is_reserved": 0, "is_disabled": 0, "name": "b2b195e58a38ba25ee82b9873ccb973a", "bike_id": "b2b195e58a38ba25ee82b9873ccb973a", "fusion_lat": 0.0, "lon": -76.9983715, "type": "electric_scooter", "fusion_lon": 0.0, "lat": 38.9007645}, {"rental_uris": {"android": "https://dc.lft.to/lastmile_qr_scan", "ios": "https://dc.lft.to/lastmile_qr_scan"}, "is_reserved": 0, "is_disabled": 0, "name": "a36a7aa1f3992acfbc94a74c44aabd41", "bike_id": "a36a7aa1f3992acfbc94a74c44aabd41", "fusion_lat": 0.0, "lon": -77.06365533333333, "type": "electric_scooter", "fusion_lon": 0.0, "lat": 38.92018483333333}, {"rental_uris": {"android": "https://dc.lft.to/lastmile_qr_scan", "ios": "https://dc.lft.to/lastmile_qr_scan"}, "is_reserved": 0, "is_disabled": 0, "name": "46b5304e85fe521aa8f542b16c8a1c1b", "bike_id": "46b5304e85fe521aa8f542b16c8a1c1b", "fusion_lat": 0.0, "lon": -77.02377483333333, "type": "electric_scooter", "fusion_lon": 0.0, "lat": 38.902152666666666}, {"rental_uris": {"android": "https://dc.lft.to/lastmile_qr_scan", "ios": "https://dc.lft.to/lastmile_qr_scan"}, "is_reserved": 0, "is_disabled": 0, "name": "b13d3007c3eab8b8a361740b635d26ac", "bike_id": "b13d3007c3eab8b8a361740b635d26ac", "fusion_lat": 0.0, "lon": -77.023484, "type": "electric_scooter", "fusion_lon": 0.0, "lat": 38.941964166666665}, {"rental_uris": {"android": "https://dc.lft.to/lastmile_qr_scan", "ios": "https://dc.lft.to/lastmile_qr_scan"}, "is_reserved": 0, "is_disabled": 0, "name": "4ab1d411180b296cf05bdf120230d637", "bike_id": "4ab1d411180b296cf05bdf120230d637", "fusion_lat": 0.0, "lon": -77.02416333333333, "type": "electric_scooter", "fusion_lon": 0.0, "lat": 38.892216166666664}, {"rental_uris": {"android": "https://dc.lft.to/lastmile_qr_scan", "ios": "https://dc.lft.to/lastmile_qr_scan"}, "is_reserved": 0, "is_disabled": 0, "name": "f69fd956c68c6fa842a3d6d4a9739bad", "bike_id": "f69fd956c68c6fa842a3d6d4a9739bad", "fusion_lat": 0.0, "lon": -76.99693366666666, "type": "electric_scooter", "fusion_lon": 0.0, "lat": 38.88431466666667}, {"rental_uris": {"android": "https://dc.lft.to/lastmile_qr_scan", "ios": "https://dc.lft.to/lastmile_qr_scan"}, "is_reserved": 0, "is_disabled": 0, "name": "f6713a000cc224e49c4c7585ab166155", "bike_id": "f6713a000cc224e49c4c7585ab166155", "fusion_lat": 0.0, "lon": -77.04624783333334, "type": "electric_scooter", "fusion_lon": 0.0, "lat": 38.915658}, {"rental_uris": {"android": "https://dc.lft.to/lastmile_qr_scan", "ios": "https://dc.lft.to/lastmile_qr_scan"}, "is_reserved": 0, "is_disabled": 0, "name": "416788f998482b413795a9bf3330be4f", "bike_id": "416788f998482b413795a9bf3330be4f", "fusion_lat": 0.0, "lon": -77.00204733333334, "type": "electric_scooter", "fusion_lon": 0.0, "lat": 38.8921415}, {"rental_uris": {"android": "https://dc.lft.to/lastmile_qr_scan", "ios": "https://dc.lft.to/lastmile_qr_scan"}, "is_reserved": 0, "is_disabled": 0, "name": "c0bf851636c0cade136683b8c96d9ce2", "bike_id": "c0bf851636c0cade136683b8c96d9ce2", "fusion_lat": 0.0, "lon": -77.00333783333333, "type": "electric_scooter", "fusion_lon": 0.0, "lat": 38.89362533333333}, {"rental_uris": {"android": "https://dc.lft.to/lastmile_qr_scan", "ios": "https://dc.lft.to/lastmile_qr_scan"}, "is_reserved": 0, "is_disabled": 0, "name": "2e77d00e1111a9e27482fcd9a2d8ace4", "bike_id": "2e77d00e1111a9e27482fcd9a2d8ace4", "fusion_lat": 0.0, "lon": -77.02331566666666, "type": "electric_scooter", "fusion_lon": 0.0, "lat": 38.93049766666667}, {"rental_uris": {"android": "https://dc.lft.to/lastmile_qr_scan", "ios": "https://dc.lft.to/lastmile_qr_scan"}, "is_reserved": 0, "is_disabled": 0, "name": "dbff08ef9ac6941aac98aa27bca32b4d", "bike_id": "dbff08ef9ac6941aac98aa27bca32b4d", "fusion_lat": 0.0, "lon": -77.0467945, "type": "electric_scooter", "fusion_lon": 0.0, "lat": 38.897504833333336}, {"rental_uris": {"android": "https://dc.lft.to/lastmile_qr_scan", "ios": "https://dc.lft.to/lastmile_qr_scan"}, "is_reserved": 0, "is_disabled": 0, "name": "03daa7afae024fe170e855b244f6bf32", "bike_id": "03daa7afae024fe170e855b244f6bf32", "fusion_lat": 0.0, "lon": -77.024286, "type": "electric_bike", "fusion_lon": 0.0, "lat": 38.92302083333333}, {"rental_uris": {"android": "https://dc.lft.to/lastmile_qr_scan", "ios": "https://dc.lft.to/lastmile_qr_scan"}, "is_reserved": 0, "is_disabled": 0, "name": "5fba7cffb86e972bd8ddb84d1c282abf", "bike_id": "5fba7cffb86e972bd8ddb84d1c282abf", "fusion_lat": 0.0, "lon": -77.00055783333333, "type": "electric_scooter", "fusion_lon": 0.0, "lat": 38.878792833333335}, {"rental_uris": {"android": "https://dc.lft.to/lastmile_qr_scan", "ios": "https://dc.lft.to/lastmile_qr_scan"}, "is_reserved": 0, "is_disabled": 0, "name": "a45eb67d80e06ce926da70b0cff502f2", "bike_id": "a45eb67d80e06ce926da70b0cff502f2", "fusion_lat": 0.0, "lon": -77.02196616666667, "type": "electric_scooter", "fusion_lon": 0.0, "lat": 38.921693}, {"rental_uris": {"android": "https://dc.lft.to/lastmile_qr_scan", "ios": "https://dc.lft.to/lastmile_qr_scan"}, "is_reserved": 0, "is_disabled": 0, "name": "2f227b1a25943d2332e7acee2bab4de0", "bike_id": "2f227b1a25943d2332e7acee2bab4de0", "fusion_lat": 0.0, "lon": -77.0460505, "type": "electric_scooter", "fusion_lon": 0.0, "lat": 38.91653216666667}, {"rental_uris": {"android": "https://dc.lft.to/lastmile_qr_scan", "ios": "https://dc.lft.to/lastmile_qr_scan"}, "is_reserved": 0, "is_disabled": 0, "name": "b60e638f8172cb2a534ad8edab787a6e", "bike_id": "b60e638f8172cb2a534ad8edab787a6e", "fusion_lat": 0.0, "lon": -76.930838, "type": "electric_scooter", "fusion_lon": 0.0, "lat": 38.89557633333333}, {"rental_uris": {"android": "https://dc.lft.to/lastmile_qr_scan", "ios": "https://dc.lft.to/lastmile_qr_scan"}, "is_reserved": 0, "is_disabled": 0, "name": "30868c134a4f559aa7d264edde31a195", "bike_id": "30868c134a4f559aa7d264edde31a195", "fusion_lat": 0.0, "lon": -77.0061695, "type": "electric_scooter", "fusion_lon": 0.0, "lat": 38.905783}, {"rental_uris": {"android": "https://dc.lft.to/lastmile_qr_scan", "ios": "https://dc.lft.to/lastmile_qr_scan"}, "is_reserved": 0, "is_disabled": 0, "name": "ae98e801da0ef6d3882d5d76006762d9", "bike_id": "ae98e801da0ef6d3882d5d76006762d9", "fusion_lat": 0.0, "lon": -77.0176335, "type": "electric_scooter", "fusion_lon": 0.0, "lat": 38.8770005}, {"rental_uris": {"android": "https://dc.lft.to/lastmile_qr_scan", "ios": "https://dc.lft.to/lastmile_qr_scan"}, "is_reserved": 0, "is_disabled": 0, "name": "d6c16b6951fdc31937d24d03fc2d8f61", "bike_id": "d6c16b6951fdc31937d24d03fc2d8f61", "fusion_lat": 0.0, "lon": -77.04130183333334, "type": "electric_scooter", "fusion_lon": 0.0, "lat": 38.92368866666666}, {"rental_uris": {"android": "https://dc.lft.to/lastmile_qr_scan", "ios": "https://dc.lft.to/lastmile_qr_scan"}, "is_reserved": 0, "is_disabled": 0, "name": "58aa42d0fa3534eb936817900263a71d", "bike_id": "58aa42d0fa3534eb936817900263a71d", "fusion_lat": 0.0, "lon": -77.05022833333334, "type": "electric_scooter", "fusion_lon": 0.0, "lat": 38.89695716666667}, {"rental_uris": {"android": "https://dc.lft.to/lastmile_qr_scan", "ios": "https://dc.lft.to/lastmile_qr_scan"}, "is_reserved": 0, "is_disabled": 0, "name": "dc02fa3934a1c100634371ff98dfb955", "bike_id": "dc02fa3934a1c100634371ff98dfb955", "fusion_lat": 0.0, "lon": -77.11411733333334, "type": "electric_bike", "fusion_lon": 0.0, "lat": 38.873187333333334}, {"rental_uris": {"android": "https://dc.lft.to/lastmile_qr_scan", "ios": "https://dc.lft.to/lastmile_qr_scan"}, "is_reserved": 0, "is_disabled": 0, "name": "c4388fa4773a613c362dfdcee20424c6", "bike_id": "c4388fa4773a613c362dfdcee20424c6", "fusion_lat": 0.0, "lon": -77.0089195, "type": "electric_bike", "fusion_lon": 0.0, "lat": 38.921480833333334}, {"rental_uris": {"android": "https://dc.lft.to/lastmile_qr_scan", "ios": "https://dc.lft.to/lastmile_qr_scan"}, "is_reserved": 0, "is_disabled": 0, "name": "16d357870fb1c86a0ff99990984b9fd9", "bike_id": "16d357870fb1c86a0ff99990984b9fd9", "fusion_lat": 0.0, "lon": -77.04165516666667, "type": "electric_scooter", "fusion_lon": 0.0, "lat": 38.897402666666665}, {"rental_uris": {"android": "https://dc.lft.to/lastmile_qr_scan", "ios": "https://dc.lft.to/lastmile_qr_scan"}, "is_reserved": 0, "is_disabled": 0, "name": "e761cab50ba216ab649d7070a1e87642", "bike_id": "e761cab50ba216ab649d7070a1e87642", "fusion_lat": 0.0, "lon": -77.03788183333333, "type": "electric_scooter", "fusion_lon": 0.0, "lat": 38.933237}, {"rental_uris": {"android": "https://dc.lft.to/lastmile_qr_scan", "ios": "https://dc.lft.to/lastmile_qr_scan"}, "is_reserved": 0, "is_disabled": 0, "name": "7270408b2f49758d08a15d4b41016c05", "bike_id": "7270408b2f49758d08a15d4b41016c05", "fusion_lat": 0.0, "lon": -77.045056, "type": "electric_scooter", "fusion_lon": 0.0, "lat": 38.892238166666665}, {"rental_uris": {"android": "https://dc.lft.to/lastmile_qr_scan", "ios": "https://dc.lft.to/lastmile_qr_scan"}, "is_reserved": 0, "is_disabled": 0, "name": "d8b72c55562abdb78340c1525cf27b74", "bike_id": "d8b72c55562abdb78340c1525cf27b74", "fusion_lat": 0.0, "lon": -77.03223266666667, "type": "electric_scooter", "fusion_lon": 0.0, "lat": 38.91590716666666}, {"rental_uris": {"android": "https://dc.lft.to/lastmile_qr_scan", "ios": "https://dc.lft.to/lastmile_qr_scan"}, "is_reserved": 0, "is_disabled": 0, "name": "dd0c5fca7611c005fa10510393630d7b", "bike_id": "dd0c5fca7611c005fa10510393630d7b", "fusion_lat": 0.0, "lon": -77.06709383333333, "type": "electric_scooter", "fusion_lon": 0.0, "lat": 38.94990516666667}, {"rental_uris": {"android": "https://dc.lft.to/lastmile_qr_scan", "ios": "https://dc.lft.to/lastmile_qr_scan"}, "is_reserved": 0, "is_disabled": 0, "name": "c949a83ab6654b2895f6d08773de666d", "bike_id": "c949a83ab6654b2895f6d08773de666d", "fusion_lat": 0.0, "lon": -77.01377533333333, "type": "electric_scooter", "fusion_lon": 0.0, "lat": 38.899147}, {"rental_uris": {"android": "https://dc.lft.to/lastmile_qr_scan", "ios": "https://dc.lft.to/lastmile_qr_scan"}, "is_reserved": 0, "is_disabled": 0, "name": "915df72e3b94ad0d33e4c7a4e8ed3ec1", "bike_id": "915df72e3b94ad0d33e4c7a4e8ed3ec1", "fusion_lat": 0.0, "lon": -77.03485616666667, "type": "electric_scooter", "fusion_lon": 0.0, "lat": 38.9156705}, {"rental_uris": {"android": "https://dc.lft.to/lastmile_qr_scan", "ios": "https://dc.lft.to/lastmile_qr_scan"}, "is_reserved": 0, "is_disabled": 0, "name": "8b29ab46d0d90c361f0de16db97edeb2", "bike_id": "8b29ab46d0d90c361f0de16db97edeb2", "fusion_lat": 0.0, "lon": -77.03775783333333, "type": "electric_scooter", "fusion_lon": 0.0, "lat": 38.907013}, {"rental_uris": {"android": "https://dc.lft.to/lastmile_qr_scan", "ios": "https://dc.lft.to/lastmile_qr_scan"}, "is_reserved": 0, "is_disabled": 0, "name": "79940e4968eb42d9c4e42ae4bdead7a2", "bike_id": "79940e4968eb42d9c4e42ae4bdead7a2", "fusion_lat": 0.0, "lon": -76.98338933333334, "type": "electric_scooter", "fusion_lon": 0.0, "lat": 38.89547683333333}, {"rental_uris": {"android": "https://dc.lft.to/lastmile_qr_scan", "ios": "https://dc.lft.to/lastmile_qr_scan"}, "is_reserved": 0, "is_disabled": 0, "name": "1d7cf2111420306c3ff6cdc07cd4d8b0", "bike_id": "1d7cf2111420306c3ff6cdc07cd4d8b0", "fusion_lat": 0.0, "lon": -77.02156966666666, "type": "electric_scooter", "fusion_lon": 0.0, "lat": 38.924621}, {"rental_uris": {"android": "https://dc.lft.to/lastmile_qr_scan", "ios": "https://dc.lft.to/lastmile_qr_scan"}, "is_reserved": 0, "is_disabled": 0, "name": "b42c688da8b0fa9162fe334873aba0a0", "bike_id": "b42c688da8b0fa9162fe334873aba0a0", "fusion_lat": 0.0, "lon": -77.02417366666667, "type": "electric_scooter", "fusion_lon": 0.0, "lat": 38.895070833333335}, {"rental_uris": {"android": "https://dc.lft.to/lastmile_qr_scan", "ios": "https://dc.lft.to/lastmile_qr_scan"}, "is_reserved": 0, "is_disabled": 0, "name": "86dbfa85224c0f12a6f887afe5d77455", "bike_id": "86dbfa85224c0f12a6f887afe5d77455", "fusion_lat": 0.0, "lon": -77.03205616666666, "type": "electric_scooter", "fusion_lon": 0.0, "lat": 38.91783866666667}, {"rental_uris": {"android": "https://dc.lft.to/lastmile_qr_scan", "ios": "https://dc.lft.to/lastmile_qr_scan"}, "is_reserved": 0, "is_disabled": 0, "name": "7ba7da7041263c847e2295ffcca1f40e", "bike_id": "7ba7da7041263c847e2295ffcca1f40e", "fusion_lat": 0.0, "lon": -77.00762216666666, "type": "electric_scooter", "fusion_lon": 0.0, "lat": 38.871405833333334}, {"rental_uris": {"android": "https://dc.lft.to/lastmile_qr_scan", "ios": "https://dc.lft.to/lastmile_qr_scan"}, "is_reserved": 0, "is_disabled": 0, "name": "ad7e67b7f1eaccbc3b0d4fe1ead792de", "bike_id": "ad7e67b7f1eaccbc3b0d4fe1ead792de", "fusion_lat": 0.0, "lon": -77.03429433333334, "type": "electric_scooter", "fusion_lon": 0.0, "lat": 38.903018333333335}, {"rental_uris": {"android": "https://dc.lft.to/lastmile_qr_scan", "ios": "https://dc.lft.to/lastmile_qr_scan"}, "is_reserved": 0, "is_disabled": 0, "name": "ebea0bc6e46f66fd417c14a6ee24cd5d", "bike_id": "ebea0bc6e46f66fd417c14a6ee24cd5d", "fusion_lat": 0.0, "lon": -76.9707515, "type": "electric_bike", "fusion_lon": 0.0, "lat": 38.92064383333334}, {"rental_uris": {"android": "https://dc.lft.to/lastmile_qr_scan", "ios": "https://dc.lft.to/lastmile_qr_scan"}, "is_reserved": 0, "is_disabled": 0, "name": "a05820d3fca74aa6018a40df25199b80", "bike_id": "a05820d3fca74aa6018a40df25199b80", "fusion_lat": 0.0, "lon": -77.04668133333334, "type": "electric_scooter", "fusion_lon": 0.0, "lat": 38.90279016666667}, {"rental_uris": {"android": "https://dc.lft.to/lastmile_qr_scan", "ios": "https://dc.lft.to/lastmile_qr_scan"}, "is_reserved": 0, "is_disabled": 0, "name": "bd83c3125393d31dd1ebd1bcab42d191", "bike_id": "bd83c3125393d31dd1ebd1bcab42d191", "fusion_lat": 0.0, "lon": -77.0433895, "type": "electric_scooter", "fusion_lon": 0.0, "lat": 38.92317966666667}, {"rental_uris": {"android": "https://dc.lft.to/lastmile_qr_scan", "ios": "https://dc.lft.to/lastmile_qr_scan"}, "is_reserved": 0, "is_disabled": 0, "name": "068be2ef1110ba16145e85d7e99caa4f", "bike_id": "068be2ef1110ba16145e85d7e99caa4f", "fusion_lat": 0.0, "lon": -77.038604, "type": "electric_scooter", "fusion_lon": 0.0, "lat": 38.917178}, {"rental_uris": {"android": "https://dc.lft.to/lastmile_qr_scan", "ios": "https://dc.lft.to/lastmile_qr_scan"}, "is_reserved": 0, "is_disabled": 0, "name": "2abd0106a8ba1df1a5dfaf6be47ea5ba", "bike_id": "2abd0106a8ba1df1a5dfaf6be47ea5ba", "fusion_lat": 0.0, "lon": -77.02365, "type": "electric_scooter", "fusion_lon": 0.0, "lat": 38.90029233333333}, {"rental_uris": {"android": "https://dc.lft.to/lastmile_qr_scan", "ios": "https://dc.lft.to/lastmile_qr_scan"}, "is_reserved": 0, "is_disabled": 0, "name": "af8549269b0e02aadbece2b4199cefd1", "bike_id": "af8549269b0e02aadbece2b4199cefd1", "fusion_lat": 0.0, "lon": -77.038515, "type": "electric_scooter", "fusion_lon": 0.0, "lat": 38.906949833333336}, {"rental_uris": {"android": "https://dc.lft.to/lastmile_qr_scan", "ios": "https://dc.lft.to/lastmile_qr_scan"}, "is_reserved": 0, "is_disabled": 0, "name": "fe4d136b870451cd20a0966eb85be677", "bike_id": "fe4d136b870451cd20a0966eb85be677", "fusion_lat": 0.0, "lon": -77.01612183333333, "type": "electric_scooter", "fusion_lon": 0.0, "lat": 38.899616333333334}, {"rental_uris": {"android": "https://dc.lft.to/lastmile_qr_scan", "ios": "https://dc.lft.to/lastmile_qr_scan"}, "is_reserved": 0, "is_disabled": 0, "name": "cbf80917c8552f939c7c72924b5c3dfc", "bike_id": "cbf80917c8552f939c7c72924b5c3dfc", "fusion_lat": 0.0, "lon": -77.04692533333333, "type": "electric_scooter", "fusion_lon": 0.0, "lat": 38.8961305}, {"rental_uris": {"android": "https://dc.lft.to/lastmile_qr_scan", "ios": "https://dc.lft.to/lastmile_qr_scan"}, "is_reserved": 0, "is_disabled": 0, "name": "812fbdb8ccb169a4a46baa89aa4c898d", "bike_id": "812fbdb8ccb169a4a46baa89aa4c898d", "fusion_lat": 0.0, "lon": -77.03372966666667, "type": "electric_scooter", "fusion_lon": 0.0, "lat": 38.901343833333335}, {"rental_uris": {"android": "https://dc.lft.to/lastmile_qr_scan", "ios": "https://dc.lft.to/lastmile_qr_scan"}, "is_reserved": 0, "is_disabled": 0, "name": "ab3b6049992226d78b6767d4c77cdb45", "bike_id": "ab3b6049992226d78b6767d4c77cdb45", "fusion_lat": 0.0, "lon": -76.98688066666666, "type": "electric_bike", "fusion_lon": 0.0, "lat": 38.94471716666666}, {"rental_uris": {"android": "https://dc.lft.to/lastmile_qr_scan", "ios": "https://dc.lft.to/lastmile_qr_scan"}, "is_reserved": 0, "is_disabled": 0, "name": "975a71c25fe3100449c42b7586fd71bd", "bike_id": "975a71c25fe3100449c42b7586fd71bd", "fusion_lat": 0.0, "lon": -77.02830916666667, "type": "electric_scooter", "fusion_lon": 0.0, "lat": 38.938839}, {"rental_uris": {"android": "https://dc.lft.to/lastmile_qr_scan", "ios": "https://dc.lft.to/lastmile_qr_scan"}, "is_reserved": 0, "is_disabled": 0, "name": "3a3d2edb8f9bc363553e14390e0e3d0c", "bike_id": "3a3d2edb8f9bc363553e14390e0e3d0c", "fusion_lat": 0.0, "lon": -77.027912, "type": "electric_scooter", "fusion_lon": 0.0, "lat": 38.89826883333333}, {"rental_uris": {"android": "https://dc.lft.to/lastmile_qr_scan", "ios": "https://dc.lft.to/lastmile_qr_scan"}, "is_reserved": 0, "is_disabled": 0, "name": "12ba9bee0e71e9137855d19d0ea2bfe1", "bike_id": "12ba9bee0e71e9137855d19d0ea2bfe1", "fusion_lat": 0.0, "lon": -77.03148716666666, "type": "electric_bike", "fusion_lon": 0.0, "lat": 38.9170995}, {"rental_uris": {"android": "https://dc.lft.to/lastmile_qr_scan", "ios": "https://dc.lft.to/lastmile_qr_scan"}, "is_reserved": 0, "is_disabled": 0, "name": "3f72bb40931cce7caae4bb9310bd7912", "bike_id": "3f72bb40931cce7caae4bb9310bd7912", "fusion_lat": 0.0, "lon": -76.99047783333333, "type": "electric_bike", "fusion_lon": 0.0, "lat": 38.93830833333333}, {"rental_uris": {"android": "https://dc.lft.to/lastmile_qr_scan", "ios": "https://dc.lft.to/lastmile_qr_scan"}, "is_reserved": 0, "is_disabled": 0, "name": "ff197247fbf9e565699e3ef972e54649", "bike_id": "ff197247fbf9e565699e3ef972e54649", "fusion_lat": 0.0, "lon": -77.028635, "type": "electric_scooter", "fusion_lon": 0.0, "lat": 38.916995}, {"rental_uris": {"android": "https://dc.lft.to/lastmile_qr_scan", "ios": "https://dc.lft.to/lastmile_qr_scan"}, "is_reserved": 0, "is_disabled": 0, "name": "e0c868e616a27accb5e408d3ee9f1e5c", "bike_id": "e0c868e616a27accb5e408d3ee9f1e5c", "fusion_lat": 0.0, "lon": -77.04441683333333, "type": "electric_scooter", "fusion_lon": 0.0, "lat": 38.9100945}, {"rental_uris": {"android": "https://dc.lft.to/lastmile_qr_scan", "ios": "https://dc.lft.to/lastmile_qr_scan"}, "is_reserved": 0, "is_disabled": 0, "name": "24124be522f487bbcaa29f8448ad496b", "bike_id": "24124be522f487bbcaa29f8448ad496b", "fusion_lat": 0.0, "lon": -76.98582566666667, "type": "electric_scooter", "fusion_lon": 0.0, "lat": 38.90036816666667}, {"rental_uris": {"android": "https://dc.lft.to/lastmile_qr_scan", "ios": "https://dc.lft.to/lastmile_qr_scan"}, "is_reserved": 0, "is_disabled": 0, "name": "17bb37cea55f3fb3feb4c0cabd9abe98", "bike_id": "17bb37cea55f3fb3feb4c0cabd9abe98", "fusion_lat": 0.0, "lon": -77.03758, "type": "electric_scooter", "fusion_lon": 0.0, "lat": 38.9288445}, {"rental_uris": {"android": "https://dc.lft.to/lastmile_qr_scan", "ios": "https://dc.lft.to/lastmile_qr_scan"}, "is_reserved": 0, "is_disabled": 0, "name": "b15d147ee4320eabdc6b630f03b5583c", "bike_id": "b15d147ee4320eabdc6b630f03b5583c", "fusion_lat": 0.0, "lon": -77.05599383333333, "type": "electric_scooter", "fusion_lon": 0.0, "lat": 38.89424733333333}, {"rental_uris": {"android": "https://dc.lft.to/lastmile_qr_scan", "ios": "https://dc.lft.to/lastmile_qr_scan"}, "is_reserved": 0, "is_disabled": 0, "name": "c6eac5e3f43c74d7a04c832fb801e68f", "bike_id": "c6eac5e3f43c74d7a04c832fb801e68f", "fusion_lat": 0.0, "lon": -77.01336666666667, "type": "electric_scooter", "fusion_lon": 0.0, "lat": 38.88123733333333}, {"rental_uris": {"android": "https://dc.lft.to/lastmile_qr_scan", "ios": "https://dc.lft.to/lastmile_qr_scan"}, "is_reserved": 0, "is_disabled": 0, "name": "af7f455af0ae7f2f5b9dc7808756b463", "bike_id": "af7f455af0ae7f2f5b9dc7808756b463", "fusion_lat": 0.0, "lon": -77.083205, "type": "electric_bike", "fusion_lon": 0.0, "lat": 38.9334815}, {"rental_uris": {"android": "https://dc.lft.to/lastmile_qr_scan", "ios": "https://dc.lft.to/lastmile_qr_scan"}, "is_reserved": 0, "is_disabled": 0, "name": "e945d0f88ddd43152e1e30a504c69768", "bike_id": "e945d0f88ddd43152e1e30a504c69768", "fusion_lat": 0.0, "lon": -77.03006766666667, "type": "electric_scooter", "fusion_lon": 0.0, "lat": 38.89540983333333}, {"rental_uris": {"android": "https://dc.lft.to/lastmile_qr_scan", "ios": "https://dc.lft.to/lastmile_qr_scan"}, "is_reserved": 0, "is_disabled": 0, "name": "af72a33129a35318772e6cc34a7738b4", "bike_id": "af72a33129a35318772e6cc34a7738b4", "fusion_lat": 0.0, "lon": -77.0316505, "type": "electric_scooter", "fusion_lon": 0.0, "lat": 38.894533333333335}, {"rental_uris": {"android": "https://dc.lft.to/lastmile_qr_scan", "ios": "https://dc.lft.to/lastmile_qr_scan"}, "is_reserved": 0, "is_disabled": 0, "name": "6094f3f4fd1af84c95a7d9e0b2590cf1", "bike_id": "6094f3f4fd1af84c95a7d9e0b2590cf1", "fusion_lat": 0.0, "lon": -76.99514033333334, "type": "electric_scooter", "fusion_lon": 0.0, "lat": 38.90257966666667}, {"rental_uris": {"android": "https://dc.lft.to/lastmile_qr_scan", "ios": "https://dc.lft.to/lastmile_qr_scan"}, "is_reserved": 0, "is_disabled": 0, "name": "8b1e1395d9f42e6bd6eb0337d4871695", "bike_id": "8b1e1395d9f42e6bd6eb0337d4871695", "fusion_lat": 0.0, "lon": -77.03462716666667, "type": "electric_scooter", "fusion_lon": 0.0, "lat": 38.90519116666667}, {"rental_uris": {"android": "https://dc.lft.to/lastmile_qr_scan", "ios": "https://dc.lft.to/lastmile_qr_scan"}, "is_reserved": 0, "is_disabled": 0, "name": "c1c7a6da923c601597a19c31ea0f050f", "bike_id": "c1c7a6da923c601597a19c31ea0f050f", "fusion_lat": 0.0, "lon": -77.02136683333333, "type": "electric_scooter", "fusion_lon": 0.0, "lat": 38.894129166666666}, {"rental_uris": {"android": "https://dc.lft.to/lastmile_qr_scan", "ios": "https://dc.lft.to/lastmile_qr_scan"}, "is_reserved": 0, "is_disabled": 0, "name": "b8bb76deba28d9b8b7e024f9e39a80a1", "bike_id": "b8bb76deba28d9b8b7e024f9e39a80a1", "fusion_lat": 0.0, "lon": -77.02486916666666, "type": "electric_scooter", "fusion_lon": 0.0, "lat": 38.920702666666664}, {"rental_uris": {"android": "https://dc.lft.to/lastmile_qr_scan", "ios": "https://dc.lft.to/lastmile_qr_scan"}, "is_reserved": 0, "is_disabled": 0, "name": "8003600d903280a7d67354b17dd8afaa", "bike_id": "8003600d903280a7d67354b17dd8afaa", "fusion_lat": 0.0, "lon": -77.043649, "type": "electric_scooter", "fusion_lon": 0.0, "lat": 38.8994425}, {"rental_uris": {"android": "https://dc.lft.to/lastmile_qr_scan", "ios": "https://dc.lft.to/lastmile_qr_scan"}, "is_reserved": 0, "is_disabled": 0, "name": "3aaa063e27225e4550ba1230177919ed", "bike_id": "3aaa063e27225e4550ba1230177919ed", "fusion_lat": 0.0, "lon": -77.04622216666667, "type": "electric_scooter", "fusion_lon": 0.0, "lat": 38.90219366666667}, {"rental_uris": {"android": "https://dc.lft.to/lastmile_qr_scan", "ios": "https://dc.lft.to/lastmile_qr_scan"}, "is_reserved": 0, "is_disabled": 0, "name": "717c4ac4ed8d5e209fc39bc8f47d5f11", "bike_id": "717c4ac4ed8d5e209fc39bc8f47d5f11", "fusion_lat": 0.0, "lon": -77.0210505, "type": "electric_scooter", "fusion_lon": 0.0, "lat": 38.905622}, {"rental_uris": {"android": "https://dc.lft.to/lastmile_qr_scan", "ios": "https://dc.lft.to/lastmile_qr_scan"}, "is_reserved": 0, "is_disabled": 0, "name": "c1321e26d5cc9c110363ef2db5642e6c", "bike_id": "c1321e26d5cc9c110363ef2db5642e6c", "fusion_lat": 0.0, "lon": -76.99726116666666, "type": "electric_scooter", "fusion_lon": 0.0, "lat": 38.910245333333336}, {"rental_uris": {"android": "https://dc.lft.to/lastmile_qr_scan", "ios": "https://dc.lft.to/lastmile_qr_scan"}, "is_reserved": 0, "is_disabled": 0, "name": "73f42ea465f2a1eaab1f4d45f5392d06", "bike_id": "73f42ea465f2a1eaab1f4d45f5392d06", "fusion_lat": 0.0, "lon": -77.0401975, "type": "electric_scooter", "fusion_lon": 0.0, "lat": 38.89934783333333}, {"rental_uris": {"android": "https://dc.lft.to/lastmile_qr_scan", "ios": "https://dc.lft.to/lastmile_qr_scan"}, "is_reserved": 0, "is_disabled": 0, "name": "9bb5f6c815d38b8ba2b00969e029ec32", "bike_id": "9bb5f6c815d38b8ba2b00969e029ec32", "fusion_lat": 0.0, "lon": -76.99774416666666, "type": "electric_scooter", "fusion_lon": 0.0, "lat": 38.922943833333335}, {"rental_uris": {"android": "https://dc.lft.to/lastmile_qr_scan", "ios": "https://dc.lft.to/lastmile_qr_scan"}, "is_reserved": 0, "is_disabled": 0, "name": "9751242694a8d61437259b4dde87c451", "bike_id": "9751242694a8d61437259b4dde87c451", "fusion_lat": 0.0, "lon": -77.03848866666667, "type": "electric_scooter", "fusion_lon": 0.0, "lat": 38.9026115}, {"rental_uris": {"android": "https://dc.lft.to/lastmile_qr_scan", "ios": "https://dc.lft.to/lastmile_qr_scan"}, "is_reserved": 0, "is_disabled": 0, "name": "147d156137cb51d6d01e00c35d0a5832", "bike_id": "147d156137cb51d6d01e00c35d0a5832", "fusion_lat": 0.0, "lon": -77.0432345, "type": "electric_scooter", "fusion_lon": 0.0, "lat": 38.8922435}, {"rental_uris": {"android": "https://dc.lft.to/lastmile_qr_scan", "ios": "https://dc.lft.to/lastmile_qr_scan"}, "is_reserved": 0, "is_disabled": 0, "name": "db9ffe2b7d9e399f937394a1406b2da1", "bike_id": "db9ffe2b7d9e399f937394a1406b2da1", "fusion_lat": 0.0, "lon": -77.03465966666667, "type": "electric_scooter", "fusion_lon": 0.0, "lat": 38.902766666666665}, {"rental_uris": {"android": "https://dc.lft.to/lastmile_qr_scan", "ios": "https://dc.lft.to/lastmile_qr_scan"}, "is_reserved": 0, "is_disabled": 0, "name": "7fe8f08461b3f9cefac3935fbef1314d", "bike_id": "7fe8f08461b3f9cefac3935fbef1314d", "fusion_lat": 0.0, "lon": -77.04142183333333, "type": "electric_scooter", "fusion_lon": 0.0, "lat": 38.923011833333334}, {"rental_uris": {"android": "https://dc.lft.to/lastmile_qr_scan", "ios": "https://dc.lft.to/lastmile_qr_scan"}, "is_reserved": 0, "is_disabled": 0, "name": "9a85961e61affd81891851aaa623e211", "bike_id": "9a85961e61affd81891851aaa623e211", "fusion_lat": 0.0, "lon": -77.028264, "type": "electric_scooter", "fusion_lon": 0.0, "lat": 38.89898433333333}, {"rental_uris": {"android": "https://dc.lft.to/lastmile_qr_scan", "ios": "https://dc.lft.to/lastmile_qr_scan"}, "is_reserved": 0, "is_disabled": 0, "name": "906498aa0d62b646f6274f4d5f452159", "bike_id": "906498aa0d62b646f6274f4d5f452159", "fusion_lat": 0.0, "lon": -77.04042483333333, "type": "electric_scooter", "fusion_lon": 0.0, "lat": 38.908747166666664}, {"rental_uris": {"android": "https://dc.lft.to/lastmile_qr_scan", "ios": "https://dc.lft.to/lastmile_qr_scan"}, "is_reserved": 0, "is_disabled": 0, "name": "07ea6bb6d792c10c6ad102b2054925c2", "bike_id": "07ea6bb6d792c10c6ad102b2054925c2", "fusion_lat": 0.0, "lon": -77.03181633333334, "type": "electric_scooter", "fusion_lon": 0.0, "lat": 38.9028705}, {"rental_uris": {"android": "https://dc.lft.to/lastmile_qr_scan", "ios": "https://dc.lft.to/lastmile_qr_scan"}, "is_reserved": 0, "is_disabled": 0, "name": "f766daabc0ce88ff507296d3c0f0dd6b", "bike_id": "f766daabc0ce88ff507296d3c0f0dd6b", "fusion_lat": 0.0, "lon": -77.042267, "type": "electric_scooter", "fusion_lon": 0.0, "lat": 38.8998915}, {"rental_uris": {"android": "https://dc.lft.to/lastmile_qr_scan", "ios": "https://dc.lft.to/lastmile_qr_scan"}, "is_reserved": 0, "is_disabled": 0, "name": "46a4593e5e73a9358b8e7137206c3d3a", "bike_id": "46a4593e5e73a9358b8e7137206c3d3a", "fusion_lat": 0.0, "lon": -77.00570533333334, "type": "electric_scooter", "fusion_lon": 0.0, "lat": 38.8850085}, {"rental_uris": {"android": "https://dc.lft.to/lastmile_qr_scan", "ios": "https://dc.lft.to/lastmile_qr_scan"}, "is_reserved": 0, "is_disabled": 0, "name": "119db3c502b64d293b72b6c55821f6c3", "bike_id": "119db3c502b64d293b72b6c55821f6c3", "fusion_lat": 0.0, "lon": -76.99380683333334, "type": "electric_bike", "fusion_lon": 0.0, "lat": 38.99097666666667}, {"rental_uris": {"android": "https://dc.lft.to/lastmile_qr_scan", "ios": "https://dc.lft.to/lastmile_qr_scan"}, "is_reserved": 0, "is_disabled": 0, "name": "0a462d2fc5cb9dd1a89bd7b8a0e3ebf8", "bike_id": "0a462d2fc5cb9dd1a89bd7b8a0e3ebf8", "fusion_lat": 0.0, "lon": -77.066985, "type": "electric_bike", "fusion_lon": 0.0, "lat": 38.8317175}, {"rental_uris": {"android": "https://dc.lft.to/lastmile_qr_scan", "ios": "https://dc.lft.to/lastmile_qr_scan"}, "is_reserved": 0, "is_disabled": 0, "name": "27f94df2c6da7c155e117542500532d4", "bike_id": "27f94df2c6da7c155e117542500532d4", "fusion_lat": 0.0, "lon": -77.00566633333334, "type": "electric_scooter", "fusion_lon": 0.0, "lat": 38.8765765}, {"rental_uris": {"android": "https://dc.lft.to/lastmile_qr_scan", "ios": "https://dc.lft.to/lastmile_qr_scan"}, "is_reserved": 0, "is_disabled": 0, "name": "4f042e4d4d8d937377a6f545aae62012", "bike_id": "4f042e4d4d8d937377a6f545aae62012", "fusion_lat": 0.0, "lon": -77.04007333333334, "type": "electric_scooter", "fusion_lon": 0.0, "lat": 38.934276}, {"rental_uris": {"android": "https://dc.lft.to/lastmile_qr_scan", "ios": "https://dc.lft.to/lastmile_qr_scan"}, "is_reserved": 0, "is_disabled": 0, "name": "1e6421e3deb57954899906728999df3d", "bike_id": "1e6421e3deb57954899906728999df3d", "fusion_lat": 0.0, "lon": -76.93636383333333, "type": "electric_scooter", "fusion_lon": 0.0, "lat": 38.8835045}, {"rental_uris": {"android": "https://dc.lft.to/lastmile_qr_scan", "ios": "https://dc.lft.to/lastmile_qr_scan"}, "is_reserved": 0, "is_disabled": 0, "name": "f3db94ba04c28b3f96f9f8200ba1edbd", "bike_id": "f3db94ba04c28b3f96f9f8200ba1edbd", "fusion_lat": 0.0, "lon": -77.04154816666667, "type": "electric_scooter", "fusion_lon": 0.0, "lat": 38.905086833333336}, {"rental_uris": {"android": "https://dc.lft.to/lastmile_qr_scan", "ios": "https://dc.lft.to/lastmile_qr_scan"}, "is_reserved": 0, "is_disabled": 0, "name": "e0db4c382a57256bb8dad4323145d649", "bike_id": "e0db4c382a57256bb8dad4323145d649", "fusion_lat": 0.0, "lon": -77.02089516666666, "type": "electric_scooter", "fusion_lon": 0.0, "lat": 38.922434333333335}, {"rental_uris": {"android": "https://dc.lft.to/lastmile_qr_scan", "ios": "https://dc.lft.to/lastmile_qr_scan"}, "is_reserved": 0, "is_disabled": 0, "name": "d38de0a7def4c88ac688f71f5b8499eb", "bike_id": "d38de0a7def4c88ac688f71f5b8499eb", "fusion_lat": 0.0, "lon": -77.01451733333333, "type": "electric_scooter", "fusion_lon": 0.0, "lat": 38.87429983333333}, {"rental_uris": {"android": "https://dc.lft.to/lastmile_qr_scan", "ios": "https://dc.lft.to/lastmile_qr_scan"}, "is_reserved": 0, "is_disabled": 0, "name": "029450fe270367775a0a6751f178eb32", "bike_id": "029450fe270367775a0a6751f178eb32", "fusion_lat": 0.0, "lon": -77.03195016666666, "type": "electric_scooter", "fusion_lon": 0.0, "lat": 38.92070366666667}, {"rental_uris": {"android": "https://dc.lft.to/lastmile_qr_scan", "ios": "https://dc.lft.to/lastmile_qr_scan"}, "is_reserved": 0, "is_disabled": 0, "name": "d77ffeda47c16509aee5714e68347574", "bike_id": "d77ffeda47c16509aee5714e68347574", "fusion_lat": 0.0, "lon": -77.04877566666667, "type": "electric_scooter", "fusion_lon": 0.0, "lat": 38.91027166666667}, {"rental_uris": {"android": "https://dc.lft.to/lastmile_qr_scan", "ios": "https://dc.lft.to/lastmile_qr_scan"}, "is_reserved": 0, "is_disabled": 0, "name": "5189f963662a8a2319cad0fd0f323c12", "bike_id": "5189f963662a8a2319cad0fd0f323c12", "fusion_lat": 0.0, "lon": -77.02158633333333, "type": "electric_scooter", "fusion_lon": 0.0, "lat": 38.926042833333334}, {"rental_uris": {"android": "https://dc.lft.to/lastmile_qr_scan", "ios": "https://dc.lft.to/lastmile_qr_scan"}, "is_reserved": 0, "is_disabled": 0, "name": "a505b2142084ade293b15d364e208e43", "bike_id": "a505b2142084ade293b15d364e208e43", "fusion_lat": 0.0, "lon": -77.0872485, "type": "electric_bike", "fusion_lon": 0.0, "lat": 38.862436}, {"rental_uris": {"android": "https://dc.lft.to/lastmile_qr_scan", "ios": "https://dc.lft.to/lastmile_qr_scan"}, "is_reserved": 0, "is_disabled": 0, "name": "1b82019657d6b090a5737507bef9cb03", "bike_id": "1b82019657d6b090a5737507bef9cb03", "fusion_lat": 0.0, "lon": -76.98202233333333, "type": "electric_bike", "fusion_lon": 0.0, "lat": 38.98506883333334}, {"rental_uris": {"android": "https://dc.lft.to/lastmile_qr_scan", "ios": "https://dc.lft.to/lastmile_qr_scan"}, "is_reserved": 0, "is_disabled": 0, "name": "8f2587ca39b4c7d0ca8252d3d4b343a2", "bike_id": "8f2587ca39b4c7d0ca8252d3d4b343a2", "fusion_lat": 0.0, "lon": -77.02020716666667, "type": "electric_scooter", "fusion_lon": 0.0, "lat": 38.924605}, {"rental_uris": {"android": "https://dc.lft.to/lastmile_qr_scan", "ios": "https://dc.lft.to/lastmile_qr_scan"}, "is_reserved": 0, "is_disabled": 0, "name": "9436f56874b1aa76c51e16a3b3344a49", "bike_id": "9436f56874b1aa76c51e16a3b3344a49", "fusion_lat": 0.0, "lon": -77.0059965, "type": "electric_scooter", "fusion_lon": 0.0, "lat": 38.875468833333336}, {"rental_uris": {"android": "https://dc.lft.to/lastmile_qr_scan", "ios": "https://dc.lft.to/lastmile_qr_scan"}, "is_reserved": 0, "is_disabled": 0, "name": "680f361ceb1fe2d24f03f35236edaf68", "bike_id": "680f361ceb1fe2d24f03f35236edaf68", "fusion_lat": 0.0, "lon": -77.02602666666667, "type": "electric_scooter", "fusion_lon": 0.0, "lat": 38.89621266666666}, {"rental_uris": {"android": "https://dc.lft.to/lastmile_qr_scan", "ios": "https://dc.lft.to/lastmile_qr_scan"}, "is_reserved": 0, "is_disabled": 0, "name": "2e2662f411df604cbebffeb1971e940a", "bike_id": "2e2662f411df604cbebffeb1971e940a", "fusion_lat": 0.0, "lon": -77.03566266666667, "type": "electric_scooter", "fusion_lon": 0.0, "lat": 38.924777166666665}, {"rental_uris": {"android": "https://dc.lft.to/lastmile_qr_scan", "ios": "https://dc.lft.to/lastmile_qr_scan"}, "is_reserved": 0, "is_disabled": 0, "name": "929d2a44c1eae3394f20595935c549fa", "bike_id": "929d2a44c1eae3394f20595935c549fa", "fusion_lat": 0.0, "lon": -77.05493233333333, "type": "electric_scooter", "fusion_lon": 0.0, "lat": 38.908432833333336}, {"rental_uris": {"android": "https://dc.lft.to/lastmile_qr_scan", "ios": "https://dc.lft.to/lastmile_qr_scan"}, "is_reserved": 0, "is_disabled": 0, "name": "76f4f4e9852c31ce3268d137703902b9", "bike_id": "76f4f4e9852c31ce3268d137703902b9", "fusion_lat": 0.0, "lon": -77.038424, "type": "electric_scooter", "fusion_lon": 0.0, "lat": 38.904059333333336}, {"rental_uris": {"android": "https://dc.lft.to/lastmile_qr_scan", "ios": "https://dc.lft.to/lastmile_qr_scan"}, "is_reserved": 0, "is_disabled": 0, "name": "19cbded412846536cba10e2a5146c058", "bike_id": "19cbded412846536cba10e2a5146c058", "fusion_lat": 0.0, "lon": -77.02789766666666, "type": "electric_scooter", "fusion_lon": 0.0, "lat": 38.898291}, {"rental_uris": {"android": "https://dc.lft.to/lastmile_qr_scan", "ios": "https://dc.lft.to/lastmile_qr_scan"}, "is_reserved": 0, "is_disabled": 0, "name": "046713109dfd339bf344bed8aa5d5046", "bike_id": "046713109dfd339bf344bed8aa5d5046", "fusion_lat": 0.0, "lon": -77.01800733333333, "type": "electric_scooter", "fusion_lon": 0.0, "lat": 38.913820666666666}, {"rental_uris": {"android": "https://dc.lft.to/lastmile_qr_scan", "ios": "https://dc.lft.to/lastmile_qr_scan"}, "is_reserved": 0, "is_disabled": 0, "name": "94664676ab5539ebbde1d48c87272bbf", "bike_id": "94664676ab5539ebbde1d48c87272bbf", "fusion_lat": 0.0, "lon": -77.03785366666666, "type": "electric_scooter", "fusion_lon": 0.0, "lat": 38.925541833333334}, {"rental_uris": {"android": "https://dc.lft.to/lastmile_qr_scan", "ios": "https://dc.lft.to/lastmile_qr_scan"}, "is_reserved": 0, "is_disabled": 0, "name": "33af15450e78ee94bbd82a283d558388", "bike_id": "33af15450e78ee94bbd82a283d558388", "fusion_lat": 0.0, "lon": -77.01964183333334, "type": "electric_scooter", "fusion_lon": 0.0, "lat": 38.9232475}, {"rental_uris": {"android": "https://dc.lft.to/lastmile_qr_scan", "ios": "https://dc.lft.to/lastmile_qr_scan"}, "is_reserved": 0, "is_disabled": 0, "name": "4006f098db91babda99b318519571d6e", "bike_id": "4006f098db91babda99b318519571d6e", "fusion_lat": 0.0, "lon": -77.05272616666667, "type": "electric_scooter", "fusion_lon": 0.0, "lat": 38.92562133333333}, {"rental_uris": {"android": "https://dc.lft.to/lastmile_qr_scan", "ios": "https://dc.lft.to/lastmile_qr_scan"}, "is_reserved": 0, "is_disabled": 0, "name": "9d15290f1fd0f8ced380403cd4064ea9", "bike_id": "9d15290f1fd0f8ced380403cd4064ea9", "fusion_lat": 0.0, "lon": -77.12837616666667, "type": "electric_bike", "fusion_lon": 0.0, "lat": 38.80053366666667}, {"rental_uris": {"android": "https://dc.lft.to/lastmile_qr_scan", "ios": "https://dc.lft.to/lastmile_qr_scan"}, "is_reserved": 0, "is_disabled": 0, "name": "766161760d9578af10371f188e0969c2", "bike_id": "766161760d9578af10371f188e0969c2", "fusion_lat": 0.0, "lon": -77.00796716666666, "type": "electric_scooter", "fusion_lon": 0.0, "lat": 38.9524305}, {"rental_uris": {"android": "https://dc.lft.to/lastmile_qr_scan", "ios": "https://dc.lft.to/lastmile_qr_scan"}, "is_reserved": 0, "is_disabled": 0, "name": "5ed5488501223c00daf4abf6e6c80262", "bike_id": "5ed5488501223c00daf4abf6e6c80262", "fusion_lat": 0.0, "lon": -77.04510816666667, "type": "electric_bike", "fusion_lon": 0.0, "lat": 38.90336333333333}, {"rental_uris": {"android": "https://dc.lft.to/lastmile_qr_scan", "ios": "https://dc.lft.to/lastmile_qr_scan"}, "is_reserved": 0, "is_disabled": 0, "name": "5f3ff3865d74ab52dd1608573cd4993a", "bike_id": "5f3ff3865d74ab52dd1608573cd4993a", "fusion_lat": 0.0, "lon": -77.019942, "type": "electric_scooter", "fusion_lon": 0.0, "lat": 38.87604816666666}, {"rental_uris": {"android": "https://dc.lft.to/lastmile_qr_scan", "ios": "https://dc.lft.to/lastmile_qr_scan"}, "is_reserved": 0, "is_disabled": 0, "name": "dbd0f6f9c3ed26b72735a3e7bbb23cd3", "bike_id": "dbd0f6f9c3ed26b72735a3e7bbb23cd3", "fusion_lat": 0.0, "lon": -77.00711666666666, "type": "electric_scooter", "fusion_lon": 0.0, "lat": 38.884922}, {"rental_uris": {"android": "https://dc.lft.to/lastmile_qr_scan", "ios": "https://dc.lft.to/lastmile_qr_scan"}, "is_reserved": 0, "is_disabled": 0, "name": "353f716f161cb2cec66fcf7d4aaaf048", "bike_id": "353f716f161cb2cec66fcf7d4aaaf048", "fusion_lat": 0.0, "lon": -77.00159666666667, "type": "electric_scooter", "fusion_lon": 0.0, "lat": 38.919110833333335}, {"rental_uris": {"android": "https://dc.lft.to/lastmile_qr_scan", "ios": "https://dc.lft.to/lastmile_qr_scan"}, "is_reserved": 0, "is_disabled": 0, "name": "e366db65b9275a934cd4b877e2b0c130", "bike_id": "e366db65b9275a934cd4b877e2b0c130", "fusion_lat": 0.0, "lon": -77.03078133333334, "type": "electric_scooter", "fusion_lon": 0.0, "lat": 38.89996133333333}, {"rental_uris": {"android": "https://dc.lft.to/lastmile_qr_scan", "ios": "https://dc.lft.to/lastmile_qr_scan"}, "is_reserved": 0, "is_disabled": 0, "name": "d11bdbe91b581bdccd54b52aa900b16b", "bike_id": "d11bdbe91b581bdccd54b52aa900b16b", "fusion_lat": 0.0, "lon": -77.0451885, "type": "electric_scooter", "fusion_lon": 0.0, "lat": 38.902374333333334}, {"rental_uris": {"android": "https://dc.lft.to/lastmile_qr_scan", "ios": "https://dc.lft.to/lastmile_qr_scan"}, "is_reserved": 0, "is_disabled": 0, "name": "b08af3b160067511e700dd737a63a092", "bike_id": "b08af3b160067511e700dd737a63a092", "fusion_lat": 0.0, "lon": -77.032943, "type": "electric_scooter", "fusion_lon": 0.0, "lat": 38.95613066666667}, {"rental_uris": {"android": "https://dc.lft.to/lastmile_qr_scan", "ios": "https://dc.lft.to/lastmile_qr_scan"}, "is_reserved": 0, "is_disabled": 0, "name": "3a8d56f4c4a440954d18aaa4b2f2ebfc", "bike_id": "3a8d56f4c4a440954d18aaa4b2f2ebfc", "fusion_lat": 0.0, "lon": -77.02333616666667, "type": "electric_scooter", "fusion_lon": 0.0, "lat": 38.922334166666666}, {"rental_uris": {"android": "https://dc.lft.to/lastmile_qr_scan", "ios": "https://dc.lft.to/lastmile_qr_scan"}, "is_reserved": 0, "is_disabled": 0, "name": "620a850eff00d86fae1fcd78958e4eb5", "bike_id": "620a850eff00d86fae1fcd78958e4eb5", "fusion_lat": 0.0, "lon": -77.03337833333333, "type": "electric_bike", "fusion_lon": 0.0, "lat": 38.899114}, {"rental_uris": {"android": "https://dc.lft.to/lastmile_qr_scan", "ios": "https://dc.lft.to/lastmile_qr_scan"}, "is_reserved": 0, "is_disabled": 0, "name": "87ad63c11c037204f96192e9d7a68f86", "bike_id": "87ad63c11c037204f96192e9d7a68f86", "fusion_lat": 0.0, "lon": -77.03206566666667, "type": "electric_scooter", "fusion_lon": 0.0, "lat": 38.892339}, {"rental_uris": {"android": "https://dc.lft.to/lastmile_qr_scan", "ios": "https://dc.lft.to/lastmile_qr_scan"}, "is_reserved": 0, "is_disabled": 0, "name": "c37830a4cbf56a29ee559f49703442cd", "bike_id": "c37830a4cbf56a29ee559f49703442cd", "fusion_lat": 0.0, "lon": -77.0465235, "type": "electric_scooter", "fusion_lon": 0.0, "lat": 38.90328383333333}, {"rental_uris": {"android": "https://dc.lft.to/lastmile_qr_scan", "ios": "https://dc.lft.to/lastmile_qr_scan"}, "is_reserved": 0, "is_disabled": 0, "name": "974643d1fdd2514231332e8de439014c", "bike_id": "974643d1fdd2514231332e8de439014c", "fusion_lat": 0.0, "lon": -77.023038, "type": "electric_scooter", "fusion_lon": 0.0, "lat": 38.899894833333335}, {"rental_uris": {"android": "https://dc.lft.to/lastmile_qr_scan", "ios": "https://dc.lft.to/lastmile_qr_scan"}, "is_reserved": 0, "is_disabled": 0, "name": "3e3ac90ef4667e2d1abe175b0e8c7d3c", "bike_id": "3e3ac90ef4667e2d1abe175b0e8c7d3c", "fusion_lat": 0.0, "lon": -77.03198416666666, "type": "electric_scooter", "fusion_lon": 0.0, "lat": 38.9165615}, {"rental_uris": {"android": "https://dc.lft.to/lastmile_qr_scan", "ios": "https://dc.lft.to/lastmile_qr_scan"}, "is_reserved": 0, "is_disabled": 0, "name": "530bc4540bf74b494d4ff8c2d83f2fd2", "bike_id": "530bc4540bf74b494d4ff8c2d83f2fd2", "fusion_lat": 0.0, "lon": -77.039501, "type": "electric_scooter", "fusion_lon": 0.0, "lat": 38.901511166666666}, {"rental_uris": {"android": "https://dc.lft.to/lastmile_qr_scan", "ios": "https://dc.lft.to/lastmile_qr_scan"}, "is_reserved": 0, "is_disabled": 0, "name": "7373e3505470f54a2f2c2e18b94d6351", "bike_id": "7373e3505470f54a2f2c2e18b94d6351", "fusion_lat": 0.0, "lon": -76.91723066666667, "type": "electric_bike", "fusion_lon": 0.0, "lat": 38.8802655}, {"rental_uris": {"android": "https://dc.lft.to/lastmile_qr_scan", "ios": "https://dc.lft.to/lastmile_qr_scan"}, "is_reserved": 0, "is_disabled": 0, "name": "a65e8d64027e75032b092357b778dd57", "bike_id": "a65e8d64027e75032b092357b778dd57", "fusion_lat": 0.0, "lon": -77.02587466666667, "type": "electric_scooter", "fusion_lon": 0.0, "lat": 38.926769166666666}, {"rental_uris": {"android": "https://dc.lft.to/lastmile_qr_scan", "ios": "https://dc.lft.to/lastmile_qr_scan"}, "is_reserved": 0, "is_disabled": 0, "name": "933de42c66927ddbf02f5b3f8e28d992", "bike_id": "933de42c66927ddbf02f5b3f8e28d992", "fusion_lat": 0.0, "lon": -77.02550066666667, "type": "electric_scooter", "fusion_lon": 0.0, "lat": 38.94830616666667}, {"rental_uris": {"android": "https://dc.lft.to/lastmile_qr_scan", "ios": "https://dc.lft.to/lastmile_qr_scan"}, "is_reserved": 0, "is_disabled": 0, "name": "9ed9fd47a4db471f6087dde5a2331850", "bike_id": "9ed9fd47a4db471f6087dde5a2331850", "fusion_lat": 0.0, "lon": -77.0434495, "type": "electric_scooter", "fusion_lon": 0.0, "lat": 38.92348833333333}, {"rental_uris": {"android": "https://dc.lft.to/lastmile_qr_scan", "ios": "https://dc.lft.to/lastmile_qr_scan"}, "is_reserved": 0, "is_disabled": 0, "name": "31c157eb0e077fd90c09845a34874216", "bike_id": "31c157eb0e077fd90c09845a34874216", "fusion_lat": 0.0, "lon": -77.03205966666667, "type": "electric_scooter", "fusion_lon": 0.0, "lat": 38.907601166666666}, {"rental_uris": {"android": "https://dc.lft.to/lastmile_qr_scan", "ios": "https://dc.lft.to/lastmile_qr_scan"}, "is_reserved": 0, "is_disabled": 0, "name": "89638cb411a6586fd52322e629b1c9e8", "bike_id": "89638cb411a6586fd52322e629b1c9e8", "fusion_lat": 0.0, "lon": -77.024153, "type": "electric_scooter", "fusion_lon": 0.0, "lat": 38.933547833333336}, {"rental_uris": {"android": "https://dc.lft.to/lastmile_qr_scan", "ios": "https://dc.lft.to/lastmile_qr_scan"},