{"data": {"bikes": [{"name": "1ee8221a8ae13052b0fc8aa05de2255e", "is_disabled": 0, "lat": 38.90326016666667, "rental_uris": {"ios": "https://dc.lft.to/lastmile_qr_scan", "android": "https://dc.lft.to/lastmile_qr_scan"}, "bike_id": "1ee8221a8ae13052b0fc8aa05de2255e", "type": "electric_scooter", "lon": -77.041739, "is_reserved": 0, "fusion_lat": 0.0, "fusion_lon": 0.0}, {"name": "4892a2e2c434380609be9442ab5f49f4", "is_disabled": 0, "lat": 38.898315, "rental_uris": {"ios": "https://dc.lft.to/lastmile_qr_scan", "android": "https://dc.lft.to/lastmile_qr_scan"}, "bike_id": "4892a2e2c434380609be9442ab5f49f4", "type": "electric_scooter", "lon": -76.94636833333334, "is_reserved": 0, "fusion_lat": 0.0, "fusion_lon": 0.0}, {"name": "f52fb1b96ced1f8ee0d624e2e93c872f", "is_disabled": 0, "lat": 38.922419, "rental_uris": {"ios": "https://dc.lft.to/lastmile_qr_scan", "android": "https://dc.lft.to/lastmile_qr_scan"}, "bike_id": "f52fb1b96ced1f8ee0d624e2e93c872f", "type": "electric_scooter", "lon": -77.01952016666667, "is_reserved": 0, "fusion_lat": 0.0, "fusion_lon": 0.0}, {"name": "0d90c21665ae7059c6f21f89a7445325", "is_disabled": 0, "lat": 38.881154333333335, "rental_uris": {"ios": "https://dc.lft.to/lastmile_qr_scan", "android": "https://dc.lft.to/lastmile_qr_scan"}, "bike_id": "0d90c21665ae7059c6f21f89a7445325", "type": "electric_bike", "lon": -76.9871075, "is_reserved": 0, "fusion_lat": 0.0, "fusion_lon": 0.0}, {"name": "38c89e349249e55c2ead4fb41a671c45", "is_disabled": 0, "lat": 38.901702666666665, "rental_uris": {"ios": "https://dc.lft.to/lastmile_qr_scan", "android": "https://dc.lft.to/lastmile_qr_scan"}, "bike_id": "38c89e349249e55c2ead4fb41a671c45", "type": "electric_scooter", "lon": -77.02499216666666, "is_reserved": 0, "fusion_lat": 0.0, "fusion_lon": 0.0}, {"name": "740e268b042fbd29cd3824adfb6d0358", "is_disabled": 0, "lat": 38.900616666666664, "rental_uris": {"ios": "https://dc.lft.to/lastmile_qr_scan", "android": "https://dc.lft.to/lastmile_qr_scan"}, "bike_id": "740e268b042fbd29cd3824adfb6d0358", "type": "electric_scooter", "lon": -76.933851, "is_reserved": 0, "fusion_lat": 0.0, "fusion_lon": 0.0}, {"name": "7ddb7f0724293105aed7801dc3467923", "is_disabled": 0, "lat": 38.89714516666667, "rental_uris": {"ios": "https://dc.lft.to/lastmile_qr_scan", "android": "https://dc.lft.to/lastmile_qr_scan"}, "bike_id": "7ddb7f0724293105aed7801dc3467923", "type": "electric_scooter", "lon": -77.0273425, "is_reserved": 0, "fusion_lat": 0.0, "fusion_lon": 0.0}, {"name": "bf28f3ef86cba54077e855bbfd9b100b", "is_disabled": 0, "lat": 38.905033, "rental_uris": {"ios": "https://dc.lft.to/lastmile_qr_scan", "android": "https://dc.lft.to/lastmile_qr_scan"}, "bike_id": "bf28f3ef86cba54077e855bbfd9b100b", "type": "electric_scooter", "lon": -77.04826716666666, "is_reserved": 0, "fusion_lat": 0.0, "fusion_lon": 0.0}, {"name": "d8c07c140ce2d054ccb883a7e785f3a2", "is_disabled": 0, "lat": 38.902209166666665, "rental_uris": {"ios": "https://dc.lft.to/lastmile_qr_scan", "android": "https://dc.lft.to/lastmile_qr_scan"}, "bike_id": "d8c07c140ce2d054ccb883a7e785f3a2", "type": "electric_scooter", "lon": -77.0162695, "is_reserved": 0, "fusion_lat": 0.0, "fusion_lon": 0.0}, {"name": "ad5c94acff78419383b4a091986ef5e5", "is_disabled": 0, "lat": 38.876515, "rental_uris": {"ios": "https://dc.lft.to/lastmile_qr_scan", "android": "https://dc.lft.to/lastmile_qr_scan"}, "bike_id": "ad5c94acff78419383b4a091986ef5e5", "type": "electric_scooter", "lon": -77.00079416666667, "is_reserved": 0, "fusion_lat": 0.0, "fusion_lon": 0.0}, {"name": "4fb015eaa92585cddc4ebd3caf803019", "is_disabled": 0, "lat": 38.90386183333333, "rental_uris": {"ios": "https://dc.lft.to/lastmile_qr_scan", "android": "https://dc.lft.to/lastmile_qr_scan"}, "bike_id": "4fb015eaa92585cddc4ebd3caf803019", "type": "electric_scooter", "lon": -77.03220583333334, "is_reserved": 0, "fusion_lat": 0.0, "fusion_lon": 0.0}, {"name": "ba092efd0bcd190d4d864667a67e854a", "is_disabled": 0, "lat": 38.917477833333336, "rental_uris": {"ios": "https://dc.lft.to/lastmile_qr_scan", "android": "https://dc.lft.to/lastmile_qr_scan"}, "bike_id": "ba092efd0bcd190d4d864667a67e854a", "type": "electric_scooter", "lon": -77.0416615, "is_reserved": 0, "fusion_lat": 0.0, "fusion_lon": 0.0}, {"name": "2632eb508b9af15fb13470aa51e6a9c5", "is_disabled": 0, "lat": 38.9073575, "rental_uris": {"ios": "https://dc.lft.to/lastmile_qr_scan", "android": "https://dc.lft.to/lastmile_qr_scan"}, "bike_id": "2632eb508b9af15fb13470aa51e6a9c5", "type": "electric_scooter", "lon": -77.0433305, "is_reserved": 0, "fusion_lat": 0.0, "fusion_lon": 0.0}, {"name": "6083d50e5d21b6f5235f1e98d1dcb843", "is_disabled": 0, "lat": 38.89639966666667, "rental_uris": {"ios": "https://dc.lft.to/lastmile_qr_scan", "android": "https://dc.lft.to/lastmile_qr_scan"}, "bike_id": "6083d50e5d21b6f5235f1e98d1dcb843", "type": "electric_scooter", "lon": -77.02595316666667, "is_reserved": 0, "fusion_lat": 0.0, "fusion_lon": 0.0}, {"name": "b039c9af37b89bca5887d04641c81650", "is_disabled": 0, "lat": 38.90393516666666, "rental_uris": {"ios": "https://dc.lft.to/lastmile_qr_scan", "android": "https://dc.lft.to/lastmile_qr_scan"}, "bike_id": "b039c9af37b89bca5887d04641c81650", "type": "electric_scooter", "lon": -77.04319283333334, "is_reserved": 0, "fusion_lat": 0.0, "fusion_lon": 0.0}, {"name": "01456c42226eaa5f0940f847f76f2e75", "is_disabled": 0, "lat": 38.923708500000004, "rental_uris": {"ios": "https://dc.lft.to/lastmile_qr_scan", "android": "https://dc.lft.to/lastmile_qr_scan"}, "bike_id": "01456c42226eaa5f0940f847f76f2e75", "type": "electric_scooter", "lon": -77.0353345, "is_reserved": 0, "fusion_lat": 0.0, "fusion_lon": 0.0}, {"name": "0b90d7d1abab1b9d8cc0b07f52797f05", "is_disabled": 0, "lat": 38.87747983333333, "rental_uris": {"ios": "https://dc.lft.to/lastmile_qr_scan", "android": "https://dc.lft.to/lastmile_qr_scan"}, "bike_id": "0b90d7d1abab1b9d8cc0b07f52797f05", "type": "electric_scooter", "lon": -77.00596883333333, "is_reserved": 0, "fusion_lat": 0.0, "fusion_lon": 0.0}, {"name": "3efe1f52f3849bd455599627653913c1", "is_disabled": 0, "lat": 38.921458333333334, "rental_uris": {"ios": "https://dc.lft.to/lastmile_qr_scan", "android": "https://dc.lft.to/lastmile_qr_scan"}, "bike_id": "3efe1f52f3849bd455599627653913c1", "type": "electric_scooter", "lon": -76.99363266666667, "is_reserved": 0, "fusion_lat": 0.0, "fusion_lon": 0.0}, {"name": "4e6168c981fe1e97b5f416b6731583c4", "is_disabled": 0, "lat": 38.9140385, "rental_uris": {"ios": "https://dc.lft.to/lastmile_qr_scan", "android": "https://dc.lft.to/lastmile_qr_scan"}, "bike_id": "4e6168c981fe1e97b5f416b6731583c4", "type": "electric_scooter", "lon": -77.0187575, "is_reserved": 0, "fusion_lat": 0.0, "fusion_lon": 0.0}, {"name": "f4adc45ba2f885f47c73d614eeabd137", "is_disabled": 0, "lat": 38.898980333333334, "rental_uris": {"ios": "https://dc.lft.to/lastmile_qr_scan", "android": "https://dc.lft.to/lastmile_qr_scan"}, "bike_id": "f4adc45ba2f885f47c73d614eeabd137", "type": "electric_scooter", "lon": -77.039706, "is_reserved": 0, "fusion_lat": 0.0, "fusion_lon": 0.0}, {"name": "103454de8c59e4f527c926a14c024eae", "is_disabled": 0, "lat": 38.89655166666667, "rental_uris": {"ios": "https://dc.lft.to/lastmile_qr_scan", "android": "https://dc.lft.to/lastmile_qr_scan"}, "bike_id": "103454de8c59e4f527c926a14c024eae", "type": "electric_scooter", "lon": -77.033516, "is_reserved": 0, "fusion_lat": 0.0, "fusion_lon": 0.0}, {"name": "b7ae269b1b16395fa9b0caa8bbe5bbc1", "is_disabled": 0, "lat": 38.900149666666664, "rental_uris": {"ios": "https://dc.lft.to/lastmile_qr_scan", "android": "https://dc.lft.to/lastmile_qr_scan"}, "bike_id": "b7ae269b1b16395fa9b0caa8bbe5bbc1", "type": "electric_scooter", "lon": -76.998529, "is_reserved": 0, "fusion_lat": 0.0, "fusion_lon": 0.0}, {"name": "c51d5cf3b7cbea35f8a8617efd3bb656", "is_disabled": 0, "lat": 38.86366016666667, "rental_uris": {"ios": "https://dc.lft.to/lastmile_qr_scan", "android": "https://dc.lft.to/lastmile_qr_scan"}, "bike_id": "c51d5cf3b7cbea35f8a8617efd3bb656", "type": "electric_scooter", "lon": -77.0136695, "is_reserved": 0, "fusion_lat": 0.0, "fusion_lon": 0.0}, {"name": "d1422068e7b7ed5d893b14efef805fe3", "is_disabled": 0, "lat": 38.96450316666667, "rental_uris": {"ios": "https://dc.lft.to/lastmile_qr_scan", "android": "https://dc.lft.to/lastmile_qr_scan"}, "bike_id": "d1422068e7b7ed5d893b14efef805fe3", "type": "electric_bike", "lon": -77.02243166666666, "is_reserved": 0, "fusion_lat": 0.0, "fusion_lon": 0.0}, {"name": "ff28f3b4023e4534fa044e0287d78790", "is_disabled": 0, "lat": 38.90686, "rental_uris": {"ios": "https://dc.lft.to/lastmile_qr_scan", "android": "https://dc.lft.to/lastmile_qr_scan"}, "bike_id": "ff28f3b4023e4534fa044e0287d78790", "type": "electric_scooter", "lon": -77.03823833333334, "is_reserved": 0, "fusion_lat": 0.0, "fusion_lon": 0.0}, {"name": "6be282b38c87f55288936363a75f8cd4", "is_disabled": 0, "lat": 38.91862033333334, "rental_uris": {"ios": "https://dc.lft.to/lastmile_qr_scan", "android": "https://dc.lft.to/lastmile_qr_scan"}, "bike_id": "6be282b38c87f55288936363a75f8cd4", "type": "electric_scooter", "lon": -77.0365615, "is_reserved": 0, "fusion_lat": 0.0, "fusion_lon": 0.0}, {"name": "c1f4e422af1f4547ccde62934d2effcf", "is_disabled": 0, "lat": 38.92162533333333, "rental_uris": {"ios": "https://dc.lft.to/lastmile_qr_scan", "android": "https://dc.lft.to/lastmile_qr_scan"}, "bike_id": "c1f4e422af1f4547ccde62934d2effcf", "type": "electric_scooter", "lon": -77.02105016666667, "is_reserved": 0, "fusion_lat": 0.0, "fusion_lon": 0.0}, {"name": "fe1af81f3be07889073fcf08060ccdb3", "is_disabled": 0, "lat": 38.923295833333334, "rental_uris": {"ios": "https://dc.lft.to/lastmile_qr_scan", "android": "https://dc.lft.to/lastmile_qr_scan"}, "bike_id": "fe1af81f3be07889073fcf08060ccdb3", "type": "electric_scooter", "lon": -77.04615833333334, "is_reserved": 0, "fusion_lat": 0.0, "fusion_lon": 0.0}, {"name": "1c294163172f7ad43658c0a605e2bf9d", "is_disabled": 0, "lat": 38.9241395, "rental_uris": {"ios": "https://dc.lft.to/lastmile_qr_scan", "android": "https://dc.lft.to/lastmile_qr_scan"}, "bike_id": "1c294163172f7ad43658c0a605e2bf9d", "type": "electric_scooter", "lon": -77.065279, "is_reserved": 0, "fusion_lat": 0.0, "fusion_lon": 0.0}, {"name": "d10dae556bdf8d011e451c155f440d46", "is_disabled": 0, "lat": 38.90304366666667, "rental_uris": {"ios": "https://dc.lft.to/lastmile_qr_scan", "android": "https://dc.lft.to/lastmile_qr_scan"}, "bike_id": "d10dae556bdf8d011e451c155f440d46", "type": "electric_scooter", "lon": -77.0489505, "is_reserved": 0, "fusion_lat": 0.0, "fusion_lon": 0.0}, {"name": "759bba0bd994bc15b1b105503f6abc04", "is_disabled": 0, "lat": 38.906027, "rental_uris": {"ios": "https://dc.lft.to/lastmile_qr_scan", "android": "https://dc.lft.to/lastmile_qr_scan"}, "bike_id": "759bba0bd994bc15b1b105503f6abc04", "type": "electric_scooter", "lon": -77.00575433333333, "is_reserved": 0, "fusion_lat": 0.0, "fusion_lon": 0.0}, {"name": "32d664884561bf068169cf0c7a271d69", "is_disabled": 0, "lat": 38.90009716666667, "rental_uris": {"ios": "https://dc.lft.to/lastmile_qr_scan", "android": "https://dc.lft.to/lastmile_qr_scan"}, "bike_id": "32d664884561bf068169cf0c7a271d69", "type": "electric_scooter", "lon": -77.00069633333334, "is_reserved": 0, "fusion_lat": 0.0, "fusion_lon": 0.0}, {"name": "02b12be7f7e63cf583f8ccaf50174a97", "is_disabled": 0, "lat": 38.9162265, "rental_uris": {"ios": "https://dc.lft.to/lastmile_qr_scan", "android": "https://dc.lft.to/lastmile_qr_scan"}, "bike_id": "02b12be7f7e63cf583f8ccaf50174a97", "type": "electric_scooter", "lon": -77.03175333333333, "is_reserved": 0, "fusion_lat": 0.0, "fusion_lon": 0.0}, {"name": "7333319fa3058bb7b1850ccee4a6b754", "is_disabled": 0, "lat": 38.9173295, "rental_uris": {"ios": "https://dc.lft.to/lastmile_qr_scan", "android": "https://dc.lft.to/lastmile_qr_scan"}, "bike_id": "7333319fa3058bb7b1850ccee4a6b754", "type": "electric_scooter", "lon": -77.02805366666666, "is_reserved": 0, "fusion_lat": 0.0, "fusion_lon": 0.0}, {"name": "f2a1c0c4fd72176e58a3a4c5961420b5", "is_disabled": 0, "lat": 38.9143775, "rental_uris": {"ios": "https://dc.lft.to/lastmile_qr_scan", "android": "https://dc.lft.to/lastmile_qr_scan"}, "bike_id": "f2a1c0c4fd72176e58a3a4c5961420b5", "type": "electric_scooter", "lon": -77.04481066666666, "is_reserved": 0, "fusion_lat": 0.0, "fusion_lon": 0.0}, {"name": "a56013f88a5253f377345fc08c5297ac", "is_disabled": 0, "lat": 38.90575316666666, "rental_uris": {"ios": "https://dc.lft.to/lastmile_qr_scan", "android": "https://dc.lft.to/lastmile_qr_scan"}, "bike_id": "a56013f88a5253f377345fc08c5297ac", "type": "electric_scooter", "lon": -77.0089075, "is_reserved": 0, "fusion_lat": 0.0, "fusion_lon": 0.0}, {"name": "75c2bf3540bb716a849d17bc74fe880f", "is_disabled": 0, "lat": 38.89950233333333, "rental_uris": {"ios": "https://dc.lft.to/lastmile_qr_scan", "android": "https://dc.lft.to/lastmile_qr_scan"}, "bike_id": "75c2bf3540bb716a849d17bc74fe880f", "type": "electric_scooter", "lon": -76.98564083333333, "is_reserved": 0, "fusion_lat": 0.0, "fusion_lon": 0.0}, {"name": "5f253b2fb8697eece6c4bf002e8c77d8", "is_disabled": 0, "lat": 38.95509933333334, "rental_uris": {"ios": "https://dc.lft.to/lastmile_qr_scan", "android": "https://dc.lft.to/lastmile_qr_scan"}, "bike_id": "5f253b2fb8697eece6c4bf002e8c77d8", "type": "electric_bike", "lon": -77.0292075, "is_reserved": 0, "fusion_lat": 0.0, "fusion_lon": 0.0}, {"name": "4206df8794c6aaa79b61abbd5d318a8a", "is_disabled": 0, "lat": 38.889846666666664, "rental_uris": {"ios": "https://dc.lft.to/lastmile_qr_scan", "android": "https://dc.lft.to/lastmile_qr_scan"}, "bike_id": "4206df8794c6aaa79b61abbd5d318a8a", "type": "electric_scooter", "lon": -76.91417, "is_reserved": 0, "fusion_lat": 0.0, "fusion_lon": 0.0}, {"name": "79f7c551ee76cc9f3c76be1f5cba20c1", "is_disabled": 0, "lat": 38.905509333333335, "rental_uris": {"ios": "https://dc.lft.to/lastmile_qr_scan", "android": "https://dc.lft.to/lastmile_qr_scan"}, "bike_id": "79f7c551ee76cc9f3c76be1f5cba20c1", "type": "electric_scooter", "lon": -77.03980383333334, "is_reserved": 0, "fusion_lat": 0.0, "fusion_lon": 0.0}, {"name": "acb3dc795e54ff8d683f4b7f29d3f4eb", "is_disabled": 0, "lat": 38.9606195, "rental_uris": {"ios": "https://dc.lft.to/lastmile_qr_scan", "android": "https://dc.lft.to/lastmile_qr_scan"}, "bike_id": "acb3dc795e54ff8d683f4b7f29d3f4eb", "type": "electric_bike", "lon": -76.94167783333333, "is_reserved": 0, "fusion_lat": 0.0, "fusion_lon": 0.0}, {"name": "f7bf73579c95d7a4005737961088269b", "is_disabled": 0, "lat": 38.931526833333336, "rental_uris": {"ios": "https://dc.lft.to/lastmile_qr_scan", "android": "https://dc.lft.to/lastmile_qr_scan"}, "bike_id": "f7bf73579c95d7a4005737961088269b", "type": "electric_scooter", "lon": -77.07853483333334, "is_reserved": 0, "fusion_lat": 0.0, "fusion_lon": 0.0}, {"name": "c110e51bc81c612a4f588fddc49da08c", "is_disabled": 0, "lat": 38.921669, "rental_uris": {"ios": "https://dc.lft.to/lastmile_qr_scan", "android": "https://dc.lft.to/lastmile_qr_scan"}, "bike_id": "c110e51bc81c612a4f588fddc49da08c", "type": "electric_scooter", "lon": -77.043624, "is_reserved": 0, "fusion_lat": 0.0, "fusion_lon": 0.0}, {"name": "7785aaccc763422d1063bd4cdec245cd", "is_disabled": 0, "lat": 38.912160666666665, "rental_uris": {"ios": "https://dc.lft.to/lastmile_qr_scan", "android": "https://dc.lft.to/lastmile_qr_scan"}, "bike_id": "7785aaccc763422d1063bd4cdec245cd", "type": "electric_scooter", "lon": -77.03203966666666, "is_reserved": 0, "fusion_lat": 0.0, "fusion_lon": 0.0}, {"name": "e92acaa4bb65408cc5b93ed64220f015", "is_disabled": 0, "lat": 38.918052, "rental_uris": {"ios": "https://dc.lft.to/lastmile_qr_scan", "android": "https://dc.lft.to/lastmile_qr_scan"}, "bike_id": "e92acaa4bb65408cc5b93ed64220f015", "type": "electric_scooter", "lon": -77.040332, "is_reserved": 0, "fusion_lat": 0.0, "fusion_lon": 0.0}, {"name": "10b3eec3af841a55e422c15335c1b195", "is_disabled": 0, "lat": 38.901673, "rental_uris": {"ios": "https://dc.lft.to/lastmile_qr_scan", "android": "https://dc.lft.to/lastmile_qr_scan"}, "bike_id": "10b3eec3af841a55e422c15335c1b195", "type": "electric_scooter", "lon": -77.02481666666667, "is_reserved": 0, "fusion_lat": 0.0, "fusion_lon": 0.0}, {"name": "c75ea56ec7fcf2b1cb00cc674548487e", "is_disabled": 0, "lat": 38.9029015, "rental_uris": {"ios": "https://dc.lft.to/lastmile_qr_scan", "android": "https://dc.lft.to/lastmile_qr_scan"}, "bike_id": "c75ea56ec7fcf2b1cb00cc674548487e", "type": "electric_scooter", "lon": -77.03471866666666, "is_reserved": 0, "fusion_lat": 0.0, "fusion_lon": 0.0}, {"name": "216956742aa38057eb6f60288f801514", "is_disabled": 0, "lat": 38.91178016666667, "rental_uris": {"ios": "https://dc.lft.to/lastmile_qr_scan", "android": "https://dc.lft.to/lastmile_qr_scan"}, "bike_id": "216956742aa38057eb6f60288f801514", "type": "electric_scooter", "lon": -77.01117083333334, "is_reserved": 0, "fusion_lat": 0.0, "fusion_lon": 0.0}, {"name": "e50a6badd032e2ac10cbaf9141aa5bcd", "is_disabled": 0, "lat": 38.900362333333334, "rental_uris": {"ios": "https://dc.lft.to/lastmile_qr_scan", "android": "https://dc.lft.to/lastmile_qr_scan"}, "bike_id": "e50a6badd032e2ac10cbaf9141aa5bcd", "type": "electric_scooter", "lon": -76.988427, "is_reserved": 0, "fusion_lat": 0.0, "fusion_lon": 0.0}, {"name": "feb68c21fdb150680de405aa5bb9259e", "is_disabled": 0, "lat": 38.91502116666667, "rental_uris": {"ios": "https://dc.lft.to/lastmile_qr_scan", "android": "https://dc.lft.to/lastmile_qr_scan"}, "bike_id": "feb68c21fdb150680de405aa5bb9259e", "type": "electric_scooter", "lon": -77.03208333333333, "is_reserved": 0, "fusion_lat": 0.0, "fusion_lon": 0.0}, {"name": "87167e216f557bd34593c85ef0bf7d58", "is_disabled": 0, "lat": 38.924561833333335, "rental_uris": {"ios": "https://dc.lft.to/lastmile_qr_scan", "android": "https://dc.lft.to/lastmile_qr_scan"}, "bike_id": "87167e216f557bd34593c85ef0bf7d58", "type": "electric_scooter", "lon": -76.971038, "is_reserved": 0, "fusion_lat": 0.0, "fusion_lon": 0.0}, {"name": "43ebaa594d204e941486838037e54c70", "is_disabled": 0, "lat": 38.89885616666667, "rental_uris": {"ios": "https://dc.lft.to/lastmile_qr_scan", "android": "https://dc.lft.to/lastmile_qr_scan"}, "bike_id": "43ebaa594d204e941486838037e54c70", "type": "electric_scooter", "lon": -76.93175366666667, "is_reserved": 0, "fusion_lat": 0.0, "fusion_lon": 0.0}, {"name": "a809c15b6ae99212dc20238c9b9689b1", "is_disabled": 0, "lat": 38.934454, "rental_uris": {"ios": "https://dc.lft.to/lastmile_qr_scan", "android": "https://dc.lft.to/lastmile_qr_scan"}, "bike_id": "a809c15b6ae99212dc20238c9b9689b1", "type": "electric_scooter", "lon": -77.05781866666666, "is_reserved": 0, "fusion_lat": 0.0, "fusion_lon": 0.0}, {"name": "5f8ff19dd0733140f6e494899d7829b2", "is_disabled": 0, "lat": 38.898322, "rental_uris": {"ios": "https://dc.lft.to/lastmile_qr_scan", "android": "https://dc.lft.to/lastmile_qr_scan"}, "bike_id": "5f8ff19dd0733140f6e494899d7829b2", "type": "electric_scooter", "lon": -76.9463305, "is_reserved": 0, "fusion_lat": 0.0, "fusion_lon": 0.0}, {"name": "09b69a5f070244056528446a7d897c14", "is_disabled": 0, "lat": 38.900227666666666, "rental_uris": {"ios": "https://dc.lft.to/lastmile_qr_scan", "android": "https://dc.lft.to/lastmile_qr_scan"}, "bike_id": "09b69a5f070244056528446a7d897c14", "type": "electric_scooter", "lon": -77.012143, "is_reserved": 0, "fusion_lat": 0.0, "fusion_lon": 0.0}, {"name": "2798324623fb111e1c3990ede610e673", "is_disabled": 0, "lat": 38.905425, "rental_uris": {"ios": "https://dc.lft.to/lastmile_qr_scan", "android": "https://dc.lft.to/lastmile_qr_scan"}, "bike_id": "2798324623fb111e1c3990ede610e673", "type": "electric_scooter", "lon": -77.04955, "is_reserved": 0, "fusion_lat": 0.0, "fusion_lon": 0.0}, {"name": "950c46c93d14a7d0d41aee78c61d5e83", "is_disabled": 0, "lat": 38.932233833333335, "rental_uris": {"ios": "https://dc.lft.to/lastmile_qr_scan", "android": "https://dc.lft.to/lastmile_qr_scan"}, "bike_id": "950c46c93d14a7d0d41aee78c61d5e83", "type": "electric_scooter", "lon": -76.99493083333333, "is_reserved": 0, "fusion_lat": 0.0, "fusion_lon": 0.0}, {"name": "2d83ce1d47c399834ad0fb7bbb3dcc91", "is_disabled": 0, "lat": 38.973620333333336, "rental_uris": {"ios": "https://dc.lft.to/lastmile_qr_scan", "android": "https://dc.lft.to/lastmile_qr_scan"}, "bike_id": "2d83ce1d47c399834ad0fb7bbb3dcc91", "type": "electric_scooter", "lon": -77.0185355, "is_reserved": 0, "fusion_lat": 0.0, "fusion_lon": 0.0}, {"name": "cc41b1467209ef3527484b2e0d604e16", "is_disabled": 0, "lat": 38.927935833333336, "rental_uris": {"ios": "https://dc.lft.to/lastmile_qr_scan", "android": "https://dc.lft.to/lastmile_qr_scan"}, "bike_id": "cc41b1467209ef3527484b2e0d604e16", "type": "electric_scooter", "lon": -77.0211105, "is_reserved": 0, "fusion_lat": 0.0, "fusion_lon": 0.0}, {"name": "79de0680020e84836399dc4b27e5bee4", "is_disabled": 0, "lat": 38.9011565, "rental_uris": {"ios": "https://dc.lft.to/lastmile_qr_scan", "android": "https://dc.lft.to/lastmile_qr_scan"}, "bike_id": "79de0680020e84836399dc4b27e5bee4", "type": "electric_scooter", "lon": -77.02611366666666, "is_reserved": 0, "fusion_lat": 0.0, "fusion_lon": 0.0}, {"name": "718f9f075e6fcabc5bc7a397743c2e08", "is_disabled": 0, "lat": 38.921466, "rental_uris": {"ios": "https://dc.lft.to/lastmile_qr_scan", "android": "https://dc.lft.to/lastmile_qr_scan"}, "bike_id": "718f9f075e6fcabc5bc7a397743c2e08", "type": "electric_scooter", "lon": -76.9935765, "is_reserved": 0, "fusion_lat": 0.0, "fusion_lon": 0.0}, {"name": "648143b2ce6dd0c7e169c0668e8b1877", "is_disabled": 0, "lat": 38.92602433333333, "rental_uris": {"ios": "https://dc.lft.to/lastmile_qr_scan", "android": "https://dc.lft.to/lastmile_qr_scan"}, "bike_id": "648143b2ce6dd0c7e169c0668e8b1877", "type": "electric_scooter", "lon": -77.0215585, "is_reserved": 0, "fusion_lat": 0.0, "fusion_lon": 0.0}, {"name": "d4096149faa719a44d1f4543315b5021", "is_disabled": 0, "lat": 38.9275345, "rental_uris": {"ios": "https://dc.lft.to/lastmile_qr_scan", "android": "https://dc.lft.to/lastmile_qr_scan"}, "bike_id": "d4096149faa719a44d1f4543315b5021", "type": "electric_scooter", "lon": -77.05267233333333, "is_reserved": 0, "fusion_lat": 0.0, "fusion_lon": 0.0}, {"name": "3dd8aacb08705a3e4e3a68a672e12f8a", "is_disabled": 0, "lat": 38.92784533333333, "rental_uris": {"ios": "https://dc.lft.to/lastmile_qr_scan", "android": "https://dc.lft.to/lastmile_qr_scan"}, "bike_id": "3dd8aacb08705a3e4e3a68a672e12f8a", "type": "electric_scooter", "lon": -77.05319883333334, "is_reserved": 0, "fusion_lat": 0.0, "fusion_lon": 0.0}, {"name": "1e2a720b4b9f77f7e03b504ca91cd952", "is_disabled": 0, "lat": 38.90344916666667, "rental_uris": {"ios": "https://dc.lft.to/lastmile_qr_scan", "android": "https://dc.lft.to/lastmile_qr_scan"}, "bike_id": "1e2a720b4b9f77f7e03b504ca91cd952", "type": "electric_scooter", "lon": -77.03928633333334, "is_reserved": 0, "fusion_lat": 0.0, "fusion_lon": 0.0}, {"name": "4849c1a6d905441ca10b5758fb7c4b09", "is_disabled": 0, "lat": 38.92513483333333, "rental_uris": {"ios": "https://dc.lft.to/lastmile_qr_scan", "android": "https://dc.lft.to/lastmile_qr_scan"}, "bike_id": "4849c1a6d905441ca10b5758fb7c4b09", "type": "electric_scooter", "lon": -77.05040166666667, "is_reserved": 0, "fusion_lat": 0.0, "fusion_lon": 0.0}, {"name": "d67e93d6929d01bce4650ad1ddff0722", "is_disabled": 0, "lat": 38.903089333333334, "rental_uris": {"ios": "https://dc.lft.to/lastmile_qr_scan", "android": "https://dc.lft.to/lastmile_qr_scan"}, "bike_id": "d67e93d6929d01bce4650ad1ddff0722", "type": "electric_scooter", "lon": -77.00567883333333, "is_reserved": 0, "fusion_lat": 0.0, "fusion_lon": 0.0}, {"name": "39462be5a7ebe0352ad393fb6776d97d", "is_disabled": 0, "lat": 38.932653, "rental_uris": {"ios": "https://dc.lft.to/lastmile_qr_scan", "android": "https://dc.lft.to/lastmile_qr_scan"}, "bike_id": "39462be5a7ebe0352ad393fb6776d97d", "type": "electric_scooter", "lon": -77.01921166666666, "is_reserved": 0, "fusion_lat": 0.0, "fusion_lon": 0.0}, {"name": "bb94a7c4f730994ff76f0f852db6aeb8", "is_disabled": 0, "lat": 38.892200333333335, "rental_uris": {"ios": "https://dc.lft.to/lastmile_qr_scan", "android": "https://dc.lft.to/lastmile_qr_scan"}, "bike_id": "bb94a7c4f730994ff76f0f852db6aeb8", "type": "electric_scooter", "lon": -77.04330366666667, "is_reserved": 0, "fusion_lat": 0.0, "fusion_lon": 0.0}, {"name": "099d8ac1268cdb5294eb45b8a4458d5b", "is_disabled": 0, "lat": 38.90810316666666, "rental_uris": {"ios": "https://dc.lft.to/lastmile_qr_scan", "android": "https://dc.lft.to/lastmile_qr_scan"}, "bike_id": "099d8ac1268cdb5294eb45b8a4458d5b", "type": "electric_scooter", "lon": -77.04180116666667, "is_reserved": 0, "fusion_lat": 0.0, "fusion_lon": 0.0}, {"name": "692ba0639c3aa3f13c7cd2f5aed12bff", "is_disabled": 0, "lat": 38.929230833333335, "rental_uris": {"ios": "https://dc.lft.to/lastmile_qr_scan", "android": "https://dc.lft.to/lastmile_qr_scan"}, "bike_id": "692ba0639c3aa3f13c7cd2f5aed12bff", "type": "electric_scooter", "lon": -77.03252666666667, "is_reserved": 0, "fusion_lat": 0.0, "fusion_lon": 0.0}, {"name": "31bcae532f6c54a55318df2e95802514", "is_disabled": 0, "lat": 38.908734, "rental_uris": {"ios": "https://dc.lft.to/lastmile_qr_scan", "android": "https://dc.lft.to/lastmile_qr_scan"}, "bike_id": "31bcae532f6c54a55318df2e95802514", "type": "electric_scooter", "lon": -77.02360883333333, "is_reserved": 0, "fusion_lat": 0.0, "fusion_lon": 0.0}, {"name": "2e7dddc115ac38906f7c7d3809540167", "is_disabled": 0, "lat": 38.92136266666667, "rental_uris": {"ios": "https://dc.lft.to/lastmile_qr_scan", "android": "https://dc.lft.to/lastmile_qr_scan"}, "bike_id": "2e7dddc115ac38906f7c7d3809540167", "type": "electric_scooter", "lon": -77.0193455, "is_reserved": 0, "fusion_lat": 0.0, "fusion_lon": 0.0}, {"name": "53a11d8fae05ba7c7ef1d125244f5c95", "is_disabled": 0, "lat": 38.891752333333336, "rental_uris": {"ios": "https://dc.lft.to/lastmile_qr_scan", "android": "https://dc.lft.to/lastmile_qr_scan"}, "bike_id": "53a11d8fae05ba7c7ef1d125244f5c95", "type": "electric_scooter", "lon": -76.92653466666667, "is_reserved": 0, "fusion_lat": 0.0, "fusion_lon": 0.0}, {"name": "f294211cb415a50344da53b54d5f9521", "is_disabled": 0, "lat": 38.9001045, "rental_uris": {"ios": "https://dc.lft.to/lastmile_qr_scan", "android": "https://dc.lft.to/lastmile_qr_scan"}, "bike_id": "f294211cb415a50344da53b54d5f9521", "type": "electric_scooter", "lon": -77.044982, "is_reserved": 0, "fusion_lat": 0.0, "fusion_lon": 0.0}, {"name": "f1ccbe9be4d1697619ea4a673e9fcb7d", "is_disabled": 0, "lat": 38.93450516666667, "rental_uris": {"ios": "https://dc.lft.to/lastmile_qr_scan", "android": "https://dc.lft.to/lastmile_qr_scan"}, "bike_id": "f1ccbe9be4d1697619ea4a673e9fcb7d", "type": "electric_scooter", "lon": -77.03869716666667, "is_reserved": 0, "fusion_lat": 0.0, "fusion_lon": 0.0}, {"name": "c04ed0e924be7bab85aed8ff8bc2218c", "is_disabled": 0, "lat": 38.897211666666664, "rental_uris": {"ios": "https://dc.lft.to/lastmile_qr_scan", "android": "https://dc.lft.to/lastmile_qr_scan"}, "bike_id": "c04ed0e924be7bab85aed8ff8bc2218c", "type": "electric_scooter", "lon": -77.00346583333334, "is_reserved": 0, "fusion_lat": 0.0, "fusion_lon": 0.0}, {"name": "59ce56fc70b653a6fe40d5074ce7f332", "is_disabled": 0, "lat": 38.900270166666665, "rental_uris": {"ios": "https://dc.lft.to/lastmile_qr_scan", "android": "https://dc.lft.to/lastmile_qr_scan"}, "bike_id": "59ce56fc70b653a6fe40d5074ce7f332", "type": "electric_scooter", "lon": -76.99143866666667, "is_reserved": 0, "fusion_lat": 0.0, "fusion_lon": 0.0}, {"name": "40462772b432bee8d9073f2ba16ec486", "is_disabled": 0, "lat": 38.916949333333335, "rental_uris": {"ios": "https://dc.lft.to/lastmile_qr_scan", "android": "https://dc.lft.to/lastmile_qr_scan"}, "bike_id": "40462772b432bee8d9073f2ba16ec486", "type": "electric_scooter", "lon": -77.02741733333333, "is_reserved": 0, "fusion_lat": 0.0, "fusion_lon": 0.0}, {"name": "e9dad15cc60665c69e755bddf4ed308d", "is_disabled": 0, "lat": 38.9168815, "rental_uris": {"ios": "https://dc.lft.to/lastmile_qr_scan", "android": "https://dc.lft.to/lastmile_qr_scan"}, "bike_id": "e9dad15cc60665c69e755bddf4ed308d", "type": "electric_scooter", "lon": -77.02645133333333, "is_reserved": 0, "fusion_lat": 0.0, "fusion_lon": 0.0}, {"name": "8a529f63106a673164600dccd2baa2a1", "is_disabled": 0, "lat": 38.909493833333336, "rental_uris": {"ios": "https://dc.lft.to/lastmile_qr_scan", "android": "https://dc.lft.to/lastmile_qr_scan"}, "bike_id": "8a529f63106a673164600dccd2baa2a1", "type": "electric_scooter", "lon": -77.02717, "is_reserved": 0, "fusion_lat": 0.0, "fusion_lon": 0.0}, {"name": "4ff8dc2ace11a8b5be43581cc516bd2d", "is_disabled": 0, "lat": 38.94674416666667, "rental_uris": {"ios": "https://dc.lft.to/lastmile_qr_scan", "android": "https://dc.lft.to/lastmile_qr_scan"}, "bike_id": "4ff8dc2ace11a8b5be43581cc516bd2d", "type": "electric_bike", "lon": -76.95676433333334, "is_reserved": 0, "fusion_lat": 0.0, "fusion_lon": 0.0}, {"name": "55ad545c1fdd5c2be916a7bd9c942e84", "is_disabled": 0, "lat": 38.89222566666667, "rental_uris": {"ios": "https://dc.lft.to/lastmile_qr_scan", "android": "https://dc.lft.to/lastmile_qr_scan"}, "bike_id": "55ad545c1fdd5c2be916a7bd9c942e84", "type": "electric_scooter", "lon": -77.04504166666666, "is_reserved": 0, "fusion_lat": 0.0, "fusion_lon": 0.0}, {"name": "79086ef41b4b1da74e683c564a7c7d45", "is_disabled": 0, "lat": 38.94011916666667, "rental_uris": {"ios": "https://dc.lft.to/lastmile_qr_scan", "android": "https://dc.lft.to/lastmile_qr_scan"}, "bike_id": "79086ef41b4b1da74e683c564a7c7d45", "type": "electric_scooter", "lon": -77.0252985, "is_reserved": 0, "fusion_lat": 0.0, "fusion_lon": 0.0}, {"name": "5a4b408e968993783d0ce32ba090e0fc", "is_disabled": 0, "lat": 38.90346683333333, "rental_uris": {"ios": "https://dc.lft.to/lastmile_qr_scan", "android": "https://dc.lft.to/lastmile_qr_scan"}, "bike_id": "5a4b408e968993783d0ce32ba090e0fc", "type": "electric_scooter", "lon": -77.03425, "is_reserved": 0, "fusion_lat": 0.0, "fusion_lon": 0.0}, {"name": "3388654472d2feef1ed7988d2377dc0b", "is_disabled": 0, "lat": 38.9028195, "rental_uris": {"ios": "https://dc.lft.to/lastmile_qr_scan", "android": "https://dc.lft.to/lastmile_qr_scan"}, "bike_id": "3388654472d2feef1ed7988d2377dc0b", "type": "electric_scooter", "lon": -77.03844016666666, "is_reserved": 0, "fusion_lat": 0.0, "fusion_lon": 0.0}, {"name": "12b80a6d6b65bf20f64a0ae46f8d483a", "is_disabled": 0, "lat": 38.908419333333335, "rental_uris": {"ios": "https://dc.lft.to/lastmile_qr_scan", "android": "https://dc.lft.to/lastmile_qr_scan"}, "bike_id": "12b80a6d6b65bf20f64a0ae46f8d483a", "type": "electric_bike", "lon": -77.04405766666666, "is_reserved": 0, "fusion_lat": 0.0, "fusion_lon": 0.0}, {"name": "66b69b3bd3b2078236d85d1cb3f2c254", "is_disabled": 0, "lat": 38.90682266666666, "rental_uris": {"ios": "https://dc.lft.to/lastmile_qr_scan", "android": "https://dc.lft.to/lastmile_qr_scan"}, "bike_id": "66b69b3bd3b2078236d85d1cb3f2c254", "type": "electric_scooter", "lon": -77.0366975, "is_reserved": 0, "fusion_lat": 0.0, "fusion_lon": 0.0}, {"name": "6eb1d4202c8875ae0ec2c7c75991f73e", "is_disabled": 0, "lat": 38.90557183333333, "rental_uris": {"ios": "https://dc.lft.to/lastmile_qr_scan", "android": "https://dc.lft.to/lastmile_qr_scan"}, "bike_id": "6eb1d4202c8875ae0ec2c7c75991f73e", "type": "electric_scooter", "lon": -77.00596433333334, "is_reserved": 0, "fusion_lat": 0.0, "fusion_lon": 0.0}, {"name": "060130862b7c97e1535f03d54d09c812", "is_disabled": 0, "lat": 38.907110333333335, "rental_uris": {"ios": "https://dc.lft.to/lastmile_qr_scan", "android": "https://dc.lft.to/lastmile_qr_scan"}, "bike_id": "060130862b7c97e1535f03d54d09c812", "type": "electric_scooter", "lon": -77.02716833333334, "is_reserved": 0, "fusion_lat": 0.0, "fusion_lon": 0.0}, {"name": "64b663dff7284ee900f6629f00e3c00f", "is_disabled": 0, "lat": 38.92457266666667, "rental_uris": {"ios": "https://dc.lft.to/lastmile_qr_scan", "android": "https://dc.lft.to/lastmile_qr_scan"}, "bike_id": "64b663dff7284ee900f6629f00e3c00f", "type": "electric_scooter", "lon": -77.039501, "is_reserved": 0, "fusion_lat": 0.0, "fusion_lon": 0.0}, {"name": "68b807bfb156ccb8fd4d6aa8d913242c", "is_disabled": 0, "lat": 38.93244883333333, "rental_uris": {"ios": "https://dc.lft.to/lastmile_qr_scan", "android": "https://dc.lft.to/lastmile_qr_scan"}, "bike_id": "68b807bfb156ccb8fd4d6aa8d913242c", "type": "electric_scooter", "lon": -77.02976833333334, "is_reserved": 0, "fusion_lat": 0.0, "fusion_lon": 0.0}, {"name": "b97f895e5860258b3effdfb0df2dfa56", "is_disabled": 0, "lat": 38.88745383333333, "rental_uris": {"ios": "https://dc.lft.to/lastmile_qr_scan", "android": "https://dc.lft.to/lastmile_qr_scan"}, "bike_id": "b97f895e5860258b3effdfb0df2dfa56", "type": "electric_scooter", "lon": -77.01777183333333, "is_reserved": 0, "fusion_lat": 0.0, "fusion_lon": 0.0}, {"name": "7583639abe3968b08c400fc78273b9c2", "is_disabled": 0, "lat": 38.89963733333333, "rental_uris": {"ios": "https://dc.lft.to/lastmile_qr_scan", "android": "https://dc.lft.to/lastmile_qr_scan"}, "bike_id": "7583639abe3968b08c400fc78273b9c2", "type": "electric_scooter", "lon": -77.04515883333333, "is_reserved": 0, "fusion_lat": 0.0, "fusion_lon": 0.0}, {"name": "893b9977999dc83c7c9b9a13a41b0092", "is_disabled": 0, "lat": 38.91405683333333, "rental_uris": {"ios": "https://dc.lft.to/lastmile_qr_scan", "android": "https://dc.lft.to/lastmile_qr_scan"}, "bike_id": "893b9977999dc83c7c9b9a13a41b0092", "type": "electric_scooter", "lon": -77.024865, "is_reserved": 0, "fusion_lat": 0.0, "fusion_lon": 0.0}, {"name": "38171f5c73281bc7425a079f844c16a0", "is_disabled": 0, "lat": 38.9202985, "rental_uris": {"ios": "https://dc.lft.to/lastmile_qr_scan", "android": "https://dc.lft.to/lastmile_qr_scan"}, "bike_id": "38171f5c73281bc7425a079f844c16a0", "type": "electric_scooter", "lon": -76.98993316666666, "is_reserved": 0, "fusion_lat": 0.0, "fusion_lon": 0.0}, {"name": "30004006fbda37865decda4a849b056a", "is_disabled": 0, "lat": 38.901316666666666, "rental_uris": {"ios": "https://dc.lft.to/lastmile_qr_scan", "android": "https://dc.lft.to/lastmile_qr_scan"}, "bike_id": "30004006fbda37865decda4a849b056a", "type": "electric_scooter", "lon": -77.04173283333333, "is_reserved": 0, "fusion_lat": 0.0, "fusion_lon": 0.0}, {"name": "2fcc1f7fd5284086ee720919b737202b", "is_disabled": 0, "lat": 38.902306833333334, "rental_uris": {"ios": "https://dc.lft.to/lastmile_qr_scan", "android": "https://dc.lft.to/lastmile_qr_scan"}, "bike_id": "2fcc1f7fd5284086ee720919b737202b", "type": "electric_scooter", "lon": -77.04574883333333, "is_reserved": 0, "fusion_lat": 0.0, "fusion_lon": 0.0}, {"name": "7581169b20f11a89abe1f788b50e0f91", "is_disabled": 0, "lat": 38.887322166666664, "rental_uris": {"ios": "https://dc.lft.to/lastmile_qr_scan", "android": "https://dc.lft.to/lastmile_qr_scan"}, "bike_id": "7581169b20f11a89abe1f788b50e0f91", "type": "electric_scooter", "lon": -77.0212555, "is_reserved": 0, "fusion_lat": 0.0, "fusion_lon": 0.0}, {"name": "a4e87dc3d61645ec69f763f6990ec6ea", "is_disabled": 0, "lat": 38.93244933333333, "rental_uris": {"ios": "https://dc.lft.to/lastmile_qr_scan", "android": "https://dc.lft.to/lastmile_qr_scan"}, "bike_id": "a4e87dc3d61645ec69f763f6990ec6ea", "type": "electric_scooter", "lon": -77.0294805, "is_reserved": 0, "fusion_lat": 0.0, "fusion_lon": 0.0}, {"name": "1f437bb365f2524ecd73c63df1b5e234", "is_disabled": 0, "lat": 38.927039, "rental_uris": {"ios": "https://dc.lft.to/lastmile_qr_scan", "android": "https://dc.lft.to/lastmile_qr_scan"}, "bike_id": "1f437bb365f2524ecd73c63df1b5e234", "type": "electric_scooter", "lon": -77.05375216666667, "is_reserved": 0, "fusion_lat": 0.0, "fusion_lon": 0.0}, {"name": "2c41772c156539913cf93eb763d9089d", "is_disabled": 0, "lat": 38.962352, "rental_uris": {"ios": "https://dc.lft.to/lastmile_qr_scan", "android": "https://dc.lft.to/lastmile_qr_scan"}, "bike_id": "2c41772c156539913cf93eb763d9089d", "type": "electric_bike", "lon": -76.9280455, "is_reserved": 0, "fusion_lat": 0.0, "fusion_lon": 0.0}, {"name": "99baedf0fac8de26b988f99e0a0d6d38", "is_disabled": 0, "lat": 38.89723816666667, "rental_uris": {"ios": "https://dc.lft.to/lastmile_qr_scan", "android": "https://dc.lft.to/lastmile_qr_scan"}, "bike_id": "99baedf0fac8de26b988f99e0a0d6d38", "type": "electric_scooter", "lon": -77.01871166666666, "is_reserved": 0, "fusion_lat": 0.0, "fusion_lon": 0.0}, {"name": "2987bb1afa905f0c6778f40c56bbd3ab", "is_disabled": 0, "lat": 38.90006316666667, "rental_uris": {"ios": "https://dc.lft.to/lastmile_qr_scan", "android": "https://dc.lft.to/lastmile_qr_scan"}, "bike_id": "2987bb1afa905f0c6778f40c56bbd3ab", "type": "electric_scooter", "lon": -77.0402295, "is_reserved": 0, "fusion_lat": 0.0, "fusion_lon": 0.0}, {"name": "ee8ccd1949d8be2f11c911835f2d4d84", "is_disabled": 0, "lat": 38.9055035, "rental_uris": {"ios": "https://dc.lft.to/lastmile_qr_scan", "android": "https://dc.lft.to/lastmile_qr_scan"}, "bike_id": "ee8ccd1949d8be2f11c911835f2d4d84", "type": "electric_scooter", "lon": -77.00599633333333, "is_reserved": 0, "fusion_lat": 0.0, "fusion_lon": 0.0}, {"name": "44882b8539ceefcc59abefca4e799d6e", "is_disabled": 0, "lat": 38.919273, "rental_uris": {"ios": "https://dc.lft.to/lastmile_qr_scan", "android": "https://dc.lft.to/lastmile_qr_scan"}, "bike_id": "44882b8539ceefcc59abefca4e799d6e", "type": "electric_scooter", "lon": -77.030448, "is_reserved": 0, "fusion_lat": 0.0, "fusion_lon": 0.0}, {"name": "681899e25671081da591f6d5ab1c3657", "is_disabled": 0, "lat": 38.8945325, "rental_uris": {"ios": "https://dc.lft.to/lastmile_qr_scan", "android": "https://dc.lft.to/lastmile_qr_scan"}, "bike_id": "681899e25671081da591f6d5ab1c3657", "type": "electric_scooter", "lon": -76.9781435, "is_reserved": 0, "fusion_lat": 0.0, "fusion_lon": 0.0}, {"name": "d7f56c0953a66508644532cc50431f42", "is_disabled": 0, "lat": 38.90034416666667, "rental_uris": {"ios": "https://dc.lft.to/lastmile_qr_scan", "android": "https://dc.lft.to/lastmile_qr_scan"}, "bike_id": "d7f56c0953a66508644532cc50431f42", "type": "electric_scooter", "lon": -77.034834, "is_reserved": 0, "fusion_lat": 0.0, "fusion_lon": 0.0}, {"name": "7b9f417ba3651335df2716164519a060", "is_disabled": 0, "lat": 38.90730533333333, "rental_uris": {"ios": "https://dc.lft.to/lastmile_qr_scan", "android": "https://dc.lft.to/lastmile_qr_scan"}, "bike_id": "7b9f417ba3651335df2716164519a060", "type": "electric_scooter", "lon": -77.0416225, "is_reserved": 0, "fusion_lat": 0.0, "fusion_lon": 0.0}, {"name": "712f312fe3ad9f95070d7c0b344ddad4", "is_disabled": 0, "lat": 38.92066833333333, "rental_uris": {"ios": "https://dc.lft.to/lastmile_qr_scan", "android": "https://dc.lft.to/lastmile_qr_scan"}, "bike_id": "712f312fe3ad9f95070d7c0b344ddad4", "type": "electric_scooter", "lon": -77.02224183333334, "is_reserved": 0, "fusion_lat": 0.0, "fusion_lon": 0.0}, {"name": "794fd1b2771e02fdf2689d6ca40b8775", "is_disabled": 0, "lat": 38.928762666666664, "rental_uris": {"ios": "https://dc.lft.to/lastmile_qr_scan", "android": "https://dc.lft.to/lastmile_qr_scan"}, "bike_id": "794fd1b2771e02fdf2689d6ca40b8775", "type": "electric_scooter", "lon": -77.03252333333333, "is_reserved": 0, "fusion_lat": 0.0, "fusion_lon": 0.0}, {"name": "b5c3bded1d92e9b30e6c6a4ad175438d", "is_disabled": 0, "lat": 38.903679, "rental_uris": {"ios": "https://dc.lft.to/lastmile_qr_scan", "android": "https://dc.lft.to/lastmile_qr_scan"}, "bike_id": "b5c3bded1d92e9b30e6c6a4ad175438d", "type": "electric_scooter", "lon": -77.04312733333333, "is_reserved": 0, "fusion_lat": 0.0, "fusion_lon": 0.0}, {"name": "0aa6c8e14dd311fd4f68d448e2eae9a5", "is_disabled": 0, "lat": 38.887303833333334, "rental_uris": {"ios": "https://dc.lft.to/lastmile_qr_scan", "android": "https://dc.lft.to/lastmile_qr_scan"}, "bike_id": "0aa6c8e14dd311fd4f68d448e2eae9a5", "type": "electric_scooter", "lon": -77.02384166666667, "is_reserved": 0, "fusion_lat": 0.0, "fusion_lon": 0.0}, {"name": "321e7f62ec0ddfe3a7b598e36f1fc16d", "is_disabled": 0, "lat": 38.89895033333333, "rental_uris": {"ios": "https://dc.lft.to/lastmile_qr_scan", "android": "https://dc.lft.to/lastmile_qr_scan"}, "bike_id": "321e7f62ec0ddfe3a7b598e36f1fc16d", "type": "electric_scooter", "lon": -77.03971033333333, "is_reserved": 0, "fusion_lat": 0.0, "fusion_lon": 0.0}, {"name": "8c4c1deaed74c8986281b991c437a318", "is_disabled": 0, "lat": 38.91470233333333, "rental_uris": {"ios": "https://dc.lft.to/lastmile_qr_scan", "android": "https://dc.lft.to/lastmile_qr_scan"}, "bike_id": "8c4c1deaed74c8986281b991c437a318", "type": "electric_scooter", "lon": -77.03846366666667, "is_reserved": 0, "fusion_lat": 0.0, "fusion_lon": 0.0}, {"name": "5126ad469faa736db72aa62440a6b5c8", "is_disabled": 0, "lat": 38.917979, "rental_uris": {"ios": "https://dc.lft.to/lastmile_qr_scan", "android": "https://dc.lft.to/lastmile_qr_scan"}, "bike_id": "5126ad469faa736db72aa62440a6b5c8", "type": "electric_scooter", "lon": -77.02706366666666, "is_reserved": 0, "fusion_lat": 0.0, "fusion_lon": 0.0}, {"name": "c7733c6f58f7e1cb3be9768dbcd1a9a8", "is_disabled": 0, "lat": 38.90258, "rental_uris": {"ios": "https://dc.lft.to/lastmile_qr_scan", "android": "https://dc.lft.to/lastmile_qr_scan"}, "bike_id": "c7733c6f58f7e1cb3be9768dbcd1a9a8", "type": "electric_scooter", "lon": -77.05331366666667, "is_reserved": 0, "fusion_lat": 0.0, "fusion_lon": 0.0}, {"name": "fc29e3e35bacee9f3d96c9a97a94e7de", "is_disabled": 0, "lat": 38.93044966666667, "rental_uris": {"ios": "https://dc.lft.to/lastmile_qr_scan", "android": "https://dc.lft.to/lastmile_qr_scan"}, "bike_id": "fc29e3e35bacee9f3d96c9a97a94e7de", "type": "electric_scooter", "lon": -77.0326585, "is_reserved": 0, "fusion_lat": 0.0, "fusion_lon": 0.0}, {"name": "3cd6409136e7276cba2074906cf3ac81", "is_disabled": 0, "lat": 38.879033166666666, "rental_uris": {"ios": "https://dc.lft.to/lastmile_qr_scan", "android": "https://dc.lft.to/lastmile_qr_scan"}, "bike_id": "3cd6409136e7276cba2074906cf3ac81", "type": "electric_scooter", "lon": -77.00570216666667, "is_reserved": 0, "fusion_lat": 0.0, "fusion_lon": 0.0}, {"name": "989d7a1313f92c1b5729cd4d7c806aa3", "is_disabled": 0, "lat": 38.89717916666667, "rental_uris": {"ios": "https://dc.lft.to/lastmile_qr_scan", "android": "https://dc.lft.to/lastmile_qr_scan"}, "bike_id": "989d7a1313f92c1b5729cd4d7c806aa3", "type": "electric_scooter", "lon": -77.02994583333333, "is_reserved": 0, "fusion_lat": 0.0, "fusion_lon": 0.0}, {"name": "ef207e0a7b2b2a02e8a605a99b70c8b3", "is_disabled": 0, "lat": 38.910199666666664, "rental_uris": {"ios": "https://dc.lft.to/lastmile_qr_scan", "android": "https://dc.lft.to/lastmile_qr_scan"}, "bike_id": "ef207e0a7b2b2a02e8a605a99b70c8b3", "type": "electric_scooter", "lon": -77.04254933333333, "is_reserved": 0, "fusion_lat": 0.0, "fusion_lon": 0.0}, {"name": "ea9d09720ece74ce8909d138f3a6c8d0", "is_disabled": 0, "lat": 38.907814, "rental_uris": {"ios": "https://dc.lft.to/lastmile_qr_scan", "android": "https://dc.lft.to/lastmile_qr_scan"}, "bike_id": "ea9d09720ece74ce8909d138f3a6c8d0", "type": "electric_scooter", "lon": -76.9939455, "is_reserved": 0, "fusion_lat": 0.0, "fusion_lon": 0.0}, {"name": "bc0d1ff48d8aed9eb6621f3e3afa36b9", "is_disabled": 0, "lat": 38.89470166666667, "rental_uris": {"ios": "https://dc.lft.to/lastmile_qr_scan", "android": "https://dc.lft.to/lastmile_qr_scan"}, "bike_id": "bc0d1ff48d8aed9eb6621f3e3afa36b9", "type": "electric_scooter", "lon": -77.003126, "is_reserved": 0, "fusion_lat": 0.0, "fusion_lon": 0.0}, {"name": "b5f161fa3437fb69ccf66f3d5c6922f8", "is_disabled": 0, "lat": 38.9311725, "rental_uris": {"ios": "https://dc.lft.to/lastmile_qr_scan", "android": "https://dc.lft.to/lastmile_qr_scan"}, "bike_id": "b5f161fa3437fb69ccf66f3d5c6922f8", "type": "electric_scooter", "lon": -77.02099616666666, "is_reserved": 0, "fusion_lat": 0.0, "fusion_lon": 0.0}, {"name": "8345f2222b5834859733932b5a570354", "is_disabled": 0, "lat": 38.917627333333336, "rental_uris": {"ios": "https://dc.lft.to/lastmile_qr_scan", "android": "https://dc.lft.to/lastmile_qr_scan"}, "bike_id": "8345f2222b5834859733932b5a570354", "type": "electric_scooter", "lon": -77.0695435, "is_reserved": 0, "fusion_lat": 0.0, "fusion_lon": 0.0}, {"name": "9da479bba131e5b86dda84a529c3a8bc", "is_disabled": 0, "lat": 38.92352666666667, "rental_uris": {"ios": "https://dc.lft.to/lastmile_qr_scan", "android": "https://dc.lft.to/lastmile_qr_scan"}, "bike_id": "9da479bba131e5b86dda84a529c3a8bc", "type": "electric_scooter", "lon": -77.033182, "is_reserved": 0, "fusion_lat": 0.0, "fusion_lon": 0.0}, {"name": "d13580e83f927c09ad29da5719ebbdb7", "is_disabled": 0, "lat": 38.894713333333335, "rental_uris": {"ios": "https://dc.lft.to/lastmile_qr_scan", "android": "https://dc.lft.to/lastmile_qr_scan"}, "bike_id": "d13580e83f927c09ad29da5719ebbdb7", "type": "electric_scooter", "lon": -77.01769016666667, "is_reserved": 0, "fusion_lat": 0.0, "fusion_lon": 0.0}, {"name": "0ca56352b49defb134807a297dcd894f", "is_disabled": 0, "lat": 38.926437, "rental_uris": {"ios": "https://dc.lft.to/lastmile_qr_scan", "android": "https://dc.lft.to/lastmile_qr_scan"}, "bike_id": "0ca56352b49defb134807a297dcd894f", "type": "electric_scooter", "lon": -77.04145766666667, "is_reserved": 0, "fusion_lat": 0.0, "fusion_lon": 0.0}, {"name": "e8734f860aceac2bcd016d40843d419b", "is_disabled": 0, "lat": 38.87379983333334, "rental_uris": {"ios": "https://dc.lft.to/lastmile_qr_scan", "android": "https://dc.lft.to/lastmile_qr_scan"}, "bike_id": "e8734f860aceac2bcd016d40843d419b", "type": "electric_scooter", "lon": -77.00063216666666, "is_reserved": 0, "fusion_lat": 0.0, "fusion_lon": 0.0}, {"name": "65fa0d48a9384b1ee74fa21c7772cf71", "is_disabled": 0, "lat": 38.8744895, "rental_uris": {"ios": "https://dc.lft.to/lastmile_qr_scan", "android": "https://dc.lft.to/lastmile_qr_scan"}, "bike_id": "65fa0d48a9384b1ee74fa21c7772cf71", "type": "electric_scooter", "lon": -77.00048333333334, "is_reserved": 0, "fusion_lat": 0.0, "fusion_lon": 0.0}, {"name": "14411efda4e87f009cd93788a0db7faf", "is_disabled": 0, "lat": 38.91023216666667, "rental_uris": {"ios": "https://dc.lft.to/lastmile_qr_scan", "android": "https://dc.lft.to/lastmile_qr_scan"}, "bike_id": "14411efda4e87f009cd93788a0db7faf", "type": "electric_scooter", "lon": -76.99726283333334, "is_reserved": 0, "fusion_lat": 0.0, "fusion_lon": 0.0}, {"name": "4c97a5b1d8101898bcc8adb03b3edb2b", "is_disabled": 0, "lat": 38.93247183333333, "rental_uris": {"ios": "https://dc.lft.to/lastmile_qr_scan", "android": "https://dc.lft.to/lastmile_qr_scan"}, "bike_id": "4c97a5b1d8101898bcc8adb03b3edb2b", "type": "electric_scooter", "lon": -76.99528633333334, "is_reserved": 0, "fusion_lat": 0.0, "fusion_lon": 0.0}, {"name": "043729edab844c4bafe0d3114821497c", "is_disabled": 0, "lat": 38.91552516666667, "rental_uris": {"ios": "https://dc.lft.to/lastmile_qr_scan", "android": "https://dc.lft.to/lastmile_qr_scan"}, "bike_id": "043729edab844c4bafe0d3114821497c", "type": "electric_scooter", "lon": -77.0385405, "is_reserved": 0, "fusion_lat": 0.0, "fusion_lon": 0.0}, {"name": "b66cfe7a014ec7f36c0d64a0a9c1d103", "is_disabled": 0, "lat": 38.895510333333334, "rental_uris": {"ios": "https://dc.lft.to/lastmile_qr_scan", "android": "https://dc.lft.to/lastmile_qr_scan"}, "bike_id": "b66cfe7a014ec7f36c0d64a0a9c1d103", "type": "electric_scooter", "lon": -76.948765, "is_reserved": 0, "fusion_lat": 0.0, "fusion_lon": 0.0}, {"name": "fe4104282c4534ff3b87a3d8cf4b65d5", "is_disabled": 0, "lat": 38.91810233333333, "rental_uris": {"ios": "https://dc.lft.to/lastmile_qr_scan", "android": "https://dc.lft.to/lastmile_qr_scan"}, "bike_id": "fe4104282c4534ff3b87a3d8cf4b65d5", "type": "electric_scooter", "lon": -77.03180366666666, "is_reserved": 0, "fusion_lat": 0.0, "fusion_lon": 0.0}, {"name": "f1ffddb6a8db709f894755cb07d3b701", "is_disabled": 0, "lat": 38.8927605, "rental_uris": {"ios": "https://dc.lft.to/lastmile_qr_scan", "android": "https://dc.lft.to/lastmile_qr_scan"}, "bike_id": "f1ffddb6a8db709f894755cb07d3b701", "type": "electric_scooter", "lon": -77.0321925, "is_reserved": 0, "fusion_lat": 0.0, "fusion_lon": 0.0}, {"name": "8269923a2ba779bdb9e9db177bc0aa94", "is_disabled": 0, "lat": 38.89917783333333, "rental_uris": {"ios": "https://dc.lft.to/lastmile_qr_scan", "android": "https://dc.lft.to/lastmile_qr_scan"}, "bike_id": "8269923a2ba779bdb9e9db177bc0aa94", "type": "electric_scooter", "lon": -77.0271975, "is_reserved": 0, "fusion_lat": 0.0, "fusion_lon": 0.0}, {"name": "0be2de34a5d11c0e5841b2ec47287b27", "is_disabled": 0, "lat": 38.929514, "rental_uris": {"ios": "https://dc.lft.to/lastmile_qr_scan", "android": "https://dc.lft.to/lastmile_qr_scan"}, "bike_id": "0be2de34a5d11c0e5841b2ec47287b27", "type": "electric_scooter", "lon": -77.0377615, "is_reserved": 0, "fusion_lat": 0.0, "fusion_lon": 0.0}, {"name": "e0994f0565d1d485b458ba79f63a775b", "is_disabled": 0, "lat": 38.8765985, "rental_uris": {"ios": "https://dc.lft.to/lastmile_qr_scan", "android": "https://dc.lft.to/lastmile_qr_scan"}, "bike_id": "e0994f0565d1d485b458ba79f63a775b", "type": "electric_scooter", "lon": -77.003195, "is_reserved": 0, "fusion_lat": 0.0, "fusion_lon": 0.0}, {"name": "2a60b4c5756acafdfa7d717bc64f4f25", "is_disabled": 0, "lat": 38.90706216666667, "rental_uris": {"ios": "https://dc.lft.to/lastmile_qr_scan", "android": "https://dc.lft.to/lastmile_qr_scan"}, "bike_id": "2a60b4c5756acafdfa7d717bc64f4f25", "type": "electric_scooter", "lon": -77.03183216666666, "is_reserved": 0, "fusion_lat": 0.0, "fusion_lon": 0.0}, {"name": "731335b380aa19c356d72681cdf92961", "is_disabled": 0, "lat": 38.898515833333335, "rental_uris": {"ios": "https://dc.lft.to/lastmile_qr_scan", "android": "https://dc.lft.to/lastmile_qr_scan"}, "bike_id": "731335b380aa19c356d72681cdf92961", "type": "electric_scooter", "lon": -76.95045, "is_reserved": 0, "fusion_lat": 0.0, "fusion_lon": 0.0}, {"name": "dd9343f2940a2851d8762b3aad777d99", "is_disabled": 0, "lat": 38.91573316666667, "rental_uris": {"ios": "https://dc.lft.to/lastmile_qr_scan", "android": "https://dc.lft.to/lastmile_qr_scan"}, "bike_id": "dd9343f2940a2851d8762b3aad777d99", "type": "electric_scooter", "lon": -76.98383, "is_reserved": 0, "fusion_lat": 0.0, "fusion_lon": 0.0}, {"name": "fe43c0a11ca81f952f94683b519f3fc9", "is_disabled": 0, "lat": 38.89922166666667, "rental_uris": {"ios": "https://dc.lft.to/lastmile_qr_scan", "android": "https://dc.lft.to/lastmile_qr_scan"}, "bike_id": "fe43c0a11ca81f952f94683b519f3fc9", "type": "electric_scooter", "lon": -77.0404935, "is_reserved": 0, "fusion_lat": 0.0, "fusion_lon": 0.0}, {"name": "5ddbcf6d0d4bb919806139ef42a111d4", "is_disabled": 0, "lat": 38.905979333333335, "rental_uris": {"ios": "https://dc.lft.to/lastmile_qr_scan", "android": "https://dc.lft.to/lastmile_qr_scan"}, "bike_id": "5ddbcf6d0d4bb919806139ef42a111d4", "type": "electric_scooter", "lon": -77.046862, "is_reserved": 0, "fusion_lat": 0.0, "fusion_lon": 0.0}, {"name": "fdf2af950bb14a81f77ca6cdd77c4de1", "is_disabled": 0, "lat": 38.924713, "rental_uris": {"ios": "https://dc.lft.to/lastmile_qr_scan", "android": "https://dc.lft.to/lastmile_qr_scan"}, "bike_id": "fdf2af950bb14a81f77ca6cdd77c4de1", "type": "electric_scooter", "lon": -77.030486, "is_reserved": 0, "fusion_lat": 0.0, "fusion_lon": 0.0}, {"name": "1ee6ac30509ba25acc265adf60db6bc5", "is_disabled": 0, "lat": 38.903563166666665, "rental_uris": {"ios": "https://dc.lft.to/lastmile_qr_scan", "android": "https://dc.lft.to/lastmile_qr_scan"}, "bike_id": "1ee6ac30509ba25acc265adf60db6bc5", "type": "electric_scooter", "lon": -77.029427, "is_reserved": 0, "fusion_lat": 0.0, "fusion_lon": 0.0}, {"name": "d7bdfc5ff9bf62eab5bc2089547fe6d6", "is_disabled": 0, "lat": 38.887681, "rental_uris": {"ios": "https://dc.lft.to/lastmile_qr_scan", "android": "https://dc.lft.to/lastmile_qr_scan"}, "bike_id": "d7bdfc5ff9bf62eab5bc2089547fe6d6", "type": "electric_scooter", "lon": -77.023697, "is_reserved": 0, "fusion_lat": 0.0, "fusion_lon": 0.0}, {"name": "3f0c56b29bfe532cb30d1482639b6d20", "is_disabled": 0, "lat": 38.9217375, "rental_uris": {"ios": "https://dc.lft.to/lastmile_qr_scan", "android": "https://dc.lft.to/lastmile_qr_scan"}, "bike_id": "3f0c56b29bfe532cb30d1482639b6d20", "type": "electric_scooter", "lon": -77.02109416666667, "is_reserved": 0, "fusion_lat": 0.0, "fusion_lon": 0.0}, {"name": "0f1b218eb81ea3989278f0d23fe561f9", "is_disabled": 0, "lat": 38.9211575, "rental_uris": {"ios": "https://dc.lft.to/lastmile_qr_scan", "android": "https://dc.lft.to/lastmile_qr_scan"}, "bike_id": "0f1b218eb81ea3989278f0d23fe561f9", "type": "electric_bike", "lon": -77.23681966666666, "is_reserved": 0, "fusion_lat": 0.0, "fusion_lon": 0.0}, {"name": "602dcdda7c19017a60c4d5d76b144b32", "is_disabled": 0, "lat": 38.941348833333336, "rental_uris": {"ios": "https://dc.lft.to/lastmile_qr_scan", "android": "https://dc.lft.to/lastmile_qr_scan"}, "bike_id": "602dcdda7c19017a60c4d5d76b144b32", "type": "electric_scooter", "lon": -77.0250015, "is_reserved": 0, "fusion_lat": 0.0, "fusion_lon": 0.0}, {"name": "c3f15c27488c4005e303fb9dc51af903", "is_disabled": 0, "lat": 38.906447666666665, "rental_uris": {"ios": "https://dc.lft.to/lastmile_qr_scan", "android": "https://dc.lft.to/lastmile_qr_scan"}, "bike_id": "c3f15c27488c4005e303fb9dc51af903", "type": "electric_scooter", "lon": -77.03154883333333, "is_reserved": 0, "fusion_lat": 0.0, "fusion_lon": 0.0}, {"name": "31ae4784a484ae3ba26dce7505536389", "is_disabled": 0, "lat": 38.923668, "rental_uris": {"ios": "https://dc.lft.to/lastmile_qr_scan", "android": "https://dc.lft.to/lastmile_qr_scan"}, "bike_id": "31ae4784a484ae3ba26dce7505536389", "type": "electric_scooter", "lon": -77.02964633333333, "is_reserved": 0, "fusion_lat": 0.0, "fusion_lon": 0.0}, {"name": "1dcca486c733a8223017de2278143a9b", "is_disabled": 0, "lat": 38.9028385, "rental_uris": {"ios": "https://dc.lft.to/lastmile_qr_scan", "android": "https://dc.lft.to/lastmile_qr_scan"}, "bike_id": "1dcca486c733a8223017de2278143a9b", "type": "electric_scooter", "lon": -77.03651433333333, "is_reserved": 0, "fusion_lat": 0.0, "fusion_lon": 0.0}, {"name": "c2f3597f01e9185738b308f5f00ad337", "is_disabled": 0, "lat": 38.922877166666666, "rental_uris": {"ios": "https://dc.lft.to/lastmile_qr_scan", "android": "https://dc.lft.to/lastmile_qr_scan"}, "bike_id": "c2f3597f01e9185738b308f5f00ad337", "type": "electric_scooter", "lon": -77.041406, "is_reserved": 0, "fusion_lat": 0.0, "fusion_lon": 0.0}, {"name": "f2d78834e92d44ee7dea2528c0bf0d27", "is_disabled": 0, "lat": 38.844219833333334, "rental_uris": {"ios": "https://dc.lft.to/lastmile_qr_scan", "android": "https://dc.lft.to/lastmile_qr_scan"}, "bike_id": "f2d78834e92d44ee7dea2528c0bf0d27", "type": "electric_scooter", "lon": -76.9978195, "is_reserved": 0, "fusion_lat": 0.0, "fusion_lon": 0.0}, {"name": "ade642309cafc8c0acfedbd404e003c1", "is_disabled": 0, "lat": 38.93133616666667, "rental_uris": {"ios": "https://dc.lft.to/lastmile_qr_scan", "android": "https://dc.lft.to/lastmile_qr_scan"}, "bike_id": "ade642309cafc8c0acfedbd404e003c1", "type": "electric_scooter", "lon": -77.03657933333334, "is_reserved": 0, "fusion_lat": 0.0, "fusion_lon": 0.0}, {"name": "9dd05696379ed8af8e1fb38e7222c0f9", "is_disabled": 0, "lat": 38.876903, "rental_uris": {"ios": "https://dc.lft.to/lastmile_qr_scan", "android": "https://dc.lft.to/lastmile_qr_scan"}, "bike_id": "9dd05696379ed8af8e1fb38e7222c0f9", "type": "electric_scooter", "lon": -77.00697566666666, "is_reserved": 0, "fusion_lat": 0.0, "fusion_lon": 0.0}, {"name": "e2227961d4a339d90b78bd1dbfa3adc9", "is_disabled": 0, "lat": 38.89237333333333, "rental_uris": {"ios": "https://dc.lft.to/lastmile_qr_scan", "android": "https://dc.lft.to/lastmile_qr_scan"}, "bike_id": "e2227961d4a339d90b78bd1dbfa3adc9", "type": "electric_scooter", "lon": -77.0318915, "is_reserved": 0, "fusion_lat": 0.0, "fusion_lon": 0.0}, {"name": "84d6fde8b9c2a4a1afd35a5de87032cf", "is_disabled": 0, "lat": 38.87867516666667, "rental_uris": {"ios": "https://dc.lft.to/lastmile_qr_scan", "android": "https://dc.lft.to/lastmile_qr_scan"}, "bike_id": "84d6fde8b9c2a4a1afd35a5de87032cf", "type": "electric_scooter", "lon": -76.9995335, "is_reserved": 0, "fusion_lat": 0.0, "fusion_lon": 0.0}, {"name": "af2f4e98b546807950060c72af09bc28", "is_disabled": 0, "lat": 38.9348375, "rental_uris": {"ios": "https://dc.lft.to/lastmile_qr_scan", "android": "https://dc.lft.to/lastmile_qr_scan"}, "bike_id": "af2f4e98b546807950060c72af09bc28", "type": "electric_scooter", "lon": -77.07274966666667, "is_reserved": 0, "fusion_lat": 0.0, "fusion_lon": 0.0}, {"name": "b03079fd8279443c7eb77a69ff63a5c8", "is_disabled": 0, "lat": 38.89755133333333, "rental_uris": {"ios": "https://dc.lft.to/lastmile_qr_scan", "android": "https://dc.lft.to/lastmile_qr_scan"}, "bike_id": "b03079fd8279443c7eb77a69ff63a5c8", "type": "electric_scooter", "lon": -77.02199333333333, "is_reserved": 0, "fusion_lat": 0.0, "fusion_lon": 0.0}, {"name": "d597e122197637afaa18b9d9f69a2cf2", "is_disabled": 0, "lat": 38.924823333333336, "rental_uris": {"ios": "https://dc.lft.to/lastmile_qr_scan", "android": "https://dc.lft.to/lastmile_qr_scan"}, "bike_id": "d597e122197637afaa18b9d9f69a2cf2", "type": "electric_scooter", "lon": -77.025984, "is_reserved": 0, "fusion_lat": 0.0, "fusion_lon": 0.0}, {"name": "a994cf1e27d2b913a255d04610bb8b77", "is_disabled": 0, "lat": 38.91248383333333, "rental_uris": {"ios": "https://dc.lft.to/lastmile_qr_scan", "android": "https://dc.lft.to/lastmile_qr_scan"}, "bike_id": "a994cf1e27d2b913a255d04610bb8b77", "type": "electric_scooter", "lon": -77.031576, "is_reserved": 0, "fusion_lat": 0.0, "fusion_lon": 0.0}, {"name": "72bd2770efa7a0b2085e6a6c75d98877", "is_disabled": 0, "lat": 38.961316, "rental_uris": {"ios": "https://dc.lft.to/lastmile_qr_scan", "android": "https://dc.lft.to/lastmile_qr_scan"}, "bike_id": "72bd2770efa7a0b2085e6a6c75d98877", "type": "electric_scooter", "lon": -77.00966766666667, "is_reserved": 0, "fusion_lat": 0.0, "fusion_lon": 0.0}, {"name": "a7531f00c1403fd8f93ec017989902a4", "is_disabled": 0, "lat": 38.89776783333333, "rental_uris": {"ios": "https://dc.lft.to/lastmile_qr_scan", "android": "https://dc.lft.to/lastmile_qr_scan"}, "bike_id": "a7531f00c1403fd8f93ec017989902a4", "type": "electric_bike", "lon": -77.02722766666666, "is_reserved": 0, "fusion_lat": 0.0, "fusion_lon": 0.0}, {"name": "97396a314c6e4aa229195061662f429d", "is_disabled": 0, "lat": 38.91130233333333, "rental_uris": {"ios": "https://dc.lft.to/lastmile_qr_scan", "android": "https://dc.lft.to/lastmile_qr_scan"}, "bike_id": "97396a314c6e4aa229195061662f429d", "type": "electric_scooter", "lon": -77.0653445, "is_reserved": 0, "fusion_lat": 0.0, "fusion_lon": 0.0}, {"name": "eb9894c84ba1c217dfbd508707ad6292", "is_disabled": 0, "lat": 38.9025065, "rental_uris": {"ios": "https://dc.lft.to/lastmile_qr_scan", "android": "https://dc.lft.to/lastmile_qr_scan"}, "bike_id": "eb9894c84ba1c217dfbd508707ad6292", "type": "electric_scooter", "lon": -77.04616183333333, "is_reserved": 0, "fusion_lat": 0.0, "fusion_lon": 0.0}, {"name": "7c554e8e60eb13e048301e65205ce1e3", "is_disabled": 0, "lat": 38.90559616666667, "rental_uris": {"ios": "https://dc.lft.to/lastmile_qr_scan", "android": "https://dc.lft.to/lastmile_qr_scan"}, "bike_id": "7c554e8e60eb13e048301e65205ce1e3", "type": "electric_scooter", "lon": -77.00603316666667, "is_reserved": 0, "fusion_lat": 0.0, "fusion_lon": 0.0}, {"name": "a86b8d1120980d2466415b965e9e4892", "is_disabled": 0, "lat": 38.91223866666667, "rental_uris": {"ios": "https://dc.lft.to/lastmile_qr_scan", "android": "https://dc.lft.to/lastmile_qr_scan"}, "bike_id": "a86b8d1120980d2466415b965e9e4892", "type": "electric_scooter", "lon": -77.03208766666667, "is_reserved": 0, "fusion_lat": 0.0, "fusion_lon": 0.0}, {"name": "7eb58e14b2fc36d3d373ca21ab8188ae", "is_disabled": 0, "lat": 38.9006605, "rental_uris": {"ios": "https://dc.lft.to/lastmile_qr_scan", "android": "https://dc.lft.to/lastmile_qr_scan"}, "bike_id": "7eb58e14b2fc36d3d373ca21ab8188ae", "type": "electric_scooter", "lon": -76.92747333333334, "is_reserved": 0, "fusion_lat": 0.0, "fusion_lon": 0.0}, {"name": "5ecfe155192aa18e2634474fb1600d9c", "is_disabled": 0, "lat": 38.87533583333333, "rental_uris": {"ios": "https://dc.lft.to/lastmile_qr_scan", "android": "https://dc.lft.to/lastmile_qr_scan"}, "bike_id": "5ecfe155192aa18e2634474fb1600d9c", "type": "electric_scooter", "lon": -77.00508466666666, "is_reserved": 0, "fusion_lat": 0.0, "fusion_lon": 0.0}, {"name": "f7d49c64f0f8400d1d2fbdaba6ae9942", "is_disabled": 0, "lat": 38.9041435, "rental_uris": {"ios": "https://dc.lft.to/lastmile_qr_scan", "android": "https://dc.lft.to/lastmile_qr_scan"}, "bike_id": "f7d49c64f0f8400d1d2fbdaba6ae9942", "type": "electric_scooter", "lon": -77.046612, "is_reserved": 0, "fusion_lat": 0.0, "fusion_lon": 0.0}, {"name": "1dcf81afbcc3437eebede821b0b73ebd", "is_disabled": 0, "lat": 38.92361116666667, "rental_uris": {"ios": "https://dc.lft.to/lastmile_qr_scan", "android": "https://dc.lft.to/lastmile_qr_scan"}, "bike_id": "1dcf81afbcc3437eebede821b0b73ebd", "type": "electric_scooter", "lon": -77.05055866666666, "is_reserved": 0, "fusion_lat": 0.0, "fusion_lon": 0.0}, {"name": "dd894ab9d725b1eb05c840c5be2e7b28", "is_disabled": 0, "lat": 38.887293, "rental_uris": {"ios": "https://dc.lft.to/lastmile_qr_scan", "android": "https://dc.lft.to/lastmile_qr_scan"}, "bike_id": "dd894ab9d725b1eb05c840c5be2e7b28", "type": "electric_scooter", "lon": -77.01766466666666, "is_reserved": 0, "fusion_lat": 0.0, "fusion_lon": 0.0}, {"name": "54d607f7486a838e96bb8e406e28f424", "is_disabled": 0, "lat": 38.957545833333334, "rental_uris": {"ios": "https://dc.lft.to/lastmile_qr_scan", "android": "https://dc.lft.to/lastmile_qr_scan"}, "bike_id": "54d607f7486a838e96bb8e406e28f424", "type": "electric_scooter", "lon": -77.02054016666666, "is_reserved": 0, "fusion_lat": 0.0, "fusion_lon": 0.0}, {"name": "cad608ee1d9ba73338ae0e69a47f1b0b", "is_disabled": 0, "lat": 38.80759483333333, "rental_uris": {"ios": "https://dc.lft.to/lastmile_qr_scan", "android": "https://dc.lft.to/lastmile_qr_scan"}, "bike_id": "cad608ee1d9ba73338ae0e69a47f1b0b", "type": "electric_bike", "lon": -77.12987166666667, "is_reserved": 0, "fusion_lat": 0.0, "fusion_lon": 0.0}, {"name": "4d01408e73280e81504c44aa5b39e0c9", "is_disabled": 0, "lat": 38.9274915, "rental_uris": {"ios": "https://dc.lft.to/lastmile_qr_scan", "android": "https://dc.lft.to/lastmile_qr_scan"}, "bike_id": "4d01408e73280e81504c44aa5b39e0c9", "type": "electric_scooter", "lon": -77.02432383333333, "is_reserved": 0, "fusion_lat": 0.0, "fusion_lon": 0.0}, {"name": "83ebc7361578b877f5652184fc5e3dc0", "is_disabled": 0, "lat": 38.89596816666667, "rental_uris": {"ios": "https://dc.lft.to/lastmile_qr_scan", "android": "https://dc.lft.to/lastmile_qr_scan"}, "bike_id": "83ebc7361578b877f5652184fc5e3dc0", "type": "electric_scooter", "lon": -77.02151566666667, "is_reserved": 0, "fusion_lat": 0.0, "fusion_lon": 0.0}, {"name": "ba7740148723d81ba1e060740a50c369", "is_disabled": 0, "lat": 38.912689666666665, "rental_uris": {"ios": "https://dc.lft.to/lastmile_qr_scan", "android": "https://dc.lft.to/lastmile_qr_scan"}, "bike_id": "ba7740148723d81ba1e060740a50c369", "type": "electric_scooter", "lon": -77.03873983333334, "is_reserved": 0, "fusion_lat": 0.0, "fusion_lon": 0.0}, {"name": "8cdb1fc5fc244803146bbcb10c3a0aae", "is_disabled": 0, "lat": 38.89551433333333, "rental_uris": {"ios": "https://dc.lft.to/lastmile_qr_scan", "android": "https://dc.lft.to/lastmile_qr_scan"}, "bike_id": "8cdb1fc5fc244803146bbcb10c3a0aae", "type": "electric_scooter", "lon": -76.94871616666667, "is_reserved": 0, "fusion_lat": 0.0, "fusion_lon": 0.0}, {"name": "dc81eb4a5f30e63f21c5a40733af5ae2", "is_disabled": 0, "lat": 38.93704833333334, "rental_uris": {"ios": "https://dc.lft.to/lastmile_qr_scan", "android": "https://dc.lft.to/lastmile_qr_scan"}, "bike_id": "dc81eb4a5f30e63f21c5a40733af5ae2", "type": "electric_scooter", "lon": -77.0559365, "is_reserved": 0, "fusion_lat": 0.0, "fusion_lon": 0.0}, {"name": "3ed35cf1b892bb50e8c48394f8f683de", "is_disabled": 0, "lat": 38.901224666666664, "rental_uris": {"ios": "https://dc.lft.to/lastmile_qr_scan", "android": "https://dc.lft.to/lastmile_qr_scan"}, "bike_id": "3ed35cf1b892bb50e8c48394f8f683de", "type": "electric_scooter", "lon": -77.002148, "is_reserved": 0, "fusion_lat": 0.0, "fusion_lon": 0.0}, {"name": "6231028c4e566f4e24d188d136f5ddbb", "is_disabled": 0, "lat": 38.89654766666666, "rental_uris": {"ios": "https://dc.lft.to/lastmile_qr_scan", "android": "https://dc.lft.to/lastmile_qr_scan"}, "bike_id": "6231028c4e566f4e24d188d136f5ddbb", "type": "electric_scooter", "lon": -77.03357316666667, "is_reserved": 0, "fusion_lat": 0.0, "fusion_lon": 0.0}, {"name": "8e0d1884cdb1685a1a6fac02170e4f9f", "is_disabled": 0, "lat": 38.887344166666665, "rental_uris": {"ios": "https://dc.lft.to/lastmile_qr_scan", "android": "https://dc.lft.to/lastmile_qr_scan"}, "bike_id": "8e0d1884cdb1685a1a6fac02170e4f9f", "type": "electric_scooter", "lon": -77.0151915, "is_reserved": 0, "fusion_lat": 0.0, "fusion_lon": 0.0}, {"name": "ce8c5a3fcdb121b19862616596cf0c3f", "is_disabled": 0, "lat": 38.9199395, "rental_uris": {"ios": "https://dc.lft.to/lastmile_qr_scan", "android": "https://dc.lft.to/lastmile_qr_scan"}, "bike_id": "ce8c5a3fcdb121b19862616596cf0c3f", "type": "electric_bike", "lon": -77.04765666666667, "is_reserved": 0, "fusion_lat": 0.0, "fusion_lon": 0.0}, {"name": "afdf36782d71a4ac2228c9437a0e6592", "is_disabled": 0, "lat": 38.887678666666666, "rental_uris": {"ios": "https://dc.lft.to/lastmile_qr_scan", "android": "https://dc.lft.to/lastmile_qr_scan"}, "bike_id": "afdf36782d71a4ac2228c9437a0e6592", "type": "electric_scooter", "lon": -77.02369883333333, "is_reserved": 0, "fusion_lat": 0.0, "fusion_lon": 0.0}, {"name": "de7a210943ef3c8f5fc336df2c3d959c", "is_disabled": 0, "lat": 38.891958333333335, "rental_uris": {"ios": "https://dc.lft.to/lastmile_qr_scan", "android": "https://dc.lft.to/lastmile_qr_scan"}, "bike_id": "de7a210943ef3c8f5fc336df2c3d959c", "type": "electric_scooter", "lon": -77.02219866666667, "is_reserved": 0, "fusion_lat": 0.0, "fusion_lon": 0.0}, {"name": "3acb18bf0c3d482c9cac9e469da4e5bf", "is_disabled": 0, "lat": 38.950861333333336, "rental_uris": {"ios": "https://dc.lft.to/lastmile_qr_scan", "android": "https://dc.lft.to/lastmile_qr_scan"}, "bike_id": "3acb18bf0c3d482c9cac9e469da4e5bf", "type": "electric_bike", "lon": -76.997982, "is_reserved": 0, "fusion_lat": 0.0, "fusion_lon": 0.0}, {"name": "3f495b9a5c23698e70342ab1ffd23448", "is_disabled": 0, "lat": 38.911150166666665, "rental_uris": {"ios": "https://dc.lft.to/lastmile_qr_scan", "android": "https://dc.lft.to/lastmile_qr_scan"}, "bike_id": "3f495b9a5c23698e70342ab1ffd23448", "type": "electric_scooter", "lon": -77.0454715, "is_reserved": 0, "fusion_lat": 0.0, "fusion_lon": 0.0}, {"name": "d997d9013e3ef23a0fe821cb802e4e6e", "is_disabled": 0, "lat": 38.88726916666667, "rental_uris": {"ios": "https://dc.lft.to/lastmile_qr_scan", "android": "https://dc.lft.to/lastmile_qr_scan"}, "bike_id": "d997d9013e3ef23a0fe821cb802e4e6e", "type": "electric_scooter", "lon": -77.03209233333334, "is_reserved": 0, "fusion_lat": 0.0, "fusion_lon": 0.0}, {"name": "c2e38ab5269ec0d6f81876f1a656a666", "is_disabled": 0, "lat": 38.8954235, "rental_uris": {"ios": "https://dc.lft.to/lastmile_qr_scan", "android": "https://dc.lft.to/lastmile_qr_scan"}, "bike_id": "c2e38ab5269ec0d6f81876f1a656a666", "type": "electric_scooter", "lon": -76.949556, "is_reserved": 0, "fusion_lat": 0.0, "fusion_lon": 0.0}, {"name": "b96ba4602ef41dc938dfd495f4ff9760", "is_disabled": 0, "lat": 38.905201, "rental_uris": {"ios": "https://dc.lft.to/lastmile_qr_scan", "android": "https://dc.lft.to/lastmile_qr_scan"}, "bike_id": "b96ba4602ef41dc938dfd495f4ff9760", "type": "electric_scooter", "lon": -77.0435625, "is_reserved": 0, "fusion_lat": 0.0, "fusion_lon": 0.0}, {"name": "1c1e2df6ded868c8b9492d55f5ec0c49", "is_disabled": 0, "lat": 38.921443333333336, "rental_uris": {"ios": "https://dc.lft.to/lastmile_qr_scan", "android": "https://dc.lft.to/lastmile_qr_scan"}, "bike_id": "1c1e2df6ded868c8b9492d55f5ec0c49", "type": "electric_bike", "lon": -76.99364366666667, "is_reserved": 0, "fusion_lat": 0.0, "fusion_lon": 0.0}, {"name": "a50ec06868581aee8da7c9e52d873f83", "is_disabled": 0, "lat": 38.89829566666667, "rental_uris": {"ios": "https://dc.lft.to/lastmile_qr_scan", "android": "https://dc.lft.to/lastmile_qr_scan"}, "bike_id": "a50ec06868581aee8da7c9e52d873f83", "type": "electric_scooter", "lon": -77.02518383333333, "is_reserved": 0, "fusion_lat": 0.0, "fusion_lon": 0.0}, {"name": "4d00cd65c0d0bc94060baf5b891ef56b", "is_disabled": 0, "lat": 38.96592733333333, "rental_uris": {"ios": "https://dc.lft.to/lastmile_qr_scan", "android": "https://dc.lft.to/lastmile_qr_scan"}, "bike_id": "4d00cd65c0d0bc94060baf5b891ef56b", "type": "electric_scooter", "lon": -77.01596566666667, "is_reserved": 0, "fusion_lat": 0.0, "fusion_lon": 0.0}, {"name": "4905b5fb5bc099aa246e6497a3fb7df1", "is_disabled": 0, "lat": 38.871800666666665, "rental_uris": {"ios": "https://dc.lft.to/lastmile_qr_scan", "android": "https://dc.lft.to/lastmile_qr_scan"}, "bike_id": "4905b5fb5bc099aa246e6497a3fb7df1", "type": "electric_scooter", "lon": -77.00610066666667, "is_reserved": 0, "fusion_lat": 0.0, "fusion_lon": 0.0}, {"name": "7ab9154690ef24daea23a9f56f71b2bc", "is_disabled": 0, "lat": 38.8639275, "rental_uris": {"ios": "https://dc.lft.to/lastmile_qr_scan", "android": "https://dc.lft.to/lastmile_qr_scan"}, "bike_id": "7ab9154690ef24daea23a9f56f71b2bc", "type": "electric_bike", "lon": -77.20112683333333, "is_reserved": 0, "fusion_lat": 0.0, "fusion_lon": 0.0}, {"name": "7ac997daa4b496e3d619f29ba394ebc5", "is_disabled": 0, "lat": 38.924047333333334, "rental_uris": {"ios": "https://dc.lft.to/lastmile_qr_scan", "android": "https://dc.lft.to/lastmile_qr_scan"}, "bike_id": "7ac997daa4b496e3d619f29ba394ebc5", "type": "electric_scooter", "lon": -76.99727216666666, "is_reserved": 0, "fusion_lat": 0.0, "fusion_lon": 0.0}, {"name": "ae9e1efc9b252e3b38df7bd9495fba03", "is_disabled": 0, "lat": 38.8873565, "rental_uris": {"ios": "https://dc.lft.to/lastmile_qr_scan", "android": "https://dc.lft.to/lastmile_qr_scan"}, "bike_id": "ae9e1efc9b252e3b38df7bd9495fba03", "type": "electric_scooter", "lon": -77.0213015, "is_reserved": 0, "fusion_lat": 0.0, "fusion_lon": 0.0}, {"name": "478721ecad78ea2465ab5b0eca9a7f2e", "is_disabled": 0, "lat": 38.88768683333333, "rental_uris": {"ios": "https://dc.lft.to/lastmile_qr_scan", "android": "https://dc.lft.to/lastmile_qr_scan"}, "bike_id": "478721ecad78ea2465ab5b0eca9a7f2e", "type": "electric_scooter", "lon": -77.02373066666667, "is_reserved": 0, "fusion_lat": 0.0, "fusion_lon": 0.0}, {"name": "f2ead865859e5b20c6af104a60d53750", "is_disabled": 0, "lat": 38.9247405, "rental_uris": {"ios": "https://dc.lft.to/lastmile_qr_scan", "android": "https://dc.lft.to/lastmile_qr_scan"}, "bike_id": "f2ead865859e5b20c6af104a60d53750", "type": "electric_scooter", "lon": -77.03771266666666, "is_reserved": 0, "fusion_lat": 0.0, "fusion_lon": 0.0}, {"name": "ed9a4c30afb04191a9621d69f0860421", "is_disabled": 0, "lat": 38.90567183333334, "rental_uris": {"ios": "https://dc.lft.to/lastmile_qr_scan", "android": "https://dc.lft.to/lastmile_qr_scan"}, "bike_id": "ed9a4c30afb04191a9621d69f0860421", "type": "electric_scooter", "lon": -77.02419583333334, "is_reserved": 0, "fusion_lat": 0.0, "fusion_lon": 0.0}, {"name": "dbbe080821e44620546806da83850a01", "is_disabled": 0, "lat": 38.907313333333335, "rental_uris": {"ios": "https://dc.lft.to/lastmile_qr_scan", "android": "https://dc.lft.to/lastmile_qr_scan"}, "bike_id": "dbbe080821e44620546806da83850a01", "type": "electric_scooter", "lon": -77.00357616666666, "is_reserved": 0, "fusion_lat": 0.0, "fusion_lon": 0.0}, {"name": "21532fe45e4f0ba7139436acc1905c4e", "is_disabled": 0, "lat": 38.90250866666667, "rental_uris": {"ios": "https://dc.lft.to/lastmile_qr_scan", "android": "https://dc.lft.to/lastmile_qr_scan"}, "bike_id": "21532fe45e4f0ba7139436acc1905c4e", "type": "electric_scooter", "lon": -77.026133, "is_reserved": 0, "fusion_lat": 0.0, "fusion_lon": 0.0}, {"name": "76184b19ead5af7891d7fb1d812a9ef3", "is_disabled": 0, "lat": 38.890032166666664, "rental_uris": {"ios": "https://dc.lft.to/lastmile_qr_scan", "android": "https://dc.lft.to/lastmile_qr_scan"}, "bike_id": "76184b19ead5af7891d7fb1d812a9ef3", "type": "electric_scooter", "lon": -76.93745616666666, "is_reserved": 0, "fusion_lat": 0.0, "fusion_lon": 0.0}, {"name": "5eab3ca9b350894aa1f9a00c8ccb2bd7", "is_disabled": 0, "lat": 38.91793083333334, "rental_uris": {"ios": "https://dc.lft.to/lastmile_qr_scan", "android": "https://dc.lft.to/lastmile_qr_scan"}, "bike_id": "5eab3ca9b350894aa1f9a00c8ccb2bd7", "type": "electric_scooter", "lon": -77.04169983333334, "is_reserved": 0, "fusion_lat": 0.0, "fusion_lon": 0.0}, {"name": "8fce5a79cdaea15796994e4573e5127f", "is_disabled": 0, "lat": 38.937715833333336, "rental_uris": {"ios": "https://dc.lft.to/lastmile_qr_scan", "android": "https://dc.lft.to/lastmile_qr_scan"}, "bike_id": "8fce5a79cdaea15796994e4573e5127f", "type": "electric_bike", "lon": -77.01916583333333, "is_reserved": 0, "fusion_lat": 0.0, "fusion_lon": 0.0}, {"name": "5c0a29d0671c9a2d6bf873a05e3f5e4f", "is_disabled": 0, "lat": 38.90065833333333, "rental_uris": {"ios": "https://dc.lft.to/lastmile_qr_scan", "android": "https://dc.lft.to/lastmile_qr_scan"}, "bike_id": "5c0a29d0671c9a2d6bf873a05e3f5e4f", "type": "electric_scooter", "lon": -77.04770133333334, "is_reserved": 0, "fusion_lat": 0.0, "fusion_lon": 0.0}, {"name": "9d9881af7120e6cde3c80b75fcf6f0be", "is_disabled": 0, "lat": 38.91994783333333, "rental_uris": {"ios": "https://dc.lft.to/lastmile_qr_scan", "android": "https://dc.lft.to/lastmile_qr_scan"}, "bike_id": "9d9881af7120e6cde3c80b75fcf6f0be", "type": "electric_scooter", "lon": -77.04760716666667, "is_reserved": 0, "fusion_lat": 0.0, "fusion_lon": 0.0}, {"name": "066f79a82bb53cfda85b1e809f0641b8", "is_disabled": 0, "lat": 38.9139985, "rental_uris": {"ios": "https://dc.lft.to/lastmile_qr_scan", "android": "https://dc.lft.to/lastmile_qr_scan"}, "bike_id": "066f79a82bb53cfda85b1e809f0641b8", "type": "electric_scooter", "lon": -77.03163116666667, "is_reserved": 0, "fusion_lat": 0.0, "fusion_lon": 0.0}, {"name": "b514c0601bcb033885cec6dba2a29279", "is_disabled": 0, "lat": 38.863453166666666, "rental_uris": {"ios": "https://dc.lft.to/lastmile_qr_scan", "android": "https://dc.lft.to/lastmile_qr_scan"}, "bike_id": "b514c0601bcb033885cec6dba2a29279", "type": "electric_bike", "lon": -77.077248, "is_reserved": 0, "fusion_lat": 0.0, "fusion_lon": 0.0}, {"name": "22af3623127ddca9a651f9ead5884d88", "is_disabled": 0, "lat": 38.90508033333333, "rental_uris": {"ios": "https://dc.lft.to/lastmile_qr_scan", "android": "https://dc.lft.to/lastmile_qr_scan"}, "bike_id": "22af3623127ddca9a651f9ead5884d88", "type": "electric_scooter", "lon": -77.065498, "is_reserved": 0, "fusion_lat": 0.0, "fusion_lon": 0.0}, {"name": "4fc3fc77f1387468e531c0c36515db8e", "is_disabled": 0, "lat": 38.937538833333335, "rental_uris": {"ios": "https://dc.lft.to/lastmile_qr_scan", "android": "https://dc.lft.to/lastmile_qr_scan"}, "bike_id": "4fc3fc77f1387468e531c0c36515db8e", "type": "electric_bike", "lon": -76.95825366666666, "is_reserved": 0, "fusion_lat": 0.0, "fusion_lon": 0.0}, {"name": "85f2c2b0d7d41adcd444600dffc9f258", "is_disabled": 0, "lat": 38.90399583333333, "rental_uris": {"ios": "https://dc.lft.to/lastmile_qr_scan", "android": "https://dc.lft.to/lastmile_qr_scan"}, "bike_id": "85f2c2b0d7d41adcd444600dffc9f258", "type": "electric_scooter", "lon": -77.0019545, "is_reserved": 0, "fusion_lat": 0.0, "fusion_lon": 0.0}, {"name": "d76f7f67f2a46429fb773a08aeaf63c7", "is_disabled": 0, "lat": 38.944965333333336, "rental_uris": {"ios": "https://dc.lft.to/lastmile_qr_scan", "android": "https://dc.lft.to/lastmile_qr_scan"}, "bike_id": "d76f7f67f2a46429fb773a08aeaf63c7", "type": "electric_bike", "lon": -77.00688983333333, "is_reserved": 0, "fusion_lat": 0.0, "fusion_lon": 0.0}, {"name": "db70fe2a8edb4f1618c5a071c6a8d0a5", "is_disabled": 0, "lat": 38.90769433333333, "rental_uris": {"ios": "https://dc.lft.to/lastmile_qr_scan", "android": "https://dc.lft.to/lastmile_qr_scan"}, "bike_id": "db70fe2a8edb4f1618c5a071c6a8d0a5", "type": "electric_scooter", "lon": -76.99714016666667, "is_reserved": 0, "fusion_lat": 0.0, "fusion_lon": 0.0}, {"name": "05a51db61b1e4be8b3977eb0d00c3826", "is_disabled": 0, "lat": 38.92360166666667, "rental_uris": {"ios": "https://dc.lft.to/lastmile_qr_scan", "android": "https://dc.lft.to/lastmile_qr_scan"}, "bike_id": "05a51db61b1e4be8b3977eb0d00c3826", "type": "electric_scooter", "lon": -77.02814833333333, "is_reserved": 0, "fusion_lat": 0.0, "fusion_lon": 0.0}, {"name": "0b53f5a68a93950893ba1d4f86ff9e7a", "is_disabled": 0, "lat": 38.92259583333333, "rental_uris": {"ios": "https://dc.lft.to/lastmile_qr_scan", "android": "https://dc.lft.to/lastmile_qr_scan"}, "bike_id": "0b53f5a68a93950893ba1d4f86ff9e7a", "type": "electric_scooter", "lon": -77.04296016666666, "is_reserved": 0, "fusion_lat": 0.0, "fusion_lon": 0.0}, {"name": "a8af588d6c83b2dc718a5818b0f05337", "is_disabled": 0, "lat": 38.86241066666667, "rental_uris": {"ios": "https://dc.lft.to/lastmile_qr_scan", "android": "https://dc.lft.to/lastmile_qr_scan"}, "bike_id": "a8af588d6c83b2dc718a5818b0f05337", "type": "electric_scooter", "lon": -76.994956, "is_reserved": 0, "fusion_lat": 0.0, "fusion_lon": 0.0}, {"name": "e99a1dc93942d234f890a8149124d16d", "is_disabled": 0, "lat": 38.88135283333333, "rental_uris": {"ios": "https://dc.lft.to/lastmile_qr_scan", "android": "https://dc.lft.to/lastmile_qr_scan"}, "bike_id": "e99a1dc93942d234f890a8149124d16d", "type": "electric_scooter", "lon": -76.99616166666667, "is_reserved": 0, "fusion_lat": 0.0, "fusion_lon": 0.0}, {"name": "3e4bd09ed521d41ec90543c8e02b9199", "is_disabled": 0, "lat": 38.94110366666666, "rental_uris": {"ios": "https://dc.lft.to/lastmile_qr_scan", "android": "https://dc.lft.to/lastmile_qr_scan"}, "bike_id": "3e4bd09ed521d41ec90543c8e02b9199", "type": "electric_scooter", "lon": -77.0004895, "is_reserved": 0, "fusion_lat": 0.0, "fusion_lon": 0.0}, {"name": "57cbaa637221cceacd45927c1e37744d", "is_disabled": 0, "lat": 38.902023, "rental_uris": {"ios": "https://dc.lft.to/lastmile_qr_scan", "android": "https://dc.lft.to/lastmile_qr_scan"}, "bike_id": "57cbaa637221cceacd45927c1e37744d", "type": "electric_scooter", "lon": -77.02374166666667, "is_reserved": 0, "fusion_lat": 0.0, "fusion_lon": 0.0}, {"name": "e40fa61a739de4b75c6a016c3852c091", "is_disabled": 0, "lat": 38.90227566666667, "rental_uris": {"ios": "https://dc.lft.to/lastmile_qr_scan", "android": "https://dc.lft.to/lastmile_qr_scan"}, "bike_id": "e40fa61a739de4b75c6a016c3852c091", "type": "electric_scooter", "lon": -77.0533315, "is_reserved": 0, "fusion_lat": 0.0, "fusion_lon": 0.0}, {"name": "80187487052569a8ff213b7c876302e8", "is_disabled": 0, "lat": 38.909849666666666, "rental_uris": {"ios": "https://dc.lft.to/lastmile_qr_scan", "android": "https://dc.lft.to/lastmile_qr_scan"}, "bike_id": "80187487052569a8ff213b7c876302e8", "type": "electric_scooter", "lon": -77.04665566666667, "is_reserved": 0, "fusion_lat": 0.0, "fusion_lon": 0.0}, {"name": "c0e8d31916b53dfe59871003c335c0bc", "is_disabled": 0, "lat": 38.892952, "rental_uris": {"ios": "https://dc.lft.to/lastmile_qr_scan", "android": "https://dc.lft.to/lastmile_qr_scan"}, "bike_id": "c0e8d31916b53dfe59871003c335c0bc", "type": "electric_scooter", "lon": -77.012278, "is_reserved": 0, "fusion_lat": 0.0, "fusion_lon": 0.0}, {"name": "6e4b01e2a7b62a3a5a84b0354f9e5783", "is_disabled": 0, "lat": 38.93245533333333, "rental_uris": {"ios": "https://dc.lft.to/lastmile_qr_scan", "android": "https://dc.lft.to/lastmile_qr_scan"}, "bike_id": "6e4b01e2a7b62a3a5a84b0354f9e5783", "type": "electric_scooter", "lon": -77.06650383333333, "is_reserved": 0, "fusion_lat": 0.0, "fusion_lon": 0.0}, {"name": "25fee3a773566686954dad645d59e2a5", "is_disabled": 0, "lat": 38.887756333333336, "rental_uris": {"ios": "https://dc.lft.to/lastmile_qr_scan", "android": "https://dc.lft.to/lastmile_qr_scan"}, "bike_id": "25fee3a773566686954dad645d59e2a5", "type": "electric_scooter", "lon": -76.95528333333333, "is_reserved": 0, "fusion_lat": 0.0, "fusion_lon": 0.0}, {"name": "4b592f092012727aa6f2d7ecf1496f55", "is_disabled": 0, "lat": 38.91694283333333, "rental_uris": {"ios": "https://dc.lft.to/lastmile_qr_scan", "android": "https://dc.lft.to/lastmile_qr_scan"}, "bike_id": "4b592f092012727aa6f2d7ecf1496f55", "type": "electric_scooter", "lon": -77.03384933333334, "is_reserved": 0, "fusion_lat": 0.0, "fusion_lon": 0.0}, {"name": "646e843edc55129f4f606e5fb3e051b6", "is_disabled": 0, "lat": 38.93537766666667, "rental_uris": {"ios": "https://dc.lft.to/lastmile_qr_scan", "android": "https://dc.lft.to/lastmile_qr_scan"}, "bike_id": "646e843edc55129f4f606e5fb3e051b6", "type": "electric_scooter", "lon": -77.0574225, "is_reserved": 0, "fusion_lat": 0.0, "fusion_lon": 0.0}, {"name": "151983ddbe3ac812c77c9c88714a1ea1", "is_disabled": 0, "lat": 38.91832483333334, "rental_uris": {"ios": "https://dc.lft.to/lastmile_qr_scan", "android": "https://dc.lft.to/lastmile_qr_scan"}, "bike_id": "151983ddbe3ac812c77c9c88714a1ea1", "type": "electric_scooter", "lon": -77.03197316666666, "is_reserved": 0, "fusion_lat": 0.0, "fusion_lon": 0.0}, {"name": "9990ee9b37405e9f3eba7aa5355aef56", "is_disabled": 0, "lat": 38.992092166666666, "rental_uris": {"ios": "https://dc.lft.to/lastmile_qr_scan", "android": "https://dc.lft.to/lastmile_qr_scan"}, "bike_id": "9990ee9b37405e9f3eba7aa5355aef56", "type": "electric_bike", "lon": -77.03217233333334, "is_reserved": 0, "fusion_lat": 0.0, "fusion_lon": 0.0}, {"name": "a97ff6c375184f8ba664ea98b04707d7", "is_disabled": 0, "lat": 38.9024255, "rental_uris": {"ios": "https://dc.lft.to/lastmile_qr_scan", "android": "https://dc.lft.to/lastmile_qr_scan"}, "bike_id": "a97ff6c375184f8ba664ea98b04707d7", "type": "electric_scooter", "lon": -77.01811666666667, "is_reserved": 0, "fusion_lat": 0.0, "fusion_lon": 0.0}, {"name": "ed507dc4e58e396f9bfd8f3e2c65c818", "is_disabled": 0, "lat": 38.920179833333336, "rental_uris": {"ios": "https://dc.lft.to/lastmile_qr_scan", "android": "https://dc.lft.to/lastmile_qr_scan"}, "bike_id": "ed507dc4e58e396f9bfd8f3e2c65c818", "type": "electric_scooter", "lon": -77.01316883333334, "is_reserved": 0, "fusion_lat": 0.0, "fusion_lon": 0.0}, {"name": "02e6e54bf15e3ed0212e79724d1cf217", "is_disabled": 0, "lat": 38.93480666666667, "rental_uris": {"ios": "https://dc.lft.to/lastmile_qr_scan", "android": "https://dc.lft.to/lastmile_qr_scan"}, "bike_id": "02e6e54bf15e3ed0212e79724d1cf217", "type": "electric_scooter", "lon": -77.07273483333333, "is_reserved": 0, "fusion_lat": 0.0, "fusion_lon": 0.0}, {"name": "a539e299aee33db1ca3da5b218cb7031", "is_disabled": 0, "lat": 38.8873635, "rental_uris": {"ios": "https://dc.lft.to/lastmile_qr_scan", "android": "https://dc.lft.to/lastmile_qr_scan"}, "bike_id": "a539e299aee33db1ca3da5b218cb7031", "type": "electric_scooter", "lon": -77.0256605, "is_reserved": 0, "fusion_lat": 0.0, "fusion_lon": 0.0}, {"name": "1b4d8d05e967a1e46cf949a590f882b9", "is_disabled": 0, "lat": 38.905600666666665, "rental_uris": {"ios": "https://dc.lft.to/lastmile_qr_scan", "android": "https://dc.lft.to/lastmile_qr_scan"}, "bike_id": "1b4d8d05e967a1e46cf949a590f882b9", "type": "electric_scooter", "lon": -77.00551416666667, "is_reserved": 0, "fusion_lat": 0.0, "fusion_lon": 0.0}, {"name": "ef23b167f99a0138da82d11c9af09b5c", "is_disabled": 0, "lat": 38.89875983333334, "rental_uris": {"ios": "https://dc.lft.to/lastmile_qr_scan", "android": "https://dc.lft.to/lastmile_qr_scan"}, "bike_id": "ef23b167f99a0138da82d11c9af09b5c", "type": "electric_scooter", "lon": -76.93181483333333, "is_reserved": 0, "fusion_lat": 0.0, "fusion_lon": 0.0}, {"name": "b34063d91b92372f01a39be5a2a6b8b8", "is_disabled": 0, "lat": 38.89362166666667, "rental_uris": {"ios": "https://dc.lft.to/lastmile_qr_scan", "android": "https://dc.lft.to/lastmile_qr_scan"}, "bike_id": "b34063d91b92372f01a39be5a2a6b8b8", "type": "electric_scooter", "lon": -77.00332416666667, "is_reserved": 0, "fusion_lat": 0.0, "fusion_lon": 0.0}, {"name": "f67e59b30b22c30307415087b354a87e", "is_disabled": 0, "lat": 38.903018, "rental_uris": {"ios": "https://dc.lft.to/lastmile_qr_scan", "android": "https://dc.lft.to/lastmile_qr_scan"}, "bike_id": "f67e59b30b22c30307415087b354a87e", "type": "electric_scooter", "lon": -77.05807416666667, "is_reserved": 0, "fusion_lat": 0.0, "fusion_lon": 0.0}, {"name": "c3f95d6f6c6d18386e1beae09ec287bf", "is_disabled": 0, "lat": 38.883657166666666, "rental_uris": {"ios": "https://dc.lft.to/lastmile_qr_scan", "android": "https://dc.lft.to/lastmile_qr_scan"}, "bike_id": "c3f95d6f6c6d18386e1beae09ec287bf", "type": "electric_scooter", "lon": -76.99522, "is_reserved": 0, "fusion_lat": 0.0, "fusion_lon": 0.0}, {"name": "3d1f3417ca31a6d114fd39673d0644e7", "is_disabled": 0, "lat": 38.907922, "rental_uris": {"ios": "https://dc.lft.to/lastmile_qr_scan", "android": "https://dc.lft.to/lastmile_qr_scan"}, "bike_id": "3d1f3417ca31a6d114fd39673d0644e7", "type": "electric_scooter", "lon": -77.034488, "is_reserved": 0, "fusion_lat": 0.0, "fusion_lon": 0.0}, {"name": "dee5ddbea2b24a74f9eb464ba0d7de94", "is_disabled": 0, "lat": 38.928771166666664, "rental_uris": {"ios": "https://dc.lft.to/lastmile_qr_scan", "android": "https://dc.lft.to/lastmile_qr_scan"}, "bike_id": "dee5ddbea2b24a74f9eb464ba0d7de94", "type": "electric_scooter", "lon": -77.013682, "is_reserved": 0, "fusion_lat": 0.0, "fusion_lon": 0.0}, {"name": "f071df5ac3dec816ac8e77acb3d3fd21", "is_disabled": 0, "lat": 38.9261705, "rental_uris": {"ios": "https://dc.lft.to/lastmile_qr_scan", "android": "https://dc.lft.to/lastmile_qr_scan"}, "bike_id": "f071df5ac3dec816ac8e77acb3d3fd21", "type": "electric_scooter", "lon": -77.03673183333333, "is_reserved": 0, "fusion_lat": 0.0, "fusion_lon": 0.0}, {"name": "8a8a28d15f48ce66ebdf5435bf328fcb", "is_disabled": 0, "lat": 38.94603, "rental_uris": {"ios": "https://dc.lft.to/lastmile_qr_scan", "android": "https://dc.lft.to/lastmile_qr_scan"}, "bike_id": "8a8a28d15f48ce66ebdf5435bf328fcb", "type": "electric_scooter", "lon": -77.09682633333334, "is_reserved": 0, "fusion_lat": 0.0, "fusion_lon": 0.0}, {"name": "cf5370b3216db5089b989426ab808263", "is_disabled": 0, "lat": 38.911212166666665, "rental_uris": {"ios": "https://dc.lft.to/lastmile_qr_scan", "android": "https://dc.lft.to/lastmile_qr_scan"}, "bike_id": "cf5370b3216db5089b989426ab808263", "type": "electric_scooter", "lon": -77.00756633333333, "is_reserved": 0, "fusion_lat": 0.0, "fusion_lon": 0.0}, {"name": "bc81dd715f4c2cfce97780d55264a129", "is_disabled": 0, "lat": 38.907143833333336, "rental_uris": {"ios": "https://dc.lft.to/lastmile_qr_scan", "android": "https://dc.lft.to/lastmile_qr_scan"}, "bike_id": "bc81dd715f4c2cfce97780d55264a129", "type": "electric_scooter", "lon": -77.02893433333334, "is_reserved": 0, "fusion_lat": 0.0, "fusion_lon": 0.0}, {"name": "4cb159f4612008c1cfa16f4202af5b5a", "is_disabled": 0, "lat": 38.892471666666665, "rental_uris": {"ios": "https://dc.lft.to/lastmile_qr_scan", "android": "https://dc.lft.to/lastmile_qr_scan"}, "bike_id": "4cb159f4612008c1cfa16f4202af5b5a", "type": "electric_scooter", "lon": -77.03957216666667, "is_reserved": 0, "fusion_lat": 0.0, "fusion_lon": 0.0}, {"name": "674440a96212ef5395d4354b51751d2e", "is_disabled": 0, "lat": 38.923227833333335, "rental_uris": {"ios": "https://dc.lft.to/lastmile_qr_scan", "android": "https://dc.lft.to/lastmile_qr_scan"}, "bike_id": "674440a96212ef5395d4354b51751d2e", "type": "electric_scooter", "lon": -77.04029383333334, "is_reserved": 0, "fusion_lat": 0.0, "fusion_lon": 0.0}, {"name": "87e12a2eb7f21dd8f0b600707ac3a795", "is_disabled": 0, "lat": 38.90731483333333, "rental_uris": {"ios": "https://dc.lft.to/lastmile_qr_scan", "android": "https://dc.lft.to/lastmile_qr_scan"}, "bike_id": "87e12a2eb7f21dd8f0b600707ac3a795", "type": "electric_scooter", "lon": -77.04333083333333, "is_reserved": 0, "fusion_lat": 0.0, "fusion_lon": 0.0}, {"name": "b5e7bdc4b1e5adbf30190e5a75cd7dec", "is_disabled": 0, "lat": 38.9165215, "rental_uris": {"ios": "https://dc.lft.to/lastmile_qr_scan", "android": "https://dc.lft.to/lastmile_qr_scan"}, "bike_id": "b5e7bdc4b1e5adbf30190e5a75cd7dec", "type": "electric_scooter", "lon": -77.04177033333333, "is_reserved": 0, "fusion_lat": 0.0, "fusion_lon": 0.0}, {"name": "5601ac75e83cc195b28dab5a6b505a36", "is_disabled": 0, "lat": 38.930842166666665, "rental_uris": {"ios": "https://dc.lft.to/lastmile_qr_scan", "android": "https://dc.lft.to/lastmile_qr_scan"}, "bike_id": "5601ac75e83cc195b28dab5a6b505a36", "type": "electric_scooter", "lon": -77.0199255, "is_reserved": 0, "fusion_lat": 0.0, "fusion_lon": 0.0}, {"name": "2cee934a0fafe75e1d60e54aaea664c9", "is_disabled": 0, "lat": 38.926002833333335, "rental_uris": {"ios": "https://dc.lft.to/lastmile_qr_scan", "android": "https://dc.lft.to/lastmile_qr_scan"}, "bike_id": "2cee934a0fafe75e1d60e54aaea664c9", "type": "electric_scooter", "lon": -77.021543, "is_reserved": 0, "fusion_lat": 0.0, "fusion_lon": 0.0}, {"name": "597d6bb0f4a1e30035c6592f66584c9d", "is_disabled": 0, "lat": 38.901044166666665, "rental_uris": {"ios": "https://dc.lft.to/lastmile_qr_scan", "android": "https://dc.lft.to/lastmile_qr_scan"}, "bike_id": "597d6bb0f4a1e30035c6592f66584c9d", "type": "electric_scooter", "lon": -76.93050483333333, "is_reserved": 0, "fusion_lat": 0.0, "fusion_lon": 0.0}, {"name": "34f250d50c63b06185f7de8e82a2b8de", "is_disabled": 0, "lat": 38.922203, "rental_uris": {"ios": "https://dc.lft.to/lastmile_qr_scan", "android": "https://dc.lft.to/lastmile_qr_scan"}, "bike_id": "34f250d50c63b06185f7de8e82a2b8de", "type": "electric_scooter", "lon": -77.0211845, "is_reserved": 0, "fusion_lat": 0.0, "fusion_lon": 0.0}, {"name": "93a6dd7da5acdb5ebf598cc68a0e4099", "is_disabled": 0, "lat": 38.894226, "rental_uris": {"ios": "https://dc.lft.to/lastmile_qr_scan", "android": "https://dc.lft.to/lastmile_qr_scan"}, "bike_id": "93a6dd7da5acdb5ebf598cc68a0e4099", "type": "electric_scooter", "lon": -77.02178233333333, "is_reserved": 0, "fusion_lat": 0.0, "fusion_lon": 0.0}, {"name": "ae0437fd55b7a9c2d01023c262059f71", "is_disabled": 0, "lat": 38.86012816666667, "rental_uris": {"ios": "https://dc.lft.to/lastmile_qr_scan", "android": "https://dc.lft.to/lastmile_qr_scan"}, "bike_id": "ae0437fd55b7a9c2d01023c262059f71", "type": "electric_scooter", "lon": -76.96706383333333, "is_reserved": 0, "fusion_lat": 0.0, "fusion_lon": 0.0}, {"name": "cb6084601f61bb81289f016ecc53f6f6", "is_disabled": 0, "lat": 38.90786216666667, "rental_uris": {"ios": "https://dc.lft.to/lastmile_qr_scan", "android": "https://dc.lft.to/lastmile_qr_scan"}, "bike_id": "cb6084601f61bb81289f016ecc53f6f6", "type": "electric_scooter", "lon": -77.04254133333333, "is_reserved": 0, "fusion_lat": 0.0, "fusion_lon": 0.0}, {"name": "d6fa832768ae6088e3a2c174042950e0", "is_disabled": 0, "lat": 38.90682966666667, "rental_uris": {"ios": "https://dc.lft.to/lastmile_qr_scan", "android": "https://dc.lft.to/lastmile_qr_scan"}, "bike_id": "d6fa832768ae6088e3a2c174042950e0", "type": "electric_scooter", "lon": -77.03823733333333, "is_reserved": 0, "fusion_lat": 0.0, "fusion_lon": 0.0}, {"name": "179790411304c39b87c862177768ffdb", "is_disabled": 0, "lat": 38.90217716666667, "rental_uris": {"ios": "https://dc.lft.to/lastmile_qr_scan", "android": "https://dc.lft.to/lastmile_qr_scan"}, "bike_id": "179790411304c39b87c862177768ffdb", "type": "electric_scooter", "lon": -77.02298916666666, "is_reserved": 0, "fusion_lat": 0.0, "fusion_lon": 0.0}, {"name": "bc7a3a6338cf9ee6847a07374c8d77b7", "is_disabled": 0, "lat": 38.90482, "rental_uris": {"ios": "https://dc.lft.to/lastmile_qr_scan", "android": "https://dc.lft.to/lastmile_qr_scan"}, "bike_id": "bc7a3a6338cf9ee6847a07374c8d77b7", "type": "electric_scooter", "lon": -77.02821216666666, "is_reserved": 0, "fusion_lat": 0.0, "fusion_lon": 0.0}, {"name": "900105c4077963e6b125dc7e24911067", "is_disabled": 0, "lat": 38.924657833333335, "rental_uris": {"ios": "https://dc.lft.to/lastmile_qr_scan", "android": "https://dc.lft.to/lastmile_qr_scan"}, "bike_id": "900105c4077963e6b125dc7e24911067", "type": "electric_scooter", "lon": -77.0207615, "is_reserved": 0, "fusion_lat": 0.0, "fusion_lon": 0.0}, {"name": "c5ab1db839d59549b557065ee1adab37", "is_disabled": 0, "lat": 38.92317716666667, "rental_uris": {"ios": "https://dc.lft.to/lastmile_qr_scan", "android": "https://dc.lft.to/lastmile_qr_scan"}, "bike_id": "c5ab1db839d59549b557065ee1adab37", "type": "electric_scooter", "lon": -77.040419, "is_reserved": 0, "fusion_lat": 0.0, "fusion_lon": 0.0}, {"name": "04777e189cdb27c94ac0d9634cf5e335", "is_disabled": 0, "lat": 38.923419333333335, "rental_uris": {"ios": "https://dc.lft.to/lastmile_qr_scan", "android": "https://dc.lft.to/lastmile_qr_scan"}, "bike_id": "04777e189cdb27c94ac0d9634cf5e335", "type": "electric_scooter", "lon": -77.05217266666666, "is_reserved": 0, "fusion_lat": 0.0, "fusion_lon": 0.0}, {"name": "706a9dcc541c553b247a4ca3153b839e", "is_disabled": 0, "lat": 38.918031166666665, "rental_uris": {"ios": "https://dc.lft.to/lastmile_qr_scan", "android": "https://dc.lft.to/lastmile_qr_scan"}, "bike_id": "706a9dcc541c553b247a4ca3153b839e", "type": "electric_scooter", "lon": -77.0318915, "is_reserved": 0, "fusion_lat": 0.0, "fusion_lon": 0.0}, {"name": "f7a54e35706b9821cdde5371c64a991b", "is_disabled": 0, "lat": 38.99223283333333, "rental_uris": {"ios": "https://dc.lft.to/lastmile_qr_scan", "android": "https://dc.lft.to/lastmile_qr_scan"}, "bike_id": "f7a54e35706b9821cdde5371c64a991b", "type": "electric_bike", "lon": -76.944365, "is_reserved": 0, "fusion_lat": 0.0, "fusion_lon": 0.0}, {"name": "27c36231474932b810c62d0fe6c1e32f", "is_disabled": 0, "lat": 38.927002, "rental_uris": {"ios": "https://dc.lft.to/lastmile_qr_scan", "android": "https://dc.lft.to/lastmile_qr_scan"}, "bike_id": "27c36231474932b810c62d0fe6c1e32f", "type": "electric_scooter", "lon": -76.99766983333333, "is_reserved": 0, "fusion_lat": 0.0, "fusion_lon": 0.0}, {"name": "a1aa58e452a033df9044e56741229b87", "is_disabled": 0, "lat": 38.877372, "rental_uris": {"ios": "https://dc.lft.to/lastmile_qr_scan", "android": "https://dc.lft.to/lastmile_qr_scan"}, "bike_id": "a1aa58e452a033df9044e56741229b87", "type": "electric_scooter", "lon": -76.97032316666666, "is_reserved": 0, "fusion_lat": 0.0, "fusion_lon": 0.0}, {"name": "312cf7bea6f7ab9e02baff4ba53f5fa3", "is_disabled": 0, "lat": 38.9020085, "rental_uris": {"ios": "https://dc.lft.to/lastmile_qr_scan", "android": "https://dc.lft.to/lastmile_qr_scan"}, "bike_id": "312cf7bea6f7ab9e02baff4ba53f5fa3", "type": "electric_scooter", "lon": -77.04153966666667, "is_reserved": 0, "fusion_lat": 0.0, "fusion_lon": 0.0}, {"name": "950d6f024d24a8e30dba1b7db7f43a74", "is_disabled": 0, "lat": 38.926064, "rental_uris": {"ios": "https://dc.lft.to/lastmile_qr_scan", "android": "https://dc.lft.to/lastmile_qr_scan"}, "bike_id": "950d6f024d24a8e30dba1b7db7f43a74", "type": "electric_bike", "lon": -77.06425316666666, "is_reserved": 0, "fusion_lat": 0.0, "fusion_lon": 0.0}, {"name": "273780e30b2e010cf4d54e22c9db3708", "is_disabled": 0, "lat": 38.892341333333334, "rental_uris": {"ios": "https://dc.lft.to/lastmile_qr_scan", "android": "https://dc.lft.to/lastmile_qr_scan"}, "bike_id": "273780e30b2e010cf4d54e22c9db3708", "type": "electric_scooter", "lon": -77.0487645, "is_reserved": 0, "fusion_lat": 0.0, "fusion_lon": 0.0}, {"name": "a07a94f917c63064bf37b970e2a11452", "is_disabled": 0, "lat": 38.905310666666665, "rental_uris": {"ios": "https://dc.lft.to/lastmile_qr_scan", "android": "https://dc.lft.to/lastmile_qr_scan"}, "bike_id": "a07a94f917c63064bf37b970e2a11452", "type": "electric_scooter", "lon": -77.05639116666667, "is_reserved": 0, "fusion_lat": 0.0, "fusion_lon": 0.0}, {"name": "a72023c32e0088fff75f38e2d084d80a", "is_disabled": 0, "lat": 38.9244815, "rental_uris": {"ios": "https://dc.lft.to/lastmile_qr_scan", "android": "https://dc.lft.to/lastmile_qr_scan"}, "bike_id": "a72023c32e0088fff75f38e2d084d80a", "type": "electric_scooter", "lon": -77.02040266666667, "is_reserved": 0, "fusion_lat": 0.0, "fusion_lon": 0.0}, {"name": "6affe1a6c6532d379a1e47e5c78d7210", "is_disabled": 0, "lat": 38.92599366666666, "rental_uris": {"ios": "https://dc.lft.to/lastmile_qr_scan", "android": "https://dc.lft.to/lastmile_qr_scan"}, "bike_id": "6affe1a6c6532d379a1e47e5c78d7210", "type": "electric_scooter", "lon": -77.02158683333333, "is_reserved": 0, "fusion_lat": 0.0, "fusion_lon": 0.0}, {"name": "2a9e078e6f74b4aab1165dcf748e69b8", "is_disabled": 0, "lat": 38.903520666666665, "rental_uris": {"ios": "https://dc.lft.to/lastmile_qr_scan", "android": "https://dc.lft.to/lastmile_qr_scan"}, "bike_id": "2a9e078e6f74b4aab1165dcf748e69b8", "type": "electric_scooter", "lon": -77.03646133333334, "is_reserved": 0, "fusion_lat": 0.0, "fusion_lon": 0.0}, {"name": "81efb15d9a3c8133e95fc2ed226ff2dd", "is_disabled": 0, "lat": 38.929860833333336, "rental_uris": {"ios": "https://dc.lft.to/lastmile_qr_scan", "android": "https://dc.lft.to/lastmile_qr_scan"}, "bike_id": "81efb15d9a3c8133e95fc2ed226ff2dd", "type": "electric_scooter", "lon": -77.036668, "is_reserved": 0, "fusion_lat": 0.0, "fusion_lon": 0.0}, {"name": "e28acf0648598c2f9395ac863887e178", "is_disabled": 0, "lat": 38.90791083333333, "rental_uris": {"ios": "https://dc.lft.to/lastmile_qr_scan", "android": "https://dc.lft.to/lastmile_qr_scan"}, "bike_id": "e28acf0648598c2f9395ac863887e178", "type": "electric_scooter", "lon": -77.02942783333333, "is_reserved": 0, "fusion_lat": 0.0, "fusion_lon": 0.0}, {"name": "7cafabf30017c2eb536c1cf4e04092ca", "is_disabled": 0, "lat": 38.92432816666667, "rental_uris": {"ios": "https://dc.lft.to/lastmile_qr_scan", "android": "https://dc.lft.to/lastmile_qr_scan"}, "bike_id": "7cafabf30017c2eb536c1cf4e04092ca", "type": "electric_scooter", "lon": -77.0203315, "is_reserved": 0, "fusion_lat": 0.0, "fusion_lon": 0.0}, {"name": "9208abbf4fe0b2e6c6af83d1704c6483", "is_disabled": 0, "lat": 38.98943416666667, "rental_uris": {"ios": "https://dc.lft.to/lastmile_qr_scan", "android": "https://dc.lft.to/lastmile_qr_scan"}, "bike_id": "9208abbf4fe0b2e6c6af83d1704c6483", "type": "electric_bike", "lon": -77.10105716666666, "is_reserved": 0, "fusion_lat": 0.0, "fusion_lon": 0.0}, {"name": "f30edbc3b400a7d45f77027d847ef44d", "is_disabled": 0, "lat": 38.88820333333334, "rental_uris": {"ios": "https://dc.lft.to/lastmile_qr_scan", "android": "https://dc.lft.to/lastmile_qr_scan"}, "bike_id": "f30edbc3b400a7d45f77027d847ef44d", "type": "electric_scooter", "lon": -76.97719883333333, "is_reserved": 0, "fusion_lat": 0.0, "fusion_lon": 0.0}, {"name": "67bb643869c013511aab88e5c085cdaa", "is_disabled": 0, "lat": 38.90075216666666, "rental_uris": {"ios": "https://dc.lft.to/lastmile_qr_scan", "android": "https://dc.lft.to/lastmile_qr_scan"}, "bike_id": "67bb643869c013511aab88e5c085cdaa", "type": "electric_scooter", "lon": -77.0137855, "is_reserved": 0, "fusion_lat": 0.0, "fusion_lon": 0.0}, {"name": "9adda3b386ab25aa667ac9582645c567", "is_disabled": 0, "lat": 38.898837, "rental_uris": {"ios": "https://dc.lft.to/lastmile_qr_scan", "android": "https://dc.lft.to/lastmile_qr_scan"}, "bike_id": "9adda3b386ab25aa667ac9582645c567", "type": "electric_scooter", "lon": -76.9936, "is_reserved": 0, "fusion_lat": 0.0, "fusion_lon": 0.0}, {"name": "bf07a5a136cc47543040f9d7cf6b873d", "is_disabled": 0, "lat": 38.92437966666667, "rental_uris": {"ios": "https://dc.lft.to/lastmile_qr_scan", "android": "https://dc.lft.to/lastmile_qr_scan"}, "bike_id": "bf07a5a136cc47543040f9d7cf6b873d", "type": "electric_scooter", "lon": -77.052156, "is_reserved": 0, "fusion_lat": 0.0, "fusion_lon": 0.0},