{"data": {"bikes": [{"rental_uris": {"ios": "https://dc.lft.to/lastmile_qr_scan", "android": "https://dc.lft.to/lastmile_qr_scan"}, "lon": -76.99145833333333, "type": "electric_scooter", "fusion_lat": 0.0, "lat": 38.90031316666666, "name": "56ebe0768b4d0265b546de27332ff8ba", "fusion_lon": 0.0, "bike_id": "56ebe0768b4d0265b546de27332ff8ba", "is_disabled": 0, "is_reserved": 0}, {"rental_uris": {"ios": "https://dc.lft.to/lastmile_qr_scan", "android": "https://dc.lft.to/lastmile_qr_scan"}, "lon": -77.03453683333333, "type": "electric_scooter", "fusion_lat": 0.0, "lat": 38.907349833333335, "name": "13c7b83692e1365e0d5a5cfe0caa7d66", "fusion_lon": 0.0, "bike_id": "13c7b83692e1365e0d5a5cfe0caa7d66", "is_disabled": 0, "is_reserved": 0}, {"rental_uris": {"ios": "https://dc.lft.to/lastmile_qr_scan", "android": "https://dc.lft.to/lastmile_qr_scan"}, "lon": -77.02717333333334, "type": "electric_scooter", "fusion_lat": 0.0, "lat": 38.92465983333334, "name": "e54606215ec720cf4f8443385df67b95", "fusion_lon": 0.0, "bike_id": "e54606215ec720cf4f8443385df67b95", "is_disabled": 0, "is_reserved": 0}, {"rental_uris": {"ios": "https://dc.lft.to/lastmile_qr_scan", "android": "https://dc.lft.to/lastmile_qr_scan"}, "lon": -76.95526316666667, "type": "electric_scooter", "fusion_lat": 0.0, "lat": 38.887802666666666, "name": "bd0d6a82a3d3798cb355f7521935c6d8", "fusion_lon": 0.0, "bike_id": "bd0d6a82a3d3798cb355f7521935c6d8", "is_disabled": 0, "is_reserved": 0}, {"rental_uris": {"ios": "https://dc.lft.to/lastmile_qr_scan", "android": "https://dc.lft.to/lastmile_qr_scan"}, "lon": -77.0510695, "type": "electric_scooter", "fusion_lat": 0.0, "lat": 38.905248, "name": "53fd27d3191470e0a3d101ee049a9bb5", "fusion_lon": 0.0, "bike_id": "53fd27d3191470e0a3d101ee049a9bb5", "is_disabled": 0, "is_reserved": 0}, {"rental_uris": {"ios": "https://dc.lft.to/lastmile_qr_scan", "android": "https://dc.lft.to/lastmile_qr_scan"}, "lon": -77.0373215, "type": "electric_scooter", "fusion_lat": 0.0, "lat": 38.92905666666667, "name": "1edd8b1c2f44dc5593c53a6c74d60881", "fusion_lon": 0.0, "bike_id": "1edd8b1c2f44dc5593c53a6c74d60881", "is_disabled": 0, "is_reserved": 0}, {"rental_uris": {"ios": "https://dc.lft.to/lastmile_qr_scan", "android": "https://dc.lft.to/lastmile_qr_scan"}, "lon": -77.02101883333333, "type": "electric_scooter", "fusion_lat": 0.0, "lat": 38.914176833333336, "name": "4152e722f71aef59c280c26b80497446", "fusion_lon": 0.0, "bike_id": "4152e722f71aef59c280c26b80497446", "is_disabled": 0, "is_reserved": 0}, {"rental_uris": {"ios": "https://dc.lft.to/lastmile_qr_scan", "android": "https://dc.lft.to/lastmile_qr_scan"}, "lon": -77.03873033333333, "type": "electric_scooter", "fusion_lat": 0.0, "lat": 38.915504166666665, "name": "ec1123533c81329c45f0791dd52e6ce9", "fusion_lon": 0.0, "bike_id": "ec1123533c81329c45f0791dd52e6ce9", "is_disabled": 0, "is_reserved": 0}, {"rental_uris": {"ios": "https://dc.lft.to/lastmile_qr_scan", "android": "https://dc.lft.to/lastmile_qr_scan"}, "lon": -77.06011483333333, "type": "electric_scooter", "fusion_lat": 0.0, "lat": 38.91262866666667, "name": "5c53f287ae3eb483355b36e93bdb8850", "fusion_lon": 0.0, "bike_id": "5c53f287ae3eb483355b36e93bdb8850", "is_disabled": 0, "is_reserved": 0}, {"rental_uris": {"ios": "https://dc.lft.to/lastmile_qr_scan", "android": "https://dc.lft.to/lastmile_qr_scan"}, "lon": -77.01769616666667, "type": "electric_scooter", "fusion_lat": 0.0, "lat": 38.87715733333334, "name": "647eb9909adc5078c91d1018119607d5", "fusion_lon": 0.0, "bike_id": "647eb9909adc5078c91d1018119607d5", "is_disabled": 0, "is_reserved": 0}, {"rental_uris": {"ios": "https://dc.lft.to/lastmile_qr_scan", "android": "https://dc.lft.to/lastmile_qr_scan"}, "lon": -77.05474016666666, "type": "electric_scooter", "fusion_lat": 0.0, "lat": 38.92094016666667, "name": "ae1d4c629f0976a171b44d19dab5f9ad", "fusion_lon": 0.0, "bike_id": "ae1d4c629f0976a171b44d19dab5f9ad", "is_disabled": 0, "is_reserved": 0}, {"rental_uris": {"ios": "https://dc.lft.to/lastmile_qr_scan", "android": "https://dc.lft.to/lastmile_qr_scan"}, "lon": -76.98713316666667, "type": "electric_scooter", "fusion_lat": 0.0, "lat": 38.8626095, "name": "5812dd4015659fac730437346f6d2ed0", "fusion_lon": 0.0, "bike_id": "5812dd4015659fac730437346f6d2ed0", "is_disabled": 0, "is_reserved": 0}, {"rental_uris": {"ios": "https://dc.lft.to/lastmile_qr_scan", "android": "https://dc.lft.to/lastmile_qr_scan"}, "lon": -76.941829, "type": "electric_scooter", "fusion_lat": 0.0, "lat": 38.88221216666667, "name": "7fa5fcc99e12d5ca2dcb568f57d17e90", "fusion_lon": 0.0, "bike_id": "7fa5fcc99e12d5ca2dcb568f57d17e90", "is_disabled": 0, "is_reserved": 0}, {"rental_uris": {"ios": "https://dc.lft.to/lastmile_qr_scan", "android": "https://dc.lft.to/lastmile_qr_scan"}, "lon": -77.03620883333333, "type": "electric_scooter", "fusion_lat": 0.0, "lat": 38.932531833333336, "name": "9f0a741abb40758b74e08a6296459ac4", "fusion_lon": 0.0, "bike_id": "9f0a741abb40758b74e08a6296459ac4", "is_disabled": 0, "is_reserved": 0}, {"rental_uris": {"ios": "https://dc.lft.to/lastmile_qr_scan", "android": "https://dc.lft.to/lastmile_qr_scan"}, "lon": -77.04246233333333, "type": "electric_scooter", "fusion_lat": 0.0, "lat": 38.92425566666667, "name": "811b081408effb6fd4e6f8425feacb89", "fusion_lon": 0.0, "bike_id": "811b081408effb6fd4e6f8425feacb89", "is_disabled": 0, "is_reserved": 0}, {"rental_uris": {"ios": "https://dc.lft.to/lastmile_qr_scan", "android": "https://dc.lft.to/lastmile_qr_scan"}, "lon": -77.03648866666667, "type": "electric_scooter", "fusion_lat": 0.0, "lat": 38.92107083333333, "name": "c12966bc421cf79beee2550fa3089031", "fusion_lon": 0.0, "bike_id": "c12966bc421cf79beee2550fa3089031", "is_disabled": 0, "is_reserved": 0}, {"rental_uris": {"ios": "https://dc.lft.to/lastmile_qr_scan", "android": "https://dc.lft.to/lastmile_qr_scan"}, "lon": -77.039091, "type": "electric_scooter", "fusion_lat": 0.0, "lat": 38.914213333333336, "name": "60dc850eb04a574c3ca9d7c1c4535c7a", "fusion_lon": 0.0, "bike_id": "60dc850eb04a574c3ca9d7c1c4535c7a", "is_disabled": 0, "is_reserved": 0}, {"rental_uris": {"ios": "https://dc.lft.to/lastmile_qr_scan", "android": "https://dc.lft.to/lastmile_qr_scan"}, "lon": -77.01968533333333, "type": "electric_scooter", "fusion_lat": 0.0, "lat": 38.934122333333335, "name": "c612e280e7f8038e5e8458958112f78d", "fusion_lon": 0.0, "bike_id": "c612e280e7f8038e5e8458958112f78d", "is_disabled": 0, "is_reserved": 0}, {"rental_uris": {"ios": "https://dc.lft.to/lastmile_qr_scan", "android": "https://dc.lft.to/lastmile_qr_scan"}, "lon": -77.048266, "type": "electric_scooter", "fusion_lat": 0.0, "lat": 38.920236333333335, "name": "7b52332a40b4ad62bf575098bf15fd43", "fusion_lon": 0.0, "bike_id": "7b52332a40b4ad62bf575098bf15fd43", "is_disabled": 0, "is_reserved": 0}, {"rental_uris": {"ios": "https://dc.lft.to/lastmile_qr_scan", "android": "https://dc.lft.to/lastmile_qr_scan"}, "lon": -76.990723, "type": "electric_scooter", "fusion_lat": 0.0, "lat": 38.863549166666665, "name": "021dbff38133de2b4e869aa3cfd00b74", "fusion_lon": 0.0, "bike_id": "021dbff38133de2b4e869aa3cfd00b74", "is_disabled": 0, "is_reserved": 0}, {"rental_uris": {"ios": "https://dc.lft.to/lastmile_qr_scan", "android": "https://dc.lft.to/lastmile_qr_scan"}, "lon": -76.990826, "type": "electric_scooter", "fusion_lat": 0.0, "lat": 38.89351283333333, "name": "51e5835b28605e1dc3c6f98f53189f65", "fusion_lon": 0.0, "bike_id": "51e5835b28605e1dc3c6f98f53189f65", "is_disabled": 0, "is_reserved": 0}, {"rental_uris": {"ios": "https://dc.lft.to/lastmile_qr_scan", "android": "https://dc.lft.to/lastmile_qr_scan"}, "lon": -77.04202616666667, "type": "electric_scooter", "fusion_lat": 0.0, "lat": 38.921118166666666, "name": "7574aaaacc3e1b8ab25f6ff947b30524", "fusion_lon": 0.0, "bike_id": "7574aaaacc3e1b8ab25f6ff947b30524", "is_disabled": 0, "is_reserved": 0}, {"rental_uris": {"ios": "https://dc.lft.to/lastmile_qr_scan", "android": "https://dc.lft.to/lastmile_qr_scan"}, "lon": -77.05003266666667, "type": "electric_scooter", "fusion_lat": 0.0, "lat": 38.900571166666666, "name": "e4d7435d4bb70b9bade0df5a71097403", "fusion_lon": 0.0, "bike_id": "e4d7435d4bb70b9bade0df5a71097403", "is_disabled": 0, "is_reserved": 0}, {"rental_uris": {"ios": "https://dc.lft.to/lastmile_qr_scan", "android": "https://dc.lft.to/lastmile_qr_scan"}, "lon": -76.9043545, "type": "electric_bike", "fusion_lat": 0.0, "lat": 38.897816, "name": "8edb6ca0e43f59f5a10337e85a51a7a7", "fusion_lon": 0.0, "bike_id": "8edb6ca0e43f59f5a10337e85a51a7a7", "is_disabled": 0, "is_reserved": 0}, {"rental_uris": {"ios": "https://dc.lft.to/lastmile_qr_scan", "android": "https://dc.lft.to/lastmile_qr_scan"}, "lon": -76.98161133333333, "type": "electric_scooter", "fusion_lat": 0.0, "lat": 38.932980666666666, "name": "c6f92c56ea17b9b58c03f4e81128e08f", "fusion_lon": 0.0, "bike_id": "c6f92c56ea17b9b58c03f4e81128e08f", "is_disabled": 0, "is_reserved": 0}, {"rental_uris": {"ios": "https://dc.lft.to/lastmile_qr_scan", "android": "https://dc.lft.to/lastmile_qr_scan"}, "lon": -77.038402, "type": "electric_scooter", "fusion_lat": 0.0, "lat": 38.9075825, "name": "18fd079743f393e7a6c7c207260c7ca0", "fusion_lon": 0.0, "bike_id": "18fd079743f393e7a6c7c207260c7ca0", "is_disabled": 0, "is_reserved": 0}, {"rental_uris": {"ios": "https://dc.lft.to/lastmile_qr_scan", "android": "https://dc.lft.to/lastmile_qr_scan"}, "lon": -76.99503666666666, "type": "electric_scooter", "fusion_lat": 0.0, "lat": 38.927001, "name": "8691dc700da24cdcf91c6af23f8a2c94", "fusion_lon": 0.0, "bike_id": "8691dc700da24cdcf91c6af23f8a2c94", "is_disabled": 0, "is_reserved": 0}, {"rental_uris": {"ios": "https://dc.lft.to/lastmile_qr_scan", "android": "https://dc.lft.to/lastmile_qr_scan"}, "lon": -77.017565, "type": "electric_scooter", "fusion_lat": 0.0, "lat": 38.8831445, "name": "5aeb06bb022dd5c6370a01a351b8cd07", "fusion_lon": 0.0, "bike_id": "5aeb06bb022dd5c6370a01a351b8cd07", "is_disabled": 0, "is_reserved": 0}, {"rental_uris": {"ios": "https://dc.lft.to/lastmile_qr_scan", "android": "https://dc.lft.to/lastmile_qr_scan"}, "lon": -77.00679233333334, "type": "electric_scooter", "fusion_lat": 0.0, "lat": 38.916922166666666, "name": "a492c5491befd1674e55945f4ce63df2", "fusion_lon": 0.0, "bike_id": "a492c5491befd1674e55945f4ce63df2", "is_disabled": 0, "is_reserved": 0}, {"rental_uris": {"ios": "https://dc.lft.to/lastmile_qr_scan", "android": "https://dc.lft.to/lastmile_qr_scan"}, "lon": -76.9865885, "type": "electric_scooter", "fusion_lat": 0.0, "lat": 38.85804783333333, "name": "f4da08c560d572f2f4b79dd721ab7297", "fusion_lon": 0.0, "bike_id": "f4da08c560d572f2f4b79dd721ab7297", "is_disabled": 0, "is_reserved": 0}, {"rental_uris": {"ios": "https://dc.lft.to/lastmile_qr_scan", "android": "https://dc.lft.to/lastmile_qr_scan"}, "lon": -77.0416265, "type": "electric_scooter", "fusion_lat": 0.0, "lat": 38.919501333333336, "name": "3a8b6e79c5be75bb4266303e8d57e10d", "fusion_lon": 0.0, "bike_id": "3a8b6e79c5be75bb4266303e8d57e10d", "is_disabled": 0, "is_reserved": 0}, {"rental_uris": {"ios": "https://dc.lft.to/lastmile_qr_scan", "android": "https://dc.lft.to/lastmile_qr_scan"}, "lon": -77.02334033333334, "type": "electric_scooter", "fusion_lat": 0.0, "lat": 38.9304845, "name": "1f10947298fef0a0d875d0150376e8ef", "fusion_lon": 0.0, "bike_id": "1f10947298fef0a0d875d0150376e8ef", "is_disabled": 0, "is_reserved": 0}, {"rental_uris": {"ios": "https://dc.lft.to/lastmile_qr_scan", "android": "https://dc.lft.to/lastmile_qr_scan"}, "lon": -77.04805283333333, "type": "electric_scooter", "fusion_lat": 0.0, "lat": 38.91107733333333, "name": "d5c8ce7dcba7dde9a1fc165178718ccf", "fusion_lon": 0.0, "bike_id": "d5c8ce7dcba7dde9a1fc165178718ccf", "is_disabled": 0, "is_reserved": 0}, {"rental_uris": {"ios": "https://dc.lft.to/lastmile_qr_scan", "android": "https://dc.lft.to/lastmile_qr_scan"}, "lon": -76.987614, "type": "electric_scooter", "fusion_lat": 0.0, "lat": 38.84500116666667, "name": "ff72b84492c5bb616075bbc3d7e16917", "fusion_lon": 0.0, "bike_id": "ff72b84492c5bb616075bbc3d7e16917", "is_disabled": 0, "is_reserved": 0}, {"rental_uris": {"ios": "https://dc.lft.to/lastmile_qr_scan", "android": "https://dc.lft.to/lastmile_qr_scan"}, "lon": -77.0366725, "type": "electric_scooter", "fusion_lat": 0.0, "lat": 38.922071833333334, "name": "cea97884d905d5a7c285dd57b3129266", "fusion_lon": 0.0, "bike_id": "cea97884d905d5a7c285dd57b3129266", "is_disabled": 0, "is_reserved": 0}, {"rental_uris": {"ios": "https://dc.lft.to/lastmile_qr_scan", "android": "https://dc.lft.to/lastmile_qr_scan"}, "lon": -76.97926883333334, "type": "electric_scooter", "fusion_lat": 0.0, "lat": 38.90501416666667, "name": "bd6cbc748a6cd473648a8ecfab0cc01c", "fusion_lon": 0.0, "bike_id": "bd6cbc748a6cd473648a8ecfab0cc01c", "is_disabled": 0, "is_reserved": 0}, {"rental_uris": {"ios": "https://dc.lft.to/lastmile_qr_scan", "android": "https://dc.lft.to/lastmile_qr_scan"}, "lon": -77.049001, "type": "electric_bike", "fusion_lat": 0.0, "lat": 38.874915333333334, "name": "67c0034f84ac4035f3309bc3254d3840", "fusion_lon": 0.0, "bike_id": "67c0034f84ac4035f3309bc3254d3840", "is_disabled": 0, "is_reserved": 0}, {"rental_uris": {"ios": "https://dc.lft.to/lastmile_qr_scan", "android": "https://dc.lft.to/lastmile_qr_scan"}, "lon": -76.98656666666666, "type": "electric_scooter", "fusion_lat": 0.0, "lat": 38.858081166666665, "name": "f94305031946976776914531d15671e1", "fusion_lon": 0.0, "bike_id": "f94305031946976776914531d15671e1", "is_disabled": 0, "is_reserved": 0}, {"rental_uris": {"ios": "https://dc.lft.to/lastmile_qr_scan", "android": "https://dc.lft.to/lastmile_qr_scan"}, "lon": -76.98551083333334, "type": "electric_scooter", "fusion_lat": 0.0, "lat": 38.856010833333336, "name": "a0bbd8fda171c9fd9f1dc271c4b0ee72", "fusion_lon": 0.0, "bike_id": "a0bbd8fda171c9fd9f1dc271c4b0ee72", "is_disabled": 0, "is_reserved": 0}, {"rental_uris": {"ios": "https://dc.lft.to/lastmile_qr_scan", "android": "https://dc.lft.to/lastmile_qr_scan"}, "lon": -77.041886, "type": "electric_scooter", "fusion_lat": 0.0, "lat": 38.92050866666666, "name": "68bf92a625c2036404baefe13244be0f", "fusion_lon": 0.0, "bike_id": "68bf92a625c2036404baefe13244be0f", "is_disabled": 0, "is_reserved": 0}, {"rental_uris": {"ios": "https://dc.lft.to/lastmile_qr_scan", "android": "https://dc.lft.to/lastmile_qr_scan"}, "lon": -77.10030783333333, "type": "electric_bike", "fusion_lat": 0.0, "lat": 38.99062983333334, "name": "92d1f5585ab93362d0418310b94309f9", "fusion_lon": 0.0, "bike_id": "92d1f5585ab93362d0418310b94309f9", "is_disabled": 0, "is_reserved": 0}, {"rental_uris": {"ios": "https://dc.lft.to/lastmile_qr_scan", "android": "https://dc.lft.to/lastmile_qr_scan"}, "lon": -77.02223666666667, "type": "electric_scooter", "fusion_lat": 0.0, "lat": 38.8935295, "name": "68653de762bc0aa23860a8673d278663", "fusion_lon": 0.0, "bike_id": "68653de762bc0aa23860a8673d278663", "is_disabled": 0, "is_reserved": 0}, {"rental_uris": {"ios": "https://dc.lft.to/lastmile_qr_scan", "android": "https://dc.lft.to/lastmile_qr_scan"}, "lon": -77.00369933333333, "type": "electric_scooter", "fusion_lat": 0.0, "lat": 38.897629333333335, "name": "b826f0bf5be62604b16cbdb9b769dd63", "fusion_lon": 0.0, "bike_id": "b826f0bf5be62604b16cbdb9b769dd63", "is_disabled": 0, "is_reserved": 0}, {"rental_uris": {"ios": "https://dc.lft.to/lastmile_qr_scan", "android": "https://dc.lft.to/lastmile_qr_scan"}, "lon": -76.98573566666667, "type": "electric_scooter", "fusion_lat": 0.0, "lat": 38.89885616666667, "name": "e092fddc8002e202320f6f64c53b5452", "fusion_lon": 0.0, "bike_id": "e092fddc8002e202320f6f64c53b5452", "is_disabled": 0, "is_reserved": 0}, {"rental_uris": {"ios": "https://dc.lft.to/lastmile_qr_scan", "android": "https://dc.lft.to/lastmile_qr_scan"}, "lon": -76.9465455, "type": "electric_scooter", "fusion_lat": 0.0, "lat": 38.898259833333334, "name": "a3f2cd64ca5e4d8d2dfb79378dc6243f", "fusion_lon": 0.0, "bike_id": "a3f2cd64ca5e4d8d2dfb79378dc6243f", "is_disabled": 0, "is_reserved": 0}, {"rental_uris": {"ios": "https://dc.lft.to/lastmile_qr_scan", "android": "https://dc.lft.to/lastmile_qr_scan"}, "lon": -77.00194916666666, "type": "electric_scooter", "fusion_lat": 0.0, "lat": 38.9004, "name": "52d7beae41796702828842dec604b249", "fusion_lon": 0.0, "bike_id": "52d7beae41796702828842dec604b249", "is_disabled": 0, "is_reserved": 0}, {"rental_uris": {"ios": "https://dc.lft.to/lastmile_qr_scan", "android": "https://dc.lft.to/lastmile_qr_scan"}, "lon": -77.027792, "type": "electric_scooter", "fusion_lat": 0.0, "lat": 38.96458116666667, "name": "e7c7d6822be99dd0b3b5acb74cdd8b8c", "fusion_lon": 0.0, "bike_id": "e7c7d6822be99dd0b3b5acb74cdd8b8c", "is_disabled": 0, "is_reserved": 0}, {"rental_uris": {"ios": "https://dc.lft.to/lastmile_qr_scan", "android": "https://dc.lft.to/lastmile_qr_scan"}, "lon": -77.04621033333333, "type": "electric_scooter", "fusion_lat": 0.0, "lat": 38.9150245, "name": "dcae46435ebabea28390f6cc005c3622", "fusion_lon": 0.0, "bike_id": "dcae46435ebabea28390f6cc005c3622", "is_disabled": 0, "is_reserved": 0}, {"rental_uris": {"ios": "https://dc.lft.to/lastmile_qr_scan", "android": "https://dc.lft.to/lastmile_qr_scan"}, "lon": -77.0163945, "type": "electric_scooter", "fusion_lat": 0.0, "lat": 38.929426, "name": "8a982caad338ea05e2c44bad2a57f29c", "fusion_lon": 0.0, "bike_id": "8a982caad338ea05e2c44bad2a57f29c", "is_disabled": 0, "is_reserved": 0}, {"rental_uris": {"ios": "https://dc.lft.to/lastmile_qr_scan", "android": "https://dc.lft.to/lastmile_qr_scan"}, "lon": -77.048769, "type": "electric_scooter", "fusion_lat": 0.0, "lat": 38.90304833333333, "name": "9258c9d5013f26b9473a8aaa50a0948b", "fusion_lon": 0.0, "bike_id": "9258c9d5013f26b9473a8aaa50a0948b", "is_disabled": 0, "is_reserved": 0}, {"rental_uris": {"ios": "https://dc.lft.to/lastmile_qr_scan", "android": "https://dc.lft.to/lastmile_qr_scan"}, "lon": -77.044155, "type": "electric_scooter", "fusion_lat": 0.0, "lat": 38.91128666666667, "name": "9f48bb2bad48d54c78edf3108d33fe41", "fusion_lon": 0.0, "bike_id": "9f48bb2bad48d54c78edf3108d33fe41", "is_disabled": 0, "is_reserved": 0}, {"rental_uris": {"ios": "https://dc.lft.to/lastmile_qr_scan", "android": "https://dc.lft.to/lastmile_qr_scan"}, "lon": -77.01530966666667, "type": "electric_scooter", "fusion_lat": 0.0, "lat": 38.87262466666667, "name": "d4368b1ff9823bc41a95d00dcbc61b6a", "fusion_lon": 0.0, "bike_id": "d4368b1ff9823bc41a95d00dcbc61b6a", "is_disabled": 0, "is_reserved": 0}, {"rental_uris": {"ios": "https://dc.lft.to/lastmile_qr_scan", "android": "https://dc.lft.to/lastmile_qr_scan"}, "lon": -77.02443733333334, "type": "electric_scooter", "fusion_lat": 0.0, "lat": 38.95638916666667, "name": "8be5950f0c42faa0dbe90df4c343d3d3", "fusion_lon": 0.0, "bike_id": "8be5950f0c42faa0dbe90df4c343d3d3", "is_disabled": 0, "is_reserved": 0}, {"rental_uris": {"ios": "https://dc.lft.to/lastmile_qr_scan", "android": "https://dc.lft.to/lastmile_qr_scan"}, "lon": -77.0694, "type": "electric_scooter", "fusion_lat": 0.0, "lat": 38.905112833333334, "name": "843a40dedb291da1b2e943a09d9908b7", "fusion_lon": 0.0, "bike_id": "843a40dedb291da1b2e943a09d9908b7", "is_disabled": 0, "is_reserved": 0}, {"rental_uris": {"ios": "https://dc.lft.to/lastmile_qr_scan", "android": "https://dc.lft.to/lastmile_qr_scan"}, "lon": -77.03977816666666, "type": "electric_scooter", "fusion_lat": 0.0, "lat": 38.92320083333333, "name": "ca89548d36db73853e36db0a5a3fa7c7", "fusion_lon": 0.0, "bike_id": "ca89548d36db73853e36db0a5a3fa7c7", "is_disabled": 0, "is_reserved": 0}, {"rental_uris": {"ios": "https://dc.lft.to/lastmile_qr_scan", "android": "https://dc.lft.to/lastmile_qr_scan"}, "lon": -77.06881933333334, "type": "electric_scooter", "fusion_lat": 0.0, "lat": 38.90514666666667, "name": "23c96abee394ef400c4eb43b2c20765e", "fusion_lon": 0.0, "bike_id": "23c96abee394ef400c4eb43b2c20765e", "is_disabled": 0, "is_reserved": 0}, {"rental_uris": {"ios": "https://dc.lft.to/lastmile_qr_scan", "android": "https://dc.lft.to/lastmile_qr_scan"}, "lon": -76.99485116666666, "type": "electric_scooter", "fusion_lat": 0.0, "lat": 38.90229933333333, "name": "e18f8f2038ba1c3f9003fdcbd3c005a6", "fusion_lon": 0.0, "bike_id": "e18f8f2038ba1c3f9003fdcbd3c005a6", "is_disabled": 0, "is_reserved": 0}, {"rental_uris": {"ios": "https://dc.lft.to/lastmile_qr_scan", "android": "https://dc.lft.to/lastmile_qr_scan"}, "lon": -76.9986965, "type": "electric_scooter", "fusion_lat": 0.0, "lat": 38.900211666666664, "name": "a997a1edb9f8fc96fa3baa8568a82e35", "fusion_lon": 0.0, "bike_id": "a997a1edb9f8fc96fa3baa8568a82e35", "is_disabled": 0, "is_reserved": 0}, {"rental_uris": {"ios": "https://dc.lft.to/lastmile_qr_scan", "android": "https://dc.lft.to/lastmile_qr_scan"}, "lon": -77.04030566666667, "type": "electric_scooter", "fusion_lat": 0.0, "lat": 38.92442916666667, "name": "f8d9c8e53cd5d05ff43e4f88273dbc42", "fusion_lon": 0.0, "bike_id": "f8d9c8e53cd5d05ff43e4f88273dbc42", "is_disabled": 0, "is_reserved": 0}, {"rental_uris": {"ios": "https://dc.lft.to/lastmile_qr_scan", "android": "https://dc.lft.to/lastmile_qr_scan"}, "lon": -77.01162016666666, "type": "electric_scooter", "fusion_lat": 0.0, "lat": 38.9002915, "name": "a5e4058551ca2bc530d639fda236e42c", "fusion_lon": 0.0, "bike_id": "a5e4058551ca2bc530d639fda236e42c", "is_disabled": 0, "is_reserved": 0}, {"rental_uris": {"ios": "https://dc.lft.to/lastmile_qr_scan", "android": "https://dc.lft.to/lastmile_qr_scan"}, "lon": -77.03421716666666, "type": "electric_scooter", "fusion_lat": 0.0, "lat": 38.919260666666666, "name": "ae08651aa6e7bed0f39c671b06d6a054", "fusion_lon": 0.0, "bike_id": "ae08651aa6e7bed0f39c671b06d6a054", "is_disabled": 0, "is_reserved": 0}, {"rental_uris": {"ios": "https://dc.lft.to/lastmile_qr_scan", "android": "https://dc.lft.to/lastmile_qr_scan"}, "lon": -77.085406, "type": "electric_bike", "fusion_lat": 0.0, "lat": 38.85607666666667, "name": "64f0aa1fc549764503fe9ce5950070ef", "fusion_lon": 0.0, "bike_id": "64f0aa1fc549764503fe9ce5950070ef", "is_disabled": 0, "is_reserved": 0}, {"rental_uris": {"ios": "https://dc.lft.to/lastmile_qr_scan", "android": "https://dc.lft.to/lastmile_qr_scan"}, "lon": -77.03839066666667, "type": "electric_scooter", "fusion_lat": 0.0, "lat": 38.90812783333333, "name": "c9e4249cf544cfcb860f94af39aa8b9e", "fusion_lon": 0.0, "bike_id": "c9e4249cf544cfcb860f94af39aa8b9e", "is_disabled": 0, "is_reserved": 0}, {"rental_uris": {"ios": "https://dc.lft.to/lastmile_qr_scan", "android": "https://dc.lft.to/lastmile_qr_scan"}, "lon": -77.02228233333334, "type": "electric_scooter", "fusion_lat": 0.0, "lat": 38.892209666666666, "name": "e9fb89019f2ae23bdaa4d5b413af32b3", "fusion_lon": 0.0, "bike_id": "e9fb89019f2ae23bdaa4d5b413af32b3", "is_disabled": 0, "is_reserved": 0}, {"rental_uris": {"ios": "https://dc.lft.to/lastmile_qr_scan", "android": "https://dc.lft.to/lastmile_qr_scan"}, "lon": -76.98885766666666, "type": "electric_scooter", "fusion_lat": 0.0, "lat": 38.866545333333335, "name": "9c01929d8ba98018b316418489bb06e7", "fusion_lon": 0.0, "bike_id": "9c01929d8ba98018b316418489bb06e7", "is_disabled": 0, "is_reserved": 0}, {"rental_uris": {"ios": "https://dc.lft.to/lastmile_qr_scan", "android": "https://dc.lft.to/lastmile_qr_scan"}, "lon": -77.029818, "type": "electric_scooter", "fusion_lat": 0.0, "lat": 38.94602883333334, "name": "b9699c9b958d92bf1da259fb48da17e8", "fusion_lon": 0.0, "bike_id": "b9699c9b958d92bf1da259fb48da17e8", "is_disabled": 0, "is_reserved": 0}, {"rental_uris": {"ios": "https://dc.lft.to/lastmile_qr_scan", "android": "https://dc.lft.to/lastmile_qr_scan"}, "lon": -77.0007515, "type": "electric_scooter", "fusion_lat": 0.0, "lat": 38.905748333333335, "name": "3fab2bb61e79029fd0bba2680ffc0d2f", "fusion_lon": 0.0, "bike_id": "3fab2bb61e79029fd0bba2680ffc0d2f", "is_disabled": 0, "is_reserved": 0}, {"rental_uris": {"ios": "https://dc.lft.to/lastmile_qr_scan", "android": "https://dc.lft.to/lastmile_qr_scan"}, "lon": -77.12032583333334, "type": "electric_bike", "fusion_lat": 0.0, "lat": 38.855100666666665, "name": "e53c8c34ae6fa175df9dbc9ce85dc61a", "fusion_lon": 0.0, "bike_id": "e53c8c34ae6fa175df9dbc9ce85dc61a", "is_disabled": 0, "is_reserved": 0}, {"rental_uris": {"ios": "https://dc.lft.to/lastmile_qr_scan", "android": "https://dc.lft.to/lastmile_qr_scan"}, "lon": -77.013555, "type": "electric_scooter", "fusion_lat": 0.0, "lat": 38.9193735, "name": "51e3c9d9419ad4d937bca867d36da800", "fusion_lon": 0.0, "bike_id": "51e3c9d9419ad4d937bca867d36da800", "is_disabled": 0, "is_reserved": 0}, {"rental_uris": {"ios": "https://dc.lft.to/lastmile_qr_scan", "android": "https://dc.lft.to/lastmile_qr_scan"}, "lon": -77.04442233333333, "type": "electric_scooter", "fusion_lat": 0.0, "lat": 38.91012883333333, "name": "4677ea5ce604c8bcb53dbd4231a3e692", "fusion_lon": 0.0, "bike_id": "4677ea5ce604c8bcb53dbd4231a3e692", "is_disabled": 0, "is_reserved": 0}, {"rental_uris": {"ios": "https://dc.lft.to/lastmile_qr_scan", "android": "https://dc.lft.to/lastmile_qr_scan"}, "lon": -77.03444416666666, "type": "electric_scooter", "fusion_lat": 0.0, "lat": 38.91806783333333, "name": "68de6e2b2a76997055806bba5b0532e3", "fusion_lon": 0.0, "bike_id": "68de6e2b2a76997055806bba5b0532e3", "is_disabled": 0, "is_reserved": 0}, {"rental_uris": {"ios": "https://dc.lft.to/lastmile_qr_scan", "android": "https://dc.lft.to/lastmile_qr_scan"}, "lon": -76.99497233333334, "type": "electric_scooter", "fusion_lat": 0.0, "lat": 38.862405833333334, "name": "c293dbcb7c7bb06446391716ce637195", "fusion_lon": 0.0, "bike_id": "c293dbcb7c7bb06446391716ce637195", "is_disabled": 0, "is_reserved": 0}, {"rental_uris": {"ios": "https://dc.lft.to/lastmile_qr_scan", "android": "https://dc.lft.to/lastmile_qr_scan"}, "lon": -76.93176233333334, "type": "electric_scooter", "fusion_lat": 0.0, "lat": 38.89885733333333, "name": "681921a30639f3a58b0d652d3e152b58", "fusion_lon": 0.0, "bike_id": "681921a30639f3a58b0d652d3e152b58", "is_disabled": 0, "is_reserved": 0}, {"rental_uris": {"ios": "https://dc.lft.to/lastmile_qr_scan", "android": "https://dc.lft.to/lastmile_qr_scan"}, "lon": -77.03667583333333, "type": "electric_scooter", "fusion_lat": 0.0, "lat": 38.918059, "name": "ca2a09ad7dc05252dde31d984125dd37", "fusion_lon": 0.0, "bike_id": "ca2a09ad7dc05252dde31d984125dd37", "is_disabled": 0, "is_reserved": 0}, {"rental_uris": {"ios": "https://dc.lft.to/lastmile_qr_scan", "android": "https://dc.lft.to/lastmile_qr_scan"}, "lon": -77.03211183333333, "type": "electric_scooter", "fusion_lat": 0.0, "lat": 38.907585833333336, "name": "ad1e977c25bf777e36ec8984c8e78f99", "fusion_lon": 0.0, "bike_id": "ad1e977c25bf777e36ec8984c8e78f99", "is_disabled": 0, "is_reserved": 0}, {"rental_uris": {"ios": "https://dc.lft.to/lastmile_qr_scan", "android": "https://dc.lft.to/lastmile_qr_scan"}, "lon": -77.02639966666666, "type": "electric_scooter", "fusion_lat": 0.0, "lat": 38.895863, "name": "82783609571b86e5afd3fbe64c3e3cb3", "fusion_lon": 0.0, "bike_id": "82783609571b86e5afd3fbe64c3e3cb3", "is_disabled": 0, "is_reserved": 0}, {"rental_uris": {"ios": "https://dc.lft.to/lastmile_qr_scan", "android": "https://dc.lft.to/lastmile_qr_scan"}, "lon": -77.03465933333334, "type": "electric_scooter", "fusion_lat": 0.0, "lat": 38.9169175, "name": "8ab680ba71007614adef66c3b442c751", "fusion_lon": 0.0, "bike_id": "8ab680ba71007614adef66c3b442c751", "is_disabled": 0, "is_reserved": 0}, {"rental_uris": {"ios": "https://dc.lft.to/lastmile_qr_scan", "android": "https://dc.lft.to/lastmile_qr_scan"}, "lon": -77.038416, "type": "electric_scooter", "fusion_lat": 0.0, "lat": 38.92644033333333, "name": "1f17663f8cbb7fe018068e9f5add23e6", "fusion_lon": 0.0, "bike_id": "1f17663f8cbb7fe018068e9f5add23e6", "is_disabled": 0, "is_reserved": 0}, {"rental_uris": {"ios": "https://dc.lft.to/lastmile_qr_scan", "android": "https://dc.lft.to/lastmile_qr_scan"}, "lon": -77.04481366666667, "type": "electric_scooter", "fusion_lat": 0.0, "lat": 38.91845716666667, "name": "a338216d38e6f7ecc46e2a61947bbf8e", "fusion_lon": 0.0, "bike_id": "a338216d38e6f7ecc46e2a61947bbf8e", "is_disabled": 0, "is_reserved": 0}, {"rental_uris": {"ios": "https://dc.lft.to/lastmile_qr_scan", "android": "https://dc.lft.to/lastmile_qr_scan"}, "lon": -76.9987725, "type": "electric_scooter", "fusion_lat": 0.0, "lat": 38.907497166666666, "name": "86ac6b34ec3122068713e5749c7780fd", "fusion_lon": 0.0, "bike_id": "86ac6b34ec3122068713e5749c7780fd", "is_disabled": 0, "is_reserved": 0}, {"rental_uris": {"ios": "https://dc.lft.to/lastmile_qr_scan", "android": "https://dc.lft.to/lastmile_qr_scan"}, "lon": -77.015091, "type": "electric_scooter", "fusion_lat": 0.0, "lat": 38.90144183333334, "name": "77b608f8364032548b0f541225349d21", "fusion_lon": 0.0, "bike_id": "77b608f8364032548b0f541225349d21", "is_disabled": 0, "is_reserved": 0}, {"rental_uris": {"ios": "https://dc.lft.to/lastmile_qr_scan", "android": "https://dc.lft.to/lastmile_qr_scan"}, "lon": -76.97214666666666, "type": "electric_scooter", "fusion_lat": 0.0, "lat": 38.85496666666667, "name": "7524ba55008b9e967b5caed7a8442086", "fusion_lon": 0.0, "bike_id": "7524ba55008b9e967b5caed7a8442086", "is_disabled": 0, "is_reserved": 0}, {"rental_uris": {"ios": "https://dc.lft.to/lastmile_qr_scan", "android": "https://dc.lft.to/lastmile_qr_scan"}, "lon": -77.03838466666667, "type": "electric_scooter", "fusion_lat": 0.0, "lat": 38.9075705, "name": "431bd2f6e3d4943f579b5781c568caf6", "fusion_lon": 0.0, "bike_id": "431bd2f6e3d4943f579b5781c568caf6", "is_disabled": 0, "is_reserved": 0}, {"rental_uris": {"ios": "https://dc.lft.to/lastmile_qr_scan", "android": "https://dc.lft.to/lastmile_qr_scan"}, "lon": -77.03920283333333, "type": "electric_scooter", "fusion_lat": 0.0, "lat": 38.899016333333336, "name": "c7f6d044afad7f16a3fdf5849c96f008", "fusion_lon": 0.0, "bike_id": "c7f6d044afad7f16a3fdf5849c96f008", "is_disabled": 0, "is_reserved": 0}, {"rental_uris": {"ios": "https://dc.lft.to/lastmile_qr_scan", "android": "https://dc.lft.to/lastmile_qr_scan"}, "lon": -77.0433405, "type": "electric_scooter", "fusion_lat": 0.0, "lat": 38.89584266666667, "name": "04fe86efaabd64e17f82087b9710a548", "fusion_lon": 0.0, "bike_id": "04fe86efaabd64e17f82087b9710a548", "is_disabled": 0, "is_reserved": 0}, {"rental_uris": {"ios": "https://dc.lft.to/lastmile_qr_scan", "android": "https://dc.lft.to/lastmile_qr_scan"}, "lon": -77.04682333333334, "type": "electric_scooter", "fusion_lat": 0.0, "lat": 38.90414966666667, "name": "fd8f189893d89b1b1120a6fd33a745bd", "fusion_lon": 0.0, "bike_id": "fd8f189893d89b1b1120a6fd33a745bd", "is_disabled": 0, "is_reserved": 0}, {"rental_uris": {"ios": "https://dc.lft.to/lastmile_qr_scan", "android": "https://dc.lft.to/lastmile_qr_scan"}, "lon": -77.0239025, "type": "electric_scooter", "fusion_lat": 0.0, "lat": 38.917148833333336, "name": "3cffdca24f9f162c60f0eefea1308bcd", "fusion_lon": 0.0, "bike_id": "3cffdca24f9f162c60f0eefea1308bcd", "is_disabled": 0, "is_reserved": 0}, {"rental_uris": {"ios": "https://dc.lft.to/lastmile_qr_scan", "android": "https://dc.lft.to/lastmile_qr_scan"}, "lon": -76.94631766666667, "type": "electric_bike", "fusion_lat": 0.0, "lat": 38.9462475, "name": "36ff76e90bc4c6ddea615d7db2689e00", "fusion_lon": 0.0, "bike_id": "36ff76e90bc4c6ddea615d7db2689e00", "is_disabled": 0, "is_reserved": 0}, {"rental_uris": {"ios": "https://dc.lft.to/lastmile_qr_scan", "android": "https://dc.lft.to/lastmile_qr_scan"}, "lon": -76.9489115, "type": "electric_scooter", "fusion_lat": 0.0, "lat": 38.895338, "name": "c9ff8e9076e0dd7e244414e89ef35ab4", "fusion_lon": 0.0, "bike_id": "c9ff8e9076e0dd7e244414e89ef35ab4", "is_disabled": 0, "is_reserved": 0}, {"rental_uris": {"ios": "https://dc.lft.to/lastmile_qr_scan", "android": "https://dc.lft.to/lastmile_qr_scan"}, "lon": -77.00295016666666, "type": "electric_scooter", "fusion_lat": 0.0, "lat": 38.9091705, "name": "b37970e53e6d2446ce2259e1935e3adf", "fusion_lon": 0.0, "bike_id": "b37970e53e6d2446ce2259e1935e3adf", "is_disabled": 0, "is_reserved": 0}, {"rental_uris": {"ios": "https://dc.lft.to/lastmile_qr_scan", "android": "https://dc.lft.to/lastmile_qr_scan"}, "lon": -77.01618166666667, "type": "electric_scooter", "fusion_lat": 0.0, "lat": 38.899651, "name": "76dafc685455290b0eebe78d02b34963", "fusion_lon": 0.0, "bike_id": "76dafc685455290b0eebe78d02b34963", "is_disabled": 0, "is_reserved": 0}, {"rental_uris": {"ios": "https://dc.lft.to/lastmile_qr_scan", "android": "https://dc.lft.to/lastmile_qr_scan"}, "lon": -77.023585, "type": "electric_scooter", "fusion_lat": 0.0, "lat": 38.94518216666667, "name": "033b8ae9ff1aae98d859429f9f7fd891", "fusion_lon": 0.0, "bike_id": "033b8ae9ff1aae98d859429f9f7fd891", "is_disabled": 0, "is_reserved": 0}, {"rental_uris": {"ios": "https://dc.lft.to/lastmile_qr_scan", "android": "https://dc.lft.to/lastmile_qr_scan"}, "lon": -77.05886, "type": "electric_scooter", "fusion_lat": 0.0, "lat": 38.9363335, "name": "aff6852e7c64458c943891e48f2a5c49", "fusion_lon": 0.0, "bike_id": "aff6852e7c64458c943891e48f2a5c49", "is_disabled": 0, "is_reserved": 0}, {"rental_uris": {"ios": "https://dc.lft.to/lastmile_qr_scan", "android": "https://dc.lft.to/lastmile_qr_scan"}, "lon": -77.03170883333334, "type": "electric_scooter", "fusion_lat": 0.0, "lat": 38.92110916666667, "name": "853579a1ee5c4f5f257db52c0761d5f4", "fusion_lon": 0.0, "bike_id": "853579a1ee5c4f5f257db52c0761d5f4", "is_disabled": 0, "is_reserved": 0}, {"rental_uris": {"ios": "https://dc.lft.to/lastmile_qr_scan", "android": "https://dc.lft.to/lastmile_qr_scan"}, "lon": -76.995214, "type": "electric_scooter", "fusion_lat": 0.0, "lat": 38.862586666666665, "name": "b565dc12e17444486a3ef857965a7280", "fusion_lon": 0.0, "bike_id": "b565dc12e17444486a3ef857965a7280", "is_disabled": 0, "is_reserved": 0}, {"rental_uris": {"ios": "https://dc.lft.to/lastmile_qr_scan", "android": "https://dc.lft.to/lastmile_qr_scan"}, "lon": -77.037608, "type": "electric_scooter", "fusion_lat": 0.0, "lat": 38.9287895, "name": "03c16f0f63b43c73908004115e7ae960", "fusion_lon": 0.0, "bike_id": "03c16f0f63b43c73908004115e7ae960", "is_disabled": 0, "is_reserved": 0}, {"rental_uris": {"ios": "https://dc.lft.to/lastmile_qr_scan", "android": "https://dc.lft.to/lastmile_qr_scan"}, "lon": -77.02146766666667, "type": "electric_scooter", "fusion_lat": 0.0, "lat": 38.89635633333333, "name": "111d651d5cdbe48bf77881f9ad4657db", "fusion_lon": 0.0, "bike_id": "111d651d5cdbe48bf77881f9ad4657db", "is_disabled": 0, "is_reserved": 0}, {"rental_uris": {"ios": "https://dc.lft.to/lastmile_qr_scan", "android": "https://dc.lft.to/lastmile_qr_scan"}, "lon": -77.03177633333334, "type": "electric_scooter", "fusion_lat": 0.0, "lat": 38.90979516666667, "name": "83d71b1ea7840ab682617f57f9269872", "fusion_lon": 0.0, "bike_id": "83d71b1ea7840ab682617f57f9269872", "is_disabled": 0, "is_reserved": 0}, {"rental_uris": {"ios": "https://dc.lft.to/lastmile_qr_scan", "android": "https://dc.lft.to/lastmile_qr_scan"}, "lon": -77.0385405, "type": "electric_scooter", "fusion_lat": 0.0, "lat": 38.92024966666666, "name": "382e78f68d223e25aec3e8aac84ed733", "fusion_lon": 0.0, "bike_id": "382e78f68d223e25aec3e8aac84ed733", "is_disabled": 0, "is_reserved": 0}, {"rental_uris": {"ios": "https://dc.lft.to/lastmile_qr_scan", "android": "https://dc.lft.to/lastmile_qr_scan"}, "lon": -77.03262183333334, "type": "electric_scooter", "fusion_lat": 0.0, "lat": 38.94415016666667, "name": "e72bbda5722a005fdfcbd9323e4f4ee9", "fusion_lon": 0.0, "bike_id": "e72bbda5722a005fdfcbd9323e4f4ee9", "is_disabled": 0, "is_reserved": 0}, {"rental_uris": {"ios": "https://dc.lft.to/lastmile_qr_scan", "android": "https://dc.lft.to/lastmile_qr_scan"}, "lon": -77.0179515, "type": "electric_scooter", "fusion_lat": 0.0, "lat": 38.94115816666667, "name": "066eb80397c7073fcdb4e3cb0452a064", "fusion_lon": 0.0, "bike_id": "066eb80397c7073fcdb4e3cb0452a064", "is_disabled": 0, "is_reserved": 0}, {"rental_uris": {"ios": "https://dc.lft.to/lastmile_qr_scan", "android": "https://dc.lft.to/lastmile_qr_scan"}, "lon": -77.0333205, "type": "electric_scooter", "fusion_lat": 0.0, "lat": 38.898468333333334, "name": "12d7e2e277bef9bc3d251d09faebfe0d", "fusion_lon": 0.0, "bike_id": "12d7e2e277bef9bc3d251d09faebfe0d", "is_disabled": 0, "is_reserved": 0}, {"rental_uris": {"ios": "https://dc.lft.to/lastmile_qr_scan", "android": "https://dc.lft.to/lastmile_qr_scan"}, "lon": -77.06613816666666, "type": "electric_scooter", "fusion_lat": 0.0, "lat": 38.9052875, "name": "60616fedc73f12a9eea26f8dab33f14b", "fusion_lon": 0.0, "bike_id": "60616fedc73f12a9eea26f8dab33f14b", "is_disabled": 0, "is_reserved": 0}, {"rental_uris": {"ios": "https://dc.lft.to/lastmile_qr_scan", "android": "https://dc.lft.to/lastmile_qr_scan"}, "lon": -77.02025033333334, "type": "electric_scooter", "fusion_lat": 0.0, "lat": 38.932503833333335, "name": "bcadbbcad6f106538c555d057144707f", "fusion_lon": 0.0, "bike_id": "bcadbbcad6f106538c555d057144707f", "is_disabled": 0, "is_reserved": 0}, {"rental_uris": {"ios": "https://dc.lft.to/lastmile_qr_scan", "android": "https://dc.lft.to/lastmile_qr_scan"}, "lon": -76.997793, "type": "electric_scooter", "fusion_lat": 0.0, "lat": 38.84423983333333, "name": "6dc6a37bddfbf15d199f3515b1b00b8a", "fusion_lon": 0.0, "bike_id": "6dc6a37bddfbf15d199f3515b1b00b8a", "is_disabled": 0, "is_reserved": 0}, {"rental_uris": {"ios": "https://dc.lft.to/lastmile_qr_scan", "android": "https://dc.lft.to/lastmile_qr_scan"}, "lon": -77.03036716666666, "type": "electric_scooter", "fusion_lat": 0.0, "lat": 38.922618, "name": "607df1ca7760967e6ad5d7b598fa4220", "fusion_lon": 0.0, "bike_id": "607df1ca7760967e6ad5d7b598fa4220", "is_disabled": 0, "is_reserved": 0}, {"rental_uris": {"ios": "https://dc.lft.to/lastmile_qr_scan", "android": "https://dc.lft.to/lastmile_qr_scan"}, "lon": -77.07779283333333, "type": "electric_scooter", "fusion_lat": 0.0, "lat": 38.945614166666665, "name": "f64f5e2eeb211bd730e3b047ab547675", "fusion_lon": 0.0, "bike_id": "f64f5e2eeb211bd730e3b047ab547675", "is_disabled": 0, "is_reserved": 0}, {"rental_uris": {"ios": "https://dc.lft.to/lastmile_qr_scan", "android": "https://dc.lft.to/lastmile_qr_scan"}, "lon": -77.00566066666667, "type": "electric_scooter", "fusion_lat": 0.0, "lat": 38.8792775, "name": "7dc84afab5f9dc95e771cf6d437f4bc8", "fusion_lon": 0.0, "bike_id": "7dc84afab5f9dc95e771cf6d437f4bc8", "is_disabled": 0, "is_reserved": 0}, {"rental_uris": {"ios": "https://dc.lft.to/lastmile_qr_scan", "android": "https://dc.lft.to/lastmile_qr_scan"}, "lon": -77.00833083333333, "type": "electric_scooter", "fusion_lat": 0.0, "lat": 38.87900883333333, "name": "188b6d321c9a3f90620df8c4b6bb4dc3", "fusion_lon": 0.0, "bike_id": "188b6d321c9a3f90620df8c4b6bb4dc3", "is_disabled": 0, "is_reserved": 0}, {"rental_uris": {"ios": "https://dc.lft.to/lastmile_qr_scan", "android": "https://dc.lft.to/lastmile_qr_scan"}, "lon": -77.0188515, "type": "electric_scooter", "fusion_lat": 0.0, "lat": 38.917442, "name": "2f522e157e8636b3037384d69f122d4c", "fusion_lon": 0.0, "bike_id": "2f522e157e8636b3037384d69f122d4c", "is_disabled": 0, "is_reserved": 0}, {"rental_uris": {"ios": "https://dc.lft.to/lastmile_qr_scan", "android": "https://dc.lft.to/lastmile_qr_scan"}, "lon": -77.0378365, "type": "electric_scooter", "fusion_lat": 0.0, "lat": 38.926262666666666, "name": "17641064db0139a90cc6b3e14d2c6475", "fusion_lon": 0.0, "bike_id": "17641064db0139a90cc6b3e14d2c6475", "is_disabled": 0, "is_reserved": 0}, {"rental_uris": {"ios": "https://dc.lft.to/lastmile_qr_scan", "android": "https://dc.lft.to/lastmile_qr_scan"}, "lon": -77.01287533333333, "type": "electric_scooter", "fusion_lat": 0.0, "lat": 38.906161166666664, "name": "4c258a51f21cf2fffc84ac85104ecd34", "fusion_lon": 0.0, "bike_id": "4c258a51f21cf2fffc84ac85104ecd34", "is_disabled": 0, "is_reserved": 0}, {"rental_uris": {"ios": "https://dc.lft.to/lastmile_qr_scan", "android": "https://dc.lft.to/lastmile_qr_scan"}, "lon": -77.03217633333334, "type": "electric_scooter", "fusion_lat": 0.0, "lat": 38.907618666666664, "name": "eb1dc0527b26932310f95dc396c57656", "fusion_lon": 0.0, "bike_id": "eb1dc0527b26932310f95dc396c57656", "is_disabled": 0, "is_reserved": 0}, {"rental_uris": {"ios": "https://dc.lft.to/lastmile_qr_scan", "android": "https://dc.lft.to/lastmile_qr_scan"}, "lon": -76.988447, "type": "electric_bike", "fusion_lat": 0.0, "lat": 38.842767, "name": "cafc6fb823358bcb8977cd8d78d34355", "fusion_lon": 0.0, "bike_id": "cafc6fb823358bcb8977cd8d78d34355", "is_disabled": 0, "is_reserved": 0}, {"rental_uris": {"ios": "https://dc.lft.to/lastmile_qr_scan", "android": "https://dc.lft.to/lastmile_qr_scan"}, "lon": -77.002649, "type": "electric_scooter", "fusion_lat": 0.0, "lat": 38.89893433333334, "name": "e3382c777770aacf038dabf7c6037a8d", "fusion_lon": 0.0, "bike_id": "e3382c777770aacf038dabf7c6037a8d", "is_disabled": 0, "is_reserved": 0}, {"rental_uris": {"ios": "https://dc.lft.to/lastmile_qr_scan", "android": "https://dc.lft.to/lastmile_qr_scan"}, "lon": -77.03402416666667, "type": "electric_scooter", "fusion_lat": 0.0, "lat": 38.90601316666667, "name": "5691f657f7562cb41f5d5198716ea3a2", "fusion_lon": 0.0, "bike_id": "5691f657f7562cb41f5d5198716ea3a2", "is_disabled": 0, "is_reserved": 0}, {"rental_uris": {"ios": "https://dc.lft.to/lastmile_qr_scan", "android": "https://dc.lft.to/lastmile_qr_scan"}, "lon": -77.0483115, "type": "electric_scooter", "fusion_lat": 0.0, "lat": 38.909650666666664, "name": "b0b2a9ac0d674b909ae902189c8cc196", "fusion_lon": 0.0, "bike_id": "b0b2a9ac0d674b909ae902189c8cc196", "is_disabled": 0, "is_reserved": 0}, {"rental_uris": {"ios": "https://dc.lft.to/lastmile_qr_scan", "android": "https://dc.lft.to/lastmile_qr_scan"}, "lon": -77.0107935, "type": "electric_bike", "fusion_lat": 0.0, "lat": 38.95652033333333, "name": "885bf0683971a76cdb34a30e191f82bb", "fusion_lon": 0.0, "bike_id": "885bf0683971a76cdb34a30e191f82bb", "is_disabled": 0, "is_reserved": 0}, {"rental_uris": {"ios": "https://dc.lft.to/lastmile_qr_scan", "android": "https://dc.lft.to/lastmile_qr_scan"}, "lon": -77.03280733333334, "type": "electric_scooter", "fusion_lat": 0.0, "lat": 38.9349345, "name": "7423d8fdc9a5b077abcc1e46ff4a8817", "fusion_lon": 0.0, "bike_id": "7423d8fdc9a5b077abcc1e46ff4a8817", "is_disabled": 0, "is_reserved": 0}, {"rental_uris": {"ios": "https://dc.lft.to/lastmile_qr_scan", "android": "https://dc.lft.to/lastmile_qr_scan"}, "lon": -76.98957, "type": "electric_scooter", "fusion_lat": 0.0, "lat": 38.901376, "name": "e1ddaebdf6662feca0cbcf6afc2ba1b8", "fusion_lon": 0.0, "bike_id": "e1ddaebdf6662feca0cbcf6afc2ba1b8", "is_disabled": 0, "is_reserved": 0}, {"rental_uris": {"ios": "https://dc.lft.to/lastmile_qr_scan", "android": "https://dc.lft.to/lastmile_qr_scan"}, "lon": -77.0080895, "type": "electric_bike", "fusion_lat": 0.0, "lat": 38.92663433333333, "name": "b7d699a50c11a0cc81c6b0a574f3a320", "fusion_lon": 0.0, "bike_id": "b7d699a50c11a0cc81c6b0a574f3a320", "is_disabled": 0, "is_reserved": 0}, {"rental_uris": {"ios": "https://dc.lft.to/lastmile_qr_scan", "android": "https://dc.lft.to/lastmile_qr_scan"}, "lon": -77.06107266666666, "type": "electric_scooter", "fusion_lat": 0.0, "lat": 38.93704866666667, "name": "82a601d2ec515909b341720bd1334668", "fusion_lon": 0.0, "bike_id": "82a601d2ec515909b341720bd1334668", "is_disabled": 0, "is_reserved": 0}, {"rental_uris": {"ios": "https://dc.lft.to/lastmile_qr_scan", "android": "https://dc.lft.to/lastmile_qr_scan"}, "lon": -77.006589, "type": "electric_scooter", "fusion_lat": 0.0, "lat": 38.9119665, "name": "881c639c6282b7e44ac09c466a925c25", "fusion_lon": 0.0, "bike_id": "881c639c6282b7e44ac09c466a925c25", "is_disabled": 0, "is_reserved": 0}, {"rental_uris": {"ios": "https://dc.lft.to/lastmile_qr_scan", "android": "https://dc.lft.to/lastmile_qr_scan"}, "lon": -76.99670916666666, "type": "electric_scooter", "fusion_lat": 0.0, "lat": 38.910062333333336, "name": "1b02b3ed8e90ccc1d7d64b55f7f1b1fe", "fusion_lon": 0.0, "bike_id": "1b02b3ed8e90ccc1d7d64b55f7f1b1fe", "is_disabled": 0, "is_reserved": 0}, {"rental_uris": {"ios": "https://dc.lft.to/lastmile_qr_scan", "android": "https://dc.lft.to/lastmile_qr_scan"}, "lon": -76.99523216666667, "type": "electric_scooter", "fusion_lat": 0.0, "lat": 38.894837833333334, "name": "84ce4b7e427d30661c2d3724a831f594", "fusion_lon": 0.0, "bike_id": "84ce4b7e427d30661c2d3724a831f594", "is_disabled": 0, "is_reserved": 0}, {"rental_uris": {"ios": "https://dc.lft.to/lastmile_qr_scan", "android": "https://dc.lft.to/lastmile_qr_scan"}, "lon": -76.9956215, "type": "electric_scooter", "fusion_lat": 0.0, "lat": 38.928808833333335, "name": "13c1f4d922d0f85cb955eadb03b46004", "fusion_lon": 0.0, "bike_id": "13c1f4d922d0f85cb955eadb03b46004", "is_disabled": 0, "is_reserved": 0}, {"rental_uris": {"ios": "https://dc.lft.to/lastmile_qr_scan", "android": "https://dc.lft.to/lastmile_qr_scan"}, "lon": -77.0273, "type": "electric_scooter", "fusion_lat": 0.0, "lat": 38.934315, "name": "015b1fdccf580166c14c14251e6dfa73", "fusion_lon": 0.0, "bike_id": "015b1fdccf580166c14c14251e6dfa73", "is_disabled": 0, "is_reserved": 0}, {"rental_uris": {"ios": "https://dc.lft.to/lastmile_qr_scan", "android": "https://dc.lft.to/lastmile_qr_scan"}, "lon": -76.9865405, "type": "electric_scooter", "fusion_lat": 0.0, "lat": 38.85805966666667, "name": "fff68f6ad02b5330e93b206a669e1877", "fusion_lon": 0.0, "bike_id": "fff68f6ad02b5330e93b206a669e1877", "is_disabled": 0, "is_reserved": 0}, {"rental_uris": {"ios": "https://dc.lft.to/lastmile_qr_scan", "android": "https://dc.lft.to/lastmile_qr_scan"}, "lon": -76.99612333333333, "type": "electric_scooter", "fusion_lat": 0.0, "lat": 38.897417833333336, "name": "e610c1ec77cc290b422b58eadee1c8af", "fusion_lon": 0.0, "bike_id": "e610c1ec77cc290b422b58eadee1c8af", "is_disabled": 0, "is_reserved": 0}, {"rental_uris": {"ios": "https://dc.lft.to/lastmile_qr_scan", "android": "https://dc.lft.to/lastmile_qr_scan"}, "lon": -76.93875866666667, "type": "electric_scooter", "fusion_lat": 0.0, "lat": 38.900780166666664, "name": "f155308e223470dda741755849adae2d", "fusion_lon": 0.0, "bike_id": "f155308e223470dda741755849adae2d", "is_disabled": 0, "is_reserved": 0}, {"rental_uris": {"ios": "https://dc.lft.to/lastmile_qr_scan", "android": "https://dc.lft.to/lastmile_qr_scan"}, "lon": -77.0467115, "type": "electric_scooter", "fusion_lat": 0.0, "lat": 38.9074835, "name": "6511d29c7677af74c788ea7bf9ed2696", "fusion_lon": 0.0, "bike_id": "6511d29c7677af74c788ea7bf9ed2696", "is_disabled": 0, "is_reserved": 0}, {"rental_uris": {"ios": "https://dc.lft.to/lastmile_qr_scan", "android": "https://dc.lft.to/lastmile_qr_scan"}, "lon": -77.04500616666667, "type": "electric_scooter", "fusion_lat": 0.0, "lat": 38.900073, "name": "45869def9b423ddd32944b65859a9831", "fusion_lon": 0.0, "bike_id": "45869def9b423ddd32944b65859a9831", "is_disabled": 0, "is_reserved": 0}, {"rental_uris": {"ios": "https://dc.lft.to/lastmile_qr_scan", "android": "https://dc.lft.to/lastmile_qr_scan"}, "lon": -77.002066, "type": "electric_scooter", "fusion_lat": 0.0, "lat": 38.900274, "name": "3263400c6547d4593552546e0aa66dd9", "fusion_lon": 0.0, "bike_id": "3263400c6547d4593552546e0aa66dd9", "is_disabled": 0, "is_reserved": 0}, {"rental_uris": {"ios": "https://dc.lft.to/lastmile_qr_scan", "android": "https://dc.lft.to/lastmile_qr_scan"}, "lon": -77.03448133333333, "type": "electric_scooter", "fusion_lat": 0.0, "lat": 38.9073425, "name": "799bd14f155f1bf69e755c7125292d40", "fusion_lon": 0.0, "bike_id": "799bd14f155f1bf69e755c7125292d40", "is_disabled": 0, "is_reserved": 0}, {"rental_uris": {"ios": "https://dc.lft.to/lastmile_qr_scan", "android": "https://dc.lft.to/lastmile_qr_scan"}, "lon": -77.02467, "type": "electric_scooter", "fusion_lat": 0.0, "lat": 38.902424833333335, "name": "8f00316a5e92a9a1fda0bb0574a25527", "fusion_lon": 0.0, "bike_id": "8f00316a5e92a9a1fda0bb0574a25527", "is_disabled": 0, "is_reserved": 0}, {"rental_uris": {"ios": "https://dc.lft.to/lastmile_qr_scan", "android": "https://dc.lft.to/lastmile_qr_scan"}, "lon": -77.0271205, "type": "electric_scooter", "fusion_lat": 0.0, "lat": 38.9181985, "name": "4aab3e8f090b1883e02abf164d34e342", "fusion_lon": 0.0, "bike_id": "4aab3e8f090b1883e02abf164d34e342", "is_disabled": 0, "is_reserved": 0}, {"rental_uris": {"ios": "https://dc.lft.to/lastmile_qr_scan", "android": "https://dc.lft.to/lastmile_qr_scan"}, "lon": -77.048761, "type": "electric_scooter", "fusion_lat": 0.0, "lat": 38.9094955, "name": "70b9ca77ed372c042a4b08446c78c01d", "fusion_lon": 0.0, "bike_id": "70b9ca77ed372c042a4b08446c78c01d", "is_disabled": 0, "is_reserved": 0}, {"rental_uris": {"ios": "https://dc.lft.to/lastmile_qr_scan", "android": "https://dc.lft.to/lastmile_qr_scan"}, "lon": -77.01123233333334, "type": "electric_scooter", "fusion_lat": 0.0, "lat": 38.91182083333333, "name": "56723636bfb0172eb7b266e8fff8d4a6", "fusion_lon": 0.0, "bike_id": "56723636bfb0172eb7b266e8fff8d4a6", "is_disabled": 0, "is_reserved": 0}, {"rental_uris": {"ios": "https://dc.lft.to/lastmile_qr_scan", "android": "https://dc.lft.to/lastmile_qr_scan"}, "lon": -77.04218433333334, "type": "electric_scooter", "fusion_lat": 0.0, "lat": 38.914063166666665, "name": "969d45fbe384682e6eb2185b4ad7e9da", "fusion_lon": 0.0, "bike_id": "969d45fbe384682e6eb2185b4ad7e9da", "is_disabled": 0, "is_reserved": 0}, {"rental_uris": {"ios": "https://dc.lft.to/lastmile_qr_scan", "android": "https://dc.lft.to/lastmile_qr_scan"}, "lon": -76.99361933333333, "type": "electric_scooter", "fusion_lat": 0.0, "lat": 38.90032033333333, "name": "94f78e624e7a6dcc3e58508a67a0c3b6", "fusion_lon": 0.0, "bike_id": "94f78e624e7a6dcc3e58508a67a0c3b6", "is_disabled": 0, "is_reserved": 0}, {"rental_uris": {"ios": "https://dc.lft.to/lastmile_qr_scan", "android": "https://dc.lft.to/lastmile_qr_scan"}, "lon": -77.02963016666666, "type": "electric_scooter", "fusion_lat": 0.0, "lat": 38.9252365, "name": "6030674488ad8ae3db034d5108c2841c", "fusion_lon": 0.0, "bike_id": "6030674488ad8ae3db034d5108c2841c", "is_disabled": 0, "is_reserved": 0}, {"rental_uris": {"ios": "https://dc.lft.to/lastmile_qr_scan", "android": "https://dc.lft.to/lastmile_qr_scan"}, "lon": -76.99165466666666, "type": "electric_scooter", "fusion_lat": 0.0, "lat": 38.8934055, "name": "4f993e96f3f9d3bd9633def517cf4275", "fusion_lon": 0.0, "bike_id": "4f993e96f3f9d3bd9633def517cf4275", "is_disabled": 0, "is_reserved": 0}, {"rental_uris": {"ios": "https://dc.lft.to/lastmile_qr_scan", "android": "https://dc.lft.to/lastmile_qr_scan"}, "lon": -77.0481015, "type": "electric_scooter", "fusion_lat": 0.0, "lat": 38.897415, "name": "bf13c917d79bb739b824e2caf097951a", "fusion_lon": 0.0, "bike_id": "bf13c917d79bb739b824e2caf097951a", "is_disabled": 0, "is_reserved": 0}, {"rental_uris": {"ios": "https://dc.lft.to/lastmile_qr_scan", "android": "https://dc.lft.to/lastmile_qr_scan"}, "lon": -77.04544933333334, "type": "electric_scooter", "fusion_lat": 0.0, "lat": 38.903966833333335, "name": "55bc5a6221511974e9a765410d52fd43", "fusion_lon": 0.0, "bike_id": "55bc5a6221511974e9a765410d52fd43", "is_disabled": 0, "is_reserved": 0}, {"rental_uris": {"ios": "https://dc.lft.to/lastmile_qr_scan", "android": "https://dc.lft.to/lastmile_qr_scan"}, "lon": -77.01214866666666, "type": "electric_scooter", "fusion_lat": 0.0, "lat": 38.920269, "name": "d1e6bacd8c1fe95dcb0e3ce101475746", "fusion_lon": 0.0, "bike_id": "d1e6bacd8c1fe95dcb0e3ce101475746", "is_disabled": 0, "is_reserved": 0}, {"rental_uris": {"ios": "https://dc.lft.to/lastmile_qr_scan", "android": "https://dc.lft.to/lastmile_qr_scan"}, "lon": -77.02003933333333, "type": "electric_scooter", "fusion_lat": 0.0, "lat": 38.90553283333333, "name": "d9bdf614ed2e1e58aef27b5c9b7eccd7", "fusion_lon": 0.0, "bike_id": "d9bdf614ed2e1e58aef27b5c9b7eccd7", "is_disabled": 0, "is_reserved": 0}, {"rental_uris": {"ios": "https://dc.lft.to/lastmile_qr_scan", "android": "https://dc.lft.to/lastmile_qr_scan"}, "lon": -76.89541283333334, "type": "electric_bike", "fusion_lat": 0.0, "lat": 38.94553166666667, "name": "7bbf87fe7f47e151d92f68e5c9ca3641", "fusion_lon": 0.0, "bike_id": "7bbf87fe7f47e151d92f68e5c9ca3641", "is_disabled": 0, "is_reserved": 0}, {"rental_uris": {"ios": "https://dc.lft.to/lastmile_qr_scan", "android": "https://dc.lft.to/lastmile_qr_scan"}, "lon": -77.02353483333333, "type": "electric_scooter", "fusion_lat": 0.0, "lat": 38.91963666666667, "name": "a6ab8b55626bd1696f21f1f917df9012", "fusion_lon": 0.0, "bike_id": "a6ab8b55626bd1696f21f1f917df9012", "is_disabled": 0, "is_reserved": 0}, {"rental_uris": {"ios": "https://dc.lft.to/lastmile_qr_scan", "android": "https://dc.lft.to/lastmile_qr_scan"}, "lon": -77.02979466666666, "type": "electric_scooter", "fusion_lat": 0.0, "lat": 38.916306, "name": "4204ee4d8f9cbb199ca912d2cd07e37c", "fusion_lon": 0.0, "bike_id": "4204ee4d8f9cbb199ca912d2cd07e37c", "is_disabled": 0, "is_reserved": 0}, {"rental_uris": {"ios": "https://dc.lft.to/lastmile_qr_scan", "android": "https://dc.lft.to/lastmile_qr_scan"}, "lon": -77.04447966666666, "type": "electric_scooter", "fusion_lat": 0.0, "lat": 38.90571533333333, "name": "23f19ab2be97282e79051fb24d239d91", "fusion_lon": 0.0, "bike_id": "23f19ab2be97282e79051fb24d239d91", "is_disabled": 0, "is_reserved": 0}, {"rental_uris": {"ios": "https://dc.lft.to/lastmile_qr_scan", "android": "https://dc.lft.to/lastmile_qr_scan"}, "lon": -77.03901133333333, "type": "electric_scooter", "fusion_lat": 0.0, "lat": 38.91836133333334, "name": "2d883cab33c9c42382333b971650ffba", "fusion_lon": 0.0, "bike_id": "2d883cab33c9c42382333b971650ffba", "is_disabled": 0, "is_reserved": 0}, {"rental_uris": {"ios": "https://dc.lft.to/lastmile_qr_scan", "android": "https://dc.lft.to/lastmile_qr_scan"}, "lon": -76.98453133333334, "type": "electric_scooter", "fusion_lat": 0.0, "lat": 38.914651666666664, "name": "8b0469d945f349cb270c5f34681a92c9", "fusion_lon": 0.0, "bike_id": "8b0469d945f349cb270c5f34681a92c9", "is_disabled": 0, "is_reserved": 0}, {"rental_uris": {"ios": "https://dc.lft.to/lastmile_qr_scan", "android": "https://dc.lft.to/lastmile_qr_scan"}, "lon": -76.9782225, "type": "electric_scooter", "fusion_lat": 0.0, "lat": 38.895185, "name": "9aae81c3d6fca18853f6554065474966", "fusion_lon": 0.0, "bike_id": "9aae81c3d6fca18853f6554065474966", "is_disabled": 0, "is_reserved": 0}, {"rental_uris": {"ios": "https://dc.lft.to/lastmile_qr_scan", "android": "https://dc.lft.to/lastmile_qr_scan"}, "lon": -77.01794966666667, "type": "electric_scooter", "fusion_lat": 0.0, "lat": 38.90063166666667, "name": "506737a1bc62192cd0a15ee01bd84517", "fusion_lon": 0.0, "bike_id": "506737a1bc62192cd0a15ee01bd84517", "is_disabled": 0, "is_reserved": 0}, {"rental_uris": {"ios": "https://dc.lft.to/lastmile_qr_scan", "android": "https://dc.lft.to/lastmile_qr_scan"}, "lon": -77.07147483333334, "type": "electric_scooter", "fusion_lat": 0.0, "lat": 38.927290666666664, "name": "66a813d5d09bfa53c079c730852e617d", "fusion_lon": 0.0, "bike_id": "66a813d5d09bfa53c079c730852e617d", "is_disabled": 0, "is_reserved": 0}, {"rental_uris": {"ios": "https://dc.lft.to/lastmile_qr_scan", "android": "https://dc.lft.to/lastmile_qr_scan"}, "lon": -77.070308, "type": "electric_scooter", "fusion_lat": 0.0, "lat": 38.9073195, "name": "f74a953324ed7588c03783757172b83f", "fusion_lon": 0.0, "bike_id": "f74a953324ed7588c03783757172b83f", "is_disabled": 0, "is_reserved": 0}, {"rental_uris": {"ios": "https://dc.lft.to/lastmile_qr_scan", "android": "https://dc.lft.to/lastmile_qr_scan"}, "lon": -77.0250645, "type": "electric_scooter", "fusion_lat": 0.0, "lat": 38.90716716666667, "name": "d349517d9008268425cc5acbe080ea34", "fusion_lon": 0.0, "bike_id": "d349517d9008268425cc5acbe080ea34", "is_disabled": 0, "is_reserved": 0}, {"rental_uris": {"ios": "https://dc.lft.to/lastmile_qr_scan", "android": "https://dc.lft.to/lastmile_qr_scan"}, "lon": -76.94999233333333, "type": "electric_scooter", "fusion_lat": 0.0, "lat": 38.89369, "name": "b5c9286d6dfae68712a2899fa0c38b45", "fusion_lon": 0.0, "bike_id": "b5c9286d6dfae68712a2899fa0c38b45", "is_disabled": 0, "is_reserved": 0}, {"rental_uris": {"ios": "https://dc.lft.to/lastmile_qr_scan", "android": "https://dc.lft.to/lastmile_qr_scan"}, "lon": -77.01212416666667, "type": "electric_scooter", "fusion_lat": 0.0, "lat": 38.9142255, "name": "34dcfa0ae1673df60da87ba41d162c01", "fusion_lon": 0.0, "bike_id": "34dcfa0ae1673df60da87ba41d162c01", "is_disabled": 0, "is_reserved": 0}, {"rental_uris": {"ios": "https://dc.lft.to/lastmile_qr_scan", "android": "https://dc.lft.to/lastmile_qr_scan"}, "lon": -77.18291383333333, "type": "electric_bike", "fusion_lat": 0.0, "lat": 38.88338233333333, "name": "2cfba96bc20178f40a27b0d276fcb084", "fusion_lon": 0.0, "bike_id": "2cfba96bc20178f40a27b0d276fcb084", "is_disabled": 0, "is_reserved": 0}, {"rental_uris": {"ios": "https://dc.lft.to/lastmile_qr_scan", "android": "https://dc.lft.to/lastmile_qr_scan"}, "lon": -77.05070733333334, "type": "electric_scooter", "fusion_lat": 0.0, "lat": 38.90078316666666, "name": "06e67d9e80253a3d9277698007c01716", "fusion_lon": 0.0, "bike_id": "06e67d9e80253a3d9277698007c01716", "is_disabled": 0, "is_reserved": 0}, {"rental_uris": {"ios": "https://dc.lft.to/lastmile_qr_scan", "android": "https://dc.lft.to/lastmile_qr_scan"}, "lon": -77.03858116666666, "type": "electric_scooter", "fusion_lat": 0.0, "lat": 38.903009833333336, "name": "4f8e60efe5b01d92f620d833e691e3b3", "fusion_lon": 0.0, "bike_id": "4f8e60efe5b01d92f620d833e691e3b3", "is_disabled": 0, "is_reserved": 0}, {"rental_uris": {"ios": "https://dc.lft.to/lastmile_qr_scan", "android": "https://dc.lft.to/lastmile_qr_scan"}, "lon": -77.02477333333333, "type": "electric_scooter", "fusion_lat": 0.0, "lat": 38.93095983333333, "name": "c1c511d4d27d432158fd8c3f32c5fbdb", "fusion_lon": 0.0, "bike_id": "c1c511d4d27d432158fd8c3f32c5fbdb", "is_disabled": 0, "is_reserved": 0}, {"rental_uris": {"ios": "https://dc.lft.to/lastmile_qr_scan", "android": "https://dc.lft.to/lastmile_qr_scan"}, "lon": -77.03317, "type": "electric_scooter", "fusion_lat": 0.0, "lat": 38.90145733333333, "name": "20c0d2a329bfd02a4147554b924ad7e8", "fusion_lon": 0.0, "bike_id": "20c0d2a329bfd02a4147554b924ad7e8", "is_disabled": 0, "is_reserved": 0}, {"rental_uris": {"ios": "https://dc.lft.to/lastmile_qr_scan", "android": "https://dc.lft.to/lastmile_qr_scan"}, "lon": -76.9906925, "type": "electric_scooter", "fusion_lat": 0.0, "lat": 38.863584333333336, "name": "df78dec43dc327a5e0a0897d5901af82", "fusion_lon": 0.0, "bike_id": "df78dec43dc327a5e0a0897d5901af82", "is_disabled": 0, "is_reserved": 0}, {"rental_uris": {"ios": "https://dc.lft.to/lastmile_qr_scan", "android": "https://dc.lft.to/lastmile_qr_scan"}, "lon": -77.03896566666667, "type": "electric_scooter", "fusion_lat": 0.0, "lat": 38.943967, "name": "38e33deef9c03904b92fc52a9a2ab4ff", "fusion_lon": 0.0, "bike_id": "38e33deef9c03904b92fc52a9a2ab4ff", "is_disabled": 0, "is_reserved": 0}, {"rental_uris": {"ios": "https://dc.lft.to/lastmile_qr_scan", "android": "https://dc.lft.to/lastmile_qr_scan"}, "lon": -77.02706816666667, "type": "electric_scooter", "fusion_lat": 0.0, "lat": 38.90888016666667, "name": "175ae2c596de062a7c9a91b65cd1ba3e", "fusion_lon": 0.0, "bike_id": "175ae2c596de062a7c9a91b65cd1ba3e", "is_disabled": 0, "is_reserved": 0}, {"rental_uris": {"ios": "https://dc.lft.to/lastmile_qr_scan", "android": "https://dc.lft.to/lastmile_qr_scan"}, "lon": -76.93162633333333, "type": "electric_bike", "fusion_lat": 0.0, "lat": 38.90866333333334, "name": "3b59ea15ea2b3f83b8b6582ab81a7fde", "fusion_lon": 0.0, "bike_id": "3b59ea15ea2b3f83b8b6582ab81a7fde", "is_disabled": 0, "is_reserved": 0}, {"rental_uris": {"ios": "https://dc.lft.to/lastmile_qr_scan", "android": "https://dc.lft.to/lastmile_qr_scan"}, "lon": -77.0281265, "type": "electric_scooter", "fusion_lat": 0.0, "lat": 38.961445833333336, "name": "3eb2efa51637cea9adcee8bcf38b4034", "fusion_lon": 0.0, "bike_id": "3eb2efa51637cea9adcee8bcf38b4034", "is_disabled": 0, "is_reserved": 0}, {"rental_uris": {"ios": "https://dc.lft.to/lastmile_qr_scan", "android": "https://dc.lft.to/lastmile_qr_scan"}, "lon": -76.94145766666666, "type": "electric_scooter", "fusion_lat": 0.0, "lat": 38.896815333333336, "name": "f187a59059125e465096730dc7e8a05a", "fusion_lon": 0.0, "bike_id": "f187a59059125e465096730dc7e8a05a", "is_disabled": 0, "is_reserved": 0}, {"rental_uris": {"ios": "https://dc.lft.to/lastmile_qr_scan", "android": "https://dc.lft.to/lastmile_qr_scan"}, "lon": -77.0289215, "type": "electric_scooter", "fusion_lat": 0.0, "lat": 38.907186833333334, "name": "3260e3cfbb06d6891e9a97abe0614dd0", "fusion_lon": 0.0, "bike_id": "3260e3cfbb06d6891e9a97abe0614dd0", "is_disabled": 0, "is_reserved": 0}, {"rental_uris": {"ios": "https://dc.lft.to/lastmile_qr_scan", "android": "https://dc.lft.to/lastmile_qr_scan"}, "lon": -77.09551633333334, "type": "electric_bike", "fusion_lat": 0.0, "lat": 38.837302, "name": "d3ea42cb57e615c4c700caed8e3121bb", "fusion_lon": 0.0, "bike_id": "d3ea42cb57e615c4c700caed8e3121bb", "is_disabled": 0, "is_reserved": 0}, {"rental_uris": {"ios": "https://dc.lft.to/lastmile_qr_scan", "android": "https://dc.lft.to/lastmile_qr_scan"}, "lon": -77.003766, "type": "electric_bike", "fusion_lat": 0.0, "lat": 38.836032333333335, "name": "eb919294d83afaa2eadd0323e95dcef2", "fusion_lon": 0.0, "bike_id": "eb919294d83afaa2eadd0323e95dcef2", "is_disabled": 0, "is_reserved": 0}, {"rental_uris": {"ios": "https://dc.lft.to/lastmile_qr_scan", "android": "https://dc.lft.to/lastmile_qr_scan"}, "lon": -77.04035416666666, "type": "electric_scooter", "fusion_lat": 0.0, "lat": 38.91707266666667, "name": "3fb0a12603c8c5f43e0b1821b70c1974", "fusion_lon": 0.0, "bike_id": "3fb0a12603c8c5f43e0b1821b70c1974", "is_disabled": 0, "is_reserved": 0}, {"rental_uris": {"ios": "https://dc.lft.to/lastmile_qr_scan", "android": "https://dc.lft.to/lastmile_qr_scan"}, "lon": -76.991437, "type": "electric_scooter", "fusion_lat": 0.0, "lat": 38.90031833333333, "name": "b0a7902ea5402bfbb80b236bbff1dec9", "fusion_lon": 0.0, "bike_id": "b0a7902ea5402bfbb80b236bbff1dec9", "is_disabled": 0, "is_reserved": 0}, {"rental_uris": {"ios": "https://dc.lft.to/lastmile_qr_scan", "android": "https://dc.lft.to/lastmile_qr_scan"}, "lon": -77.0951395, "type": "electric_bike", "fusion_lat": 0.0, "lat": 38.8076635, "name": "1f774ddf246bdc386e7fd8df2adb9e6a", "fusion_lon": 0.0, "bike_id": "1f774ddf246bdc386e7fd8df2adb9e6a", "is_disabled": 0, "is_reserved": 0}, {"rental_uris": {"ios": "https://dc.lft.to/lastmile_qr_scan", "android": "https://dc.lft.to/lastmile_qr_scan"}, "lon": -77.01174983333334, "type": "electric_scooter", "fusion_lat": 0.0, "lat": 38.90029916666667, "name": "7611bdbf5768ab773f283a45dc38a9cc", "fusion_lon": 0.0, "bike_id": "7611bdbf5768ab773f283a45dc38a9cc", "is_disabled": 0, "is_reserved": 0}, {"rental_uris": {"ios": "https://dc.lft.to/lastmile_qr_scan", "android": "https://dc.lft.to/lastmile_qr_scan"}, "lon": -77.03342933333333, "type": "electric_scooter", "fusion_lat": 0.0, "lat": 38.9191815, "name": "75c314d85383ff9542a5815c59828bd3", "fusion_lon": 0.0, "bike_id": "75c314d85383ff9542a5815c59828bd3", "is_disabled": 0, "is_reserved": 0}, {"rental_uris": {"ios": "https://dc.lft.to/lastmile_qr_scan", "android": "https://dc.lft.to/lastmile_qr_scan"}, "lon": -76.98619633333334, "type": "electric_scooter", "fusion_lat": 0.0, "lat": 38.868300833333336, "name": "b108c80339f9d75e119aebaaac13594a", "fusion_lon": 0.0, "bike_id": "b108c80339f9d75e119aebaaac13594a", "is_disabled": 0, "is_reserved": 0}, {"rental_uris": {"ios": "https://dc.lft.to/lastmile_qr_scan", "android": "https://dc.lft.to/lastmile_qr_scan"}, "lon": -77.13598033333334, "type": "electric_bike", "fusion_lat": 0.0, "lat": 39.053460333333334, "name": "6040e116d680b1c59fd7aaa046e0cd5f", "fusion_lon": 0.0, "bike_id": "6040e116d680b1c59fd7aaa046e0cd5f", "is_disabled": 0, "is_reserved": 0}, {"rental_uris": {"ios": "https://dc.lft.to/lastmile_qr_scan", "android": "https://dc.lft.to/lastmile_qr_scan"}, "lon": -77.03419383333333, "type": "electric_scooter", "fusion_lat": 0.0, "lat": 38.90252983333333, "name": "267a09669c023ecefd26afb926f75ffd", "fusion_lon": 0.0, "bike_id": "267a09669c023ecefd26afb926f75ffd", "is_disabled": 0, "is_reserved": 0}, {"rental_uris": {"ios": "https://dc.lft.to/lastmile_qr_scan", "android": "https://dc.lft.to/lastmile_qr_scan"}, "lon": -76.98712283333333, "type": "electric_scooter", "fusion_lat": 0.0, "lat": 38.862720833333334, "name": "124f57e9b1e3ea0dbc2fcedaa169bb44", "fusion_lon": 0.0, "bike_id": "124f57e9b1e3ea0dbc2fcedaa169bb44", "is_disabled": 0, "is_reserved": 0}, {"rental_uris": {"ios": "https://dc.lft.to/lastmile_qr_scan", "android": "https://dc.lft.to/lastmile_qr_scan"}, "lon": -77.04183666666667, "type": "electric_scooter", "fusion_lat": 0.0, "lat": 38.9004715, "name": "8bdf3cc426238850a3490ad3a7f8f1f0", "fusion_lon": 0.0, "bike_id": "8bdf3cc426238850a3490ad3a7f8f1f0", "is_disabled": 0, "is_reserved": 0}, {"rental_uris": {"ios": "https://dc.lft.to/lastmile_qr_scan", "android": "https://dc.lft.to/lastmile_qr_scan"}, "lon": -77.07880683333333, "type": "electric_scooter", "fusion_lat": 0.0, "lat": 38.925480666666665, "name": "fd211f836db6861b124e3b1c722db12a", "fusion_lon": 0.0, "bike_id": "fd211f836db6861b124e3b1c722db12a", "is_disabled": 0, "is_reserved": 0}, {"rental_uris": {"ios": "https://dc.lft.to/lastmile_qr_scan", "android": "https://dc.lft.to/lastmile_qr_scan"}, "lon": -77.01750716666666, "type": "electric_scooter", "fusion_lat": 0.0, "lat": 38.88311, "name": "9b8f913cf09276beb47f7d9b5c828695", "fusion_lon": 0.0, "bike_id": "9b8f913cf09276beb47f7d9b5c828695", "is_disabled": 0, "is_reserved": 0}, {"rental_uris": {"ios": "https://dc.lft.to/lastmile_qr_scan", "android": "https://dc.lft.to/lastmile_qr_scan"}, "lon": -77.01261283333334, "type": "electric_scooter", "fusion_lat": 0.0, "lat": 38.89963783333334, "name": "222c81dc4f43714d09d6b856af0a60ff", "fusion_lon": 0.0, "bike_id": "222c81dc4f43714d09d6b856af0a60ff", "is_disabled": 0, "is_reserved": 0}, {"rental_uris": {"ios": "https://dc.lft.to/lastmile_qr_scan", "android": "https://dc.lft.to/lastmile_qr_scan"}, "lon": -77.00207433333334, "type": "electric_scooter", "fusion_lat": 0.0, "lat": 38.900361833333335, "name": "ba68a4d7cc2ba93aa198ce71b4da8d03", "fusion_lon": 0.0, "bike_id": "ba68a4d7cc2ba93aa198ce71b4da8d03", "is_disabled": 0, "is_reserved": 0}, {"rental_uris": {"ios": "https://dc.lft.to/lastmile_qr_scan", "android": "https://dc.lft.to/lastmile_qr_scan"}, "lon": -77.030693, "type": "electric_scooter", "fusion_lat": 0.0, "lat": 38.897201333333335, "name": "a975bbd2044fdcef73ac280471bfa707", "fusion_lon": 0.0, "bike_id": "a975bbd2044fdcef73ac280471bfa707", "is_disabled": 0, "is_reserved": 0}, {"rental_uris": {"ios": "https://dc.lft.to/lastmile_qr_scan", "android": "https://dc.lft.to/lastmile_qr_scan"}, "lon": -77.01188916666666, "type": "electric_scooter", "fusion_lat": 0.0, "lat": 38.911094, "name": "617bde7c4dec0b8343783bce02fef11f", "fusion_lon": 0.0, "bike_id": "617bde7c4dec0b8343783bce02fef11f", "is_disabled": 0, "is_reserved": 0}, {"rental_uris": {"ios": "https://dc.lft.to/lastmile_qr_scan", "android": "https://dc.lft.to/lastmile_qr_scan"}, "lon": -77.07091316666667, "type": "electric_bike", "fusion_lat": 0.0, "lat": 38.95556833333333, "name": "df92bed5790986d977bf1c42628fe6b2", "fusion_lon": 0.0, "bike_id": "df92bed5790986d977bf1c42628fe6b2", "is_disabled": 0, "is_reserved": 0}, {"rental_uris": {"ios": "https://dc.lft.to/lastmile_qr_scan", "android": "https://dc.lft.to/lastmile_qr_scan"}, "lon": -77.04071133333333, "type": "electric_scooter", "fusion_lat": 0.0, "lat": 38.92394133333333, "name": "310482509f8ab1680d08dd0c66928aac", "fusion_lon": 0.0, "bike_id": "310482509f8ab1680d08dd0c66928aac", "is_disabled": 0, "is_reserved": 0}, {"rental_uris": {"ios": "https://dc.lft.to/lastmile_qr_scan", "android": "https://dc.lft.to/lastmile_qr_scan"}, "lon": -77.0176615, "type": "electric_scooter", "fusion_lat": 0.0, "lat": 38.8771785, "name": "9daa9191772d853b83beb85bc14cfd5a", "fusion_lon": 0.0, "bike_id": "9daa9191772d853b83beb85bc14cfd5a", "is_disabled": 0, "is_reserved": 0}, {"rental_uris": {"ios": "https://dc.lft.to/lastmile_qr_scan", "android": "https://dc.lft.to/lastmile_qr_scan"}, "lon": -77.01216833333334, "type": "electric_scooter", "fusion_lat": 0.0, "lat": 38.91265966666667, "name": "16e96959a9782d1ddfe8699239e9b507", "fusion_lon": 0.0, "bike_id": "16e96959a9782d1ddfe8699239e9b507", "is_disabled": 0, "is_reserved": 0}, {"rental_uris": {"ios": "https://dc.lft.to/lastmile_qr_scan", "android": "https://dc.lft.to/lastmile_qr_scan"}, "lon": -76.9652665, "type": "electric_bike", "fusion_lat": 0.0, "lat": 38.87486466666667, "name": "a3f833ed3c3bd0831a1e265ed9142876", "fusion_lon": 0.0, "bike_id": "a3f833ed3c3bd0831a1e265ed9142876", "is_disabled": 0, "is_reserved": 0}, {"rental_uris": {"ios": "https://dc.lft.to/lastmile_qr_scan", "android": "https://dc.lft.to/lastmile_qr_scan"}, "lon": -77.01775683333334, "type": "electric_scooter", "fusion_lat": 0.0, "lat": 38.92105466666667, "name": "a271d96279c7316a4c8ed291e6d9b636", "fusion_lon": 0.0, "bike_id": "a271d96279c7316a4c8ed291e6d9b636", "is_disabled": 0, "is_reserved": 0}, {"rental_uris": {"ios": "https://dc.lft.to/lastmile_qr_scan", "android": "https://dc.lft.to/lastmile_qr_scan"}, "lon": -77.01768583333333, "type": "electric_scooter", "fusion_lat": 0.0, "lat": 38.887286333333336, "name": "45473e100c3abc5835d82316523a02c9", "fusion_lon": 0.0, "bike_id": "45473e100c3abc5835d82316523a02c9", "is_disabled": 0, "is_reserved": 0}, {"rental_uris": {"ios": "https://dc.lft.to/lastmile_qr_scan", "android": "https://dc.lft.to/lastmile_qr_scan"}, "lon": -77.02714266666666, "type": "electric_scooter", "fusion_lat": 0.0, "lat": 38.90687766666667, "name": "ae63d71ede804820db5b805ff3cc5040", "fusion_lon": 0.0, "bike_id": "ae63d71ede804820db5b805ff3cc5040", "is_disabled": 0, "is_reserved": 0}, {"rental_uris": {"ios": "https://dc.lft.to/lastmile_qr_scan", "android": "https://dc.lft.to/lastmile_qr_scan"}, "lon": -77.026147, "type": "electric_scooter", "fusion_lat": 0.0, "lat": 38.916911166666665, "name": "0dbab5d337e0ec0d930735011c36c776", "fusion_lon": 0.0, "bike_id": "0dbab5d337e0ec0d930735011c36c776", "is_disabled": 0, "is_reserved": 0}, {"rental_uris": {"ios": "https://dc.lft.to/lastmile_qr_scan", "android": "https://dc.lft.to/lastmile_qr_scan"}, "lon": -77.026844, "type": "electric_scooter", "fusion_lat": 0.0, "lat": 38.90718783333333, "name": "e8db475c590dbff4e2ea05527896840b", "fusion_lon": 0.0, "bike_id": "e8db475c590dbff4e2ea05527896840b", "is_disabled": 0, "is_reserved": 0}, {"rental_uris": {"ios": "https://dc.lft.to/lastmile_qr_scan", "android": "https://dc.lft.to/lastmile_qr_scan"}, "lon": -77.0300845, "type": "electric_scooter", "fusion_lat": 0.0, "lat": 38.912504166666665, "name": "102ea14f39804a9fdd7b6f360f284614", "fusion_lon": 0.0, "bike_id": "102ea14f39804a9fdd7b6f360f284614", "is_disabled": 0, "is_reserved": 0}, {"rental_uris": {"ios": "https://dc.lft.to/lastmile_qr_scan", "android": "https://dc.lft.to/lastmile_qr_scan"}, "lon": -77.068852, "type": "electric_scooter", "fusion_lat": 0.0, "lat": 38.9076535, "name": "18d551575c3d47f10690a2ca97c33fff", "fusion_lon": 0.0, "bike_id": "18d551575c3d47f10690a2ca97c33fff", "is_disabled": 0, "is_reserved": 0}, {"rental_uris": {"ios": "https://dc.lft.to/lastmile_qr_scan", "android": "https://dc.lft.to/lastmile_qr_scan"}, "lon": -76.988806, "type": "electric_scooter", "fusion_lat": 0.0, "lat": 38.866543, "name": "0bec901e0f46328d1c4ef67af4a73983", "fusion_lon": 0.0, "bike_id": "0bec901e0f46328d1c4ef67af4a73983", "is_disabled": 0, "is_reserved": 0}, {"rental_uris": {"ios": "https://dc.lft.to/lastmile_qr_scan", "android": "https://dc.lft.to/lastmile_qr_scan"}, "lon": -77.026716, "type": "electric_scooter", "fusion_lat": 0.0, "lat": 38.89598, "name": "bed305d4a9f1108b5554221729d7a066", "fusion_lon": 0.0, "bike_id": "bed305d4a9f1108b5554221729d7a066", "is_disabled": 0, "is_reserved": 0}, {"rental_uris": {"ios": "https://dc.lft.to/lastmile_qr_scan", "android": "https://dc.lft.to/lastmile_qr_scan"}, "lon": -77.038592, "type": "electric_scooter", "fusion_lat": 0.0, "lat": 38.902987833333334, "name": "29924192b18e6f45eb62aa48a1438299", "fusion_lon": 0.0, "bike_id": "29924192b18e6f45eb62aa48a1438299", "is_disabled": 0, "is_reserved": 0}, {"rental_uris": {"ios": "https://dc.lft.to/lastmile_qr_scan", "android": "https://dc.lft.to/lastmile_qr_scan"}, "lon": -76.99786933333333, "type": "electric_bike", "fusion_lat": 0.0, "lat": 38.922889, "name": "2868423759e28daa0f8d51d86f3162aa", "fusion_lon": 0.0, "bike_id": "2868423759e28daa0f8d51d86f3162aa", "is_disabled": 0, "is_reserved": 0}, {"rental_uris": {"ios": "https://dc.lft.to/lastmile_qr_scan", "android": "https://dc.lft.to/lastmile_qr_scan"}, "lon": -76.9317695, "type": "electric_scooter", "fusion_lat": 0.0, "lat": 38.898879, "name": "9df8a65bf60d5bc8f49c3e75c6a03982", "fusion_lon": 0.0, "bike_id": "9df8a65bf60d5bc8f49c3e75c6a03982", "is_disabled": 0, "is_reserved": 0}, {"rental_uris": {"ios": "https://dc.lft.to/lastmile_qr_scan", "android": "https://dc.lft.to/lastmile_qr_scan"}, "lon": -77.113186, "type": "electric_bike", "fusion_lat": 0.0, "lat": 38.855654, "name": "b54a0a0fff291adf54822ebdb6b3585f", "fusion_lon": 0.0, "bike_id": "b54a0a0fff291adf54822ebdb6b3585f", "is_disabled": 0, "is_reserved": 0}, {"rental_uris": {"ios": "https://dc.lft.to/lastmile_qr_scan", "android": "https://dc.lft.to/lastmile_qr_scan"}, "lon": -77.029783, "type": "electric_scooter", "fusion_lat": 0.0, "lat": 38.93883683333333, "name": "338622441567ca25bd3753d851acd6b0", "fusion_lon": 0.0, "bike_id": "338622441567ca25bd3753d851acd6b0", "is_disabled": 0, "is_reserved": 0}, {"rental_uris": {"ios": "https://dc.lft.to/lastmile_qr_scan", "android": "https://dc.lft.to/lastmile_qr_scan"}, "lon": -77.07684233333333, "type": "electric_bike", "fusion_lat": 0.0, "lat": 38.83191816666667, "name": "c5b6ff00b77387c67e8cd3618e5cd33e", "fusion_lon": 0.0, "bike_id": "c5b6ff00b77387c67e8cd3618e5cd33e", "is_disabled": 0, "is_reserved": 0}, {"rental_uris": {"ios": "https://dc.lft.to/lastmile_qr_scan", "android": "https://dc.lft.to/lastmile_qr_scan"}, "lon": -77.029802, "type": "electric_scooter", "fusion_lat": 0.0, "lat": 38.90737883333333, "name": "a24fbc30411d5a2488e282880ee58ef5", "fusion_lon": 0.0, "bike_id": "a24fbc30411d5a2488e282880ee58ef5", "is_disabled": 0, "is_reserved": 0}, {"rental_uris": {"ios": "https://dc.lft.to/lastmile_qr_scan", "android": "https://dc.lft.to/lastmile_qr_scan"}, "lon": -77.04379816666666, "type": "electric_scooter", "fusion_lat": 0.0, "lat": 38.92062283333333, "name": "46a9fb3cc41f278a8701cb2f214ed21d", "fusion_lon": 0.0, "bike_id": "46a9fb3cc41f278a8701cb2f214ed21d", "is_disabled": 0, "is_reserved": 0}, {"rental_uris": {"ios": "https://dc.lft.to/lastmile_qr_scan", "android": "https://dc.lft.to/lastmile_qr_scan"}, "lon": -77.03225683333334, "type": "electric_scooter", "fusion_lat": 0.0, "lat": 38.92587566666667, "name": "76652d247a1bff3bc42bde94f177cd9d", "fusion_lon": 0.0, "bike_id": "76652d247a1bff3bc42bde94f177cd9d", "is_disabled": 0, "is_reserved": 0}, {"rental_uris": {"ios": "https://dc.lft.to/lastmile_qr_scan", "android": "https://dc.lft.to/lastmile_qr_scan"}, "lon": -77.11205633333333, "type": "electric_bike", "fusion_lat": 0.0, "lat": 38.81310583333333, "name": "e7de1be6c15f5ce12649def53c8ccaf2", "fusion_lon": 0.0, "bike_id": "e7de1be6c15f5ce12649def53c8ccaf2", "is_disabled": 0, "is_reserved": 0}, {"rental_uris": {"ios": "https://dc.lft.to/lastmile_qr_scan", "android": "https://dc.lft.to/lastmile_qr_scan"}, "lon": -77.048036, "type": "electric_scooter", "fusion_lat": 0.0, "lat": 38.896054, "name": "b222be48cfc6c17837c1d74a3825236e", "fusion_lon": 0.0, "bike_id": "b222be48cfc6c17837c1d74a3825236e", "is_disabled": 0, "is_reserved": 0}, {"rental_uris": {"ios": "https://dc.lft.to/lastmile_qr_scan", "android": "https://dc.lft.to/lastmile_qr_scan"}, "lon": -77.04460683333333, "type": "electric_scooter", "fusion_lat": 0.0, "lat": 38.9111075, "name": "2105883dbfc2d035cbbd32799f0cb51e", "fusion_lon": 0.0, "bike_id": "2105883dbfc2d035cbbd32799f0cb51e", "is_disabled": 0, "is_reserved": 0}, {"rental_uris": {"ios": "https://dc.lft.to/lastmile_qr_scan", "android": "https://dc.lft.to/lastmile_qr_scan"}, "lon": -77.02205883333333, "type": "electric_scooter", "fusion_lat": 0.0, "lat": 38.89490983333334, "name": "dfc3617b3835629552c4737d940242bf", "fusion_lon": 0.0, "bike_id": "dfc3617b3835629552c4737d940242bf", "is_disabled": 0, "is_reserved": 0}, {"rental_uris": {"ios": "https://dc.lft.to/lastmile_qr_scan", "android": "https://dc.lft.to/lastmile_qr_scan"}, "lon": -77.037254, "type": "electric_scooter", "fusion_lat": 0.0, "lat": 38.93358416666667, "name": "8b8a0c4d50cb936c1d4c474c9e489b03", "fusion_lon": 0.0, "bike_id": "8b8a0c4d50cb936c1d4c474c9e489b03", "is_disabled": 0, "is_reserved": 0}, {"rental_uris": {"ios": "https://dc.lft.to/lastmile_qr_scan", "android": "https://dc.lft.to/lastmile_qr_scan"}, "lon": -77.03318216666666, "type": "electric_scooter", "fusion_lat": 0.0, "lat": 38.920500833333335, "name": "c4c7c6d919ee344bf9b9dee1cedb516b", "fusion_lon": 0.0, "bike_id": "c4c7c6d919ee344bf9b9dee1cedb516b", "is_disabled": 0, "is_reserved": 0}, {"rental_uris": {"ios": "https://dc.lft.to/lastmile_qr_scan", "android": "https://dc.lft.to/lastmile_qr_scan"}, "lon": -77.029661, "type": "electric_scooter", "fusion_lat": 0.0, "lat": 38.88435916666667, "name": "32b13728b2e75fc5f81f4a77e586dc5f", "fusion_lon": 0.0, "bike_id": "32b13728b2e75fc5f81f4a77e586dc5f", "is_disabled": 0, "is_reserved": 0}, {"rental_uris": {"ios": "https://dc.lft.to/lastmile_qr_scan", "android": "https://dc.lft.to/lastmile_qr_scan"}, "lon": -76.93542783333334, "type": "electric_bike", "fusion_lat": 0.0, "lat": 38.955429, "name": "ffd8456fb4d6fe471f3291b5d69c21ff", "fusion_lon": 0.0, "bike_id": "ffd8456fb4d6fe471f3291b5d69c21ff", "is_disabled": 0, "is_reserved": 0}, {"rental_uris": {"ios": "https://dc.lft.to/lastmile_qr_scan", "android": "https://dc.lft.to/lastmile_qr_scan"}, "lon": -76.97813033333334, "type": "electric_scooter", "fusion_lat": 0.0, "lat": 38.906682, "name": "78f24e1ca4ba8b0ca033d3aec6cdec20", "fusion_lon": 0.0, "bike_id": "78f24e1ca4ba8b0ca033d3aec6cdec20", "is_disabled": 0, "is_reserved": 0}, {"rental_uris": {"ios": "https://dc.lft.to/lastmile_qr_scan", "android": "https://dc.lft.to/lastmile_qr_scan"}, "lon": -77.12260583333334, "type": "electric_bike", "fusion_lat": 0.0, "lat": 38.8918495, "name": "aee1029a156132f3ebf692ff843a37c0", "fusion_lon": 0.0, "bike_id": "aee1029a156132f3ebf692ff843a37c0", "is_disabled": 0, "is_reserved": 0}, {"rental_uris": {"ios": "https://dc.lft.to/lastmile_qr_scan", "android": "https://dc.lft.to/lastmile_qr_scan"}, "lon": -77.02875483333334, "type": "electric_scooter", "fusion_lat": 0.0, "lat": 38.91344766666667, "name": "b11daa7de201b6991fdea829fc613ddb", "fusion_lon": 0.0, "bike_id": "b11daa7de201b6991fdea829fc613ddb", "is_disabled": 0, "is_reserved": 0}, {"rental_uris": {"ios": "https://dc.lft.to/lastmile_qr_scan", "android": "https://dc.lft.to/lastmile_qr_scan"}, "lon": -77.02718766666666, "type": "electric_scooter", "fusion_lat": 0.0, "lat": 38.910167, "name": "7b84bdcc9445bdb13f738742a03fb74f", "fusion_lon": 0.0, "bike_id": "7b84bdcc9445bdb13f738742a03fb74f", "is_disabled": 0, "is_reserved": 0}, {"rental_uris": {"ios": "https://dc.lft.to/lastmile_qr_scan", "android": "https://dc.lft.to/lastmile_qr_scan"}, "lon": -77.000911, "type": "electric_scooter", "fusion_lat": 0.0, "lat": 38.907122, "name": "5474daa76814eeb586be7bdbe1a2ae00", "fusion_lon": 0.0, "bike_id": "5474daa76814eeb586be7bdbe1a2ae00", "is_disabled": 0, "is_reserved": 0}, {"rental_uris": {"ios": "https://dc.lft.to/lastmile_qr_scan", "android": "https://dc.lft.to/lastmile_qr_scan"}, "lon": -77.00943183333334, "type": "electric_scooter", "fusion_lat": 0.0, "lat": 38.87194066666667, "name": "4fafccfeef3bf1dabbdcd9eedf1b2ac7", "fusion_lon": 0.0, "bike_id": "4fafccfeef3bf1dabbdcd9eedf1b2ac7", "is_disabled": 0, "is_reserved": 0}, {"rental_uris": {"ios": "https://dc.lft.to/lastmile_qr_scan", "android": "https://dc.lft.to/lastmile_qr_scan"}, "lon": -76.97463116666667, "type": "electric_scooter", "fusion_lat": 0.0, "lat": 38.8654195, "name": "05eeafc6fe5e480e09e16e85080b4ed0", "fusion_lon": 0.0, "bike_id": "05eeafc6fe5e480e09e16e85080b4ed0", "is_disabled": 0, "is_reserved": 0}, {"rental_uris": {"ios": "https://dc.lft.to/lastmile_qr_scan", "android": "https://dc.lft.to/lastmile_qr_scan"}, "lon": -77.03206966666667, "type": "electric_scooter", "fusion_lat": 0.0, "lat": 38.9001165, "name": "15334485daa8cbb3daf503bdf5d08cd2", "fusion_lon": 0.0, "bike_id": "15334485daa8cbb3daf503bdf5d08cd2", "is_disabled": 0, "is_reserved": 0}, {"rental_uris": {"ios": "https://dc.lft.to/lastmile_qr_scan", "android": "https://dc.lft.to/lastmile_qr_scan"}, "lon": -76.99064216666666, "type": "electric_scooter", "fusion_lat": 0.0, "lat": 38.863557666666665, "name": "8073b02f762d48fb0dad5e278fbe18c9", "fusion_lon": 0.0, "bike_id": "8073b02f762d48fb0dad5e278fbe18c9", "is_disabled": 0, "is_reserved": 0}, {"rental_uris": {"ios": "https://dc.lft.to/lastmile_qr_scan", "android": "https://dc.lft.to/lastmile_qr_scan"}, "lon": -77.02228383333333, "type": "electric_scooter", "fusion_lat": 0.0, "lat": 38.91268183333333, "name": "17026f4f02f66f9f9c91cf73a6be6afe", "fusion_lon": 0.0, "bike_id": "17026f4f02f66f9f9c91cf73a6be6afe", "is_disabled": 0, "is_reserved": 0}, {"rental_uris": {"ios": "https://dc.lft.to/lastmile_qr_scan", "android": "https://dc.lft.to/lastmile_qr_scan"}, "lon": -76.98797, "type": "electric_bike", "fusion_lat": 0.0, "lat": 38.904144333333335, "name": "6c9d216b56154990750bea731658b85d", "fusion_lon": 0.0, "bike_id": "6c9d216b56154990750bea731658b85d", "is_disabled": 0, "is_reserved": 0}, {"rental_uris": {"ios": "https://dc.lft.to/lastmile_qr_scan", "android": "https://dc.lft.to/lastmile_qr_scan"}, "lon": -77.03402366666667, "type": "electric_scooter", "fusion_lat": 0.0, "lat": 38.92149966666667, "name": "af4950defc5d64ccb0b40797f11175ee", "fusion_lon": 0.0, "bike_id": "af4950defc5d64ccb0b40797f11175ee", "is_disabled": 0, "is_reserved": 0}, {"rental_uris": {"ios": "https://dc.lft.to/lastmile_qr_scan", "android": "https://dc.lft.to/lastmile_qr_scan"}, "lon": -76.954725, "type": "electric_bike", "fusion_lat": 0.0, "lat": 38.886384, "name": "d23a2ad97944286dbd7df12d6a4ef733", "fusion_lon": 0.0, "bike_id": "d23a2ad97944286dbd7df12d6a4ef733", "is_disabled": 0, "is_reserved": 0}, {"rental_uris": {"ios": "https://dc.lft.to/lastmile_qr_scan", "android": "https://dc.lft.to/lastmile_qr_scan"}, "lon": -77.01211, "type": "electric_scooter", "fusion_lat": 0.0, "lat": 38.914963, "name": "689da11542fa4ea45fb5e12d018f0b0f", "fusion_lon": 0.0, "bike_id": "689da11542fa4ea45fb5e12d018f0b0f", "is_disabled": 0, "is_reserved": 0}, {"rental_uris": {"ios": "https://dc.lft.to/lastmile_qr_scan", "android": "https://dc.lft.to/lastmile_qr_scan"}, "lon": -77.05985066666666, "type": "electric_scooter", "fusion_lat": 0.0, "lat": 38.93547783333333, "name": "8078a579e554136772b64e13320477ff", "fusion_lon": 0.0, "bike_id": "8078a579e554136772b64e13320477ff", "is_disabled": 0, "is_reserved": 0}, {"rental_uris": {"ios": "https://dc.lft.to/lastmile_qr_scan", "android": "https://dc.lft.to/lastmile_qr_scan"}, "lon": -77.11798733333333, "type": "electric_bike", "fusion_lat": 0.0, "lat": 38.89835516666667, "name": "a46544fb64bce05009cf9a5113ccc0b1", "fusion_lon": 0.0, "bike_id": "a46544fb64bce05009cf9a5113ccc0b1", "is_disabled": 0, "is_reserved": 0}, {"rental_uris": {"ios": "https://dc.lft.to/lastmile_qr_scan", "android": "https://dc.lft.to/lastmile_qr_scan"}, "lon": -77.05218133333334, "type": "electric_scooter", "fusion_lat": 0.0, "lat": 38.8981005, "name": "03d52886b2b860dc1712ac12e62a41d0", "fusion_lon": 0.0, "bike_id": "03d52886b2b860dc1712ac12e62a41d0", "is_disabled": 0, "is_reserved": 0}, {"rental_uris": {"ios": "https://dc.lft.to/lastmile_qr_scan", "android": "https://dc.lft.to/lastmile_qr_scan"}, "lon": -77.03857183333334, "type": "electric_scooter", "fusion_lat": 0.0, "lat": 38.92647633333333, "name": "24f654b3611415e72f077a46fd1603da", "fusion_lon": 0.0, "bike_id": "24f654b3611415e72f077a46fd1603da", "is_disabled": 0, "is_reserved": 0}, {"rental_uris": {"ios": "https://dc.lft.to/lastmile_qr_scan", "android": "https://dc.lft.to/lastmile_qr_scan"}, "lon": -77.02712116666666, "type": "electric_scooter", "fusion_lat": 0.0, "lat": 38.9181475, "name": "0aa997d903cfe85fde505559dd1b634d", "fusion_lon": 0.0, "bike_id": "0aa997d903cfe85fde505559dd1b634d", "is_disabled": 0, "is_reserved": 0}, {"rental_uris": {"ios": "https://dc.lft.to/lastmile_qr_scan", "android": "https://dc.lft.to/lastmile_qr_scan"}, "lon": -77.02964366666667, "type": "electric_scooter", "fusion_lat": 0.0, "lat": 38.92564383333333, "name": "a8662c9af80e5137b2fb7011a09a3243", "fusion_lon": 0.0, "bike_id": "a8662c9af80e5137b2fb7011a09a3243", "is_disabled": 0, "is_reserved": 0}, {"rental_uris": {"ios": "https://dc.lft.to/lastmile_qr_scan", "android": "https://dc.lft.to/lastmile_qr_scan"}, "lon": -77.015156, "type": "electric_scooter", "fusion_lat": 0.0, "lat": 38.887358, "name": "f159c062872c7bc3c4af9f57e816bea5", "fusion_lon": 0.0, "bike_id": "f159c062872c7bc3c4af9f57e816bea5", "is_disabled": 0, "is_reserved": 0}, {"rental_uris": {"ios": "https://dc.lft.to/lastmile_qr_scan", "android": "https://dc.lft.to/lastmile_qr_scan"}, "lon": -77.04621333333333, "type": "electric_scooter", "fusion_lat": 0.0, "lat": 38.9191085, "name": "bc72b438ed675ee0de5cd7e02127aff5", "fusion_lon": 0.0, "bike_id": "bc72b438ed675ee0de5cd7e02127aff5", "is_disabled": 0, "is_reserved": 0}, {"rental_uris": {"ios": "https://dc.lft.to/lastmile_qr_scan", "android": "https://dc.lft.to/lastmile_qr_scan"}, "lon": -77.01111533333334, "type": "electric_scooter", "fusion_lat": 0.0, "lat": 38.895082333333335, "name": "f8fd291c6c70ef6946924136d623d94d", "fusion_lon": 0.0, "bike_id": "f8fd291c6c70ef6946924136d623d94d", "is_disabled": 0, "is_reserved": 0}, {"rental_uris": {"ios": "https://dc.lft.to/lastmile_qr_scan", "android": "https://dc.lft.to/lastmile_qr_scan"}, "lon": -77.042301, "type": "electric_scooter", "fusion_lat": 0.0, "lat": 38.921322, "name": "ae3b749d4e7ff35517c8d7b6846b6bf7", "fusion_lon": 0.0, "bike_id": "ae3b749d4e7ff35517c8d7b6846b6bf7", "is_disabled": 0, "is_reserved": 0}, {"rental_uris": {"ios": "https://dc.lft.to/lastmile_qr_scan", "android": "https://dc.lft.to/lastmile_qr_scan"}, "lon": -76.98575616666666, "type": "electric_scooter", "fusion_lat": 0.0, "lat": 38.861515, "name": "4d47375cded9f2faae9c148ecda64d41", "fusion_lon": 0.0, "bike_id": "4d47375cded9f2faae9c148ecda64d41", "is_disabled": 0, "is_reserved": 0}, {"rental_uris": {"ios": "https://dc.lft.to/lastmile_qr_scan", "android": "https://dc.lft.to/lastmile_qr_scan"}, "lon": -77.04874616666666, "type": "electric_scooter", "fusion_lat": 0.0, "lat": 38.9185515, "name": "b0060efefdeb15d2f8d042b5def9578d", "fusion_lon": 0.0, "bike_id": "b0060efefdeb15d2f8d042b5def9578d", "is_disabled": 0, "is_reserved": 0}, {"rental_uris": {"ios": "https://dc.lft.to/lastmile_qr_scan", "android": "https://dc.lft.to/lastmile_qr_scan"}, "lon": -76.99776116666666, "type": "electric_bike", "fusion_lat": 0.0, "lat": 38.90924183333333, "name": "29aaa5f3915261cde527e099884ff933", "fusion_lon": 0.0, "bike_id": "29aaa5f3915261cde527e099884ff933", "is_disabled": 0, "is_reserved": 0}, {"rental_uris": {"ios": "https://dc.lft.to/lastmile_qr_scan", "android": "https://dc.lft.to/lastmile_qr_scan"}, "lon": -77.00351833333333, "type": "electric_scooter", "fusion_lat": 0.0, "lat": 38.907217833333334, "name": "d6f4dee04b17e958c38e41d5f8d04926", "fusion_lon": 0.0, "bike_id": "d6f4dee04b17e958c38e41d5f8d04926", "is_disabled": 0, "is_reserved": 0}, {"rental_uris": {"ios": "https://dc.lft.to/lastmile_qr_scan", "android": "https://dc.lft.to/lastmile_qr_scan"}, "lon": -77.05024783333333, "type": "electric_scooter", "fusion_lat": 0.0, "lat": 38.900214166666665, "name": "6b9d577b1945d043ecd01330a14c1542", "fusion_lon": 0.0, "bike_id": "6b9d577b1945d043ecd01330a14c1542", "is_disabled": 0, "is_reserved": 0}, {"rental_uris": {"ios": "https://dc.lft.to/lastmile_qr_scan", "android": "https://dc.lft.to/lastmile_qr_scan"}, "lon": -76.9961365, "type": "electric_scooter", "fusion_lat": 0.0, "lat": 38.886252166666665, "name": "18439a943e58e2a8d5f217f8b8f1a0fa", "fusion_lon": 0.0, "bike_id": "18439a943e58e2a8d5f217f8b8f1a0fa", "is_disabled": 0, "is_reserved": 0}, {"rental_uris": {"ios": "https://dc.lft.to/lastmile_qr_scan", "android": "https://dc.lft.to/lastmile_qr_scan"}, "lon": -77.00277366666667, "type": "electric_scooter", "fusion_lat": 0.0, "lat": 38.901392666666666, "name": "3c8e4308b8a682b98d661c9644db4e62", "fusion_lon": 0.0, "bike_id": "3c8e4308b8a682b98d661c9644db4e62", "is_disabled": 0, "is_reserved": 0}, {"rental_uris": {"ios": "https://dc.lft.to/lastmile_qr_scan", "android": "https://dc.lft.to/lastmile_qr_scan"}, "lon": -76.98886466666667, "type": "electric_scooter", "fusion_lat": 0.0, "lat": 38.86659133333333, "name": "304947553ef8d78c16ca7361dd20499b", "fusion_lon": 0.0, "bike_id": "304947553ef8d78c16ca7361dd20499b", "is_disabled": 0, "is_reserved": 0}, {"rental_uris": {"ios": "https://dc.lft.to/lastmile_qr_scan", "android": "https://dc.lft.to/lastmile_qr_scan"}, "lon": -77.03842933333334, "type": "electric_scooter", "fusion_lat": 0.0, "lat": 38.93110266666667, "name": "ba076c46967cd221c983b72b50248e1b", "fusion_lon": 0.0, "bike_id": "ba076c46967cd221c983b72b50248e1b", "is_disabled": 0, "is_reserved": 0}, {"rental_uris": {"ios": "https://dc.lft.to/lastmile_qr_scan", "android": "https://dc.lft.to/lastmile_qr_scan"}, "lon": -77.04501916666666, "type": "electric_scooter", "fusion_lat": 0.0, "lat": 38.919428, "name": "e372206ae230c31d98cf3060349b4b89", "fusion_lon": 0.0, "bike_id": "e372206ae230c31d98cf3060349b4b89", "is_disabled": 0, "is_reserved": 0}, {"rental_uris": {"ios": "https://dc.lft.to/lastmile_qr_scan", "android": "https://dc.lft.to/lastmile_qr_scan"}, "lon": -76.98866416666667, "type": "electric_scooter", "fusion_lat": 0.0, "lat": 38.900266333333335, "name": "9593402713a0db167b2e994c2e3c7843", "fusion_lon": 0.0, "bike_id": "9593402713a0db167b2e994c2e3c7843", "is_disabled": 0, "is_reserved": 0}, {"rental_uris": {"ios": "https://dc.lft.to/lastmile_qr_scan", "android": "https://dc.lft.to/lastmile_qr_scan"}, "lon": -77.0484245, "type": "electric_scooter", "fusion_lat": 0.0, "lat": 38.90957866666667, "name": "e69edaccb43921cff0bd41e2f099d924", "fusion_lon": 0.0, "bike_id": "e69edaccb43921cff0bd41e2f099d924", "is_disabled": 0, "is_reserved": 0}, {"rental_uris": {"ios": "https://dc.lft.to/lastmile_qr_scan", "android": "https://dc.lft.to/lastmile_qr_scan"}, "lon": -77.035585, "type": "electric_scooter", "fusion_lat": 0.0, "lat": 38.927453666666665, "name": "e851054fa34a3f0778cdac666e0a7475", "fusion_lon": 0.0, "bike_id": "e851054fa34a3f0778cdac666e0a7475", "is_disabled": 0, "is_reserved": 0}, {"rental_uris": {"ios": "https://dc.lft.to/lastmile_qr_scan", "android": "https://dc.lft.to/lastmile_qr_scan"}, "lon": -77.06880733333334, "type": "electric_scooter", "fusion_lat": 0.0, "lat": 38.90510716666667, "name": "0d4a82ef3fdc2f53df9ca6d3599e6106", "fusion_lon": 0.0, "bike_id": "0d4a82ef3fdc2f53df9ca6d3599e6106", "is_disabled": 0, "is_reserved": 0}, {"rental_uris": {"ios": "https://dc.lft.to/lastmile_qr_scan", "android": "https://dc.lft.to/lastmile_qr_scan"}, "lon": -77.12374033333333, "type": "electric_bike", "fusion_lat": 0.0, "lat": 38.847379, "name": "8f4a371e019f2f4e46322c4a9e45b19d", "fusion_lon": 0.0, "bike_id": "8f4a371e019f2f4e46322c4a9e45b19d", "is_disabled": 0, "is_reserved": 0}, {"rental_uris": {"ios": "https://dc.lft.to/lastmile_qr_scan", "android": "https://dc.lft.to/lastmile_qr_scan"}, "lon": -77.0221515, "type": "electric_scooter", "fusion_lat": 0.0, "lat": 38.912699, "name": "f11933e162f7dd243473f341de83b626", "fusion_lon": 0.0, "bike_id": "f11933e162f7dd243473f341de83b626", "is_disabled": 0, "is_reserved": 0}, {"rental_uris": {"ios": "https://dc.lft.to/lastmile_qr_scan", "android": "https://dc.lft.to/lastmile_qr_scan"}, "lon": -77.04684266666666, "type": "electric_scooter", "fusion_lat": 0.0, "lat": 38.90548416666667, "name": "2fe8c8383629ecb24c34c2b99d193721", "fusion_lon": 0.0, "bike_id": "2fe8c8383629ecb24c34c2b99d193721", "is_disabled": 0, "is_reserved": 0}, {"rental_uris": {"ios": "https://dc.lft.to/lastmile_qr_scan", "android": "https://dc.lft.to/lastmile_qr_scan"}, "lon": -77.03589733333334, "type": "electric_scooter", "fusion_lat": 0.0, "lat": 38.9314025, "name": "6a2de16039c52dc4a48bde12087f11e6", "fusion_lon": 0.0, "bike_id": "6a2de16039c52dc4a48bde12087f11e6", "is_disabled": 0, "is_reserved": 0}, {"rental_uris": {"ios": "https://dc.lft.to/lastmile_qr_scan", "android": "https://dc.lft.to/lastmile_qr_scan"}, "lon": -77.02474266666667, "type": "electric_scooter", "fusion_lat": 0.0, "lat": 38.938488, "name": "325e9f1e1700f20b4be6c61d40ecda54", "fusion_lon": 0.0, "bike_id": "325e9f1e1700f20b4be6c61d40ecda54", "is_disabled": 0, "is_reserved": 0}, {"rental_uris": {"ios": "https://dc.lft.to/lastmile_qr_scan", "android": "https://dc.lft.to/lastmile_qr_scan"}, "lon": -76.99636033333333, "type": "electric_bike", "fusion_lat": 0.0, "lat": 38.846666, "name": "c0dc437f318c38a80341cca015575624", "fusion_lon": 0.0, "bike_id": "c0dc437f318c38a80341cca015575624", "is_disabled": 0, "is_reserved": 0}, {"rental_uris": {"ios": "https://dc.lft.to/lastmile_qr_scan", "android": "https://dc.lft.to/lastmile_qr_scan"}, "lon": -77.03210283333334, "type": "electric_scooter", "fusion_lat": 0.0, "lat": 38.918124, "name": "9ba794b7c174292670973210bd85e64a", "fusion_lon": 0.0, "bike_id": "9ba794b7c174292670973210bd85e64a", "is_disabled": 0, "is_reserved": 0}, {"rental_uris": {"ios": "https://dc.lft.to/lastmile_qr_scan", "android": "https://dc.lft.to/lastmile_qr_scan"}, "lon": -76.98831983333334, "type": "electric_scooter", "fusion_lat": 0.0, "lat": 38.880251, "name": "6bc1ed108aaced96fffe1b940fd5bfe4", "fusion_lon": 0.0, "bike_id": "6bc1ed108aaced96fffe1b940fd5bfe4", "is_disabled": 0, "is_reserved": 0}, {"rental_uris": {"ios": "https://dc.lft.to/lastmile_qr_scan", "android": "https://dc.lft.to/lastmile_qr_scan"}, "lon": -77.04841166666667, "type": "electric_scooter", "fusion_lat": 0.0, "lat": 38.91095516666667, "name": "c870a127863da2fe914aa1b9fd107d81", "fusion_lon": 0.0, "bike_id": "c870a127863da2fe914aa1b9fd107d81", "is_disabled": 0, "is_reserved": 0}, {"rental_uris": {"ios": "https://dc.lft.to/lastmile_qr_scan", "android": "https://dc.lft.to/lastmile_qr_scan"}, "lon": -77.04371216666667, "type": "electric_scooter", "fusion_lat": 0.0, "lat": 38.93150833333333, "name": "578e8732925321de4390120e5aba1a16", "fusion_lon": 0.0, "bike_id": "578e8732925321de4390120e5aba1a16", "is_disabled": 0, "is_reserved": 0}, {"rental_uris": {"ios": "https://dc.lft.to/lastmile_qr_scan", "android": "https://dc.lft.to/lastmile_qr_scan"}, "lon": -77.07063383333333, "type": "electric_scooter", "fusion_lat": 0.0, "lat": 38.90109566666667, "name": "33b1efe0357c6aa934292fd8499ff9ea", "fusion_lon": 0.0, "bike_id": "33b1efe0357c6aa934292fd8499ff9ea", "is_disabled": 0, "is_reserved": 0}, {"rental_uris": {"ios": "https://dc.lft.to/lastmile_qr_scan", "android": "https://dc.lft.to/lastmile_qr_scan"}, "lon": -76.98885566666667, "type": "electric_scooter", "fusion_lat": 0.0, "lat": 38.866518166666665, "name": "16465d224f11041576bf99f492b8d1c7", "fusion_lon": 0.0, "bike_id": "16465d224f11041576bf99f492b8d1c7", "is_disabled": 0, "is_reserved": 0}, {"rental_uris": {"ios": "https://dc.lft.to/lastmile_qr_scan", "android": "https://dc.lft.to/lastmile_qr_scan"}, "lon": -76.9859575, "type": "electric_bike", "fusion_lat": 0.0, "lat": 38.9061765, "name": "e9c2e2256d4808d3cd5ecde7faa2cde6", "fusion_lon": 0.0, "bike_id": "e9c2e2256d4808d3cd5ecde7faa2cde6", "is_disabled": 0, "is_reserved": 0}, {"rental_uris": {"ios": "https://dc.lft.to/lastmile_qr_scan", "android": "https://dc.lft.to/lastmile_qr_scan"}, "lon": -76.97708133333333, "type": "electric_scooter", "fusion_lat": 0.0, "lat": 38.90256016666667, "name": "733c9e1ff2084130e7dfdab488e8916b", "fusion_lon": 0.0, "bike_id": "733c9e1ff2084130e7dfdab488e8916b", "is_disabled": 0, "is_reserved": 0}, {"rental_uris": {"ios": "https://dc.lft.to/lastmile_qr_scan", "android": "https://dc.lft.to/lastmile_qr_scan"}, "lon": -76.93746316666666, "type": "electric_scooter", "fusion_lat": 0.0, "lat": 38.91276916666666, "name": "a09add4bd2bd236b79b021da38f8c22d", "fusion_lon": 0.0, "bike_id": "a09add4bd2bd236b79b021da38f8c22d", "is_disabled": 0, "is_reserved": 0}, {"rental_uris": {"ios": "https://dc.lft.to/lastmile_qr_scan", "android": "https://dc.lft.to/lastmile_qr_scan"}, "lon": -77.03281183333333, "type": "electric_scooter", "fusion_lat": 0.0, "lat": 38.934970166666666, "name": "ebc15aa488355a712016e2808dee308c", "fusion_lon": 0.0, "bike_id": "ebc15aa488355a712016e2808dee308c", "is_disabled": 0, "is_reserved": 0}, {"rental_uris": {"ios": "https://dc.lft.to/lastmile_qr_scan", "android": "https://dc.lft.to/lastmile_qr_scan"}, "lon": -77.02231333333333, "type": "electric_scooter", "fusion_lat": 0.0, "lat": 38.8919125, "name": "33f549e0b64a6f7c13675376f8148805", "fusion_lon": 0.0, "bike_id": "33f549e0b64a6f7c13675376f8148805", "is_disabled": 0, "is_reserved": 0}, {"rental_uris": {"ios": "https://dc.lft.to/lastmile_qr_scan", "android": "https://dc.lft.to/lastmile_qr_scan"}, "lon": -77.01761816666667, "type": "electric_scooter", "fusion_lat": 0.0, "lat": 38.8771075, "name": "e02f1b7b6b3964bad6ee635db3174a58", "fusion_lon": 0.0, "bike_id": "e02f1b7b6b3964bad6ee635db3174a58", "is_disabled": 0, "is_reserved": 0}, {"rental_uris": {"ios": "https://dc.lft.to/lastmile_qr_scan", "android": "https://dc.lft.to/lastmile_qr_scan"}, "lon": -77.042623, "type": "electric_scooter", "fusion_lat": 0.0, "lat": 38.920535, "name": "bc29e15ad21f1fb62c1414fcd9cfe876", "fusion_lon": 0.0, "bike_id": "bc29e15ad21f1fb62c1414fcd9cfe876", "is_disabled": 0, "is_reserved": 0}, {"rental_uris": {"ios": "https://dc.lft.to/lastmile_qr_scan", "android": "https://dc.lft.to/lastmile_qr_scan"}, "lon": -77.03716083333333, "type": "electric_scooter", "fusion_lat": 0.0, "lat": 38.92624433333334, "name": "ee4046990cec9430864c5066f76b8346", "fusion_lon": 0.0, "bike_id": "ee4046990cec9430864c5066f76b8346", "is_disabled": 0, "is_reserved": 0}, {"rental_uris": {"ios": "https://dc.lft.to/lastmile_qr_scan", "android": "https://dc.lft.to/lastmile_qr_scan"}, "lon": -76.98562783333334, "type": "electric_scooter", "fusion_lat": 0.0, "lat": 38.899562333333336, "name": "91f983affa2f36c8a8b5eaa3e0ebddcf", "fusion_lon": 0.0, "bike_id": "91f983affa2f36c8a8b5eaa3e0ebddcf", "is_disabled": 0, "is_reserved": 0}, {"rental_uris": {"ios": "https://dc.lft.to/lastmile_qr_scan", "android": "https://dc.lft.to/lastmile_qr_scan"}, "lon": -77.032234, "type": "electric_scooter", "fusion_lat": 0.0, "lat": 38.908686, "name": "0305e595236c8ee68832bd3b4448a9a6", "fusion_lon": 0.0, "bike_id": "0305e595236c8ee68832bd3b4448a9a6", "is_disabled": 0, "is_reserved": 0}, {"rental_uris": {"ios": "https://dc.lft.to/lastmile_qr_scan", "android": "https://dc.lft.to/lastmile_qr_scan"}, "lon": -77.09675316666667, "type": "electric_scooter", "fusion_lat": 0.0, "lat": 38.91767733333333, "name": "04872ec82e0b6d37c465dbe5fecaf60e", "fusion_lon": 0.0, "bike_id": "04872ec82e0b6d37c465dbe5fecaf60e", "is_disabled": 0, "is_reserved": 0}, {"rental_uris": {"ios": "https://dc.lft.to/lastmile_qr_scan", "android": "https://dc.lft.to/lastmile_qr_scan"}, "lon": -76.9986585, "type": "electric_scooter", "fusion_lat": 0.0, "lat": 38.90010266666667, "name": "1f225943317973a236b6f0ecabd3e745", "fusion_lon": 0.0, "bike_id": "1f225943317973a236b6f0ecabd3e745", "is_disabled": 0, "is_reserved": 0}, {"rental_uris": {"ios": "https://dc.lft.to/lastmile_qr_scan", "android": "https://dc.lft.to/lastmile_qr_scan"},