{"data": {"bikes": [{"is_reserved": 0, "type": "electric_bike", "bike_id": "e48f9c7d06775bc11c64989b77484afe", "lat": 38.86327416666666, "lon": -76.98729316666666, "rental_uris": {"android": "https://dc.lft.to/lastmile_qr_scan", "ios": "https://dc.lft.to/lastmile_qr_scan"}, "is_disabled": 0, "fusion_lat": 0.0, "name": "e48f9c7d06775bc11c64989b77484afe", "fusion_lon": 0.0}, {"is_reserved": 0, "type": "electric_scooter", "bike_id": "5968b99f07bd6851c61078e3aa742dd8", "lat": 38.92983383333333, "lon": -77.03792316666667, "rental_uris": {"android": "https://dc.lft.to/lastmile_qr_scan", "ios": "https://dc.lft.to/lastmile_qr_scan"}, "is_disabled": 0, "fusion_lat": 0.0, "name": "5968b99f07bd6851c61078e3aa742dd8", "fusion_lon": 0.0}, {"is_reserved": 0, "type": "electric_bike", "bike_id": "e3f40d2fb0d1ff4b468644eb1a6cbde4", "lat": 38.999985, "lon": -76.91801966666667, "rental_uris": {"android": "https://dc.lft.to/lastmile_qr_scan", "ios": "https://dc.lft.to/lastmile_qr_scan"}, "is_disabled": 0, "fusion_lat": 0.0, "name": "e3f40d2fb0d1ff4b468644eb1a6cbde4", "fusion_lon": 0.0}, {"is_reserved": 0, "type": "electric_scooter", "bike_id": "a03bedaba54f6760f775dd455da8a514", "lat": 38.92769833333333, "lon": -77.026203, "rental_uris": {"android": "https://dc.lft.to/lastmile_qr_scan", "ios": "https://dc.lft.to/lastmile_qr_scan"}, "is_disabled": 0, "fusion_lat": 0.0, "name": "a03bedaba54f6760f775dd455da8a514", "fusion_lon": 0.0}, {"is_reserved": 0, "type": "electric_bike", "bike_id": "4071766c7d04402596d14f1db79a9d59", "lat": 38.87420383333333, "lon": -77.085711, "rental_uris": {"android": "https://dc.lft.to/lastmile_qr_scan", "ios": "https://dc.lft.to/lastmile_qr_scan"}, "is_disabled": 0, "fusion_lat": 0.0, "name": "4071766c7d04402596d14f1db79a9d59", "fusion_lon": 0.0}, {"is_reserved": 0, "type": "electric_bike", "bike_id": "7c52a6c6182b2303161aafc9a94e9501", "lat": 39.01090816666667, "lon": -77.04954883333333, "rental_uris": {"android": "https://dc.lft.to/lastmile_qr_scan", "ios": "https://dc.lft.to/lastmile_qr_scan"}, "is_disabled": 0, "fusion_lat": 0.0, "name": "7c52a6c6182b2303161aafc9a94e9501", "fusion_lon": 0.0}, {"is_reserved": 0, "type": "electric_scooter", "bike_id": "cd7ca8e83bb47448a0f6e1b8490fcecf", "lat": 38.90377983333333, "lon": -77.03040983333334, "rental_uris": {"android": "https://dc.lft.to/lastmile_qr_scan", "ios": "https://dc.lft.to/lastmile_qr_scan"}, "is_disabled": 0, "fusion_lat": 0.0, "name": "cd7ca8e83bb47448a0f6e1b8490fcecf", "fusion_lon": 0.0}, {"is_reserved": 0, "type": "electric_scooter", "bike_id": "c22c41ec5a5b1624bb82eb84869817a4", "lat": 38.966461333333335, "lon": -77.0089395, "rental_uris": {"android": "https://dc.lft.to/lastmile_qr_scan", "ios": "https://dc.lft.to/lastmile_qr_scan"}, "is_disabled": 0, "fusion_lat": 0.0, "name": "c22c41ec5a5b1624bb82eb84869817a4", "fusion_lon": 0.0}, {"is_reserved": 0, "type": "electric_scooter", "bike_id": "f43cf792a150a861876898537791fc16", "lat": 38.9140495, "lon": -77.0436285, "rental_uris": {"android": "https://dc.lft.to/lastmile_qr_scan", "ios": "https://dc.lft.to/lastmile_qr_scan"}, "is_disabled": 0, "fusion_lat": 0.0, "name": "f43cf792a150a861876898537791fc16", "fusion_lon": 0.0}, {"is_reserved": 0, "type": "electric_scooter", "bike_id": "15d056a69fa38fa9c7f0e7cb0a5c86fe", "lat": 38.95266083333333, "lon": -77.023994, "rental_uris": {"android": "https://dc.lft.to/lastmile_qr_scan", "ios": "https://dc.lft.to/lastmile_qr_scan"}, "is_disabled": 0, "fusion_lat": 0.0, "name": "15d056a69fa38fa9c7f0e7cb0a5c86fe", "fusion_lon": 0.0}, {"is_reserved": 0, "type": "electric_scooter", "bike_id": "27caf8f49b40fd0234776125c36aafd3", "lat": 38.8825095, "lon": -77.006245, "rental_uris": {"android": "https://dc.lft.to/lastmile_qr_scan", "ios": "https://dc.lft.to/lastmile_qr_scan"}, "is_disabled": 0, "fusion_lat": 0.0, "name": "27caf8f49b40fd0234776125c36aafd3", "fusion_lon": 0.0}, {"is_reserved": 0, "type": "electric_bike", "bike_id": "44c7c5ccaa94a5750bbac1d98a52bb60", "lat": 38.99555316666667, "lon": -77.07457416666666, "rental_uris": {"android": "https://dc.lft.to/lastmile_qr_scan", "ios": "https://dc.lft.to/lastmile_qr_scan"}, "is_disabled": 0, "fusion_lat": 0.0, "name": "44c7c5ccaa94a5750bbac1d98a52bb60", "fusion_lon": 0.0}, {"is_reserved": 0, "type": "electric_scooter", "bike_id": "449195fe9ca574274da3a3c65caa2619", "lat": 38.926027166666664, "lon": -77.0394245, "rental_uris": {"android": "https://dc.lft.to/lastmile_qr_scan", "ios": "https://dc.lft.to/lastmile_qr_scan"}, "is_disabled": 0, "fusion_lat": 0.0, "name": "449195fe9ca574274da3a3c65caa2619", "fusion_lon": 0.0}, {"is_reserved": 0, "type": "electric_scooter", "bike_id": "d5fce70b94e2f023bcb521a48282f158", "lat": 38.8998645, "lon": -77.0269975, "rental_uris": {"android": "https://dc.lft.to/lastmile_qr_scan", "ios": "https://dc.lft.to/lastmile_qr_scan"}, "is_disabled": 0, "fusion_lat": 0.0, "name": "d5fce70b94e2f023bcb521a48282f158", "fusion_lon": 0.0}, {"is_reserved": 0, "type": "electric_scooter", "bike_id": "022fb478d2429ae0ff22fa39c49310ab", "lat": 38.9038045, "lon": -77.01790516666667, "rental_uris": {"android": "https://dc.lft.to/lastmile_qr_scan", "ios": "https://dc.lft.to/lastmile_qr_scan"}, "is_disabled": 0, "fusion_lat": 0.0, "name": "022fb478d2429ae0ff22fa39c49310ab", "fusion_lon": 0.0}, {"is_reserved": 0, "type": "electric_bike", "bike_id": "d39e6568cc81f13e2855593f34804426", "lat": 38.8945345, "lon": -77.02001516666667, "rental_uris": {"android": "https://dc.lft.to/lastmile_qr_scan", "ios": "https://dc.lft.to/lastmile_qr_scan"}, "is_disabled": 0, "fusion_lat": 0.0, "name": "d39e6568cc81f13e2855593f34804426", "fusion_lon": 0.0}, {"is_reserved": 0, "type": "electric_scooter", "bike_id": "6a16ca592078291bef1ebfd950dd4362", "lat": 38.951806833333336, "lon": -77.026146, "rental_uris": {"android": "https://dc.lft.to/lastmile_qr_scan", "ios": "https://dc.lft.to/lastmile_qr_scan"}, "is_disabled": 0, "fusion_lat": 0.0, "name": "6a16ca592078291bef1ebfd950dd4362", "fusion_lon": 0.0}, {"is_reserved": 0, "type": "electric_scooter", "bike_id": "bbdd0aebe1cbcc5e6f2dbdaf8fdc58be", "lat": 38.91184783333333, "lon": -77.00470083333333, "rental_uris": {"android": "https://dc.lft.to/lastmile_qr_scan", "ios": "https://dc.lft.to/lastmile_qr_scan"}, "is_disabled": 0, "fusion_lat": 0.0, "name": "bbdd0aebe1cbcc5e6f2dbdaf8fdc58be", "fusion_lon": 0.0}, {"is_reserved": 0, "type": "electric_scooter", "bike_id": "b251f0660653cca6b1507a75c7b651ef", "lat": 38.935264833333335, "lon": -77.0248765, "rental_uris": {"android": "https://dc.lft.to/lastmile_qr_scan", "ios": "https://dc.lft.to/lastmile_qr_scan"}, "is_disabled": 0, "fusion_lat": 0.0, "name": "b251f0660653cca6b1507a75c7b651ef", "fusion_lon": 0.0}, {"is_reserved": 0, "type": "electric_scooter", "bike_id": "a3f37aff5a31844f3a60b2db5a0da67c", "lat": 38.916273333333336, "lon": -77.01568166666667, "rental_uris": {"android": "https://dc.lft.to/lastmile_qr_scan", "ios": "https://dc.lft.to/lastmile_qr_scan"}, "is_disabled": 0, "fusion_lat": 0.0, "name": "a3f37aff5a31844f3a60b2db5a0da67c", "fusion_lon": 0.0}, {"is_reserved": 0, "type": "electric_scooter", "bike_id": "23335fb496fe2fbb4c72d14eda3b47e6", "lat": 38.89764233333333, "lon": -77.0268855, "rental_uris": {"android": "https://dc.lft.to/lastmile_qr_scan", "ios": "https://dc.lft.to/lastmile_qr_scan"}, "is_disabled": 0, "fusion_lat": 0.0, "name": "23335fb496fe2fbb4c72d14eda3b47e6", "fusion_lon": 0.0}, {"is_reserved": 0, "type": "electric_scooter", "bike_id": "0a846d07671582f2f7ad89aaf994501e", "lat": 38.887646, "lon": -76.98328066666667, "rental_uris": {"android": "https://dc.lft.to/lastmile_qr_scan", "ios": "https://dc.lft.to/lastmile_qr_scan"}, "is_disabled": 0, "fusion_lat": 0.0, "name": "0a846d07671582f2f7ad89aaf994501e", "fusion_lon": 0.0}, {"is_reserved": 0, "type": "electric_scooter", "bike_id": "721dcb267c94759b7f7e424ef2cf0de3", "lat": 38.898078166666664, "lon": -76.99690116666666, "rental_uris": {"android": "https://dc.lft.to/lastmile_qr_scan", "ios": "https://dc.lft.to/lastmile_qr_scan"}, "is_disabled": 0, "fusion_lat": 0.0, "name": "721dcb267c94759b7f7e424ef2cf0de3", "fusion_lon": 0.0}, {"is_reserved": 0, "type": "electric_scooter", "bike_id": "cbca1d8c5ee7e846aec54a8eb0c0ed56", "lat": 38.905866833333334, "lon": -77.041674, "rental_uris": {"android": "https://dc.lft.to/lastmile_qr_scan", "ios": "https://dc.lft.to/lastmile_qr_scan"}, "is_disabled": 0, "fusion_lat": 0.0, "name": "cbca1d8c5ee7e846aec54a8eb0c0ed56", "fusion_lon": 0.0}, {"is_reserved": 0, "type": "electric_scooter", "bike_id": "18810165e0b09e0a439a923705d88bf3", "lat": 38.91666516666667, "lon": -77.02466016666666, "rental_uris": {"android": "https://dc.lft.to/lastmile_qr_scan", "ios": "https://dc.lft.to/lastmile_qr_scan"}, "is_disabled": 0, "fusion_lat": 0.0, "name": "18810165e0b09e0a439a923705d88bf3", "fusion_lon": 0.0}, {"is_reserved": 0, "type": "electric_scooter", "bike_id": "3f2c2a4da0f08dab5c694060a79a9081", "lat": 38.919372, "lon": -77.01880533333333, "rental_uris": {"android": "https://dc.lft.to/lastmile_qr_scan", "ios": "https://dc.lft.to/lastmile_qr_scan"}, "is_disabled": 0, "fusion_lat": 0.0, "name": "3f2c2a4da0f08dab5c694060a79a9081", "fusion_lon": 0.0}, {"is_reserved": 0, "type": "electric_scooter", "bike_id": "673b082b071ce3943a7ee54dc2d8acc5", "lat": 38.91969066666667, "lon": -77.04366133333333, "rental_uris": {"android": "https://dc.lft.to/lastmile_qr_scan", "ios": "https://dc.lft.to/lastmile_qr_scan"}, "is_disabled": 0, "fusion_lat": 0.0, "name": "673b082b071ce3943a7ee54dc2d8acc5", "fusion_lon": 0.0}, {"is_reserved": 0, "type": "electric_scooter", "bike_id": "031bfbb89a1376b70075b1ab7f83a949", "lat": 38.86716166666667, "lon": -76.9807345, "rental_uris": {"android": "https://dc.lft.to/lastmile_qr_scan", "ios": "https://dc.lft.to/lastmile_qr_scan"}, "is_disabled": 0, "fusion_lat": 0.0, "name": "031bfbb89a1376b70075b1ab7f83a949", "fusion_lon": 0.0}, {"is_reserved": 0, "type": "electric_scooter", "bike_id": "3961d19ed6c76ca921ca625987db3eb3", "lat": 38.91114283333334, "lon": -77.02081783333334, "rental_uris": {"android": "https://dc.lft.to/lastmile_qr_scan", "ios": "https://dc.lft.to/lastmile_qr_scan"}, "is_disabled": 0, "fusion_lat": 0.0, "name": "3961d19ed6c76ca921ca625987db3eb3", "fusion_lon": 0.0}, {"is_reserved": 0, "type": "electric_scooter", "bike_id": "6b22ab31d6193669c9519aaa673a3b7b", "lat": 38.9086135, "lon": -77.0035455, "rental_uris": {"android": "https://dc.lft.to/lastmile_qr_scan", "ios": "https://dc.lft.to/lastmile_qr_scan"}, "is_disabled": 0, "fusion_lat": 0.0, "name": "6b22ab31d6193669c9519aaa673a3b7b", "fusion_lon": 0.0}, {"is_reserved": 0, "type": "electric_bike", "bike_id": "220b45e56046b504978ece6117527ffa", "lat": 38.956407666666664, "lon": -77.03291166666666, "rental_uris": {"android": "https://dc.lft.to/lastmile_qr_scan", "ios": "https://dc.lft.to/lastmile_qr_scan"}, "is_disabled": 0, "fusion_lat": 0.0, "name": "220b45e56046b504978ece6117527ffa", "fusion_lon": 0.0}, {"is_reserved": 0, "type": "electric_scooter", "bike_id": "c724af3c66e0b9b2794131c91bbf1828", "lat": 38.8749615, "lon": -77.003302, "rental_uris": {"android": "https://dc.lft.to/lastmile_qr_scan", "ios": "https://dc.lft.to/lastmile_qr_scan"}, "is_disabled": 0, "fusion_lat": 0.0, "name": "c724af3c66e0b9b2794131c91bbf1828", "fusion_lon": 0.0}, {"is_reserved": 0, "type": "electric_bike", "bike_id": "d4a3342a27d155732c835e566deaebf9", "lat": 38.89592183333333, "lon": -76.90689816666666, "rental_uris": {"android": "https://dc.lft.to/lastmile_qr_scan", "ios": "https://dc.lft.to/lastmile_qr_scan"}, "is_disabled": 0, "fusion_lat": 0.0, "name": "d4a3342a27d155732c835e566deaebf9", "fusion_lon": 0.0}, {"is_reserved": 0, "type": "electric_scooter", "bike_id": "03e95fdf7b00f4c8af4c2dae44b823b1", "lat": 38.9156925, "lon": -77.0228975, "rental_uris": {"android": "https://dc.lft.to/lastmile_qr_scan", "ios": "https://dc.lft.to/lastmile_qr_scan"}, "is_disabled": 0, "fusion_lat": 0.0, "name": "03e95fdf7b00f4c8af4c2dae44b823b1", "fusion_lon": 0.0}, {"is_reserved": 0, "type": "electric_scooter", "bike_id": "101f4539dba703735f21090fa4956e68", "lat": 38.90568783333333, "lon": -77.030801, "rental_uris": {"android": "https://dc.lft.to/lastmile_qr_scan", "ios": "https://dc.lft.to/lastmile_qr_scan"}, "is_disabled": 0, "fusion_lat": 0.0, "name": "101f4539dba703735f21090fa4956e68", "fusion_lon": 0.0}, {"is_reserved": 0, "type": "electric_scooter", "bike_id": "46c6e9d2225eaecd52063517388b885d", "lat": 38.8876785, "lon": -76.98324966666667, "rental_uris": {"android": "https://dc.lft.to/lastmile_qr_scan", "ios": "https://dc.lft.to/lastmile_qr_scan"}, "is_disabled": 0, "fusion_lat": 0.0, "name": "46c6e9d2225eaecd52063517388b885d", "fusion_lon": 0.0}, {"is_reserved": 0, "type": "electric_scooter", "bike_id": "8cceb59a6f8e1dc9b457f5ff5d7fb935", "lat": 38.865962, "lon": -76.9745735, "rental_uris": {"android": "https://dc.lft.to/lastmile_qr_scan", "ios": "https://dc.lft.to/lastmile_qr_scan"}, "is_disabled": 0, "fusion_lat": 0.0, "name": "8cceb59a6f8e1dc9b457f5ff5d7fb935", "fusion_lon": 0.0}, {"is_reserved": 0, "type": "electric_scooter", "bike_id": "c77184f1fbc68a7db8c39d48e39db18d", "lat": 38.8544885, "lon": -76.97232216666667, "rental_uris": {"android": "https://dc.lft.to/lastmile_qr_scan", "ios": "https://dc.lft.to/lastmile_qr_scan"}, "is_disabled": 0, "fusion_lat": 0.0, "name": "c77184f1fbc68a7db8c39d48e39db18d", "fusion_lon": 0.0}, {"is_reserved": 0, "type": "electric_scooter", "bike_id": "2fd43767cf7c24a897cddc65f6596faf", "lat": 38.907162666666665, "lon": -77.02548683333333, "rental_uris": {"android": "https://dc.lft.to/lastmile_qr_scan", "ios": "https://dc.lft.to/lastmile_qr_scan"}, "is_disabled": 0, "fusion_lat": 0.0, "name": "2fd43767cf7c24a897cddc65f6596faf", "fusion_lon": 0.0}, {"is_reserved": 0, "type": "electric_scooter", "bike_id": "cfa1d65b5d1d228a5f1459455724276c", "lat": 38.927472333333334, "lon": -77.02311166666667, "rental_uris": {"android": "https://dc.lft.to/lastmile_qr_scan", "ios": "https://dc.lft.to/lastmile_qr_scan"}, "is_disabled": 0, "fusion_lat": 0.0, "name": "cfa1d65b5d1d228a5f1459455724276c", "fusion_lon": 0.0}, {"is_reserved": 0, "type": "electric_scooter", "bike_id": "277a2540776c7dddd0476b7d41630080", "lat": 38.901430833333336, "lon": -77.0512315, "rental_uris": {"android": "https://dc.lft.to/lastmile_qr_scan", "ios": "https://dc.lft.to/lastmile_qr_scan"}, "is_disabled": 0, "fusion_lat": 0.0, "name": "277a2540776c7dddd0476b7d41630080", "fusion_lon": 0.0}, {"is_reserved": 0, "type": "electric_scooter", "bike_id": "a010e3fbbb467bb00036a8aad10d9680", "lat": 38.908261833333334, "lon": -77.00081766666666, "rental_uris": {"android": "https://dc.lft.to/lastmile_qr_scan", "ios": "https://dc.lft.to/lastmile_qr_scan"}, "is_disabled": 0, "fusion_lat": 0.0, "name": "a010e3fbbb467bb00036a8aad10d9680", "fusion_lon": 0.0}, {"is_reserved": 0, "type": "electric_scooter", "bike_id": "d5682ebe94bf367219b0307b09799e46", "lat": 38.9215365, "lon": -77.0338755, "rental_uris": {"android": "https://dc.lft.to/lastmile_qr_scan", "ios": "https://dc.lft.to/lastmile_qr_scan"}, "is_disabled": 0, "fusion_lat": 0.0, "name": "d5682ebe94bf367219b0307b09799e46", "fusion_lon": 0.0}, {"is_reserved": 0, "type": "electric_scooter", "bike_id": "fe5ede9da9c50a88596cf62cc676aefb", "lat": 38.907379, "lon": -77.04627216666667, "rental_uris": {"android": "https://dc.lft.to/lastmile_qr_scan", "ios": "https://dc.lft.to/lastmile_qr_scan"}, "is_disabled": 0, "fusion_lat": 0.0, "name": "fe5ede9da9c50a88596cf62cc676aefb", "fusion_lon": 0.0}, {"is_reserved": 0, "type": "electric_scooter", "bike_id": "63600a373e3f9e73bee5671cdd09eae3", "lat": 38.89736716666667, "lon": -77.02064266666666, "rental_uris": {"android": "https://dc.lft.to/lastmile_qr_scan", "ios": "https://dc.lft.to/lastmile_qr_scan"}, "is_disabled": 0, "fusion_lat": 0.0, "name": "63600a373e3f9e73bee5671cdd09eae3", "fusion_lon": 0.0}, {"is_reserved": 0, "type": "electric_scooter", "bike_id": "672a1832d81006fa424c4757b75c62cb", "lat": 38.90397683333333, "lon": -77.02737166666667, "rental_uris": {"android": "https://dc.lft.to/lastmile_qr_scan", "ios": "https://dc.lft.to/lastmile_qr_scan"}, "is_disabled": 0, "fusion_lat": 0.0, "name": "672a1832d81006fa424c4757b75c62cb", "fusion_lon": 0.0}, {"is_reserved": 0, "type": "electric_scooter", "bike_id": "c2fd4276e3a37629323c816bb5dee3ce", "lat": 38.920216833333335, "lon": -77.03971233333333, "rental_uris": {"android": "https://dc.lft.to/lastmile_qr_scan", "ios": "https://dc.lft.to/lastmile_qr_scan"}, "is_disabled": 0, "fusion_lat": 0.0, "name": "c2fd4276e3a37629323c816bb5dee3ce", "fusion_lon": 0.0}, {"is_reserved": 0, "type": "electric_bike", "bike_id": "f397fc2b625ab481d6f8c31c3ee6ba3b", "lat": 38.88931783333334, "lon": -76.913271, "rental_uris": {"android": "https://dc.lft.to/lastmile_qr_scan", "ios": "https://dc.lft.to/lastmile_qr_scan"}, "is_disabled": 0, "fusion_lat": 0.0, "name": "f397fc2b625ab481d6f8c31c3ee6ba3b", "fusion_lon": 0.0}, {"is_reserved": 0, "type": "electric_scooter", "bike_id": "b23e12b0860d84da676083214e0b8af0", "lat": 38.90173166666667, "lon": -77.02488183333334, "rental_uris": {"android": "https://dc.lft.to/lastmile_qr_scan", "ios": "https://dc.lft.to/lastmile_qr_scan"}, "is_disabled": 0, "fusion_lat": 0.0, "name": "b23e12b0860d84da676083214e0b8af0", "fusion_lon": 0.0}, {"is_reserved": 0, "type": "electric_scooter", "bike_id": "1106b24e35504f15f41983bda82e8da1", "lat": 38.91821816666667, "lon": -77.02875166666666, "rental_uris": {"android": "https://dc.lft.to/lastmile_qr_scan", "ios": "https://dc.lft.to/lastmile_qr_scan"}, "is_disabled": 0, "fusion_lat": 0.0, "name": "1106b24e35504f15f41983bda82e8da1", "fusion_lon": 0.0}, {"is_reserved": 0, "type": "electric_scooter", "bike_id": "60176fba2848b4aaaf3776696c28f75f", "lat": 38.9352965, "lon": -77.01938883333334, "rental_uris": {"android": "https://dc.lft.to/lastmile_qr_scan", "ios": "https://dc.lft.to/lastmile_qr_scan"}, "is_disabled": 0, "fusion_lat": 0.0, "name": "60176fba2848b4aaaf3776696c28f75f", "fusion_lon": 0.0}, {"is_reserved": 0, "type": "electric_bike", "bike_id": "e71edaf4356896713ad9afa7090a1440", "lat": 38.8329545, "lon": -77.08411166666667, "rental_uris": {"android": "https://dc.lft.to/lastmile_qr_scan", "ios": "https://dc.lft.to/lastmile_qr_scan"}, "is_disabled": 0, "fusion_lat": 0.0, "name": "e71edaf4356896713ad9afa7090a1440", "fusion_lon": 0.0}, {"is_reserved": 0, "type": "electric_scooter", "bike_id": "94cab3cdddb00cb69a2bc4c8c6509bab", "lat": 38.916907, "lon": -77.02934383333333, "rental_uris": {"android": "https://dc.lft.to/lastmile_qr_scan", "ios": "https://dc.lft.to/lastmile_qr_scan"}, "is_disabled": 0, "fusion_lat": 0.0, "name": "94cab3cdddb00cb69a2bc4c8c6509bab", "fusion_lon": 0.0}, {"is_reserved": 0, "type": "electric_scooter", "bike_id": "a3cad600fa9eb805a9ea92c1107a2943", "lat": 38.8843795, "lon": -76.957584, "rental_uris": {"android": "https://dc.lft.to/lastmile_qr_scan", "ios": "https://dc.lft.to/lastmile_qr_scan"}, "is_disabled": 0, "fusion_lat": 0.0, "name": "a3cad600fa9eb805a9ea92c1107a2943", "fusion_lon": 0.0}, {"is_reserved": 0, "type": "electric_scooter", "bike_id": "bf624c4958ae9bc8c71ec1fe1df91e17", "lat": 38.929216333333336, "lon": -77.020162, "rental_uris": {"android": "https://dc.lft.to/lastmile_qr_scan", "ios": "https://dc.lft.to/lastmile_qr_scan"}, "is_disabled": 0, "fusion_lat": 0.0, "name": "bf624c4958ae9bc8c71ec1fe1df91e17", "fusion_lon": 0.0}, {"is_reserved": 0, "type": "electric_scooter", "bike_id": "9f7ee87030f7a4b9ce35e79ca4ab2362", "lat": 38.866246833333335, "lon": -76.98208416666667, "rental_uris": {"android": "https://dc.lft.to/lastmile_qr_scan", "ios": "https://dc.lft.to/lastmile_qr_scan"}, "is_disabled": 0, "fusion_lat": 0.0, "name": "9f7ee87030f7a4b9ce35e79ca4ab2362", "fusion_lon": 0.0}, {"is_reserved": 0, "type": "electric_scooter", "bike_id": "0aabc789c1f923581491ce915adccc26", "lat": 38.923844833333334, "lon": -77.036653, "rental_uris": {"android": "https://dc.lft.to/lastmile_qr_scan", "ios": "https://dc.lft.to/lastmile_qr_scan"}, "is_disabled": 0, "fusion_lat": 0.0, "name": "0aabc789c1f923581491ce915adccc26", "fusion_lon": 0.0}, {"is_reserved": 0, "type": "electric_scooter", "bike_id": "23200cff17072721e1f3b352af1e7200", "lat": 38.928351666666664, "lon": -77.00602133333334, "rental_uris": {"android": "https://dc.lft.to/lastmile_qr_scan", "ios": "https://dc.lft.to/lastmile_qr_scan"}, "is_disabled": 0, "fusion_lat": 0.0, "name": "23200cff17072721e1f3b352af1e7200", "fusion_lon": 0.0}, {"is_reserved": 0, "type": "electric_scooter", "bike_id": "77c9117a886bd10533a8abb2a7a923b4", "lat": 38.897471833333334, "lon": -77.00770916666667, "rental_uris": {"android": "https://dc.lft.to/lastmile_qr_scan", "ios": "https://dc.lft.to/lastmile_qr_scan"}, "is_disabled": 0, "fusion_lat": 0.0, "name": "77c9117a886bd10533a8abb2a7a923b4", "fusion_lon": 0.0}, {"is_reserved": 0, "type": "electric_bike", "bike_id": "a2c6cfbfc2cd8a261b9f7c646bf7f053", "lat": 38.9595215, "lon": -77.01983716666666, "rental_uris": {"android": "https://dc.lft.to/lastmile_qr_scan", "ios": "https://dc.lft.to/lastmile_qr_scan"}, "is_disabled": 0, "fusion_lat": 0.0, "name": "a2c6cfbfc2cd8a261b9f7c646bf7f053", "fusion_lon": 0.0}, {"is_reserved": 0, "type": "electric_scooter", "bike_id": "05f94e35180c3cc87f232c22c06f0093", "lat": 38.886048, "lon": -76.98820133333334, "rental_uris": {"android": "https://dc.lft.to/lastmile_qr_scan", "ios": "https://dc.lft.to/lastmile_qr_scan"}, "is_disabled": 0, "fusion_lat": 0.0, "name": "05f94e35180c3cc87f232c22c06f0093", "fusion_lon": 0.0}, {"is_reserved": 0, "type": "electric_scooter", "bike_id": "b720411b4afc8cd51a554321c3750dfd", "lat": 38.900242, "lon": -77.04038516666667, "rental_uris": {"android": "https://dc.lft.to/lastmile_qr_scan", "ios": "https://dc.lft.to/lastmile_qr_scan"}, "is_disabled": 0, "fusion_lat": 0.0, "name": "b720411b4afc8cd51a554321c3750dfd", "fusion_lon": 0.0}, {"is_reserved": 0, "type": "electric_scooter", "bike_id": "286936e7439d5dac037b3c753fb32fd7", "lat": 38.870878833333336, "lon": -77.01375466666667, "rental_uris": {"android": "https://dc.lft.to/lastmile_qr_scan", "ios": "https://dc.lft.to/lastmile_qr_scan"}, "is_disabled": 0, "fusion_lat": 0.0, "name": "286936e7439d5dac037b3c753fb32fd7", "fusion_lon": 0.0}, {"is_reserved": 0, "type": "electric_scooter", "bike_id": "92d02eabce8068efac70a456d0ae5c9d", "lat": 38.903788666666664, "lon": -77.02874316666667, "rental_uris": {"android": "https://dc.lft.to/lastmile_qr_scan", "ios": "https://dc.lft.to/lastmile_qr_scan"}, "is_disabled": 0, "fusion_lat": 0.0, "name": "92d02eabce8068efac70a456d0ae5c9d", "fusion_lon": 0.0}, {"is_reserved": 0, "type": "electric_scooter", "bike_id": "8d561a317390cf41d7dccbd2d8c675bd", "lat": 38.898807833333336, "lon": -77.04898083333333, "rental_uris": {"android": "https://dc.lft.to/lastmile_qr_scan", "ios": "https://dc.lft.to/lastmile_qr_scan"}, "is_disabled": 0, "fusion_lat": 0.0, "name": "8d561a317390cf41d7dccbd2d8c675bd", "fusion_lon": 0.0}, {"is_reserved": 0, "type": "electric_scooter", "bike_id": "2118aac903aed9db04416b65d19e71ec", "lat": 38.892277, "lon": -77.016061, "rental_uris": {"android": "https://dc.lft.to/lastmile_qr_scan", "ios": "https://dc.lft.to/lastmile_qr_scan"}, "is_disabled": 0, "fusion_lat": 0.0, "name": "2118aac903aed9db04416b65d19e71ec", "fusion_lon": 0.0}, {"is_reserved": 0, "type": "electric_scooter", "bike_id": "1a5107080c50d14e8bb816f34cf13eed", "lat": 38.900074333333336, "lon": -77.02906766666666, "rental_uris": {"android": "https://dc.lft.to/lastmile_qr_scan", "ios": "https://dc.lft.to/lastmile_qr_scan"}, "is_disabled": 0, "fusion_lat": 0.0, "name": "1a5107080c50d14e8bb816f34cf13eed", "fusion_lon": 0.0}, {"is_reserved": 0, "type": "electric_scooter", "bike_id": "28593b4f25d27f93326adafb0ce76faf", "lat": 38.897331666666666, "lon": -77.02377683333333, "rental_uris": {"android": "https://dc.lft.to/lastmile_qr_scan", "ios": "https://dc.lft.to/lastmile_qr_scan"}, "is_disabled": 0, "fusion_lat": 0.0, "name": "28593b4f25d27f93326adafb0ce76faf", "fusion_lon": 0.0}, {"is_reserved": 0, "type": "electric_scooter", "bike_id": "4aabe41201adcb32672e941ad3707615", "lat": 38.913623666666666, "lon": -77.02003833333333, "rental_uris": {"android": "https://dc.lft.to/lastmile_qr_scan", "ios": "https://dc.lft.to/lastmile_qr_scan"}, "is_disabled": 0, "fusion_lat": 0.0, "name": "4aabe41201adcb32672e941ad3707615", "fusion_lon": 0.0}, {"is_reserved": 0, "type": "electric_scooter", "bike_id": "74af9049ada980339517fd975816d2c3", "lat": 38.924012166666664, "lon": -76.95153116666667, "rental_uris": {"android": "https://dc.lft.to/lastmile_qr_scan", "ios": "https://dc.lft.to/lastmile_qr_scan"}, "is_disabled": 0, "fusion_lat": 0.0, "name": "74af9049ada980339517fd975816d2c3", "fusion_lon": 0.0}, {"is_reserved": 0, "type": "electric_scooter", "bike_id": "0ac731c883a1332cb316ae14c65c8b51", "lat": 38.900375333333336, "lon": -76.99036433333333, "rental_uris": {"android": "https://dc.lft.to/lastmile_qr_scan", "ios": "https://dc.lft.to/lastmile_qr_scan"}, "is_disabled": 0, "fusion_lat": 0.0, "name": "0ac731c883a1332cb316ae14c65c8b51", "fusion_lon": 0.0}, {"is_reserved": 0, "type": "electric_scooter", "bike_id": "4e2bebcc6f05379686a891ac26729c83", "lat": 38.925061166666666, "lon": -77.0216495, "rental_uris": {"android": "https://dc.lft.to/lastmile_qr_scan", "ios": "https://dc.lft.to/lastmile_qr_scan"}, "is_disabled": 0, "fusion_lat": 0.0, "name": "4e2bebcc6f05379686a891ac26729c83", "fusion_lon": 0.0}, {"is_reserved": 0, "type": "electric_scooter", "bike_id": "2f8be6ed1075b31e9201dc40060bd943", "lat": 38.879300666666666, "lon": -77.01666316666666, "rental_uris": {"android": "https://dc.lft.to/lastmile_qr_scan", "ios": "https://dc.lft.to/lastmile_qr_scan"}, "is_disabled": 0, "fusion_lat": 0.0, "name": "2f8be6ed1075b31e9201dc40060bd943", "fusion_lon": 0.0}, {"is_reserved": 0, "type": "electric_scooter", "bike_id": "05603d44950053c6e9325fdf8c3448c7", "lat": 38.91522483333333, "lon": -77.0033705, "rental_uris": {"android": "https://dc.lft.to/lastmile_qr_scan", "ios": "https://dc.lft.to/lastmile_qr_scan"}, "is_disabled": 0, "fusion_lat": 0.0, "name": "05603d44950053c6e9325fdf8c3448c7", "fusion_lon": 0.0}, {"is_reserved": 0, "type": "electric_bike", "bike_id": "cfdd915e801fd41ec7d83c37213621a1", "lat": 38.99030316666666, "lon": -77.02551716666666, "rental_uris": {"android": "https://dc.lft.to/lastmile_qr_scan", "ios": "https://dc.lft.to/lastmile_qr_scan"}, "is_disabled": 0, "fusion_lat": 0.0, "name": "cfdd915e801fd41ec7d83c37213621a1", "fusion_lon": 0.0}, {"is_reserved": 0, "type": "electric_scooter", "bike_id": "5aee80846523bedec3ebc216c94c8366", "lat": 38.87708333333333, "lon": -77.00179066666666, "rental_uris": {"android": "https://dc.lft.to/lastmile_qr_scan", "ios": "https://dc.lft.to/lastmile_qr_scan"}, "is_disabled": 0, "fusion_lat": 0.0, "name": "5aee80846523bedec3ebc216c94c8366", "fusion_lon": 0.0}, {"is_reserved": 0, "type": "electric_scooter", "bike_id": "f08da95f22a94258dded86fdc1d13db0", "lat": 38.9057545, "lon": -77.04073483333333, "rental_uris": {"android": "https://dc.lft.to/lastmile_qr_scan", "ios": "https://dc.lft.to/lastmile_qr_scan"}, "is_disabled": 0, "fusion_lat": 0.0, "name": "f08da95f22a94258dded86fdc1d13db0", "fusion_lon": 0.0}, {"is_reserved": 0, "type": "electric_scooter", "bike_id": "614c5d47e173a8ffa68f1157f059d84f", "lat": 38.90753016666667, "lon": -76.99881933333333, "rental_uris": {"android": "https://dc.lft.to/lastmile_qr_scan", "ios": "https://dc.lft.to/lastmile_qr_scan"}, "is_disabled": 0, "fusion_lat": 0.0, "name": "614c5d47e173a8ffa68f1157f059d84f", "fusion_lon": 0.0}, {"is_reserved": 0, "type": "electric_scooter", "bike_id": "a9389233bc5da1dfa9605da2471b7a01", "lat": 38.9280045, "lon": -77.04073566666666, "rental_uris": {"android": "https://dc.lft.to/lastmile_qr_scan", "ios": "https://dc.lft.to/lastmile_qr_scan"}, "is_disabled": 0, "fusion_lat": 0.0, "name": "a9389233bc5da1dfa9605da2471b7a01", "fusion_lon": 0.0}, {"is_reserved": 0, "type": "electric_scooter", "bike_id": "3c2287d3b6be0c51b9cf721e380dc1c5", "lat": 38.938813333333336, "lon": -77.02928766666666, "rental_uris": {"android": "https://dc.lft.to/lastmile_qr_scan", "ios": "https://dc.lft.to/lastmile_qr_scan"}, "is_disabled": 0, "fusion_lat": 0.0, "name": "3c2287d3b6be0c51b9cf721e380dc1c5", "fusion_lon": 0.0}, {"is_reserved": 0, "type": "electric_scooter", "bike_id": "0e308968457c663a558e3677490becb3", "lat": 38.956270833333335, "lon": -77.03561333333333, "rental_uris": {"android": "https://dc.lft.to/lastmile_qr_scan", "ios": "https://dc.lft.to/lastmile_qr_scan"}, "is_disabled": 0, "fusion_lat": 0.0, "name": "0e308968457c663a558e3677490becb3", "fusion_lon": 0.0}, {"is_reserved": 0, "type": "electric_scooter", "bike_id": "6d2ac341da7f73023109c54f157e7876", "lat": 38.928622833333336, "lon": -77.0371505, "rental_uris": {"android": "https://dc.lft.to/lastmile_qr_scan", "ios": "https://dc.lft.to/lastmile_qr_scan"}, "is_disabled": 0, "fusion_lat": 0.0, "name": "6d2ac341da7f73023109c54f157e7876", "fusion_lon": 0.0}, {"is_reserved": 0, "type": "electric_bike", "bike_id": "dc53c9b0bfc105c9e486097d527bf348", "lat": 38.805628166666665, "lon": -77.13225866666667, "rental_uris": {"android": "https://dc.lft.to/lastmile_qr_scan", "ios": "https://dc.lft.to/lastmile_qr_scan"}, "is_disabled": 0, "fusion_lat": 0.0, "name": "dc53c9b0bfc105c9e486097d527bf348", "fusion_lon": 0.0}, {"is_reserved": 0, "type": "electric_scooter", "bike_id": "675d8c30c11bb78d43fa718ad68500d1", "lat": 38.90558583333333, "lon": -77.00749533333334, "rental_uris": {"android": "https://dc.lft.to/lastmile_qr_scan", "ios": "https://dc.lft.to/lastmile_qr_scan"}, "is_disabled": 0, "fusion_lat": 0.0, "name": "675d8c30c11bb78d43fa718ad68500d1", "fusion_lon": 0.0}, {"is_reserved": 0, "type": "electric_scooter", "bike_id": "61effafe66c4c71d5142e71260cc2b77", "lat": 38.9151975, "lon": -77.03462633333334, "rental_uris": {"android": "https://dc.lft.to/lastmile_qr_scan", "ios": "https://dc.lft.to/lastmile_qr_scan"}, "is_disabled": 0, "fusion_lat": 0.0, "name": "61effafe66c4c71d5142e71260cc2b77", "fusion_lon": 0.0}, {"is_reserved": 0, "type": "electric_scooter", "bike_id": "155f0f26b959a9dd4fd0ade5c1a26c95", "lat": 38.89547, "lon": -76.98340666666667, "rental_uris": {"android": "https://dc.lft.to/lastmile_qr_scan", "ios": "https://dc.lft.to/lastmile_qr_scan"}, "is_disabled": 0, "fusion_lat": 0.0, "name": "155f0f26b959a9dd4fd0ade5c1a26c95", "fusion_lon": 0.0}, {"is_reserved": 0, "type": "electric_bike", "bike_id": "af61ca829a84f75e8b865e6770923f9c", "lat": 38.98717, "lon": -76.94585033333334, "rental_uris": {"android": "https://dc.lft.to/lastmile_qr_scan", "ios": "https://dc.lft.to/lastmile_qr_scan"}, "is_disabled": 0, "fusion_lat": 0.0, "name": "af61ca829a84f75e8b865e6770923f9c", "fusion_lon": 0.0}, {"is_reserved": 0, "type": "electric_scooter", "bike_id": "32279357e10afcd253d5723d79b7cb22", "lat": 38.88650466666667, "lon": -76.9961335, "rental_uris": {"android": "https://dc.lft.to/lastmile_qr_scan", "ios": "https://dc.lft.to/lastmile_qr_scan"}, "is_disabled": 0, "fusion_lat": 0.0, "name": "32279357e10afcd253d5723d79b7cb22", "fusion_lon": 0.0}, {"is_reserved": 0, "type": "electric_scooter", "bike_id": "e9e712a1c8f3dd471d10332736713b14", "lat": 38.93615166666667, "lon": -77.0818125, "rental_uris": {"android": "https://dc.lft.to/lastmile_qr_scan", "ios": "https://dc.lft.to/lastmile_qr_scan"}, "is_disabled": 0, "fusion_lat": 0.0, "name": "e9e712a1c8f3dd471d10332736713b14", "fusion_lon": 0.0}, {"is_reserved": 0, "type": "electric_scooter", "bike_id": "de5b0792c5ab2ec261a540d411319631", "lat": 38.88411966666666, "lon": -77.019344, "rental_uris": {"android": "https://dc.lft.to/lastmile_qr_scan", "ios": "https://dc.lft.to/lastmile_qr_scan"}, "is_disabled": 0, "fusion_lat": 0.0, "name": "de5b0792c5ab2ec261a540d411319631", "fusion_lon": 0.0}, {"is_reserved": 0, "type": "electric_bike", "bike_id": "36a294ce1272b23781e3a7eb901cd939", "lat": 38.947977, "lon": -76.94249966666666, "rental_uris": {"android": "https://dc.lft.to/lastmile_qr_scan", "ios": "https://dc.lft.to/lastmile_qr_scan"}, "is_disabled": 0, "fusion_lat": 0.0, "name": "36a294ce1272b23781e3a7eb901cd939", "fusion_lon": 0.0}, {"is_reserved": 0, "type": "electric_scooter", "bike_id": "1d84e2309b529b9d52a4bc29768ab8da", "lat": 38.921106, "lon": -77.03180816666666, "rental_uris": {"android": "https://dc.lft.to/lastmile_qr_scan", "ios": "https://dc.lft.to/lastmile_qr_scan"}, "is_disabled": 0, "fusion_lat": 0.0, "name": "1d84e2309b529b9d52a4bc29768ab8da", "fusion_lon": 0.0}, {"is_reserved": 0, "type": "electric_scooter", "bike_id": "1b741884b27e11ccb129ee2602d020c2", "lat": 38.903452333333334, "lon": -77.02196416666666, "rental_uris": {"android": "https://dc.lft.to/lastmile_qr_scan", "ios": "https://dc.lft.to/lastmile_qr_scan"}, "is_disabled": 0, "fusion_lat": 0.0, "name": "1b741884b27e11ccb129ee2602d020c2", "fusion_lon": 0.0}, {"is_reserved": 0, "type": "electric_scooter", "bike_id": "176351fd29dbaad63bbdc8d036159b88", "lat": 38.93379616666667, "lon": -77.02035366666667, "rental_uris": {"android": "https://dc.lft.to/lastmile_qr_scan", "ios": "https://dc.lft.to/lastmile_qr_scan"}, "is_disabled": 0, "fusion_lat": 0.0, "name": "176351fd29dbaad63bbdc8d036159b88", "fusion_lon": 0.0}, {"is_reserved": 0, "type": "electric_scooter", "bike_id": "60189340fea12fcf3056655dfbd85899", "lat": 38.91696483333333, "lon": -77.05299683333334, "rental_uris": {"android": "https://dc.lft.to/lastmile_qr_scan", "ios": "https://dc.lft.to/lastmile_qr_scan"}, "is_disabled": 0, "fusion_lat": 0.0, "name": "60189340fea12fcf3056655dfbd85899", "fusion_lon": 0.0}, {"is_reserved": 0, "type": "electric_scooter", "bike_id": "f1fc3211dd4452f90ef853c6542b0f18", "lat": 38.90686016666667, "lon": -77.027185, "rental_uris": {"android": "https://dc.lft.to/lastmile_qr_scan", "ios": "https://dc.lft.to/lastmile_qr_scan"}, "is_disabled": 0, "fusion_lat": 0.0, "name": "f1fc3211dd4452f90ef853c6542b0f18", "fusion_lon": 0.0}, {"is_reserved": 0, "type": "electric_scooter", "bike_id": "773ef99d17539be0990ca6beea20fdf5", "lat": 38.95152933333333, "lon": -77.01871616666666, "rental_uris": {"android": "https://dc.lft.to/lastmile_qr_scan", "ios": "https://dc.lft.to/lastmile_qr_scan"}, "is_disabled": 0, "fusion_lat": 0.0, "name": "773ef99d17539be0990ca6beea20fdf5", "fusion_lon": 0.0}, {"is_reserved": 0, "type": "electric_scooter", "bike_id": "118e7343f7a9aa32056cdbc6d0384d6c", "lat": 38.9039445, "lon": -77.02741533333334, "rental_uris": {"android": "https://dc.lft.to/lastmile_qr_scan", "ios": "https://dc.lft.to/lastmile_qr_scan"}, "is_disabled": 0, "fusion_lat": 0.0, "name": "118e7343f7a9aa32056cdbc6d0384d6c", "fusion_lon": 0.0}, {"is_reserved": 0, "type": "electric_scooter", "bike_id": "4b2bdc2b78698d7be27320a35b42f1de", "lat": 38.94324783333333, "lon": -77.0757875, "rental_uris": {"android": "https://dc.lft.to/lastmile_qr_scan", "ios": "https://dc.lft.to/lastmile_qr_scan"}, "is_disabled": 0, "fusion_lat": 0.0, "name": "4b2bdc2b78698d7be27320a35b42f1de", "fusion_lon": 0.0}, {"is_reserved": 0, "type": "electric_scooter", "bike_id": "0ca85a212910451e9ac596bfcdbf125f", "lat": 38.901706, "lon": -77.01868433333334, "rental_uris": {"android": "https://dc.lft.to/lastmile_qr_scan", "ios": "https://dc.lft.to/lastmile_qr_scan"}, "is_disabled": 0, "fusion_lat": 0.0, "name": "0ca85a212910451e9ac596bfcdbf125f", "fusion_lon": 0.0}, {"is_reserved": 0, "type": "electric_scooter", "bike_id": "8d54d58b615b0a4f4db3f0f23896e671", "lat": 38.907863, "lon": -77.00951133333334, "rental_uris": {"android": "https://dc.lft.to/lastmile_qr_scan", "ios": "https://dc.lft.to/lastmile_qr_scan"}, "is_disabled": 0, "fusion_lat": 0.0, "name": "8d54d58b615b0a4f4db3f0f23896e671", "fusion_lon": 0.0}, {"is_reserved": 0, "type": "electric_scooter", "bike_id": "ee5c37bcc4fb2c9827dac6f05cba7494", "lat": 38.926606666666665, "lon": -77.03620966666666, "rental_uris": {"android": "https://dc.lft.to/lastmile_qr_scan", "ios": "https://dc.lft.to/lastmile_qr_scan"}, "is_disabled": 0, "fusion_lat": 0.0, "name": "ee5c37bcc4fb2c9827dac6f05cba7494", "fusion_lon": 0.0}, {"is_reserved": 0, "type": "electric_scooter", "bike_id": "06a6229959061e6ef0ccb5b1585a17b2", "lat": 38.900313833333335, "lon": -77.0177395, "rental_uris": {"android": "https://dc.lft.to/lastmile_qr_scan", "ios": "https://dc.lft.to/lastmile_qr_scan"}, "is_disabled": 0, "fusion_lat": 0.0, "name": "06a6229959061e6ef0ccb5b1585a17b2", "fusion_lon": 0.0}, {"is_reserved": 0, "type": "electric_scooter", "bike_id": "f5387d87f527097dbcdc3448e1a558ec", "lat": 38.9228275, "lon": -77.03660933333333, "rental_uris": {"android": "https://dc.lft.to/lastmile_qr_scan", "ios": "https://dc.lft.to/lastmile_qr_scan"}, "is_disabled": 0, "fusion_lat": 0.0, "name": "f5387d87f527097dbcdc3448e1a558ec", "fusion_lon": 0.0}, {"is_reserved": 0, "type": "electric_bike", "bike_id": "10f3e2b34a18aeccdf808a8289e98f20", "lat": 39.08433133333333, "lon": -76.9515065, "rental_uris": {"android": "https://dc.lft.to/lastmile_qr_scan", "ios": "https://dc.lft.to/lastmile_qr_scan"}, "is_disabled": 0, "fusion_lat": 0.0, "name": "10f3e2b34a18aeccdf808a8289e98f20", "fusion_lon": 0.0}, {"is_reserved": 0, "type": "electric_scooter", "bike_id": "f47ce05e261e80c59e6bb0e58b4a7793", "lat": 38.88660466666666, "lon": -76.93672316666667, "rental_uris": {"android": "https://dc.lft.to/lastmile_qr_scan", "ios": "https://dc.lft.to/lastmile_qr_scan"}, "is_disabled": 0, "fusion_lat": 0.0, "name": "f47ce05e261e80c59e6bb0e58b4a7793", "fusion_lon": 0.0}, {"is_reserved": 0, "type": "electric_bike", "bike_id": "c7d1cef5c4d769a8c71149ed9d121c25", "lat": 38.94538633333333, "lon": -77.34463333333333, "rental_uris": {"android": "https://dc.lft.to/lastmile_qr_scan", "ios": "https://dc.lft.to/lastmile_qr_scan"}, "is_disabled": 0, "fusion_lat": 0.0, "name": "c7d1cef5c4d769a8c71149ed9d121c25", "fusion_lon": 0.0}, {"is_reserved": 0, "type": "electric_scooter", "bike_id": "128ccf80154c654b48eaaab36454dc45", "lat": 38.88282433333333, "lon": -76.99489716666666, "rental_uris": {"android": "https://dc.lft.to/lastmile_qr_scan", "ios": "https://dc.lft.to/lastmile_qr_scan"}, "is_disabled": 0, "fusion_lat": 0.0, "name": "128ccf80154c654b48eaaab36454dc45", "fusion_lon": 0.0}, {"is_reserved": 0, "type": "electric_scooter", "bike_id": "8656853bed90ea6ebb2251d125bd0f15", "lat": 38.90078366666667, "lon": -76.92573616666667, "rental_uris": {"android": "https://dc.lft.to/lastmile_qr_scan", "ios": "https://dc.lft.to/lastmile_qr_scan"}, "is_disabled": 0, "fusion_lat": 0.0, "name": "8656853bed90ea6ebb2251d125bd0f15", "fusion_lon": 0.0}, {"is_reserved": 0, "type": "electric_scooter", "bike_id": "2fbf165ea24c991b316754443f9d84a8", "lat": 38.908579333333336, "lon": -77.04742366666666, "rental_uris": {"android": "https://dc.lft.to/lastmile_qr_scan", "ios": "https://dc.lft.to/lastmile_qr_scan"}, "is_disabled": 0, "fusion_lat": 0.0, "name": "2fbf165ea24c991b316754443f9d84a8", "fusion_lon": 0.0}, {"is_reserved": 0, "type": "electric_bike", "bike_id": "04346488b8d1abde3c5d0612f6b1d6ac", "lat": 38.8194115, "lon": -77.002059, "rental_uris": {"android": "https://dc.lft.to/lastmile_qr_scan", "ios": "https://dc.lft.to/lastmile_qr_scan"}, "is_disabled": 0, "fusion_lat": 0.0, "name": "04346488b8d1abde3c5d0612f6b1d6ac", "fusion_lon": 0.0}, {"is_reserved": 0, "type": "electric_scooter", "bike_id": "4b848669665a400d96b15cc7ada6d9fc", "lat": 38.93458033333334, "lon": -77.0208695, "rental_uris": {"android": "https://dc.lft.to/lastmile_qr_scan", "ios": "https://dc.lft.to/lastmile_qr_scan"}, "is_disabled": 0, "fusion_lat": 0.0, "name": "4b848669665a400d96b15cc7ada6d9fc", "fusion_lon": 0.0}, {"is_reserved": 0, "type": "electric_scooter", "bike_id": "a8c2e65f9f12e0e97c40a08e5477489a", "lat": 38.90795383333333, "lon": -77.04478983333334, "rental_uris": {"android": "https://dc.lft.to/lastmile_qr_scan", "ios": "https://dc.lft.to/lastmile_qr_scan"}, "is_disabled": 0, "fusion_lat": 0.0, "name": "a8c2e65f9f12e0e97c40a08e5477489a", "fusion_lon": 0.0}, {"is_reserved": 0, "type": "electric_scooter", "bike_id": "83f7e1fbd650051dfdaa7e9a48103817", "lat": 38.889863, "lon": -76.9929855, "rental_uris": {"android": "https://dc.lft.to/lastmile_qr_scan", "ios": "https://dc.lft.to/lastmile_qr_scan"}, "is_disabled": 0, "fusion_lat": 0.0, "name": "83f7e1fbd650051dfdaa7e9a48103817", "fusion_lon": 0.0}, {"is_reserved": 0, "type": "electric_scooter", "bike_id": "1d8e590753960739aa2385e3f40fd323", "lat": 38.91267116666667, "lon": -77.01839483333333, "rental_uris": {"android": "https://dc.lft.to/lastmile_qr_scan", "ios": "https://dc.lft.to/lastmile_qr_scan"}, "is_disabled": 0, "fusion_lat": 0.0, "name": "1d8e590753960739aa2385e3f40fd323", "fusion_lon": 0.0}, {"is_reserved": 0, "type": "electric_scooter", "bike_id": "1da2d15e9609811a770b55a856a97112", "lat": 38.905702833333336, "lon": -77.01849733333333, "rental_uris": {"android": "https://dc.lft.to/lastmile_qr_scan", "ios": "https://dc.lft.to/lastmile_qr_scan"}, "is_disabled": 0, "fusion_lat": 0.0, "name": "1da2d15e9609811a770b55a856a97112", "fusion_lon": 0.0}, {"is_reserved": 0, "type": "electric_scooter", "bike_id": "f46a48bc536270219937c6de5cf57c3f", "lat": 38.91914583333333, "lon": -77.0099325, "rental_uris": {"android": "https://dc.lft.to/lastmile_qr_scan", "ios": "https://dc.lft.to/lastmile_qr_scan"}, "is_disabled": 0, "fusion_lat": 0.0, "name": "f46a48bc536270219937c6de5cf57c3f", "fusion_lon": 0.0}, {"is_reserved": 0, "type": "electric_bike", "bike_id": "c7ee14c4c6eeaa1d0170f6d290bda04b", "lat": 38.93213183333334, "lon": -77.0233895, "rental_uris": {"android": "https://dc.lft.to/lastmile_qr_scan", "ios": "https://dc.lft.to/lastmile_qr_scan"}, "is_disabled": 0, "fusion_lat": 0.0, "name": "c7ee14c4c6eeaa1d0170f6d290bda04b", "fusion_lon": 0.0}, {"is_reserved": 0, "type": "electric_scooter", "bike_id": "15cb7f3170d4af0c5bfc0fbeba043473", "lat": 38.892206, "lon": -77.02425083333333, "rental_uris": {"android": "https://dc.lft.to/lastmile_qr_scan", "ios": "https://dc.lft.to/lastmile_qr_scan"}, "is_disabled": 0, "fusion_lat": 0.0, "name": "15cb7f3170d4af0c5bfc0fbeba043473", "fusion_lon": 0.0}, {"is_reserved": 0, "type": "electric_scooter", "bike_id": "d7f720cb0f298d3fc013bd059968c10b", "lat": 38.88123233333334, "lon": -77.01977166666667, "rental_uris": {"android": "https://dc.lft.to/lastmile_qr_scan", "ios": "https://dc.lft.to/lastmile_qr_scan"}, "is_disabled": 0, "fusion_lat": 0.0, "name": "d7f720cb0f298d3fc013bd059968c10b", "fusion_lon": 0.0}, {"is_reserved": 0, "type": "electric_bike", "bike_id": "1f523ab04ec6dabbed67805da5cd3945", "lat": 38.867572, "lon": -76.94539683333333, "rental_uris": {"android": "https://dc.lft.to/lastmile_qr_scan", "ios": "https://dc.lft.to/lastmile_qr_scan"}, "is_disabled": 0, "fusion_lat": 0.0, "name": "1f523ab04ec6dabbed67805da5cd3945", "fusion_lon": 0.0}, {"is_reserved": 0, "type": "electric_scooter", "bike_id": "47868d688dc0e65ec216400eb590d2cb", "lat": 38.88773583333333, "lon": -76.93265133333334, "rental_uris": {"android": "https://dc.lft.to/lastmile_qr_scan", "ios": "https://dc.lft.to/lastmile_qr_scan"}, "is_disabled": 0, "fusion_lat": 0.0, "name": "47868d688dc0e65ec216400eb590d2cb", "fusion_lon": 0.0}, {"is_reserved": 0, "type": "electric_bike", "bike_id": "728e600e0b3998cd9804aee9ca073a3a", "lat": 38.892231, "lon": -77.06983683333333, "rental_uris": {"android": "https://dc.lft.to/lastmile_qr_scan", "ios": "https://dc.lft.to/lastmile_qr_scan"}, "is_disabled": 0, "fusion_lat": 0.0, "name": "728e600e0b3998cd9804aee9ca073a3a", "fusion_lon": 0.0}, {"is_reserved": 0, "type": "electric_scooter", "bike_id": "d963da51d43441ad4c9173ee76ab49e0", "lat": 38.917423166666666, "lon": -77.017134, "rental_uris": {"android": "https://dc.lft.to/lastmile_qr_scan", "ios": "https://dc.lft.to/lastmile_qr_scan"}, "is_disabled": 0, "fusion_lat": 0.0, "name": "d963da51d43441ad4c9173ee76ab49e0", "fusion_lon": 0.0}, {"is_reserved": 0, "type": "electric_scooter", "bike_id": "2fdbbbc6d0301ca3947d411875dea182", "lat": 38.9028655, "lon": -77.0364335, "rental_uris": {"android": "https://dc.lft.to/lastmile_qr_scan", "ios": "https://dc.lft.to/lastmile_qr_scan"}, "is_disabled": 0, "fusion_lat": 0.0, "name": "2fdbbbc6d0301ca3947d411875dea182", "fusion_lon": 0.0}, {"is_reserved": 0, "type": "electric_scooter", "bike_id": "121dc86c293e74bb96b568183cdde562", "lat": 38.874977, "lon": -77.00331416666667, "rental_uris": {"android": "https://dc.lft.to/lastmile_qr_scan", "ios": "https://dc.lft.to/lastmile_qr_scan"}, "is_disabled": 0, "fusion_lat": 0.0, "name": "121dc86c293e74bb96b568183cdde562", "fusion_lon": 0.0}, {"is_reserved": 0, "type": "electric_scooter", "bike_id": "127e98f9b351ed5d6fadb1f25dd358cc", "lat": 38.92738083333333, "lon": -77.05350733333333, "rental_uris": {"android": "https://dc.lft.to/lastmile_qr_scan", "ios": "https://dc.lft.to/lastmile_qr_scan"}, "is_disabled": 0, "fusion_lat": 0.0, "name": "127e98f9b351ed5d6fadb1f25dd358cc", "fusion_lon": 0.0}, {"is_reserved": 0, "type": "electric_scooter", "bike_id": "989cc2a3439c79ab00eb95d81a9e8ab6", "lat": 38.918146666666665, "lon": -77.03134583333333, "rental_uris": {"android": "https://dc.lft.to/lastmile_qr_scan", "ios": "https://dc.lft.to/lastmile_qr_scan"}, "is_disabled": 0, "fusion_lat": 0.0, "name": "989cc2a3439c79ab00eb95d81a9e8ab6", "fusion_lon": 0.0}, {"is_reserved": 0, "type": "electric_scooter", "bike_id": "188d9f2e74cd84893b7b11db1ffd4869", "lat": 38.89607216666667, "lon": -77.03218083333333, "rental_uris": {"android": "https://dc.lft.to/lastmile_qr_scan", "ios": "https://dc.lft.to/lastmile_qr_scan"}, "is_disabled": 0, "fusion_lat": 0.0, "name": "188d9f2e74cd84893b7b11db1ffd4869", "fusion_lon": 0.0}, {"is_reserved": 0, "type": "electric_scooter", "bike_id": "330ae85efe13f90bc7629d850cc02d24", "lat": 38.884454166666664, "lon": -77.02497316666667, "rental_uris": {"android": "https://dc.lft.to/lastmile_qr_scan", "ios": "https://dc.lft.to/lastmile_qr_scan"}, "is_disabled": 0, "fusion_lat": 0.0, "name": "330ae85efe13f90bc7629d850cc02d24", "fusion_lon": 0.0}, {"is_reserved": 0, "type": "electric_scooter", "bike_id": "e9d2bb9894699da78167da357755380c", "lat": 38.8819725, "lon": -77.00606666666667, "rental_uris": {"android": "https://dc.lft.to/lastmile_qr_scan", "ios": "https://dc.lft.to/lastmile_qr_scan"}, "is_disabled": 0, "fusion_lat": 0.0, "name": "e9d2bb9894699da78167da357755380c", "fusion_lon": 0.0}, {"is_reserved": 0, "type": "electric_scooter", "bike_id": "856ff26443d656b6264d1402c6c09ecd", "lat": 38.921211666666665, "lon": -77.03932316666666, "rental_uris": {"android": "https://dc.lft.to/lastmile_qr_scan", "ios": "https://dc.lft.to/lastmile_qr_scan"}, "is_disabled": 0, "fusion_lat": 0.0, "name": "856ff26443d656b6264d1402c6c09ecd", "fusion_lon": 0.0}, {"is_reserved": 0, "type": "electric_scooter", "bike_id": "10bc69b37a0f5e15a87884d98f79e8ac", "lat": 38.92286883333333, "lon": -77.03207616666667, "rental_uris": {"android": "https://dc.lft.to/lastmile_qr_scan", "ios": "https://dc.lft.to/lastmile_qr_scan"}, "is_disabled": 0, "fusion_lat": 0.0, "name": "10bc69b37a0f5e15a87884d98f79e8ac", "fusion_lon": 0.0}, {"is_reserved": 0, "type": "electric_scooter", "bike_id": "741054afa04a70243b1a7423b367efc1", "lat": 38.896448166666666, "lon": -77.03307116666667, "rental_uris": {"android": "https://dc.lft.to/lastmile_qr_scan", "ios": "https://dc.lft.to/lastmile_qr_scan"}, "is_disabled": 0, "fusion_lat": 0.0, "name": "741054afa04a70243b1a7423b367efc1", "fusion_lon": 0.0}, {"is_reserved": 0, "type": "electric_bike", "bike_id": "b27fd5ff36e72b60ddefef40d3aa483b", "lat": 38.932094666666664, "lon": -77.02251833333334, "rental_uris": {"android": "https://dc.lft.to/lastmile_qr_scan", "ios": "https://dc.lft.to/lastmile_qr_scan"}, "is_disabled": 0, "fusion_lat": 0.0, "name": "b27fd5ff36e72b60ddefef40d3aa483b", "fusion_lon": 0.0}, {"is_reserved": 0, "type": "electric_scooter", "bike_id": "72f1799bbec67dc21e68b803f6664db5", "lat": 38.95954716666667, "lon": -77.072617, "rental_uris": {"android": "https://dc.lft.to/lastmile_qr_scan", "ios": "https://dc.lft.to/lastmile_qr_scan"}, "is_disabled": 0, "fusion_lat": 0.0, "name": "72f1799bbec67dc21e68b803f6664db5", "fusion_lon": 0.0}, {"is_reserved": 0, "type": "electric_scooter", "bike_id": "4cd8ab2a8e47b51eaa8e614b452124db", "lat": 38.88918866666667, "lon": -76.99387366666667, "rental_uris": {"android": "https://dc.lft.to/lastmile_qr_scan", "ios": "https://dc.lft.to/lastmile_qr_scan"}, "is_disabled": 0, "fusion_lat": 0.0, "name": "4cd8ab2a8e47b51eaa8e614b452124db", "fusion_lon": 0.0}, {"is_reserved": 0, "type": "electric_scooter", "bike_id": "2b6b70ee281cc8705150287cfae3a860", "lat": 38.911168333333336, "lon": -77.04358866666666, "rental_uris": {"android": "https://dc.lft.to/lastmile_qr_scan", "ios": "https://dc.lft.to/lastmile_qr_scan"}, "is_disabled": 0, "fusion_lat": 0.0, "name": "2b6b70ee281cc8705150287cfae3a860", "fusion_lon": 0.0}, {"is_reserved": 0, "type": "electric_scooter", "bike_id": "2f51465fb8b24bfb3a57a2960b43448d", "lat": 38.871536666666664, "lon": -77.01313383333333, "rental_uris": {"android": "https://dc.lft.to/lastmile_qr_scan", "ios": "https://dc.lft.to/lastmile_qr_scan"}, "is_disabled": 0, "fusion_lat": 0.0, "name": "2f51465fb8b24bfb3a57a2960b43448d", "fusion_lon": 0.0}, {"is_reserved": 0, "type": "electric_scooter", "bike_id": "670e6cc0c76d04face6a3f3e530dfcbd", "lat": 38.8726495, "lon": -77.017082, "rental_uris": {"android": "https://dc.lft.to/lastmile_qr_scan", "ios": "https://dc.lft.to/lastmile_qr_scan"}, "is_disabled": 0, "fusion_lat": 0.0, "name": "670e6cc0c76d04face6a3f3e530dfcbd", "fusion_lon": 0.0}, {"is_reserved": 0, "type": "electric_scooter", "bike_id": "a863808282b94c51b7fd460e2ce1f2f6", "lat": 38.90683216666667, "lon": -77.05623766666666, "rental_uris": {"android": "https://dc.lft.to/lastmile_qr_scan", "ios": "https://dc.lft.to/lastmile_qr_scan"}, "is_disabled": 0, "fusion_lat": 0.0, "name": "a863808282b94c51b7fd460e2ce1f2f6", "fusion_lon": 0.0}, {"is_reserved": 0, "type": "electric_bike", "bike_id": "d2880dca37eafdc6fa7dc9f0f3b34953", "lat": 38.9496065, "lon": -76.961028, "rental_uris": {"android": "https://dc.lft.to/lastmile_qr_scan", "ios": "https://dc.lft.to/lastmile_qr_scan"}, "is_disabled": 0, "fusion_lat": 0.0, "name": "d2880dca37eafdc6fa7dc9f0f3b34953", "fusion_lon": 0.0}, {"is_reserved": 0, "type": "electric_bike", "bike_id": "7fb55a53523b6e2649cab382e7e3873e", "lat": 38.900507166666664, "lon": -76.977895, "rental_uris": {"android": "https://dc.lft.to/lastmile_qr_scan", "ios": "https://dc.lft.to/lastmile_qr_scan"}, "is_disabled": 0, "fusion_lat": 0.0, "name": "7fb55a53523b6e2649cab382e7e3873e", "fusion_lon": 0.0}, {"is_reserved": 0, "type": "electric_scooter", "bike_id": "de461cb1c9fa27d20e1be698fb4c4de1", "lat": 38.90682866666667, "lon": -77.0626355, "rental_uris": {"android": "https://dc.lft.to/lastmile_qr_scan", "ios": "https://dc.lft.to/lastmile_qr_scan"}, "is_disabled": 0, "fusion_lat": 0.0, "name": "de461cb1c9fa27d20e1be698fb4c4de1", "fusion_lon": 0.0}, {"is_reserved": 0, "type": "electric_scooter", "bike_id": "c5f99c4b8d4e53d9e496b34e8b9a25fc", "lat": 38.9039675, "lon": -77.01845566666667, "rental_uris": {"android": "https://dc.lft.to/lastmile_qr_scan", "ios": "https://dc.lft.to/lastmile_qr_scan"}, "is_disabled": 0, "fusion_lat": 0.0, "name": "c5f99c4b8d4e53d9e496b34e8b9a25fc", "fusion_lon": 0.0}, {"is_reserved": 0, "type": "electric_bike", "bike_id": "9bb87f1bfe05fd1eaacf829b3a111873", "lat": 38.80867516666667, "lon": -77.11256766666666, "rental_uris": {"android": "https://dc.lft.to/lastmile_qr_scan", "ios": "https://dc.lft.to/lastmile_qr_scan"}, "is_disabled": 0, "fusion_lat": 0.0, "name": "9bb87f1bfe05fd1eaacf829b3a111873", "fusion_lon": 0.0}, {"is_reserved": 0, "type": "electric_scooter", "bike_id": "7f5ab92ab303fe37bbd2b7caf926f276", "lat": 38.91388416666667, "lon": -77.03213366666667, "rental_uris": {"android": "https://dc.lft.to/lastmile_qr_scan", "ios": "https://dc.lft.to/lastmile_qr_scan"}, "is_disabled": 0, "fusion_lat": 0.0, "name": "7f5ab92ab303fe37bbd2b7caf926f276", "fusion_lon": 0.0}, {"is_reserved": 0, "type": "electric_scooter", "bike_id": "ebeeb6f1af5ce15f23a4cabaacd70d9c", "lat": 38.905154833333334, "lon": -77.0566825, "rental_uris": {"android": "https://dc.lft.to/lastmile_qr_scan", "ios": "https://dc.lft.to/lastmile_qr_scan"}, "is_disabled": 0, "fusion_lat": 0.0, "name": "ebeeb6f1af5ce15f23a4cabaacd70d9c", "fusion_lon": 0.0}, {"is_reserved": 0, "type": "electric_scooter", "bike_id": "9200eff4625f40be91fa84e0d87f12c2", "lat": 38.8936465, "lon": -77.028383, "rental_uris": {"android": "https://dc.lft.to/lastmile_qr_scan", "ios": "https://dc.lft.to/lastmile_qr_scan"}, "is_disabled": 0, "fusion_lat": 0.0, "name": "9200eff4625f40be91fa84e0d87f12c2", "fusion_lon": 0.0}, {"is_reserved": 0, "type": "electric_scooter", "bike_id": "b9a69e79302527885ec9bb6913af3f00", "lat": 38.90082533333333, "lon": -77.01609166666667, "rental_uris": {"android": "https://dc.lft.to/lastmile_qr_scan", "ios": "https://dc.lft.to/lastmile_qr_scan"}, "is_disabled": 0, "fusion_lat": 0.0, "name": "b9a69e79302527885ec9bb6913af3f00", "fusion_lon": 0.0}, {"is_reserved": 0, "type": "electric_scooter", "bike_id": "2f159ab2345aa0a9819fa291c9af3dbd", "lat": 38.90088683333333, "lon": -77.0573825, "rental_uris": {"android": "https://dc.lft.to/lastmile_qr_scan", "ios": "https://dc.lft.to/lastmile_qr_scan"}, "is_disabled": 0, "fusion_lat": 0.0, "name": "2f159ab2345aa0a9819fa291c9af3dbd", "fusion_lon": 0.0}, {"is_reserved": 0, "type": "electric_scooter", "bike_id": "a6410101845833be1d969daf2c90e8f7", "lat": 38.91632966666667, "lon": -77.04820116666667, "rental_uris": {"android": "https://dc.lft.to/lastmile_qr_scan", "ios": "https://dc.lft.to/lastmile_qr_scan"}, "is_disabled": 0, "fusion_lat": 0.0, "name": "a6410101845833be1d969daf2c90e8f7", "fusion_lon": 0.0}, {"is_reserved": 0, "type": "electric_scooter", "bike_id": "ddbe7f6c138fed3132db1c39424b25cc", "lat": 38.89905516666666, "lon": -77.00365233333333, "rental_uris": {"android": "https://dc.lft.to/lastmile_qr_scan", "ios": "https://dc.lft.to/lastmile_qr_scan"}, "is_disabled": 0, "fusion_lat": 0.0, "name": "ddbe7f6c138fed3132db1c39424b25cc", "fusion_lon": 0.0}, {"is_reserved": 0, "type": "electric_scooter", "bike_id": "9d532a396e148c36e9a02a1a67ef9723", "lat": 38.9210765, "lon": -77.02202883333334, "rental_uris": {"android": "https://dc.lft.to/lastmile_qr_scan", "ios": "https://dc.lft.to/lastmile_qr_scan"}, "is_disabled": 0, "fusion_lat": 0.0, "name": "9d532a396e148c36e9a02a1a67ef9723", "fusion_lon": 0.0}, {"is_reserved": 0, "type": "electric_scooter", "bike_id": "74c0677581cddc72007ce0c407dfe366", "lat": 38.92249266666666, "lon": -77.02884483333334, "rental_uris": {"android": "https://dc.lft.to/lastmile_qr_scan", "ios": "https://dc.lft.to/lastmile_qr_scan"}, "is_disabled": 0, "fusion_lat": 0.0, "name": "74c0677581cddc72007ce0c407dfe366", "fusion_lon": 0.0}, {"is_reserved": 0, "type": "electric_scooter", "bike_id": "0901993e21a699001dcd9a54c5fd17f3", "lat": 38.901579, "lon": -77.027807, "rental_uris": {"android": "https://dc.lft.to/lastmile_qr_scan", "ios": "https://dc.lft.to/lastmile_qr_scan"}, "is_disabled": 0, "fusion_lat": 0.0, "name": "0901993e21a699001dcd9a54c5fd17f3", "fusion_lon": 0.0}, {"is_reserved": 0, "type": "electric_bike", "bike_id": "528c49cc2908cc553bae35eee75bbb89", "lat": 38.88288883333333, "lon": -76.93401533333333, "rental_uris": {"android": "https://dc.lft.to/lastmile_qr_scan", "ios": "https://dc.lft.to/lastmile_qr_scan"}, "is_disabled": 0, "fusion_lat": 0.0, "name": "528c49cc2908cc553bae35eee75bbb89", "fusion_lon": 0.0}, {"is_reserved": 0, "type": "electric_scooter", "bike_id": "625f05cce833607badf5c5a7c827a96c", "lat": 38.9166165, "lon": -77.02699883333334, "rental_uris": {"android": "https://dc.lft.to/lastmile_qr_scan", "ios": "https://dc.lft.to/lastmile_qr_scan"}, "is_disabled": 0, "fusion_lat": 0.0, "name": "625f05cce833607badf5c5a7c827a96c", "fusion_lon": 0.0}, {"is_reserved": 0, "type": "electric_scooter", "bike_id": "4b4e421b089dd2dc6216f108a32a22ea", "lat": 38.87206783333333, "lon": -77.01545066666667, "rental_uris": {"android": "https://dc.lft.to/lastmile_qr_scan", "ios": "https://dc.lft.to/lastmile_qr_scan"}, "is_disabled": 0, "fusion_lat": 0.0, "name": "4b4e421b089dd2dc6216f108a32a22ea", "fusion_lon": 0.0}, {"is_reserved": 0, "type": "electric_scooter", "bike_id": "95b1b84f7d0c2ac31d3d8ff4f71ac5fd", "lat": 38.901774, "lon": -76.9289135, "rental_uris": {"android": "https://dc.lft.to/lastmile_qr_scan", "ios": "https://dc.lft.to/lastmile_qr_scan"}, "is_disabled": 0, "fusion_lat": 0.0, "name": "95b1b84f7d0c2ac31d3d8ff4f71ac5fd", "fusion_lon": 0.0}, {"is_reserved": 0, "type": "electric_bike", "bike_id": "6b583aed1a863dfa0e1c39aeacde41d4", "lat": 38.8073015, "lon": -76.992546, "rental_uris": {"android": "https://dc.lft.to/lastmile_qr_scan", "ios": "https://dc.lft.to/lastmile_qr_scan"}, "is_disabled": 0, "fusion_lat": 0.0, "name": "6b583aed1a863dfa0e1c39aeacde41d4", "fusion_lon": 0.0}, {"is_reserved": 0, "type": "electric_scooter", "bike_id": "fea90cd1bd6000f340ba29e68e8f18f9", "lat": 38.897160666666664, "lon": -77.05361433333333, "rental_uris": {"android": "https://dc.lft.to/lastmile_qr_scan", "ios": "https://dc.lft.to/lastmile_qr_scan"}, "is_disabled": 0, "fusion_lat": 0.0, "name": "fea90cd1bd6000f340ba29e68e8f18f9", "fusion_lon": 0.0}, {"is_reserved": 0, "type": "electric_scooter", "bike_id": "607309b5c0b3b2d2d2b39f08f36c9c65", "lat": 38.915766833333336, "lon": -77.03659883333333, "rental_uris": {"android": "https://dc.lft.to/lastmile_qr_scan", "ios": "https://dc.lft.to/lastmile_qr_scan"}, "is_disabled": 0, "fusion_lat": 0.0, "name": "607309b5c0b3b2d2d2b39f08f36c9c65", "fusion_lon": 0.0}, {"is_reserved": 0, "type": "electric_scooter", "bike_id": "3fb1bb68c45df6c7f0d9cd4462d15415", "lat": 38.911153166666665, "lon": -77.018234, "rental_uris": {"android": "https://dc.lft.to/lastmile_qr_scan", "ios": "https://dc.lft.to/lastmile_qr_scan"}, "is_disabled": 0, "fusion_lat": 0.0, "name": "3fb1bb68c45df6c7f0d9cd4462d15415", "fusion_lon": 0.0}, {"is_reserved": 0, "type": "electric_scooter", "bike_id": "8317aab1795bc05c70aaf28179da642f", "lat": 38.93065333333333, "lon": -77.02840766666667, "rental_uris": {"android": "https://dc.lft.to/lastmile_qr_scan", "ios": "https://dc.lft.to/lastmile_qr_scan"}, "is_disabled": 0, "fusion_lat": 0.0, "name": "8317aab1795bc05c70aaf28179da642f", "fusion_lon": 0.0}, {"is_reserved": 0, "type": "electric_scooter", "bike_id": "81d12ae09809187dbff2ecfcd7e67705", "lat": 38.938239833333334, "lon": -77.02639933333333, "rental_uris": {"android": "https://dc.lft.to/lastmile_qr_scan", "ios": "https://dc.lft.to/lastmile_qr_scan"}, "is_disabled": 0, "fusion_lat": 0.0, "name": "81d12ae09809187dbff2ecfcd7e67705", "fusion_lon": 0.0}, {"is_reserved": 0, "type": "electric_bike", "bike_id": "48dda78ba22dc508bf35aa20b30fece1", "lat": 38.974213666666664, "lon": -77.01256816666667, "rental_uris": {"android": "https://dc.lft.to/lastmile_qr_scan", "ios": "https://dc.lft.to/lastmile_qr_scan"}, "is_disabled": 0, "fusion_lat": 0.0, "name": "48dda78ba22dc508bf35aa20b30fece1", "fusion_lon": 0.0}, {"is_reserved": 0, "type": "electric_scooter", "bike_id": "8d5993a386374aca5528b57e01989cc0", "lat": 38.9006065, "lon": -76.98658533333334, "rental_uris": {"android": "https://dc.lft.to/lastmile_qr_scan", "ios": "https://dc.lft.to/lastmile_qr_scan"}, "is_disabled": 0, "fusion_lat": 0.0, "name": "8d5993a386374aca5528b57e01989cc0", "fusion_lon": 0.0}, {"is_reserved": 0, "type": "electric_bike", "bike_id": "ce0f53e4f579cd85233e379db4665271", "lat": 38.889072166666665, "lon": -77.159544, "rental_uris": {"android": "https://dc.lft.to/lastmile_qr_scan", "ios": "https://dc.lft.to/lastmile_qr_scan"}, "is_disabled": 0, "fusion_lat": 0.0, "name": "ce0f53e4f579cd85233e379db4665271", "fusion_lon": 0.0}, {"is_reserved": 0, "type": "electric_scooter", "bike_id": "775346d04ff65f125838d5b6700c7f22", "lat": 38.9375775, "lon": -77.031531, "rental_uris": {"android": "https://dc.lft.to/lastmile_qr_scan", "ios": "https://dc.lft.to/lastmile_qr_scan"}, "is_disabled": 0, "fusion_lat": 0.0, "name": "775346d04ff65f125838d5b6700c7f22", "fusion_lon": 0.0}, {"is_reserved": 0, "type": "electric_scooter", "bike_id": "92deca957b312138b1dd2e20cd5b67d4", "lat": 38.8963905, "lon": -77.0259595, "rental_uris": {"android": "https://dc.lft.to/lastmile_qr_scan", "ios": "https://dc.lft.to/lastmile_qr_scan"}, "is_disabled": 0, "fusion_lat": 0.0, "name": "92deca957b312138b1dd2e20cd5b67d4", "fusion_lon": 0.0}, {"is_reserved": 0, "type": "electric_bike", "bike_id": "bc97b524698d915ae7e858ff7e2f6415", "lat": 38.9321335, "lon": -77.02337683333333, "rental_uris": {"android": "https://dc.lft.to/lastmile_qr_scan", "ios": "https://dc.lft.to/lastmile_qr_scan"}, "is_disabled": 0, "fusion_lat": 0.0, "name": "bc97b524698d915ae7e858ff7e2f6415", "fusion_lon": 0.0}, {"is_reserved": 0, "type": "electric_scooter", "bike_id": "d4d18ff9326128754ff04ead48986e9e", "lat": 38.920944, "lon": -77.01796133333333, "rental_uris": {"android": "https://dc.lft.to/lastmile_qr_scan", "ios": "https://dc.lft.to/lastmile_qr_scan"}, "is_disabled": 0, "fusion_lat": 0.0, "name": "d4d18ff9326128754ff04ead48986e9e", "fusion_lon": 0.0}, {"is_reserved": 0, "type": "electric_scooter", "bike_id": "cca09f1ed8d2e9c25b89c0fceba38a1e", "lat": 38.940318, "lon": -77.026433, "rental_uris": {"android": "https://dc.lft.to/lastmile_qr_scan", "ios": "https://dc.lft.to/lastmile_qr_scan"}, "is_disabled": 0, "fusion_lat": 0.0, "name": "cca09f1ed8d2e9c25b89c0fceba38a1e", "fusion_lon": 0.0}, {"is_reserved": 0, "type": "electric_scooter", "bike_id": "83c000857e8b7b5b714f4d677737e76e", "lat": 38.90725783333333, "lon": -77.045511, "rental_uris": {"android": "https://dc.lft.to/lastmile_qr_scan", "ios": "https://dc.lft.to/lastmile_qr_scan"}, "is_disabled": 0, "fusion_lat": 0.0, "name": "83c000857e8b7b5b714f4d677737e76e", "fusion_lon": 0.0}, {"is_reserved": 0, "type": "electric_scooter", "bike_id": "b36dc2b2170c751712dda08f04ee75b9", "lat": 38.9034755, "lon": -77.010949, "rental_uris": {"android": "https://dc.lft.to/lastmile_qr_scan", "ios": "https://dc.lft.to/lastmile_qr_scan"}, "is_disabled": 0, "fusion_lat": 0.0, "name": "b36dc2b2170c751712dda08f04ee75b9", "fusion_lon": 0.0}, {"is_reserved": 0, "type": "electric_scooter", "bike_id": "170b45abef7bd16337a7c153911e88f8", "lat": 38.88221983333333, "lon": -77.00614833333333, "rental_uris": {"android": "https://dc.lft.to/lastmile_qr_scan", "ios": "https://dc.lft.to/lastmile_qr_scan"}, "is_disabled": 0, "fusion_lat": 0.0, "name": "170b45abef7bd16337a7c153911e88f8", "fusion_lon": 0.0}, {"is_reserved": 0, "type": "electric_scooter", "bike_id": "458d4022063f526ea1a7a926c33fb0df", "lat": 38.922053166666664, "lon": -77.020334, "rental_uris": {"android": "https://dc.lft.to/lastmile_qr_scan", "ios": "https://dc.lft.to/lastmile_qr_scan"}, "is_disabled": 0, "fusion_lat": 0.0, "name": "458d4022063f526ea1a7a926c33fb0df", "fusion_lon": 0.0}, {"is_reserved": 0, "type": "electric_scooter", "bike_id": "446f97001fa0034d6aecd68706ceffe1", "lat": 38.9117595, "lon": -77.002762, "rental_uris": {"android": "https://dc.lft.to/lastmile_qr_scan", "ios": "https://dc.lft.to/lastmile_qr_scan"}, "is_disabled": 0, "fusion_lat": 0.0, "name": "446f97001fa0034d6aecd68706ceffe1", "fusion_lon": 0.0}, {"is_reserved": 0, "type": "electric_scooter", "bike_id": "6dd3697053065ef1eb1ec291a3401b5f", "lat": 38.910191833333336, "lon": -76.99375233333333, "rental_uris": {"android": "https://dc.lft.to/lastmile_qr_scan", "ios": "https://dc.lft.to/lastmile_qr_scan"}, "is_disabled": 0, "fusion_lat": 0.0, "name": "6dd3697053065ef1eb1ec291a3401b5f", "fusion_lon": 0.0}, {"is_reserved": 0, "type": "electric_scooter", "bike_id": "9cb51717fbd3abe5d720705c108c8a68", "lat": 38.90929833333333, "lon": -77.031868, "rental_uris": {"android": "https://dc.lft.to/lastmile_qr_scan", "ios": "https://dc.lft.to/lastmile_qr_scan"}, "is_disabled": 0, "fusion_lat": 0.0, "name": "9cb51717fbd3abe5d720705c108c8a68", "fusion_lon": 0.0}, {"is_reserved": 0, "type": "electric_scooter", "bike_id": "fc357c630a6b5f174f55fd936845b475", "lat": 38.897646, "lon": -77.04767566666666, "rental_uris": {"android": "https://dc.lft.to/lastmile_qr_scan", "ios": "https://dc.lft.to/lastmile_qr_scan"}, "is_disabled": 0, "fusion_lat": 0.0, "name": "fc357c630a6b5f174f55fd936845b475", "fusion_lon": 0.0}, {"is_reserved": 0, "type": "electric_scooter", "bike_id": "6028b7420dc66cf5e066d3506f88c07d", "lat": 38.874716166666666, "lon": -77.003369, "rental_uris": {"android": "https://dc.lft.to/lastmile_qr_scan", "ios": "https://dc.lft.to/lastmile_qr_scan"}, "is_disabled": 0, "fusion_lat": 0.0, "name": "6028b7420dc66cf5e066d3506f88c07d", "fusion_lon": 0.0}, {"is_reserved": 0, "type": "electric_scooter", "bike_id": "2743cc0101f300a95583ad91e0d67960", "lat": 38.918791166666665, "lon": -77.043115, "rental_uris": {"android": "https://dc.lft.to/lastmile_qr_scan", "ios": "https://dc.lft.to/lastmile_qr_scan"}, "is_disabled": 0, "fusion_lat": 0.0, "name": "2743cc0101f300a95583ad91e0d67960", "fusion_lon": 0.0}, {"is_reserved": 0, "type": "electric_scooter", "bike_id": "804322e927602be28709b343e2f1f851", "lat": 38.91882233333333, "lon": -77.0430985, "rental_uris": {"android": "https://dc.lft.to/lastmile_qr_scan", "ios": "https://dc.lft.to/lastmile_qr_scan"}, "is_disabled": 0, "fusion_lat": 0.0, "name": "804322e927602be28709b343e2f1f851", "fusion_lon": 0.0}, {"is_reserved": 0, "type": "electric_scooter", "bike_id": "13bd5e4fe5734709c49e00b11f417ebf", "lat": 38.907131, "lon": -77.04565933333333, "rental_uris": {"android": "https://dc.lft.to/lastmile_qr_scan", "ios": "https://dc.lft.to/lastmile_qr_scan"}, "is_disabled": 0, "fusion_lat": 0.0, "name": "13bd5e4fe5734709c49e00b11f417ebf", "fusion_lon": 0.0}, {"is_reserved": 0, "type": "electric_scooter", "bike_id": "38e59161c030a1e92b2ce68bb59ed896", "lat": 38.933679166666664, "lon": -77.034728, "rental_uris": {"android": "https://dc.lft.to/lastmile_qr_scan", "ios": "https://dc.lft.to/lastmile_qr_scan"}, "is_disabled": 0, "fusion_lat": 0.0, "name": "38e59161c030a1e92b2ce68bb59ed896", "fusion_lon": 0.0}, {"is_reserved": 0, "type": "electric_scooter", "bike_id": "5cbe23d27850e49d020fbb1444a2f92c", "lat": 38.90223833333334, "lon": -77.028507, "rental_uris": {"android": "https://dc.lft.to/lastmile_qr_scan", "ios": "https://dc.lft.to/lastmile_qr_scan"}, "is_disabled": 0, "fusion_lat": 0.0, "name": "5cbe23d27850e49d020fbb1444a2f92c", "fusion_lon": 0.0}, {"is_reserved": 0, "type": "electric_scooter", "bike_id": "11d66b1cb0613ce0d5c6c8060d266032", "lat": 38.898884, "lon": -76.99360683333333, "rental_uris": {"android": "https://dc.lft.to/lastmile_qr_scan", "ios": "https://dc.lft.to/lastmile_qr_scan"}, "is_disabled": 0, "fusion_lat": 0.0, "name": "11d66b1cb0613ce0d5c6c8060d266032", "fusion_lon": 0.0}, {"is_reserved": 0, "type": "electric_scooter", "bike_id": "4442794e52cfd07b095162b3c34f4e47", "lat": 38.88387066666667, "lon": -77.02982916666667, "rental_uris": {"android": "https://dc.lft.to/lastmile_qr_scan", "ios": "https://dc.lft.to/lastmile_qr_scan"}, "is_disabled": 0, "fusion_lat": 0.0, "name": "4442794e52cfd07b095162b3c34f4e47", "fusion_lon": 0.0}, {"is_reserved": 0, "type": "electric_bike", "bike_id": "ca800f82ba26febcfd0ad3ffa09f7feb", "lat": 38.945062666666665, "lon": -77.00669733333334, "rental_uris": {"android": "https://dc.lft.to/lastmile_qr_scan", "ios": "https://dc.lft.to/lastmile_qr_scan"}, "is_disabled": 0, "fusion_lat": 0.0, "name": "ca800f82ba26febcfd0ad3ffa09f7feb", "fusion_lon": 0.0}, {"is_reserved": 0, "type": "electric_bike", "bike_id": "6092c09c6d358cead603fd9b4628f699", "lat": 38.8772985, "lon": -77.118474, "rental_uris": {"android": "https://dc.lft.to/lastmile_qr_scan", "ios": "https://dc.lft.to/lastmile_qr_scan"}, "is_disabled": 0, "fusion_lat": 0.0, "name": "6092c09c6d358cead603fd9b4628f699", "fusion_lon": 0.0}, {"is_reserved": 0, "type": "electric_scooter", "bike_id": "cca6e773e3122c17f54257c33f2b4299", "lat": 38.920756833333336, "lon": -77.02320483333334, "rental_uris": {"android": "https://dc.lft.to/lastmile_qr_scan", "ios": "https://dc.lft.to/lastmile_qr_scan"}, "is_disabled": 0, "fusion_lat": 0.0, "name": "cca6e773e3122c17f54257c33f2b4299", "fusion_lon": 0.0}, {"is_reserved": 0, "type": "electric_scooter", "bike_id": "6963dcf9c9340e815dddf15749e104b9", "lat": 38.92880866666667, "lon": -77.03251966666667, "rental_uris": {"android": "https://dc.lft.to/lastmile_qr_scan", "ios": "https://dc.lft.to/lastmile_qr_scan"}, "is_disabled": 0, "fusion_lat": 0.0, "name": "6963dcf9c9340e815dddf15749e104b9", "fusion_lon": 0.0}, {"is_reserved": 0, "type": "electric_scooter", "bike_id": "10eddb2ae4be5d4e8a30fd75305752c8", "lat": 38.933947333333336, "lon": -77.028398, "rental_uris": {"android": "https://dc.lft.to/lastmile_qr_scan", "ios": "https://dc.lft.to/lastmile_qr_scan"}, "is_disabled": 0, "fusion_lat": 0.0, "name": "10eddb2ae4be5d4e8a30fd75305752c8", "fusion_lon": 0.0}, {"is_reserved": 0, "type": "electric_scooter", "bike_id": "9e0ba61d7711390a60438a9cd27217b4", "lat": 38.892370166666666, "lon": -77.044873, "rental_uris": {"android": "https://dc.lft.to/lastmile_qr_scan", "ios": "https://dc.lft.to/lastmile_qr_scan"}, "is_disabled": 0, "fusion_lat": 0.0, "name": "9e0ba61d7711390a60438a9cd27217b4", "fusion_lon": 0.0}, {"is_reserved": 0, "type": "electric_scooter", "bike_id": "49af2c532819ca9024e7d5221d5dd239", "lat": 38.9025335, "lon": -77.04154366666667, "rental_uris": {"android": "https://dc.lft.to/lastmile_qr_scan", "ios": "https://dc.lft.to/lastmile_qr_scan"}, "is_disabled": 0, "fusion_lat": 0.0, "name": "49af2c532819ca9024e7d5221d5dd239", "fusion_lon": 0.0}, {"is_reserved": 0, "type": "electric_scooter", "bike_id": "f1e9ee3f6758c0af3f28f8aa0e827aaf", "lat": 38.896181166666665, "lon": -76.99732083333333, "rental_uris": {"android": "https://dc.lft.to/lastmile_qr_scan", "ios": "https://dc.lft.to/lastmile_qr_scan"}, "is_disabled": 0, "fusion_lat": 0.0, "name": "f1e9ee3f6758c0af3f28f8aa0e827aaf", "fusion_lon": 0.0}, {"is_reserved": 0, "type": "electric_scooter", "bike_id": "775b13276978f3b0782fa7fbcb3d6ccd", "lat": 38.923823166666665, "lon": -77.028915, "rental_uris": {"android": "https://dc.lft.to/lastmile_qr_scan", "ios": "https://dc.lft.to/lastmile_qr_scan"}, "is_disabled": 0, "fusion_lat": 0.0, "name": "775b13276978f3b0782fa7fbcb3d6ccd", "fusion_lon": 0.0}, {"is_reserved": 0, "type": "electric_scooter", "bike_id": "b37a9332ba2ad2968c16f1b63e2bb3c2", "lat": 38.900938, "lon": -77.01881783333333, "rental_uris": {"android": "https://dc.lft.to/lastmile_qr_scan", "ios": "https://dc.lft.to/lastmile_qr_scan"}, "is_disabled": 0, "fusion_lat": 0.0, "name": "b37a9332ba2ad2968c16f1b63e2bb3c2", "fusion_lon": 0.0}, {"is_reserved": 0, "type": "electric_bike", "bike_id": "224f7a73482579faead1b887519328a7", "lat": 38.95869716666667, "lon": -76.97060883333333, "rental_uris": {"android": "https://dc.lft.to/lastmile_qr_scan", "ios": "https://dc.lft.to/lastmile_qr_scan"}, "is_disabled": 0, "fusion_lat": 0.0, "name": "224f7a73482579faead1b887519328a7", "fusion_lon": 0.0}, {"is_reserved": 0, "type": "electric_bike", "bike_id": "d92b42b9f5f3e94e44e8c453fed37f68", "lat": 38.9456425, "lon": -76.958423, "rental_uris": {"android": "https://dc.lft.to/lastmile_qr_scan", "ios": "https://dc.lft.to/lastmile_qr_scan"}, "is_disabled": 0, "fusion_lat": 0.0, "name": "d92b42b9f5f3e94e44e8c453fed37f68", "fusion_lon": 0.0}, {"is_reserved": 0, "type": "electric_scooter", "bike_id": "0d1eadcbc38c9255e0861b853af4f6d7", "lat": 38.90010633333333, "lon": -76.991692, "rental_uris": {"android": "https://dc.lft.to/lastmile_qr_scan", "ios": "https://dc.lft.to/lastmile_qr_scan"}, "is_disabled": 0, "fusion_lat": 0.0, "name": "0d1eadcbc38c9255e0861b853af4f6d7", "fusion_lon": 0.0}, {"is_reserved": 0, "type": "electric_scooter", "bike_id": "52645cbf96c82d1c827f4d4830c443b8", "lat": 38.936276, "lon": -77.05905166666666, "rental_uris": {"android": "https://dc.lft.to/lastmile_qr_scan", "ios": "https://dc.lft.to/lastmile_qr_scan"}, "is_disabled": 0, "fusion_lat": 0.0, "name": "52645cbf96c82d1c827f4d4830c443b8", "fusion_lon": 0.0}, {"is_reserved": 0, "type": "electric_scooter", "bike_id": "b704c36ceecdd9873e048dcdfa869e7e", "lat": 38.90783716666667, "lon": -77.02811566666666, "rental_uris": {"android": "https://dc.lft.to/lastmile_qr_scan", "ios": "https://dc.lft.to/lastmile_qr_scan"}, "is_disabled": 0, "fusion_lat": 0.0, "name": "b704c36ceecdd9873e048dcdfa869e7e", "fusion_lon": 0.0}, {"is_reserved": 0, "type": "electric_bike", "bike_id": "b88b34ec099eb938ec008840586c476d", "lat": 38.84103916666667, "lon": -77.08946883333333, "rental_uris": {"android": "https://dc.lft.to/lastmile_qr_scan", "ios": "https://dc.lft.to/lastmile_qr_scan"}, "is_disabled": 0, "fusion_lat": 0.0, "name": "b88b34ec099eb938ec008840586c476d", "fusion_lon": 0.0}, {"is_reserved": 0, "type": "electric_scooter", "bike_id": "c2d35181241d5e3c43ed4c6569650700", "lat": 38.897304166666665, "lon": -77.02175433333333, "rental_uris": {"android": "https://dc.lft.to/lastmile_qr_scan", "ios": "https://dc.lft.to/lastmile_qr_scan"}, "is_disabled": 0, "fusion_lat": 0.0, "name": "c2d35181241d5e3c43ed4c6569650700", "fusion_lon": 0.0}, {"is_reserved": 0, "type": "electric_scooter", "bike_id": "aad6c74078e7513fde0221049e770cfb", "lat": 38.90216816666667, "lon": -77.05119933333333, "rental_uris": {"android": "https://dc.lft.to/lastmile_qr_scan", "ios": "https://dc.lft.to/lastmile_qr_scan"}, "is_disabled": 0, "fusion_lat": 0.0, "name": "aad6c74078e7513fde0221049e770cfb", "fusion_lon": 0.0}, {"is_reserved": 0, "type": "electric_scooter", "bike_id": "dad0c1ce6b7f5e6896e39c73b3bed112", "lat": 38.92018216666666, "lon": -77.03189566666667, "rental_uris": {"android": "https://dc.lft.to/lastmile_qr_scan", "ios": "https://dc.lft.to/lastmile_qr_scan"}, "is_disabled": 0, "fusion_lat": 0.0, "name": "dad0c1ce6b7f5e6896e39c73b3bed112", "fusion_lon": 0.0}, {"is_reserved": 0, "type": "electric_scooter", "bike_id": "e1c28e21e4ceb3164126645316e1e537", "lat": 38.879349, "lon": -77.0166005, "rental_uris": {"android": "https://dc.lft.to/lastmile_qr_scan", "ios": "https://dc.lft.to/lastmile_qr_scan"}, "is_disabled": 0, "fusion_lat": 0.0, "name": "e1c28e21e4ceb3164126645316e1e537", "fusion_lon": 0.0}, {"is_reserved": 0, "type": "electric_scooter", "bike_id": "9e799f67536c309b64270d9fb84a687d", "lat": 38.93121516666667, "lon": -77.02318366666667, "rental_uris": {"android": "https://dc.lft.to/lastmile_qr_scan", "ios": "https://dc.lft.to/lastmile_qr_scan"}, "is_disabled": 0, "fusion_lat": 0.0, "name": "9e799f67536c309b64270d9fb84a687d", "fusion_lon": 0.0}, {"is_reserved": 0, "type": "electric_scooter", "bike_id": "f8c0b99e9c6416a2a6dc751039d65b04", "lat": 38.887696166666665, "lon": -76.99161616666666, "rental_uris": {"android": "https://dc.lft.to/lastmile_qr_scan", "ios": "https://dc.lft.to/lastmile_qr_scan"}, "is_disabled": 0, "fusion_lat": 0.0, "name": "f8c0b99e9c6416a2a6dc751039d65b04", "fusion_lon": 0.0}, {"is_reserved": 0, "type": "electric_scooter", "bike_id": "cfa7ae3aac3ce82484528a568b98edf2", "lat": 38.87472983333333, "lon": -77.005514, "rental_uris": {"android": "https://dc.lft.to/lastmile_qr_scan", "ios": "https://dc.lft.to/lastmile_qr_scan"}, "is_disabled": 0, "fusion_lat": 0.0, "name": "cfa7ae3aac3ce82484528a568b98edf2", "fusion_lon": 0.0}, {"is_reserved": 0, "type": "electric_scooter", "bike_id": "40745adcd082b49dab2e32b2e58a1872", "lat": 38.910006333333335, "lon": -76.99415033333334, "rental_uris": {"android": "https://dc.lft.to/lastmile_qr_scan", "ios": "https://dc.lft.to/lastmile_qr_scan"}, "is_disabled": 0, "fusion_lat": 0.0, "name": "40745adcd082b49dab2e32b2e58a1872", "fusion_lon": 0.0}, {"is_reserved": 0, "type": "electric_scooter", "bike_id": "f515f584ad85f07b1881cb184ff06f65", "lat": 38.883026666666666, "lon": -76.94855083333333, "rental_uris": {"android": "https://dc.lft.to/lastmile_qr_scan", "ios": "https://dc.lft.to/lastmile_qr_scan"}, "is_disabled": 0, "fusion_lat": 0.0, "name": "f515f584ad85f07b1881cb184ff06f65", "fusion_lon": 0.0}, {"is_reserved": 0, "type": "electric_scooter", "bike_id": "2002164c57405dc37d044484a22c37bd", "lat": 38.92392, "lon": -77.05055066666667, "rental_uris": {"android": "https://dc.lft.to/lastmile_qr_scan", "ios": "https://dc.lft.to/lastmile_qr_scan"}, "is_disabled": 0, "fusion_lat": 0.0, "name": "2002164c57405dc37d044484a22c37bd", "fusion_lon": 0.0}, {"is_reserved": 0, "type": "electric_scooter", "bike_id": "584966448d3ec74f36bc2f3d9fbb0581", "lat": 38.919327833333334, "lon": -77.04613616666667, "rental_uris": {"android": "https://dc.lft.to/lastmile_qr_scan", "ios": "https://dc.lft.to/lastmile_qr_scan"}, "is_disabled": 0, "fusion_lat": 0.0, "name": "584966448d3ec74f36bc2f3d9fbb0581", "fusion_lon": 0.0}, {"is_reserved": 0, "type": "electric_scooter", "bike_id": "b1c9e48c07323a99cc07f7d683951761", "lat": 38.899504, "lon": -77.0539605, "rental_uris": {"android": "https://dc.lft.to/lastmile_qr_scan", "ios": "https://dc.lft.to/lastmile_qr_scan"}, "is_disabled": 0, "fusion_lat": 0.0, "name": "b1c9e48c07323a99cc07f7d683951761", "fusion_lon": 0.0}, {"is_reserved": 0, "type": "electric_scooter", "bike_id": "db7bf2cc14d08042477175cfe7743c58", "lat": 38.900970666666666, "lon": -76.98103166666667, "rental_uris": {"android": "https://dc.lft.to/lastmile_qr_scan", "ios": "https://dc.lft.to/lastmile_qr_scan"}, "is_disabled": 0, "fusion_lat": 0.0, "name": "db7bf2cc14d08042477175cfe7743c58", "fusion_lon": 0.0}, {"is_reserved": 0, "type": "electric_scooter", "bike_id": "0a78790b4d246fb0306ec04d83f350cc", "lat": 38.91121416666667, "lon": -77.0450165, "rental_uris": {"android": "https://dc.lft.to/lastmile_qr_scan", "ios": "https://dc.lft.to/lastmile_qr_scan"}, "is_disabled": 0, "fusion_lat": 0.0, "name": "0a78790b4d246fb0306ec04d83f350cc", "fusion_lon": 0.0}, {"is_reserved": 0, "type": "electric_scooter", "bike_id": "fcadc37e4ee64a95d9de6209341c0ed5", "lat": 38.89222183333333, "lon": -77.02220866666667, "rental_uris": {"android": "https://dc.lft.to/lastmile_qr_scan", "ios": "https://dc.lft.to/lastmile_qr_scan"}, "is_disabled": 0, "fusion_lat": 0.0, "name": "fcadc37e4ee64a95d9de6209341c0ed5", "fusion_lon": 0.0}, {"is_reserved": 0, "type": "electric_scooter", "bike_id": "acfc60bfe1b5d44e7d7d2f0bc1d6c450", "lat": 38.925762666666664, "lon": -76.994906, "rental_uris": {"android": "https://dc.lft.to/lastmile_qr_scan", "ios": "https://dc.lft.to/lastmile_qr_scan"}, "is_disabled": 0, "fusion_lat": 0.0, "name": "acfc60bfe1b5d44e7d7d2f0bc1d6c450", "fusion_lon": 0.0}, {"is_reserved": 0, "type": "electric_scooter", "bike_id": "c6f0107da96f094e87556d54956f2a73", "lat": 38.896097166666664, "lon": -77.0468365, "rental_uris": {"android": "https://dc.lft.to/lastmile_qr_scan", "ios": "https://dc.lft.to/lastmile_qr_scan"}, "is_disabled": 0, "fusion_lat": 0.0, "name": "c6f0107da96f094e87556d54956f2a73", "fusion_lon": 0.0}, {"is_reserved": 0, "type": "electric_scooter", "bike_id": "0f47e7adb31e7d79789420c074ca0186", "lat": 38.897575833333335, "lon": -77.001953, "rental_uris": {"android": "https://dc.lft.to/lastmile_qr_scan", "ios": "https://dc.lft.to/lastmile_qr_scan"}, "is_disabled": 0, "fusion_lat": 0.0, "name": "0f47e7adb31e7d79789420c074ca0186", "fusion_lon": 0.0}, {"is_reserved": 0, "type": "electric_scooter", "bike_id": "9dd9a66a9eb36d5138000a925290f19a", "lat": 38.924421, "lon": -77.04033166666666, "rental_uris": {"android": "https://dc.lft.to/lastmile_qr_scan", "ios": "https://dc.lft.to/lastmile_qr_scan"}, "is_disabled": 0, "fusion_lat": 0.0, "name": "9dd9a66a9eb36d5138000a925290f19a", "fusion_lon": 0.0}, {"is_reserved": 0, "type": "electric_scooter", "bike_id": "6e69f347270bee0d78611c906acab315", "lat": 38.899201833333336, "lon": -76.97833366666667, "rental_uris": {"android": "https://dc.lft.to/lastmile_qr_scan", "ios": "https://dc.lft.to/lastmile_qr_scan"}, "is_disabled": 0, "fusion_lat": 0.0, "name": "6e69f347270bee0d78611c906acab315", "fusion_lon": 0.0}, {"is_reserved": 0, "type": "electric_scooter", "bike_id": "eacc4f1726bcef0eafafc937217e8367", "lat": 38.88413233333333, "lon": -77.02575016666667, "rental_uris": {"android": "https://dc.lft.to/lastmile_qr_scan", "ios": "https://dc.lft.to/lastmile_qr_scan"}, "is_disabled": 0, "fusion_lat": 0.0, "name": "eacc4f1726bcef0eafafc937217e8367", "fusion_lon": 0.0}, {"is_reserved": 0, "type": "electric_scooter", "bike_id": "785eb7fe47c3a0187df3495b0f87224e", "lat": 38.892216833333336, "lon": -77.024252, "rental_uris": {"android": "https://dc.lft.to/lastmile_qr_scan", "ios": "https://dc.lft.to/lastmile_qr_scan"}, "is_disabled": 0, "fusion_lat": 0.0, "name": "785eb7fe47c3a0187df3495b0f87224e", "fusion_lon": 0.0}, {"is_reserved": 0, "type": "electric_scooter", "bike_id": "6a93047480f03ed11405109e39b20b10", "lat": 38.93034333333333, "lon": -77.0832585, "rental_uris": {"android": "https://dc.lft.to/lastmile_qr_scan", "ios": "https://dc.lft.to/lastmile_qr_scan"}, "is_disabled": 0, "fusion_lat": 0.0, "name": "6a93047480f03ed11405109e39b20b10", "fusion_lon": 0.0}, {"is_reserved": 0, "type": "electric_scooter", "bike_id": "e5e121f7350d8d2d0595284a459b616b", "lat": 38.898322, "lon": -77.0482745, "rental_uris": {"android": "https://dc.lft.to/lastmile_qr_scan", "ios": "https://dc.lft.to/lastmile_qr_scan"}, "is_disabled": 0, "fusion_lat": 0.0, "name": "e5e121f7350d8d2d0595284a459b616b", "fusion_lon": 0.0}, {"is_reserved": 0, "type": "electric_scooter", "bike_id": "4a382e913eeab041d2dd38134e466741", "lat": 38.906148333333334, "lon": -77.03297616666667, "rental_uris": {"android": "https://dc.lft.to/lastmile_qr_scan", "ios": "https://dc.lft.to/lastmile_qr_scan"}, "is_disabled": 0, "fusion_lat": 0.0, "name": "4a382e913eeab041d2dd38134e466741", "fusion_lon": 0.0}, {"is_reserved": 0, "type": "electric_scooter", "bike_id": "af35f3d1fcc60e5d9c5aef028d1cc31d", "lat": 38.923798, "lon": -77.02745483333334, "rental_uris": {"android": "https://dc.lft.to/lastmile_qr_scan", "ios": "https://dc.lft.to/lastmile_qr_scan"}, "is_disabled": 0, "fusion_lat": 0.0, "name": "af35f3d1fcc60e5d9c5aef028d1cc31d", "fusion_lon": 0.0}, {"is_reserved": 0, "type": "electric_scooter", "bike_id": "bf958192d2f1409e1725261603c4ca0b", "lat": 38.89485666666667, "lon": -77.0500905, "rental_uris": {"android": "https://dc.lft.to/lastmile_qr_scan", "ios": "https://dc.lft.to/lastmile_qr_scan"}, "is_disabled": 0, "fusion_lat": 0.0, "name": "bf958192d2f1409e1725261603c4ca0b", "fusion_lon": 0.0}, {"is_reserved": 0, "type": "electric_scooter", "bike_id": "74544aeebf2e0c70b59c6522718bca30", "lat": 38.91988416666667, "lon": -77.02547083333333, "rental_uris": {"android": "https://dc.lft.to/lastmile_qr_scan", "ios": "https://dc.lft.to/lastmile_qr_scan"}, "is_disabled": 0, "fusion_lat": 0.0, "name": "74544aeebf2e0c70b59c6522718bca30", "fusion_lon": 0.0}, {"is_reserved": 0, "type": "electric_scooter", "bike_id": "ae1320f067a66c2486265b3e031207ec", "lat": 38.913519, "lon": -77.04349783333333, "rental_uris": {"android": "https://dc.lft.to/lastmile_qr_scan", "ios": "https://dc.lft.to/lastmile_qr_scan"}, "is_disabled": 0, "fusion_lat": 0.0, "name": "ae1320f067a66c2486265b3e031207ec", "fusion_lon": 0.0}, {"is_reserved": 0, "type": "electric_scooter", "bike_id": "a71b3412a07383310735fe7ed9d08939", "lat": 38.899958, "lon": -77.0230975, "rental_uris": {"android": "https://dc.lft.to/lastmile_qr_scan", "ios": "https://dc.lft.to/lastmile_qr_scan"}, "is_disabled": 0, "fusion_lat": 0.0, "name": "a71b3412a07383310735fe7ed9d08939", "fusion_lon": 0.0}, {"is_reserved": 0, "type": "electric_bike", "bike_id": "66605e70f784b4cfc68d5abc7c9e47a4", "lat": 38.94262366666667, "lon": -76.9907655, "rental_uris": {"android": "https://dc.lft.to/lastmile_qr_scan", "ios": "https://dc.lft.to/lastmile_qr_scan"}, "is_disabled": 0, "fusion_lat": 0.0, "name": "66605e70f784b4cfc68d5abc7c9e47a4", "fusion_lon": 0.0}, {"is_reserved": 0, "type": "electric_scooter", "bike_id": "3b5ad98f85601d0c078fbaa9a9dfae0d", "lat": 38.8939125, "lon": -77.022573, "rental_uris": {"android": "https://dc.lft.to/lastmile_qr_scan", "ios": "https://dc.lft.to/lastmile_qr_scan"}, "is_disabled": 0, "fusion_lat": 0.0, "name": "3b5ad98f85601d0c078fbaa9a9dfae0d", "fusion_lon": 0.0}, {"is_reserved": 0, "type": "electric_scooter", "bike_id": "b75a52e3b30af3ce4fdf31674d026a8a", "lat": 38.916225, "lon": -77.00760633333333, "rental_uris": {"android": "https://dc.lft.to/lastmile_qr_scan", "ios": "https://dc.lft.to/lastmile_qr_scan"}, "is_disabled": 0, "fusion_lat": 0.0, "name": "b75a52e3b30af3ce4fdf31674d026a8a", "fusion_lon": 0.0}, {"is_reserved": 0, "type": "electric_scooter", "bike_id": "1ce525585c3ab2acfab98fbc3f3c79c8", "lat": 38.885252666666666, "lon": -77.02169216666667, "rental_uris": {"android": "https://dc.lft.to/lastmile_qr_scan", "ios": "https://dc.lft.to/lastmile_qr_scan"}, "is_disabled": 0, "fusion_lat": 0.0, "name": "1ce525585c3ab2acfab98fbc3f3c79c8", "fusion_lon": 0.0}, {"is_reserved": 0, "type": "electric_scooter", "bike_id": "2c21f3b4b7b8b3739125e9ecd946ce64", "lat": 38.92129116666667, "lon": -77.03190483333333, "rental_uris": {"android": "https://dc.lft.to/lastmile_qr_scan", "ios": "https://dc.lft.to/lastmile_qr_scan"}, "is_disabled": 0, "fusion_lat": 0.0, "name": "2c21f3b4b7b8b3739125e9ecd946ce64", "fusion_lon": 0.0}, {"is_reserved": 0, "type": "electric_scooter", "bike_id": "5a5d6de254e55f7cc46dbcce73414281", "lat": 38.925815, "lon": -77.02945583333333, "rental_uris": {"android": "https://dc.lft.to/lastmile_qr_scan", "ios": "https://dc.lft.to/lastmile_qr_scan"}, "is_disabled": 0, "fusion_lat": 0.0, "name": "5a5d6de254e55f7cc46dbcce73414281", "fusion_lon": 0.0}, {"is_reserved": 0, "type": "electric_scooter", "bike_id": "3f96be032b4a10592f9a337e45cc4520", "lat": 38.88013316666667, "lon": -76.9974695, "rental_uris": {"android": "https://dc.lft.to/lastmile_qr_scan", "ios": "https://dc.lft.to/lastmile_qr_scan"}, "is_disabled": 0, "fusion_lat": 0.0, "name": "3f96be032b4a10592f9a337e45cc4520", "fusion_lon": 0.0}, {"is_reserved": 0, "type": "electric_scooter", "bike_id": "3b4422f519b26f96001d3aef7bc041b0", "lat": 38.89894733333333, "lon": -77.033275, "rental_uris": {"android": "https://dc.lft.to/lastmile_qr_scan", "ios": "https://dc.lft.to/lastmile_qr_scan"}, "is_disabled": 0, "fusion_lat": 0.0, "name": "3b4422f519b26f96001d3aef7bc041b0", "fusion_lon": 0.0}, {"is_reserved": 0, "type": "electric_scooter", "bike_id": "864bc9faf8cbc6afe6934aafd43c946a", "lat": 38.92162866666666, "lon": -77.0338415, "rental_uris": {"android": "https://dc.lft.to/lastmile_qr_scan", "ios": "https://dc.lft.to/lastmile_qr_scan"}, "is_disabled": 0, "fusion_lat": 0.0, "name": "864bc9faf8cbc6afe6934aafd43c946a", "fusion_lon": 0.0}, {"is_reserved": 0, "type": "electric_scooter", "bike_id": "e5aa20f762bea6486c7f5bfb2136b524", "lat": 38.905715, "lon": -77.00576433333333, "rental_uris": {"android": "https://dc.lft.to/lastmile_qr_scan", "ios": "https://dc.lft.to/lastmile_qr_scan"}, "is_disabled": 0, "fusion_lat": 0.0, "name": "e5aa20f762bea6486c7f5bfb2136b524", "fusion_lon": 0.0}, {"is_reserved": 0, "type": "electric_scooter", "bike_id": "f0ce1d5319997c9a142734f70a6a20d4", "lat": 38.89695483333333, "lon": -77.050266, "rental_uris": {"android": "https://dc.lft.to/lastmile_qr_scan", "ios": "https://dc.lft.to/lastmile_qr_scan"}, "is_disabled": 0, "fusion_lat": 0.0, "name": "f0ce1d5319997c9a142734f70a6a20d4", "fusion_lon": 0.0}, {"is_reserved": 0, "type": "electric_scooter", "bike_id": "cea7e891cce6914db6d6a170351d44fc", "lat": 38.900024333333334, "lon": -77.02720083333334, "rental_uris": {"android": "https://dc.lft.to/lastmile_qr_scan", "ios": "https://dc.lft.to/lastmile_qr_scan"}, "is_disabled": 0, "fusion_lat": 0.0, "name": "cea7e891cce6914db6d6a170351d44fc", "fusion_lon": 0.0}, {"is_reserved": 0, "type": "electric_scooter", "bike_id": "707a2ad2697fb28b63dfe670ee6449fb", "lat": 38.92933333333333, "lon": -77.03768216666667, "rental_uris": {"android": "https://dc.lft.to/lastmile_qr_scan", "ios": "https://dc.lft.to/lastmile_qr_scan"}, "is_disabled": 0, "fusion_lat": 0.0, "name": "707a2ad2697fb28b63dfe670ee6449fb", "fusion_lon": 0.0}, {"is_reserved": 0, "type": "electric_scooter", "bike_id": "31a795e193c99333b176f5812e3c31df", "lat": 38.894811833333335, "lon": -76.9957725, "rental_uris": {"android": "https://dc.lft.to/lastmile_qr_scan", "ios": "https://dc.lft.to/lastmile_qr_scan"}, "is_disabled": 0, "fusion_lat": 0.0, "name": "31a795e193c99333b176f5812e3c31df", "fusion_lon": 0.0}, {"is_reserved": 0, "type": "electric_scooter", "bike_id": "e8705d859e254dab499c6b19658ca468", "lat": 38.9346805, "lon": -77.03607833333334, "rental_uris": {"android": "https://dc.lft.to/lastmile_qr_scan", "ios": "https://dc.lft.to/lastmile_qr_scan"}, "is_disabled": 0, "fusion_lat": 0.0, "name": "e8705d859e254dab499c6b19658ca468", "fusion_lon": 0.0}, {"is_reserved": 0, "type": "electric_scooter", "bike_id": "543a5386bd6a698cd9ed71bc166e993c", "lat": 38.89352316666667, "lon": -77.01731066666666, "rental_uris": {"android": "https://dc.lft.to/lastmile_qr_scan", "ios": "https://dc.lft.to/lastmile_qr_scan"}, "is_disabled": 0, "fusion_lat": 0.0, "name": "543a5386bd6a698cd9ed71bc166e993c", "fusion_lon": 0.0}, {"is_reserved": 0, "type": "electric_scooter", "bike_id": "96e3bf06206d021d1e0e11d7cf781caf", "lat": 38.887820166666664, "lon": -77.00342766666667, "rental_uris": {"android": "https://dc.lft.to/lastmile_qr_scan", "ios": "https://dc.lft.to/lastmile_qr_scan"}, "is_disabled": 0, "fusion_lat": 0.0, "name": "96e3bf06206d021d1e0e11d7cf781caf", "fusion_lon": 0.0}, {"is_reserved": 0, "type": "electric_scooter", "bike_id": "e39971afa084c0a6e6355492742aede3", "lat": 38.92545033333333, "lon": -77.03262966666667, "rental_uris": {"android": "https://dc.lft.to/lastmile_qr_scan", "ios": "https://dc.lft.to/lastmile_qr_scan"}, "is_disabled": 0, "fusion_lat": 0.0, "name": "e39971afa084c0a6e6355492742aede3", "fusion_lon": 0.0}, {"is_reserved": 0, "type": "electric_scooter", "bike_id": "51cc8bcd889543b1b6206240e1c052aa", "lat": 38.917095, "lon": -77.0238515, "rental_uris": {"android": "https://dc.lft.to/lastmile_qr_scan", "ios": "https://dc.lft.to/lastmile_qr_scan"}, "is_disabled": 0, "fusion_lat": 0.0, "name": "51cc8bcd889543b1b6206240e1c052aa", "fusion_lon": 0.0}, {"is_reserved": 0, "type": "electric_scooter", "bike_id": "f5f3bad7856b5c334c742463b986cc41", "lat": 38.923299166666666, "lon": -77.053966, "rental_uris": {"android": "https://dc.lft.to/lastmile_qr_scan", "ios": "https://dc.lft.to/lastmile_qr_scan"}, "is_disabled": 0, "fusion_lat": 0.0, "name": "f5f3bad7856b5c334c742463b986cc41", "fusion_lon": 0.0}, {"is_reserved": 0, "type": "electric_scooter", "bike_id": "199f22a6281446e44ff5f9e2dd0024e8", "lat": 38.902621833333335, "lon": -77.0176765, "rental_uris": {"android": "https://dc.lft.to/lastmile_qr_scan", "ios": "https://dc.lft.to/lastmile_qr_scan"}, "is_disabled": 0, "fusion_lat": 0.0, "name": "199f22a6281446e44ff5f9e2dd0024e8", "fusion_lon": 0.0}, {"is_reserved": 0, "type": "electric_scooter", "bike_id": "da80c24b5a733574372e5f0a81d17c97", "lat": 38.9681565, "lon": -77.00899766666667, "rental_uris": {"android": "https://dc.lft.to/lastmile_qr_scan", "ios": "https://dc.lft.to/lastmile_qr_scan"}, "is_disabled": 0, "fusion_lat": 0.0, "name": "da80c24b5a733574372e5f0a81d17c97", "fusion_lon": 0.0}, {"is_reserved": 0, "type": "electric_scooter", "bike_id": "1910f8de0e54333045e375fcd1e97a1f", "lat": 38.93528883333333, "lon": -77.03654116666667, "rental_uris": {"android": "https://dc.lft.to/lastmile_qr_scan", "ios": "https://dc.lft.to/lastmile_qr_scan"}, "is_disabled": 0, "fusion_lat": 0.0, "name": "1910f8de0e54333045e375fcd1e97a1f", "fusion_lon": 0.0}, {"is_reserved": 0, "type": "electric_scooter", "bike_id": "c1ee20cf98bad9207b3a91843eed87e3", "lat": 38.918103333333335, "lon": -77.04546, "rental_uris": {"android": "https://dc.lft.to/lastmile_qr_scan", "ios": "https://dc.lft.to/lastmile_qr_scan"}, "is_disabled": 0, "fusion_lat": 0.0, "name": "c1ee20cf98bad9207b3a91843eed87e3", "fusion_lon": 0.0}, {"is_reserved": 0, "type": "electric_scooter", "bike_id": "9b83530dbc4dba762e46d50e556d19d2", "lat": 38.91820416666667, "lon": -77.0317025, "rental_uris": {"android": "https://dc.lft.to/lastmile_qr_scan", "ios": "https://dc.lft.to/lastmile_qr_scan"}, "is_disabled": 0, "fusion_lat": 0.0, "name": "9b83530dbc4dba762e46d50e556d19d2", "fusion_lon": 0.0}, {"is_reserved": 0, "type": "electric_scooter", "bike_id": "bdc23f265c76f24fa57d90c74d32e702", "lat": 38.91612033333333, "lon": -77.024002, "rental_uris": {"android": "https://dc.lft.to/lastmile_qr_scan", "ios": "https://dc.lft.to/lastmile_qr_scan"}, "is_disabled": 0, "fusion_lat": 0.0, "name": "bdc23f265c76f24fa57d90c74d32e702", "fusion_lon": 0.0}, {"is_reserved": 0, "type": "electric_scooter", "bike_id": "f2525b898e5acd2f8df59c499a564dcb", "lat": 38.92054016666667, "lon": -77.03395716666667, "rental_uris": {"android": "https://dc.lft.to/lastmile_qr_scan", "ios": "https://dc.lft.to/lastmile_qr_scan"}, "is_disabled": 0, "fusion_lat": 0.0, "name": "f2525b898e5acd2f8df59c499a564dcb", "fusion_lon": 0.0}, {"is_reserved": 0, "type": "electric_scooter", "bike_id": "2fb268eec59f6b1a21447b2b469c3419", "lat": 38.900368, "lon": -77.0019945, "rental_uris": {"android": "https://dc.lft.to/lastmile_qr_scan", "ios": "https://dc.lft.to/lastmile_qr_scan"}, "is_disabled": 0, "fusion_lat": 0.0, "name": "2fb268eec59f6b1a21447b2b469c3419", "fusion_lon": 0.0}, {"is_reserved": 0, "type": "electric_scooter", "bike_id": "726fc01cb3b9d603f602c7daffee9084", "lat": 38.923095, "lon": -77.0542845, "rental_uris": {"android": "https://dc.lft.to/lastmile_qr_scan", "ios": "https://dc.lft.to/lastmile_qr_scan"}, "is_disabled": 0, "fusion_lat": 0.0, "name": "726fc01cb3b9d603f602c7daffee9084", "fusion_lon": 0.0}, {"is_reserved": 0, "type": "electric_scooter", "bike_id": "09283b432e31b29e038cc9b591f4306a", "lat": 38.920865166666665, "lon": -77.03169416666667, "rental_uris": {"android": "https://dc.lft.to/lastmile_qr_scan", "ios": "https://dc.lft.to/lastmile_qr_scan"}, "is_disabled": 0, "fusion_lat": 0.0, "name": "09283b432e31b29e038cc9b591f4306a", "fusion_lon": 0.0}, {"is_reserved": 0, "type": "electric_scooter", "bike_id": "dd21d0c4edb278416bda736bdb603ffa", "lat": 38.905476166666666, "lon": -77.04736833333334, "rental_uris": {"android": "https://dc.lft.to/lastmile_qr_scan", "ios": "https://dc.lft.to/lastmile_qr_scan"}, "is_disabled": 0, "fusion_lat": 0.0, "name": "dd21d0c4edb278416bda736bdb603ffa", "fusion_lon": 0.0}, {"is_reserved": 0, "type": "electric_scooter", "bike_id": "4e546f07b7defaefde58e6e3e5876bb4", "lat": 38.920211333333334, "lon": -77.01061216666666, "rental_uris": {"android": "https://dc.lft.to/lastmile_qr_scan", "ios": "https://dc.lft.to/lastmile_qr_scan"}, "is_disabled": 0, "fusion_lat": 0.0, "name": "4e546f07b7defaefde58e6e3e5876bb4", "fusion_lon": 0.0}, {"is_reserved": 0, "type": "electric_scooter", "bike_id": "eeb2a374a10d06375a1cbe11d4d0ffd4", "lat": 38.89222516666667, "lon": -77.0464185, "rental_uris": {"android": "https://dc.lft.to/lastmile_qr_scan", "ios": "https://dc.lft.to/lastmile_qr_scan"}, "is_disabled": 0, "fusion_lat": 0.0, "name": "eeb2a374a10d06375a1cbe11d4d0ffd4", "fusion_lon": 0.0}, {"is_reserved": 0, "type": "electric_scooter", "bike_id": "175f3a6921bc9feb3a42a674c1e7280f", "lat": 38.90345266666667, "lon": -76.98614066666667, "rental_uris": {"android": "https://dc.lft.to/lastmile_qr_scan", "ios": "https://dc.lft.to/lastmile_qr_scan"}, "is_disabled": 0, "fusion_lat": 0.0, "name": "175f3a6921bc9feb3a42a674c1e7280f", "fusion_lon": 0.0}, {"is_reserved": 0, "type": "electric_scooter", "bike_id": "1ebd75d9102eeda2763bd5c534a778d5", "lat": 38.898976166666664, "lon": -77.02710883333333, "rental_uris": {"android": "https://dc.lft.to/lastmile_qr_scan", "ios": "https://dc.lft.to/lastmile_qr_scan"}, "is_disabled": 0, "fusion_lat": 0.0, "name": "1ebd75d9102eeda2763bd5c534a778d5", "fusion_lon": 0.0}, {"is_reserved": 0, "type": "electric_bike", "bike_id": "963cef8bff21a1cde922a42705300bbe", "lat": 38.95753416666667, "lon": -76.98021316666667, "rental_uris": {"android": "https://dc.lft.to/lastmile_qr_scan", "ios": "https://dc.lft.to/lastmile_qr_scan"}, "is_disabled": 0, "fusion_lat": 0.0, "name": "963cef8bff21a1cde922a42705300bbe", "fusion_lon": 0.0}, {"is_reserved": 0, "type": "electric_scooter", "bike_id": "687b57ae24895d7293254c9d760cdc88", "lat": 38.92676933333333, "lon": -77.00739033333333, "rental_uris": {"android": "https://dc.lft.to/lastmile_qr_scan", "ios": "https://dc.lft.to/lastmile_qr_scan"}, "is_disabled": 0, "fusion_lat": 0.0, "name": "687b57ae24895d7293254c9d760cdc88", "fusion_lon": 0.0}, {"is_reserved": 0, "type": "electric_scooter", "bike_id": "3f725544f34190f1416762c95910e2d6", "lat": 38.905787833333335, "lon": -77.007311, "rental_uris": {"android": "https://dc.lft.to/lastmile_qr_scan", "ios": "https://dc.lft.to/lastmile_qr_scan"}, "is_disabled": 0, "fusion_lat": 0.0, "name": "3f725544f34190f1416762c95910e2d6", "fusion_lon": 0.0}, {"is_reserved": 0, "type": "electric_scooter", "bike_id": "a07f1a7167cbd0ffddd2cbbb2abbc8aa", "lat": 38.89547366666667, "lon": -76.98339766666666, "rental_uris": {"android": "https://dc.lft.to/lastmile_qr_scan", "ios": "https://dc.lft.to/lastmile_qr_scan"}, "is_disabled": 0, "fusion_lat": 0.0, "name": "a07f1a7167cbd0ffddd2cbbb2abbc8aa", "fusion_lon": 0.0}, {"is_reserved": 0, "type": "electric_scooter", "bike_id": "fd4b9eeb3d960319f80293baf189a665", "lat": 38.9086065, "lon": -77.0465675, "rental_uris": {"android": "https://dc.lft.to/lastmile_qr_scan", "ios": "https://dc.lft.to/lastmile_qr_scan"}, "is_disabled": 0, "fusion_lat": 0.0, "name": "fd4b9eeb3d960319f80293baf189a665", "fusion_lon": 0.0}, {"is_reserved": 0, "type": "electric_scooter", "bike_id": "d289b464664da600a06c9c16e3b431b5", "lat": 38.92240316666667, "lon": -77.035198, "rental_uris": {"android": "https://dc.lft.to/lastmile_qr_scan", "ios": "https://dc.lft.to/lastmile_qr_scan"}, "is_disabled": 0, "fusion_lat": 0.0, "name": "d289b464664da600a06c9c16e3b431b5", "fusion_lon": 0.0}, {"is_reserved": 0, "type": "electric_scooter", "bike_id": "28d95fa5a653c6cbdf1902169254f8db", "lat": 38.92127816666667, "lon": -77.0437915, "rental_uris": {"android": "https://dc.lft.to/lastmile_qr_scan", "ios": "https://dc.lft.to/lastmile_qr_scan"}, "is_disabled": 0, "fusion_lat": 0.0, "name": "28d95fa5a653c6cbdf1902169254f8db", "fusion_lon": 0.0}, {"is_reserved": 0, "type": "electric_scooter", "bike_id": "a93862abf839559a74b6853e1e90c4a1", "lat": 38.92320933333333, "lon": -77.03719733333334, "rental_uris": {"android": "https://dc.lft.to/lastmile_qr_scan", "ios": "https://dc.lft.to/lastmile_qr_scan"}, "is_disabled": 0, "fusion_lat": 0.0, "name": "a93862abf839559a74b6853e1e90c4a1", "fusion_lon": 0.0}, {"is_reserved": 0, "type": "electric_scooter", "bike_id": "236d919ce047a89373c93ad09440f5e2", "lat": 38.8959165, "lon": -77.02594916666666, "rental_uris": {"android": "https://dc.lft.to/lastmile_qr_scan", "ios": "https://dc.lft.to/lastmile_qr_scan"}, "is_disabled": 0, "fusion_lat": 0.0, "name": "236d919ce047a89373c93ad09440f5e2", "fusion_lon": 0.0}, {"is_reserved": 0, "type": "electric_scooter", "bike_id": "70d1b630f06f0753dbd0eda664ab8039", "lat": 38.920196833333335, "lon": -77.02948866666667, "rental_uris": {"android": "https://dc.lft.to/lastmile_qr_scan", "ios": "https://dc.lft.to/lastmile_qr_scan"}, "is_disabled": 0, "fusion_lat": 0.0, "name": "70d1b630f06f0753dbd0eda664ab8039", "fusion_lon": 0.0}, {"is_reserved": 0, "type": "electric_scooter", "bike_id": "db092e2d653d4e29cace96f65a4fc27a", "lat": 38.919889166666664, "lon": -77.03315033333334, "rental_uris": {"android": "https://dc.lft.to/lastmile_qr_scan", "ios": "https://dc.lft.to/lastmile_qr_scan"}, "is_disabled": 0, "fusion_lat": 0.0, "name": "db092e2d653d4e29cace96f65a4fc27a", "fusion_lon": 0.0},