{"data": {"bikes": [{"fusion_lon": 0.0, "fusion_lat": 0.0, "rental_uris": {"android": "https://dc.lft.to/lastmile_qr_scan", "ios": "https://dc.lft.to/lastmile_qr_scan"}, "is_disabled": 0, "type": "electric_bike", "is_reserved": 0, "name": "f73e8d5dd155a42cf44bdb5ca6c37e66", "lon": -77.06407316666666, "bike_id": "f73e8d5dd155a42cf44bdb5ca6c37e66", "lat": 38.98009316666667}, {"fusion_lon": 0.0, "fusion_lat": 0.0, "rental_uris": {"android": "https://dc.lft.to/lastmile_qr_scan", "ios": "https://dc.lft.to/lastmile_qr_scan"}, "is_disabled": 0, "type": "electric_scooter", "is_reserved": 0, "name": "d70ed608d69b256a098e3087c57f5649", "lon": -77.04170466666666, "bike_id": "d70ed608d69b256a098e3087c57f5649", "lat": 38.91921516666667}, {"fusion_lon": 0.0, "fusion_lat": 0.0, "rental_uris": {"android": "https://dc.lft.to/lastmile_qr_scan", "ios": "https://dc.lft.to/lastmile_qr_scan"}, "is_disabled": 0, "type": "electric_scooter", "is_reserved": 0, "name": "646e3294d092ae89dc17f3700563761d", "lon": -77.00885383333333, "bike_id": "646e3294d092ae89dc17f3700563761d", "lat": 38.89600683333333}, {"fusion_lon": 0.0, "fusion_lat": 0.0, "rental_uris": {"android": "https://dc.lft.to/lastmile_qr_scan", "ios": "https://dc.lft.to/lastmile_qr_scan"}, "is_disabled": 0, "type": "electric_scooter", "is_reserved": 0, "name": "c051a91f4dcea414648720b95fdde996", "lon": -77.0056275, "bike_id": "c051a91f4dcea414648720b95fdde996", "lat": 38.896103333333336}, {"fusion_lon": 0.0, "fusion_lat": 0.0, "rental_uris": {"android": "https://dc.lft.to/lastmile_qr_scan", "ios": "https://dc.lft.to/lastmile_qr_scan"}, "is_disabled": 0, "type": "electric_bike", "is_reserved": 0, "name": "c2ceec5acc98c7026056b16c3a5bcc34", "lon": -77.09878866666666, "bike_id": "c2ceec5acc98c7026056b16c3a5bcc34", "lat": 38.94720083333333}, {"fusion_lon": 0.0, "fusion_lat": 0.0, "rental_uris": {"android": "https://dc.lft.to/lastmile_qr_scan", "ios": "https://dc.lft.to/lastmile_qr_scan"}, "is_disabled": 0, "type": "electric_bike", "is_reserved": 0, "name": "724d4d8e6ec228a173f0898616dcd69b", "lon": -77.12641216666667, "bike_id": "724d4d8e6ec228a173f0898616dcd69b", "lat": 38.818978666666666}, {"fusion_lon": 0.0, "fusion_lat": 0.0, "rental_uris": {"android": "https://dc.lft.to/lastmile_qr_scan", "ios": "https://dc.lft.to/lastmile_qr_scan"}, "is_disabled": 0, "type": "electric_bike", "is_reserved": 0, "name": "4329b2204cdc75ca5d940fbb346221fd", "lon": -76.97558833333333, "bike_id": "4329b2204cdc75ca5d940fbb346221fd", "lat": 38.9245555}, {"fusion_lon": 0.0, "fusion_lat": 0.0, "rental_uris": {"android": "https://dc.lft.to/lastmile_qr_scan", "ios": "https://dc.lft.to/lastmile_qr_scan"}, "is_disabled": 0, "type": "electric_scooter", "is_reserved": 0, "name": "28c08ee3fa3e8c72a8dffba319a189ad", "lon": -76.99516916666667, "bike_id": "28c08ee3fa3e8c72a8dffba319a189ad", "lat": 38.9026495}, {"fusion_lon": 0.0, "fusion_lat": 0.0, "rental_uris": {"android": "https://dc.lft.to/lastmile_qr_scan", "ios": "https://dc.lft.to/lastmile_qr_scan"}, "is_disabled": 0, "type": "electric_bike", "is_reserved": 0, "name": "b82c1d1216dde76d6d3bb72fe838bebe", "lon": -77.00821933333333, "bike_id": "b82c1d1216dde76d6d3bb72fe838bebe", "lat": 38.830309166666666}, {"fusion_lon": 0.0, "fusion_lat": 0.0, "rental_uris": {"android": "https://dc.lft.to/lastmile_qr_scan", "ios": "https://dc.lft.to/lastmile_qr_scan"}, "is_disabled": 0, "type": "electric_scooter", "is_reserved": 0, "name": "7e104cb3613c0688c28a49f582845ff9", "lon": -76.92735166666667, "bike_id": "7e104cb3613c0688c28a49f582845ff9", "lat": 38.889648333333334}, {"fusion_lon": 0.0, "fusion_lat": 0.0, "rental_uris": {"android": "https://dc.lft.to/lastmile_qr_scan", "ios": "https://dc.lft.to/lastmile_qr_scan"}, "is_disabled": 0, "type": "electric_scooter", "is_reserved": 0, "name": "1c656c64b4fe3e1fe535565b229e4131", "lon": -77.0417535, "bike_id": "1c656c64b4fe3e1fe535565b229e4131", "lat": 38.9183535}, {"fusion_lon": 0.0, "fusion_lat": 0.0, "rental_uris": {"android": "https://dc.lft.to/lastmile_qr_scan", "ios": "https://dc.lft.to/lastmile_qr_scan"}, "is_disabled": 0, "type": "electric_scooter", "is_reserved": 0, "name": "a139a12245d8e02eb9495e205c6f4e6a", "lon": -77.02689916666667, "bike_id": "a139a12245d8e02eb9495e205c6f4e6a", "lat": 38.89763933333333}, {"fusion_lon": 0.0, "fusion_lat": 0.0, "rental_uris": {"android": "https://dc.lft.to/lastmile_qr_scan", "ios": "https://dc.lft.to/lastmile_qr_scan"}, "is_disabled": 0, "type": "electric_scooter", "is_reserved": 0, "name": "3b5032908683b9464d02a58c4c5a25df", "lon": -77.018025, "bike_id": "3b5032908683b9464d02a58c4c5a25df", "lat": 38.91429466666666}, {"fusion_lon": 0.0, "fusion_lat": 0.0, "rental_uris": {"android": "https://dc.lft.to/lastmile_qr_scan", "ios": "https://dc.lft.to/lastmile_qr_scan"}, "is_disabled": 0, "type": "electric_scooter", "is_reserved": 0, "name": "a2f0c62fb4928f8b3f416ad1936a6082", "lon": -77.05270916666667, "bike_id": "a2f0c62fb4928f8b3f416ad1936a6082", "lat": 38.923384166666665}, {"fusion_lon": 0.0, "fusion_lat": 0.0, "rental_uris": {"android": "https://dc.lft.to/lastmile_qr_scan", "ios": "https://dc.lft.to/lastmile_qr_scan"}, "is_disabled": 0, "type": "electric_bike", "is_reserved": 0, "name": "4e0150f9e690ad80a8ebdc294fe5d9f0", "lon": -77.00368633333333, "bike_id": "4e0150f9e690ad80a8ebdc294fe5d9f0", "lat": 38.87637183333333}, {"fusion_lon": 0.0, "fusion_lat": 0.0, "rental_uris": {"android": "https://dc.lft.to/lastmile_qr_scan", "ios": "https://dc.lft.to/lastmile_qr_scan"}, "is_disabled": 0, "type": "electric_scooter", "is_reserved": 0, "name": "bbf4829f11f3093dfad71baf6f5fef9a", "lon": -76.925869, "bike_id": "bbf4829f11f3093dfad71baf6f5fef9a", "lat": 38.89731483333333}, {"fusion_lon": 0.0, "fusion_lat": 0.0, "rental_uris": {"android": "https://dc.lft.to/lastmile_qr_scan", "ios": "https://dc.lft.to/lastmile_qr_scan"}, "is_disabled": 0, "type": "electric_scooter", "is_reserved": 0, "name": "5c3a80d17d0bb68f39221fb58c6724fb", "lon": -77.0481275, "bike_id": "5c3a80d17d0bb68f39221fb58c6724fb", "lat": 38.8983475}, {"fusion_lon": 0.0, "fusion_lat": 0.0, "rental_uris": {"android": "https://dc.lft.to/lastmile_qr_scan", "ios": "https://dc.lft.to/lastmile_qr_scan"}, "is_disabled": 0, "type": "electric_scooter", "is_reserved": 0, "name": "d6d761bdbf0b89f53df18ffc6a27fe3f", "lon": -77.04795716666666, "bike_id": "d6d761bdbf0b89f53df18ffc6a27fe3f", "lat": 38.89835683333333}, {"fusion_lon": 0.0, "fusion_lat": 0.0, "rental_uris": {"android": "https://dc.lft.to/lastmile_qr_scan", "ios": "https://dc.lft.to/lastmile_qr_scan"}, "is_disabled": 0, "type": "electric_scooter", "is_reserved": 0, "name": "a11887da3fc74b969afa5cc9b5813b54", "lon": -77.011143, "bike_id": "a11887da3fc74b969afa5cc9b5813b54", "lat": 38.90356933333333}, {"fusion_lon": 0.0, "fusion_lat": 0.0, "rental_uris": {"android": "https://dc.lft.to/lastmile_qr_scan", "ios": "https://dc.lft.to/lastmile_qr_scan"}, "is_disabled": 0, "type": "electric_scooter", "is_reserved": 0, "name": "33943404fffdbf4ef0311c4d9da3a895", "lon": -77.02361583333334, "bike_id": "33943404fffdbf4ef0311c4d9da3a895", "lat": 38.925110333333336}, {"fusion_lon": 0.0, "fusion_lat": 0.0, "rental_uris": {"android": "https://dc.lft.to/lastmile_qr_scan", "ios": "https://dc.lft.to/lastmile_qr_scan"}, "is_disabled": 0, "type": "electric_scooter", "is_reserved": 0, "name": "9779ead69526b1c5836a98bbcbe72f6b", "lon": -77.02777, "bike_id": "9779ead69526b1c5836a98bbcbe72f6b", "lat": 38.90081766666667}, {"fusion_lon": 0.0, "fusion_lat": 0.0, "rental_uris": {"android": "https://dc.lft.to/lastmile_qr_scan", "ios": "https://dc.lft.to/lastmile_qr_scan"}, "is_disabled": 0, "type": "electric_scooter", "is_reserved": 0, "name": "46bbde59e27855b45a19bc4ee4e88d8d", "lon": -77.0321735, "bike_id": "46bbde59e27855b45a19bc4ee4e88d8d", "lat": 38.91568633333333}, {"fusion_lon": 0.0, "fusion_lat": 0.0, "rental_uris": {"android": "https://dc.lft.to/lastmile_qr_scan", "ios": "https://dc.lft.to/lastmile_qr_scan"}, "is_disabled": 0, "type": "electric_bike", "is_reserved": 0, "name": "4146e1b2f6d44ef63a2053e1ca753416", "lon": -77.01915566666666, "bike_id": "4146e1b2f6d44ef63a2053e1ca753416", "lat": 38.95309116666667}, {"fusion_lon": 0.0, "fusion_lat": 0.0, "rental_uris": {"android": "https://dc.lft.to/lastmile_qr_scan", "ios": "https://dc.lft.to/lastmile_qr_scan"}, "is_disabled": 0, "type": "electric_scooter", "is_reserved": 0, "name": "7e049d2a091831322641fabcdaf89508", "lon": -77.02518583333334, "bike_id": "7e049d2a091831322641fabcdaf89508", "lat": 38.92160666666667}, {"fusion_lon": 0.0, "fusion_lat": 0.0, "rental_uris": {"android": "https://dc.lft.to/lastmile_qr_scan", "ios": "https://dc.lft.to/lastmile_qr_scan"}, "is_disabled": 0, "type": "electric_bike", "is_reserved": 0, "name": "0d0b7397f2376fdfed5afb30aa653b09", "lon": -76.980922, "bike_id": "0d0b7397f2376fdfed5afb30aa653b09", "lat": 38.95353016666667}, {"fusion_lon": 0.0, "fusion_lat": 0.0, "rental_uris": {"android": "https://dc.lft.to/lastmile_qr_scan", "ios": "https://dc.lft.to/lastmile_qr_scan"}, "is_disabled": 0, "type": "electric_scooter", "is_reserved": 0, "name": "01d6876fc9bee91eb5558c6e8550553d", "lon": -77.045899, "bike_id": "01d6876fc9bee91eb5558c6e8550553d", "lat": 38.90061166666667}, {"fusion_lon": 0.0, "fusion_lat": 0.0, "rental_uris": {"android": "https://dc.lft.to/lastmile_qr_scan", "ios": "https://dc.lft.to/lastmile_qr_scan"}, "is_disabled": 0, "type": "electric_scooter", "is_reserved": 0, "name": "e5de394504d27514d40f97dbbf4a57c3", "lon": -76.998638, "bike_id": "e5de394504d27514d40f97dbbf4a57c3", "lat": 38.900272666666666}, {"fusion_lon": 0.0, "fusion_lat": 0.0, "rental_uris": {"android": "https://dc.lft.to/lastmile_qr_scan", "ios": "https://dc.lft.to/lastmile_qr_scan"}, "is_disabled": 0, "type": "electric_scooter", "is_reserved": 0, "name": "fd3cb38b754e98eaa14f10783036d949", "lon": -77.09217166666667, "bike_id": "fd3cb38b754e98eaa14f10783036d949", "lat": 38.916966333333335}, {"fusion_lon": 0.0, "fusion_lat": 0.0, "rental_uris": {"android": "https://dc.lft.to/lastmile_qr_scan", "ios": "https://dc.lft.to/lastmile_qr_scan"}, "is_disabled": 0, "type": "electric_scooter", "is_reserved": 0, "name": "d699f4c6824f1c5db1230c5649500737", "lon": -77.03204416666667, "bike_id": "d699f4c6824f1c5db1230c5649500737", "lat": 38.892245833333334}, {"fusion_lon": 0.0, "fusion_lat": 0.0, "rental_uris": {"android": "https://dc.lft.to/lastmile_qr_scan", "ios": "https://dc.lft.to/lastmile_qr_scan"}, "is_disabled": 0, "type": "electric_bike", "is_reserved": 0, "name": "04ac5fc0c662940650c88cbd23026ab1", "lon": -77.04343383333334, "bike_id": "04ac5fc0c662940650c88cbd23026ab1", "lat": 38.898333}, {"fusion_lon": 0.0, "fusion_lat": 0.0, "rental_uris": {"android": "https://dc.lft.to/lastmile_qr_scan", "ios": "https://dc.lft.to/lastmile_qr_scan"}, "is_disabled": 0, "type": "electric_scooter", "is_reserved": 0, "name": "332ba1a78a4c9cb76d36f4eb685f3973", "lon": -77.046826, "bike_id": "332ba1a78a4c9cb76d36f4eb685f3973", "lat": 38.895049666666665}, {"fusion_lon": 0.0, "fusion_lat": 0.0, "rental_uris": {"android": "https://dc.lft.to/lastmile_qr_scan", "ios": "https://dc.lft.to/lastmile_qr_scan"}, "is_disabled": 0, "type": "electric_scooter", "is_reserved": 0, "name": "dc9c56dda278348e484a27318c5411db", "lon": -76.99480716666666, "bike_id": "dc9c56dda278348e484a27318c5411db", "lat": 38.883495833333335}, {"fusion_lon": 0.0, "fusion_lat": 0.0, "rental_uris": {"android": "https://dc.lft.to/lastmile_qr_scan", "ios": "https://dc.lft.to/lastmile_qr_scan"}, "is_disabled": 0, "type": "electric_scooter", "is_reserved": 0, "name": "60fe0fcba81795f453763e7b799a58ea", "lon": -77.0009635, "bike_id": "60fe0fcba81795f453763e7b799a58ea", "lat": 38.886418}, {"fusion_lon": 0.0, "fusion_lat": 0.0, "rental_uris": {"android": "https://dc.lft.to/lastmile_qr_scan", "ios": "https://dc.lft.to/lastmile_qr_scan"}, "is_disabled": 0, "type": "electric_scooter", "is_reserved": 0, "name": "e2f964892f3a78adbcb9c169ae700340", "lon": -77.039255, "bike_id": "e2f964892f3a78adbcb9c169ae700340", "lat": 38.898490833333334}, {"fusion_lon": 0.0, "fusion_lat": 0.0, "rental_uris": {"android": "https://dc.lft.to/lastmile_qr_scan", "ios": "https://dc.lft.to/lastmile_qr_scan"}, "is_disabled": 0, "type": "electric_bike", "is_reserved": 0, "name": "fa59d1ec1f670d84e1b38d2aeeb55dfe", "lon": -77.002185, "bike_id": "fa59d1ec1f670d84e1b38d2aeeb55dfe", "lat": 38.886693333333334}, {"fusion_lon": 0.0, "fusion_lat": 0.0, "rental_uris": {"android": "https://dc.lft.to/lastmile_qr_scan", "ios": "https://dc.lft.to/lastmile_qr_scan"}, "is_disabled": 0, "type": "electric_scooter", "is_reserved": 0, "name": "78652033a4f87ea9295c561a6dbb3a1c", "lon": -77.04691316666667, "bike_id": "78652033a4f87ea9295c561a6dbb3a1c", "lat": 38.90269333333333}, {"fusion_lon": 0.0, "fusion_lat": 0.0, "rental_uris": {"android": "https://dc.lft.to/lastmile_qr_scan", "ios": "https://dc.lft.to/lastmile_qr_scan"}, "is_disabled": 0, "type": "electric_scooter", "is_reserved": 0, "name": "29961ea49cc6952ab7b860c544c4b8cb", "lon": -77.00831233333334, "bike_id": "29961ea49cc6952ab7b860c544c4b8cb", "lat": 38.922457333333334}, {"fusion_lon": 0.0, "fusion_lat": 0.0, "rental_uris": {"android": "https://dc.lft.to/lastmile_qr_scan", "ios": "https://dc.lft.to/lastmile_qr_scan"}, "is_disabled": 0, "type": "electric_scooter", "is_reserved": 0, "name": "ebb3c4525d9f7ede8d4b9bd2d3f5525a", "lon": -77.018384, "bike_id": "ebb3c4525d9f7ede8d4b9bd2d3f5525a", "lat": 38.908660833333336}, {"fusion_lon": 0.0, "fusion_lat": 0.0, "rental_uris": {"android": "https://dc.lft.to/lastmile_qr_scan", "ios": "https://dc.lft.to/lastmile_qr_scan"}, "is_disabled": 0, "type": "electric_scooter", "is_reserved": 0, "name": "b0c8f573292f3643338336a649770ed8", "lon": -77.024857, "bike_id": "b0c8f573292f3643338336a649770ed8", "lat": 38.8846195}, {"fusion_lon": 0.0, "fusion_lat": 0.0, "rental_uris": {"android": "https://dc.lft.to/lastmile_qr_scan", "ios": "https://dc.lft.to/lastmile_qr_scan"}, "is_disabled": 0, "type": "electric_scooter", "is_reserved": 0, "name": "0b0cb059c3abde991fcf3ce83a3f689e", "lon": -77.03865416666666, "bike_id": "0b0cb059c3abde991fcf3ce83a3f689e", "lat": 38.917061333333336}, {"fusion_lon": 0.0, "fusion_lat": 0.0, "rental_uris": {"android": "https://dc.lft.to/lastmile_qr_scan", "ios": "https://dc.lft.to/lastmile_qr_scan"}, "is_disabled": 0, "type": "electric_scooter", "is_reserved": 0, "name": "c648643c1a15bbaa38c4dd537a2fb109", "lon": -77.0966355, "bike_id": "c648643c1a15bbaa38c4dd537a2fb109", "lat": 38.91761433333333}, {"fusion_lon": 0.0, "fusion_lat": 0.0, "rental_uris": {"android": "https://dc.lft.to/lastmile_qr_scan", "ios": "https://dc.lft.to/lastmile_qr_scan"}, "is_disabled": 0, "type": "electric_scooter", "is_reserved": 0, "name": "b38630773134d7f5885c199f4e157edc", "lon": -77.03365633333334, "bike_id": "b38630773134d7f5885c199f4e157edc", "lat": 38.89249483333333}, {"fusion_lon": 0.0, "fusion_lat": 0.0, "rental_uris": {"android": "https://dc.lft.to/lastmile_qr_scan", "ios": "https://dc.lft.to/lastmile_qr_scan"}, "is_disabled": 0, "type": "electric_scooter", "is_reserved": 0, "name": "a78297fb8005ca7500bda0fc833ebb94", "lon": -77.08242983333334, "bike_id": "a78297fb8005ca7500bda0fc833ebb94", "lat": 38.93412216666667}, {"fusion_lon": 0.0, "fusion_lat": 0.0, "rental_uris": {"android": "https://dc.lft.to/lastmile_qr_scan", "ios": "https://dc.lft.to/lastmile_qr_scan"}, "is_disabled": 0, "type": "electric_scooter", "is_reserved": 0, "name": "d3a7a6517edaee2abfa86dfd4baefcb4", "lon": -77.05474433333333, "bike_id": "d3a7a6517edaee2abfa86dfd4baefcb4", "lat": 38.897821666666665}, {"fusion_lon": 0.0, "fusion_lat": 0.0, "rental_uris": {"android": "https://dc.lft.to/lastmile_qr_scan", "ios": "https://dc.lft.to/lastmile_qr_scan"}, "is_disabled": 0, "type": "electric_scooter", "is_reserved": 0, "name": "1119c7877dba6a4b8ff9251cbe218b71", "lon": -77.02913, "bike_id": "1119c7877dba6a4b8ff9251cbe218b71", "lat": 38.91416433333333}, {"fusion_lon": 0.0, "fusion_lat": 0.0, "rental_uris": {"android": "https://dc.lft.to/lastmile_qr_scan", "ios": "https://dc.lft.to/lastmile_qr_scan"}, "is_disabled": 0, "type": "electric_scooter", "is_reserved": 0, "name": "3d1d27aeb82421565e458112019ad03a", "lon": -77.03952866666667, "bike_id": "3d1d27aeb82421565e458112019ad03a", "lat": 38.901212}, {"fusion_lon": 0.0, "fusion_lat": 0.0, "rental_uris": {"android": "https://dc.lft.to/lastmile_qr_scan", "ios": "https://dc.lft.to/lastmile_qr_scan"}, "is_disabled": 0, "type": "electric_scooter", "is_reserved": 0, "name": "ce4cb0b93301d1f81f81f2c898e16b62", "lon": -77.00201433333334, "bike_id": "ce4cb0b93301d1f81f81f2c898e16b62", "lat": 38.930819}, {"fusion_lon": 0.0, "fusion_lat": 0.0, "rental_uris": {"android": "https://dc.lft.to/lastmile_qr_scan", "ios": "https://dc.lft.to/lastmile_qr_scan"}, "is_disabled": 0, "type": "electric_scooter", "is_reserved": 0, "name": "ffb2a57344307a588a44ff57b83fc12e", "lon": -77.03999266666666, "bike_id": "ffb2a57344307a588a44ff57b83fc12e", "lat": 38.902444333333335}, {"fusion_lon": 0.0, "fusion_lat": 0.0, "rental_uris": {"android": "https://dc.lft.to/lastmile_qr_scan", "ios": "https://dc.lft.to/lastmile_qr_scan"}, "is_disabled": 0, "type": "electric_scooter", "is_reserved": 0, "name": "f2471f48e01b61f06f63ad143067bf3f", "lon": -77.02177683333333, "bike_id": "f2471f48e01b61f06f63ad143067bf3f", "lat": 38.9440865}, {"fusion_lon": 0.0, "fusion_lat": 0.0, "rental_uris": {"android": "https://dc.lft.to/lastmile_qr_scan", "ios": "https://dc.lft.to/lastmile_qr_scan"}, "is_disabled": 0, "type": "electric_bike", "is_reserved": 0, "name": "6eb22255599fb9062cd2e2dc2b64fb2f", "lon": -77.09614766666667, "bike_id": "6eb22255599fb9062cd2e2dc2b64fb2f", "lat": 38.9743815}, {"fusion_lon": 0.0, "fusion_lat": 0.0, "rental_uris": {"android": "https://dc.lft.to/lastmile_qr_scan", "ios": "https://dc.lft.to/lastmile_qr_scan"}, "is_disabled": 0, "type": "electric_scooter", "is_reserved": 0, "name": "116b289e87f3ae57a4aa378e9758d183", "lon": -77.0218905, "bike_id": "116b289e87f3ae57a4aa378e9758d183", "lat": 38.915156333333336}, {"fusion_lon": 0.0, "fusion_lat": 0.0, "rental_uris": {"android": "https://dc.lft.to/lastmile_qr_scan", "ios": "https://dc.lft.to/lastmile_qr_scan"}, "is_disabled": 0, "type": "electric_scooter", "is_reserved": 0, "name": "79aa39f83264412f471777be0b6fb56c", "lon": -77.00919116666667, "bike_id": "79aa39f83264412f471777be0b6fb56c", "lat": 38.918749}, {"fusion_lon": 0.0, "fusion_lat": 0.0, "rental_uris": {"android": "https://dc.lft.to/lastmile_qr_scan", "ios": "https://dc.lft.to/lastmile_qr_scan"}, "is_disabled": 0, "type": "electric_scooter", "is_reserved": 0, "name": "c3839a2e3fd19e87452b352d877825d2", "lon": -76.97381483333334, "bike_id": "c3839a2e3fd19e87452b352d877825d2", "lat": 38.87184416666667}, {"fusion_lon": 0.0, "fusion_lat": 0.0, "rental_uris": {"android": "https://dc.lft.to/lastmile_qr_scan", "ios": "https://dc.lft.to/lastmile_qr_scan"}, "is_disabled": 0, "type": "electric_scooter", "is_reserved": 0, "name": "16817eb4643a02def738682f58167c55", "lon": -77.040043, "bike_id": "16817eb4643a02def738682f58167c55", "lat": 38.9342805}, {"fusion_lon": 0.0, "fusion_lat": 0.0, "rental_uris": {"android": "https://dc.lft.to/lastmile_qr_scan", "ios": "https://dc.lft.to/lastmile_qr_scan"}, "is_disabled": 0, "type": "electric_scooter", "is_reserved": 0, "name": "13e7c480afe297cf7fbc8d19302d6809", "lon": -77.02977316666667, "bike_id": "13e7c480afe297cf7fbc8d19302d6809", "lat": 38.92475066666667}, {"fusion_lon": 0.0, "fusion_lat": 0.0, "rental_uris": {"android": "https://dc.lft.to/lastmile_qr_scan", "ios": "https://dc.lft.to/lastmile_qr_scan"}, "is_disabled": 0, "type": "electric_scooter", "is_reserved": 0, "name": "e4e6235fe21f94f3dceb71afd66a40e3", "lon": -77.03172916666666, "bike_id": "e4e6235fe21f94f3dceb71afd66a40e3", "lat": 38.898985333333336}, {"fusion_lon": 0.0, "fusion_lat": 0.0, "rental_uris": {"android": "https://dc.lft.to/lastmile_qr_scan", "ios": "https://dc.lft.to/lastmile_qr_scan"}, "is_disabled": 0, "type": "electric_scooter", "is_reserved": 0, "name": "46f7bbbcf875b323054f3da63532684d", "lon": -77.03281183333333, "bike_id": "46f7bbbcf875b323054f3da63532684d", "lat": 38.937360166666664}, {"fusion_lon": 0.0, "fusion_lat": 0.0, "rental_uris": {"android": "https://dc.lft.to/lastmile_qr_scan", "ios": "https://dc.lft.to/lastmile_qr_scan"}, "is_disabled": 0, "type": "electric_bike", "is_reserved": 0, "name": "01d2b1d1dffe1649b57660994e32e7d0", "lon": -76.98421516666667, "bike_id": "01d2b1d1dffe1649b57660994e32e7d0", "lat": 38.91000183333333}, {"fusion_lon": 0.0, "fusion_lat": 0.0, "rental_uris": {"android": "https://dc.lft.to/lastmile_qr_scan", "ios": "https://dc.lft.to/lastmile_qr_scan"}, "is_disabled": 0, "type": "electric_scooter", "is_reserved": 0, "name": "b74327805f7791e704724d5f50744778", "lon": -77.01802666666667, "bike_id": "b74327805f7791e704724d5f50744778", "lat": 38.921187333333336}, {"fusion_lon": 0.0, "fusion_lat": 0.0, "rental_uris": {"android": "https://dc.lft.to/lastmile_qr_scan", "ios": "https://dc.lft.to/lastmile_qr_scan"}, "is_disabled": 0, "type": "electric_scooter", "is_reserved": 0, "name": "0348d12ed5c12ed40c208cc9abc67b21", "lon": -77.001709, "bike_id": "0348d12ed5c12ed40c208cc9abc67b21", "lat": 38.9407015}, {"fusion_lon": 0.0, "fusion_lat": 0.0, "rental_uris": {"android": "https://dc.lft.to/lastmile_qr_scan", "ios": "https://dc.lft.to/lastmile_qr_scan"}, "is_disabled": 0, "type": "electric_scooter", "is_reserved": 0, "name": "7f708fdc019856c35af12ca05231e4e5", "lon": -76.97802733333333, "bike_id": "7f708fdc019856c35af12ca05231e4e5", "lat": 38.920368833333335}, {"fusion_lon": 0.0, "fusion_lat": 0.0, "rental_uris": {"android": "https://dc.lft.to/lastmile_qr_scan", "ios": "https://dc.lft.to/lastmile_qr_scan"}, "is_disabled": 0, "type": "electric_scooter", "is_reserved": 0, "name": "952eb242e004221b16a66a4769036d89", "lon": -77.03173233333334, "bike_id": "952eb242e004221b16a66a4769036d89", "lat": 38.9038245}, {"fusion_lon": 0.0, "fusion_lat": 0.0, "rental_uris": {"android": "https://dc.lft.to/lastmile_qr_scan", "ios": "https://dc.lft.to/lastmile_qr_scan"}, "is_disabled": 0, "type": "electric_scooter", "is_reserved": 0, "name": "6c3151147286d599f953d3047701aaca", "lon": -77.021569, "bike_id": "6c3151147286d599f953d3047701aaca", "lat": 38.92609}, {"fusion_lon": 0.0, "fusion_lat": 0.0, "rental_uris": {"android": "https://dc.lft.to/lastmile_qr_scan", "ios": "https://dc.lft.to/lastmile_qr_scan"}, "is_disabled": 0, "type": "electric_bike", "is_reserved": 0, "name": "2d03b2e227cd30a981e842b5c4b8af05", "lon": -76.98209616666666, "bike_id": "2d03b2e227cd30a981e842b5c4b8af05", "lat": 38.985026166666664}, {"fusion_lon": 0.0, "fusion_lat": 0.0, "rental_uris": {"android": "https://dc.lft.to/lastmile_qr_scan", "ios": "https://dc.lft.to/lastmile_qr_scan"}, "is_disabled": 0, "type": "electric_scooter", "is_reserved": 0, "name": "b6a5e77549acb70e3b8bb8a6952eef93", "lon": -77.04028233333334, "bike_id": "b6a5e77549acb70e3b8bb8a6952eef93", "lat": 38.90394533333333}, {"fusion_lon": 0.0, "fusion_lat": 0.0, "rental_uris": {"android": "https://dc.lft.to/lastmile_qr_scan", "ios": "https://dc.lft.to/lastmile_qr_scan"}, "is_disabled": 0, "type": "electric_scooter", "is_reserved": 0, "name": "f7a9e937a48cda1248d15edf3923b67f", "lon": -77.026681, "bike_id": "f7a9e937a48cda1248d15edf3923b67f", "lat": 38.92181016666667}, {"fusion_lon": 0.0, "fusion_lat": 0.0, "rental_uris": {"android": "https://dc.lft.to/lastmile_qr_scan", "ios": "https://dc.lft.to/lastmile_qr_scan"}, "is_disabled": 0, "type": "electric_scooter", "is_reserved": 0, "name": "ad83ff52517acc2cbaf04508165d8739", "lon": -77.042331, "bike_id": "ad83ff52517acc2cbaf04508165d8739", "lat": 38.92191433333333}, {"fusion_lon": 0.0, "fusion_lat": 0.0, "rental_uris": {"android": "https://dc.lft.to/lastmile_qr_scan", "ios": "https://dc.lft.to/lastmile_qr_scan"}, "is_disabled": 0, "type": "electric_scooter", "is_reserved": 0, "name": "abc2f5a87ca25c77c71b5ddf63e89548", "lon": -77.04335566666667, "bike_id": "abc2f5a87ca25c77c71b5ddf63e89548", "lat": 38.924936}, {"fusion_lon": 0.0, "fusion_lat": 0.0, "rental_uris": {"android": "https://dc.lft.to/lastmile_qr_scan", "ios": "https://dc.lft.to/lastmile_qr_scan"}, "is_disabled": 0, "type": "electric_scooter", "is_reserved": 0, "name": "d2c3b4bc2ab73e80bd8511db177e8baf", "lon": -77.04658333333333, "bike_id": "d2c3b4bc2ab73e80bd8511db177e8baf", "lat": 38.89465366666667}, {"fusion_lon": 0.0, "fusion_lat": 0.0, "rental_uris": {"android": "https://dc.lft.to/lastmile_qr_scan", "ios": "https://dc.lft.to/lastmile_qr_scan"}, "is_disabled": 0, "type": "electric_scooter", "is_reserved": 0, "name": "a9701c6c5f4af657dc64a80fca7a913a", "lon": -77.0019925, "bike_id": "a9701c6c5f4af657dc64a80fca7a913a", "lat": 38.900226833333335}, {"fusion_lon": 0.0, "fusion_lat": 0.0, "rental_uris": {"android": "https://dc.lft.to/lastmile_qr_scan", "ios": "https://dc.lft.to/lastmile_qr_scan"}, "is_disabled": 0, "type": "electric_scooter", "is_reserved": 0, "name": "7577731ed6cdd02a928e353c48fccfff", "lon": -77.049804, "bike_id": "7577731ed6cdd02a928e353c48fccfff", "lat": 38.901126166666664}, {"fusion_lon": 0.0, "fusion_lat": 0.0, "rental_uris": {"android": "https://dc.lft.to/lastmile_qr_scan", "ios": "https://dc.lft.to/lastmile_qr_scan"}, "is_disabled": 0, "type": "electric_scooter", "is_reserved": 0, "name": "75efd5ae1c52c70b7904839e7db3a7f1", "lon": -77.025348, "bike_id": "75efd5ae1c52c70b7904839e7db3a7f1", "lat": 38.892128}, {"fusion_lon": 0.0, "fusion_lat": 0.0, "rental_uris": {"android": "https://dc.lft.to/lastmile_qr_scan", "ios": "https://dc.lft.to/lastmile_qr_scan"}, "is_disabled": 0, "type": "electric_scooter", "is_reserved": 0, "name": "990bcfe58ab04dfebceda28629d39ca8", "lon": -77.03099683333333, "bike_id": "990bcfe58ab04dfebceda28629d39ca8", "lat": 38.91934583333333}, {"fusion_lon": 0.0, "fusion_lat": 0.0, "rental_uris": {"android": "https://dc.lft.to/lastmile_qr_scan", "ios": "https://dc.lft.to/lastmile_qr_scan"}, "is_disabled": 0, "type": "electric_scooter", "is_reserved": 0, "name": "cba56d71ecdde92d9ad20a1817a5adb2", "lon": -77.0196355, "bike_id": "cba56d71ecdde92d9ad20a1817a5adb2", "lat": 38.92360166666667}, {"fusion_lon": 0.0, "fusion_lat": 0.0, "rental_uris": {"android": "https://dc.lft.to/lastmile_qr_scan", "ios": "https://dc.lft.to/lastmile_qr_scan"}, "is_disabled": 0, "type": "electric_scooter", "is_reserved": 0, "name": "15bef02d70b1ac5b5666374aa9e14eca", "lon": -77.02577383333333, "bike_id": "15bef02d70b1ac5b5666374aa9e14eca", "lat": 38.925037333333336}, {"fusion_lon": 0.0, "fusion_lat": 0.0, "rental_uris": {"android": "https://dc.lft.to/lastmile_qr_scan", "ios": "https://dc.lft.to/lastmile_qr_scan"}, "is_disabled": 0, "type": "electric_scooter", "is_reserved": 0, "name": "1c0192dd2a664ded392ce13d06a9e805", "lon": -77.009438, "bike_id": "1c0192dd2a664ded392ce13d06a9e805", "lat": 38.894987666666665}, {"fusion_lon": 0.0, "fusion_lat": 0.0, "rental_uris": {"android": "https://dc.lft.to/lastmile_qr_scan", "ios": "https://dc.lft.to/lastmile_qr_scan"}, "is_disabled": 0, "type": "electric_scooter", "is_reserved": 0, "name": "616b5882cc2c6bf2d327a1728fa1b82c", "lon": -77.04898316666667, "bike_id": "616b5882cc2c6bf2d327a1728fa1b82c", "lat": 38.9036405}, {"fusion_lon": 0.0, "fusion_lat": 0.0, "rental_uris": {"android": "https://dc.lft.to/lastmile_qr_scan", "ios": "https://dc.lft.to/lastmile_qr_scan"}, "is_disabled": 0, "type": "electric_scooter", "is_reserved": 0, "name": "cc1bc3778b5972b84b44df98e96d9a8f", "lon": -77.057497, "bike_id": "cc1bc3778b5972b84b44df98e96d9a8f", "lat": 38.92875883333333}, {"fusion_lon": 0.0, "fusion_lat": 0.0, "rental_uris": {"android": "https://dc.lft.to/lastmile_qr_scan", "ios": "https://dc.lft.to/lastmile_qr_scan"}, "is_disabled": 0, "type": "electric_scooter", "is_reserved": 0, "name": "9b45b5f3ab04a9787f81adb77b7084ac", "lon": -77.05679333333333, "bike_id": "9b45b5f3ab04a9787f81adb77b7084ac", "lat": 38.92329266666667}, {"fusion_lon": 0.0, "fusion_lat": 0.0, "rental_uris": {"android": "https://dc.lft.to/lastmile_qr_scan", "ios": "https://dc.lft.to/lastmile_qr_scan"}, "is_disabled": 0, "type": "electric_scooter", "is_reserved": 0, "name": "be12311eaab98cf45513fca8acdbc941", "lon": -77.00064283333333, "bike_id": "be12311eaab98cf45513fca8acdbc941", "lat": 38.9004525}, {"fusion_lon": 0.0, "fusion_lat": 0.0, "rental_uris": {"android": "https://dc.lft.to/lastmile_qr_scan", "ios": "https://dc.lft.to/lastmile_qr_scan"}, "is_disabled": 0, "type": "electric_scooter", "is_reserved": 0, "name": "c902f2c80df626b3cc4e9e36be127dfe", "lon": -77.01805633333333, "bike_id": "c902f2c80df626b3cc4e9e36be127dfe", "lat": 38.92142166666667}, {"fusion_lon": 0.0, "fusion_lat": 0.0, "rental_uris": {"android": "https://dc.lft.to/lastmile_qr_scan", "ios": "https://dc.lft.to/lastmile_qr_scan"}, "is_disabled": 0, "type": "electric_scooter", "is_reserved": 0, "name": "f1242fdf045d05c5abbea81232f5e4fc", "lon": -77.00608, "bike_id": "f1242fdf045d05c5abbea81232f5e4fc", "lat": 38.906541833333335}, {"fusion_lon": 0.0, "fusion_lat": 0.0, "rental_uris": {"android": "https://dc.lft.to/lastmile_qr_scan", "ios": "https://dc.lft.to/lastmile_qr_scan"}, "is_disabled": 0, "type": "electric_scooter", "is_reserved": 0, "name": "15923a8ac533bb4ac2132e54131456e8", "lon": -76.99518683333334, "bike_id": "15923a8ac533bb4ac2132e54131456e8", "lat": 38.82611083333333}, {"fusion_lon": 0.0, "fusion_lat": 0.0, "rental_uris": {"android": "https://dc.lft.to/lastmile_qr_scan", "ios": "https://dc.lft.to/lastmile_qr_scan"}, "is_disabled": 0, "type": "electric_scooter", "is_reserved": 0, "name": "2ac67d4928c39ef975d8062a86d60129", "lon": -77.02113416666667, "bike_id": "2ac67d4928c39ef975d8062a86d60129", "lat": 38.921678}, {"fusion_lon": 0.0, "fusion_lat": 0.0, "rental_uris": {"android": "https://dc.lft.to/lastmile_qr_scan", "ios": "https://dc.lft.to/lastmile_qr_scan"}, "is_disabled": 0, "type": "electric_scooter", "is_reserved": 0, "name": "47e72d31934202d9e64ce3d65e1a0497", "lon": -76.98374566666666, "bike_id": "47e72d31934202d9e64ce3d65e1a0497", "lat": 38.88726966666667}, {"fusion_lon": 0.0, "fusion_lat": 0.0, "rental_uris": {"android": "https://dc.lft.to/lastmile_qr_scan", "ios": "https://dc.lft.to/lastmile_qr_scan"}, "is_disabled": 0, "type": "electric_scooter", "is_reserved": 0, "name": "0aa5f2f3e2e101a05e0d3b8cdf0b5770", "lon": -77.02810966666667, "bike_id": "0aa5f2f3e2e101a05e0d3b8cdf0b5770", "lat": 38.90702866666667}, {"fusion_lon": 0.0, "fusion_lat": 0.0, "rental_uris": {"android": "https://dc.lft.to/lastmile_qr_scan", "ios": "https://dc.lft.to/lastmile_qr_scan"}, "is_disabled": 0, "type": "electric_scooter", "is_reserved": 0, "name": "f9ee6c1e3dad86eb5706623735e6e81f", "lon": -77.020471, "bike_id": "f9ee6c1e3dad86eb5706623735e6e81f", "lat": 38.927633}, {"fusion_lon": 0.0, "fusion_lat": 0.0, "rental_uris": {"android": "https://dc.lft.to/lastmile_qr_scan", "ios": "https://dc.lft.to/lastmile_qr_scan"}, "is_disabled": 0, "type": "electric_bike", "is_reserved": 0, "name": "2c2a973b955feacd89de1727430b340b", "lon": -77.12689266666666, "bike_id": "2c2a973b955feacd89de1727430b340b", "lat": 38.814184166666664}, {"fusion_lon": 0.0, "fusion_lat": 0.0, "rental_uris": {"android": "https://dc.lft.to/lastmile_qr_scan", "ios": "https://dc.lft.to/lastmile_qr_scan"}, "is_disabled": 0, "type": "electric_scooter", "is_reserved": 0, "name": "a87d850d58d058299313af00e5458147", "lon": -77.019126, "bike_id": "a87d850d58d058299313af00e5458147", "lat": 38.92368866666666}, {"fusion_lon": 0.0, "fusion_lat": 0.0, "rental_uris": {"android": "https://dc.lft.to/lastmile_qr_scan", "ios": "https://dc.lft.to/lastmile_qr_scan"}, "is_disabled": 0, "type": "electric_scooter", "is_reserved": 0, "name": "2d1a5b5ba251a7ace3376275564fd24b", "lon": -77.03301016666667, "bike_id": "2d1a5b5ba251a7ace3376275564fd24b", "lat": 38.928427166666665}, {"fusion_lon": 0.0, "fusion_lat": 0.0, "rental_uris": {"android": "https://dc.lft.to/lastmile_qr_scan", "ios": "https://dc.lft.to/lastmile_qr_scan"}, "is_disabled": 0, "type": "electric_scooter", "is_reserved": 0, "name": "e55887ef91113ee332e92907f832cc8f", "lon": -77.04479083333334, "bike_id": "e55887ef91113ee332e92907f832cc8f", "lat": 38.91085133333333}, {"fusion_lon": 0.0, "fusion_lat": 0.0, "rental_uris": {"android": "https://dc.lft.to/lastmile_qr_scan", "ios": "https://dc.lft.to/lastmile_qr_scan"}, "is_disabled": 0, "type": "electric_scooter", "is_reserved": 0, "name": "73332b38cd887c4baa3ff0102a8d5e07", "lon": -77.0580075, "bike_id": "73332b38cd887c4baa3ff0102a8d5e07", "lat": 38.90260383333333}, {"fusion_lon": 0.0, "fusion_lat": 0.0, "rental_uris": {"android": "https://dc.lft.to/lastmile_qr_scan", "ios": "https://dc.lft.to/lastmile_qr_scan"}, "is_disabled": 0, "type": "electric_scooter", "is_reserved": 0, "name": "1fdb6dfd182eeb54dde90c3df1753dd2", "lon": -76.98592833333333, "bike_id": "1fdb6dfd182eeb54dde90c3df1753dd2", "lat": 38.8947285}, {"fusion_lon": 0.0, "fusion_lat": 0.0, "rental_uris": {"android": "https://dc.lft.to/lastmile_qr_scan", "ios": "https://dc.lft.to/lastmile_qr_scan"}, "is_disabled": 0, "type": "electric_scooter", "is_reserved": 0, "name": "17d9fd7b040fbecc4e78627df01bfe09", "lon": -77.0429205, "bike_id": "17d9fd7b040fbecc4e78627df01bfe09", "lat": 38.922615666666665}, {"fusion_lon": 0.0, "fusion_lat": 0.0, "rental_uris": {"android": "https://dc.lft.to/lastmile_qr_scan", "ios": "https://dc.lft.to/lastmile_qr_scan"}, "is_disabled": 0, "type": "electric_scooter", "is_reserved": 0, "name": "90bfeba6387900df737a243680ba9788", "lon": -77.04821016666666, "bike_id": "90bfeba6387900df737a243680ba9788", "lat": 38.89964366666667}, {"fusion_lon": 0.0, "fusion_lat": 0.0, "rental_uris": {"android": "https://dc.lft.to/lastmile_qr_scan", "ios": "https://dc.lft.to/lastmile_qr_scan"}, "is_disabled": 0, "type": "electric_scooter", "is_reserved": 0, "name": "40a66219bda69d7c5054a149f0d0fc99", "lon": -77.099435, "bike_id": "40a66219bda69d7c5054a149f0d0fc99", "lat": 38.92191833333333}, {"fusion_lon": 0.0, "fusion_lat": 0.0, "rental_uris": {"android": "https://dc.lft.to/lastmile_qr_scan", "ios": "https://dc.lft.to/lastmile_qr_scan"}, "is_disabled": 0, "type": "electric_scooter", "is_reserved": 0, "name": "fe6b0113e4e8b42933299e933aead99e", "lon": -77.02845016666667, "bike_id": "fe6b0113e4e8b42933299e933aead99e", "lat": 38.92243083333334}, {"fusion_lon": 0.0, "fusion_lat": 0.0, "rental_uris": {"android": "https://dc.lft.to/lastmile_qr_scan", "ios": "https://dc.lft.to/lastmile_qr_scan"}, "is_disabled": 0, "type": "electric_scooter", "is_reserved": 0, "name": "ef4443064428b7e4a51a1bdcdbd4653e", "lon": -77.02387933333333, "bike_id": "ef4443064428b7e4a51a1bdcdbd4653e", "lat": 38.896237}, {"fusion_lon": 0.0, "fusion_lat": 0.0, "rental_uris": {"android": "https://dc.lft.to/lastmile_qr_scan", "ios": "https://dc.lft.to/lastmile_qr_scan"}, "is_disabled": 0, "type": "electric_scooter", "is_reserved": 0, "name": "53fabf9ae363c0a8fc76a46713333e05", "lon": -76.99942466666667, "bike_id": "53fabf9ae363c0a8fc76a46713333e05", "lat": 38.8780295}, {"fusion_lon": 0.0, "fusion_lat": 0.0, "rental_uris": {"android": "https://dc.lft.to/lastmile_qr_scan", "ios": "https://dc.lft.to/lastmile_qr_scan"}, "is_disabled": 0, "type": "electric_scooter", "is_reserved": 0, "name": "049f7c58f2ac2ac6cb3423101b25dd31", "lon": -76.97327433333334, "bike_id": "049f7c58f2ac2ac6cb3423101b25dd31", "lat": 38.904083666666665}, {"fusion_lon": 0.0, "fusion_lat": 0.0, "rental_uris": {"android": "https://dc.lft.to/lastmile_qr_scan", "ios": "https://dc.lft.to/lastmile_qr_scan"}, "is_disabled": 0, "type": "electric_scooter", "is_reserved": 0, "name": "78f13e978a3397961dabfe3c5f6c3cd3", "lon": -77.00499216666667, "bike_id": "78f13e978a3397961dabfe3c5f6c3cd3", "lat": 38.87532083333333}, {"fusion_lon": 0.0, "fusion_lat": 0.0, "rental_uris": {"android": "https://dc.lft.to/lastmile_qr_scan", "ios": "https://dc.lft.to/lastmile_qr_scan"}, "is_disabled": 0, "type": "electric_bike", "is_reserved": 0, "name": "2d777c22b2983174cae08c321bb07315", "lon": -77.07333833333334, "bike_id": "2d777c22b2983174cae08c321bb07315", "lat": 38.89005516666667}, {"fusion_lon": 0.0, "fusion_lat": 0.0, "rental_uris": {"android": "https://dc.lft.to/lastmile_qr_scan", "ios": "https://dc.lft.to/lastmile_qr_scan"}, "is_disabled": 0, "type": "electric_scooter", "is_reserved": 0, "name": "19a453290c66cf365e284cb126025469", "lon": -76.9955635, "bike_id": "19a453290c66cf365e284cb126025469", "lat": 38.90008533333334}, {"fusion_lon": 0.0, "fusion_lat": 0.0, "rental_uris": {"android": "https://dc.lft.to/lastmile_qr_scan", "ios": "https://dc.lft.to/lastmile_qr_scan"}, "is_disabled": 0, "type": "electric_scooter", "is_reserved": 0, "name": "60609167290c5c115f9d982988b69d3a", "lon": -77.02594766666667, "bike_id": "60609167290c5c115f9d982988b69d3a", "lat": 38.9169155}, {"fusion_lon": 0.0, "fusion_lat": 0.0, "rental_uris": {"android": "https://dc.lft.to/lastmile_qr_scan", "ios": "https://dc.lft.to/lastmile_qr_scan"}, "is_disabled": 0, "type": "electric_scooter", "is_reserved": 0, "name": "b41b30cc2d3f29477365d532d548fc38", "lon": -77.05762633333333, "bike_id": "b41b30cc2d3f29477365d532d548fc38", "lat": 38.924564833333335}, {"fusion_lon": 0.0, "fusion_lat": 0.0, "rental_uris": {"android": "https://dc.lft.to/lastmile_qr_scan", "ios": "https://dc.lft.to/lastmile_qr_scan"}, "is_disabled": 0, "type": "electric_scooter", "is_reserved": 0, "name": "49cac3f84ab199d596fb8638f3c996ff", "lon": -77.02416466666666, "bike_id": "49cac3f84ab199d596fb8638f3c996ff", "lat": 38.9205195}, {"fusion_lon": 0.0, "fusion_lat": 0.0, "rental_uris": {"android": "https://dc.lft.to/lastmile_qr_scan", "ios": "https://dc.lft.to/lastmile_qr_scan"}, "is_disabled": 0, "type": "electric_scooter", "is_reserved": 0, "name": "9a8b31d8de453b31e66f94d8db0de0a8", "lon": -77.04555716666667, "bike_id": "9a8b31d8de453b31e66f94d8db0de0a8", "lat": 38.909660333333335}, {"fusion_lon": 0.0, "fusion_lat": 0.0, "rental_uris": {"android": "https://dc.lft.to/lastmile_qr_scan", "ios": "https://dc.lft.to/lastmile_qr_scan"}, "is_disabled": 0, "type": "electric_scooter", "is_reserved": 0, "name": "408c1aecdd9cf6089ea3aa7b43873b9d", "lon": -77.031967, "bike_id": "408c1aecdd9cf6089ea3aa7b43873b9d", "lat": 38.90153816666667}, {"fusion_lon": 0.0, "fusion_lat": 0.0, "rental_uris": {"android": "https://dc.lft.to/lastmile_qr_scan", "ios": "https://dc.lft.to/lastmile_qr_scan"}, "is_disabled": 0, "type": "electric_scooter", "is_reserved": 0, "name": "5dc9950c070858730f4d44a6aa754ecc", "lon": -77.02214316666667, "bike_id": "5dc9950c070858730f4d44a6aa754ecc", "lat": 38.927459}, {"fusion_lon": 0.0, "fusion_lat": 0.0, "rental_uris": {"android": "https://dc.lft.to/lastmile_qr_scan", "ios": "https://dc.lft.to/lastmile_qr_scan"}, "is_disabled": 0, "type": "electric_scooter", "is_reserved": 0, "name": "316a9c85987c31c7cab3ff25d0a8a047", "lon": -77.02815283333334, "bike_id": "316a9c85987c31c7cab3ff25d0a8a047", "lat": 38.9069815}, {"fusion_lon": 0.0, "fusion_lat": 0.0, "rental_uris": {"android": "https://dc.lft.to/lastmile_qr_scan", "ios": "https://dc.lft.to/lastmile_qr_scan"}, "is_disabled": 0, "type": "electric_scooter", "is_reserved": 0, "name": "24aeda387939f66412b09a197d502935", "lon": -77.031405, "bike_id": "24aeda387939f66412b09a197d502935", "lat": 38.928145}, {"fusion_lon": 0.0, "fusion_lat": 0.0, "rental_uris": {"android": "https://dc.lft.to/lastmile_qr_scan", "ios": "https://dc.lft.to/lastmile_qr_scan"}, "is_disabled": 0, "type": "electric_scooter", "is_reserved": 0, "name": "baedf8b50bcc6e9ad56b34008c8424aa", "lon": -77.0331525, "bike_id": "baedf8b50bcc6e9ad56b34008c8424aa", "lat": 38.9215135}, {"fusion_lon": 0.0, "fusion_lat": 0.0, "rental_uris": {"android": "https://dc.lft.to/lastmile_qr_scan", "ios": "https://dc.lft.to/lastmile_qr_scan"}, "is_disabled": 0, "type": "electric_scooter", "is_reserved": 0, "name": "bb8ed45ea92579d61e53afc5cba8bea6", "lon": -77.017629, "bike_id": "bb8ed45ea92579d61e53afc5cba8bea6", "lat": 38.92117016666667}, {"fusion_lon": 0.0, "fusion_lat": 0.0, "rental_uris": {"android": "https://dc.lft.to/lastmile_qr_scan", "ios": "https://dc.lft.to/lastmile_qr_scan"}, "is_disabled": 0, "type": "electric_bike", "is_reserved": 0, "name": "224bab633ac6aa510170328979bffc18", "lon": -76.9106455, "bike_id": "224bab633ac6aa510170328979bffc18", "lat": 39.010756666666666}, {"fusion_lon": 0.0, "fusion_lat": 0.0, "rental_uris": {"android": "https://dc.lft.to/lastmile_qr_scan", "ios": "https://dc.lft.to/lastmile_qr_scan"}, "is_disabled": 0, "type": "electric_scooter", "is_reserved": 0, "name": "f9479c3f4cc736581d017a514f8adfbd", "lon": -77.021628, "bike_id": "f9479c3f4cc736581d017a514f8adfbd", "lat": 38.9264035}, {"fusion_lon": 0.0, "fusion_lat": 0.0, "rental_uris": {"android": "https://dc.lft.to/lastmile_qr_scan", "ios": "https://dc.lft.to/lastmile_qr_scan"}, "is_disabled": 0, "type": "electric_scooter", "is_reserved": 0, "name": "8c73b201669f0f4236036e035678d60d", "lon": -77.04504816666666, "bike_id": "8c73b201669f0f4236036e035678d60d", "lat": 38.91566516666666}, {"fusion_lon": 0.0, "fusion_lat": 0.0, "rental_uris": {"android": "https://dc.lft.to/lastmile_qr_scan", "ios": "https://dc.lft.to/lastmile_qr_scan"}, "is_disabled": 0, "type": "electric_scooter", "is_reserved": 0, "name": "2ef315e82acf65987162a119f21628e0", "lon": -77.0470935, "bike_id": "2ef315e82acf65987162a119f21628e0", "lat": 38.8994795}, {"fusion_lon": 0.0, "fusion_lat": 0.0, "rental_uris": {"android": "https://dc.lft.to/lastmile_qr_scan", "ios": "https://dc.lft.to/lastmile_qr_scan"}, "is_disabled": 0, "type": "electric_scooter", "is_reserved": 0, "name": "7ec97e9e08ec46b53ed30bcfdfba68a9", "lon": -77.046527, "bike_id": "7ec97e9e08ec46b53ed30bcfdfba68a9", "lat": 38.91361716666667}, {"fusion_lon": 0.0, "fusion_lat": 0.0, "rental_uris": {"android": "https://dc.lft.to/lastmile_qr_scan", "ios": "https://dc.lft.to/lastmile_qr_scan"}, "is_disabled": 0, "type": "electric_scooter", "is_reserved": 0, "name": "ca6fe5f2ebe02e0f001bce07c13d6399", "lon": -77.04650333333333, "bike_id": "ca6fe5f2ebe02e0f001bce07c13d6399", "lat": 38.89251516666667}, {"fusion_lon": 0.0, "fusion_lat": 0.0, "rental_uris": {"android": "https://dc.lft.to/lastmile_qr_scan", "ios": "https://dc.lft.to/lastmile_qr_scan"}, "is_disabled": 0, "type": "electric_scooter", "is_reserved": 0, "name": "a5c7eb74c0bcf337a3fc3a94154327dd", "lon": -76.99339583333334, "bike_id": "a5c7eb74c0bcf337a3fc3a94154327dd", "lat": 38.910328666666665}, {"fusion_lon": 0.0, "fusion_lat": 0.0, "rental_uris": {"android": "https://dc.lft.to/lastmile_qr_scan", "ios": "https://dc.lft.to/lastmile_qr_scan"}, "is_disabled": 0, "type": "electric_scooter", "is_reserved": 0, "name": "cd5d5f14ac5077f5f0a7f8d858bdecb6", "lon": -77.00571983333333, "bike_id": "cd5d5f14ac5077f5f0a7f8d858bdecb6", "lat": 38.905994166666666}, {"fusion_lon": 0.0, "fusion_lat": 0.0, "rental_uris": {"android": "https://dc.lft.to/lastmile_qr_scan", "ios": "https://dc.lft.to/lastmile_qr_scan"}, "is_disabled": 0, "type": "electric_scooter", "is_reserved": 0, "name": "dcfa9483f2e31a8cfa1ffa43c850e4ea", "lon": -76.93117133333334, "bike_id": "dcfa9483f2e31a8cfa1ffa43c850e4ea", "lat": 38.8784065}, {"fusion_lon": 0.0, "fusion_lat": 0.0, "rental_uris": {"android": "https://dc.lft.to/lastmile_qr_scan", "ios": "https://dc.lft.to/lastmile_qr_scan"}, "is_disabled": 0, "type": "electric_scooter", "is_reserved": 0, "name": "e9a14fd51605b2b38e9fb2c991eb5501", "lon": -77.04449066666666, "bike_id": "e9a14fd51605b2b38e9fb2c991eb5501", "lat": 38.91012516666667}, {"fusion_lon": 0.0, "fusion_lat": 0.0, "rental_uris": {"android": "https://dc.lft.to/lastmile_qr_scan", "ios": "https://dc.lft.to/lastmile_qr_scan"}, "is_disabled": 0, "type": "electric_scooter", "is_reserved": 0, "name": "01b1acf87bad4eda78105fee1c3ed345", "lon": -76.99354616666666, "bike_id": "01b1acf87bad4eda78105fee1c3ed345", "lat": 38.90002466666667}, {"fusion_lon": 0.0, "fusion_lat": 0.0, "rental_uris": {"android": "https://dc.lft.to/lastmile_qr_scan", "ios": "https://dc.lft.to/lastmile_qr_scan"}, "is_disabled": 0, "type": "electric_scooter", "is_reserved": 0, "name": "f3d06feefa5b0ececeac1fc060da378f", "lon": -77.04634116666666, "bike_id": "f3d06feefa5b0ececeac1fc060da378f", "lat": 38.914214}, {"fusion_lon": 0.0, "fusion_lat": 0.0, "rental_uris": {"android": "https://dc.lft.to/lastmile_qr_scan", "ios": "https://dc.lft.to/lastmile_qr_scan"}, "is_disabled": 0, "type": "electric_scooter", "is_reserved": 0, "name": "97108b4f6b773adf70daedd9de0b8534", "lon": -77.04738216666667, "bike_id": "97108b4f6b773adf70daedd9de0b8534", "lat": 38.900710333333336}, {"fusion_lon": 0.0, "fusion_lat": 0.0, "rental_uris": {"android": "https://dc.lft.to/lastmile_qr_scan", "ios": "https://dc.lft.to/lastmile_qr_scan"}, "is_disabled": 0, "type": "electric_scooter", "is_reserved": 0, "name": "a8bd482be9e56d41109b53f93c50e9b1", "lon": -77.02342266666666, "bike_id": "a8bd482be9e56d41109b53f93c50e9b1", "lat": 38.94490783333333}, {"fusion_lon": 0.0, "fusion_lat": 0.0, "rental_uris": {"android": "https://dc.lft.to/lastmile_qr_scan", "ios": "https://dc.lft.to/lastmile_qr_scan"}, "is_disabled": 0, "type": "electric_scooter", "is_reserved": 0, "name": "6124ced13a95b785b092294fcf8b3a9f", "lon": -77.01270133333334, "bike_id": "6124ced13a95b785b092294fcf8b3a9f", "lat": 38.915418833333334}, {"fusion_lon": 0.0, "fusion_lat": 0.0, "rental_uris": {"android": "https://dc.lft.to/lastmile_qr_scan", "ios": "https://dc.lft.to/lastmile_qr_scan"}, "is_disabled": 0, "type": "electric_scooter", "is_reserved": 0, "name": "c90046c73650f7af9bf9d3fee0c17f86", "lon": -77.03828533333333, "bike_id": "c90046c73650f7af9bf9d3fee0c17f86", "lat": 38.904077666666666}, {"fusion_lon": 0.0, "fusion_lat": 0.0, "rental_uris": {"android": "https://dc.lft.to/lastmile_qr_scan", "ios": "https://dc.lft.to/lastmile_qr_scan"}, "is_disabled": 0, "type": "electric_scooter", "is_reserved": 0, "name": "7867d9ec11e0a7569e5d49d35c2c115b", "lon": -77.06500316666667, "bike_id": "7867d9ec11e0a7569e5d49d35c2c115b", "lat": 38.9039845}, {"fusion_lon": 0.0, "fusion_lat": 0.0, "rental_uris": {"android": "https://dc.lft.to/lastmile_qr_scan", "ios": "https://dc.lft.to/lastmile_qr_scan"}, "is_disabled": 0, "type": "electric_scooter", "is_reserved": 0, "name": "f1b630b59cbc87a7a5647f5a44098c47", "lon": -77.002144, "bike_id": "f1b630b59cbc87a7a5647f5a44098c47", "lat": 38.8952545}, {"fusion_lon": 0.0, "fusion_lat": 0.0, "rental_uris": {"android": "https://dc.lft.to/lastmile_qr_scan", "ios": "https://dc.lft.to/lastmile_qr_scan"}, "is_disabled": 0, "type": "electric_scooter", "is_reserved": 0, "name": "01a53daec70a882d3516b6f715870db4", "lon": -77.041455, "bike_id": "01a53daec70a882d3516b6f715870db4", "lat": 38.89921283333334}, {"fusion_lon": 0.0, "fusion_lat": 0.0, "rental_uris": {"android": "https://dc.lft.to/lastmile_qr_scan", "ios": "https://dc.lft.to/lastmile_qr_scan"}, "is_disabled": 0, "type": "electric_scooter", "is_reserved": 0, "name": "d2e07e6f6bd26f770c95f33d34fe587f", "lon": -77.03345116666667, "bike_id": "d2e07e6f6bd26f770c95f33d34fe587f", "lat": 38.88482483333333}, {"fusion_lon": 0.0, "fusion_lat": 0.0, "rental_uris": {"android": "https://dc.lft.to/lastmile_qr_scan", "ios": "https://dc.lft.to/lastmile_qr_scan"}, "is_disabled": 0, "type": "electric_scooter", "is_reserved": 0, "name": "db03ff614a060d2c72a62d7693782ded", "lon": -77.03387883333333, "bike_id": "db03ff614a060d2c72a62d7693782ded", "lat": 38.9215645}, {"fusion_lon": 0.0, "fusion_lat": 0.0, "rental_uris": {"android": "https://dc.lft.to/lastmile_qr_scan", "ios": "https://dc.lft.to/lastmile_qr_scan"}, "is_disabled": 0, "type": "electric_scooter", "is_reserved": 0, "name": "922ae040178692c1f372adc6ec630203", "lon": -77.064295, "bike_id": "922ae040178692c1f372adc6ec630203", "lat": 38.905223}, {"fusion_lon": 0.0, "fusion_lat": 0.0, "rental_uris": {"android": "https://dc.lft.to/lastmile_qr_scan", "ios": "https://dc.lft.to/lastmile_qr_scan"}, "is_disabled": 0, "type": "electric_scooter", "is_reserved": 0, "name": "2fee0a25bd6d6d7c02cb59df099ac2b2", "lon": -77.0280385, "bike_id": "2fee0a25bd6d6d7c02cb59df099ac2b2", "lat": 38.89356733333334}, {"fusion_lon": 0.0, "fusion_lat": 0.0, "rental_uris": {"android": "https://dc.lft.to/lastmile_qr_scan", "ios": "https://dc.lft.to/lastmile_qr_scan"}, "is_disabled": 0, "type": "electric_scooter", "is_reserved": 0, "name": "2712d73003263f18d5b840d053e384b0", "lon": -77.0212935, "bike_id": "2712d73003263f18d5b840d053e384b0", "lat": 38.924133166666664}, {"fusion_lon": 0.0, "fusion_lat": 0.0, "rental_uris": {"android": "https://dc.lft.to/lastmile_qr_scan", "ios": "https://dc.lft.to/lastmile_qr_scan"}, "is_disabled": 0, "type": "electric_scooter", "is_reserved": 0, "name": "953bc6dc79d1ccce915a80794bfb1104", "lon": -77.03188233333333, "bike_id": "953bc6dc79d1ccce915a80794bfb1104", "lat": 38.8935725}, {"fusion_lon": 0.0, "fusion_lat": 0.0, "rental_uris": {"android": "https://dc.lft.to/lastmile_qr_scan", "ios": "https://dc.lft.to/lastmile_qr_scan"}, "is_disabled": 0, "type": "electric_scooter", "is_reserved": 0, "name": "ad2948806e9e4727560f3c4a6e2d1135", "lon": -77.0264995, "bike_id": "ad2948806e9e4727560f3c4a6e2d1135", "lat": 38.90407283333333}, {"fusion_lon": 0.0, "fusion_lat": 0.0, "rental_uris": {"android": "https://dc.lft.to/lastmile_qr_scan", "ios": "https://dc.lft.to/lastmile_qr_scan"}, "is_disabled": 0, "type": "electric_scooter", "is_reserved": 0, "name": "f9ffca240b254fb0e9f61a515fb8a87c", "lon": -77.03666433333333, "bike_id": "f9ffca240b254fb0e9f61a515fb8a87c", "lat": 38.923285166666666}, {"fusion_lon": 0.0, "fusion_lat": 0.0, "rental_uris": {"android": "https://dc.lft.to/lastmile_qr_scan", "ios": "https://dc.lft.to/lastmile_qr_scan"}, "is_disabled": 0, "type": "electric_scooter", "is_reserved": 0, "name": "8d4c84750bc9e796c802a3a7dcf53ef5", "lon": -77.04677316666667, "bike_id": "8d4c84750bc9e796c802a3a7dcf53ef5", "lat": 38.895617666666666}, {"fusion_lon": 0.0, "fusion_lat": 0.0, "rental_uris": {"android": "https://dc.lft.to/lastmile_qr_scan", "ios": "https://dc.lft.to/lastmile_qr_scan"}, "is_disabled": 0, "type": "electric_scooter", "is_reserved": 0, "name": "ef1ac7a3cb5615b609c4736ebe0f9c2e", "lon": -77.045895, "bike_id": "ef1ac7a3cb5615b609c4736ebe0f9c2e", "lat": 38.90266916666667}, {"fusion_lon": 0.0, "fusion_lat": 0.0, "rental_uris": {"android": "https://dc.lft.to/lastmile_qr_scan", "ios": "https://dc.lft.to/lastmile_qr_scan"}, "is_disabled": 0, "type": "electric_scooter", "is_reserved": 0, "name": "cacecc5fdce33076455d32bcee9591b2", "lon": -76.98818883333334, "bike_id": "cacecc5fdce33076455d32bcee9591b2", "lat": 38.89074433333333}, {"fusion_lon": 0.0, "fusion_lat": 0.0, "rental_uris": {"android": "https://dc.lft.to/lastmile_qr_scan", "ios": "https://dc.lft.to/lastmile_qr_scan"}, "is_disabled": 0, "type": "electric_scooter", "is_reserved": 0, "name": "53fa7a50be7c83764fdeb6941c296571", "lon": -76.93937416666667, "bike_id": "53fa7a50be7c83764fdeb6941c296571", "lat": 38.908604833333335}, {"fusion_lon": 0.0, "fusion_lat": 0.0, "rental_uris": {"android": "https://dc.lft.to/lastmile_qr_scan", "ios": "https://dc.lft.to/lastmile_qr_scan"}, "is_disabled": 0, "type": "electric_scooter", "is_reserved": 0, "name": "1279e6dd8c7d76af04364915d9ac70b8", "lon": -77.02284883333333, "bike_id": "1279e6dd8c7d76af04364915d9ac70b8", "lat": 38.926603666666665}, {"fusion_lon": 0.0, "fusion_lat": 0.0, "rental_uris": {"android": "https://dc.lft.to/lastmile_qr_scan", "ios": "https://dc.lft.to/lastmile_qr_scan"}, "is_disabled": 0, "type": "electric_scooter", "is_reserved": 0, "name": "eed2962608b6da309992858268b55d8e", "lon": -77.01821583333333, "bike_id": "eed2962608b6da309992858268b55d8e", "lat": 38.922421166666666}, {"fusion_lon": 0.0, "fusion_lat": 0.0, "rental_uris": {"android": "https://dc.lft.to/lastmile_qr_scan", "ios": "https://dc.lft.to/lastmile_qr_scan"}, "is_disabled": 0, "type": "electric_scooter", "is_reserved": 0, "name": "d9cf5ded03b408d37f81f4cdb7c68820", "lon": -77.01893316666667, "bike_id": "d9cf5ded03b408d37f81f4cdb7c68820", "lat": 38.91953433333333}, {"fusion_lon": 0.0, "fusion_lat": 0.0, "rental_uris": {"android": "https://dc.lft.to/lastmile_qr_scan", "ios": "https://dc.lft.to/lastmile_qr_scan"}, "is_disabled": 0, "type": "electric_bike", "is_reserved": 0, "name": "db4ec44c6e6cb9fe9a8d3e4d18b62cbb", "lon": -77.02332616666666, "bike_id": "db4ec44c6e6cb9fe9a8d3e4d18b62cbb", "lat": 38.9667315}, {"fusion_lon": 0.0, "fusion_lat": 0.0, "rental_uris": {"android": "https://dc.lft.to/lastmile_qr_scan", "ios": "https://dc.lft.to/lastmile_qr_scan"}, "is_disabled": 0, "type": "electric_scooter", "is_reserved": 0, "name": "834ebb331d9ea16a8c859fe5413c4686", "lon": -77.0059665, "bike_id": "834ebb331d9ea16a8c859fe5413c4686", "lat": 38.87185233333334}, {"fusion_lon": 0.0, "fusion_lat": 0.0, "rental_uris": {"android": "https://dc.lft.to/lastmile_qr_scan", "ios": "https://dc.lft.to/lastmile_qr_scan"}, "is_disabled": 0, "type": "electric_scooter", "is_reserved": 0, "name": "b59b21976473a6f76e0fcd12d192e52a", "lon": -77.05599316666667, "bike_id": "b59b21976473a6f76e0fcd12d192e52a", "lat": 38.936962666666666}, {"fusion_lon": 0.0, "fusion_lat": 0.0, "rental_uris": {"android": "https://dc.lft.to/lastmile_qr_scan", "ios": "https://dc.lft.to/lastmile_qr_scan"}, "is_disabled": 0, "type": "electric_bike", "is_reserved": 0, "name": "3d730b691db38c1f5b5f4c24e1ab87f2", "lon": -77.08366983333333, "bike_id": "3d730b691db38c1f5b5f4c24e1ab87f2", "lat": 38.832678666666666}, {"fusion_lon": 0.0, "fusion_lat": 0.0, "rental_uris": {"android": "https://dc.lft.to/lastmile_qr_scan", "ios": "https://dc.lft.to/lastmile_qr_scan"}, "is_disabled": 0, "type": "electric_scooter", "is_reserved": 0, "name": "45b62d05903afd2f4aa0b726e9cf22dd", "lon": -76.99724183333333, "bike_id": "45b62d05903afd2f4aa0b726e9cf22dd", "lat": 38.90435633333333}, {"fusion_lon": 0.0, "fusion_lat": 0.0, "rental_uris": {"android": "https://dc.lft.to/lastmile_qr_scan", "ios": "https://dc.lft.to/lastmile_qr_scan"}, "is_disabled": 0, "type": "electric_scooter", "is_reserved": 0, "name": "a30094072f2d07c82262fd108b606f0f", "lon": -77.02827183333333, "bike_id": "a30094072f2d07c82262fd108b606f0f", "lat": 38.9005905}, {"fusion_lon": 0.0, "fusion_lat": 0.0, "rental_uris": {"android": "https://dc.lft.to/lastmile_qr_scan", "ios": "https://dc.lft.to/lastmile_qr_scan"}, "is_disabled": 0, "type": "electric_scooter", "is_reserved": 0, "name": "1c90ba6c40d9008e1a3dfee77706ab81", "lon": -77.0772415, "bike_id": "1c90ba6c40d9008e1a3dfee77706ab81", "lat": 38.922597}, {"fusion_lon": 0.0, "fusion_lat": 0.0, "rental_uris": {"android": "https://dc.lft.to/lastmile_qr_scan", "ios": "https://dc.lft.to/lastmile_qr_scan"}, "is_disabled": 0, "type": "electric_scooter", "is_reserved": 0, "name": "f448e0b6bc148eb1309fe70ccc20c053", "lon": -76.9990905, "bike_id": "f448e0b6bc148eb1309fe70ccc20c053", "lat": 38.8960535}, {"fusion_lon": 0.0, "fusion_lat": 0.0, "rental_uris": {"android": "https://dc.lft.to/lastmile_qr_scan", "ios": "https://dc.lft.to/lastmile_qr_scan"}, "is_disabled": 0, "type": "electric_scooter", "is_reserved": 0, "name": "a661d50eb4b4e0517524d59a162d46f4", "lon": -77.02198666666666, "bike_id": "a661d50eb4b4e0517524d59a162d46f4", "lat": 38.924594}, {"fusion_lon": 0.0, "fusion_lat": 0.0, "rental_uris": {"android": "https://dc.lft.to/lastmile_qr_scan", "ios": "https://dc.lft.to/lastmile_qr_scan"}, "is_disabled": 0, "type": "electric_scooter", "is_reserved": 0, "name": "f3907547674defb0d0df292cb93fe43f", "lon": -77.02721833333334, "bike_id": "f3907547674defb0d0df292cb93fe43f", "lat": 38.901527}, {"fusion_lon": 0.0, "fusion_lat": 0.0, "rental_uris": {"android": "https://dc.lft.to/lastmile_qr_scan", "ios": "https://dc.lft.to/lastmile_qr_scan"}, "is_disabled": 0, "type": "electric_scooter", "is_reserved": 0, "name": "af5d4c21bb2ed6693ce2ab08281e40b8", "lon": -77.03632866666666, "bike_id": "af5d4c21bb2ed6693ce2ab08281e40b8", "lat": 38.927433666666666}, {"fusion_lon": 0.0, "fusion_lat": 0.0, "rental_uris": {"android": "https://dc.lft.to/lastmile_qr_scan", "ios": "https://dc.lft.to/lastmile_qr_scan"}, "is_disabled": 0, "type": "electric_scooter", "is_reserved": 0, "name": "837cc02e4cde730f8652ec8cf150907d", "lon": -77.0321495, "bike_id": "837cc02e4cde730f8652ec8cf150907d", "lat": 38.9117615}, {"fusion_lon": 0.0, "fusion_lat": 0.0, "rental_uris": {"android": "https://dc.lft.to/lastmile_qr_scan", "ios": "https://dc.lft.to/lastmile_qr_scan"}, "is_disabled": 0, "type": "electric_scooter", "is_reserved": 0, "name": "1b3ecc3bb8790cffd76d2d608aa3858c", "lon": -77.01675533333334, "bike_id": "1b3ecc3bb8790cffd76d2d608aa3858c", "lat": 38.905621}, {"fusion_lon": 0.0, "fusion_lat": 0.0, "rental_uris": {"android": "https://dc.lft.to/lastmile_qr_scan", "ios": "https://dc.lft.to/lastmile_qr_scan"}, "is_disabled": 0, "type": "electric_scooter", "is_reserved": 0, "name": "eea48d68ca4e55d29fcdcb6634e41715", "lon": -77.02039333333333, "bike_id": "eea48d68ca4e55d29fcdcb6634e41715", "lat": 38.924314333333335}, {"fusion_lon": 0.0, "fusion_lat": 0.0, "rental_uris": {"android": "https://dc.lft.to/lastmile_qr_scan", "ios": "https://dc.lft.to/lastmile_qr_scan"}, "is_disabled": 0, "type": "electric_scooter", "is_reserved": 0, "name": "3d8e54be4d774ef80eface69501b82e5", "lon": -77.07462333333334, "bike_id": "3d8e54be4d774ef80eface69501b82e5", "lat": 38.93848916666666}, {"fusion_lon": 0.0, "fusion_lat": 0.0, "rental_uris": {"android": "https://dc.lft.to/lastmile_qr_scan", "ios": "https://dc.lft.to/lastmile_qr_scan"}, "is_disabled": 0, "type": "electric_scooter", "is_reserved": 0, "name": "8fe1cbd490760460f49c79b7877caa6b", "lon": -77.03177333333333, "bike_id": "8fe1cbd490760460f49c79b7877caa6b", "lat": 38.89984066666667}, {"fusion_lon": 0.0, "fusion_lat": 0.0, "rental_uris": {"android": "https://dc.lft.to/lastmile_qr_scan", "ios": "https://dc.lft.to/lastmile_qr_scan"}, "is_disabled": 0, "type": "electric_scooter", "is_reserved": 0, "name": "5b8f84599c79277d874d9cc5c82002e6", "lon": -77.04474133333333, "bike_id": "5b8f84599c79277d874d9cc5c82002e6", "lat": 38.911199833333335}, {"fusion_lon": 0.0, "fusion_lat": 0.0, "rental_uris": {"android": "https://dc.lft.to/lastmile_qr_scan", "ios": "https://dc.lft.to/lastmile_qr_scan"}, "is_disabled": 0, "type": "electric_scooter", "is_reserved": 0, "name": "af71b9dfc285ec37337a87fa77dccc46", "lon": -77.02399716666666, "bike_id": "af71b9dfc285ec37337a87fa77dccc46", "lat": 38.90337383333333}, {"fusion_lon": 0.0, "fusion_lat": 0.0, "rental_uris": {"android": "https://dc.lft.to/lastmile_qr_scan", "ios": "https://dc.lft.to/lastmile_qr_scan"}, "is_disabled": 0, "type": "electric_scooter", "is_reserved": 0, "name": "9a2826084d845fab9ccfaf0216dc0632", "lon": -77.00588633333334, "bike_id": "9a2826084d845fab9ccfaf0216dc0632", "lat": 38.87543616666667}, {"fusion_lon": 0.0, "fusion_lat": 0.0, "rental_uris": {"android": "https://dc.lft.to/lastmile_qr_scan", "ios": "https://dc.lft.to/lastmile_qr_scan"}, "is_disabled": 0, "type": "electric_scooter", "is_reserved": 0, "name": "2089f45a81ee58e25c7f22c1cad418b2", "lon": -76.94293383333333, "bike_id": "2089f45a81ee58e25c7f22c1cad418b2", "lat": 38.8984735}, {"fusion_lon": 0.0, "fusion_lat": 0.0, "rental_uris": {"android": "https://dc.lft.to/lastmile_qr_scan", "ios": "https://dc.lft.to/lastmile_qr_scan"}, "is_disabled": 0, "type": "electric_scooter", "is_reserved": 0, "name": "fcd1cc9419654c70dc9d774f458a4c0b", "lon": -77.02585616666667, "bike_id": "fcd1cc9419654c70dc9d774f458a4c0b", "lat": 38.89936433333333}, {"fusion_lon": 0.0, "fusion_lat": 0.0, "rental_uris": {"android": "https://dc.lft.to/lastmile_qr_scan", "ios": "https://dc.lft.to/lastmile_qr_scan"}, "is_disabled": 0, "type": "electric_bike", "is_reserved": 0, "name": "cdc52cd290a11f38b1a1afb3ef9e022b", "lon": -76.988977, "bike_id": "cdc52cd290a11f38b1a1afb3ef9e022b", "lat": 38.86628066666667}, {"fusion_lon": 0.0, "fusion_lat": 0.0, "rental_uris": {"android": "https://dc.lft.to/lastmile_qr_scan", "ios": "https://dc.lft.to/lastmile_qr_scan"}, "is_disabled": 0, "type": "electric_scooter", "is_reserved": 0, "name": "731570ca80f2691bcd403915e07dde59", "lon": -77.03255733333333, "bike_id": "731570ca80f2691bcd403915e07dde59", "lat": 38.939684}, {"fusion_lon": 0.0, "fusion_lat": 0.0, "rental_uris": {"android": "https://dc.lft.to/lastmile_qr_scan", "ios": "https://dc.lft.to/lastmile_qr_scan"}, "is_disabled": 0, "type": "electric_scooter", "is_reserved": 0, "name": "c1e58010d19942b45579a23596f572fe", "lon": -77.049983, "bike_id": "c1e58010d19942b45579a23596f572fe", "lat": 38.89230366666666}, {"fusion_lon": 0.0, "fusion_lat": 0.0, "rental_uris": {"android": "https://dc.lft.to/lastmile_qr_scan", "ios": "https://dc.lft.to/lastmile_qr_scan"}, "is_disabled": 0, "type": "electric_scooter", "is_reserved": 0, "name": "b1bf8ba32eb3fd07a41c6448c3c19e13", "lon": -76.9831775, "bike_id": "b1bf8ba32eb3fd07a41c6448c3c19e13", "lat": 38.922529833333336}, {"fusion_lon": 0.0, "fusion_lat": 0.0, "rental_uris": {"android": "https://dc.lft.to/lastmile_qr_scan", "ios": "https://dc.lft.to/lastmile_qr_scan"}, "is_disabled": 0, "type": "electric_scooter", "is_reserved": 0, "name": "5dde75a1ce785b8fd601913a93784715", "lon": -76.999547, "bike_id": "5dde75a1ce785b8fd601913a93784715", "lat": 38.90375683333333}, {"fusion_lon": 0.0, "fusion_lat": 0.0, "rental_uris": {"android": "https://dc.lft.to/lastmile_qr_scan", "ios": "https://dc.lft.to/lastmile_qr_scan"}, "is_disabled": 0, "type": "electric_scooter", "is_reserved": 0, "name": "64c83ab0720cbc109208b10286013525", "lon": -77.041323, "bike_id": "64c83ab0720cbc109208b10286013525", "lat": 38.9001955}, {"fusion_lon": 0.0, "fusion_lat": 0.0, "rental_uris": {"android": "https://dc.lft.to/lastmile_qr_scan", "ios": "https://dc.lft.to/lastmile_qr_scan"}, "is_disabled": 0, "type": "electric_scooter", "is_reserved": 0, "name": "18ebdb75a163fc1e620bec4b56e61e8a", "lon": -77.03651533333333, "bike_id": "18ebdb75a163fc1e620bec4b56e61e8a", "lat": 38.923095833333335}, {"fusion_lon": 0.0, "fusion_lat": 0.0, "rental_uris": {"android": "https://dc.lft.to/lastmile_qr_scan", "ios": "https://dc.lft.to/lastmile_qr_scan"}, "is_disabled": 0, "type": "electric_scooter", "is_reserved": 0, "name": "2cd58a2a08643aa9bd039dc7f6cdb28c", "lon": -77.03805783333334, "bike_id": "2cd58a2a08643aa9bd039dc7f6cdb28c", "lat": 38.9065885}, {"fusion_lon": 0.0, "fusion_lat": 0.0, "rental_uris": {"android": "https://dc.lft.to/lastmile_qr_scan", "ios": "https://dc.lft.to/lastmile_qr_scan"}, "is_disabled": 0, "type": "electric_scooter", "is_reserved": 0, "name": "76690592391ab27e7a68fecf0f0198f2", "lon": -76.99592466666667, "bike_id": "76690592391ab27e7a68fecf0f0198f2", "lat": 38.88435466666667}, {"fusion_lon": 0.0, "fusion_lat": 0.0, "rental_uris": {"android": "https://dc.lft.to/lastmile_qr_scan", "ios": "https://dc.lft.to/lastmile_qr_scan"}, "is_disabled": 0, "type": "electric_scooter", "is_reserved": 0, "name": "23dafb83a03a18818fa5f3ed7d3add0a", "lon": -77.00967183333333, "bike_id": "23dafb83a03a18818fa5f3ed7d3add0a", "lat": 38.89607066666667}, {"fusion_lon": 0.0, "fusion_lat": 0.0, "rental_uris": {"android": "https://dc.lft.to/lastmile_qr_scan", "ios": "https://dc.lft.to/lastmile_qr_scan"}, "is_disabled": 0, "type": "electric_bike", "is_reserved": 0, "name": "295fca65643ae24197930130c0fbe660", "lon": -76.99373833333334, "bike_id": "295fca65643ae24197930130c0fbe660", "lat": 38.99100466666667}, {"fusion_lon": 0.0, "fusion_lat": 0.0, "rental_uris": {"android": "https://dc.lft.to/lastmile_qr_scan", "ios": "https://dc.lft.to/lastmile_qr_scan"}, "is_disabled": 0, "type": "electric_scooter", "is_reserved": 0, "name": "d8526df6d44644108c3c3f4595e1a70e", "lon": -77.03068783333333, "bike_id": "d8526df6d44644108c3c3f4595e1a70e", "lat": 38.90270783333333}, {"fusion_lon": 0.0, "fusion_lat": 0.0, "rental_uris": {"android": "https://dc.lft.to/lastmile_qr_scan", "ios": "https://dc.lft.to/lastmile_qr_scan"}, "is_disabled": 0, "type": "electric_scooter", "is_reserved": 0, "name": "419393dadb7aee4139692cb68aa7e4f3", "lon": -76.93631133333334, "bike_id": "419393dadb7aee4139692cb68aa7e4f3", "lat": 38.883487833333334}, {"fusion_lon": 0.0, "fusion_lat": 0.0, "rental_uris": {"android": "https://dc.lft.to/lastmile_qr_scan", "ios": "https://dc.lft.to/lastmile_qr_scan"}, "is_disabled": 0, "type": "electric_scooter", "is_reserved": 0, "name": "cf78f41ded90ea11023608e1a89d7062", "lon": -77.04998783333333, "bike_id": "cf78f41ded90ea11023608e1a89d7062", "lat": 38.892281}, {"fusion_lon": 0.0, "fusion_lat": 0.0, "rental_uris": {"android": "https://dc.lft.to/lastmile_qr_scan", "ios": "https://dc.lft.to/lastmile_qr_scan"}, "is_disabled": 0, "type": "electric_scooter", "is_reserved": 0, "name": "7aecc08c958d2cc6f2fb57ca68ddaa19", "lon": -77.02389216666667, "bike_id": "7aecc08c958d2cc6f2fb57ca68ddaa19", "lat": 38.90675266666667}, {"fusion_lon": 0.0, "fusion_lat": 0.0, "rental_uris": {"android": "https://dc.lft.to/lastmile_qr_scan", "ios": "https://dc.lft.to/lastmile_qr_scan"}, "is_disabled": 0, "type": "electric_scooter", "is_reserved": 0, "name": "8ebfc32f5cdcb31713af50d5020afdb1", "lon": -77.0218425, "bike_id": "8ebfc32f5cdcb31713af50d5020afdb1", "lat": 38.9057855}, {"fusion_lon": 0.0, "fusion_lat": 0.0, "rental_uris": {"android": "https://dc.lft.to/lastmile_qr_scan", "ios": "https://dc.lft.to/lastmile_qr_scan"}, "is_disabled": 0, "type": "electric_scooter", "is_reserved": 0, "name": "d3d9170903e322fbeac6c2477eae4abe", "lon": -77.02236533333334, "bike_id": "d3d9170903e322fbeac6c2477eae4abe", "lat": 38.894708}, {"fusion_lon": 0.0, "fusion_lat": 0.0, "rental_uris": {"android": "https://dc.lft.to/lastmile_qr_scan", "ios": "https://dc.lft.to/lastmile_qr_scan"}, "is_disabled": 0, "type": "electric_scooter", "is_reserved": 0, "name": "bb18a37deec45bf6e3f9ec57b0ae125e", "lon": -77.02365266666666, "bike_id": "bb18a37deec45bf6e3f9ec57b0ae125e", "lat": 38.89951683333334}, {"fusion_lon": 0.0, "fusion_lat": 0.0, "rental_uris": {"android": "https://dc.lft.to/lastmile_qr_scan", "ios": "https://dc.lft.to/lastmile_qr_scan"}, "is_disabled": 0, "type": "electric_scooter", "is_reserved": 0, "name": "e57b4db58958ebc23a1734797c650c26", "lon": -77.01201116666667, "bike_id": "e57b4db58958ebc23a1734797c650c26", "lat": 38.897791833333336}, {"fusion_lon": 0.0, "fusion_lat": 0.0, "rental_uris": {"android": "https://dc.lft.to/lastmile_qr_scan", "ios": "https://dc.lft.to/lastmile_qr_scan"}, "is_disabled": 0, "type": "electric_scooter", "is_reserved": 0, "name": "8197789a814046fad9a99356488f5fe8", "lon": -77.0383705, "bike_id": "8197789a814046fad9a99356488f5fe8", "lat": 38.91107366666667}, {"fusion_lon": 0.0, "fusion_lat": 0.0, "rental_uris": {"android": "https://dc.lft.to/lastmile_qr_scan", "ios": "https://dc.lft.to/lastmile_qr_scan"}, "is_disabled": 0, "type": "electric_scooter", "is_reserved": 0, "name": "e7d3b91733a45afe10b306b224c1099e", "lon": -77.05700683333333, "bike_id": "e7d3b91733a45afe10b306b224c1099e", "lat": 38.92607183333333}, {"fusion_lon": 0.0, "fusion_lat": 0.0, "rental_uris": {"android": "https://dc.lft.to/lastmile_qr_scan", "ios": "https://dc.lft.to/lastmile_qr_scan"}, "is_disabled": 0, "type": "electric_scooter", "is_reserved": 0, "name": "c4ab7a84d19e5b59f97cd1c238c8936f", "lon": -77.02443816666667, "bike_id": "c4ab7a84d19e5b59f97cd1c238c8936f", "lat": 38.914840166666664}, {"fusion_lon": 0.0, "fusion_lat": 0.0, "rental_uris": {"android": "https://dc.lft.to/lastmile_qr_scan", "ios": "https://dc.lft.to/lastmile_qr_scan"}, "is_disabled": 0, "type": "electric_scooter", "is_reserved": 0, "name": "624a903206ac055c20681266140de890", "lon": -76.99737266666666, "bike_id": "624a903206ac055c20681266140de890", "lat": 38.924063833333335}, {"fusion_lon": 0.0, "fusion_lat": 0.0, "rental_uris": {"android": "https://dc.lft.to/lastmile_qr_scan", "ios": "https://dc.lft.to/lastmile_qr_scan"}, "is_disabled": 0, "type": "electric_scooter", "is_reserved": 0, "name": "d9475a9d5dc0a6482442a53a1ffa60d1", "lon": -77.0377225, "bike_id": "d9475a9d5dc0a6482442a53a1ffa60d1", "lat": 38.916867333333336}, {"fusion_lon": 0.0, "fusion_lat": 0.0, "rental_uris": {"android": "https://dc.lft.to/lastmile_qr_scan", "ios": "https://dc.lft.to/lastmile_qr_scan"}, "is_disabled": 0, "type": "electric_scooter", "is_reserved": 0, "name": "ea4702326cac95c103cd213644832b37", "lon": -77.02844416666667, "bike_id": "ea4702326cac95c103cd213644832b37", "lat": 38.93250416666667}, {"fusion_lon": 0.0, "fusion_lat": 0.0, "rental_uris": {"android": "https://dc.lft.to/lastmile_qr_scan", "ios": "https://dc.lft.to/lastmile_qr_scan"}, "is_disabled": 0, "type": "electric_scooter", "is_reserved": 0, "name": "e5f8f607fe558213dec2d5597b6475f7", "lon": -77.04208816666667, "bike_id": "e5f8f607fe558213dec2d5597b6475f7", "lat": 38.92048466666667}, {"fusion_lon": 0.0, "fusion_lat": 0.0, "rental_uris": {"android": "https://dc.lft.to/lastmile_qr_scan", "ios": "https://dc.lft.to/lastmile_qr_scan"}, "is_disabled": 0, "type": "electric_scooter", "is_reserved": 0, "name": "cce866877a185ad8f95e4ad0b902d035", "lon": -77.0237465, "bike_id": "cce866877a185ad8f95e4ad0b902d035", "lat": 38.90216183333333}, {"fusion_lon": 0.0, "fusion_lat": 0.0, "rental_uris": {"android": "https://dc.lft.to/lastmile_qr_scan", "ios": "https://dc.lft.to/lastmile_qr_scan"}, "is_disabled": 0, "type": "electric_scooter", "is_reserved": 0, "name": "25f92a4436e17d318a0c25ac762ad0cf", "lon": -77.01865983333333, "bike_id": "25f92a4436e17d318a0c25ac762ad0cf", "lat": 38.951502166666664}, {"fusion_lon": 0.0, "fusion_lat": 0.0, "rental_uris": {"android": "https://dc.lft.to/lastmile_qr_scan", "ios": "https://dc.lft.to/lastmile_qr_scan"}, "is_disabled": 0, "type": "electric_scooter", "is_reserved": 0, "name": "831e55b1fe17c242b66d84b861f0c2b3", "lon": -77.04611416666667, "bike_id": "831e55b1fe17c242b66d84b861f0c2b3", "lat": 38.916857}, {"fusion_lon": 0.0, "fusion_lat": 0.0, "rental_uris": {"android": "https://dc.lft.to/lastmile_qr_scan", "ios": "https://dc.lft.to/lastmile_qr_scan"}, "is_disabled": 0, "type": "electric_scooter", "is_reserved": 0, "name": "51d9059bab9d037523aae21e653d8574", "lon": -77.05116083333333, "bike_id": "51d9059bab9d037523aae21e653d8574", "lat": 38.90560383333333}, {"fusion_lon": 0.0, "fusion_lat": 0.0, "rental_uris": {"android": "https://dc.lft.to/lastmile_qr_scan", "ios": "https://dc.lft.to/lastmile_qr_scan"}, "is_disabled": 0, "type": "electric_scooter", "is_reserved": 0, "name": "630a97ed7d174452a202d529e60d7c93", "lon": -77.0574745, "bike_id": "630a97ed7d174452a202d529e60d7c93", "lat": 38.92481883333333}, {"fusion_lon": 0.0, "fusion_lat": 0.0, "rental_uris": {"android": "https://dc.lft.to/lastmile_qr_scan", "ios": "https://dc.lft.to/lastmile_qr_scan"}, "is_disabled": 0, "type": "electric_scooter", "is_reserved": 0, "name": "e34982f2d604f94cb8c366258614b6d6", "lon": -77.0212315, "bike_id": "e34982f2d604f94cb8c366258614b6d6", "lat": 38.93106483333333}, {"fusion_lon": 0.0, "fusion_lat": 0.0, "rental_uris": {"android": "https://dc.lft.to/lastmile_qr_scan", "ios": "https://dc.lft.to/lastmile_qr_scan"}, "is_disabled": 0, "type": "electric_bike", "is_reserved": 0, "name": "25eb5d9b71acc26fe50c4b61c5d3e21f", "lon": -77.0608305, "bike_id": "25eb5d9b71acc26fe50c4b61c5d3e21f", "lat": 38.80438}, {"fusion_lon": 0.0, "fusion_lat": 0.0, "rental_uris": {"android": "https://dc.lft.to/lastmile_qr_scan", "ios": "https://dc.lft.to/lastmile_qr_scan"}, "is_disabled": 0, "type": "electric_scooter", "is_reserved": 0, "name": "99c8ef1733d69e00c219ea7dcdb792f5", "lon": -77.05519116666666, "bike_id": "99c8ef1733d69e00c219ea7dcdb792f5", "lat": 38.897299}, {"fusion_lon": 0.0, "fusion_lat": 0.0, "rental_uris": {"android": "https://dc.lft.to/lastmile_qr_scan", "ios": "https://dc.lft.to/lastmile_qr_scan"}, "is_disabled": 0, "type": "electric_bike", "is_reserved": 0, "name": "de7f04fd9df3f1122e916e279fc01851", "lon": -76.9931385, "bike_id": "de7f04fd9df3f1122e916e279fc01851", "lat": 38.9463205}, {"fusion_lon": 0.0, "fusion_lat": 0.0, "rental_uris": {"android": "https://dc.lft.to/lastmile_qr_scan", "ios": "https://dc.lft.to/lastmile_qr_scan"}, "is_disabled": 0, "type": "electric_scooter", "is_reserved": 0, "name": "bd660f6c204e29f6feec5eb0d28c404b", "lon": -77.019542, "bike_id": "bd660f6c204e29f6feec5eb0d28c404b", "lat": 38.923653333333334}, {"fusion_lon": 0.0, "fusion_lat": 0.0, "rental_uris": {"android": "https://dc.lft.to/lastmile_qr_scan", "ios": "https://dc.lft.to/lastmile_qr_scan"}, "is_disabled": 0, "type": "electric_scooter", "is_reserved": 0, "name": "fb55734bae933aec496cd0c1296a8547", "lon": -77.04495983333334, "bike_id": "fb55734bae933aec496cd0c1296a8547", "lat": 38.89253033333333}, {"fusion_lon": 0.0, "fusion_lat": 0.0, "rental_uris": {"android": "https://dc.lft.to/lastmile_qr_scan", "ios": "https://dc.lft.to/lastmile_qr_scan"}, "is_disabled": 0, "type": "electric_scooter", "is_reserved": 0, "name": "9e1f7328a843409e5874b7833bd430b7", "lon": -77.04191533333334, "bike_id": "9e1f7328a843409e5874b7833bd430b7", "lat": 38.92046366666667}, {"fusion_lon": 0.0, "fusion_lat": 0.0, "rental_uris": {"android": "https://dc.lft.to/lastmile_qr_scan", "ios": "https://dc.lft.to/lastmile_qr_scan"}, "is_disabled": 0, "type": "electric_scooter", "is_reserved": 0, "name": "7899f92aa3459db5b36efe8135ffd556", "lon": -77.02133983333333, "bike_id": "7899f92aa3459db5b36efe8135ffd556", "lat": 38.9233835}, {"fusion_lon": 0.0, "fusion_lat": 0.0, "rental_uris": {"android": "https://dc.lft.to/lastmile_qr_scan", "ios": "https://dc.lft.to/lastmile_qr_scan"}, "is_disabled": 0, "type": "electric_scooter", "is_reserved": 0, "name": "da15643161fdb6d4baf99b4257e4adbb", "lon": -77.00982866666666, "bike_id": "da15643161fdb6d4baf99b4257e4adbb", "lat": 38.8728775}, {"fusion_lon": 0.0, "fusion_lat": 0.0, "rental_uris": {"android": "https://dc.lft.to/lastmile_qr_scan", "ios": "https://dc.lft.to/lastmile_qr_scan"}, "is_disabled": 0, "type": "electric_scooter", "is_reserved": 0, "name": "6895dc91b650a58d4ae0d3991a01b956", "lon": -77.02983666666667, "bike_id": "6895dc91b650a58d4ae0d3991a01b956", "lat": 38.92446183333333}, {"fusion_lon": 0.0, "fusion_lat": 0.0, "rental_uris": {"android": "https://dc.lft.to/lastmile_qr_scan", "ios": "https://dc.lft.to/lastmile_qr_scan"}, "is_disabled": 0, "type": "electric_scooter", "is_reserved": 0, "name": "b74fdc691374cd8fc03bbef0e5ad99de", "lon": -77.02618033333333, "bike_id": "b74fdc691374cd8fc03bbef0e5ad99de", "lat": 38.89975233333333}, {"fusion_lon": 0.0, "fusion_lat": 0.0, "rental_uris": {"android": "https://dc.lft.to/lastmile_qr_scan", "ios": "https://dc.lft.to/lastmile_qr_scan"}, "is_disabled": 0, "type": "electric_scooter", "is_reserved": 0, "name": "aafc2b61cc27ed7be7c7f8ba18d073f5", "lon": -77.0216135, "bike_id": "aafc2b61cc27ed7be7c7f8ba18d073f5", "lat": 38.926126333333336}, {"fusion_lon": 0.0, "fusion_lat": 0.0, "rental_uris": {"android": "https://dc.lft.to/lastmile_qr_scan", "ios": "https://dc.lft.to/lastmile_qr_scan"}, "is_disabled": 0, "type": "electric_scooter", "is_reserved": 0, "name": "393d0bb8dc49733544c18091ef20e546", "lon": -76.944616, "bike_id": "393d0bb8dc49733544c18091ef20e546", "lat": 38.890255}, {"fusion_lon": 0.0, "fusion_lat": 0.0, "rental_uris": {"android": "https://dc.lft.to/lastmile_qr_scan", "ios": "https://dc.lft.to/lastmile_qr_scan"}, "is_disabled": 0, "type": "electric_scooter", "is_reserved": 0, "name": "c6399f720f6ee41dce3c5d98f601e4ad", "lon": -77.02000033333333, "bike_id": "c6399f720f6ee41dce3c5d98f601e4ad", "lat": 38.89470766666667}, {"fusion_lon": 0.0, "fusion_lat": 0.0, "rental_uris": {"android": "https://dc.lft.to/lastmile_qr_scan", "ios": "https://dc.lft.to/lastmile_qr_scan"}, "is_disabled": 0, "type": "electric_scooter", "is_reserved": 0, "name": "2723bc07ddd18386eb242f400dbb43a6", "lon": -77.027088, "bike_id": "2723bc07ddd18386eb242f400dbb43a6", "lat": 38.91685716666667}, {"fusion_lon": 0.0, "fusion_lat": 0.0, "rental_uris": {"android": "https://dc.lft.to/lastmile_qr_scan", "ios": "https://dc.lft.to/lastmile_qr_scan"}, "is_disabled": 0, "type": "electric_scooter", "is_reserved": 0, "name": "a11b2c9d0a756951f003c9fc334a74f2", "lon": -77.04253683333333, "bike_id": "a11b2c9d0a756951f003c9fc334a74f2", "lat": 38.92206816666667}, {"fusion_lon": 0.0, "fusion_lat": 0.0, "rental_uris": {"android": "https://dc.lft.to/lastmile_qr_scan", "ios": "https://dc.lft.to/lastmile_qr_scan"}, "is_disabled": 0, "type": "electric_scooter", "is_reserved": 0, "name": "64d3b12603cf8e779d681f3071543bb5", "lon": -77.04806583333334, "bike_id": "64d3b12603cf8e779d681f3071543bb5", "lat": 38.901975166666666}, {"fusion_lon": 0.0, "fusion_lat": 0.0, "rental_uris": {"android": "https://dc.lft.to/lastmile_qr_scan", "ios": "https://dc.lft.to/lastmile_qr_scan"}, "is_disabled": 0, "type": "electric_scooter", "is_reserved": 0, "name": "c1a20ad9d6e7b4dd687a16721cba553d", "lon": -77.01872516666667, "bike_id": "c1a20ad9d6e7b4dd687a16721cba553d", "lat": 38.93202933333333}, {"fusion_lon": 0.0, "fusion_lat": 0.0, "rental_uris": {"android": "https://dc.lft.to/lastmile_qr_scan", "ios": "https://dc.lft.to/lastmile_qr_scan"}, "is_disabled": 0, "type": "electric_bike", "is_reserved": 0, "name": "f109c179a2eab80a2f8fd956d1be6c83", "lon": -77.00202816666666, "bike_id": "f109c179a2eab80a2f8fd956d1be6c83", "lat": 38.819397}, {"fusion_lon": 0.0, "fusion_lat": 0.0, "rental_uris": {"android": "https://dc.lft.to/lastmile_qr_scan", "ios": "https://dc.lft.to/lastmile_qr_scan"}, "is_disabled": 0, "type": "electric_scooter", "is_reserved": 0, "name": "0f5911d6f62d18c834308fe2aa245bbb", "lon": -76.93593616666666, "bike_id": "0f5911d6f62d18c834308fe2aa245bbb", "lat": 38.909406}, {"fusion_lon": 0.0, "fusion_lat": 0.0, "rental_uris": {"android": "https://dc.lft.to/lastmile_qr_scan", "ios": "https://dc.lft.to/lastmile_qr_scan"}, "is_disabled": 0, "type": "electric_scooter", "is_reserved": 0, "name": "2adadc9bd4ad160904341ee28123c47a", "lon": -77.04620183333333, "bike_id": "2adadc9bd4ad160904341ee28123c47a", "lat": 38.91528116666667}, {"fusion_lon": 0.0, "fusion_lat": 0.0, "rental_uris": {"android": "https://dc.lft.to/lastmile_qr_scan", "ios": "https://dc.lft.to/lastmile_qr_scan"}, "is_disabled": 0, "type": "electric_bike", "is_reserved": 0, "name": "6cc70ebd413a4b8d80e953708873f811", "lon": -77.01296933333333, "bike_id": "6cc70ebd413a4b8d80e953708873f811", "lat": 38.88136166666666}, {"fusion_lon": 0.0, "fusion_lat": 0.0, "rental_uris": {"android": "https://dc.lft.to/lastmile_qr_scan", "ios": "https://dc.lft.to/lastmile_qr_scan"}, "is_disabled": 0, "type": "electric_scooter", "is_reserved": 0, "name": "2b4ff9b2f020518a22ac7056e7b92256", "lon": -77.04078033333333, "bike_id": "2b4ff9b2f020518a22ac7056e7b92256", "lat": 38.9050865}, {"fusion_lon": 0.0, "fusion_lat": 0.0, "rental_uris": {"android": "https://dc.lft.to/lastmile_qr_scan", "ios": "https://dc.lft.to/lastmile_qr_scan"}, "is_disabled": 0, "type": "electric_scooter", "is_reserved": 0, "name": "18ad0fa5667de1d8eaf5351c406061bd", "lon": -77.02111966666666, "bike_id": "18ad0fa5667de1d8eaf5351c406061bd", "lat": 38.92911816666667}, {"fusion_lon": 0.0, "fusion_lat": 0.0, "rental_uris": {"android": "https://dc.lft.to/lastmile_qr_scan", "ios": "https://dc.lft.to/lastmile_qr_scan"}, "is_disabled": 0, "type": "electric_scooter", "is_reserved": 0, "name": "5ee7066b7405807a3df12d7d3882e5ee", "lon": -77.06359133333333, "bike_id": "5ee7066b7405807a3df12d7d3882e5ee", "lat": 38.90809483333334}, {"fusion_lon": 0.0, "fusion_lat": 0.0, "rental_uris": {"android": "https://dc.lft.to/lastmile_qr_scan", "ios": "https://dc.lft.to/lastmile_qr_scan"}, "is_disabled": 0, "type": "electric_scooter", "is_reserved": 0, "name": "338d144f5ba1c2f609249eddb5a2e04c", "lon": -77.02495383333333, "bike_id": "338d144f5ba1c2f609249eddb5a2e04c", "lat": 38.917857833333336}, {"fusion_lon": 0.0, "fusion_lat": 0.0, "rental_uris": {"android": "https://dc.lft.to/lastmile_qr_scan", "ios": "https://dc.lft.to/lastmile_qr_scan"}, "is_disabled": 0, "type": "electric_scooter", "is_reserved": 0, "name": "6dea0abef080faaa61869287cb434376", "lon": -77.050764, "bike_id": "6dea0abef080faaa61869287cb434376", "lat": 38.900631833333335}, {"fusion_lon": 0.0, "fusion_lat": 0.0, "rental_uris": {"android": "https://dc.lft.to/lastmile_qr_scan", "ios": "https://dc.lft.to/lastmile_qr_scan"}, "is_disabled": 0, "type": "electric_scooter", "is_reserved": 0, "name": "62162ea744847922d587d2f24dd6f09c", "lon": -77.0269825, "bike_id": "62162ea744847922d587d2f24dd6f09c", "lat": 38.91352466666667}, {"fusion_lon": 0.0, "fusion_lat": 0.0, "rental_uris": {"android": "https://dc.lft.to/lastmile_qr_scan", "ios": "https://dc.lft.to/lastmile_qr_scan"}, "is_disabled": 0, "type": "electric_scooter", "is_reserved": 0, "name": "02720d3b72e5a9417c88d229472f0c03", "lon": -77.03459083333334, "bike_id": "02720d3b72e5a9417c88d229472f0c03", "lat": 38.909506666666665}, {"fusion_lon": 0.0, "fusion_lat": 0.0, "rental_uris": {"android": "https://dc.lft.to/lastmile_qr_scan", "ios": "https://dc.lft.to/lastmile_qr_scan"}, "is_disabled": 0, "type": "electric_scooter", "is_reserved": 0, "name": "7346947c641ca5c6e9daad824643dbec", "lon": -77.039814, "bike_id": "7346947c641ca5c6e9daad824643dbec", "lat": 38.90609033333333}, {"fusion_lon": 0.0, "fusion_lat": 0.0, "rental_uris": {"android": "https://dc.lft.to/lastmile_qr_scan", "ios": "https://dc.lft.to/lastmile_qr_scan"}, "is_disabled": 0, "type": "electric_bike", "is_reserved": 0, "name": "fb66baf91b9481145a925ec900c31ddf", "lon": -76.9513395, "bike_id": "fb66baf91b9481145a925ec900c31ddf", "lat": 39.0842545}, {"fusion_lon": 0.0, "fusion_lat": 0.0, "rental_uris": {"android": "https://dc.lft.to/lastmile_qr_scan", "ios": "https://dc.lft.to/lastmile_qr_scan"}, "is_disabled": 0, "type": "electric_scooter", "is_reserved": 0, "name": "4f22766e84b33c678da619e85de02a12", "lon": -77.04290633333333, "bike_id": "4f22766e84b33c678da619e85de02a12", "lat": 38.922601}, {"fusion_lon": 0.0, "fusion_lat": 0.0, "rental_uris": {"android": "https://dc.lft.to/lastmile_qr_scan", "ios": "https://dc.lft.to/lastmile_qr_scan"}, "is_disabled": 0, "type": "electric_scooter", "is_reserved": 0, "name": "2b97c23082b69f3fe3ebdee51e5be0a3", "lon": -77.04490033333333, "bike_id": "2b97c23082b69f3fe3ebdee51e5be0a3", "lat": 38.9196695}, {"fusion_lon": 0.0, "fusion_lat": 0.0, "rental_uris": {"android": "https://dc.lft.to/lastmile_qr_scan", "ios": "https://dc.lft.to/lastmile_qr_scan"}, "is_disabled": 0, "type": "electric_scooter", "is_reserved": 0, "name": "d0c623a8fe9b814535064646d75ab0ea", "lon": -77.03688666666666, "bike_id": "d0c623a8fe9b814535064646d75ab0ea", "lat": 38.91825633333333}, {"fusion_lon": 0.0, "fusion_lat": 0.0, "rental_uris": {"android": "https://dc.lft.to/lastmile_qr_scan", "ios": "https://dc.lft.to/lastmile_qr_scan"}, "is_disabled": 0, "type": "electric_scooter", "is_reserved": 0, "name": "b83da2f61b733487aa18f2886e97e139", "lon": -77.0368965, "bike_id": "b83da2f61b733487aa18f2886e97e139", "lat": 38.91820466666667}, {"fusion_lon": 0.0, "fusion_lat": 0.0, "rental_uris": {"android": "https://dc.lft.to/lastmile_qr_scan", "ios": "https://dc.lft.to/lastmile_qr_scan"}, "is_disabled": 0, "type": "electric_scooter", "is_reserved": 0, "name": "aa12644d87248148e04f83777a989cdb", "lon": -77.03165383333334, "bike_id": "aa12644d87248148e04f83777a989cdb", "lat": 38.892236833333335}, {"fusion_lon": 0.0, "fusion_lat": 0.0, "rental_uris": {"android": "https://dc.lft.to/lastmile_qr_scan", "ios": "https://dc.lft.to/lastmile_qr_scan"}, "is_disabled": 0, "type": "electric_scooter", "is_reserved": 0, "name": "aa79fd94b5b163572ce0be91e77e69c8", "lon": -77.043948, "bike_id": "aa79fd94b5b163572ce0be91e77e69c8", "lat": 38.923513}, {"fusion_lon": 0.0, "fusion_lat": 0.0, "rental_uris": {"android": "https://dc.lft.to/lastmile_qr_scan", "ios": "https://dc.lft.to/lastmile_qr_scan"}, "is_disabled": 0, "type": "electric_scooter", "is_reserved": 0, "name": "78edcf255ff0304dd375c49998261050", "lon": -77.03288833333333, "bike_id": "78edcf255ff0304dd375c49998261050", "lat": 38.94608733333333}, {"fusion_lon": 0.0, "fusion_lat": 0.0, "rental_uris": {"android": "https://dc.lft.to/lastmile_qr_scan", "ios": "https://dc.lft.to/lastmile_qr_scan"}, "is_disabled": 0, "type": "electric_scooter", "is_reserved": 0, "name": "8850bbfdf2c2723a78d70b1507d53881", "lon": -77.05740716666666, "bike_id": "8850bbfdf2c2723a78d70b1507d53881", "lat": 38.9339795}, {"fusion_lon": 0.0, "fusion_lat": 0.0, "rental_uris": {"android": "https://dc.lft.to/lastmile_qr_scan", "ios": "https://dc.lft.to/lastmile_qr_scan"}, "is_disabled": 0, "type": "electric_bike", "is_reserved": 0, "name": "1576d37f944100b9cbd9976c68094192", "lon": -77.050947, "bike_id": "1576d37f944100b9cbd9976c68094192", "lat": 38.813279333333334}, {"fusion_lon": 0.0, "fusion_lat": 0.0, "rental_uris": {"android": "https://dc.lft.to/lastmile_qr_scan", "ios": "https://dc.lft.to/lastmile_qr_scan"}, "is_disabled": 0, "type": "electric_bike", "is_reserved": 0, "name": "7431ee72da5055e7c32da4cc0e400af7", "lon": -77.22943216666667, "bike_id": "7431ee72da5055e7c32da4cc0e400af7", "lat": 38.92799266666667}, {"fusion_lon": 0.0, "fusion_lat": 0.0, "rental_uris": {"android": "https://dc.lft.to/lastmile_qr_scan", "ios": "https://dc.lft.to/lastmile_qr_scan"}, "is_disabled": 0, "type": "electric_scooter", "is_reserved": 0, "name": "39834a3161241cf3479b5ef847b46ae8", "lon": -77.03711683333333, "bike_id": "39834a3161241cf3479b5ef847b46ae8", "lat": 38.90029416666667}, {"fusion_lon": 0.0, "fusion_lat": 0.0, "rental_uris": {"android": "https://dc.lft.to/lastmile_qr_scan", "ios": "https://dc.lft.to/lastmile_qr_scan"}, "is_disabled": 0, "type": "electric_scooter", "is_reserved": 0, "name": "b60474fac543edfed8871587d9e194cb", "lon": -77.01821466666667, "bike_id": "b60474fac543edfed8871587d9e194cb", "lat": 38.922735333333335}, {"fusion_lon": 0.0, "fusion_lat": 0.0, "rental_uris": {"android": "https://dc.lft.to/lastmile_qr_scan", "ios": "https://dc.lft.to/lastmile_qr_scan"}, "is_disabled": 0, "type": "electric_scooter", "is_reserved": 0, "name": "27c579ee83c68389a7dc1f9ab4f42c72", "lon": -77.03974033333333, "bike_id": "27c579ee83c68389a7dc1f9ab4f42c72", "lat": 38.9156195}, {"fusion_lon": 0.0, "fusion_lat": 0.0, "rental_uris": {"android": "https://dc.lft.to/lastmile_qr_scan", "ios": "https://dc.lft.to/lastmile_qr_scan"}, "is_disabled": 0, "type": "electric_scooter", "is_reserved": 0, "name": "8a56a23211a86423be3d7cd5a45c59d7", "lon": -77.0259795, "bike_id": "8a56a23211a86423be3d7cd5a45c59d7", "lat": 38.918819666666664}, {"fusion_lon": 0.0, "fusion_lat": 0.0, "rental_uris": {"android": "https://dc.lft.to/lastmile_qr_scan", "ios": "https://dc.lft.to/lastmile_qr_scan"}, "is_disabled": 0, "type": "electric_scooter", "is_reserved": 0, "name": "e492694dd8071a6659fbd753703d3242", "lon": -77.03882083333333, "bike_id": "e492694dd8071a6659fbd753703d3242", "lat": 38.920796}, {"fusion_lon": 0.0, "fusion_lat": 0.0, "rental_uris": {"android": "https://dc.lft.to/lastmile_qr_scan", "ios": "https://dc.lft.to/lastmile_qr_scan"}, "is_disabled": 0, "type": "electric_scooter", "is_reserved": 0, "name": "e9e999063c7b8f177f1578f3fa050892", "lon": -77.049671, "bike_id": "e9e999063c7b8f177f1578f3fa050892", "lat": 38.89792716666667}, {"fusion_lon": 0.0, "fusion_lat": 0.0, "rental_uris": {"android": "https://dc.lft.to/lastmile_qr_scan", "ios": "https://dc.lft.to/lastmile_qr_scan"}, "is_disabled": 0, "type": "electric_scooter", "is_reserved": 0, "name": "f170d61c25bfb7eae5864dd6715e3c3e", "lon": -77.01849383333334, "bike_id": "f170d61c25bfb7eae5864dd6715e3c3e", "lat": 38.973709666666664}, {"fusion_lon": 0.0, "fusion_lat": 0.0, "rental_uris": {"android": "https://dc.lft.to/lastmile_qr_scan", "ios": "https://dc.lft.to/lastmile_qr_scan"}, "is_disabled": 0, "type": "electric_scooter", "is_reserved": 0, "name": "13a17ca51749c7a29f4d8716ce16eb1b", "lon": -77.06000433333334, "bike_id": "13a17ca51749c7a29f4d8716ce16eb1b", "lat": 38.92711666666667}, {"fusion_lon": 0.0, "fusion_lat": 0.0, "rental_uris": {"android": "https://dc.lft.to/lastmile_qr_scan", "ios": "https://dc.lft.to/lastmile_qr_scan"}, "is_disabled": 0, "type": "electric_scooter", "is_reserved": 0, "name": "9d5740f4657087b375425c361176c30e", "lon": -77.037783, "bike_id": "9d5740f4657087b375425c361176c30e", "lat": 38.92790683333333}, {"fusion_lon": 0.0, "fusion_lat": 0.0, "rental_uris": {"android": "https://dc.lft.to/lastmile_qr_scan", "ios": "https://dc.lft.to/lastmile_qr_scan"}, "is_disabled": 0, "type": "electric_scooter", "is_reserved": 0, "name": "459de755d670a55252ecb92160249672", "lon": -77.03374816666667, "bike_id": "459de755d670a55252ecb92160249672", "lat": 38.92239633333333}, {"fusion_lon": 0.0, "fusion_lat": 0.0, "rental_uris": {"android": "https://dc.lft.to/lastmile_qr_scan", "ios": "https://dc.lft.to/lastmile_qr_scan"}, "is_disabled": 0, "type": "electric_scooter", "is_reserved": 0, "name": "4745bc3293a2be65eb6f8e2088c49a51", "lon": -76.92931333333334, "bike_id": "4745bc3293a2be65eb6f8e2088c49a51", "lat": 38.90100433333333}, {"fusion_lon": 0.0, "fusion_lat": 0.0, "rental_uris": {"android": "https://dc.lft.to/lastmile_qr_scan", "ios": "https://dc.lft.to/lastmile_qr_scan"}, "is_disabled": 0, "type": "electric_scooter", "is_reserved": 0, "name": "315900a5bb49ae351b3344cdcfbb3dc6", "lon": -77.0089045, "bike_id": "315900a5bb49ae351b3344cdcfbb3dc6", "lat": 38.923262666666666}, {"fusion_lon": 0.0, "fusion_lat": 0.0, "rental_uris": {"android": "https://dc.lft.to/lastmile_qr_scan", "ios": "https://dc.lft.to/lastmile_qr_scan"}, "is_disabled": 0, "type": "electric_scooter", "is_reserved": 0, "name": "790b9660787c08980272f6812f87e89d", "lon": -77.05025016666667, "bike_id": "790b9660787c08980272f6812f87e89d", "lat": 38.896980166666665}, {"fusion_lon": 0.0, "fusion_lat": 0.0, "rental_uris": {"android": "https://dc.lft.to/lastmile_qr_scan", "ios": "https://dc.lft.to/lastmile_qr_scan"}, "is_disabled": 0, "type": "electric_scooter", "is_reserved": 0, "name": "cd7850eb18965587058b1428e381bafb", "lon": -77.0033195, "bike_id": "cd7850eb18965587058b1428e381bafb", "lat": 38.89360583333333}, {"fusion_lon": 0.0, "fusion_lat": 0.0, "rental_uris": {"android": "https://dc.lft.to/lastmile_qr_scan", "ios": "https://dc.lft.to/lastmile_qr_scan"}, "is_disabled": 0, "type": "electric_scooter", "is_reserved": 0, "name": "1ed8a13e7e6b30e073b8f1434ca2b281", "lon": -77.02131133333333, "bike_id": "1ed8a13e7e6b30e073b8f1434ca2b281", "lat": 38.902195666666664}, {"fusion_lon": 0.0, "fusion_lat": 0.0, "rental_uris": {"android": "https://dc.lft.to/lastmile_qr_scan", "ios": "https://dc.lft.to/lastmile_qr_scan"}, "is_disabled": 0, "type": "electric_scooter", "is_reserved": 0, "name": "afbca06fc9c0d831b20b46dd3c692f45", "lon": -77.04497766666667, "bike_id": "afbca06fc9c0d831b20b46dd3c692f45", "lat": 38.899393833333335}, {"fusion_lon": 0.0, "fusion_lat": 0.0, "rental_uris": {"android": "https://dc.lft.to/lastmile_qr_scan", "ios": "https://dc.lft.to/lastmile_qr_scan"}, "is_disabled": 0, "type": "electric_scooter", "is_reserved": 0, "name": "5a2425d89d154c5c91dbca95b213c9f2", "lon": -77.00226366666666, "bike_id": "5a2425d89d154c5c91dbca95b213c9f2", "lat": 38.88227916666666}, {"fusion_lon": 0.0, "fusion_lat": 0.0, "rental_uris": {"android": "https://dc.lft.to/lastmile_qr_scan", "ios": "https://dc.lft.to/lastmile_qr_scan"}, "is_disabled": 0, "type": "electric_scooter", "is_reserved": 0, "name": "e47c508575cf6845128b0bcc00f8e904", "lon": -77.01848366666667, "bike_id": "e47c508575cf6845128b0bcc00f8e904", "lat": 38.90971283333333}, {"fusion_lon": 0.0, "fusion_lat": 0.0, "rental_uris": {"android": "https://dc.lft.to/lastmile_qr_scan", "ios": "https://dc.lft.to/lastmile_qr_scan"}, "is_disabled": 0, "type": "electric_scooter", "is_reserved": 0, "name": "71d1033427ec5e145c2e198f1f1f6dd1", "lon": -76.99641166666666, "bike_id": "71d1033427ec5e145c2e198f1f1f6dd1", "lat": 38.90018466666667}, {"fusion_lon": 0.0, "fusion_lat": 0.0, "rental_uris": {"android": "https://dc.lft.to/lastmile_qr_scan", "ios": "https://dc.lft.to/lastmile_qr_scan"}, "is_disabled": 0, "type": "electric_scooter", "is_reserved": 0, "name": "35fbaf34e598376087e8b30afb3cc827", "lon": -77.064, "bike_id": "35fbaf34e598376087e8b30afb3cc827", "lat": 38.91347733333333}, {"fusion_lon": 0.0, "fusion_lat": 0.0, "rental_uris": {"android": "https://dc.lft.to/lastmile_qr_scan", "ios": "https://dc.lft.to/lastmile_qr_scan"}, "is_disabled": 0, "type": "electric_scooter", "is_reserved": 0, "name": "46d047350a2d9afe125718721fa9334d", "lon": -77.03383033333333, "bike_id": "46d047350a2d9afe125718721fa9334d", "lat": 38.92463883333333}, {"fusion_lon": 0.0, "fusion_lat": 0.0, "rental_uris": {"android": "https://dc.lft.to/lastmile_qr_scan", "ios": "https://dc.lft.to/lastmile_qr_scan"}, "is_disabled": 0, "type": "electric_scooter", "is_reserved": 0, "name": "6031ed432c4881ffa083dad136751c65", "lon": -77.01998983333333, "bike_id": "6031ed432c4881ffa083dad136751c65", "lat": 38.8855335}, {"fusion_lon": 0.0, "fusion_lat": 0.0, "rental_uris": {"android": "https://dc.lft.to/lastmile_qr_scan", "ios": "https://dc.lft.to/lastmile_qr_scan"}, "is_disabled": 0, "type": "electric_scooter", "is_reserved": 0, "name": "ae00c9976284c520f09c1adaab935e75", "lon": -77.021832, "bike_id": "ae00c9976284c520f09c1adaab935e75", "lat": 38.9007585}, {"fusion_lon": 0.0, "fusion_lat": 0.0, "rental_uris": {"android": "https://dc.lft.to/lastmile_qr_scan", "ios": "https://dc.lft.to/lastmile_qr_scan"}, "is_disabled": 0, "type": "electric_bike", "is_reserved": 0, "name": "89423a4e6f4360ab9f473394d267a41a", "lon": -76.91804233333333, "bike_id": "89423a4e6f4360ab9f473394d267a41a", "lat": 38.99998133333333}, {"fusion_lon": 0.0, "fusion_lat": 0.0, "rental_uris": {"android": "https://dc.lft.to/lastmile_qr_scan", "ios": "https://dc.lft.to/lastmile_qr_scan"}, "is_disabled": 0, "type": "electric_scooter", "is_reserved": 0, "name": "32e890f1f1000d941f6f5051ecc3461e", "lon": -76.991167, "bike_id": "32e890f1f1000d941f6f5051ecc3461e", "lat": 38.900262833333336}, {"fusion_lon": 0.0, "fusion_lat": 0.0, "rental_uris": {"android": "https://dc.lft.to/lastmile_qr_scan", "ios": "https://dc.lft.to/lastmile_qr_scan"}, "is_disabled": 0, "type": "electric_scooter", "is_reserved": 0, "name": "98c12cbad0ca6ead936c0a7a7699884b", "lon": -77.06597166666667, "bike_id": "98c12cbad0ca6ead936c0a7a7699884b", "lat": 38.9121855}, {"fusion_lon": 0.0, "fusion_lat": 0.0, "rental_uris": {"android": "https://dc.lft.to/lastmile_qr_scan", "ios": "https://dc.lft.to/lastmile_qr_scan"}, "is_disabled": 0, "type": "electric_scooter", "is_reserved": 0, "name": "5c4a8155bb9eed3ddcfc6a6e8bd7bbee", "lon": -77.02896633333333, "bike_id": "5c4a8155bb9eed3ddcfc6a6e8bd7bbee", "lat": 38.916795666666665}, {"fusion_lon": 0.0, "fusion_lat": 0.0, "rental_uris": {"android": "https://dc.lft.to/lastmile_qr_scan", "ios": "https://dc.lft.to/lastmile_qr_scan"}, "is_disabled": 0, "type": "electric_scooter", "is_reserved": 0, "name": "003109a4c698a0077ef2cb74c7a0db30", "lon": -77.06711716666666, "bike_id": "003109a4c698a0077ef2cb74c7a0db30", "lat": 38.914126333333336}, {"fusion_lon": 0.0, "fusion_lat": 0.0, "rental_uris": {"android": "https://dc.lft.to/lastmile_qr_scan", "ios": "https://dc.lft.to/lastmile_qr_scan"}, "is_disabled": 0, "type": "electric_scooter", "is_reserved": 0, "name": "03abf9da6449e13fc84e2629c0c4f167", "lon": -77.0057645, "bike_id": "03abf9da6449e13fc84e2629c0c4f167", "lat": 38.872114833333335}, {"fusion_lon": 0.0, "fusion_lat": 0.0, "rental_uris": {"android": "https://dc.lft.to/lastmile_qr_scan", "ios": "https://dc.lft.to/lastmile_qr_scan"}, "is_disabled": 0, "type": "electric_scooter", "is_reserved": 0, "name": "263b2e18848f4402254ba2b66929e9a4", "lon": -77.04998416666666, "bike_id": "263b2e18848f4402254ba2b66929e9a4", "lat": 38.8923}, {"fusion_lon": 0.0, "fusion_lat": 0.0, "rental_uris": {"android": "https://dc.lft.to/lastmile_qr_scan", "ios": "https://dc.lft.to/lastmile_qr_scan"}, "is_disabled": 0, "type": "electric_scooter", "is_reserved": 0, "name": "ac57b0af0ea295e4a5d4356b5e447281", "lon": -77.0031425, "bike_id": "ac57b0af0ea295e4a5d4356b5e447281", "lat": 38.876437333333335}, {"fusion_lon": 0.0, "fusion_lat": 0.0, "rental_uris": {"android": "https://dc.lft.to/lastmile_qr_scan", "ios": "https://dc.lft.to/lastmile_qr_scan"}, "is_disabled": 0, "type": "electric_scooter", "is_reserved": 0, "name": "55224afcc7fafd770539cc4db2f91df9", "lon": -77.03029366666667, "bike_id": "55224afcc7fafd770539cc4db2f91df9", "lat": 38.90258933333333}, {"fusion_lon": 0.0, "fusion_lat": 0.0, "rental_uris": {"android": "https://dc.lft.to/lastmile_qr_scan", "ios": "https://dc.lft.to/lastmile_qr_scan"}, "is_disabled": 0, "type": "electric_scooter", "is_reserved": 0, "name": "52ac972df1acc320041e801392a716f9", "lon": -77.07468166666666, "bike_id": "52ac972df1acc320041e801392a716f9", "lat": 38.935548}, {"fusion_lon": 0.0, "fusion_lat": 0.0, "rental_uris": {"android": "https://dc.lft.to/lastmile_qr_scan", "ios": "https://dc.lft.to/lastmile_qr_scan"}, "is_disabled": 0, "type": "electric_scooter", "is_reserved": 0, "name": "cb276276840c7a7648647c499ff231ca", "lon": -77.03549866666667, "bike_id": "cb276276840c7a7648647c499ff231ca", "lat": 38.9047805}, {"fusion_lon": 0.0, "fusion_lat": 0.0, "rental_uris": {"android": "https://dc.lft.to/lastmile_qr_scan", "ios": "https://dc.lft.to/lastmile_qr_scan"}, "is_disabled": 0, "type": "electric_scooter", "is_reserved": 0, "name": "3c4c306385fac9ba6c87db5522ef176c", "lon": -77.01215533333334, "bike_id": "3c4c306385fac9ba6c87db5522ef176c", "lat": 38.89686533333333}, {"fusion_lon": 0.0, "fusion_lat": 0.0, "rental_uris": {"android": "https://dc.lft.to/lastmile_qr_scan", "ios": "https://dc.lft.to/lastmile_qr_scan"}, "is_disabled": 0, "type": "electric_scooter", "is_reserved": 0, "name": "6c2d83bea061f6d3cf5333e245d49096", "lon": -77.02544816666666, "bike_id": "6c2d83bea061f6d3cf5333e245d49096", "lat": 38.924773333333334}, {"fusion_lon": 0.0, "fusion_lat": 0.0, "rental_uris": {"android": "https://dc.lft.to/lastmile_qr_scan", "ios": "https://dc.lft.to/lastmile_qr_scan"}, "is_disabled": 0, "type": "electric_scooter", "is_reserved": 0, "name": "270ae12c48e74f8d6a8f2466d803e22e", "lon": -77.0152185, "bike_id": "270ae12c48e74f8d6a8f2466d803e22e", "lat": 38.87283583333333}, {"fusion_lon": 0.0, "fusion_lat": 0.0, "rental_uris": {"android": "https://dc.lft.to/lastmile_qr_scan", "ios": "https://dc.lft.to/lastmile_qr_scan"}, "is_disabled": 0, "type": "electric_scooter", "is_reserved": 0, "name": "d5d16f2e48942565ec97e9b51d830b14", "lon": -77.02281033333334, "bike_id": "d5d16f2e48942565ec97e9b51d830b14", "lat": 38.91662783333334}, {"fusion_lon": 0.0, "fusion_lat": 0.0, "rental_uris": {"android": "https://dc.lft.to/lastmile_qr_scan", "ios": "https://dc.lft.to/lastmile_qr_scan"}, "is_disabled": 0, "type": "electric_bike", "is_reserved": 0, "name": "f7997a1bf1198d86aeb013533f427625", "lon": -77.09403816666666, "bike_id": "f7997a1bf1198d86aeb013533f427625", "lat": 38.97810033333333}, {"fusion_lon": 0.0, "fusion_lat": 0.0, "rental_uris": {"android": "https://dc.lft.to/lastmile_qr_scan", "ios": "https://dc.lft.to/lastmile_qr_scan"}, "is_disabled": 0, "type": "electric_scooter", "is_reserved": 0, "name": "1f725be2ac0f61b373465085f5b2b101", "lon": -77.03529833333333, "bike_id": "1f725be2ac0f61b373465085f5b2b101", "lat": 38.90351616666667}, {"fusion_lon": 0.0, "fusion_lat": 0.0, "rental_uris": {"android": "https://dc.lft.to/lastmile_qr_scan", "ios": "https://dc.lft.to/lastmile_qr_scan"}, "is_disabled": 0, "type": "electric_scooter", "is_reserved": 0, "name": "9cfce2326ce9f5218b84d292c1f5d227", "lon": -76.94155566666667, "bike_id": "9cfce2326ce9f5218b84d292c1f5d227", "lat": 38.8836075}, {"fusion_lon": 0.0, "fusion_lat": 0.0, "rental_uris": {"android": "https://dc.lft.to/lastmile_qr_scan", "ios": "https://dc.lft.to/lastmile_qr_scan"}, "is_disabled": 0, "type": "electric_bike", "is_reserved": 0, "name": "077e78ba95eff376a6ab7903088c252e", "lon": -77.09687, "bike_id": "077e78ba95eff376a6ab7903088c252e", "lat": 38.807393166666664},