{"data": {"bikes": [{"fusion_lat": 0.0, "name": "13eea4f6bea2b3f1ed67f0af2d8350d3", "is_disabled": 0, "rental_uris": {"android": "https://dc.lft.to/lastmile_qr_scan", "ios": "https://dc.lft.to/lastmile_qr_scan"}, "fusion_lon": 0.0, "lat": 38.936249833333335, "bike_id": "13eea4f6bea2b3f1ed67f0af2d8350d3", "type": "electric_scooter", "is_reserved": 0, "lon": -77.08173566666666}, {"fusion_lat": 0.0, "name": "a058e5b5b43a47b82026f5509be533cc", "is_disabled": 0, "rental_uris": {"android": "https://dc.lft.to/lastmile_qr_scan", "ios": "https://dc.lft.to/lastmile_qr_scan"}, "fusion_lon": 0.0, "lat": 38.90278333333333, "bike_id": "a058e5b5b43a47b82026f5509be533cc", "type": "electric_scooter", "is_reserved": 0, "lon": -77.01752233333333}, {"fusion_lat": 0.0, "name": "45cee34ff8c55488326e058bee1ca803", "is_disabled": 0, "rental_uris": {"android": "https://dc.lft.to/lastmile_qr_scan", "ios": "https://dc.lft.to/lastmile_qr_scan"}, "fusion_lon": 0.0, "lat": 38.90654116666666, "bike_id": "45cee34ff8c55488326e058bee1ca803", "type": "electric_scooter", "is_reserved": 0, "lon": -77.00913016666667}, {"fusion_lat": 0.0, "name": "73185e7e4f149e3a29b8e147b17c2288", "is_disabled": 0, "rental_uris": {"android": "https://dc.lft.to/lastmile_qr_scan", "ios": "https://dc.lft.to/lastmile_qr_scan"}, "fusion_lon": 0.0, "lat": 38.904279, "bike_id": "73185e7e4f149e3a29b8e147b17c2288", "type": "electric_scooter", "is_reserved": 0, "lon": -77.02982883333334}, {"fusion_lat": 0.0, "name": "8a061bf51844d23e98f37500f6283473", "is_disabled": 0, "rental_uris": {"android": "https://dc.lft.to/lastmile_qr_scan", "ios": "https://dc.lft.to/lastmile_qr_scan"}, "fusion_lon": 0.0, "lat": 38.98390533333333, "bike_id": "8a061bf51844d23e98f37500f6283473", "type": "electric_scooter", "is_reserved": 0, "lon": -77.02631033333333}, {"fusion_lat": 0.0, "name": "74bf47a985e7d7552f2a28d325ed0e94", "is_disabled": 0, "rental_uris": {"android": "https://dc.lft.to/lastmile_qr_scan", "ios": "https://dc.lft.to/lastmile_qr_scan"}, "fusion_lon": 0.0, "lat": 38.92790883333333, "bike_id": "74bf47a985e7d7552f2a28d325ed0e94", "type": "electric_scooter", "is_reserved": 0, "lon": -76.99560566666666}, {"fusion_lat": 0.0, "name": "7e1988d9846f5030baa0be676c45d145", "is_disabled": 0, "rental_uris": {"android": "https://dc.lft.to/lastmile_qr_scan", "ios": "https://dc.lft.to/lastmile_qr_scan"}, "fusion_lon": 0.0, "lat": 38.927939333333335, "bike_id": "7e1988d9846f5030baa0be676c45d145", "type": "electric_scooter", "is_reserved": 0, "lon": -77.03250366666667}, {"fusion_lat": 0.0, "name": "984690a851d770ecdcf89e1a0212d40a", "is_disabled": 0, "rental_uris": {"android": "https://dc.lft.to/lastmile_qr_scan", "ios": "https://dc.lft.to/lastmile_qr_scan"}, "fusion_lon": 0.0, "lat": 38.94522216666667, "bike_id": "984690a851d770ecdcf89e1a0212d40a", "type": "electric_scooter", "is_reserved": 0, "lon": -77.0227275}, {"fusion_lat": 0.0, "name": "ae75f1da3ad7669dce0c86a1e767d7af", "is_disabled": 0, "rental_uris": {"android": "https://dc.lft.to/lastmile_qr_scan", "ios": "https://dc.lft.to/lastmile_qr_scan"}, "fusion_lon": 0.0, "lat": 38.90249466666667, "bike_id": "ae75f1da3ad7669dce0c86a1e767d7af", "type": "electric_scooter", "is_reserved": 0, "lon": -77.02761516666666}, {"fusion_lat": 0.0, "name": "eeb8bfc90de38fb96b8656f0245c7177", "is_disabled": 0, "rental_uris": {"android": "https://dc.lft.to/lastmile_qr_scan", "ios": "https://dc.lft.to/lastmile_qr_scan"}, "fusion_lon": 0.0, "lat": 38.919063333333334, "bike_id": "eeb8bfc90de38fb96b8656f0245c7177", "type": "electric_scooter", "is_reserved": 0, "lon": -77.01221383333333}, {"fusion_lat": 0.0, "name": "f4ed3d7bb7e5964573c9590a6217a552", "is_disabled": 0, "rental_uris": {"android": "https://dc.lft.to/lastmile_qr_scan", "ios": "https://dc.lft.to/lastmile_qr_scan"}, "fusion_lon": 0.0, "lat": 38.871598666666664, "bike_id": "f4ed3d7bb7e5964573c9590a6217a552", "type": "electric_scooter", "is_reserved": 0, "lon": -76.97729666666666}, {"fusion_lat": 0.0, "name": "b96c99f6b7831d6f02c65c1b65d219d8", "is_disabled": 0, "rental_uris": {"android": "https://dc.lft.to/lastmile_qr_scan", "ios": "https://dc.lft.to/lastmile_qr_scan"}, "fusion_lon": 0.0, "lat": 38.9215295, "bike_id": "b96c99f6b7831d6f02c65c1b65d219d8", "type": "electric_scooter", "is_reserved": 0, "lon": -77.03870033333334}, {"fusion_lat": 0.0, "name": "c9d4315a3934c63ed0fb1ec031c4f7e3", "is_disabled": 0, "rental_uris": {"android": "https://dc.lft.to/lastmile_qr_scan", "ios": "https://dc.lft.to/lastmile_qr_scan"}, "fusion_lon": 0.0, "lat": 38.903870166666664, "bike_id": "c9d4315a3934c63ed0fb1ec031c4f7e3", "type": "electric_scooter", "is_reserved": 0, "lon": -77.03832016666667}, {"fusion_lat": 0.0, "name": "873143d6c674fbf67ab1bb57a9f6ab36", "is_disabled": 0, "rental_uris": {"android": "https://dc.lft.to/lastmile_qr_scan", "ios": "https://dc.lft.to/lastmile_qr_scan"}, "fusion_lon": 0.0, "lat": 38.909754166666666, "bike_id": "873143d6c674fbf67ab1bb57a9f6ab36", "type": "electric_scooter", "is_reserved": 0, "lon": -77.04485516666666}, {"fusion_lat": 0.0, "name": "a2d2309b48326c77431f467b622c7b5f", "is_disabled": 0, "rental_uris": {"android": "https://dc.lft.to/lastmile_qr_scan", "ios": "https://dc.lft.to/lastmile_qr_scan"}, "fusion_lon": 0.0, "lat": 38.90000916666666, "bike_id": "a2d2309b48326c77431f467b622c7b5f", "type": "electric_scooter", "is_reserved": 0, "lon": -76.93163516666667}, {"fusion_lat": 0.0, "name": "86186093d0571780d1d33ab48910470e", "is_disabled": 0, "rental_uris": {"android": "https://dc.lft.to/lastmile_qr_scan", "ios": "https://dc.lft.to/lastmile_qr_scan"}, "fusion_lon": 0.0, "lat": 38.853117166666664, "bike_id": "86186093d0571780d1d33ab48910470e", "type": "electric_bike", "is_reserved": 0, "lon": -77.0460395}, {"fusion_lat": 0.0, "name": "f694cf1f7936a66af26c58475c63cdd0", "is_disabled": 0, "rental_uris": {"android": "https://dc.lft.to/lastmile_qr_scan", "ios": "https://dc.lft.to/lastmile_qr_scan"}, "fusion_lon": 0.0, "lat": 38.929533, "bike_id": "f694cf1f7936a66af26c58475c63cdd0", "type": "electric_scooter", "is_reserved": 0, "lon": -77.03470816666666}, {"fusion_lat": 0.0, "name": "0ff561b27e39908ab07e7d7ecef701a3", "is_disabled": 0, "rental_uris": {"android": "https://dc.lft.to/lastmile_qr_scan", "ios": "https://dc.lft.to/lastmile_qr_scan"}, "fusion_lon": 0.0, "lat": 38.89741433333333, "bike_id": "0ff561b27e39908ab07e7d7ecef701a3", "type": "electric_scooter", "is_reserved": 0, "lon": -77.04369866666667}, {"fusion_lat": 0.0, "name": "0be2d5ed7056fbb601048d76406d5b74", "is_disabled": 0, "rental_uris": {"android": "https://dc.lft.to/lastmile_qr_scan", "ios": "https://dc.lft.to/lastmile_qr_scan"}, "fusion_lon": 0.0, "lat": 38.924134333333335, "bike_id": "0be2d5ed7056fbb601048d76406d5b74", "type": "electric_scooter", "is_reserved": 0, "lon": -77.05062583333333}, {"fusion_lat": 0.0, "name": "8c12dd5ce1e16d7f5dd90b31730fdf2b", "is_disabled": 0, "rental_uris": {"android": "https://dc.lft.to/lastmile_qr_scan", "ios": "https://dc.lft.to/lastmile_qr_scan"}, "fusion_lon": 0.0, "lat": 38.842795833333334, "bike_id": "8c12dd5ce1e16d7f5dd90b31730fdf2b", "type": "electric_bike", "is_reserved": 0, "lon": -77.045084}, {"fusion_lat": 0.0, "name": "7e7ec0e00265cddc19e85f2455ed33b9", "is_disabled": 0, "rental_uris": {"android": "https://dc.lft.to/lastmile_qr_scan", "ios": "https://dc.lft.to/lastmile_qr_scan"}, "fusion_lon": 0.0, "lat": 38.886645333333334, "bike_id": "7e7ec0e00265cddc19e85f2455ed33b9", "type": "electric_bike", "is_reserved": 0, "lon": -77.16235016666667}, {"fusion_lat": 0.0, "name": "1e093ef9aa09ba7e9ef4813ab8ddf1db", "is_disabled": 0, "rental_uris": {"android": "https://dc.lft.to/lastmile_qr_scan", "ios": "https://dc.lft.to/lastmile_qr_scan"}, "fusion_lon": 0.0, "lat": 38.897314, "bike_id": "1e093ef9aa09ba7e9ef4813ab8ddf1db", "type": "electric_scooter", "is_reserved": 0, "lon": -77.00973166666667}, {"fusion_lat": 0.0, "name": "68d5dd09108577eb0b6936ab200d9968", "is_disabled": 0, "rental_uris": {"android": "https://dc.lft.to/lastmile_qr_scan", "ios": "https://dc.lft.to/lastmile_qr_scan"}, "fusion_lon": 0.0, "lat": 38.928298, "bike_id": "68d5dd09108577eb0b6936ab200d9968", "type": "electric_scooter", "is_reserved": 0, "lon": -77.03268533333333}, {"fusion_lat": 0.0, "name": "683a32896132ca5f5c242a648b127ecd", "is_disabled": 0, "rental_uris": {"android": "https://dc.lft.to/lastmile_qr_scan", "ios": "https://dc.lft.to/lastmile_qr_scan"}, "fusion_lon": 0.0, "lat": 38.9225195, "bike_id": "683a32896132ca5f5c242a648b127ecd", "type": "electric_scooter", "is_reserved": 0, "lon": -77.04201566666667}, {"fusion_lat": 0.0, "name": "fb4d2b0f7ae0816a706d983234397b5e", "is_disabled": 0, "rental_uris": {"android": "https://dc.lft.to/lastmile_qr_scan", "ios": "https://dc.lft.to/lastmile_qr_scan"}, "fusion_lon": 0.0, "lat": 39.07053333333333, "bike_id": "fb4d2b0f7ae0816a706d983234397b5e", "type": "electric_bike", "is_reserved": 0, "lon": -77.11478466666667}, {"fusion_lat": 0.0, "name": "e210da1b1fc9b771a055b28ed6f0b6c7", "is_disabled": 0, "rental_uris": {"android": "https://dc.lft.to/lastmile_qr_scan", "ios": "https://dc.lft.to/lastmile_qr_scan"}, "fusion_lon": 0.0, "lat": 38.924732666666664, "bike_id": "e210da1b1fc9b771a055b28ed6f0b6c7", "type": "electric_scooter", "is_reserved": 0, "lon": -77.02891}, {"fusion_lat": 0.0, "name": "3c8c3e3861a1f498538774c2fb410c52", "is_disabled": 0, "rental_uris": {"android": "https://dc.lft.to/lastmile_qr_scan", "ios": "https://dc.lft.to/lastmile_qr_scan"}, "fusion_lon": 0.0, "lat": 38.898517, "bike_id": "3c8c3e3861a1f498538774c2fb410c52", "type": "electric_scooter", "is_reserved": 0, "lon": -76.99032566666666}, {"fusion_lat": 0.0, "name": "a318091c9e138657dbee72e914d4b870", "is_disabled": 0, "rental_uris": {"android": "https://dc.lft.to/lastmile_qr_scan", "ios": "https://dc.lft.to/lastmile_qr_scan"}, "fusion_lon": 0.0, "lat": 38.88302433333333, "bike_id": "a318091c9e138657dbee72e914d4b870", "type": "electric_scooter", "is_reserved": 0, "lon": -76.948527}, {"fusion_lat": 0.0, "name": "ea9623018b2e55f543d424e4c4f39091", "is_disabled": 0, "rental_uris": {"android": "https://dc.lft.to/lastmile_qr_scan", "ios": "https://dc.lft.to/lastmile_qr_scan"}, "fusion_lon": 0.0, "lat": 38.892236, "bike_id": "ea9623018b2e55f543d424e4c4f39091", "type": "electric_scooter", "is_reserved": 0, "lon": -77.04865766666667}, {"fusion_lat": 0.0, "name": "8f05e3a39536bd5e984cefeb3b66a0c8", "is_disabled": 0, "rental_uris": {"android": "https://dc.lft.to/lastmile_qr_scan", "ios": "https://dc.lft.to/lastmile_qr_scan"}, "fusion_lon": 0.0, "lat": 38.887382, "bike_id": "8f05e3a39536bd5e984cefeb3b66a0c8", "type": "electric_scooter", "is_reserved": 0, "lon": -77.01471433333333}, {"fusion_lat": 0.0, "name": "a2595f399a2796205c740d0bb27a4889", "is_disabled": 0, "rental_uris": {"android": "https://dc.lft.to/lastmile_qr_scan", "ios": "https://dc.lft.to/lastmile_qr_scan"}, "fusion_lon": 0.0, "lat": 38.9029665, "bike_id": "a2595f399a2796205c740d0bb27a4889", "type": "electric_scooter", "is_reserved": 0, "lon": -77.0580365}, {"fusion_lat": 0.0, "name": "089a26c147ed3b2a6d6a97e54cae2b1e", "is_disabled": 0, "rental_uris": {"android": "https://dc.lft.to/lastmile_qr_scan", "ios": "https://dc.lft.to/lastmile_qr_scan"}, "fusion_lon": 0.0, "lat": 38.909754666666664, "bike_id": "089a26c147ed3b2a6d6a97e54cae2b1e", "type": "electric_scooter", "is_reserved": 0, "lon": -77.04877083333334}, {"fusion_lat": 0.0, "name": "38453455cbb04936ce12cec0c2e6997e", "is_disabled": 0, "rental_uris": {"android": "https://dc.lft.to/lastmile_qr_scan", "ios": "https://dc.lft.to/lastmile_qr_scan"}, "fusion_lon": 0.0, "lat": 38.9181505, "bike_id": "38453455cbb04936ce12cec0c2e6997e", "type": "electric_scooter", "is_reserved": 0, "lon": -77.02477066666667}, {"fusion_lat": 0.0, "name": "c7e05f6ff6fe2a2320bca4124c8fc36e", "is_disabled": 0, "rental_uris": {"android": "https://dc.lft.to/lastmile_qr_scan", "ios": "https://dc.lft.to/lastmile_qr_scan"}, "fusion_lon": 0.0, "lat": 38.901942, "bike_id": "c7e05f6ff6fe2a2320bca4124c8fc36e", "type": "electric_scooter", "is_reserved": 0, "lon": -77.024105}, {"fusion_lat": 0.0, "name": "0548a4d810aaceaa3913d891e8146e1b", "is_disabled": 0, "rental_uris": {"android": "https://dc.lft.to/lastmile_qr_scan", "ios": "https://dc.lft.to/lastmile_qr_scan"}, "fusion_lon": 0.0, "lat": 38.90732533333333, "bike_id": "0548a4d810aaceaa3913d891e8146e1b", "type": "electric_scooter", "is_reserved": 0, "lon": -77.00955366666666}, {"fusion_lat": 0.0, "name": "bd90ee2a4b9f4b8b72c7ef538d66414e", "is_disabled": 0, "rental_uris": {"android": "https://dc.lft.to/lastmile_qr_scan", "ios": "https://dc.lft.to/lastmile_qr_scan"}, "fusion_lon": 0.0, "lat": 38.9034955, "bike_id": "bd90ee2a4b9f4b8b72c7ef538d66414e", "type": "electric_scooter", "is_reserved": 0, "lon": -76.9747795}, {"fusion_lat": 0.0, "name": "368ae0e4a85dc2acbdb74216292ff190", "is_disabled": 0, "rental_uris": {"android": "https://dc.lft.to/lastmile_qr_scan", "ios": "https://dc.lft.to/lastmile_qr_scan"}, "fusion_lon": 0.0, "lat": 38.883163333333336, "bike_id": "368ae0e4a85dc2acbdb74216292ff190", "type": "electric_scooter", "is_reserved": 0, "lon": -77.0135815}, {"fusion_lat": 0.0, "name": "36d7fe84758935167a73d8ebe247fae8", "is_disabled": 0, "rental_uris": {"android": "https://dc.lft.to/lastmile_qr_scan", "ios": "https://dc.lft.to/lastmile_qr_scan"}, "fusion_lon": 0.0, "lat": 38.90260766666667, "bike_id": "36d7fe84758935167a73d8ebe247fae8", "type": "electric_scooter", "is_reserved": 0, "lon": -77.03379166666667}, {"fusion_lat": 0.0, "name": "42de8d1d89199432171fc3df320eb490", "is_disabled": 0, "rental_uris": {"android": "https://dc.lft.to/lastmile_qr_scan", "ios": "https://dc.lft.to/lastmile_qr_scan"}, "fusion_lon": 0.0, "lat": 38.923373, "bike_id": "42de8d1d89199432171fc3df320eb490", "type": "electric_scooter", "is_reserved": 0, "lon": -77.05298283333333}, {"fusion_lat": 0.0, "name": "76a93955ced95715051e5ea7c3981efa", "is_disabled": 0, "rental_uris": {"android": "https://dc.lft.to/lastmile_qr_scan", "ios": "https://dc.lft.to/lastmile_qr_scan"}, "fusion_lon": 0.0, "lat": 38.89221333333333, "bike_id": "76a93955ced95715051e5ea7c3981efa", "type": "electric_scooter", "is_reserved": 0, "lon": -77.04867083333333}, {"fusion_lat": 0.0, "name": "8e50ad9771b678039c1dc817e1b2e2f1", "is_disabled": 0, "rental_uris": {"android": "https://dc.lft.to/lastmile_qr_scan", "ios": "https://dc.lft.to/lastmile_qr_scan"}, "fusion_lon": 0.0, "lat": 38.914745333333336, "bike_id": "8e50ad9771b678039c1dc817e1b2e2f1", "type": "electric_scooter", "is_reserved": 0, "lon": -77.03200666666666}, {"fusion_lat": 0.0, "name": "c9d5c5fab62dfc9d589dcc8c646cf752", "is_disabled": 0, "rental_uris": {"android": "https://dc.lft.to/lastmile_qr_scan", "ios": "https://dc.lft.to/lastmile_qr_scan"}, "fusion_lon": 0.0, "lat": 38.907461833333336, "bike_id": "c9d5c5fab62dfc9d589dcc8c646cf752", "type": "electric_scooter", "is_reserved": 0, "lon": -77.034793}, {"fusion_lat": 0.0, "name": "f28dcd6269d943b1a0578ee2b0eb877f", "is_disabled": 0, "rental_uris": {"android": "https://dc.lft.to/lastmile_qr_scan", "ios": "https://dc.lft.to/lastmile_qr_scan"}, "fusion_lon": 0.0, "lat": 38.916615666666665, "bike_id": "f28dcd6269d943b1a0578ee2b0eb877f", "type": "electric_scooter", "is_reserved": 0, "lon": -77.02817666666667}, {"fusion_lat": 0.0, "name": "7dc584741b029e0dbe7bea0fc50b5c9f", "is_disabled": 0, "rental_uris": {"android": "https://dc.lft.to/lastmile_qr_scan", "ios": "https://dc.lft.to/lastmile_qr_scan"}, "fusion_lon": 0.0, "lat": 38.89614733333333, "bike_id": "7dc584741b029e0dbe7bea0fc50b5c9f", "type": "electric_bike", "is_reserved": 0, "lon": -76.90738316666666}, {"fusion_lat": 0.0, "name": "f8deb29ddea3d24014ec5b773c5c8d3b", "is_disabled": 0, "rental_uris": {"android": "https://dc.lft.to/lastmile_qr_scan", "ios": "https://dc.lft.to/lastmile_qr_scan"}, "fusion_lon": 0.0, "lat": 38.878823833333335, "bike_id": "f8deb29ddea3d24014ec5b773c5c8d3b", "type": "electric_scooter", "is_reserved": 0, "lon": -77.0222805}, {"fusion_lat": 0.0, "name": "a6d83618ee923145dad3e89b9c3e7cc3", "is_disabled": 0, "rental_uris": {"android": "https://dc.lft.to/lastmile_qr_scan", "ios": "https://dc.lft.to/lastmile_qr_scan"}, "fusion_lon": 0.0, "lat": 38.927473666666664, "bike_id": "a6d83618ee923145dad3e89b9c3e7cc3", "type": "electric_scooter", "is_reserved": 0, "lon": -77.02537266666667}, {"fusion_lat": 0.0, "name": "fd9d826fc4ac2268c3b020913a7942e4", "is_disabled": 0, "rental_uris": {"android": "https://dc.lft.to/lastmile_qr_scan", "ios": "https://dc.lft.to/lastmile_qr_scan"}, "fusion_lon": 0.0, "lat": 38.9266955, "bike_id": "fd9d826fc4ac2268c3b020913a7942e4", "type": "electric_scooter", "is_reserved": 0, "lon": -77.01491966666667}, {"fusion_lat": 0.0, "name": "3cc6b5a836c06343a8b21b81bf9c04c3", "is_disabled": 0, "rental_uris": {"android": "https://dc.lft.to/lastmile_qr_scan", "ios": "https://dc.lft.to/lastmile_qr_scan"}, "fusion_lon": 0.0, "lat": 38.90661333333333, "bike_id": "3cc6b5a836c06343a8b21b81bf9c04c3", "type": "electric_scooter", "is_reserved": 0, "lon": -77.0296255}, {"fusion_lat": 0.0, "name": "e15ab8b95da8b96c5ab924a28be292ff", "is_disabled": 0, "rental_uris": {"android": "https://dc.lft.to/lastmile_qr_scan", "ios": "https://dc.lft.to/lastmile_qr_scan"}, "fusion_lon": 0.0, "lat": 38.885136, "bike_id": "e15ab8b95da8b96c5ab924a28be292ff", "type": "electric_scooter", "is_reserved": 0, "lon": -76.92952783333334}, {"fusion_lat": 0.0, "name": "fedba4baf0969306871d7d7137ee6973", "is_disabled": 0, "rental_uris": {"android": "https://dc.lft.to/lastmile_qr_scan", "ios": "https://dc.lft.to/lastmile_qr_scan"}, "fusion_lon": 0.0, "lat": 38.919137, "bike_id": "fedba4baf0969306871d7d7137ee6973", "type": "electric_scooter", "is_reserved": 0, "lon": -77.03312366666667}, {"fusion_lat": 0.0, "name": "f93ba86a245f93f70b324802bce786fc", "is_disabled": 0, "rental_uris": {"android": "https://dc.lft.to/lastmile_qr_scan", "ios": "https://dc.lft.to/lastmile_qr_scan"}, "fusion_lon": 0.0, "lat": 38.93301683333333, "bike_id": "f93ba86a245f93f70b324802bce786fc", "type": "electric_scooter", "is_reserved": 0, "lon": -77.024674}, {"fusion_lat": 0.0, "name": "7ad05050a3bfeec952725e8d6830869d", "is_disabled": 0, "rental_uris": {"android": "https://dc.lft.to/lastmile_qr_scan", "ios": "https://dc.lft.to/lastmile_qr_scan"}, "fusion_lon": 0.0, "lat": 38.938911, "bike_id": "7ad05050a3bfeec952725e8d6830869d", "type": "electric_scooter", "is_reserved": 0, "lon": -77.02464333333333}, {"fusion_lat": 0.0, "name": "e8acb96f278321d67f42bc8cbfc7b1fd", "is_disabled": 0, "rental_uris": {"android": "https://dc.lft.to/lastmile_qr_scan", "ios": "https://dc.lft.to/lastmile_qr_scan"}, "fusion_lon": 0.0, "lat": 38.92222733333333, "bike_id": "e8acb96f278321d67f42bc8cbfc7b1fd", "type": "electric_scooter", "is_reserved": 0, "lon": -77.04335}, {"fusion_lat": 0.0, "name": "166671845eae960c68876b89b0106277", "is_disabled": 0, "rental_uris": {"android": "https://dc.lft.to/lastmile_qr_scan", "ios": "https://dc.lft.to/lastmile_qr_scan"}, "fusion_lon": 0.0, "lat": 38.918083333333335, "bike_id": "166671845eae960c68876b89b0106277", "type": "electric_scooter", "is_reserved": 0, "lon": -76.99980083333334}, {"fusion_lat": 0.0, "name": "9ce08eb0c7db7001d49958de2a71bf9f", "is_disabled": 0, "rental_uris": {"android": "https://dc.lft.to/lastmile_qr_scan", "ios": "https://dc.lft.to/lastmile_qr_scan"}, "fusion_lon": 0.0, "lat": 38.958802666666664, "bike_id": "9ce08eb0c7db7001d49958de2a71bf9f", "type": "electric_bike", "is_reserved": 0, "lon": -77.002607}, {"fusion_lat": 0.0, "name": "46725eaf81593c947bd32bfcb8f3dfbc", "is_disabled": 0, "rental_uris": {"android": "https://dc.lft.to/lastmile_qr_scan", "ios": "https://dc.lft.to/lastmile_qr_scan"}, "fusion_lon": 0.0, "lat": 38.95117316666666, "bike_id": "46725eaf81593c947bd32bfcb8f3dfbc", "type": "electric_scooter", "is_reserved": 0, "lon": -77.01362433333334}, {"fusion_lat": 0.0, "name": "f1bf642b68c38d1f04f40141f355ff42", "is_disabled": 0, "rental_uris": {"android": "https://dc.lft.to/lastmile_qr_scan", "ios": "https://dc.lft.to/lastmile_qr_scan"}, "fusion_lon": 0.0, "lat": 38.94699333333333, "bike_id": "f1bf642b68c38d1f04f40141f355ff42", "type": "electric_scooter", "is_reserved": 0, "lon": -77.019414}, {"fusion_lat": 0.0, "name": "dadd8864e16b163debd3194a24604381", "is_disabled": 0, "rental_uris": {"android": "https://dc.lft.to/lastmile_qr_scan", "ios": "https://dc.lft.to/lastmile_qr_scan"}, "fusion_lon": 0.0, "lat": 38.961167333333336, "bike_id": "dadd8864e16b163debd3194a24604381", "type": "electric_scooter", "is_reserved": 0, "lon": -77.02858966666666}, {"fusion_lat": 0.0, "name": "60f44552ec62a920c3c665e35604b440", "is_disabled": 0, "rental_uris": {"android": "https://dc.lft.to/lastmile_qr_scan", "ios": "https://dc.lft.to/lastmile_qr_scan"}, "fusion_lon": 0.0, "lat": 38.93195, "bike_id": "60f44552ec62a920c3c665e35604b440", "type": "electric_scooter", "is_reserved": 0, "lon": -77.04297233333334}, {"fusion_lat": 0.0, "name": "9bb248338b9695a67c2f8ddd30264aaa", "is_disabled": 0, "rental_uris": {"android": "https://dc.lft.to/lastmile_qr_scan", "ios": "https://dc.lft.to/lastmile_qr_scan"}, "fusion_lon": 0.0, "lat": 38.89959833333333, "bike_id": "9bb248338b9695a67c2f8ddd30264aaa", "type": "electric_scooter", "is_reserved": 0, "lon": -77.02186933333333}, {"fusion_lat": 0.0, "name": "8192347bb9df4ebc26a1fb3998069f9c", "is_disabled": 0, "rental_uris": {"android": "https://dc.lft.to/lastmile_qr_scan", "ios": "https://dc.lft.to/lastmile_qr_scan"}, "fusion_lon": 0.0, "lat": 38.92075666666667, "bike_id": "8192347bb9df4ebc26a1fb3998069f9c", "type": "electric_scooter", "is_reserved": 0, "lon": -77.00457316666666}, {"fusion_lat": 0.0, "name": "46cdb3e8b3aaabe7b77848d514a38529", "is_disabled": 0, "rental_uris": {"android": "https://dc.lft.to/lastmile_qr_scan", "ios": "https://dc.lft.to/lastmile_qr_scan"}, "fusion_lon": 0.0, "lat": 38.922521833333334, "bike_id": "46cdb3e8b3aaabe7b77848d514a38529", "type": "electric_scooter", "is_reserved": 0, "lon": -77.0298075}, {"fusion_lat": 0.0, "name": "e46faed98d7e4d931929e0aaf9bed841", "is_disabled": 0, "rental_uris": {"android": "https://dc.lft.to/lastmile_qr_scan", "ios": "https://dc.lft.to/lastmile_qr_scan"}, "fusion_lon": 0.0, "lat": 38.993748, "bike_id": "e46faed98d7e4d931929e0aaf9bed841", "type": "electric_bike", "is_reserved": 0, "lon": -77.03200566666666}, {"fusion_lat": 0.0, "name": "53b56cb08fab27ea04aff125f7eb92c6", "is_disabled": 0, "rental_uris": {"android": "https://dc.lft.to/lastmile_qr_scan", "ios": "https://dc.lft.to/lastmile_qr_scan"}, "fusion_lon": 0.0, "lat": 38.920732666666666, "bike_id": "53b56cb08fab27ea04aff125f7eb92c6", "type": "electric_scooter", "is_reserved": 0, "lon": -77.04398083333334}, {"fusion_lat": 0.0, "name": "943ef7c5091ef32cbad061dae3e51446", "is_disabled": 0, "rental_uris": {"android": "https://dc.lft.to/lastmile_qr_scan", "ios": "https://dc.lft.to/lastmile_qr_scan"}, "fusion_lon": 0.0, "lat": 38.88459233333333, "bike_id": "943ef7c5091ef32cbad061dae3e51446", "type": "electric_scooter", "is_reserved": 0, "lon": -76.99830733333333}, {"fusion_lat": 0.0, "name": "03a11f817132fed36beb63caf0ac8447", "is_disabled": 0, "rental_uris": {"android": "https://dc.lft.to/lastmile_qr_scan", "ios": "https://dc.lft.to/lastmile_qr_scan"}, "fusion_lon": 0.0, "lat": 38.9072545, "bike_id": "03a11f817132fed36beb63caf0ac8447", "type": "electric_scooter", "is_reserved": 0, "lon": -77.02980133333334}, {"fusion_lat": 0.0, "name": "6213605d2e94ac1ee1ac0f632daca9dd", "is_disabled": 0, "rental_uris": {"android": "https://dc.lft.to/lastmile_qr_scan", "ios": "https://dc.lft.to/lastmile_qr_scan"}, "fusion_lon": 0.0, "lat": 38.8871675, "bike_id": "6213605d2e94ac1ee1ac0f632daca9dd", "type": "electric_scooter", "is_reserved": 0, "lon": -77.01775233333333}, {"fusion_lat": 0.0, "name": "dfcd98e7f545115649ebbf3c048c32bb", "is_disabled": 0, "rental_uris": {"android": "https://dc.lft.to/lastmile_qr_scan", "ios": "https://dc.lft.to/lastmile_qr_scan"}, "fusion_lon": 0.0, "lat": 38.900293166666664, "bike_id": "dfcd98e7f545115649ebbf3c048c32bb", "type": "electric_scooter", "is_reserved": 0, "lon": -76.9885455}, {"fusion_lat": 0.0, "name": "bf9b628ef65063dfd307322472b6bc7d", "is_disabled": 0, "rental_uris": {"android": "https://dc.lft.to/lastmile_qr_scan", "ios": "https://dc.lft.to/lastmile_qr_scan"}, "fusion_lon": 0.0, "lat": 38.86761583333333, "bike_id": "bf9b628ef65063dfd307322472b6bc7d", "type": "electric_scooter", "is_reserved": 0, "lon": -76.98272583333333}, {"fusion_lat": 0.0, "name": "e7e2ef3d116f39fbc3248a34706eee35", "is_disabled": 0, "rental_uris": {"android": "https://dc.lft.to/lastmile_qr_scan", "ios": "https://dc.lft.to/lastmile_qr_scan"}, "fusion_lon": 0.0, "lat": 38.8744055, "bike_id": "e7e2ef3d116f39fbc3248a34706eee35", "type": "electric_scooter", "is_reserved": 0, "lon": -77.00053283333334}, {"fusion_lat": 0.0, "name": "620cac5756bbbfff0f3daf7cd4c8616a", "is_disabled": 0, "rental_uris": {"android": "https://dc.lft.to/lastmile_qr_scan", "ios": "https://dc.lft.to/lastmile_qr_scan"}, "fusion_lon": 0.0, "lat": 38.896684, "bike_id": "620cac5756bbbfff0f3daf7cd4c8616a", "type": "electric_scooter", "is_reserved": 0, "lon": -77.03351383333333}, {"fusion_lat": 0.0, "name": "cba117e4d7aae03ff879c84f9b4f739f", "is_disabled": 0, "rental_uris": {"android": "https://dc.lft.to/lastmile_qr_scan", "ios": "https://dc.lft.to/lastmile_qr_scan"}, "fusion_lon": 0.0, "lat": 38.889077666666665, "bike_id": "cba117e4d7aae03ff879c84f9b4f739f", "type": "electric_scooter", "is_reserved": 0, "lon": -76.9773345}, {"fusion_lat": 0.0, "name": "af8299dcb5b065cfd478221f7b50abfa", "is_disabled": 0, "rental_uris": {"android": "https://dc.lft.to/lastmile_qr_scan", "ios": "https://dc.lft.to/lastmile_qr_scan"}, "fusion_lon": 0.0, "lat": 38.928004666666666, "bike_id": "af8299dcb5b065cfd478221f7b50abfa", "type": "electric_scooter", "is_reserved": 0, "lon": -77.02398866666667}, {"fusion_lat": 0.0, "name": "e09487f15ba79b0738e519f6bed958f3", "is_disabled": 0, "rental_uris": {"android": "https://dc.lft.to/lastmile_qr_scan", "ios": "https://dc.lft.to/lastmile_qr_scan"}, "fusion_lon": 0.0, "lat": 38.89626966666667, "bike_id": "e09487f15ba79b0738e519f6bed958f3", "type": "electric_scooter", "is_reserved": 0, "lon": -77.03216766666667}, {"fusion_lat": 0.0, "name": "9e6a81c5368ba18b64b03a7744c6779b", "is_disabled": 0, "rental_uris": {"android": "https://dc.lft.to/lastmile_qr_scan", "ios": "https://dc.lft.to/lastmile_qr_scan"}, "fusion_lon": 0.0, "lat": 38.90558433333333, "bike_id": "9e6a81c5368ba18b64b03a7744c6779b", "type": "electric_scooter", "is_reserved": 0, "lon": -77.02218683333334}, {"fusion_lat": 0.0, "name": "8e5cbad238f77e9a6e2ce80b441f7e41", "is_disabled": 0, "rental_uris": {"android": "https://dc.lft.to/lastmile_qr_scan", "ios": "https://dc.lft.to/lastmile_qr_scan"}, "fusion_lon": 0.0, "lat": 38.92076733333333, "bike_id": "8e5cbad238f77e9a6e2ce80b441f7e41", "type": "electric_scooter", "is_reserved": 0, "lon": -77.02414816666666}, {"fusion_lat": 0.0, "name": "a4149de12d5d36fa8b8ba65cf0bd04e8", "is_disabled": 0, "rental_uris": {"android": "https://dc.lft.to/lastmile_qr_scan", "ios": "https://dc.lft.to/lastmile_qr_scan"}, "fusion_lon": 0.0, "lat": 38.884713, "bike_id": "a4149de12d5d36fa8b8ba65cf0bd04e8", "type": "electric_scooter", "is_reserved": 0, "lon": -77.015287}, {"fusion_lat": 0.0, "name": "bcc37130e6dab1d39d13b6bb445cd618", "is_disabled": 0, "rental_uris": {"android": "https://dc.lft.to/lastmile_qr_scan", "ios": "https://dc.lft.to/lastmile_qr_scan"}, "fusion_lon": 0.0, "lat": 38.89608066666667, "bike_id": "bcc37130e6dab1d39d13b6bb445cd618", "type": "electric_scooter", "is_reserved": 0, "lon": -77.00928316666666}, {"fusion_lat": 0.0, "name": "be4aef817b9ce94f34b6efb1ffb8aa00", "is_disabled": 0, "rental_uris": {"android": "https://dc.lft.to/lastmile_qr_scan", "ios": "https://dc.lft.to/lastmile_qr_scan"}, "fusion_lon": 0.0, "lat": 38.973443333333336, "bike_id": "be4aef817b9ce94f34b6efb1ffb8aa00", "type": "electric_bike", "is_reserved": 0, "lon": -77.01793683333334}, {"fusion_lat": 0.0, "name": "77e0ed775311d795be3cf13c346f19b4", "is_disabled": 0, "rental_uris": {"android": "https://dc.lft.to/lastmile_qr_scan", "ios": "https://dc.lft.to/lastmile_qr_scan"}, "fusion_lon": 0.0, "lat": 38.88492433333333, "bike_id": "77e0ed775311d795be3cf13c346f19b4", "type": "electric_scooter", "is_reserved": 0, "lon": -77.010844}, {"fusion_lat": 0.0, "name": "3fa46574db6c9f33eb257845bbc0dec4", "is_disabled": 0, "rental_uris": {"android": "https://dc.lft.to/lastmile_qr_scan", "ios": "https://dc.lft.to/lastmile_qr_scan"}, "fusion_lon": 0.0, "lat": 38.923722, "bike_id": "3fa46574db6c9f33eb257845bbc0dec4", "type": "electric_scooter", "is_reserved": 0, "lon": -77.021399}, {"fusion_lat": 0.0, "name": "67f96834656c0118f7c81f9e17b1eed4", "is_disabled": 0, "rental_uris": {"android": "https://dc.lft.to/lastmile_qr_scan", "ios": "https://dc.lft.to/lastmile_qr_scan"}, "fusion_lon": 0.0, "lat": 38.9132415, "bike_id": "67f96834656c0118f7c81f9e17b1eed4", "type": "electric_scooter", "is_reserved": 0, "lon": -77.0214225}, {"fusion_lat": 0.0, "name": "afa04b7e91a5cf123531173720663789", "is_disabled": 0, "rental_uris": {"android": "https://dc.lft.to/lastmile_qr_scan", "ios": "https://dc.lft.to/lastmile_qr_scan"}, "fusion_lon": 0.0, "lat": 38.883397333333335, "bike_id": "afa04b7e91a5cf123531173720663789", "type": "electric_scooter", "is_reserved": 0, "lon": -77.01684066666667}, {"fusion_lat": 0.0, "name": "249aaec20b93a3439bb5c6227cbcc997", "is_disabled": 0, "rental_uris": {"android": "https://dc.lft.to/lastmile_qr_scan", "ios": "https://dc.lft.to/lastmile_qr_scan"}, "fusion_lon": 0.0, "lat": 38.9242115, "bike_id": "249aaec20b93a3439bb5c6227cbcc997", "type": "electric_scooter", "is_reserved": 0, "lon": -77.01950566666666}, {"fusion_lat": 0.0, "name": "6023ca1bc4de728c5ce57e1c9cb725af", "is_disabled": 0, "rental_uris": {"android": "https://dc.lft.to/lastmile_qr_scan", "ios": "https://dc.lft.to/lastmile_qr_scan"}, "fusion_lon": 0.0, "lat": 38.900239166666665, "bike_id": "6023ca1bc4de728c5ce57e1c9cb725af", "type": "electric_scooter", "is_reserved": 0, "lon": -76.988118}, {"fusion_lat": 0.0, "name": "6aa37af3ec224abae67f231ad0cbbdbe", "is_disabled": 0, "rental_uris": {"android": "https://dc.lft.to/lastmile_qr_scan", "ios": "https://dc.lft.to/lastmile_qr_scan"}, "fusion_lon": 0.0, "lat": 38.92822783333333, "bike_id": "6aa37af3ec224abae67f231ad0cbbdbe", "type": "electric_scooter", "is_reserved": 0, "lon": -77.0546215}, {"fusion_lat": 0.0, "name": "a98c970d41592b13a2b1c635a644cce1", "is_disabled": 0, "rental_uris": {"android": "https://dc.lft.to/lastmile_qr_scan", "ios": "https://dc.lft.to/lastmile_qr_scan"}, "fusion_lon": 0.0, "lat": 38.919524, "bike_id": "a98c970d41592b13a2b1c635a644cce1", "type": "electric_scooter", "is_reserved": 0, "lon": -77.02490033333333}, {"fusion_lat": 0.0, "name": "18e3ca6e0e3a36b6c14315b19b1b578a", "is_disabled": 0, "rental_uris": {"android": "https://dc.lft.to/lastmile_qr_scan", "ios": "https://dc.lft.to/lastmile_qr_scan"}, "fusion_lon": 0.0, "lat": 38.917300833333336, "bike_id": "18e3ca6e0e3a36b6c14315b19b1b578a", "type": "electric_scooter", "is_reserved": 0, "lon": -77.0681765}, {"fusion_lat": 0.0, "name": "e4bdb257359f4637296150228268e606", "is_disabled": 0, "rental_uris": {"android": "https://dc.lft.to/lastmile_qr_scan", "ios": "https://dc.lft.to/lastmile_qr_scan"}, "fusion_lon": 0.0, "lat": 38.915584833333334, "bike_id": "e4bdb257359f4637296150228268e606", "type": "electric_scooter", "is_reserved": 0, "lon": -77.0322325}, {"fusion_lat": 0.0, "name": "d8ba660f6a622aad597840bc8ee572be", "is_disabled": 0, "rental_uris": {"android": "https://dc.lft.to/lastmile_qr_scan", "ios": "https://dc.lft.to/lastmile_qr_scan"}, "fusion_lon": 0.0, "lat": 38.887456666666665, "bike_id": "d8ba660f6a622aad597840bc8ee572be", "type": "electric_scooter", "is_reserved": 0, "lon": -77.02227733333334}, {"fusion_lat": 0.0, "name": "f268747433ee6f9cbd780597b10965fe", "is_disabled": 0, "rental_uris": {"android": "https://dc.lft.to/lastmile_qr_scan", "ios": "https://dc.lft.to/lastmile_qr_scan"}, "fusion_lon": 0.0, "lat": 38.9131115, "bike_id": "f268747433ee6f9cbd780597b10965fe", "type": "electric_scooter", "is_reserved": 0, "lon": -77.0213895}, {"fusion_lat": 0.0, "name": "c683e0757c5ebff2b673c3019b8ed850", "is_disabled": 0, "rental_uris": {"android": "https://dc.lft.to/lastmile_qr_scan", "ios": "https://dc.lft.to/lastmile_qr_scan"}, "fusion_lon": 0.0, "lat": 38.9072255, "bike_id": "c683e0757c5ebff2b673c3019b8ed850", "type": "electric_scooter", "is_reserved": 0, "lon": -77.06896666666667}, {"fusion_lat": 0.0, "name": "b8938a1f3d7ac36ede18dd22d8ae76fb", "is_disabled": 0, "rental_uris": {"android": "https://dc.lft.to/lastmile_qr_scan", "ios": "https://dc.lft.to/lastmile_qr_scan"}, "fusion_lon": 0.0, "lat": 38.928791833333335, "bike_id": "b8938a1f3d7ac36ede18dd22d8ae76fb", "type": "electric_scooter", "is_reserved": 0, "lon": -77.05653566666666}, {"fusion_lat": 0.0, "name": "0884587bb8a4a0dcee93852096d34bc3", "is_disabled": 0, "rental_uris": {"android": "https://dc.lft.to/lastmile_qr_scan", "ios": "https://dc.lft.to/lastmile_qr_scan"}, "fusion_lon": 0.0, "lat": 38.90422183333333, "bike_id": "0884587bb8a4a0dcee93852096d34bc3", "type": "electric_scooter", "is_reserved": 0, "lon": -76.94975583333333}, {"fusion_lat": 0.0, "name": "9e51fab50920bf8ef8f34ba5f05d5bc1", "is_disabled": 0, "rental_uris": {"android": "https://dc.lft.to/lastmile_qr_scan", "ios": "https://dc.lft.to/lastmile_qr_scan"}, "fusion_lon": 0.0, "lat": 38.89718033333333, "bike_id": "9e51fab50920bf8ef8f34ba5f05d5bc1", "type": "electric_scooter", "is_reserved": 0, "lon": -77.01317366666666}, {"fusion_lat": 0.0, "name": "cbae7aedd625470c7a854cb4934ab121", "is_disabled": 0, "rental_uris": {"android": "https://dc.lft.to/lastmile_qr_scan", "ios": "https://dc.lft.to/lastmile_qr_scan"}, "fusion_lon": 0.0, "lat": 38.885141833333336, "bike_id": "cbae7aedd625470c7a854cb4934ab121", "type": "electric_scooter", "is_reserved": 0, "lon": -77.01496216666666}, {"fusion_lat": 0.0, "name": "057e1f07b79b20a6c2fa2da21a5d6076", "is_disabled": 0, "rental_uris": {"android": "https://dc.lft.to/lastmile_qr_scan", "ios": "https://dc.lft.to/lastmile_qr_scan"}, "fusion_lon": 0.0, "lat": 38.928912833333335, "bike_id": "057e1f07b79b20a6c2fa2da21a5d6076", "type": "electric_scooter", "is_reserved": 0, "lon": -77.03283966666666}, {"fusion_lat": 0.0, "name": "8c578f246da664410259ebed4c2eaaa2", "is_disabled": 0, "rental_uris": {"android": "https://dc.lft.to/lastmile_qr_scan", "ios": "https://dc.lft.to/lastmile_qr_scan"}, "fusion_lon": 0.0, "lat": 38.892273333333335, "bike_id": "8c578f246da664410259ebed4c2eaaa2", "type": "electric_scooter", "is_reserved": 0, "lon": -77.01548783333334}, {"fusion_lat": 0.0, "name": "8929e09cac6f9e9f83a647f12d2a4fd4", "is_disabled": 0, "rental_uris": {"android": "https://dc.lft.to/lastmile_qr_scan", "ios": "https://dc.lft.to/lastmile_qr_scan"}, "fusion_lon": 0.0, "lat": 38.917162833333336, "bike_id": "8929e09cac6f9e9f83a647f12d2a4fd4", "type": "electric_scooter", "is_reserved": 0, "lon": -77.032534}, {"fusion_lat": 0.0, "name": "86c95308da6c8f1345e66815c2a0fae1", "is_disabled": 0, "rental_uris": {"android": "https://dc.lft.to/lastmile_qr_scan", "ios": "https://dc.lft.to/lastmile_qr_scan"}, "fusion_lon": 0.0, "lat": 38.9299185, "bike_id": "86c95308da6c8f1345e66815c2a0fae1", "type": "electric_scooter", "is_reserved": 0, "lon": -77.02352}, {"fusion_lat": 0.0, "name": "b2971e97ab7b1f9660ec226af49aaec1", "is_disabled": 0, "rental_uris": {"android": "https://dc.lft.to/lastmile_qr_scan", "ios": "https://dc.lft.to/lastmile_qr_scan"}, "fusion_lon": 0.0, "lat": 38.923929, "bike_id": "b2971e97ab7b1f9660ec226af49aaec1", "type": "electric_scooter", "is_reserved": 0, "lon": -77.04286883333333}, {"fusion_lat": 0.0, "name": "966a6665e258e835af46d6fa73609a05", "is_disabled": 0, "rental_uris": {"android": "https://dc.lft.to/lastmile_qr_scan", "ios": "https://dc.lft.to/lastmile_qr_scan"}, "fusion_lon": 0.0, "lat": 38.89999616666667, "bike_id": "966a6665e258e835af46d6fa73609a05", "type": "electric_scooter", "is_reserved": 0, "lon": -77.0066335}, {"fusion_lat": 0.0, "name": "6c55aa325983c39b34e382121f4d4933", "is_disabled": 0, "rental_uris": {"android": "https://dc.lft.to/lastmile_qr_scan", "ios": "https://dc.lft.to/lastmile_qr_scan"}, "fusion_lon": 0.0, "lat": 38.934555833333334, "bike_id": "6c55aa325983c39b34e382121f4d4933", "type": "electric_scooter", "is_reserved": 0, "lon": -77.072637}, {"fusion_lat": 0.0, "name": "d3f8463ce76e68e537ebba6ebbdf60c0", "is_disabled": 0, "rental_uris": {"android": "https://dc.lft.to/lastmile_qr_scan", "ios": "https://dc.lft.to/lastmile_qr_scan"}, "fusion_lon": 0.0, "lat": 38.917025333333335, "bike_id": "d3f8463ce76e68e537ebba6ebbdf60c0", "type": "electric_scooter", "is_reserved": 0, "lon": -77.03349666666666}, {"fusion_lat": 0.0, "name": "6a7c7741e00ec60d69e29f9b71700868", "is_disabled": 0, "rental_uris": {"android": "https://dc.lft.to/lastmile_qr_scan", "ios": "https://dc.lft.to/lastmile_qr_scan"}, "fusion_lon": 0.0, "lat": 38.91420183333334, "bike_id": "6a7c7741e00ec60d69e29f9b71700868", "type": "electric_scooter", "is_reserved": 0, "lon": -77.03178466666667}, {"fusion_lat": 0.0, "name": "7abaa37a1ec7ed85542d24267f70cdd1", "is_disabled": 0, "rental_uris": {"android": "https://dc.lft.to/lastmile_qr_scan", "ios": "https://dc.lft.to/lastmile_qr_scan"}, "fusion_lon": 0.0, "lat": 38.904771333333336, "bike_id": "7abaa37a1ec7ed85542d24267f70cdd1", "type": "electric_scooter", "is_reserved": 0, "lon": -77.04356516666667}, {"fusion_lat": 0.0, "name": "547809b2117b0c391e51beefc72a3ed3", "is_disabled": 0, "rental_uris": {"android": "https://dc.lft.to/lastmile_qr_scan", "ios": "https://dc.lft.to/lastmile_qr_scan"}, "fusion_lon": 0.0, "lat": 38.90721633333333, "bike_id": "547809b2117b0c391e51beefc72a3ed3", "type": "electric_scooter", "is_reserved": 0, "lon": -77.04350333333333}, {"fusion_lat": 0.0, "name": "cd0d49502ba45f84b133eb4b2f388590", "is_disabled": 0, "rental_uris": {"android": "https://dc.lft.to/lastmile_qr_scan", "ios": "https://dc.lft.to/lastmile_qr_scan"}, "fusion_lon": 0.0, "lat": 38.9300335, "bike_id": "cd0d49502ba45f84b133eb4b2f388590", "type": "electric_scooter", "is_reserved": 0, "lon": -77.03231966666667}, {"fusion_lat": 0.0, "name": "f58aa78114655fb59f1958f3e4e87903", "is_disabled": 0, "rental_uris": {"android": "https://dc.lft.to/lastmile_qr_scan", "ios": "https://dc.lft.to/lastmile_qr_scan"}, "fusion_lon": 0.0, "lat": 38.87332166666667, "bike_id": "f58aa78114655fb59f1958f3e4e87903", "type": "electric_bike", "is_reserved": 0, "lon": -77.08216033333333}, {"fusion_lat": 0.0, "name": "b004aa380bafa1631858a0cd87944868", "is_disabled": 0, "rental_uris": {"android": "https://dc.lft.to/lastmile_qr_scan", "ios": "https://dc.lft.to/lastmile_qr_scan"}, "fusion_lon": 0.0, "lat": 38.90612333333333, "bike_id": "b004aa380bafa1631858a0cd87944868", "type": "electric_scooter", "is_reserved": 0, "lon": -77.02410266666666}, {"fusion_lat": 0.0, "name": "ecfee333efbc2f0f0f512afed61d2234", "is_disabled": 0, "rental_uris": {"android": "https://dc.lft.to/lastmile_qr_scan", "ios": "https://dc.lft.to/lastmile_qr_scan"}, "fusion_lon": 0.0, "lat": 38.91934116666667, "bike_id": "ecfee333efbc2f0f0f512afed61d2234", "type": "electric_scooter", "is_reserved": 0, "lon": -77.07052383333334}, {"fusion_lat": 0.0, "name": "9a4a30cf972054bc9ad6b6df0ea092d4", "is_disabled": 0, "rental_uris": {"android": "https://dc.lft.to/lastmile_qr_scan", "ios": "https://dc.lft.to/lastmile_qr_scan"}, "fusion_lon": 0.0, "lat": 38.902643833333336, "bike_id": "9a4a30cf972054bc9ad6b6df0ea092d4", "type": "electric_scooter", "is_reserved": 0, "lon": -77.01743566666667}, {"fusion_lat": 0.0, "name": "a04651bc73df6e24a5a9fc55f1511db4", "is_disabled": 0, "rental_uris": {"android": "https://dc.lft.to/lastmile_qr_scan", "ios": "https://dc.lft.to/lastmile_qr_scan"}, "fusion_lon": 0.0, "lat": 38.80017, "bike_id": "a04651bc73df6e24a5a9fc55f1511db4", "type": "electric_bike", "is_reserved": 0, "lon": -77.05482583333334}, {"fusion_lat": 0.0, "name": "0849257c58a2cf3317b6dbacc9aa1fe9", "is_disabled": 0, "rental_uris": {"android": "https://dc.lft.to/lastmile_qr_scan", "ios": "https://dc.lft.to/lastmile_qr_scan"}, "fusion_lon": 0.0, "lat": 38.887683333333335, "bike_id": "0849257c58a2cf3317b6dbacc9aa1fe9", "type": "electric_scooter", "is_reserved": 0, "lon": -76.99650966666667}, {"fusion_lat": 0.0, "name": "ff9f80c49ec9e073c93635a8368f3c46", "is_disabled": 0, "rental_uris": {"android": "https://dc.lft.to/lastmile_qr_scan", "ios": "https://dc.lft.to/lastmile_qr_scan"}, "fusion_lon": 0.0, "lat": 38.90977933333333, "bike_id": "ff9f80c49ec9e073c93635a8368f3c46", "type": "electric_scooter", "is_reserved": 0, "lon": -77.02186833333333}, {"fusion_lat": 0.0, "name": "da13257c08188d5f4d0dedab9a769d65", "is_disabled": 0, "rental_uris": {"android": "https://dc.lft.to/lastmile_qr_scan", "ios": "https://dc.lft.to/lastmile_qr_scan"}, "fusion_lon": 0.0, "lat": 38.952314, "bike_id": "da13257c08188d5f4d0dedab9a769d65", "type": "electric_scooter", "is_reserved": 0, "lon": -76.9900335}, {"fusion_lat": 0.0, "name": "fb9abf733a5ecca716f3dab86f12af0d", "is_disabled": 0, "rental_uris": {"android": "https://dc.lft.to/lastmile_qr_scan", "ios": "https://dc.lft.to/lastmile_qr_scan"}, "fusion_lon": 0.0, "lat": 38.919250166666664, "bike_id": "fb9abf733a5ecca716f3dab86f12af0d", "type": "electric_scooter", "is_reserved": 0, "lon": -77.03421233333333}, {"fusion_lat": 0.0, "name": "831cc1b168b7d9b582d033d81f3159fa", "is_disabled": 0, "rental_uris": {"android": "https://dc.lft.to/lastmile_qr_scan", "ios": "https://dc.lft.to/lastmile_qr_scan"}, "fusion_lon": 0.0, "lat": 38.880697166666664, "bike_id": "831cc1b168b7d9b582d033d81f3159fa", "type": "electric_scooter", "is_reserved": 0, "lon": -77.02553016666667}, {"fusion_lat": 0.0, "name": "fce8e94513bd44150c7a7e7c691e864d", "is_disabled": 0, "rental_uris": {"android": "https://dc.lft.to/lastmile_qr_scan", "ios": "https://dc.lft.to/lastmile_qr_scan"}, "fusion_lon": 0.0, "lat": 38.93074933333333, "bike_id": "fce8e94513bd44150c7a7e7c691e864d", "type": "electric_scooter", "is_reserved": 0, "lon": -77.07763133333333}, {"fusion_lat": 0.0, "name": "843f585b2fa4dda4225e8f755a613825", "is_disabled": 0, "rental_uris": {"android": "https://dc.lft.to/lastmile_qr_scan", "ios": "https://dc.lft.to/lastmile_qr_scan"}, "fusion_lon": 0.0, "lat": 38.8601875, "bike_id": "843f585b2fa4dda4225e8f755a613825", "type": "electric_bike", "is_reserved": 0, "lon": -77.12806133333333}, {"fusion_lat": 0.0, "name": "dc91e4cd8ced2e423998e71ef6a35503", "is_disabled": 0, "rental_uris": {"android": "https://dc.lft.to/lastmile_qr_scan", "ios": "https://dc.lft.to/lastmile_qr_scan"}, "fusion_lon": 0.0, "lat": 38.90410816666667, "bike_id": "dc91e4cd8ced2e423998e71ef6a35503", "type": "electric_scooter", "is_reserved": 0, "lon": -76.97332133333333}, {"fusion_lat": 0.0, "name": "f11f815b029cf2994c69dd3af2335c68", "is_disabled": 0, "rental_uris": {"android": "https://dc.lft.to/lastmile_qr_scan", "ios": "https://dc.lft.to/lastmile_qr_scan"}, "fusion_lon": 0.0, "lat": 38.90150766666667, "bike_id": "f11f815b029cf2994c69dd3af2335c68", "type": "electric_scooter", "is_reserved": 0, "lon": -77.03326966666667}, {"fusion_lat": 0.0, "name": "b52ab0f016d9b046421e584e99c57410", "is_disabled": 0, "rental_uris": {"android": "https://dc.lft.to/lastmile_qr_scan", "ios": "https://dc.lft.to/lastmile_qr_scan"}, "fusion_lon": 0.0, "lat": 38.907280666666665, "bike_id": "b52ab0f016d9b046421e584e99c57410", "type": "electric_scooter", "is_reserved": 0, "lon": -77.01223616666667}, {"fusion_lat": 0.0, "name": "3d9c844e9465c688d2377da10e6ff035", "is_disabled": 0, "rental_uris": {"android": "https://dc.lft.to/lastmile_qr_scan", "ios": "https://dc.lft.to/lastmile_qr_scan"}, "fusion_lon": 0.0, "lat": 38.9147935, "bike_id": "3d9c844e9465c688d2377da10e6ff035", "type": "electric_scooter", "is_reserved": 0, "lon": -77.0218625}, {"fusion_lat": 0.0, "name": "12990f27313d90066c7abc09a172106c", "is_disabled": 0, "rental_uris": {"android": "https://dc.lft.to/lastmile_qr_scan", "ios": "https://dc.lft.to/lastmile_qr_scan"}, "fusion_lon": 0.0, "lat": 38.892327333333334, "bike_id": "12990f27313d90066c7abc09a172106c", "type": "electric_scooter", "is_reserved": 0, "lon": -77.03176383333333}, {"fusion_lat": 0.0, "name": "d73869e63821610d4caac596ea08eded", "is_disabled": 0, "rental_uris": {"android": "https://dc.lft.to/lastmile_qr_scan", "ios": "https://dc.lft.to/lastmile_qr_scan"}, "fusion_lon": 0.0, "lat": 38.90259533333333, "bike_id": "d73869e63821610d4caac596ea08eded", "type": "electric_scooter", "is_reserved": 0, "lon": -76.9745495}, {"fusion_lat": 0.0, "name": "831315028d52c6bf850e5c51f9773378", "is_disabled": 0, "rental_uris": {"android": "https://dc.lft.to/lastmile_qr_scan", "ios": "https://dc.lft.to/lastmile_qr_scan"}, "fusion_lon": 0.0, "lat": 38.956297166666666, "bike_id": "831315028d52c6bf850e5c51f9773378", "type": "electric_scooter", "is_reserved": 0, "lon": -77.0231695}, {"fusion_lat": 0.0, "name": "b2452ca933b495fdc07515273afa6af7", "is_disabled": 0, "rental_uris": {"android": "https://dc.lft.to/lastmile_qr_scan", "ios": "https://dc.lft.to/lastmile_qr_scan"}, "fusion_lon": 0.0, "lat": 38.924021833333335, "bike_id": "b2452ca933b495fdc07515273afa6af7", "type": "electric_scooter", "is_reserved": 0, "lon": -77.024875}, {"fusion_lat": 0.0, "name": "d71a227f534bee5500d9aa5d3f3cf283", "is_disabled": 0, "rental_uris": {"android": "https://dc.lft.to/lastmile_qr_scan", "ios": "https://dc.lft.to/lastmile_qr_scan"}, "fusion_lon": 0.0, "lat": 38.8974885, "bike_id": "d71a227f534bee5500d9aa5d3f3cf283", "type": "electric_scooter", "is_reserved": 0, "lon": -77.029312}, {"fusion_lat": 0.0, "name": "7dcafd728695203b8be2c70efc577ca1", "is_disabled": 0, "rental_uris": {"android": "https://dc.lft.to/lastmile_qr_scan", "ios": "https://dc.lft.to/lastmile_qr_scan"}, "fusion_lon": 0.0, "lat": 38.8770825, "bike_id": "7dcafd728695203b8be2c70efc577ca1", "type": "electric_scooter", "is_reserved": 0, "lon": -76.99385}, {"fusion_lat": 0.0, "name": "64eadbe216b5d6dfb02929824bdcb4a1", "is_disabled": 0, "rental_uris": {"android": "https://dc.lft.to/lastmile_qr_scan", "ios": "https://dc.lft.to/lastmile_qr_scan"}, "fusion_lon": 0.0, "lat": 38.9278195, "bike_id": "64eadbe216b5d6dfb02929824bdcb4a1", "type": "electric_scooter", "is_reserved": 0, "lon": -77.05283316666667}, {"fusion_lat": 0.0, "name": "ab99d40d76e291c50d7e1927f73de01a", "is_disabled": 0, "rental_uris": {"android": "https://dc.lft.to/lastmile_qr_scan", "ios": "https://dc.lft.to/lastmile_qr_scan"}, "fusion_lon": 0.0, "lat": 38.886119666666666, "bike_id": "ab99d40d76e291c50d7e1927f73de01a", "type": "electric_scooter", "is_reserved": 0, "lon": -77.01557583333333}, {"fusion_lat": 0.0, "name": "0bb0d5ff967f4b91d72ece09029bca43", "is_disabled": 0, "rental_uris": {"android": "https://dc.lft.to/lastmile_qr_scan", "ios": "https://dc.lft.to/lastmile_qr_scan"}, "fusion_lon": 0.0, "lat": 38.89816166666667, "bike_id": "0bb0d5ff967f4b91d72ece09029bca43", "type": "electric_scooter", "is_reserved": 0, "lon": -77.0466405}, {"fusion_lat": 0.0, "name": "081c11914dfa169148b85c5d54946096", "is_disabled": 0, "rental_uris": {"android": "https://dc.lft.to/lastmile_qr_scan", "ios": "https://dc.lft.to/lastmile_qr_scan"}, "fusion_lon": 0.0, "lat": 38.89874583333334, "bike_id": "081c11914dfa169148b85c5d54946096", "type": "electric_scooter", "is_reserved": 0, "lon": -76.93187533333334}, {"fusion_lat": 0.0, "name": "41bd270e1a069452d982488fe0c0e291", "is_disabled": 0, "rental_uris": {"android": "https://dc.lft.to/lastmile_qr_scan", "ios": "https://dc.lft.to/lastmile_qr_scan"}, "fusion_lon": 0.0, "lat": 38.917298833333334, "bike_id": "41bd270e1a069452d982488fe0c0e291", "type": "electric_scooter", "is_reserved": 0, "lon": -77.0415935}, {"fusion_lat": 0.0, "name": "89a87e06640547cbdaafab881e73ce43", "is_disabled": 0, "rental_uris": {"android": "https://dc.lft.to/lastmile_qr_scan", "ios": "https://dc.lft.to/lastmile_qr_scan"}, "fusion_lon": 0.0, "lat": 38.89607133333333, "bike_id": "89a87e06640547cbdaafab881e73ce43", "type": "electric_scooter", "is_reserved": 0, "lon": -77.00930566666666}, {"fusion_lat": 0.0, "name": "9ca4cac15a3a5d41e02d2a5d1a2662ba", "is_disabled": 0, "rental_uris": {"android": "https://dc.lft.to/lastmile_qr_scan", "ios": "https://dc.lft.to/lastmile_qr_scan"}, "fusion_lon": 0.0, "lat": 38.90027516666667, "bike_id": "9ca4cac15a3a5d41e02d2a5d1a2662ba", "type": "electric_scooter", "is_reserved": 0, "lon": -77.03627566666667}, {"fusion_lat": 0.0, "name": "0ad57e3cf887174f440d470814d325c8", "is_disabled": 0, "rental_uris": {"android": "https://dc.lft.to/lastmile_qr_scan", "ios": "https://dc.lft.to/lastmile_qr_scan"}, "fusion_lon": 0.0, "lat": 38.92087016666667, "bike_id": "0ad57e3cf887174f440d470814d325c8", "type": "electric_scooter", "is_reserved": 0, "lon": -76.99448816666667}, {"fusion_lat": 0.0, "name": "9478e1908cde77c974345b3ed0bbfe35", "is_disabled": 0, "rental_uris": {"android": "https://dc.lft.to/lastmile_qr_scan", "ios": "https://dc.lft.to/lastmile_qr_scan"}, "fusion_lon": 0.0, "lat": 38.909413666666666, "bike_id": "9478e1908cde77c974345b3ed0bbfe35", "type": "electric_scooter", "is_reserved": 0, "lon": -77.0448295}, {"fusion_lat": 0.0, "name": "3c4b80997357a9ea5d9d72bf1ceff5c9", "is_disabled": 0, "rental_uris": {"android": "https://dc.lft.to/lastmile_qr_scan", "ios": "https://dc.lft.to/lastmile_qr_scan"}, "fusion_lon": 0.0, "lat": 38.89338383333333, "bike_id": "3c4b80997357a9ea5d9d72bf1ceff5c9", "type": "electric_scooter", "is_reserved": 0, "lon": -77.04675366666666}, {"fusion_lat": 0.0, "name": "8498ea2fc23c77dc812036f9c06fcb33", "is_disabled": 0, "rental_uris": {"android": "https://dc.lft.to/lastmile_qr_scan", "ios": "https://dc.lft.to/lastmile_qr_scan"}, "fusion_lon": 0.0, "lat": 38.90137933333333, "bike_id": "8498ea2fc23c77dc812036f9c06fcb33", "type": "electric_scooter", "is_reserved": 0, "lon": -77.044682}, {"fusion_lat": 0.0, "name": "f01ba264b40de53ff5645045c980e51e", "is_disabled": 0, "rental_uris": {"android": "https://dc.lft.to/lastmile_qr_scan", "ios": "https://dc.lft.to/lastmile_qr_scan"}, "fusion_lon": 0.0, "lat": 38.9855195, "bike_id": "f01ba264b40de53ff5645045c980e51e", "type": "electric_bike", "is_reserved": 0, "lon": -77.003966}, {"fusion_lat": 0.0, "name": "aeb3dee55b8069fc25d6a7561b4f2e81", "is_disabled": 0, "rental_uris": {"android": "https://dc.lft.to/lastmile_qr_scan", "ios": "https://dc.lft.to/lastmile_qr_scan"}, "fusion_lon": 0.0, "lat": 38.854168, "bike_id": "aeb3dee55b8069fc25d6a7561b4f2e81", "type": "electric_bike", "is_reserved": 0, "lon": -77.12081416666666}, {"fusion_lat": 0.0, "name": "2043ff197f8eed43ca08909a340665bf", "is_disabled": 0, "rental_uris": {"android": "https://dc.lft.to/lastmile_qr_scan", "ios": "https://dc.lft.to/lastmile_qr_scan"}, "fusion_lon": 0.0, "lat": 38.91998016666667, "bike_id": "2043ff197f8eed43ca08909a340665bf", "type": "electric_scooter", "is_reserved": 0, "lon": -77.07190933333334}, {"fusion_lat": 0.0, "name": "819ff03e24d450857cc3dd3a1617331b", "is_disabled": 0, "rental_uris": {"android": "https://dc.lft.to/lastmile_qr_scan", "ios": "https://dc.lft.to/lastmile_qr_scan"}, "fusion_lon": 0.0, "lat": 38.8830045, "bike_id": "819ff03e24d450857cc3dd3a1617331b", "type": "electric_scooter", "is_reserved": 0, "lon": -76.948534}, {"fusion_lat": 0.0, "name": "c4070e547e1275d0a2808602de2ddbb7", "is_disabled": 0, "rental_uris": {"android": "https://dc.lft.to/lastmile_qr_scan", "ios": "https://dc.lft.to/lastmile_qr_scan"}, "fusion_lon": 0.0, "lat": 38.94292933333333, "bike_id": "c4070e547e1275d0a2808602de2ddbb7", "type": "electric_scooter", "is_reserved": 0, "lon": -77.021715}, {"fusion_lat": 0.0, "name": "20bfdf1fd78a4d0d9107f9532717e0bb", "is_disabled": 0, "rental_uris": {"android": "https://dc.lft.to/lastmile_qr_scan", "ios": "https://dc.lft.to/lastmile_qr_scan"}, "fusion_lon": 0.0, "lat": 38.924169166666665, "bike_id": "20bfdf1fd78a4d0d9107f9532717e0bb", "type": "electric_scooter", "is_reserved": 0, "lon": -76.9962425}, {"fusion_lat": 0.0, "name": "2ff0e68906c9a90309ca4404e1d52678", "is_disabled": 0, "rental_uris": {"android": "https://dc.lft.to/lastmile_qr_scan", "ios": "https://dc.lft.to/lastmile_qr_scan"}, "fusion_lon": 0.0, "lat": 38.89844, "bike_id": "2ff0e68906c9a90309ca4404e1d52678", "type": "electric_scooter", "is_reserved": 0, "lon": -77.0133715}, {"fusion_lat": 0.0, "name": "ca221613aa429e3b4fdb149fa7c8f7ea", "is_disabled": 0, "rental_uris": {"android": "https://dc.lft.to/lastmile_qr_scan", "ios": "https://dc.lft.to/lastmile_qr_scan"}, "fusion_lon": 0.0, "lat": 38.884298, "bike_id": "ca221613aa429e3b4fdb149fa7c8f7ea", "type": "electric_scooter", "is_reserved": 0, "lon": -76.957568}, {"fusion_lat": 0.0, "name": "de3395b952813cd82abfd52043c2de9b", "is_disabled": 0, "rental_uris": {"android": "https://dc.lft.to/lastmile_qr_scan", "ios": "https://dc.lft.to/lastmile_qr_scan"}, "fusion_lon": 0.0, "lat": 38.925147833333334, "bike_id": "de3395b952813cd82abfd52043c2de9b", "type": "electric_scooter", "is_reserved": 0, "lon": -77.02285233333333}, {"fusion_lat": 0.0, "name": "ca93dbd8856b07aad3bc7bdf3f50344c", "is_disabled": 0, "rental_uris": {"android": "https://dc.lft.to/lastmile_qr_scan", "ios": "https://dc.lft.to/lastmile_qr_scan"}, "fusion_lon": 0.0, "lat": 38.93581266666666, "bike_id": "ca93dbd8856b07aad3bc7bdf3f50344c", "type": "electric_scooter", "is_reserved": 0, "lon": -77.02850316666667}, {"fusion_lat": 0.0, "name": "1f407e4f1ea847bd375acfa6c27a2f6a", "is_disabled": 0, "rental_uris": {"android": "https://dc.lft.to/lastmile_qr_scan", "ios": "https://dc.lft.to/lastmile_qr_scan"}, "fusion_lon": 0.0, "lat": 38.952213, "bike_id": "1f407e4f1ea847bd375acfa6c27a2f6a", "type": "electric_scooter", "is_reserved": 0, "lon": -77.08213483333333}, {"fusion_lat": 0.0, "name": "5c81ab434ce10261a64cc4235dbd0082", "is_disabled": 0, "rental_uris": {"android": "https://dc.lft.to/lastmile_qr_scan", "ios": "https://dc.lft.to/lastmile_qr_scan"}, "fusion_lon": 0.0, "lat": 38.91614466666667, "bike_id": "5c81ab434ce10261a64cc4235dbd0082", "type": "electric_scooter", "is_reserved": 0, "lon": -77.0295785}, {"fusion_lat": 0.0, "name": "4d37210f8e568f6a252567636a421a24", "is_disabled": 0, "rental_uris": {"android": "https://dc.lft.to/lastmile_qr_scan", "ios": "https://dc.lft.to/lastmile_qr_scan"}, "fusion_lon": 0.0, "lat": 38.93382066666667, "bike_id": "4d37210f8e568f6a252567636a421a24", "type": "electric_scooter", "is_reserved": 0, "lon": -77.026843}, {"fusion_lat": 0.0, "name": "158e60c3db6b9234d58ac1d0377243ce", "is_disabled": 0, "rental_uris": {"android": "https://dc.lft.to/lastmile_qr_scan", "ios": "https://dc.lft.to/lastmile_qr_scan"}, "fusion_lon": 0.0, "lat": 38.92179616666667, "bike_id": "158e60c3db6b9234d58ac1d0377243ce", "type": "electric_scooter", "is_reserved": 0, "lon": -76.99787016666667}, {"fusion_lat": 0.0, "name": "cfd22301492d5f53e44e7751263d1baa", "is_disabled": 0, "rental_uris": {"android": "https://dc.lft.to/lastmile_qr_scan", "ios": "https://dc.lft.to/lastmile_qr_scan"}, "fusion_lon": 0.0, "lat": 38.90505616666667, "bike_id": "cfd22301492d5f53e44e7751263d1baa", "type": "electric_scooter", "is_reserved": 0, "lon": -77.0687835}, {"fusion_lat": 0.0, "name": "b93c9374ef33a3f2ed4aac645fac4453", "is_disabled": 0, "rental_uris": {"android": "https://dc.lft.to/lastmile_qr_scan", "ios": "https://dc.lft.to/lastmile_qr_scan"}, "fusion_lon": 0.0, "lat": 38.91924783333333, "bike_id": "b93c9374ef33a3f2ed4aac645fac4453", "type": "electric_scooter", "is_reserved": 0, "lon": -77.03420983333334}, {"fusion_lat": 0.0, "name": "6cf87c6096debbd4bb839f3cae769065", "is_disabled": 0, "rental_uris": {"android": "https://dc.lft.to/lastmile_qr_scan", "ios": "https://dc.lft.to/lastmile_qr_scan"}, "fusion_lon": 0.0, "lat": 38.912672, "bike_id": "6cf87c6096debbd4bb839f3cae769065", "type": "electric_scooter", "is_reserved": 0, "lon": -77.04932166666667}, {"fusion_lat": 0.0, "name": "ee3f2f87aa8e87f79e956185060adcef", "is_disabled": 0, "rental_uris": {"android": "https://dc.lft.to/lastmile_qr_scan", "ios": "https://dc.lft.to/lastmile_qr_scan"}, "fusion_lon": 0.0, "lat": 38.9046115, "bike_id": "ee3f2f87aa8e87f79e956185060adcef", "type": "electric_scooter", "is_reserved": 0, "lon": -77.0336045}, {"fusion_lat": 0.0, "name": "8d718b2d671ce4aefe555ae5a4c087e6", "is_disabled": 0, "rental_uris": {"android": "https://dc.lft.to/lastmile_qr_scan", "ios": "https://dc.lft.to/lastmile_qr_scan"}, "fusion_lon": 0.0, "lat": 38.890057166666665, "bike_id": "8d718b2d671ce4aefe555ae5a4c087e6", "type": "electric_scooter", "is_reserved": 0, "lon": -76.9374475}, {"fusion_lat": 0.0, "name": "1751fbfb73211dc654fb7572feeacfde", "is_disabled": 0, "rental_uris": {"android": "https://dc.lft.to/lastmile_qr_scan", "ios": "https://dc.lft.to/lastmile_qr_scan"}, "fusion_lon": 0.0, "lat": 38.913628333333335, "bike_id": "1751fbfb73211dc654fb7572feeacfde", "type": "electric_scooter", "is_reserved": 0, "lon": -77.0487605}, {"fusion_lat": 0.0, "name": "1b4a1f83de6daa807808f6bc2f69a7e3", "is_disabled": 0, "rental_uris": {"android": "https://dc.lft.to/lastmile_qr_scan", "ios": "https://dc.lft.to/lastmile_qr_scan"}, "fusion_lon": 0.0, "lat": 38.91031783333333, "bike_id": "1b4a1f83de6daa807808f6bc2f69a7e3", "type": "electric_scooter", "is_reserved": 0, "lon": -77.0151245}, {"fusion_lat": 0.0, "name": "e26839c48a7b3cfae12f3f3665eb267c", "is_disabled": 0, "rental_uris": {"android": "https://dc.lft.to/lastmile_qr_scan", "ios": "https://dc.lft.to/lastmile_qr_scan"}, "fusion_lon": 0.0, "lat": 38.88745133333333, "bike_id": "e26839c48a7b3cfae12f3f3665eb267c", "type": "electric_scooter", "is_reserved": 0, "lon": -77.02573316666667}, {"fusion_lat": 0.0, "name": "49236a4649e72d9d7639c12655317966", "is_disabled": 0, "rental_uris": {"android": "https://dc.lft.to/lastmile_qr_scan", "ios": "https://dc.lft.to/lastmile_qr_scan"}, "fusion_lon": 0.0, "lat": 38.898583, "bike_id": "49236a4649e72d9d7639c12655317966", "type": "electric_scooter", "is_reserved": 0, "lon": -77.02822316666666}, {"fusion_lat": 0.0, "name": "a19179a585fb8981706b78588ec832ea", "is_disabled": 0, "rental_uris": {"android": "https://dc.lft.to/lastmile_qr_scan", "ios": "https://dc.lft.to/lastmile_qr_scan"}, "fusion_lon": 0.0, "lat": 38.923986, "bike_id": "a19179a585fb8981706b78588ec832ea", "type": "electric_scooter", "is_reserved": 0, "lon": -77.02413683333333}, {"fusion_lat": 0.0, "name": "683f4869cc583abd393971ed6310607b", "is_disabled": 0, "rental_uris": {"android": "https://dc.lft.to/lastmile_qr_scan", "ios": "https://dc.lft.to/lastmile_qr_scan"}, "fusion_lon": 0.0, "lat": 38.91659716666667, "bike_id": "683f4869cc583abd393971ed6310607b", "type": "electric_scooter", "is_reserved": 0, "lon": -77.043845}, {"fusion_lat": 0.0, "name": "12752da5d0e3a8f0145a6df01c4aed41", "is_disabled": 0, "rental_uris": {"android": "https://dc.lft.to/lastmile_qr_scan", "ios": "https://dc.lft.to/lastmile_qr_scan"}, "fusion_lon": 0.0, "lat": 39.05634766666667, "bike_id": "12752da5d0e3a8f0145a6df01c4aed41", "type": "electric_bike", "is_reserved": 0, "lon": -77.125276}, {"fusion_lat": 0.0, "name": "9e7a6faf39a0fc4bdc4ce96083a04f33", "is_disabled": 0, "rental_uris": {"android": "https://dc.lft.to/lastmile_qr_scan", "ios": "https://dc.lft.to/lastmile_qr_scan"}, "fusion_lon": 0.0, "lat": 38.916946, "bike_id": "9e7a6faf39a0fc4bdc4ce96083a04f33", "type": "electric_scooter", "is_reserved": 0, "lon": -77.03588533333334}, {"fusion_lat": 0.0, "name": "1f1b1753e40c5219b6c2a826e1ad7ac1", "is_disabled": 0, "rental_uris": {"android": "https://dc.lft.to/lastmile_qr_scan", "ios": "https://dc.lft.to/lastmile_qr_scan"}, "fusion_lon": 0.0, "lat": 38.93397316666667, "bike_id": "1f1b1753e40c5219b6c2a826e1ad7ac1", "type": "electric_scooter", "is_reserved": 0, "lon": -77.0284995}, {"fusion_lat": 0.0, "name": "cf310ef089e70fb4a2a86073dedc6ac7", "is_disabled": 0, "rental_uris": {"android": "https://dc.lft.to/lastmile_qr_scan", "ios": "https://dc.lft.to/lastmile_qr_scan"}, "fusion_lon": 0.0, "lat": 38.9408695, "bike_id": "cf310ef089e70fb4a2a86073dedc6ac7", "type": "electric_scooter", "is_reserved": 0, "lon": -77.06182183333334}, {"fusion_lat": 0.0, "name": "d465e0be0d127b1ced297472a7e89793", "is_disabled": 0, "rental_uris": {"android": "https://dc.lft.to/lastmile_qr_scan", "ios": "https://dc.lft.to/lastmile_qr_scan"}, "fusion_lon": 0.0, "lat": 38.857706666666665, "bike_id": "d465e0be0d127b1ced297472a7e89793", "type": "electric_bike", "is_reserved": 0, "lon": -76.987648}, {"fusion_lat": 0.0, "name": "643c7fd39a7b724e38691f1142c8d5d4", "is_disabled": 0, "rental_uris": {"android": "https://dc.lft.to/lastmile_qr_scan", "ios": "https://dc.lft.to/lastmile_qr_scan"}, "fusion_lon": 0.0, "lat": 38.933603833333336, "bike_id": "643c7fd39a7b724e38691f1142c8d5d4", "type": "electric_scooter", "is_reserved": 0, "lon": -77.034344}, {"fusion_lat": 0.0, "name": "d926bd84f3133edad14c7c233ae68945", "is_disabled": 0, "rental_uris": {"android": "https://dc.lft.to/lastmile_qr_scan", "ios": "https://dc.lft.to/lastmile_qr_scan"}, "fusion_lon": 0.0, "lat": 38.90240933333333, "bike_id": "d926bd84f3133edad14c7c233ae68945", "type": "electric_scooter", "is_reserved": 0, "lon": -77.02608566666666}, {"fusion_lat": 0.0, "name": "bf0ebd0bbe6a6fb3dac8091abb91c685", "is_disabled": 0, "rental_uris": {"android": "https://dc.lft.to/lastmile_qr_scan", "ios": "https://dc.lft.to/lastmile_qr_scan"}, "fusion_lon": 0.0, "lat": 38.912111333333335, "bike_id": "bf0ebd0bbe6a6fb3dac8091abb91c685", "type": "electric_scooter", "is_reserved": 0, "lon": -77.045066}, {"fusion_lat": 0.0, "name": "8a06aa8af4ea1009e25f76433c9ae0fe", "is_disabled": 0, "rental_uris": {"android": "https://dc.lft.to/lastmile_qr_scan", "ios": "https://dc.lft.to/lastmile_qr_scan"}, "fusion_lon": 0.0, "lat": 38.910120166666665, "bike_id": "8a06aa8af4ea1009e25f76433c9ae0fe", "type": "electric_scooter", "is_reserved": 0, "lon": -77.02210966666667}, {"fusion_lat": 0.0, "name": "13348bdc17edad6afd3ce97ad8283644", "is_disabled": 0, "rental_uris": {"android": "https://dc.lft.to/lastmile_qr_scan", "ios": "https://dc.lft.to/lastmile_qr_scan"}, "fusion_lon": 0.0, "lat": 38.916932333333335, "bike_id": "13348bdc17edad6afd3ce97ad8283644", "type": "electric_scooter", "is_reserved": 0, "lon": -77.02600183333334}, {"fusion_lat": 0.0, "name": "9df66a3a4d0d942b545b78e3125fa454", "is_disabled": 0, "rental_uris": {"android": "https://dc.lft.to/lastmile_qr_scan", "ios": "https://dc.lft.to/lastmile_qr_scan"}, "fusion_lon": 0.0, "lat": 38.921508, "bike_id": "9df66a3a4d0d942b545b78e3125fa454", "type": "electric_scooter", "is_reserved": 0, "lon": -77.0387115}, {"fusion_lat": 0.0, "name": "385db109139ff2265fbe642881aa6486", "is_disabled": 0, "rental_uris": {"android": "https://dc.lft.to/lastmile_qr_scan", "ios": "https://dc.lft.to/lastmile_qr_scan"}, "fusion_lon": 0.0, "lat": 38.883886333333336, "bike_id": "385db109139ff2265fbe642881aa6486", "type": "electric_scooter", "is_reserved": 0, "lon": -76.930505}, {"fusion_lat": 0.0, "name": "4b668a5023b35fbadec00f467056c205", "is_disabled": 0, "rental_uris": {"android": "https://dc.lft.to/lastmile_qr_scan", "ios": "https://dc.lft.to/lastmile_qr_scan"}, "fusion_lon": 0.0, "lat": 38.909467, "bike_id": "4b668a5023b35fbadec00f467056c205", "type": "electric_scooter", "is_reserved": 0, "lon": -77.04479333333333}, {"fusion_lat": 0.0, "name": "2f99ab253c26af213253d78a9002e935", "is_disabled": 0, "rental_uris": {"android": "https://dc.lft.to/lastmile_qr_scan", "ios": "https://dc.lft.to/lastmile_qr_scan"}, "fusion_lon": 0.0, "lat": 38.9317045, "bike_id": "2f99ab253c26af213253d78a9002e935", "type": "electric_scooter", "is_reserved": 0, "lon": -77.03783783333333}, {"fusion_lat": 0.0, "name": "de3ee5c658b8d9ca661987e866f04b18", "is_disabled": 0, "rental_uris": {"android": "https://dc.lft.to/lastmile_qr_scan", "ios": "https://dc.lft.to/lastmile_qr_scan"}, "fusion_lon": 0.0, "lat": 38.90034283333333, "bike_id": "de3ee5c658b8d9ca661987e866f04b18", "type": "electric_bike", "is_reserved": 0, "lon": -76.97222533333333}, {"fusion_lat": 0.0, "name": "312ff7a9453838d77faab6b988a35bbc", "is_disabled": 0, "rental_uris": {"android": "https://dc.lft.to/lastmile_qr_scan", "ios": "https://dc.lft.to/lastmile_qr_scan"}, "fusion_lon": 0.0, "lat": 38.924748, "bike_id": "312ff7a9453838d77faab6b988a35bbc", "type": "electric_scooter", "is_reserved": 0, "lon": -77.02270266666666}, {"fusion_lat": 0.0, "name": "ee27fea093854cc954fabcffc7cb5c6c", "is_disabled": 0, "rental_uris": {"android": "https://dc.lft.to/lastmile_qr_scan", "ios": "https://dc.lft.to/lastmile_qr_scan"}, "fusion_lon": 0.0, "lat": 38.911247, "bike_id": "ee27fea093854cc954fabcffc7cb5c6c", "type": "electric_scooter", "is_reserved": 0, "lon": -77.03724283333334}, {"fusion_lat": 0.0, "name": "1efa31240796f5800f507002e00cec1b", "is_disabled": 0, "rental_uris": {"android": "https://dc.lft.to/lastmile_qr_scan", "ios": "https://dc.lft.to/lastmile_qr_scan"}, "fusion_lon": 0.0, "lat": 38.914366, "bike_id": "1efa31240796f5800f507002e00cec1b", "type": "electric_scooter", "is_reserved": 0, "lon": -76.99355216666666}, {"fusion_lat": 0.0, "name": "c2988e57ff415c904a2dfcc259838d96", "is_disabled": 0, "rental_uris": {"android": "https://dc.lft.to/lastmile_qr_scan", "ios": "https://dc.lft.to/lastmile_qr_scan"}, "fusion_lon": 0.0, "lat": 38.9147685, "bike_id": "c2988e57ff415c904a2dfcc259838d96", "type": "electric_scooter", "is_reserved": 0, "lon": -77.03895833333333}, {"fusion_lat": 0.0, "name": "65e65afeae0b494016ff679be2114c1f", "is_disabled": 0, "rental_uris": {"android": "https://dc.lft.to/lastmile_qr_scan", "ios": "https://dc.lft.to/lastmile_qr_scan"}, "fusion_lon": 0.0, "lat": 38.8922235, "bike_id": "65e65afeae0b494016ff679be2114c1f", "type": "electric_scooter", "is_reserved": 0, "lon": -77.04863033333334}, {"fusion_lat": 0.0, "name": "05d994e48d884097a52fec1ca52ba1b1", "is_disabled": 0, "rental_uris": {"android": "https://dc.lft.to/lastmile_qr_scan", "ios": "https://dc.lft.to/lastmile_qr_scan"}, "fusion_lon": 0.0, "lat": 38.92960683333333, "bike_id": "05d994e48d884097a52fec1ca52ba1b1", "type": "electric_scooter", "is_reserved": 0, "lon": -76.99173433333333}, {"fusion_lat": 0.0, "name": "76804699875af44b71d09ddf98d681b5", "is_disabled": 0, "rental_uris": {"android": "https://dc.lft.to/lastmile_qr_scan", "ios": "https://dc.lft.to/lastmile_qr_scan"}, "fusion_lon": 0.0, "lat": 38.90421216666667, "bike_id": "76804699875af44b71d09ddf98d681b5", "type": "electric_scooter", "is_reserved": 0, "lon": -77.04885833333333}, {"fusion_lat": 0.0, "name": "8fb1a20540457358cdbe8b7e0b67c378", "is_disabled": 0, "rental_uris": {"android": "https://dc.lft.to/lastmile_qr_scan", "ios": "https://dc.lft.to/lastmile_qr_scan"}, "fusion_lon": 0.0, "lat": 38.87698366666667, "bike_id": "8fb1a20540457358cdbe8b7e0b67c378", "type": "electric_scooter", "is_reserved": 0, "lon": -77.004078}, {"fusion_lat": 0.0, "name": "2f83068bf0b28c5e2b00a271785c5d2a", "is_disabled": 0, "rental_uris": {"android": "https://dc.lft.to/lastmile_qr_scan", "ios": "https://dc.lft.to/lastmile_qr_scan"}, "fusion_lon": 0.0, "lat": 38.966773833333335, "bike_id": "2f83068bf0b28c5e2b00a271785c5d2a", "type": "electric_bike", "is_reserved": 0, "lon": -77.0230505}, {"fusion_lat": 0.0, "name": "2e4b9abd970662d07461e9774266dda2", "is_disabled": 0, "rental_uris": {"android": "https://dc.lft.to/lastmile_qr_scan", "ios": "https://dc.lft.to/lastmile_qr_scan"}, "fusion_lon": 0.0, "lat": 38.91318966666667, "bike_id": "2e4b9abd970662d07461e9774266dda2", "type": "electric_scooter", "is_reserved": 0, "lon": -77.01212883333334}, {"fusion_lat": 0.0, "name": "a03694b177e5e72127aa2404f4f44a1e", "is_disabled": 0, "rental_uris": {"android": "https://dc.lft.to/lastmile_qr_scan", "ios": "https://dc.lft.to/lastmile_qr_scan"}, "fusion_lon": 0.0, "lat": 38.922574, "bike_id": "a03694b177e5e72127aa2404f4f44a1e", "type": "electric_scooter", "is_reserved": 0, "lon": -77.00912666666666}, {"fusion_lat": 0.0, "name": "e1a094750876b745b54e693dc4f300ea", "is_disabled": 0, "rental_uris": {"android": "https://dc.lft.to/lastmile_qr_scan", "ios": "https://dc.lft.to/lastmile_qr_scan"}, "fusion_lon": 0.0, "lat": 38.832062, "bike_id": "e1a094750876b745b54e693dc4f300ea", "type": "electric_bike", "is_reserved": 0, "lon": -76.99673333333334}, {"fusion_lat": 0.0, "name": "79c157bcc64c8854bb7ea8a289637063", "is_disabled": 0, "rental_uris": {"android": "https://dc.lft.to/lastmile_qr_scan", "ios": "https://dc.lft.to/lastmile_qr_scan"}, "fusion_lon": 0.0, "lat": 38.924141, "bike_id": "79c157bcc64c8854bb7ea8a289637063", "type": "electric_scooter", "is_reserved": 0, "lon": -77.020094}, {"fusion_lat": 0.0, "name": "6777842e6ef4a7e0fb030cea69022cc2", "is_disabled": 0, "rental_uris": {"android": "https://dc.lft.to/lastmile_qr_scan", "ios": "https://dc.lft.to/lastmile_qr_scan"}, "fusion_lon": 0.0, "lat": 38.94448933333334, "bike_id": "6777842e6ef4a7e0fb030cea69022cc2", "type": "electric_scooter", "is_reserved": 0, "lon": -77.02339266666667}, {"fusion_lat": 0.0, "name": "7f1a7c7e09ec65ec0813d9a7878c8454", "is_disabled": 0, "rental_uris": {"android": "https://dc.lft.to/lastmile_qr_scan", "ios": "https://dc.lft.to/lastmile_qr_scan"}, "fusion_lon": 0.0, "lat": 38.90964816666666, "bike_id": "7f1a7c7e09ec65ec0813d9a7878c8454", "type": "electric_scooter", "is_reserved": 0, "lon": -77.02180333333334}, {"fusion_lat": 0.0, "name": "b62abfbb4d904e8b3cbc9541f0b642ca", "is_disabled": 0, "rental_uris": {"android": "https://dc.lft.to/lastmile_qr_scan", "ios": "https://dc.lft.to/lastmile_qr_scan"}, "fusion_lon": 0.0, "lat": 38.902899166666664, "bike_id": "b62abfbb4d904e8b3cbc9541f0b642ca", "type": "electric_scooter", "is_reserved": 0, "lon": -77.04380383333333}, {"fusion_lat": 0.0, "name": "7a6bc8d460750dcd9365503f55104997", "is_disabled": 0, "rental_uris": {"android": "https://dc.lft.to/lastmile_qr_scan", "ios": "https://dc.lft.to/lastmile_qr_scan"}, "fusion_lon": 0.0, "lat": 38.931667, "bike_id": "7a6bc8d460750dcd9365503f55104997", "type": "electric_scooter", "is_reserved": 0, "lon": -77.0784455}, {"fusion_lat": 0.0, "name": "06d00824f7056af7e4936a9cce33d235", "is_disabled": 0, "rental_uris": {"android": "https://dc.lft.to/lastmile_qr_scan", "ios": "https://dc.lft.to/lastmile_qr_scan"}, "fusion_lon": 0.0, "lat": 38.887253333333334, "bike_id": "06d00824f7056af7e4936a9cce33d235", "type": "electric_scooter", "is_reserved": 0, "lon": -76.98355316666667}, {"fusion_lat": 0.0, "name": "14652d0dc0f3a938c11bf8c653a0e328", "is_disabled": 0, "rental_uris": {"android": "https://dc.lft.to/lastmile_qr_scan", "ios": "https://dc.lft.to/lastmile_qr_scan"}, "fusion_lon": 0.0, "lat": 38.900972833333334, "bike_id": "14652d0dc0f3a938c11bf8c653a0e328", "type": "electric_scooter", "is_reserved": 0, "lon": -77.05831516666667}, {"fusion_lat": 0.0, "name": "cfc5df385fc7bc6a46316d5c04758863", "is_disabled": 0, "rental_uris": {"android": "https://dc.lft.to/lastmile_qr_scan", "ios": "https://dc.lft.to/lastmile_qr_scan"}, "fusion_lon": 0.0, "lat": 38.919422833333336, "bike_id": "cfc5df385fc7bc6a46316d5c04758863", "type": "electric_scooter", "is_reserved": 0, "lon": -77.0250595}, {"fusion_lat": 0.0, "name": "46a02acc3da4eefc3af287ca51ddc0db", "is_disabled": 0, "rental_uris": {"android": "https://dc.lft.to/lastmile_qr_scan", "ios": "https://dc.lft.to/lastmile_qr_scan"}, "fusion_lon": 0.0, "lat": 38.86630733333333, "bike_id": "46a02acc3da4eefc3af287ca51ddc0db", "type": "electric_scooter", "is_reserved": 0, "lon": -76.987175}, {"fusion_lat": 0.0, "name": "194f2da37cee0a26d8dcd9761d1cb0e5", "is_disabled": 0, "rental_uris": {"android": "https://dc.lft.to/lastmile_qr_scan", "ios": "https://dc.lft.to/lastmile_qr_scan"}, "fusion_lon": 0.0, "lat": 38.897482333333336, "bike_id": "194f2da37cee0a26d8dcd9761d1cb0e5", "type": "electric_scooter", "is_reserved": 0, "lon": -77.044304}, {"fusion_lat": 0.0, "name": "b616cd3462492892e2328472c18fc160", "is_disabled": 0, "rental_uris": {"android": "https://dc.lft.to/lastmile_qr_scan", "ios": "https://dc.lft.to/lastmile_qr_scan"}, "fusion_lon": 0.0, "lat": 38.90135316666667, "bike_id": "b616cd3462492892e2328472c18fc160", "type": "electric_scooter", "is_reserved": 0, "lon": -77.03921616666666}, {"fusion_lat": 0.0, "name": "ef0bba9b39c976b3e9833c47e6ae1acf", "is_disabled": 0, "rental_uris": {"android": "https://dc.lft.to/lastmile_qr_scan", "ios": "https://dc.lft.to/lastmile_qr_scan"}, "fusion_lon": 0.0, "lat": 38.93740233333333, "bike_id": "ef0bba9b39c976b3e9833c47e6ae1acf", "type": "electric_bike", "is_reserved": 0, "lon": -76.97228116666666}, {"fusion_lat": 0.0, "name": "5d3d0cd12d41935e89ac24947b7588e2", "is_disabled": 0, "rental_uris": {"android": "https://dc.lft.to/lastmile_qr_scan", "ios": "https://dc.lft.to/lastmile_qr_scan"}, "fusion_lon": 0.0, "lat": 38.88432433333333, "bike_id": "5d3d0cd12d41935e89ac24947b7588e2", "type": "electric_bike", "is_reserved": 0, "lon": -76.95414233333334}, {"fusion_lat": 0.0, "name": "95fc17de758731028eeaaf6debf25e8d", "is_disabled": 0, "rental_uris": {"android": "https://dc.lft.to/lastmile_qr_scan", "ios": "https://dc.lft.to/lastmile_qr_scan"}, "fusion_lon": 0.0, "lat": 38.892285666666666, "bike_id": "95fc17de758731028eeaaf6debf25e8d", "type": "electric_scooter", "is_reserved": 0, "lon": -77.0282715}, {"fusion_lat": 0.0, "name": "f4280418850cb74c62b06d43eeb002a9", "is_disabled": 0, "rental_uris": {"android": "https://dc.lft.to/lastmile_qr_scan", "ios": "https://dc.lft.to/lastmile_qr_scan"}, "fusion_lon": 0.0, "lat": 38.932917333333336, "bike_id": "f4280418850cb74c62b06d43eeb002a9", "type": "electric_scooter", "is_reserved": 0, "lon": -77.023525}, {"fusion_lat": 0.0, "name": "042f58f233bcdf5433feb21d29a4d3ce", "is_disabled": 0, "rental_uris": {"android": "https://dc.lft.to/lastmile_qr_scan", "ios": "https://dc.lft.to/lastmile_qr_scan"}, "fusion_lon": 0.0, "lat": 38.95183766666667, "bike_id": "042f58f233bcdf5433feb21d29a4d3ce", "type": "electric_scooter", "is_reserved": 0, "lon": -77.0261485}, {"fusion_lat": 0.0, "name": "7ee5bdc546b81929e79c9064a9d33d47", "is_disabled": 0, "rental_uris": {"android": "https://dc.lft.to/lastmile_qr_scan", "ios": "https://dc.lft.to/lastmile_qr_scan"}, "fusion_lon": 0.0, "lat": 38.915990666666666, "bike_id": "7ee5bdc546b81929e79c9064a9d33d47", "type": "electric_scooter", "is_reserved": 0, "lon": -77.0220865}, {"fusion_lat": 0.0, "name": "91f4387ce49d93b254406ed20654caea", "is_disabled": 0, "rental_uris": {"android": "https://dc.lft.to/lastmile_qr_scan", "ios": "https://dc.lft.to/lastmile_qr_scan"}, "fusion_lon": 0.0, "lat": 38.87943283333333, "bike_id": "91f4387ce49d93b254406ed20654caea", "type": "electric_scooter", "is_reserved": 0, "lon": -77.00914583333333}, {"fusion_lat": 0.0, "name": "eb3047cd778f20b7ded4e035282f7826", "is_disabled": 0, "rental_uris": {"android": "https://dc.lft.to/lastmile_qr_scan", "ios": "https://dc.lft.to/lastmile_qr_scan"}, "fusion_lon": 0.0, "lat": 38.87799366666667, "bike_id": "eb3047cd778f20b7ded4e035282f7826", "type": "electric_scooter", "is_reserved": 0, "lon": -77.00125116666666}, {"fusion_lat": 0.0, "name": "becdd36e8cb6d18d79ffbdd22a9799a5", "is_disabled": 0, "rental_uris": {"android": "https://dc.lft.to/lastmile_qr_scan", "ios": "https://dc.lft.to/lastmile_qr_scan"}, "fusion_lon": 0.0, "lat": 38.90046483333333, "bike_id": "becdd36e8cb6d18d79ffbdd22a9799a5", "type": "electric_scooter", "is_reserved": 0, "lon": -77.00739533333333}, {"fusion_lat": 0.0, "name": "79685d71f8f6ec2b59ae2b2a5824c2a5", "is_disabled": 0, "rental_uris": {"android": "https://dc.lft.to/lastmile_qr_scan", "ios": "https://dc.lft.to/lastmile_qr_scan"}, "fusion_lon": 0.0, "lat": 38.925024666666665, "bike_id": "79685d71f8f6ec2b59ae2b2a5824c2a5", "type": "electric_scooter", "is_reserved": 0, "lon": -77.05222383333333}, {"fusion_lat": 0.0, "name": "63a2b03aa99c5c442a1220beedebfcb6", "is_disabled": 0, "rental_uris": {"android": "https://dc.lft.to/lastmile_qr_scan", "ios": "https://dc.lft.to/lastmile_qr_scan"}, "fusion_lon": 0.0, "lat": 38.887696166666665, "bike_id": "63a2b03aa99c5c442a1220beedebfcb6", "type": "electric_scooter", "is_reserved": 0, "lon": -76.97752466666667}, {"fusion_lat": 0.0, "name": "09825bb2403919ab6c1fbd535a36138a", "is_disabled": 0, "rental_uris": {"android": "https://dc.lft.to/lastmile_qr_scan", "ios": "https://dc.lft.to/lastmile_qr_scan"}, "fusion_lon": 0.0, "lat": 38.90952133333333, "bike_id": "09825bb2403919ab6c1fbd535a36138a", "type": "electric_scooter", "is_reserved": 0, "lon": -76.98550816666666}, {"fusion_lat": 0.0, "name": "e34cc39f7dca08751b8ff9748c3305fe", "is_disabled": 0, "rental_uris": {"android": "https://dc.lft.to/lastmile_qr_scan", "ios": "https://dc.lft.to/lastmile_qr_scan"}, "fusion_lon": 0.0, "lat": 38.824638, "bike_id": "e34cc39f7dca08751b8ff9748c3305fe", "type": "electric_bike", "is_reserved": 0, "lon": -77.00793166666666}, {"fusion_lat": 0.0, "name": "4b4905129b0b9fc849356329c4b6265f", "is_disabled": 0, "rental_uris": {"android": "https://dc.lft.to/lastmile_qr_scan", "ios": "https://dc.lft.to/lastmile_qr_scan"}, "fusion_lon": 0.0, "lat": 38.92388866666667, "bike_id": "4b4905129b0b9fc849356329c4b6265f", "type": "electric_scooter", "is_reserved": 0, "lon": -77.03657783333334}, {"fusion_lat": 0.0, "name": "1640847eed8885edf199d3c2507c7124", "is_disabled": 0, "rental_uris": {"android": "https://dc.lft.to/lastmile_qr_scan", "ios": "https://dc.lft.to/lastmile_qr_scan"}, "fusion_lon": 0.0, "lat": 38.899106333333336, "bike_id": "1640847eed8885edf199d3c2507c7124", "type": "electric_scooter", "is_reserved": 0, "lon": -76.94547433333334}, {"fusion_lat": 0.0, "name": "0f4fdcd464da1711a3788cf49f38e32b", "is_disabled": 0, "rental_uris": {"android": "https://dc.lft.to/lastmile_qr_scan", "ios": "https://dc.lft.to/lastmile_qr_scan"}, "fusion_lon": 0.0, "lat": 38.911826833333336, "bike_id": "0f4fdcd464da1711a3788cf49f38e32b", "type": "electric_scooter", "is_reserved": 0, "lon": -77.04247766666667}, {"fusion_lat": 0.0, "name": "d07ed1e8dda974f7e04e291559ab7044", "is_disabled": 0, "rental_uris": {"android": "https://dc.lft.to/lastmile_qr_scan", "ios": "https://dc.lft.to/lastmile_qr_scan"}, "fusion_lon": 0.0, "lat": 38.908718666666665, "bike_id": "d07ed1e8dda974f7e04e291559ab7044", "type": "electric_scooter", "is_reserved": 0, "lon": -77.08594866666667}, {"fusion_lat": 0.0, "name": "4c7d492f1d674caae016886900732855", "is_disabled": 0, "rental_uris": {"android": "https://dc.lft.to/lastmile_qr_scan", "ios": "https://dc.lft.to/lastmile_qr_scan"}, "fusion_lon": 0.0, "lat": 38.9136065, "bike_id": "4c7d492f1d674caae016886900732855", "type": "electric_scooter", "is_reserved": 0, "lon": -77.0455815}, {"fusion_lat": 0.0, "name": "682f2fbd04c72a393aa7b3576fa28a7c", "is_disabled": 0, "rental_uris": {"android": "https://dc.lft.to/lastmile_qr_scan", "ios": "https://dc.lft.to/lastmile_qr_scan"}, "fusion_lon": 0.0, "lat": 38.87674483333333, "bike_id": "682f2fbd04c72a393aa7b3576fa28a7c", "type": "electric_scooter", "is_reserved": 0, "lon": -77.00755}, {"fusion_lat": 0.0, "name": "395de727a0c7a57b73cfa45205878db1", "is_disabled": 0, "rental_uris": {"android": "https://dc.lft.to/lastmile_qr_scan", "ios": "https://dc.lft.to/lastmile_qr_scan"}, "fusion_lon": 0.0, "lat": 38.91778466666667, "bike_id": "395de727a0c7a57b73cfa45205878db1", "type": "electric_scooter", "is_reserved": 0, "lon": -77.02307616666667}, {"fusion_lat": 0.0, "name": "7b1c3b547dd9d37964b60fa93bee9e2b", "is_disabled": 0, "rental_uris": {"android": "https://dc.lft.to/lastmile_qr_scan", "ios": "https://dc.lft.to/lastmile_qr_scan"}, "fusion_lon": 0.0, "lat": 38.87885566666667, "bike_id": "7b1c3b547dd9d37964b60fa93bee9e2b", "type": "electric_scooter", "is_reserved": 0, "lon": -77.02235133333333}, {"fusion_lat": 0.0, "name": "be93ef61ed381f0ebd2bee24d9f91974", "is_disabled": 0, "rental_uris": {"android": "https://dc.lft.to/lastmile_qr_scan", "ios": "https://dc.lft.to/lastmile_qr_scan"}, "fusion_lon": 0.0, "lat": 38.902729666666666, "bike_id": "be93ef61ed381f0ebd2bee24d9f91974", "type": "electric_scooter", "is_reserved": 0, "lon": -77.039352}, {"fusion_lat": 0.0, "name": "8285d9f1f674a5b9cc8f5a6643081e9a", "is_disabled": 0, "rental_uris": {"android": "https://dc.lft.to/lastmile_qr_scan", "ios": "https://dc.lft.to/lastmile_qr_scan"}, "fusion_lon": 0.0, "lat": 38.96162866666667, "bike_id": "8285d9f1f674a5b9cc8f5a6643081e9a", "type": "electric_scooter", "is_reserved": 0, "lon": -77.07354983333333}, {"fusion_lat": 0.0, "name": "4b9786712232c4397d8978019a4df438", "is_disabled": 0, "rental_uris": {"android": "https://dc.lft.to/lastmile_qr_scan", "ios": "https://dc.lft.to/lastmile_qr_scan"}, "fusion_lon": 0.0, "lat": 38.917060166666666, "bike_id": "4b9786712232c4397d8978019a4df438", "type": "electric_scooter", "is_reserved": 0, "lon": -77.04216916666667}, {"fusion_lat": 0.0, "name": "f240d414953b99cb8c3bcaead22fb9b5", "is_disabled": 0, "rental_uris": {"android": "https://dc.lft.to/lastmile_qr_scan", "ios": "https://dc.lft.to/lastmile_qr_scan"}, "fusion_lon": 0.0, "lat": 38.90274266666667, "bike_id": "f240d414953b99cb8c3bcaead22fb9b5", "type": "electric_scooter", "is_reserved": 0, "lon": -76.9767155}, {"fusion_lat": 0.0, "name": "5832a76ab65a5e2cd36999017241f2a0", "is_disabled": 0, "rental_uris": {"android": "https://dc.lft.to/lastmile_qr_scan", "ios": "https://dc.lft.to/lastmile_qr_scan"}, "fusion_lon": 0.0, "lat": 38.90803783333333, "bike_id": "5832a76ab65a5e2cd36999017241f2a0", "type": "electric_scooter", "is_reserved": 0, "lon": -76.99696733333333}, {"fusion_lat": 0.0, "name": "db2cdb049af89a9f867a7ca4266d21da", "is_disabled": 0, "rental_uris": {"android": "https://dc.lft.to/lastmile_qr_scan", "ios": "https://dc.lft.to/lastmile_qr_scan"}, "fusion_lon": 0.0, "lat": 38.934863, "bike_id": "db2cdb049af89a9f867a7ca4266d21da", "type": "electric_scooter", "is_reserved": 0, "lon": -77.045316}, {"fusion_lat": 0.0, "name": "db484971760f802d02116dd9a1acee79", "is_disabled": 0, "rental_uris": {"android": "https://dc.lft.to/lastmile_qr_scan", "ios": "https://dc.lft.to/lastmile_qr_scan"}, "fusion_lon": 0.0, "lat": 38.90194116666667, "bike_id": "db484971760f802d02116dd9a1acee79", "type": "electric_scooter", "is_reserved": 0, "lon": -77.02406583333334}, {"fusion_lat": 0.0, "name": "03ea37d7ed1041e44b889c3f0ef43e70", "is_disabled": 0, "rental_uris": {"android": "https://dc.lft.to/lastmile_qr_scan", "ios": "https://dc.lft.to/lastmile_qr_scan"}, "fusion_lon": 0.0, "lat": 38.896733833333336, "bike_id": "03ea37d7ed1041e44b889c3f0ef43e70", "type": "electric_scooter", "is_reserved": 0, "lon": -76.9320905}, {"fusion_lat": 0.0, "name": "05ee464595110f4fcda6a79f7e429656", "is_disabled": 0, "rental_uris": {"android": "https://dc.lft.to/lastmile_qr_scan", "ios": "https://dc.lft.to/lastmile_qr_scan"}, "fusion_lon": 0.0, "lat": 38.9245665, "bike_id": "05ee464595110f4fcda6a79f7e429656", "type": "electric_scooter", "is_reserved": 0, "lon": -77.02406283333333}, {"fusion_lat": 0.0, "name": "02958d51a8f66d44e826d1ccd5abe3d6", "is_disabled": 0, "rental_uris": {"android": "https://dc.lft.to/lastmile_qr_scan", "ios": "https://dc.lft.to/lastmile_qr_scan"}, "fusion_lon": 0.0, "lat": 38.87176316666667, "bike_id": "02958d51a8f66d44e826d1ccd5abe3d6", "type": "electric_scooter", "is_reserved": 0, "lon": -77.00616316666667}, {"fusion_lat": 0.0, "name": "795d18bc4c03d03a1ec87502edd4a9e8", "is_disabled": 0, "rental_uris": {"android": "https://dc.lft.to/lastmile_qr_scan", "ios": "https://dc.lft.to/lastmile_qr_scan"}, "fusion_lon": 0.0, "lat": 38.927025666666665, "bike_id": "795d18bc4c03d03a1ec87502edd4a9e8", "type": "electric_scooter", "is_reserved": 0, "lon": -77.0207125}, {"fusion_lat": 0.0, "name": "07c739b49a6214f5e2391b91f57c3204", "is_disabled": 0, "rental_uris": {"android": "https://dc.lft.to/lastmile_qr_scan", "ios": "https://dc.lft.to/lastmile_qr_scan"}, "fusion_lon": 0.0, "lat": 38.91523183333334, "bike_id": "07c739b49a6214f5e2391b91f57c3204", "type": "electric_scooter", "is_reserved": 0, "lon": -77.07275}, {"fusion_lat": 0.0, "name": "2a1c9480ea73dc7733d923c1b04e28a5", "is_disabled": 0, "rental_uris": {"android": "https://dc.lft.to/lastmile_qr_scan", "ios": "https://dc.lft.to/lastmile_qr_scan"}, "fusion_lon": 0.0, "lat": 38.92345866666667, "bike_id": "2a1c9480ea73dc7733d923c1b04e28a5", "type": "electric_scooter", "is_reserved": 0, "lon": -77.02017233333333}, {"fusion_lat": 0.0, "name": "cc9ffc99d7a9e1d8c442503e4f50f935", "is_disabled": 0, "rental_uris": {"android": "https://dc.lft.to/lastmile_qr_scan", "ios": "https://dc.lft.to/lastmile_qr_scan"}, "fusion_lon": 0.0, "lat": 38.9135275, "bike_id": "cc9ffc99d7a9e1d8c442503e4f50f935", "type": "electric_scooter", "is_reserved": 0, "lon": -77.0435245}, {"fusion_lat": 0.0, "name": "c4c70266dcef8ad8ef982c4de57e0a6d", "is_disabled": 0, "rental_uris": {"android": "https://dc.lft.to/lastmile_qr_scan", "ios": "https://dc.lft.to/lastmile_qr_scan"}, "fusion_lon": 0.0, "lat": 38.915428, "bike_id": "c4c70266dcef8ad8ef982c4de57e0a6d", "type": "electric_scooter", "is_reserved": 0, "lon": -77.0322635}, {"fusion_lat": 0.0, "name": "6f931946b44dbf6fea43152292d6b4ae", "is_disabled": 0, "rental_uris": {"android": "https://dc.lft.to/lastmile_qr_scan", "ios": "https://dc.lft.to/lastmile_qr_scan"}, "fusion_lon": 0.0, "lat": 38.87910266666667, "bike_id": "6f931946b44dbf6fea43152292d6b4ae", "type": "electric_scooter", "is_reserved": 0, "lon": -77.0087605}, {"fusion_lat": 0.0, "name": "88809a8a4ac8886c4efb1e6ba91c63db", "is_disabled": 0, "rental_uris": {"android": "https://dc.lft.to/lastmile_qr_scan", "ios": "https://dc.lft.to/lastmile_qr_scan"}, "fusion_lon": 0.0, "lat": 38.9155895, "bike_id": "88809a8a4ac8886c4efb1e6ba91c63db", "type": "electric_scooter", "is_reserved": 0, "lon": -77.03232166666666}, {"fusion_lat": 0.0, "name": "a04ba542a7d622f7cd25e87696f50303", "is_disabled": 0, "rental_uris": {"android": "https://dc.lft.to/lastmile_qr_scan", "ios": "https://dc.lft.to/lastmile_qr_scan"}, "fusion_lon": 0.0, "lat": 38.92486266666667, "bike_id": "a04ba542a7d622f7cd25e87696f50303", "type": "electric_scooter", "is_reserved": 0, "lon": -77.02651783333333}, {"fusion_lat": 0.0, "name": "3d9796b4e0c8993a4407233e3fae83b2", "is_disabled": 0, "rental_uris": {"android": "https://dc.lft.to/lastmile_qr_scan", "ios": "https://dc.lft.to/lastmile_qr_scan"}, "fusion_lon": 0.0, "lat": 38.9027575, "bike_id": "3d9796b4e0c8993a4407233e3fae83b2", "type": "electric_scooter", "is_reserved": 0, "lon": -77.01885466666667}, {"fusion_lat": 0.0, "name": "351460debe62cb56dd2cee4b0a06b567", "is_disabled": 0, "rental_uris": {"android": "https://dc.lft.to/lastmile_qr_scan", "ios": "https://dc.lft.to/lastmile_qr_scan"}, "fusion_lon": 0.0, "lat": 38.8765865, "bike_id": "351460debe62cb56dd2cee4b0a06b567", "type": "electric_scooter", "is_reserved": 0, "lon": -77.0091855}, {"fusion_lat": 0.0, "name": "569851c74ecacb31945aa2178d5439ff", "is_disabled": 0, "rental_uris": {"android": "https://dc.lft.to/lastmile_qr_scan", "ios": "https://dc.lft.to/lastmile_qr_scan"}, "fusion_lon": 0.0, "lat": 38.929179500000004, "bike_id": "569851c74ecacb31945aa2178d5439ff", "type": "electric_scooter", "is_reserved": 0, "lon": -77.0233505}, {"fusion_lat": 0.0, "name": "4c7efb4ac73630216cf0ebbdbd57c01d", "is_disabled": 0, "rental_uris": {"android": "https://dc.lft.to/lastmile_qr_scan", "ios": "https://dc.lft.to/lastmile_qr_scan"}, "fusion_lon": 0.0, "lat": 38.914622333333334, "bike_id": "4c7efb4ac73630216cf0ebbdbd57c01d", "type": "electric_scooter", "is_reserved": 0, "lon": -77.03207366666666}, {"fusion_lat": 0.0, "name": "2b400a0d21bff325b5007fc3b9015178", "is_disabled": 0, "rental_uris": {"android": "https://dc.lft.to/lastmile_qr_scan", "ios": "https://dc.lft.to/lastmile_qr_scan"}, "fusion_lon": 0.0, "lat": 38.958799666666664, "bike_id": "2b400a0d21bff325b5007fc3b9015178", "type": "electric_scooter", "is_reserved": 0, "lon": -77.01166766666667}, {"fusion_lat": 0.0, "name": "b9e47ce942d7a2de929ad02c4d782dd8", "is_disabled": 0, "rental_uris": {"android": "https://dc.lft.to/lastmile_qr_scan", "ios": "https://dc.lft.to/lastmile_qr_scan"}, "fusion_lon": 0.0, "lat": 38.88230033333333, "bike_id": "b9e47ce942d7a2de929ad02c4d782dd8", "type": "electric_scooter", "is_reserved": 0, "lon": -77.026168}, {"fusion_lat": 0.0, "name": "fc7546f329866abca276cfceead2e2bd", "is_disabled": 0, "rental_uris": {"android": "https://dc.lft.to/lastmile_qr_scan", "ios": "https://dc.lft.to/lastmile_qr_scan"}, "fusion_lon": 0.0, "lat": 38.930608166666666, "bike_id": "fc7546f329866abca276cfceead2e2bd", "type": "electric_scooter", "is_reserved": 0, "lon": -77.0405595}, {"fusion_lat": 0.0, "name": "cd82387bab28532d6fbdf3cd2155cfe6", "is_disabled": 0, "rental_uris": {"android": "https://dc.lft.to/lastmile_qr_scan", "ios": "https://dc.lft.to/lastmile_qr_scan"}, "fusion_lon": 0.0, "lat": 38.91104416666667, "bike_id": "cd82387bab28532d6fbdf3cd2155cfe6", "type": "electric_scooter", "is_reserved": 0, "lon": -77.02764816666667}, {"fusion_lat": 0.0, "name": "032a831332b4f62c79e50efbe7e8510d", "is_disabled": 0, "rental_uris": {"android": "https://dc.lft.to/lastmile_qr_scan", "ios": "https://dc.lft.to/lastmile_qr_scan"}, "fusion_lon": 0.0, "lat": 38.909030333333334, "bike_id": "032a831332b4f62c79e50efbe7e8510d", "type": "electric_scooter", "is_reserved": 0, "lon": -77.072783}, {"fusion_lat": 0.0, "name": "c1f14899138ff366986ae7455579364f", "is_disabled": 0, "rental_uris": {"android": "https://dc.lft.to/lastmile_qr_scan", "ios": "https://dc.lft.to/lastmile_qr_scan"}, "fusion_lon": 0.0, "lat": 38.90855783333333, "bike_id": "c1f14899138ff366986ae7455579364f", "type": "electric_scooter", "is_reserved": 0, "lon": -77.0428195}, {"fusion_lat": 0.0, "name": "d5ab64150ed9d2b21c35cb3c7d74c320", "is_disabled": 0, "rental_uris": {"android": "https://dc.lft.to/lastmile_qr_scan", "ios": "https://dc.lft.to/lastmile_qr_scan"}, "fusion_lon": 0.0, "lat": 38.91557933333333, "bike_id": "d5ab64150ed9d2b21c35cb3c7d74c320", "type": "electric_scooter", "is_reserved": 0, "lon": -77.0325205}, {"fusion_lat": 0.0, "name": "783c70c29c1581491bb37484b62c9b68", "is_disabled": 0, "rental_uris": {"android": "https://dc.lft.to/lastmile_qr_scan", "ios": "https://dc.lft.to/lastmile_qr_scan"}, "fusion_lon": 0.0, "lat": 38.961845, "bike_id": "783c70c29c1581491bb37484b62c9b68", "type": "electric_bike", "is_reserved": 0, "lon": -77.0526695}, {"fusion_lat": 0.0, "name": "1577bafe5eef82a7d5da538e0099eba1", "is_disabled": 0, "rental_uris": {"android": "https://dc.lft.to/lastmile_qr_scan", "ios": "https://dc.lft.to/lastmile_qr_scan"}, "fusion_lon": 0.0, "lat": 38.91123116666667, "bike_id": "1577bafe5eef82a7d5da538e0099eba1", "type": "electric_scooter", "is_reserved": 0, "lon": -77.020936}, {"fusion_lat": 0.0, "name": "5fc64a78f4a3e740cb402bfec206e571", "is_disabled": 0, "rental_uris": {"android": "https://dc.lft.to/lastmile_qr_scan", "ios": "https://dc.lft.to/lastmile_qr_scan"}, "fusion_lon": 0.0, "lat": 38.89694716666666, "bike_id": "5fc64a78f4a3e740cb402bfec206e571", "type": "electric_scooter", "is_reserved": 0, "lon": -77.04338733333333}, {"fusion_lat": 0.0, "name": "2416b326c2197290b8aa19c73e2f1704", "is_disabled": 0, "rental_uris": {"android": "https://dc.lft.to/lastmile_qr_scan", "ios": "https://dc.lft.to/lastmile_qr_scan"}, "fusion_lon": 0.0, "lat": 38.891074833333334, "bike_id": "2416b326c2197290b8aa19c73e2f1704", "type": "electric_scooter", "is_reserved": 0, "lon": -76.94379816666667}, {"fusion_lat": 0.0, "name": "3007ae6a52f2188fbf2936a87fcd13a9", "is_disabled": 0, "rental_uris": {"android": "https://dc.lft.to/lastmile_qr_scan", "ios": "https://dc.lft.to/lastmile_qr_scan"}, "fusion_lon": 0.0, "lat": 38.9000045, "bike_id": "3007ae6a52f2188fbf2936a87fcd13a9", "type": "electric_scooter", "is_reserved": 0, "lon": -77.045786}, {"fusion_lat": 0.0, "name": "04d8f05e0d1a7e96d11e5cd93b25c4fa", "is_disabled": 0, "rental_uris": {"android": "https://dc.lft.to/lastmile_qr_scan", "ios": "https://dc.lft.to/lastmile_qr_scan"}, "fusion_lon": 0.0, "lat": 38.96988133333333, "bike_id": "04d8f05e0d1a7e96d11e5cd93b25c4fa", "type": "electric_scooter", "is_reserved": 0, "lon": -77.01161166666667}, {"fusion_lat": 0.0, "name": "d8147e6cb638df98ae3a474fcd7a1049", "is_disabled": 0, "rental_uris": {"android": "https://dc.lft.to/lastmile_qr_scan", "ios": "https://dc.lft.to/lastmile_qr_scan"}, "fusion_lon": 0.0, "lat": 38.911730166666665, "bike_id": "d8147e6cb638df98ae3a474fcd7a1049", "type": "electric_scooter", "is_reserved": 0, "lon": -77.00455183333334}, {"fusion_lat": 0.0, "name": "7e5a4ab52c444c8117d08e176964e9af", "is_disabled": 0, "rental_uris": {"android": "https://dc.lft.to/lastmile_qr_scan", "ios": "https://dc.lft.to/lastmile_qr_scan"}, "fusion_lon": 0.0, "lat": 38.89735666666667, "bike_id": "7e5a4ab52c444c8117d08e176964e9af", "type": "electric_bike", "is_reserved": 0, "lon": -76.92049333333334}, {"fusion_lat": 0.0, "name": "51accf6ff02b1ae7ef24ceecf8973844", "is_disabled": 0, "rental_uris": {"android": "https://dc.lft.to/lastmile_qr_scan", "ios": "https://dc.lft.to/lastmile_qr_scan"}, "fusion_lon": 0.0, "lat": 38.974643, "bike_id": "51accf6ff02b1ae7ef24ceecf8973844", "type": "electric_scooter", "is_reserved": 0, "lon": -77.01320716666666}, {"fusion_lat": 0.0, "name": "342d40b23a38c770f299792fa3cacf5d", "is_disabled": 0, "rental_uris": {"android": "https://dc.lft.to/lastmile_qr_scan", "ios": "https://dc.lft.to/lastmile_qr_scan"}, "fusion_lon": 0.0, "lat": 38.87636233333333, "bike_id": "342d40b23a38c770f299792fa3cacf5d", "type": "electric_scooter", "is_reserved": 0, "lon": -77.00662}, {"fusion_lat": 0.0, "name": "49706db54aa196bfd9d1e63ae3e856a5", "is_disabled": 0, "rental_uris": {"android": "https://dc.lft.to/lastmile_qr_scan", "ios": "https://dc.lft.to/lastmile_qr_scan"}, "fusion_lon": 0.0, "lat": 38.9203145, "bike_id": "49706db54aa196bfd9d1e63ae3e856a5", "type": "electric_scooter", "is_reserved": 0, "lon": -77.03126533333334}, {"fusion_lat": 0.0, "name": "de68e2f3d65f67a0c246bf2b3760626f", "is_disabled": 0, "rental_uris": {"android": "https://dc.lft.to/lastmile_qr_scan", "ios": "https://dc.lft.to/lastmile_qr_scan"}, "fusion_lon": 0.0, "lat": 38.92153883333334, "bike_id": "de68e2f3d65f67a0c246bf2b3760626f", "type": "electric_scooter", "is_reserved": 0, "lon": -77.03872733333333}, {"fusion_lat": 0.0, "name": "1484c60b6d202160e751e084df0dabca", "is_disabled": 0, "rental_uris": {"android": "https://dc.lft.to/lastmile_qr_scan", "ios": "https://dc.lft.to/lastmile_qr_scan"}, "fusion_lon": 0.0, "lat": 38.8663015, "bike_id": "1484c60b6d202160e751e084df0dabca", "type": "electric_scooter", "is_reserved": 0, "lon": -76.987176}, {"fusion_lat": 0.0, "name": "552f883f8d00eaab3b3e80d45f16405b", "is_disabled": 0, "rental_uris": {"android": "https://dc.lft.to/lastmile_qr_scan", "ios": "https://dc.lft.to/lastmile_qr_scan"}, "fusion_lon": 0.0, "lat": 38.904146, "bike_id": "552f883f8d00eaab3b3e80d45f16405b", "type": "electric_scooter", "is_reserved": 0, "lon": -77.05009333333334}, {"fusion_lat": 0.0, "name": "458c8d1124e368914421f1f0b0188b9b", "is_disabled": 0, "rental_uris": {"android": "https://dc.lft.to/lastmile_qr_scan", "ios": "https://dc.lft.to/lastmile_qr_scan"}, "fusion_lon": 0.0, "lat": 38.94959716666666, "bike_id": "458c8d1124e368914421f1f0b0188b9b", "type": "electric_scooter", "is_reserved": 0, "lon": -77.06658916666666}, {"fusion_lat": 0.0, "name": "caff526e1585e6ae15bd71181dac7c7c", "is_disabled": 0, "rental_uris": {"android": "https://dc.lft.to/lastmile_qr_scan", "ios": "https://dc.lft.to/lastmile_qr_scan"}, "fusion_lon": 0.0, "lat": 38.90717766666667, "bike_id": "caff526e1585e6ae15bd71181dac7c7c", "type": "electric_scooter", "is_reserved": 0, "lon": -77.06897366666666}, {"fusion_lat": 0.0, "name": "a5cd6dd3e2173a4225d206a217319b10", "is_disabled": 0, "rental_uris": {"android": "https://dc.lft.to/lastmile_qr_scan", "ios": "https://dc.lft.to/lastmile_qr_scan"}, "fusion_lon": 0.0, "lat": 38.915570333333335, "bike_id": "a5cd6dd3e2173a4225d206a217319b10", "type": "electric_scooter", "is_reserved": 0, "lon": -77.034737}, {"fusion_lat": 0.0, "name": "8d3439833db0f10082f41eb89345575b", "is_disabled": 0, "rental_uris": {"android": "https://dc.lft.to/lastmile_qr_scan", "ios": "https://dc.lft.to/lastmile_qr_scan"}, "fusion_lon": 0.0, "lat": 38.819937333333336, "bike_id": "8d3439833db0f10082f41eb89345575b", "type": "electric_bike", "is_reserved": 0, "lon": -76.99769416666666}, {"fusion_lat": 0.0, "name": "bfc47e529ecbb748a8bd505f68a4877e", "is_disabled": 0, "rental_uris": {"android": "https://dc.lft.to/lastmile_qr_scan", "ios": "https://dc.lft.to/lastmile_qr_scan"}, "fusion_lon": 0.0, "lat": 38.9563005, "bike_id": "bfc47e529ecbb748a8bd505f68a4877e", "type": "electric_scooter", "is_reserved": 0, "lon": -77.032794}, {"fusion_lat": 0.0, "name": "42a6d824873d48cdeddba780b837f14e", "is_disabled": 0, "rental_uris": {"android": "https://dc.lft.to/lastmile_qr_scan", "ios": "https://dc.lft.to/lastmile_qr_scan"}, "fusion_lon": 0.0, "lat": 38.95055466666667, "bike_id": "42a6d824873d48cdeddba780b837f14e", "type": "electric_scooter", "is_reserved": 0, "lon": -77.08026816666667}, {"fusion_lat": 0.0, "name": "446ca9f1c388409af6843d9859c0f77a", "is_disabled": 0, "rental_uris": {"android": "https://dc.lft.to/lastmile_qr_scan", "ios": "https://dc.lft.to/lastmile_qr_scan"}, "fusion_lon": 0.0, "lat": 38.92055216666667, "bike_id": "446ca9f1c388409af6843d9859c0f77a", "type": "electric_bike", "is_reserved": 0, "lon": -77.03313733333333}, {"fusion_lat": 0.0, "name": "aa1911b37ade8f544542820cb9b01a47", "is_disabled": 0, "rental_uris": {"android": "https://dc.lft.to/lastmile_qr_scan", "ios": "https://dc.lft.to/lastmile_qr_scan"}, "fusion_lon": 0.0, "lat": 38.886650333333336, "bike_id": "aa1911b37ade8f544542820cb9b01a47", "type": "electric_scooter", "is_reserved": 0, "lon": -77.02825933333334}, {"fusion_lat": 0.0, "name": "5b8471a2b27e619e8296824f1b530439", "is_disabled": 0, "rental_uris": {"android": "https://dc.lft.to/lastmile_qr_scan", "ios": "https://dc.lft.to/lastmile_qr_scan"}, "fusion_lon": 0.0, "lat": 38.86165533333333, "bike_id": "5b8471a2b27e619e8296824f1b530439", "type": "electric_scooter", "is_reserved": 0, "lon": -76.98367583333334}, {"fusion_lat": 0.0, "name": "d69ca00bf13720e0129ddbd3fb1e61ff", "is_disabled": 0, "rental_uris": {"android": "https://dc.lft.to/lastmile_qr_scan", "ios": "https://dc.lft.to/lastmile_qr_scan"}, "fusion_lon": 0.0, "lat": 38.917663, "bike_id": "d69ca00bf13720e0129ddbd3fb1e61ff", "type": "electric_scooter", "is_reserved": 0, "lon": -77.03636}, {"fusion_lat": 0.0, "name": "e23ee68a468936dd03a338de16bfa981", "is_disabled": 0, "rental_uris": {"android": "https://dc.lft.to/lastmile_qr_scan", "ios": "https://dc.lft.to/lastmile_qr_scan"}, "fusion_lon": 0.0, "lat": 38.919621166666666, "bike_id": "e23ee68a468936dd03a338de16bfa981", "type": "electric_scooter", "is_reserved": 0, "lon": -77.07088716666667}, {"fusion_lat": 0.0, "name": "02305d58d54a568077621b40b2e92ded", "is_disabled": 0, "rental_uris": {"android": "https://dc.lft.to/lastmile_qr_scan", "ios": "https://dc.lft.to/lastmile_qr_scan"}, "fusion_lon": 0.0, "lat": 38.89283183333333, "bike_id": "02305d58d54a568077621b40b2e92ded", "type": "electric_scooter", "is_reserved": 0, "lon": -76.98307233333334}, {"fusion_lat": 0.0, "name": "c79f47a321d38aca08c5444fe56a62fc", "is_disabled": 0, "rental_uris": {"android": "https://dc.lft.to/lastmile_qr_scan", "ios": "https://dc.lft.to/lastmile_qr_scan"}, "fusion_lon": 0.0, "lat": 38.9201665, "bike_id": "c79f47a321d38aca08c5444fe56a62fc", "type": "electric_scooter", "is_reserved": 0, "lon": -77.03131566666667}, {"fusion_lat": 0.0, "name": "88c5c63f5d5e4d1098832c4eb29456a9", "is_disabled": 0, "rental_uris": {"android": "https://dc.lft.to/lastmile_qr_scan", "ios": "https://dc.lft.to/lastmile_qr_scan"}, "fusion_lon": 0.0, "lat": 38.918838, "bike_id": "88c5c63f5d5e4d1098832c4eb29456a9", "type": "electric_scooter", "is_reserved": 0, "lon": -77.03483033333333},