{"data": {"bikes": [{"lat": 38.8847125, "is_disabled": 0, "type": "electric_scooter", "lon": -76.99256166666666, "bike_id": "d0ba7cbf2f209e761af5805305c04a41", "fusion_lat": 0.0, "name": "d0ba7cbf2f209e761af5805305c04a41", "is_reserved": 0, "rental_uris": {"android": "https://dc.lft.to/lastmile_qr_scan", "ios": "https://dc.lft.to/lastmile_qr_scan"}, "fusion_lon": 0.0}, {"lat": 39.029338333333335, "is_disabled": 0, "type": "electric_bike", "lon": -77.04931816666667, "bike_id": "1abadbaa718b96576a3b689a95ba4e1e", "fusion_lat": 0.0, "name": "1abadbaa718b96576a3b689a95ba4e1e", "is_reserved": 0, "rental_uris": {"android": "https://dc.lft.to/lastmile_qr_scan", "ios": "https://dc.lft.to/lastmile_qr_scan"}, "fusion_lon": 0.0}, {"lat": 38.903118, "is_disabled": 0, "type": "electric_scooter", "lon": -76.99363733333334, "bike_id": "40bf0d5d6c23ed74dc14f369282e4de0", "fusion_lat": 0.0, "name": "40bf0d5d6c23ed74dc14f369282e4de0", "is_reserved": 0, "rental_uris": {"android": "https://dc.lft.to/lastmile_qr_scan", "ios": "https://dc.lft.to/lastmile_qr_scan"}, "fusion_lon": 0.0}, {"lat": 38.935258, "is_disabled": 0, "type": "electric_bike", "lon": -77.05694416666667, "bike_id": "370df18ceb2f006c5d504db3aa323390", "fusion_lat": 0.0, "name": "370df18ceb2f006c5d504db3aa323390", "is_reserved": 0, "rental_uris": {"android": "https://dc.lft.to/lastmile_qr_scan", "ios": "https://dc.lft.to/lastmile_qr_scan"}, "fusion_lon": 0.0}, {"lat": 38.8849515, "is_disabled": 0, "type": "electric_scooter", "lon": -77.007101, "bike_id": "2eb60b47127a86c534ebbfbc2f44dd52", "fusion_lat": 0.0, "name": "2eb60b47127a86c534ebbfbc2f44dd52", "is_reserved": 0, "rental_uris": {"android": "https://dc.lft.to/lastmile_qr_scan", "ios": "https://dc.lft.to/lastmile_qr_scan"}, "fusion_lon": 0.0}, {"lat": 38.921541833333336, "is_disabled": 0, "type": "electric_scooter", "lon": -77.03515283333333, "bike_id": "97b153c1ff312ce7f43a0a65c2d0a72c", "fusion_lat": 0.0, "name": "97b153c1ff312ce7f43a0a65c2d0a72c", "is_reserved": 0, "rental_uris": {"android": "https://dc.lft.to/lastmile_qr_scan", "ios": "https://dc.lft.to/lastmile_qr_scan"}, "fusion_lon": 0.0}, {"lat": 38.87296516666667, "is_disabled": 0, "type": "electric_scooter", "lon": -77.00931366666667, "bike_id": "fa8bea645cb073c7ff57b886a3f52bd3", "fusion_lat": 0.0, "name": "fa8bea645cb073c7ff57b886a3f52bd3", "is_reserved": 0, "rental_uris": {"android": "https://dc.lft.to/lastmile_qr_scan", "ios": "https://dc.lft.to/lastmile_qr_scan"}, "fusion_lon": 0.0}, {"lat": 38.953298, "is_disabled": 0, "type": "electric_scooter", "lon": -77.02759666666667, "bike_id": "d01dab863e93b6be0e0f1dc489ab1b94", "fusion_lat": 0.0, "name": "d01dab863e93b6be0e0f1dc489ab1b94", "is_reserved": 0, "rental_uris": {"android": "https://dc.lft.to/lastmile_qr_scan", "ios": "https://dc.lft.to/lastmile_qr_scan"}, "fusion_lon": 0.0}, {"lat": 38.90573416666667, "is_disabled": 0, "type": "electric_scooter", "lon": -77.0298775, "bike_id": "28eabc0e9983e585af201b1c86eb4ce0", "fusion_lat": 0.0, "name": "28eabc0e9983e585af201b1c86eb4ce0", "is_reserved": 0, "rental_uris": {"android": "https://dc.lft.to/lastmile_qr_scan", "ios": "https://dc.lft.to/lastmile_qr_scan"}, "fusion_lon": 0.0}, {"lat": 38.807503, "is_disabled": 0, "type": "electric_bike", "lon": -77.0947355, "bike_id": "cfda2c1bdc06879475c8ee09cc2793d6", "fusion_lat": 0.0, "name": "cfda2c1bdc06879475c8ee09cc2793d6", "is_reserved": 0, "rental_uris": {"android": "https://dc.lft.to/lastmile_qr_scan", "ios": "https://dc.lft.to/lastmile_qr_scan"}, "fusion_lon": 0.0}, {"lat": 38.960241333333336, "is_disabled": 0, "type": "electric_bike", "lon": -77.01737533333333, "bike_id": "0f15de3492b4ae4e5d01a4ef7d999a2e", "fusion_lat": 0.0, "name": "0f15de3492b4ae4e5d01a4ef7d999a2e", "is_reserved": 0, "rental_uris": {"android": "https://dc.lft.to/lastmile_qr_scan", "ios": "https://dc.lft.to/lastmile_qr_scan"}, "fusion_lon": 0.0}, {"lat": 38.9343495, "is_disabled": 0, "type": "electric_scooter", "lon": -77.03443, "bike_id": "b730f635350c98e0fa5162b864dd7ef7", "fusion_lat": 0.0, "name": "b730f635350c98e0fa5162b864dd7ef7", "is_reserved": 0, "rental_uris": {"android": "https://dc.lft.to/lastmile_qr_scan", "ios": "https://dc.lft.to/lastmile_qr_scan"}, "fusion_lon": 0.0}, {"lat": 38.909984666666666, "is_disabled": 0, "type": "electric_scooter", "lon": -77.04007483333334, "bike_id": "9ee3a28d01c21c86b536663d3d37d091", "fusion_lat": 0.0, "name": "9ee3a28d01c21c86b536663d3d37d091", "is_reserved": 0, "rental_uris": {"android": "https://dc.lft.to/lastmile_qr_scan", "ios": "https://dc.lft.to/lastmile_qr_scan"}, "fusion_lon": 0.0}, {"lat": 38.92783266666667, "is_disabled": 0, "type": "electric_scooter", "lon": -77.026937, "bike_id": "94316ea9e9646506bbc7e238e5a6444e", "fusion_lat": 0.0, "name": "94316ea9e9646506bbc7e238e5a6444e", "is_reserved": 0, "rental_uris": {"android": "https://dc.lft.to/lastmile_qr_scan", "ios": "https://dc.lft.to/lastmile_qr_scan"}, "fusion_lon": 0.0}, {"lat": 38.9662665, "is_disabled": 0, "type": "electric_bike", "lon": -76.976732, "bike_id": "60c6164df3aa5ba32fc6ca166833c2d8", "fusion_lat": 0.0, "name": "60c6164df3aa5ba32fc6ca166833c2d8", "is_reserved": 0, "rental_uris": {"android": "https://dc.lft.to/lastmile_qr_scan", "ios": "https://dc.lft.to/lastmile_qr_scan"}, "fusion_lon": 0.0}, {"lat": 38.9449415, "is_disabled": 0, "type": "electric_bike", "lon": -77.00679066666666, "bike_id": "1d9b11a198e0ccd2d19809f178c4e8f8", "fusion_lat": 0.0, "name": "1d9b11a198e0ccd2d19809f178c4e8f8", "is_reserved": 0, "rental_uris": {"android": "https://dc.lft.to/lastmile_qr_scan", "ios": "https://dc.lft.to/lastmile_qr_scan"}, "fusion_lon": 0.0}, {"lat": 38.90868966666667, "is_disabled": 0, "type": "electric_scooter", "lon": -77.03860983333334, "bike_id": "22bc6cf9719ae7787e563f3d5d8702b9", "fusion_lat": 0.0, "name": "22bc6cf9719ae7787e563f3d5d8702b9", "is_reserved": 0, "rental_uris": {"android": "https://dc.lft.to/lastmile_qr_scan", "ios": "https://dc.lft.to/lastmile_qr_scan"}, "fusion_lon": 0.0}, {"lat": 38.90299733333333, "is_disabled": 0, "type": "electric_scooter", "lon": -77.05323116666666, "bike_id": "768d51d5d4bd231a085a529209087dda", "fusion_lat": 0.0, "name": "768d51d5d4bd231a085a529209087dda", "is_reserved": 0, "rental_uris": {"android": "https://dc.lft.to/lastmile_qr_scan", "ios": "https://dc.lft.to/lastmile_qr_scan"}, "fusion_lon": 0.0}, {"lat": 38.871478, "is_disabled": 0, "type": "electric_bike", "lon": -76.93671766666667, "bike_id": "123285d9d9fc5088c0ab4bbfc7f70a7c", "fusion_lat": 0.0, "name": "123285d9d9fc5088c0ab4bbfc7f70a7c", "is_reserved": 0, "rental_uris": {"android": "https://dc.lft.to/lastmile_qr_scan", "ios": "https://dc.lft.to/lastmile_qr_scan"}, "fusion_lon": 0.0}, {"lat": 38.9038105, "is_disabled": 0, "type": "electric_scooter", "lon": -77.00881833333334, "bike_id": "a154afa00e17791d92c75ba9e04dbbe1", "fusion_lat": 0.0, "name": "a154afa00e17791d92c75ba9e04dbbe1", "is_reserved": 0, "rental_uris": {"android": "https://dc.lft.to/lastmile_qr_scan", "ios": "https://dc.lft.to/lastmile_qr_scan"}, "fusion_lon": 0.0}, {"lat": 38.90285566666667, "is_disabled": 0, "type": "electric_scooter", "lon": -77.03642933333333, "bike_id": "934d7c1aa2a6287d0cd7d940b7ddbaf0", "fusion_lat": 0.0, "name": "934d7c1aa2a6287d0cd7d940b7ddbaf0", "is_reserved": 0, "rental_uris": {"android": "https://dc.lft.to/lastmile_qr_scan", "ios": "https://dc.lft.to/lastmile_qr_scan"}, "fusion_lon": 0.0}, {"lat": 38.94133466666667, "is_disabled": 0, "type": "electric_scooter", "lon": -77.07616, "bike_id": "a5ee3c6bfe9d6b5a6e01dcba3d13aa73", "fusion_lat": 0.0, "name": "a5ee3c6bfe9d6b5a6e01dcba3d13aa73", "is_reserved": 0, "rental_uris": {"android": "https://dc.lft.to/lastmile_qr_scan", "ios": "https://dc.lft.to/lastmile_qr_scan"}, "fusion_lon": 0.0}, {"lat": 38.900189, "is_disabled": 0, "type": "electric_scooter", "lon": -77.0332115, "bike_id": "d7379223be95cd7ab1d884501cdc7cb0", "fusion_lat": 0.0, "name": "d7379223be95cd7ab1d884501cdc7cb0", "is_reserved": 0, "rental_uris": {"android": "https://dc.lft.to/lastmile_qr_scan", "ios": "https://dc.lft.to/lastmile_qr_scan"}, "fusion_lon": 0.0}, {"lat": 38.93577783333333, "is_disabled": 0, "type": "electric_bike", "lon": -77.10683333333333, "bike_id": "420b4be41c8f6e7a79dc47833f2d736f", "fusion_lat": 0.0, "name": "420b4be41c8f6e7a79dc47833f2d736f", "is_reserved": 0, "rental_uris": {"android": "https://dc.lft.to/lastmile_qr_scan", "ios": "https://dc.lft.to/lastmile_qr_scan"}, "fusion_lon": 0.0}, {"lat": 38.91635133333333, "is_disabled": 0, "type": "electric_scooter", "lon": -77.026923, "bike_id": "7b6881890d737560102afc02fc1802f5", "fusion_lat": 0.0, "name": "7b6881890d737560102afc02fc1802f5", "is_reserved": 0, "rental_uris": {"android": "https://dc.lft.to/lastmile_qr_scan", "ios": "https://dc.lft.to/lastmile_qr_scan"}, "fusion_lon": 0.0}, {"lat": 38.909486333333334, "is_disabled": 0, "type": "electric_scooter", "lon": -77.04657816666666, "bike_id": "682c1513313ae114fc4b11d7e850a043", "fusion_lat": 0.0, "name": "682c1513313ae114fc4b11d7e850a043", "is_reserved": 0, "rental_uris": {"android": "https://dc.lft.to/lastmile_qr_scan", "ios": "https://dc.lft.to/lastmile_qr_scan"}, "fusion_lon": 0.0}, {"lat": 38.895280166666666, "is_disabled": 0, "type": "electric_scooter", "lon": -77.0006775, "bike_id": "61d7bb0199705327839f1517e946b7cc", "fusion_lat": 0.0, "name": "61d7bb0199705327839f1517e946b7cc", "is_reserved": 0, "rental_uris": {"android": "https://dc.lft.to/lastmile_qr_scan", "ios": "https://dc.lft.to/lastmile_qr_scan"}, "fusion_lon": 0.0}, {"lat": 38.900241, "is_disabled": 0, "type": "electric_scooter", "lon": -77.03342, "bike_id": "d0c32191979a6492029dc57f5f4bce52", "fusion_lat": 0.0, "name": "d0c32191979a6492029dc57f5f4bce52", "is_reserved": 0, "rental_uris": {"android": "https://dc.lft.to/lastmile_qr_scan", "ios": "https://dc.lft.to/lastmile_qr_scan"}, "fusion_lon": 0.0}, {"lat": 38.902795, "is_disabled": 0, "type": "electric_scooter", "lon": -77.0115855, "bike_id": "a5731ae279505e907565c08b07cfe879", "fusion_lat": 0.0, "name": "a5731ae279505e907565c08b07cfe879", "is_reserved": 0, "rental_uris": {"android": "https://dc.lft.to/lastmile_qr_scan", "ios": "https://dc.lft.to/lastmile_qr_scan"}, "fusion_lon": 0.0}, {"lat": 38.86357433333333, "is_disabled": 0, "type": "electric_scooter", "lon": -76.9904155, "bike_id": "246f31a550fc8b329f53a522c719913c", "fusion_lat": 0.0, "name": "246f31a550fc8b329f53a522c719913c", "is_reserved": 0, "rental_uris": {"android": "https://dc.lft.to/lastmile_qr_scan", "ios": "https://dc.lft.to/lastmile_qr_scan"}, "fusion_lon": 0.0}, {"lat": 38.9506095, "is_disabled": 0, "type": "electric_scooter", "lon": -77.00723283333333, "bike_id": "f19b944d778296c17c2433da34240793", "fusion_lat": 0.0, "name": "f19b944d778296c17c2433da34240793", "is_reserved": 0, "rental_uris": {"android": "https://dc.lft.to/lastmile_qr_scan", "ios": "https://dc.lft.to/lastmile_qr_scan"}, "fusion_lon": 0.0}, {"lat": 38.94836933333333, "is_disabled": 0, "type": "electric_scooter", "lon": -77.0258385, "bike_id": "b785f96dbebd47bfec0f3f40a850cc32", "fusion_lat": 0.0, "name": "b785f96dbebd47bfec0f3f40a850cc32", "is_reserved": 0, "rental_uris": {"android": "https://dc.lft.to/lastmile_qr_scan", "ios": "https://dc.lft.to/lastmile_qr_scan"}, "fusion_lon": 0.0}, {"lat": 38.8876805, "is_disabled": 0, "type": "electric_scooter", "lon": -76.98355566666666, "bike_id": "4e44da481d31af2c72dc2d4ed376a1eb", "fusion_lat": 0.0, "name": "4e44da481d31af2c72dc2d4ed376a1eb", "is_reserved": 0, "rental_uris": {"android": "https://dc.lft.to/lastmile_qr_scan", "ios": "https://dc.lft.to/lastmile_qr_scan"}, "fusion_lon": 0.0}, {"lat": 38.88273366666667, "is_disabled": 0, "type": "electric_bike", "lon": -76.93240966666667, "bike_id": "284e112c72bdff584bac6c58b50a8714", "fusion_lat": 0.0, "name": "284e112c72bdff584bac6c58b50a8714", "is_reserved": 0, "rental_uris": {"android": "https://dc.lft.to/lastmile_qr_scan", "ios": "https://dc.lft.to/lastmile_qr_scan"}, "fusion_lon": 0.0}, {"lat": 38.935752, "is_disabled": 0, "type": "electric_scooter", "lon": -77.03754666666667, "bike_id": "b88573a3920503b5c481c95c5ff2a616", "fusion_lat": 0.0, "name": "b88573a3920503b5c481c95c5ff2a616", "is_reserved": 0, "rental_uris": {"android": "https://dc.lft.to/lastmile_qr_scan", "ios": "https://dc.lft.to/lastmile_qr_scan"}, "fusion_lon": 0.0}, {"lat": 38.907368166666664, "is_disabled": 0, "type": "electric_scooter", "lon": -77.04139266666667, "bike_id": "e3b2418fb3964396df4b351d5420fb77", "fusion_lat": 0.0, "name": "e3b2418fb3964396df4b351d5420fb77", "is_reserved": 0, "rental_uris": {"android": "https://dc.lft.to/lastmile_qr_scan", "ios": "https://dc.lft.to/lastmile_qr_scan"}, "fusion_lon": 0.0}, {"lat": 38.8622515, "is_disabled": 0, "type": "electric_scooter", "lon": -76.98364083333334, "bike_id": "790de363bcf6797686d5912ad4000440", "fusion_lat": 0.0, "name": "790de363bcf6797686d5912ad4000440", "is_reserved": 0, "rental_uris": {"android": "https://dc.lft.to/lastmile_qr_scan", "ios": "https://dc.lft.to/lastmile_qr_scan"}, "fusion_lon": 0.0}, {"lat": 38.90336416666667, "is_disabled": 0, "type": "electric_scooter", "lon": -76.97055483333334, "bike_id": "8a31ace7aec3ae146ce41a213314b706", "fusion_lat": 0.0, "name": "8a31ace7aec3ae146ce41a213314b706", "is_reserved": 0, "rental_uris": {"android": "https://dc.lft.to/lastmile_qr_scan", "ios": "https://dc.lft.to/lastmile_qr_scan"}, "fusion_lon": 0.0}, {"lat": 38.91179966666667, "is_disabled": 0, "type": "electric_scooter", "lon": -77.04456383333333, "bike_id": "841b3ed15fd92dc2b3e79862e8cc1406", "fusion_lat": 0.0, "name": "841b3ed15fd92dc2b3e79862e8cc1406", "is_reserved": 0, "rental_uris": {"android": "https://dc.lft.to/lastmile_qr_scan", "ios": "https://dc.lft.to/lastmile_qr_scan"}, "fusion_lon": 0.0}, {"lat": 38.9009395, "is_disabled": 0, "type": "electric_scooter", "lon": -77.05060666666667, "bike_id": "f511350628ec5c2ee34f6affd7029de0", "fusion_lat": 0.0, "name": "f511350628ec5c2ee34f6affd7029de0", "is_reserved": 0, "rental_uris": {"android": "https://dc.lft.to/lastmile_qr_scan", "ios": "https://dc.lft.to/lastmile_qr_scan"}, "fusion_lon": 0.0}, {"lat": 38.95077583333333, "is_disabled": 0, "type": "electric_bike", "lon": -77.01200633333333, "bike_id": "32ea7120a4bf1c4a716d971d8c7c6d7f", "fusion_lat": 0.0, "name": "32ea7120a4bf1c4a716d971d8c7c6d7f", "is_reserved": 0, "rental_uris": {"android": "https://dc.lft.to/lastmile_qr_scan", "ios": "https://dc.lft.to/lastmile_qr_scan"}, "fusion_lon": 0.0}, {"lat": 38.8662025, "is_disabled": 0, "type": "electric_scooter", "lon": -76.98664833333333, "bike_id": "73b91d59c90dbe1e5d7feebd5a7b1603", "fusion_lat": 0.0, "name": "73b91d59c90dbe1e5d7feebd5a7b1603", "is_reserved": 0, "rental_uris": {"android": "https://dc.lft.to/lastmile_qr_scan", "ios": "https://dc.lft.to/lastmile_qr_scan"}, "fusion_lon": 0.0}, {"lat": 38.91564016666667, "is_disabled": 0, "type": "electric_scooter", "lon": -77.00979683333334, "bike_id": "fbeeb2c353570db6585aa346a3d6c965", "fusion_lat": 0.0, "name": "fbeeb2c353570db6585aa346a3d6c965", "is_reserved": 0, "rental_uris": {"android": "https://dc.lft.to/lastmile_qr_scan", "ios": "https://dc.lft.to/lastmile_qr_scan"}, "fusion_lon": 0.0}, {"lat": 38.908812833333336, "is_disabled": 0, "type": "electric_scooter", "lon": -77.03661833333334, "bike_id": "50e641e7779190f802784783d5a54bee", "fusion_lat": 0.0, "name": "50e641e7779190f802784783d5a54bee", "is_reserved": 0, "rental_uris": {"android": "https://dc.lft.to/lastmile_qr_scan", "ios": "https://dc.lft.to/lastmile_qr_scan"}, "fusion_lon": 0.0}, {"lat": 38.91495966666667, "is_disabled": 0, "type": "electric_scooter", "lon": -76.98381133333334, "bike_id": "3859fc315f8503c65d71412dc47a123f", "fusion_lat": 0.0, "name": "3859fc315f8503c65d71412dc47a123f", "is_reserved": 0, "rental_uris": {"android": "https://dc.lft.to/lastmile_qr_scan", "ios": "https://dc.lft.to/lastmile_qr_scan"}, "fusion_lon": 0.0}, {"lat": 38.901432, "is_disabled": 0, "type": "electric_scooter", "lon": -77.05109483333334, "bike_id": "cdfa7a486b5fdb29cccd20c2cefeae92", "fusion_lat": 0.0, "name": "cdfa7a486b5fdb29cccd20c2cefeae92", "is_reserved": 0, "rental_uris": {"android": "https://dc.lft.to/lastmile_qr_scan", "ios": "https://dc.lft.to/lastmile_qr_scan"}, "fusion_lon": 0.0}, {"lat": 38.894226833333335, "is_disabled": 0, "type": "electric_scooter", "lon": -77.02089283333333, "bike_id": "cd733187c0c76b67f499163bd4dc26e3", "fusion_lat": 0.0, "name": "cd733187c0c76b67f499163bd4dc26e3", "is_reserved": 0, "rental_uris": {"android": "https://dc.lft.to/lastmile_qr_scan", "ios": "https://dc.lft.to/lastmile_qr_scan"}, "fusion_lon": 0.0}, {"lat": 38.95738716666666, "is_disabled": 0, "type": "electric_scooter", "lon": -77.023811, "bike_id": "5136ca60de0ce9b3de2a811b3fd5c061", "fusion_lat": 0.0, "name": "5136ca60de0ce9b3de2a811b3fd5c061", "is_reserved": 0, "rental_uris": {"android": "https://dc.lft.to/lastmile_qr_scan", "ios": "https://dc.lft.to/lastmile_qr_scan"}, "fusion_lon": 0.0}, {"lat": 38.928956166666666, "is_disabled": 0, "type": "electric_bike", "lon": -77.05777766666667, "bike_id": "c11a7a7df54d476a4734c995e9f6880e", "fusion_lat": 0.0, "name": "c11a7a7df54d476a4734c995e9f6880e", "is_reserved": 0, "rental_uris": {"android": "https://dc.lft.to/lastmile_qr_scan", "ios": "https://dc.lft.to/lastmile_qr_scan"}, "fusion_lon": 0.0}, {"lat": 38.9303345, "is_disabled": 0, "type": "electric_scooter", "lon": -77.02962816666667, "bike_id": "22921b9fee7590061447d60576e758bb", "fusion_lat": 0.0, "name": "22921b9fee7590061447d60576e758bb", "is_reserved": 0, "rental_uris": {"android": "https://dc.lft.to/lastmile_qr_scan", "ios": "https://dc.lft.to/lastmile_qr_scan"}, "fusion_lon": 0.0}, {"lat": 38.937932, "is_disabled": 0, "type": "electric_scooter", "lon": -77.02450266666666, "bike_id": "c57f446df372c6eddfe34d0fbcd3b587", "fusion_lat": 0.0, "name": "c57f446df372c6eddfe34d0fbcd3b587", "is_reserved": 0, "rental_uris": {"android": "https://dc.lft.to/lastmile_qr_scan", "ios": "https://dc.lft.to/lastmile_qr_scan"}, "fusion_lon": 0.0}, {"lat": 38.908504666666666, "is_disabled": 0, "type": "electric_scooter", "lon": -77.00622633333333, "bike_id": "aaa054d75244bf1c6f7dc62a5759ace6", "fusion_lat": 0.0, "name": "aaa054d75244bf1c6f7dc62a5759ace6", "is_reserved": 0, "rental_uris": {"android": "https://dc.lft.to/lastmile_qr_scan", "ios": "https://dc.lft.to/lastmile_qr_scan"}, "fusion_lon": 0.0}, {"lat": 38.918007333333335, "is_disabled": 0, "type": "electric_bike", "lon": -77.223424, "bike_id": "2608252308417e67337cebcb3225871b", "fusion_lat": 0.0, "name": "2608252308417e67337cebcb3225871b", "is_reserved": 0, "rental_uris": {"android": "https://dc.lft.to/lastmile_qr_scan", "ios": "https://dc.lft.to/lastmile_qr_scan"}, "fusion_lon": 0.0}, {"lat": 38.896804, "is_disabled": 0, "type": "electric_scooter", "lon": -77.05126366666667, "bike_id": "98a0b215d085925bee3216de54ec678e", "fusion_lat": 0.0, "name": "98a0b215d085925bee3216de54ec678e", "is_reserved": 0, "rental_uris": {"android": "https://dc.lft.to/lastmile_qr_scan", "ios": "https://dc.lft.to/lastmile_qr_scan"}, "fusion_lon": 0.0}, {"lat": 38.9264175, "is_disabled": 0, "type": "electric_scooter", "lon": -77.04308083333333, "bike_id": "ac5395ff02bb65d8ad9c708621771a33", "fusion_lat": 0.0, "name": "ac5395ff02bb65d8ad9c708621771a33", "is_reserved": 0, "rental_uris": {"android": "https://dc.lft.to/lastmile_qr_scan", "ios": "https://dc.lft.to/lastmile_qr_scan"}, "fusion_lon": 0.0}, {"lat": 38.933836166666666, "is_disabled": 0, "type": "electric_scooter", "lon": -76.995182, "bike_id": "67a95b13b9c07d31e4e907255ca29e21", "fusion_lat": 0.0, "name": "67a95b13b9c07d31e4e907255ca29e21", "is_reserved": 0, "rental_uris": {"android": "https://dc.lft.to/lastmile_qr_scan", "ios": "https://dc.lft.to/lastmile_qr_scan"}, "fusion_lon": 0.0}, {"lat": 38.917625666666666, "is_disabled": 0, "type": "electric_scooter", "lon": -77.0366045, "bike_id": "f163219b101f337a72113024534ea559", "fusion_lat": 0.0, "name": "f163219b101f337a72113024534ea559", "is_reserved": 0, "rental_uris": {"android": "https://dc.lft.to/lastmile_qr_scan", "ios": "https://dc.lft.to/lastmile_qr_scan"}, "fusion_lon": 0.0}, {"lat": 38.9311315, "is_disabled": 0, "type": "electric_scooter", "lon": -77.030223, "bike_id": "7227bdb970db8b3143ecc5f19fb79173", "fusion_lat": 0.0, "name": "7227bdb970db8b3143ecc5f19fb79173", "is_reserved": 0, "rental_uris": {"android": "https://dc.lft.to/lastmile_qr_scan", "ios": "https://dc.lft.to/lastmile_qr_scan"}, "fusion_lon": 0.0}, {"lat": 38.93569466666667, "is_disabled": 0, "type": "electric_scooter", "lon": -77.03265316666666, "bike_id": "992ea2f08ed6bf69e2acc6dca201aa65", "fusion_lat": 0.0, "name": "992ea2f08ed6bf69e2acc6dca201aa65", "is_reserved": 0, "rental_uris": {"android": "https://dc.lft.to/lastmile_qr_scan", "ios": "https://dc.lft.to/lastmile_qr_scan"}, "fusion_lon": 0.0}, {"lat": 38.905643833333336, "is_disabled": 0, "type": "electric_scooter", "lon": -77.0362185, "bike_id": "466ab3540036c61533a967f1bddd870b", "fusion_lat": 0.0, "name": "466ab3540036c61533a967f1bddd870b", "is_reserved": 0, "rental_uris": {"android": "https://dc.lft.to/lastmile_qr_scan", "ios": "https://dc.lft.to/lastmile_qr_scan"}, "fusion_lon": 0.0}, {"lat": 38.91523683333333, "is_disabled": 0, "type": "electric_scooter", "lon": -77.03188916666667, "bike_id": "1cdd1ce89b757b0975e8660d5ef4956e", "fusion_lat": 0.0, "name": "1cdd1ce89b757b0975e8660d5ef4956e", "is_reserved": 0, "rental_uris": {"android": "https://dc.lft.to/lastmile_qr_scan", "ios": "https://dc.lft.to/lastmile_qr_scan"}, "fusion_lon": 0.0}, {"lat": 38.93703416666666, "is_disabled": 0, "type": "electric_scooter", "lon": -77.06103083333333, "bike_id": "9404e49145d52b926943299a1aa5c042", "fusion_lat": 0.0, "name": "9404e49145d52b926943299a1aa5c042", "is_reserved": 0, "rental_uris": {"android": "https://dc.lft.to/lastmile_qr_scan", "ios": "https://dc.lft.to/lastmile_qr_scan"}, "fusion_lon": 0.0}, {"lat": 38.917433833333334, "is_disabled": 0, "type": "electric_scooter", "lon": -77.02521116666667, "bike_id": "997b772008ee8a80c5391c56e88faedd", "fusion_lat": 0.0, "name": "997b772008ee8a80c5391c56e88faedd", "is_reserved": 0, "rental_uris": {"android": "https://dc.lft.to/lastmile_qr_scan", "ios": "https://dc.lft.to/lastmile_qr_scan"}, "fusion_lon": 0.0}, {"lat": 38.92148183333333, "is_disabled": 0, "type": "electric_scooter", "lon": -77.03862466666666, "bike_id": "682d515a8b837b80f83ad97e64f3b772", "fusion_lat": 0.0, "name": "682d515a8b837b80f83ad97e64f3b772", "is_reserved": 0, "rental_uris": {"android": "https://dc.lft.to/lastmile_qr_scan", "ios": "https://dc.lft.to/lastmile_qr_scan"}, "fusion_lon": 0.0}, {"lat": 38.915222, "is_disabled": 0, "type": "electric_scooter", "lon": -77.0384735, "bike_id": "6b597a63e3233f9832355f70a4ad9085", "fusion_lat": 0.0, "name": "6b597a63e3233f9832355f70a4ad9085", "is_reserved": 0, "rental_uris": {"android": "https://dc.lft.to/lastmile_qr_scan", "ios": "https://dc.lft.to/lastmile_qr_scan"}, "fusion_lon": 0.0}, {"lat": 38.898516, "is_disabled": 0, "type": "electric_bike", "lon": -76.931906, "bike_id": "37446db0b4cb8d70426caf02b905f5ce", "fusion_lat": 0.0, "name": "37446db0b4cb8d70426caf02b905f5ce", "is_reserved": 0, "rental_uris": {"android": "https://dc.lft.to/lastmile_qr_scan", "ios": "https://dc.lft.to/lastmile_qr_scan"}, "fusion_lon": 0.0}, {"lat": 38.92782016666666, "is_disabled": 0, "type": "electric_scooter", "lon": -77.0526035, "bike_id": "2192dc4a69bb580d02740f3dc5f48d63", "fusion_lat": 0.0, "name": "2192dc4a69bb580d02740f3dc5f48d63", "is_reserved": 0, "rental_uris": {"android": "https://dc.lft.to/lastmile_qr_scan", "ios": "https://dc.lft.to/lastmile_qr_scan"}, "fusion_lon": 0.0}, {"lat": 38.89610316666667, "is_disabled": 0, "type": "electric_scooter", "lon": -77.00927283333333, "bike_id": "8d28c6e625dd847abdc19552432b0854", "fusion_lat": 0.0, "name": "8d28c6e625dd847abdc19552432b0854", "is_reserved": 0, "rental_uris": {"android": "https://dc.lft.to/lastmile_qr_scan", "ios": "https://dc.lft.to/lastmile_qr_scan"}, "fusion_lon": 0.0}, {"lat": 38.94550666666667, "is_disabled": 0, "type": "electric_bike", "lon": -76.89539116666667, "bike_id": "683f282dc44feda080ba3b0035c42ae9", "fusion_lat": 0.0, "name": "683f282dc44feda080ba3b0035c42ae9", "is_reserved": 0, "rental_uris": {"android": "https://dc.lft.to/lastmile_qr_scan", "ios": "https://dc.lft.to/lastmile_qr_scan"}, "fusion_lon": 0.0}, {"lat": 38.902382, "is_disabled": 0, "type": "electric_scooter", "lon": -77.017565, "bike_id": "ad3b9d165f829fd15c053dee578cacdf", "fusion_lat": 0.0, "name": "ad3b9d165f829fd15c053dee578cacdf", "is_reserved": 0, "rental_uris": {"android": "https://dc.lft.to/lastmile_qr_scan", "ios": "https://dc.lft.to/lastmile_qr_scan"}, "fusion_lon": 0.0}, {"lat": 38.90961866666667, "is_disabled": 0, "type": "electric_scooter", "lon": -77.04801766666667, "bike_id": "3ab6d96588282bf9025540cea99f4d4c", "fusion_lat": 0.0, "name": "3ab6d96588282bf9025540cea99f4d4c", "is_reserved": 0, "rental_uris": {"android": "https://dc.lft.to/lastmile_qr_scan", "ios": "https://dc.lft.to/lastmile_qr_scan"}, "fusion_lon": 0.0}, {"lat": 38.9084055, "is_disabled": 0, "type": "electric_scooter", "lon": -77.04016383333334, "bike_id": "f0faa0de0069fe2314df7b3d6ad2a2c1", "fusion_lat": 0.0, "name": "f0faa0de0069fe2314df7b3d6ad2a2c1", "is_reserved": 0, "rental_uris": {"android": "https://dc.lft.to/lastmile_qr_scan", "ios": "https://dc.lft.to/lastmile_qr_scan"}, "fusion_lon": 0.0}, {"lat": 38.992574166666664, "is_disabled": 0, "type": "electric_scooter", "lon": -77.03654466666667, "bike_id": "f30ae0e3f6c903b2a8eb20d3bc5934bd", "fusion_lat": 0.0, "name": "f30ae0e3f6c903b2a8eb20d3bc5934bd", "is_reserved": 0, "rental_uris": {"android": "https://dc.lft.to/lastmile_qr_scan", "ios": "https://dc.lft.to/lastmile_qr_scan"}, "fusion_lon": 0.0}, {"lat": 38.90549716666666, "is_disabled": 0, "type": "electric_scooter", "lon": -77.00585583333333, "bike_id": "9f26df39237c9985d687db58d5ea3f23", "fusion_lat": 0.0, "name": "9f26df39237c9985d687db58d5ea3f23", "is_reserved": 0, "rental_uris": {"android": "https://dc.lft.to/lastmile_qr_scan", "ios": "https://dc.lft.to/lastmile_qr_scan"}, "fusion_lon": 0.0}, {"lat": 38.91773633333333, "is_disabled": 0, "type": "electric_scooter", "lon": -77.01472016666666, "bike_id": "2fffb9f45837eca88be23747caded976", "fusion_lat": 0.0, "name": "2fffb9f45837eca88be23747caded976", "is_reserved": 0, "rental_uris": {"android": "https://dc.lft.to/lastmile_qr_scan", "ios": "https://dc.lft.to/lastmile_qr_scan"}, "fusion_lon": 0.0}, {"lat": 38.919365, "is_disabled": 0, "type": "electric_scooter", "lon": -77.070828, "bike_id": "c3c6afa663efe4160db5019241e6c47c", "fusion_lat": 0.0, "name": "c3c6afa663efe4160db5019241e6c47c", "is_reserved": 0, "rental_uris": {"android": "https://dc.lft.to/lastmile_qr_scan", "ios": "https://dc.lft.to/lastmile_qr_scan"}, "fusion_lon": 0.0}, {"lat": 38.844333666666664, "is_disabled": 0, "type": "electric_scooter", "lon": -76.99668233333334, "bike_id": "7a3c320b860c7d4e4f4af65ff03b43ba", "fusion_lat": 0.0, "name": "7a3c320b860c7d4e4f4af65ff03b43ba", "is_reserved": 0, "rental_uris": {"android": "https://dc.lft.to/lastmile_qr_scan", "ios": "https://dc.lft.to/lastmile_qr_scan"}, "fusion_lon": 0.0}, {"lat": 38.85190266666667, "is_disabled": 0, "type": "electric_scooter", "lon": -76.9762365, "bike_id": "fcca62d5533296a93d89659575747580", "fusion_lat": 0.0, "name": "fcca62d5533296a93d89659575747580", "is_reserved": 0, "rental_uris": {"android": "https://dc.lft.to/lastmile_qr_scan", "ios": "https://dc.lft.to/lastmile_qr_scan"}, "fusion_lon": 0.0}, {"lat": 38.93734033333333, "is_disabled": 0, "type": "electric_scooter", "lon": -77.03609216666666, "bike_id": "5bfd6ab5234587cfdbf2caf3de5d08f7", "fusion_lat": 0.0, "name": "5bfd6ab5234587cfdbf2caf3de5d08f7", "is_reserved": 0, "rental_uris": {"android": "https://dc.lft.to/lastmile_qr_scan", "ios": "https://dc.lft.to/lastmile_qr_scan"}, "fusion_lon": 0.0}, {"lat": 38.907206333333335, "is_disabled": 0, "type": "electric_scooter", "lon": -77.039925, "bike_id": "5189fe872eecdb33a1f2a0292205d0e3", "fusion_lat": 0.0, "name": "5189fe872eecdb33a1f2a0292205d0e3", "is_reserved": 0, "rental_uris": {"android": "https://dc.lft.to/lastmile_qr_scan", "ios": "https://dc.lft.to/lastmile_qr_scan"}, "fusion_lon": 0.0}, {"lat": 38.892518, "is_disabled": 0, "type": "electric_scooter", "lon": -77.03346516666667, "bike_id": "9729023484a893622b8c3897e37f21a0", "fusion_lat": 0.0, "name": "9729023484a893622b8c3897e37f21a0", "is_reserved": 0, "rental_uris": {"android": "https://dc.lft.to/lastmile_qr_scan", "ios": "https://dc.lft.to/lastmile_qr_scan"}, "fusion_lon": 0.0}, {"lat": 38.92594016666666, "is_disabled": 0, "type": "electric_scooter", "lon": -77.04402483333334, "bike_id": "67a4c35abd490aeceaf7c5ff3d189327", "fusion_lat": 0.0, "name": "67a4c35abd490aeceaf7c5ff3d189327", "is_reserved": 0, "rental_uris": {"android": "https://dc.lft.to/lastmile_qr_scan", "ios": "https://dc.lft.to/lastmile_qr_scan"}, "fusion_lon": 0.0}, {"lat": 38.86256916666667, "is_disabled": 0, "type": "electric_scooter", "lon": -76.99517716666666, "bike_id": "79bf575a6cb4c738eba2e369a2765f8a", "fusion_lat": 0.0, "name": "79bf575a6cb4c738eba2e369a2765f8a", "is_reserved": 0, "rental_uris": {"android": "https://dc.lft.to/lastmile_qr_scan", "ios": "https://dc.lft.to/lastmile_qr_scan"}, "fusion_lon": 0.0}, {"lat": 38.898518, "is_disabled": 0, "type": "electric_scooter", "lon": -76.99032, "bike_id": "36377a745916ce430628784c75222a56", "fusion_lat": 0.0, "name": "36377a745916ce430628784c75222a56", "is_reserved": 0, "rental_uris": {"android": "https://dc.lft.to/lastmile_qr_scan", "ios": "https://dc.lft.to/lastmile_qr_scan"}, "fusion_lon": 0.0}, {"lat": 38.89728316666667, "is_disabled": 0, "type": "electric_scooter", "lon": -77.04987666666666, "bike_id": "bdb8f2bc10035e7012c698fbd3996f24", "fusion_lat": 0.0, "name": "bdb8f2bc10035e7012c698fbd3996f24", "is_reserved": 0, "rental_uris": {"android": "https://dc.lft.to/lastmile_qr_scan", "ios": "https://dc.lft.to/lastmile_qr_scan"}, "fusion_lon": 0.0}, {"lat": 39.034216, "is_disabled": 0, "type": "electric_bike", "lon": -77.0430215, "bike_id": "29674d19995da3a2e0d615ed5f7bb604", "fusion_lat": 0.0, "name": "29674d19995da3a2e0d615ed5f7bb604", "is_reserved": 0, "rental_uris": {"android": "https://dc.lft.to/lastmile_qr_scan", "ios": "https://dc.lft.to/lastmile_qr_scan"}, "fusion_lon": 0.0}, {"lat": 38.9366035, "is_disabled": 0, "type": "electric_bike", "lon": -76.95216416666666, "bike_id": "14f4de9df22d3155157d99594d7dd2db", "fusion_lat": 0.0, "name": "14f4de9df22d3155157d99594d7dd2db", "is_reserved": 0, "rental_uris": {"android": "https://dc.lft.to/lastmile_qr_scan", "ios": "https://dc.lft.to/lastmile_qr_scan"}, "fusion_lon": 0.0}, {"lat": 38.9643085, "is_disabled": 0, "type": "electric_bike", "lon": -77.0215665, "bike_id": "776505b5673b9e5cb203b6b3b3d8230a", "fusion_lat": 0.0, "name": "776505b5673b9e5cb203b6b3b3d8230a", "is_reserved": 0, "rental_uris": {"android": "https://dc.lft.to/lastmile_qr_scan", "ios": "https://dc.lft.to/lastmile_qr_scan"}, "fusion_lon": 0.0}, {"lat": 38.92747883333333, "is_disabled": 0, "type": "electric_scooter", "lon": -77.03235216666667, "bike_id": "38b1a5dcb4fdabf282635b721fb0940a", "fusion_lat": 0.0, "name": "38b1a5dcb4fdabf282635b721fb0940a", "is_reserved": 0, "rental_uris": {"android": "https://dc.lft.to/lastmile_qr_scan", "ios": "https://dc.lft.to/lastmile_qr_scan"}, "fusion_lon": 0.0}, {"lat": 38.91825716666666, "is_disabled": 0, "type": "electric_scooter", "lon": -77.02396816666666, "bike_id": "6e6c5319ff39592319e399f460c4a2c3", "fusion_lat": 0.0, "name": "6e6c5319ff39592319e399f460c4a2c3", "is_reserved": 0, "rental_uris": {"android": "https://dc.lft.to/lastmile_qr_scan", "ios": "https://dc.lft.to/lastmile_qr_scan"}, "fusion_lon": 0.0}, {"lat": 38.900729, "is_disabled": 0, "type": "electric_scooter", "lon": -77.0021315, "bike_id": "544a9cc2572548235755054ec36fb172", "fusion_lat": 0.0, "name": "544a9cc2572548235755054ec36fb172", "is_reserved": 0, "rental_uris": {"android": "https://dc.lft.to/lastmile_qr_scan", "ios": "https://dc.lft.to/lastmile_qr_scan"}, "fusion_lon": 0.0}, {"lat": 38.9170645, "is_disabled": 0, "type": "electric_scooter", "lon": -77.03864566666667, "bike_id": "5756dbff80204f23254ecd62c9f62ac4", "fusion_lat": 0.0, "name": "5756dbff80204f23254ecd62c9f62ac4", "is_reserved": 0, "rental_uris": {"android": "https://dc.lft.to/lastmile_qr_scan", "ios": "https://dc.lft.to/lastmile_qr_scan"}, "fusion_lon": 0.0}, {"lat": 39.004768, "is_disabled": 0, "type": "electric_bike", "lon": -76.901372, "bike_id": "9589a14861abcb64c190e163cfb7d818", "fusion_lat": 0.0, "name": "9589a14861abcb64c190e163cfb7d818", "is_reserved": 0, "rental_uris": {"android": "https://dc.lft.to/lastmile_qr_scan", "ios": "https://dc.lft.to/lastmile_qr_scan"}, "fusion_lon": 0.0}, {"lat": 38.883088, "is_disabled": 0, "type": "electric_scooter", "lon": -77.0175315, "bike_id": "09608e7a0cefd2e2c85c94b1c23610cf", "fusion_lat": 0.0, "name": "09608e7a0cefd2e2c85c94b1c23610cf", "is_reserved": 0, "rental_uris": {"android": "https://dc.lft.to/lastmile_qr_scan", "ios": "https://dc.lft.to/lastmile_qr_scan"}, "fusion_lon": 0.0}, {"lat": 38.90576083333333, "is_disabled": 0, "type": "electric_scooter", "lon": -77.00738466666667, "bike_id": "ee568548d48acf8ec34a942843d1359d", "fusion_lat": 0.0, "name": "ee568548d48acf8ec34a942843d1359d", "is_reserved": 0, "rental_uris": {"android": "https://dc.lft.to/lastmile_qr_scan", "ios": "https://dc.lft.to/lastmile_qr_scan"}, "fusion_lon": 0.0}, {"lat": 38.92788566666667, "is_disabled": 0, "type": "electric_scooter", "lon": -77.038109, "bike_id": "a703ebb81c4ef55ca04e46e7bfa0d7d1", "fusion_lat": 0.0, "name": "a703ebb81c4ef55ca04e46e7bfa0d7d1", "is_reserved": 0, "rental_uris": {"android": "https://dc.lft.to/lastmile_qr_scan", "ios": "https://dc.lft.to/lastmile_qr_scan"}, "fusion_lon": 0.0}, {"lat": 38.932523833333335, "is_disabled": 0, "type": "electric_scooter", "lon": -77.02949183333334, "bike_id": "156da1d9181e2899e28997c8c1cd7bdd", "fusion_lat": 0.0, "name": "156da1d9181e2899e28997c8c1cd7bdd", "is_reserved": 0, "rental_uris": {"android": "https://dc.lft.to/lastmile_qr_scan", "ios": "https://dc.lft.to/lastmile_qr_scan"}, "fusion_lon": 0.0}, {"lat": 38.82873716666667, "is_disabled": 0, "type": "electric_bike", "lon": -77.1121735, "bike_id": "4681a7729454651a5bb3a9dad08fb72b", "fusion_lat": 0.0, "name": "4681a7729454651a5bb3a9dad08fb72b", "is_reserved": 0, "rental_uris": {"android": "https://dc.lft.to/lastmile_qr_scan", "ios": "https://dc.lft.to/lastmile_qr_scan"}, "fusion_lon": 0.0}, {"lat": 38.909915, "is_disabled": 0, "type": "electric_scooter", "lon": -76.99736633333333, "bike_id": "af0d161e39cea0be84c9138a27bc6f4a", "fusion_lat": 0.0, "name": "af0d161e39cea0be84c9138a27bc6f4a", "is_reserved": 0, "rental_uris": {"android": "https://dc.lft.to/lastmile_qr_scan", "ios": "https://dc.lft.to/lastmile_qr_scan"}, "fusion_lon": 0.0}, {"lat": 38.917801833333336, "is_disabled": 0, "type": "electric_scooter", "lon": -77.03662216666666, "bike_id": "333690a3160fe0bba09e33d0fbd38d2e", "fusion_lat": 0.0, "name": "333690a3160fe0bba09e33d0fbd38d2e", "is_reserved": 0, "rental_uris": {"android": "https://dc.lft.to/lastmile_qr_scan", "ios": "https://dc.lft.to/lastmile_qr_scan"}, "fusion_lon": 0.0}, {"lat": 38.89398216666667, "is_disabled": 0, "type": "electric_scooter", "lon": -77.0499665, "bike_id": "662d98879d57c48a94a89c64eb4cbc23", "fusion_lat": 0.0, "name": "662d98879d57c48a94a89c64eb4cbc23", "is_reserved": 0, "rental_uris": {"android": "https://dc.lft.to/lastmile_qr_scan", "ios": "https://dc.lft.to/lastmile_qr_scan"}, "fusion_lon": 0.0}, {"lat": 38.928692166666664, "is_disabled": 0, "type": "electric_scooter", "lon": -77.019458, "bike_id": "3c9c2946bfcf5b12e673217d28712bb3", "fusion_lat": 0.0, "name": "3c9c2946bfcf5b12e673217d28712bb3", "is_reserved": 0, "rental_uris": {"android": "https://dc.lft.to/lastmile_qr_scan", "ios": "https://dc.lft.to/lastmile_qr_scan"}, "fusion_lon": 0.0}, {"lat": 38.9231905, "is_disabled": 0, "type": "electric_scooter", "lon": -77.028003, "bike_id": "526cb58bef74a5dfd430f4cd01e92059", "fusion_lat": 0.0, "name": "526cb58bef74a5dfd430f4cd01e92059", "is_reserved": 0, "rental_uris": {"android": "https://dc.lft.to/lastmile_qr_scan", "ios": "https://dc.lft.to/lastmile_qr_scan"}, "fusion_lon": 0.0}, {"lat": 38.8928065, "is_disabled": 0, "type": "electric_scooter", "lon": -76.95850116666666, "bike_id": "7ebff5759df3b608d3a90b08cb52bff1", "fusion_lat": 0.0, "name": "7ebff5759df3b608d3a90b08cb52bff1", "is_reserved": 0, "rental_uris": {"android": "https://dc.lft.to/lastmile_qr_scan", "ios": "https://dc.lft.to/lastmile_qr_scan"}, "fusion_lon": 0.0}, {"lat": 38.899962333333335, "is_disabled": 0, "type": "electric_scooter", "lon": -76.9995765, "bike_id": "d3988605ec440df28de1b5c63fafa642", "fusion_lat": 0.0, "name": "d3988605ec440df28de1b5c63fafa642", "is_reserved": 0, "rental_uris": {"android": "https://dc.lft.to/lastmile_qr_scan", "ios": "https://dc.lft.to/lastmile_qr_scan"}, "fusion_lon": 0.0}, {"lat": 38.87928433333333, "is_disabled": 0, "type": "electric_scooter", "lon": -77.00409466666666, "bike_id": "68d9f72f137fd59765efa92c840ab5d5", "fusion_lat": 0.0, "name": "68d9f72f137fd59765efa92c840ab5d5", "is_reserved": 0, "rental_uris": {"android": "https://dc.lft.to/lastmile_qr_scan", "ios": "https://dc.lft.to/lastmile_qr_scan"}, "fusion_lon": 0.0}, {"lat": 38.892656333333335, "is_disabled": 0, "type": "electric_scooter", "lon": -77.02027766666667, "bike_id": "f56dd29d4699712f35f8b6f2db040920", "fusion_lat": 0.0, "name": "f56dd29d4699712f35f8b6f2db040920", "is_reserved": 0, "rental_uris": {"android": "https://dc.lft.to/lastmile_qr_scan", "ios": "https://dc.lft.to/lastmile_qr_scan"}, "fusion_lon": 0.0}, {"lat": 38.92456766666667, "is_disabled": 0, "type": "electric_scooter", "lon": -77.08037516666667, "bike_id": "3974868814ba08cabc9fa3b18d5e8211", "fusion_lat": 0.0, "name": "3974868814ba08cabc9fa3b18d5e8211", "is_reserved": 0, "rental_uris": {"android": "https://dc.lft.to/lastmile_qr_scan", "ios": "https://dc.lft.to/lastmile_qr_scan"}, "fusion_lon": 0.0}, {"lat": 38.92953133333334, "is_disabled": 0, "type": "electric_scooter", "lon": -76.99085266666667, "bike_id": "6234bd298d7ad21f4b38b8b3ef3a1ec7", "fusion_lat": 0.0, "name": "6234bd298d7ad21f4b38b8b3ef3a1ec7", "is_reserved": 0, "rental_uris": {"android": "https://dc.lft.to/lastmile_qr_scan", "ios": "https://dc.lft.to/lastmile_qr_scan"}, "fusion_lon": 0.0}, {"lat": 38.91518166666667, "is_disabled": 0, "type": "electric_scooter", "lon": -77.03847166666667, "bike_id": "499c6739ae5eaff06b659b845f3d73ec", "fusion_lat": 0.0, "name": "499c6739ae5eaff06b659b845f3d73ec", "is_reserved": 0, "rental_uris": {"android": "https://dc.lft.to/lastmile_qr_scan", "ios": "https://dc.lft.to/lastmile_qr_scan"}, "fusion_lon": 0.0}, {"lat": 38.899933, "is_disabled": 0, "type": "electric_scooter", "lon": -77.02589266666666, "bike_id": "47abd10ea89d180bbb0b3fae8e51eda9", "fusion_lat": 0.0, "name": "47abd10ea89d180bbb0b3fae8e51eda9", "is_reserved": 0, "rental_uris": {"android": "https://dc.lft.to/lastmile_qr_scan", "ios": "https://dc.lft.to/lastmile_qr_scan"}, "fusion_lon": 0.0}, {"lat": 38.88770233333334, "is_disabled": 0, "type": "electric_scooter", "lon": -77.04349433333333, "bike_id": "5fa6fe4a01a3d831e809bbbb936e1cf5", "fusion_lat": 0.0, "name": "5fa6fe4a01a3d831e809bbbb936e1cf5", "is_reserved": 0, "rental_uris": {"android": "https://dc.lft.to/lastmile_qr_scan", "ios": "https://dc.lft.to/lastmile_qr_scan"}, "fusion_lon": 0.0}, {"lat": 38.8998715, "is_disabled": 0, "type": "electric_scooter", "lon": -77.02117766666667, "bike_id": "16372b9793e00c3be73ec222513f0149", "fusion_lat": 0.0, "name": "16372b9793e00c3be73ec222513f0149", "is_reserved": 0, "rental_uris": {"android": "https://dc.lft.to/lastmile_qr_scan", "ios": "https://dc.lft.to/lastmile_qr_scan"}, "fusion_lon": 0.0}, {"lat": 38.832062, "is_disabled": 0, "type": "electric_bike", "lon": -76.94622633333333, "bike_id": "b27906523127ff0d1ef58594c82bf819", "fusion_lat": 0.0, "name": "b27906523127ff0d1ef58594c82bf819", "is_reserved": 0, "rental_uris": {"android": "https://dc.lft.to/lastmile_qr_scan", "ios": "https://dc.lft.to/lastmile_qr_scan"}, "fusion_lon": 0.0}, {"lat": 38.89990316666667, "is_disabled": 0, "type": "electric_scooter", "lon": -77.05269666666666, "bike_id": "3f9c80dac6562af0ddcec03841d71e23", "fusion_lat": 0.0, "name": "3f9c80dac6562af0ddcec03841d71e23", "is_reserved": 0, "rental_uris": {"android": "https://dc.lft.to/lastmile_qr_scan", "ios": "https://dc.lft.to/lastmile_qr_scan"}, "fusion_lon": 0.0}, {"lat": 38.9930585, "is_disabled": 0, "type": "electric_bike", "lon": -77.03281016666666, "bike_id": "154bbd3bbc0a3e427ba561250bba656e", "fusion_lat": 0.0, "name": "154bbd3bbc0a3e427ba561250bba656e", "is_reserved": 0, "rental_uris": {"android": "https://dc.lft.to/lastmile_qr_scan", "ios": "https://dc.lft.to/lastmile_qr_scan"}, "fusion_lon": 0.0}, {"lat": 38.909826833333334, "is_disabled": 0, "type": "electric_scooter", "lon": -77.0271445, "bike_id": "efcd979fd36480d991774b2f2f26625b", "fusion_lat": 0.0, "name": "efcd979fd36480d991774b2f2f26625b", "is_reserved": 0, "rental_uris": {"android": "https://dc.lft.to/lastmile_qr_scan", "ios": "https://dc.lft.to/lastmile_qr_scan"}, "fusion_lon": 0.0}, {"lat": 38.8733705, "is_disabled": 0, "type": "electric_bike", "lon": -77.01858033333333, "bike_id": "4d1c9a21b0b4da528bbc5f9864002259", "fusion_lat": 0.0, "name": "4d1c9a21b0b4da528bbc5f9864002259", "is_reserved": 0, "rental_uris": {"android": "https://dc.lft.to/lastmile_qr_scan", "ios": "https://dc.lft.to/lastmile_qr_scan"}, "fusion_lon": 0.0}, {"lat": 38.904129166666664, "is_disabled": 0, "type": "electric_scooter", "lon": -76.99283466666667, "bike_id": "b2d54b7ed22897129b805e30d3efec5c", "fusion_lat": 0.0, "name": "b2d54b7ed22897129b805e30d3efec5c", "is_reserved": 0, "rental_uris": {"android": "https://dc.lft.to/lastmile_qr_scan", "ios": "https://dc.lft.to/lastmile_qr_scan"}, "fusion_lon": 0.0}, {"lat": 38.917913, "is_disabled": 0, "type": "electric_scooter", "lon": -77.0223675, "bike_id": "cc56ae5a0b6f4957d46acd9bffe19b3f", "fusion_lat": 0.0, "name": "cc56ae5a0b6f4957d46acd9bffe19b3f", "is_reserved": 0, "rental_uris": {"android": "https://dc.lft.to/lastmile_qr_scan", "ios": "https://dc.lft.to/lastmile_qr_scan"}, "fusion_lon": 0.0}, {"lat": 38.9003325, "is_disabled": 0, "type": "electric_scooter", "lon": -76.9837725, "bike_id": "fbc32dd276408db11001f61a57bc32f3", "fusion_lat": 0.0, "name": "fbc32dd276408db11001f61a57bc32f3", "is_reserved": 0, "rental_uris": {"android": "https://dc.lft.to/lastmile_qr_scan", "ios": "https://dc.lft.to/lastmile_qr_scan"}, "fusion_lon": 0.0}, {"lat": 38.931504833333335, "is_disabled": 0, "type": "electric_scooter", "lon": -77.02139833333334, "bike_id": "b9e6562cd87edb1a4d235bfce73b8f56", "fusion_lat": 0.0, "name": "b9e6562cd87edb1a4d235bfce73b8f56", "is_reserved": 0, "rental_uris": {"android": "https://dc.lft.to/lastmile_qr_scan", "ios": "https://dc.lft.to/lastmile_qr_scan"}, "fusion_lon": 0.0}, {"lat": 38.850235, "is_disabled": 0, "type": "electric_bike", "lon": -77.09809066666666, "bike_id": "4d9e80f3d3dec5638429ef5a1490ff9a", "fusion_lat": 0.0, "name": "4d9e80f3d3dec5638429ef5a1490ff9a", "is_reserved": 0, "rental_uris": {"android": "https://dc.lft.to/lastmile_qr_scan", "ios": "https://dc.lft.to/lastmile_qr_scan"}, "fusion_lon": 0.0}, {"lat": 38.94064133333333, "is_disabled": 0, "type": "electric_scooter", "lon": -76.9946615, "bike_id": "7ab3c4bdc7499c5b71db01fb498888e9", "fusion_lat": 0.0, "name": "7ab3c4bdc7499c5b71db01fb498888e9", "is_reserved": 0, "rental_uris": {"android": "https://dc.lft.to/lastmile_qr_scan", "ios": "https://dc.lft.to/lastmile_qr_scan"}, "fusion_lon": 0.0}, {"lat": 38.90267516666667, "is_disabled": 0, "type": "electric_scooter", "lon": -77.02003483333333, "bike_id": "edb009ed5c1990c6feb7394e8871c450", "fusion_lat": 0.0, "name": "edb009ed5c1990c6feb7394e8871c450", "is_reserved": 0, "rental_uris": {"android": "https://dc.lft.to/lastmile_qr_scan", "ios": "https://dc.lft.to/lastmile_qr_scan"}, "fusion_lon": 0.0}, {"lat": 38.89760166666667, "is_disabled": 0, "type": "electric_scooter", "lon": -77.05024333333333, "bike_id": "674de19c7dcd8d511a69fbc93a8bbf4a", "fusion_lat": 0.0, "name": "674de19c7dcd8d511a69fbc93a8bbf4a", "is_reserved": 0, "rental_uris": {"android": "https://dc.lft.to/lastmile_qr_scan", "ios": "https://dc.lft.to/lastmile_qr_scan"}, "fusion_lon": 0.0}, {"lat": 38.901800333333334, "is_disabled": 0, "type": "electric_scooter", "lon": -77.02394933333333, "bike_id": "6161f86b7f6375aadd1866721251cc1d", "fusion_lat": 0.0, "name": "6161f86b7f6375aadd1866721251cc1d", "is_reserved": 0, "rental_uris": {"android": "https://dc.lft.to/lastmile_qr_scan", "ios": "https://dc.lft.to/lastmile_qr_scan"}, "fusion_lon": 0.0}, {"lat": 38.8848045, "is_disabled": 0, "type": "electric_scooter", "lon": -76.945249, "bike_id": "56841977facec50266fc10bec15dbb68", "fusion_lat": 0.0, "name": "56841977facec50266fc10bec15dbb68", "is_reserved": 0, "rental_uris": {"android": "https://dc.lft.to/lastmile_qr_scan", "ios": "https://dc.lft.to/lastmile_qr_scan"}, "fusion_lon": 0.0}, {"lat": 38.930770333333335, "is_disabled": 0, "type": "electric_scooter", "lon": -77.0776145, "bike_id": "4a56aa815c327ef99683b497d9cfffc2", "fusion_lat": 0.0, "name": "4a56aa815c327ef99683b497d9cfffc2", "is_reserved": 0, "rental_uris": {"android": "https://dc.lft.to/lastmile_qr_scan", "ios": "https://dc.lft.to/lastmile_qr_scan"}, "fusion_lon": 0.0}, {"lat": 38.92246933333333, "is_disabled": 0, "type": "electric_scooter", "lon": -77.0308675, "bike_id": "0d3d5795d5f96c9f95105faa88f41048", "fusion_lat": 0.0, "name": "0d3d5795d5f96c9f95105faa88f41048", "is_reserved": 0, "rental_uris": {"android": "https://dc.lft.to/lastmile_qr_scan", "ios": "https://dc.lft.to/lastmile_qr_scan"}, "fusion_lon": 0.0}, {"lat": 38.927408666666665, "is_disabled": 0, "type": "electric_scooter", "lon": -77.0259105, "bike_id": "6c4bebdde18fe181de49f2a50d69bcad", "fusion_lat": 0.0, "name": "6c4bebdde18fe181de49f2a50d69bcad", "is_reserved": 0, "rental_uris": {"android": "https://dc.lft.to/lastmile_qr_scan", "ios": "https://dc.lft.to/lastmile_qr_scan"}, "fusion_lon": 0.0}, {"lat": 38.91402683333333, "is_disabled": 0, "type": "electric_scooter", "lon": -77.02608266666667, "bike_id": "399dad99a9e3eb89edbf72e5558d685c", "fusion_lat": 0.0, "name": "399dad99a9e3eb89edbf72e5558d685c", "is_reserved": 0, "rental_uris": {"android": "https://dc.lft.to/lastmile_qr_scan", "ios": "https://dc.lft.to/lastmile_qr_scan"}, "fusion_lon": 0.0}, {"lat": 38.920893166666666, "is_disabled": 0, "type": "electric_scooter", "lon": -77.04191016666667, "bike_id": "811df0fc23222bd21c87610acde84789", "fusion_lat": 0.0, "name": "811df0fc23222bd21c87610acde84789", "is_reserved": 0, "rental_uris": {"android": "https://dc.lft.to/lastmile_qr_scan", "ios": "https://dc.lft.to/lastmile_qr_scan"}, "fusion_lon": 0.0}, {"lat": 38.898439, "is_disabled": 0, "type": "electric_scooter", "lon": -76.98177766666667, "bike_id": "89677c3658cdc746584df63a4e2245a1", "fusion_lat": 0.0, "name": "89677c3658cdc746584df63a4e2245a1", "is_reserved": 0, "rental_uris": {"android": "https://dc.lft.to/lastmile_qr_scan", "ios": "https://dc.lft.to/lastmile_qr_scan"}, "fusion_lon": 0.0}, {"lat": 38.92601583333333, "is_disabled": 0, "type": "electric_scooter", "lon": -77.05688833333333, "bike_id": "52edf1b2188e1212d86bcf75912862b3", "fusion_lat": 0.0, "name": "52edf1b2188e1212d86bcf75912862b3", "is_reserved": 0, "rental_uris": {"android": "https://dc.lft.to/lastmile_qr_scan", "ios": "https://dc.lft.to/lastmile_qr_scan"}, "fusion_lon": 0.0}, {"lat": 38.92181183333334, "is_disabled": 0, "type": "electric_scooter", "lon": -77.047117, "bike_id": "c0aba64a49b3be9e98de79287022f847", "fusion_lat": 0.0, "name": "c0aba64a49b3be9e98de79287022f847", "is_reserved": 0, "rental_uris": {"android": "https://dc.lft.to/lastmile_qr_scan", "ios": "https://dc.lft.to/lastmile_qr_scan"}, "fusion_lon": 0.0}, {"lat": 38.88574766666667, "is_disabled": 0, "type": "electric_scooter", "lon": -76.91910683333333, "bike_id": "b83319cd9498b99fde55dc2300512a8e", "fusion_lat": 0.0, "name": "b83319cd9498b99fde55dc2300512a8e", "is_reserved": 0, "rental_uris": {"android": "https://dc.lft.to/lastmile_qr_scan", "ios": "https://dc.lft.to/lastmile_qr_scan"}, "fusion_lon": 0.0}, {"lat": 38.95401916666667, "is_disabled": 0, "type": "electric_scooter", "lon": -77.02747233333334, "bike_id": "8c1849a332bc4d27f26608635d38fb7d", "fusion_lat": 0.0, "name": "8c1849a332bc4d27f26608635d38fb7d", "is_reserved": 0, "rental_uris": {"android": "https://dc.lft.to/lastmile_qr_scan", "ios": "https://dc.lft.to/lastmile_qr_scan"}, "fusion_lon": 0.0}, {"lat": 38.93740016666667, "is_disabled": 0, "type": "electric_scooter", "lon": -77.03474783333333, "bike_id": "097f7184e9a7302607016d0527483aec", "fusion_lat": 0.0, "name": "097f7184e9a7302607016d0527483aec", "is_reserved": 0, "rental_uris": {"android": "https://dc.lft.to/lastmile_qr_scan", "ios": "https://dc.lft.to/lastmile_qr_scan"}, "fusion_lon": 0.0}, {"lat": 38.92240016666667, "is_disabled": 0, "type": "electric_scooter", "lon": -77.045719, "bike_id": "59352e2fb5af3f55031c013148b53f11", "fusion_lat": 0.0, "name": "59352e2fb5af3f55031c013148b53f11", "is_reserved": 0, "rental_uris": {"android": "https://dc.lft.to/lastmile_qr_scan", "ios": "https://dc.lft.to/lastmile_qr_scan"}, "fusion_lon": 0.0}, {"lat": 38.900381833333334, "is_disabled": 0, "type": "electric_scooter", "lon": -77.02612933333333, "bike_id": "871cb82bab71725e0761f58e1aca4473", "fusion_lat": 0.0, "name": "871cb82bab71725e0761f58e1aca4473", "is_reserved": 0, "rental_uris": {"android": "https://dc.lft.to/lastmile_qr_scan", "ios": "https://dc.lft.to/lastmile_qr_scan"}, "fusion_lon": 0.0}, {"lat": 38.91387116666667, "is_disabled": 0, "type": "electric_scooter", "lon": -77.04168816666666, "bike_id": "9b3c9ae508e207cd6c81dffea5bd67dc", "fusion_lat": 0.0, "name": "9b3c9ae508e207cd6c81dffea5bd67dc", "is_reserved": 0, "rental_uris": {"android": "https://dc.lft.to/lastmile_qr_scan", "ios": "https://dc.lft.to/lastmile_qr_scan"}, "fusion_lon": 0.0}, {"lat": 38.93229266666667, "is_disabled": 0, "type": "electric_scooter", "lon": -76.99598866666666, "bike_id": "c857d9c4da038652fb996a4c73c974e1", "fusion_lat": 0.0, "name": "c857d9c4da038652fb996a4c73c974e1", "is_reserved": 0, "rental_uris": {"android": "https://dc.lft.to/lastmile_qr_scan", "ios": "https://dc.lft.to/lastmile_qr_scan"}, "fusion_lon": 0.0}, {"lat": 38.85054433333333, "is_disabled": 0, "type": "electric_bike", "lon": -76.9732265, "bike_id": "6480f46a9e27c447026a8f11f65792c9", "fusion_lat": 0.0, "name": "6480f46a9e27c447026a8f11f65792c9", "is_reserved": 0, "rental_uris": {"android": "https://dc.lft.to/lastmile_qr_scan", "ios": "https://dc.lft.to/lastmile_qr_scan"}, "fusion_lon": 0.0}, {"lat": 38.9016645, "is_disabled": 0, "type": "electric_scooter", "lon": -77.02514666666667, "bike_id": "c912715a013d608cad94308afc0b9830", "fusion_lat": 0.0, "name": "c912715a013d608cad94308afc0b9830", "is_reserved": 0, "rental_uris": {"android": "https://dc.lft.to/lastmile_qr_scan", "ios": "https://dc.lft.to/lastmile_qr_scan"}, "fusion_lon": 0.0}, {"lat": 38.933308333333336, "is_disabled": 0, "type": "electric_bike", "lon": -77.04206766666667, "bike_id": "758af51f317551a9cde603766f459d66", "fusion_lat": 0.0, "name": "758af51f317551a9cde603766f459d66", "is_reserved": 0, "rental_uris": {"android": "https://dc.lft.to/lastmile_qr_scan", "ios": "https://dc.lft.to/lastmile_qr_scan"}, "fusion_lon": 0.0}, {"lat": 38.89719066666667, "is_disabled": 0, "type": "electric_scooter", "lon": -77.00799133333334, "bike_id": "29e1c8268ab1cf084ca0189733239d14", "fusion_lat": 0.0, "name": "29e1c8268ab1cf084ca0189733239d14", "is_reserved": 0, "rental_uris": {"android": "https://dc.lft.to/lastmile_qr_scan", "ios": "https://dc.lft.to/lastmile_qr_scan"}, "fusion_lon": 0.0}, {"lat": 38.906683666666666, "is_disabled": 0, "type": "electric_scooter", "lon": -77.026993, "bike_id": "dc729f00a1c69a573085ad1ce6dfef97", "fusion_lat": 0.0, "name": "dc729f00a1c69a573085ad1ce6dfef97", "is_reserved": 0, "rental_uris": {"android": "https://dc.lft.to/lastmile_qr_scan", "ios": "https://dc.lft.to/lastmile_qr_scan"}, "fusion_lon": 0.0}, {"lat": 38.8988475, "is_disabled": 0, "type": "electric_scooter", "lon": -76.93175, "bike_id": "f3f7f96dee96fcb43bf1120470965296", "fusion_lat": 0.0, "name": "f3f7f96dee96fcb43bf1120470965296", "is_reserved": 0, "rental_uris": {"android": "https://dc.lft.to/lastmile_qr_scan", "ios": "https://dc.lft.to/lastmile_qr_scan"}, "fusion_lon": 0.0}, {"lat": 38.90832666666667, "is_disabled": 0, "type": "electric_scooter", "lon": -77.06374766666667, "bike_id": "123ee47417e8341bc8433d7a402f61ff", "fusion_lat": 0.0, "name": "123ee47417e8341bc8433d7a402f61ff", "is_reserved": 0, "rental_uris": {"android": "https://dc.lft.to/lastmile_qr_scan", "ios": "https://dc.lft.to/lastmile_qr_scan"}, "fusion_lon": 0.0}, {"lat": 38.9193235, "is_disabled": 0, "type": "electric_scooter", "lon": -77.02300833333334, "bike_id": "8c3b864f24e0fa74af24effaa5b52b62", "fusion_lat": 0.0, "name": "8c3b864f24e0fa74af24effaa5b52b62", "is_reserved": 0, "rental_uris": {"android": "https://dc.lft.to/lastmile_qr_scan", "ios": "https://dc.lft.to/lastmile_qr_scan"}, "fusion_lon": 0.0}, {"lat": 38.90666866666667, "is_disabled": 0, "type": "electric_scooter", "lon": -77.03751, "bike_id": "e6071578307888a7a6dd96c737507228", "fusion_lat": 0.0, "name": "e6071578307888a7a6dd96c737507228", "is_reserved": 0, "rental_uris": {"android": "https://dc.lft.to/lastmile_qr_scan", "ios": "https://dc.lft.to/lastmile_qr_scan"}, "fusion_lon": 0.0}, {"lat": 38.89739616666667, "is_disabled": 0, "type": "electric_scooter", "lon": -77.04758083333333, "bike_id": "fdfd3fd221b239a67afc948c44847834", "fusion_lat": 0.0, "name": "fdfd3fd221b239a67afc948c44847834", "is_reserved": 0, "rental_uris": {"android": "https://dc.lft.to/lastmile_qr_scan", "ios": "https://dc.lft.to/lastmile_qr_scan"}, "fusion_lon": 0.0}, {"lat": 38.91967416666667, "is_disabled": 0, "type": "electric_scooter", "lon": -77.04312466666667, "bike_id": "098fa600887c8d3d0c6d675d13547ea0", "fusion_lat": 0.0, "name": "098fa600887c8d3d0c6d675d13547ea0", "is_reserved": 0, "rental_uris": {"android": "https://dc.lft.to/lastmile_qr_scan", "ios": "https://dc.lft.to/lastmile_qr_scan"}, "fusion_lon": 0.0}, {"lat": 38.90283783333334, "is_disabled": 0, "type": "electric_scooter", "lon": -77.01910033333333, "bike_id": "3ca9a649c8b74496a9ccf8189445de26", "fusion_lat": 0.0, "name": "3ca9a649c8b74496a9ccf8189445de26", "is_reserved": 0, "rental_uris": {"android": "https://dc.lft.to/lastmile_qr_scan", "ios": "https://dc.lft.to/lastmile_qr_scan"}, "fusion_lon": 0.0}, {"lat": 38.924523666666666, "is_disabled": 0, "type": "electric_scooter", "lon": -77.0419825, "bike_id": "e220b1b7db699751df6d591fbbd30c8d", "fusion_lat": 0.0, "name": "e220b1b7db699751df6d591fbbd30c8d", "is_reserved": 0, "rental_uris": {"android": "https://dc.lft.to/lastmile_qr_scan", "ios": "https://dc.lft.to/lastmile_qr_scan"}, "fusion_lon": 0.0}, {"lat": 38.901399833333336, "is_disabled": 0, "type": "electric_scooter", "lon": -77.00078683333334, "bike_id": "022ce1f2db65d70637bbff94134053ba", "fusion_lat": 0.0, "name": "022ce1f2db65d70637bbff94134053ba", "is_reserved": 0, "rental_uris": {"android": "https://dc.lft.to/lastmile_qr_scan", "ios": "https://dc.lft.to/lastmile_qr_scan"}, "fusion_lon": 0.0}, {"lat": 38.905227, "is_disabled": 0, "type": "electric_scooter", "lon": -77.02698283333334, "bike_id": "db1f5ec9093235b9cd87c6ae1719aceb", "fusion_lat": 0.0, "name": "db1f5ec9093235b9cd87c6ae1719aceb", "is_reserved": 0, "rental_uris": {"android": "https://dc.lft.to/lastmile_qr_scan", "ios": "https://dc.lft.to/lastmile_qr_scan"}, "fusion_lon": 0.0}, {"lat": 38.89998833333333, "is_disabled": 0, "type": "electric_scooter", "lon": -76.99853516666667, "bike_id": "a55a5fc7f2851bf36f231187157edacd", "fusion_lat": 0.0, "name": "a55a5fc7f2851bf36f231187157edacd", "is_reserved": 0, "rental_uris": {"android": "https://dc.lft.to/lastmile_qr_scan", "ios": "https://dc.lft.to/lastmile_qr_scan"}, "fusion_lon": 0.0}, {"lat": 38.922043, "is_disabled": 0, "type": "electric_scooter", "lon": -77.032926, "bike_id": "0b038e52fb87b94e01162d3554a0ce33", "fusion_lat": 0.0, "name": "0b038e52fb87b94e01162d3554a0ce33", "is_reserved": 0, "rental_uris": {"android": "https://dc.lft.to/lastmile_qr_scan", "ios": "https://dc.lft.to/lastmile_qr_scan"}, "fusion_lon": 0.0}, {"lat": 39.01592016666667, "is_disabled": 0, "type": "electric_bike", "lon": -77.04431166666667, "bike_id": "a6492af2b475c751fdeb5b5ef92daf29", "fusion_lat": 0.0, "name": "a6492af2b475c751fdeb5b5ef92daf29", "is_reserved": 0, "rental_uris": {"android": "https://dc.lft.to/lastmile_qr_scan", "ios": "https://dc.lft.to/lastmile_qr_scan"}, "fusion_lon": 0.0}, {"lat": 38.960934, "is_disabled": 0, "type": "electric_scooter", "lon": -77.08288183333333, "bike_id": "1a0c29f261652c6087ba1a9c4dee103d", "fusion_lat": 0.0, "name": "1a0c29f261652c6087ba1a9c4dee103d", "is_reserved": 0, "rental_uris": {"android": "https://dc.lft.to/lastmile_qr_scan", "ios": "https://dc.lft.to/lastmile_qr_scan"}, "fusion_lon": 0.0}, {"lat": 38.891229, "is_disabled": 0, "type": "electric_scooter", "lon": -76.940914, "bike_id": "b39b66b0c8f2fd7c761f49f688e47187", "fusion_lat": 0.0, "name": "b39b66b0c8f2fd7c761f49f688e47187", "is_reserved": 0, "rental_uris": {"android": "https://dc.lft.to/lastmile_qr_scan", "ios": "https://dc.lft.to/lastmile_qr_scan"}, "fusion_lon": 0.0}, {"lat": 38.936518, "is_disabled": 0, "type": "electric_bike", "lon": -77.05593533333334, "bike_id": "c5a28c4ae198c53fc8024baa47079a3f", "fusion_lat": 0.0, "name": "c5a28c4ae198c53fc8024baa47079a3f", "is_reserved": 0, "rental_uris": {"android": "https://dc.lft.to/lastmile_qr_scan", "ios": "https://dc.lft.to/lastmile_qr_scan"}, "fusion_lon": 0.0}, {"lat": 38.972323833333334, "is_disabled": 0, "type": "electric_bike", "lon": -76.99349666666667, "bike_id": "ab27d11cbf29bc79dc033504255b6d39", "fusion_lat": 0.0, "name": "ab27d11cbf29bc79dc033504255b6d39", "is_reserved": 0, "rental_uris": {"android": "https://dc.lft.to/lastmile_qr_scan", "ios": "https://dc.lft.to/lastmile_qr_scan"}, "fusion_lon": 0.0}, {"lat": 38.933203166666665, "is_disabled": 0, "type": "electric_scooter", "lon": -77.04529666666667, "bike_id": "863339ab544464f53d609c1a1d1f0f08", "fusion_lat": 0.0, "name": "863339ab544464f53d609c1a1d1f0f08", "is_reserved": 0, "rental_uris": {"android": "https://dc.lft.to/lastmile_qr_scan", "ios": "https://dc.lft.to/lastmile_qr_scan"}, "fusion_lon": 0.0}, {"lat": 38.94893483333333, "is_disabled": 0, "type": "electric_scooter", "lon": -77.03046816666667, "bike_id": "3edca9b611541cd12a57e3c73ad79158", "fusion_lat": 0.0, "name": "3edca9b611541cd12a57e3c73ad79158", "is_reserved": 0, "rental_uris": {"android": "https://dc.lft.to/lastmile_qr_scan", "ios": "https://dc.lft.to/lastmile_qr_scan"}, "fusion_lon": 0.0}, {"lat": 38.933749166666665, "is_disabled": 0, "type": "electric_scooter", "lon": -77.037854, "bike_id": "785358e7370b5e2701cb4a530dd4bc07", "fusion_lat": 0.0, "name": "785358e7370b5e2701cb4a530dd4bc07", "is_reserved": 0, "rental_uris": {"android": "https://dc.lft.to/lastmile_qr_scan", "ios": "https://dc.lft.to/lastmile_qr_scan"}, "fusion_lon": 0.0}, {"lat": 38.89215866666667, "is_disabled": 0, "type": "electric_scooter", "lon": -77.02095066666666, "bike_id": "9b62ad371b8744d6c5dcbe3d695c40ba", "fusion_lat": 0.0, "name": "9b62ad371b8744d6c5dcbe3d695c40ba", "is_reserved": 0, "rental_uris": {"android": "https://dc.lft.to/lastmile_qr_scan", "ios": "https://dc.lft.to/lastmile_qr_scan"}, "fusion_lon": 0.0}, {"lat": 38.9223795, "is_disabled": 0, "type": "electric_scooter", "lon": -77.04575433333333, "bike_id": "5d00d233e94adbfdb7431ca7f59238d9", "fusion_lat": 0.0, "name": "5d00d233e94adbfdb7431ca7f59238d9", "is_reserved": 0, "rental_uris": {"android": "https://dc.lft.to/lastmile_qr_scan", "ios": "https://dc.lft.to/lastmile_qr_scan"}, "fusion_lon": 0.0}, {"lat": 38.90346866666667, "is_disabled": 0, "type": "electric_scooter", "lon": -77.037701, "bike_id": "05ebe448eb10855caa9744d931b2ccc9", "fusion_lat": 0.0, "name": "05ebe448eb10855caa9744d931b2ccc9", "is_reserved": 0, "rental_uris": {"android": "https://dc.lft.to/lastmile_qr_scan", "ios": "https://dc.lft.to/lastmile_qr_scan"}, "fusion_lon": 0.0}, {"lat": 38.900874, "is_disabled": 0, "type": "electric_scooter", "lon": -77.05065116666667, "bike_id": "26c338752d32d6d0c7b47f158e8f6103", "fusion_lat": 0.0, "name": "26c338752d32d6d0c7b47f158e8f6103", "is_reserved": 0, "rental_uris": {"android": "https://dc.lft.to/lastmile_qr_scan", "ios": "https://dc.lft.to/lastmile_qr_scan"}, "fusion_lon": 0.0}, {"lat": 38.903556333333334, "is_disabled": 0, "type": "electric_scooter", "lon": -77.01629516666667, "bike_id": "8dde32ccc4a15e67677658061598b717", "fusion_lat": 0.0, "name": "8dde32ccc4a15e67677658061598b717", "is_reserved": 0, "rental_uris": {"android": "https://dc.lft.to/lastmile_qr_scan", "ios": "https://dc.lft.to/lastmile_qr_scan"}, "fusion_lon": 0.0}, {"lat": 38.8369155, "is_disabled": 0, "type": "electric_scooter", "lon": -77.10308, "bike_id": "682e8f393464641cd2bd2060ddf7a76c", "fusion_lat": 0.0, "name": "682e8f393464641cd2bd2060ddf7a76c", "is_reserved": 0, "rental_uris": {"android": "https://dc.lft.to/lastmile_qr_scan", "ios": "https://dc.lft.to/lastmile_qr_scan"}, "fusion_lon": 0.0}, {"lat": 38.881120333333335, "is_disabled": 0, "type": "electric_scooter", "lon": -76.98334566666666, "bike_id": "97a0f4012f3f69664bab41a57dd27dd1", "fusion_lat": 0.0, "name": "97a0f4012f3f69664bab41a57dd27dd1", "is_reserved": 0, "rental_uris": {"android": "https://dc.lft.to/lastmile_qr_scan", "ios": "https://dc.lft.to/lastmile_qr_scan"}, "fusion_lon": 0.0}, {"lat": 38.916333333333334, "is_disabled": 0, "type": "electric_scooter", "lon": -77.032823, "bike_id": "652059fabdff9ccdfffd0dac357c4ffd", "fusion_lat": 0.0, "name": "652059fabdff9ccdfffd0dac357c4ffd", "is_reserved": 0, "rental_uris": {"android": "https://dc.lft.to/lastmile_qr_scan", "ios": "https://dc.lft.to/lastmile_qr_scan"}, "fusion_lon": 0.0}, {"lat": 38.9366205, "is_disabled": 0, "type": "electric_scooter", "lon": -77.0593375, "bike_id": "fdff0878a29a4e60bc08571329d1c838", "fusion_lat": 0.0, "name": "fdff0878a29a4e60bc08571329d1c838", "is_reserved": 0, "rental_uris": {"android": "https://dc.lft.to/lastmile_qr_scan", "ios": "https://dc.lft.to/lastmile_qr_scan"}, "fusion_lon": 0.0}, {"lat": 38.871427833333335, "is_disabled": 0, "type": "electric_bike", "lon": -76.9370515, "bike_id": "a97d65b01694009db2a04663731faf33", "fusion_lat": 0.0, "name": "a97d65b01694009db2a04663731faf33", "is_reserved": 0, "rental_uris": {"android": "https://dc.lft.to/lastmile_qr_scan", "ios": "https://dc.lft.to/lastmile_qr_scan"}, "fusion_lon": 0.0}, {"lat": 38.86707633333333, "is_disabled": 0, "type": "electric_scooter", "lon": -76.98727316666667, "bike_id": "33d95f4f2f02f82e0e12f3b0f8b88eeb", "fusion_lat": 0.0, "name": "33d95f4f2f02f82e0e12f3b0f8b88eeb", "is_reserved": 0, "rental_uris": {"android": "https://dc.lft.to/lastmile_qr_scan", "ios": "https://dc.lft.to/lastmile_qr_scan"}, "fusion_lon": 0.0}, {"lat": 38.9271305, "is_disabled": 0, "type": "electric_scooter", "lon": -77.02088916666666, "bike_id": "1315a7d16d23f7a4f97735b38343ef72", "fusion_lat": 0.0, "name": "1315a7d16d23f7a4f97735b38343ef72", "is_reserved": 0, "rental_uris": {"android": "https://dc.lft.to/lastmile_qr_scan", "ios": "https://dc.lft.to/lastmile_qr_scan"}, "fusion_lon": 0.0}, {"lat": 38.84565, "is_disabled": 0, "type": "electric_bike", "lon": -77.09622733333333, "bike_id": "69a38a020c39c4f9a16ebaade3d7cf0a", "fusion_lat": 0.0, "name": "69a38a020c39c4f9a16ebaade3d7cf0a", "is_reserved": 0, "rental_uris": {"android": "https://dc.lft.to/lastmile_qr_scan", "ios": "https://dc.lft.to/lastmile_qr_scan"}, "fusion_lon": 0.0}, {"lat": 38.9167115, "is_disabled": 0, "type": "electric_scooter", "lon": -77.02377983333334, "bike_id": "eba363d0bf5d803e3c72ea38fa981666", "fusion_lat": 0.0, "name": "eba363d0bf5d803e3c72ea38fa981666", "is_reserved": 0, "rental_uris": {"android": "https://dc.lft.to/lastmile_qr_scan", "ios": "https://dc.lft.to/lastmile_qr_scan"}, "fusion_lon": 0.0}, {"lat": 38.9267445, "is_disabled": 0, "type": "electric_scooter", "lon": -77.00741316666667, "bike_id": "4b39f493c842bb35f962302a1fccb51e", "fusion_lat": 0.0, "name": "4b39f493c842bb35f962302a1fccb51e", "is_reserved": 0, "rental_uris": {"android": "https://dc.lft.to/lastmile_qr_scan", "ios": "https://dc.lft.to/lastmile_qr_scan"}, "fusion_lon": 0.0}, {"lat": 38.902679666666664, "is_disabled": 0, "type": "electric_scooter", "lon": -77.028256, "bike_id": "384efb9e351d11ae79a07923fd8ab24c", "fusion_lat": 0.0, "name": "384efb9e351d11ae79a07923fd8ab24c", "is_reserved": 0, "rental_uris": {"android": "https://dc.lft.to/lastmile_qr_scan", "ios": "https://dc.lft.to/lastmile_qr_scan"}, "fusion_lon": 0.0}, {"lat": 38.8935135, "is_disabled": 0, "type": "electric_scooter", "lon": -77.03988066666666, "bike_id": "71440a406fd4393fff738b15d8ec7988", "fusion_lat": 0.0, "name": "71440a406fd4393fff738b15d8ec7988", "is_reserved": 0, "rental_uris": {"android": "https://dc.lft.to/lastmile_qr_scan", "ios": "https://dc.lft.to/lastmile_qr_scan"}, "fusion_lon": 0.0}, {"lat": 38.96221416666667, "is_disabled": 0, "type": "electric_bike", "lon": -77.0262655, "bike_id": "4ad21291fdb05954954111139f3294b1", "fusion_lat": 0.0, "name": "4ad21291fdb05954954111139f3294b1", "is_reserved": 0, "rental_uris": {"android": "https://dc.lft.to/lastmile_qr_scan", "ios": "https://dc.lft.to/lastmile_qr_scan"}, "fusion_lon": 0.0}, {"lat": 38.892188166666664, "is_disabled": 0, "type": "electric_bike", "lon": -77.10781683333333, "bike_id": "1888a1ed3b820efcf7e80b845b8afa56", "fusion_lat": 0.0, "name": "1888a1ed3b820efcf7e80b845b8afa56", "is_reserved": 0, "rental_uris": {"android": "https://dc.lft.to/lastmile_qr_scan", "ios": "https://dc.lft.to/lastmile_qr_scan"}, "fusion_lon": 0.0}, {"lat": 38.9133665, "is_disabled": 0, "type": "electric_scooter", "lon": -77.01269483333333, "bike_id": "989f59df2f7bb1bed6ee09bd541dfb25", "fusion_lat": 0.0, "name": "989f59df2f7bb1bed6ee09bd541dfb25", "is_reserved": 0, "rental_uris": {"android": "https://dc.lft.to/lastmile_qr_scan", "ios": "https://dc.lft.to/lastmile_qr_scan"}, "fusion_lon": 0.0}, {"lat": 38.886904, "is_disabled": 0, "type": "electric_scooter", "lon": -77.0176325, "bike_id": "2dbcb98a122d3553e9618d17abbaacf3", "fusion_lat": 0.0, "name": "2dbcb98a122d3553e9618d17abbaacf3", "is_reserved": 0, "rental_uris": {"android": "https://dc.lft.to/lastmile_qr_scan", "ios": "https://dc.lft.to/lastmile_qr_scan"}, "fusion_lon": 0.0}, {"lat": 38.932001166666666, "is_disabled": 0, "type": "electric_scooter", "lon": -77.023557, "bike_id": "721e1a1b15417eca8034524eb18f7d71", "fusion_lat": 0.0, "name": "721e1a1b15417eca8034524eb18f7d71", "is_reserved": 0, "rental_uris": {"android": "https://dc.lft.to/lastmile_qr_scan", "ios": "https://dc.lft.to/lastmile_qr_scan"}, "fusion_lon": 0.0}, {"lat": 38.89492516666667, "is_disabled": 0, "type": "electric_scooter", "lon": -77.0021035, "bike_id": "9a405e68aea9650ff90ba26104c463cd", "fusion_lat": 0.0, "name": "9a405e68aea9650ff90ba26104c463cd", "is_reserved": 0, "rental_uris": {"android": "https://dc.lft.to/lastmile_qr_scan", "ios": "https://dc.lft.to/lastmile_qr_scan"}, "fusion_lon": 0.0}, {"lat": 38.89840233333334, "is_disabled": 0, "type": "electric_scooter", "lon": -76.99506416666667, "bike_id": "979c5c76a03ebbc6aa0fc1cb230bf3ed", "fusion_lat": 0.0, "name": "979c5c76a03ebbc6aa0fc1cb230bf3ed", "is_reserved": 0, "rental_uris": {"android": "https://dc.lft.to/lastmile_qr_scan", "ios": "https://dc.lft.to/lastmile_qr_scan"}, "fusion_lon": 0.0}, {"lat": 38.922389, "is_disabled": 0, "type": "electric_scooter", "lon": -77.04347116666666, "bike_id": "277aaaa65698ce21328d5054ddb42905", "fusion_lat": 0.0, "name": "277aaaa65698ce21328d5054ddb42905", "is_reserved": 0, "rental_uris": {"android": "https://dc.lft.to/lastmile_qr_scan", "ios": "https://dc.lft.to/lastmile_qr_scan"}, "fusion_lon": 0.0}, {"lat": 38.90862333333333, "is_disabled": 0, "type": "electric_scooter", "lon": -77.00376866666667, "bike_id": "87f5175ad7bef781ba253808969c3eae", "fusion_lat": 0.0, "name": "87f5175ad7bef781ba253808969c3eae", "is_reserved": 0, "rental_uris": {"android": "https://dc.lft.to/lastmile_qr_scan", "ios": "https://dc.lft.to/lastmile_qr_scan"}, "fusion_lon": 0.0}, {"lat": 38.9039265, "is_disabled": 0, "type": "electric_scooter", "lon": -76.98464216666666, "bike_id": "5a112c7f601c40eacb326eca4fdeb920", "fusion_lat": 0.0, "name": "5a112c7f601c40eacb326eca4fdeb920", "is_reserved": 0, "rental_uris": {"android": "https://dc.lft.to/lastmile_qr_scan", "ios": "https://dc.lft.to/lastmile_qr_scan"}, "fusion_lon": 0.0}, {"lat": 38.9169275, "is_disabled": 0, "type": "electric_scooter", "lon": -77.0458985, "bike_id": "33de471c7e16b7b4f8c00782a3ccc3e7", "fusion_lat": 0.0, "name": "33de471c7e16b7b4f8c00782a3ccc3e7", "is_reserved": 0, "rental_uris": {"android": "https://dc.lft.to/lastmile_qr_scan", "ios": "https://dc.lft.to/lastmile_qr_scan"}, "fusion_lon": 0.0}, {"lat": 38.923021, "is_disabled": 0, "type": "electric_scooter", "lon": -77.02329483333334, "bike_id": "fdd9f019c9c6282f6253d03a24084320", "fusion_lat": 0.0, "name": "fdd9f019c9c6282f6253d03a24084320", "is_reserved": 0, "rental_uris": {"android": "https://dc.lft.to/lastmile_qr_scan", "ios": "https://dc.lft.to/lastmile_qr_scan"}, "fusion_lon": 0.0}, {"lat": 38.90105666666667, "is_disabled": 0, "type": "electric_scooter", "lon": -77.05902633333334, "bike_id": "dcf21b01ae3e13005d2bc2d5bc335f41", "fusion_lat": 0.0, "name": "dcf21b01ae3e13005d2bc2d5bc335f41", "is_reserved": 0, "rental_uris": {"android": "https://dc.lft.to/lastmile_qr_scan", "ios": "https://dc.lft.to/lastmile_qr_scan"}, "fusion_lon": 0.0}, {"lat": 38.9398035, "is_disabled": 0, "type": "electric_scooter", "lon": -77.026294, "bike_id": "fff48a9c8515cce36861e02a25f71c5b", "fusion_lat": 0.0, "name": "fff48a9c8515cce36861e02a25f71c5b", "is_reserved": 0, "rental_uris": {"android": "https://dc.lft.to/lastmile_qr_scan", "ios": "https://dc.lft.to/lastmile_qr_scan"}, "fusion_lon": 0.0}, {"lat": 38.9073405, "is_disabled": 0, "type": "electric_scooter", "lon": -77.02952366666666, "bike_id": "66b225e44758e75b9d2e32b4ffd6022b", "fusion_lat": 0.0, "name": "66b225e44758e75b9d2e32b4ffd6022b", "is_reserved": 0, "rental_uris": {"android": "https://dc.lft.to/lastmile_qr_scan", "ios": "https://dc.lft.to/lastmile_qr_scan"}, "fusion_lon": 0.0}, {"lat": 38.932941, "is_disabled": 0, "type": "electric_scooter", "lon": -77.02194233333333, "bike_id": "3e61562187d1494bc2c501f4721417cb", "fusion_lat": 0.0, "name": "3e61562187d1494bc2c501f4721417cb", "is_reserved": 0, "rental_uris": {"android": "https://dc.lft.to/lastmile_qr_scan", "ios": "https://dc.lft.to/lastmile_qr_scan"}, "fusion_lon": 0.0}, {"lat": 38.89900633333333, "is_disabled": 0, "type": "electric_scooter", "lon": -77.07230616666666, "bike_id": "8f80a7c7aec9e1c8aa834c2dfb730e1c", "fusion_lat": 0.0, "name": "8f80a7c7aec9e1c8aa834c2dfb730e1c", "is_reserved": 0, "rental_uris": {"android": "https://dc.lft.to/lastmile_qr_scan", "ios": "https://dc.lft.to/lastmile_qr_scan"}, "fusion_lon": 0.0}, {"lat": 38.8729175, "is_disabled": 0, "type": "electric_scooter", "lon": -77.00923283333333, "bike_id": "547ea121344e2c89461126d14d55d16e", "fusion_lat": 0.0, "name": "547ea121344e2c89461126d14d55d16e", "is_reserved": 0, "rental_uris": {"android": "https://dc.lft.to/lastmile_qr_scan", "ios": "https://dc.lft.to/lastmile_qr_scan"}, "fusion_lon": 0.0}, {"lat": 38.912460333333335, "is_disabled": 0, "type": "electric_scooter", "lon": -77.0466965, "bike_id": "4961aa0533a710f423458171e63766e0", "fusion_lat": 0.0, "name": "4961aa0533a710f423458171e63766e0", "is_reserved": 0, "rental_uris": {"android": "https://dc.lft.to/lastmile_qr_scan", "ios": "https://dc.lft.to/lastmile_qr_scan"}, "fusion_lon": 0.0}, {"lat": 38.901349333333336, "is_disabled": 0, "type": "electric_scooter", "lon": -77.03332466666667, "bike_id": "291ce82ee98b9ace22f0f4a385c4493e", "fusion_lat": 0.0, "name": "291ce82ee98b9ace22f0f4a385c4493e", "is_reserved": 0, "rental_uris": {"android": "https://dc.lft.to/lastmile_qr_scan", "ios": "https://dc.lft.to/lastmile_qr_scan"}, "fusion_lon": 0.0}, {"lat": 38.93873166666667, "is_disabled": 0, "type": "electric_scooter", "lon": -77.02009983333333, "bike_id": "b0fec032e6552cab493f240f5885d6e8", "fusion_lat": 0.0, "name": "b0fec032e6552cab493f240f5885d6e8", "is_reserved": 0, "rental_uris": {"android": "https://dc.lft.to/lastmile_qr_scan", "ios": "https://dc.lft.to/lastmile_qr_scan"}, "fusion_lon": 0.0}, {"lat": 38.9337235, "is_disabled": 0, "type": "electric_scooter", "lon": -77.02382433333334, "bike_id": "6a1faa3efb2c0dad6ecc5384325cce4d", "fusion_lat": 0.0, "name": "6a1faa3efb2c0dad6ecc5384325cce4d", "is_reserved": 0, "rental_uris": {"android": "https://dc.lft.to/lastmile_qr_scan", "ios": "https://dc.lft.to/lastmile_qr_scan"}, "fusion_lon": 0.0}, {"lat": 38.902878666666666, "is_disabled": 0, "type": "electric_scooter", "lon": -77.033524, "bike_id": "c4d2a2e68cd8fe9f8dc655cf4f311269", "fusion_lat": 0.0, "name": "c4d2a2e68cd8fe9f8dc655cf4f311269", "is_reserved": 0, "rental_uris": {"android": "https://dc.lft.to/lastmile_qr_scan", "ios": "https://dc.lft.to/lastmile_qr_scan"}, "fusion_lon": 0.0}, {"lat": 38.925781, "is_disabled": 0, "type": "electric_scooter", "lon": -77.02835366666666, "bike_id": "e2b502d2f506ee49038e5d7a473f0c7e", "fusion_lat": 0.0, "name": "e2b502d2f506ee49038e5d7a473f0c7e", "is_reserved": 0, "rental_uris": {"android": "https://dc.lft.to/lastmile_qr_scan", "ios": "https://dc.lft.to/lastmile_qr_scan"}, "fusion_lon": 0.0}, {"lat": 39.00013516666667, "is_disabled": 0, "type": "electric_bike", "lon": -76.91075833333333, "bike_id": "8614218e32672c381e2b24f9692fb843", "fusion_lat": 0.0, "name": "8614218e32672c381e2b24f9692fb843", "is_reserved": 0, "rental_uris": {"android": "https://dc.lft.to/lastmile_qr_scan", "ios": "https://dc.lft.to/lastmile_qr_scan"}, "fusion_lon": 0.0}, {"lat": 38.953364, "is_disabled": 0, "type": "electric_bike", "lon": -76.97363666666666, "bike_id": "c6161656c0ff5113a1ef30640d2926d2", "fusion_lat": 0.0, "name": "c6161656c0ff5113a1ef30640d2926d2", "is_reserved": 0, "rental_uris": {"android": "https://dc.lft.to/lastmile_qr_scan", "ios": "https://dc.lft.to/lastmile_qr_scan"}, "fusion_lon": 0.0}, {"lat": 38.86389416666667, "is_disabled": 0, "type": "electric_bike", "lon": -76.9899335, "bike_id": "edf2f27095de355827cbce59b9e2d45a", "fusion_lat": 0.0, "name": "edf2f27095de355827cbce59b9e2d45a", "is_reserved": 0, "rental_uris": {"android": "https://dc.lft.to/lastmile_qr_scan", "ios": "https://dc.lft.to/lastmile_qr_scan"}, "fusion_lon": 0.0}, {"lat": 38.865630333333335, "is_disabled": 0, "type": "electric_scooter", "lon": -76.97428566666666, "bike_id": "a8248c6026192cbba0b693eb91fe8314", "fusion_lat": 0.0, "name": "a8248c6026192cbba0b693eb91fe8314", "is_reserved": 0, "rental_uris": {"android": "https://dc.lft.to/lastmile_qr_scan", "ios": "https://dc.lft.to/lastmile_qr_scan"}, "fusion_lon": 0.0}, {"lat": 38.85324283333333, "is_disabled": 0, "type": "electric_bike", "lon": -76.98004416666667, "bike_id": "839cd729cb227e80a49b483369be3a6e", "fusion_lat": 0.0, "name": "839cd729cb227e80a49b483369be3a6e", "is_reserved": 0, "rental_uris": {"android": "https://dc.lft.to/lastmile_qr_scan", "ios": "https://dc.lft.to/lastmile_qr_scan"}, "fusion_lon": 0.0}, {"lat": 38.9007125, "is_disabled": 0, "type": "electric_scooter", "lon": -77.04900533333333, "bike_id": "0d36ef8dae21fb125ac75c7efdd84d86", "fusion_lat": 0.0, "name": "0d36ef8dae21fb125ac75c7efdd84d86", "is_reserved": 0, "rental_uris": {"android": "https://dc.lft.to/lastmile_qr_scan", "ios": "https://dc.lft.to/lastmile_qr_scan"}, "fusion_lon": 0.0}, {"lat": 38.933025, "is_disabled": 0, "type": "electric_scooter", "lon": -77.02850833333333, "bike_id": "3cb56a88bae7fc3e74485cc799958f33", "fusion_lat": 0.0, "name": "3cb56a88bae7fc3e74485cc799958f33", "is_reserved": 0, "rental_uris": {"android": "https://dc.lft.to/lastmile_qr_scan", "ios": "https://dc.lft.to/lastmile_qr_scan"}, "fusion_lon": 0.0}, {"lat": 38.927949, "is_disabled": 0, "type": "electric_scooter", "lon": -77.055312, "bike_id": "6cd6398b391bbb49f4bcc61255aaead8", "fusion_lat": 0.0, "name": "6cd6398b391bbb49f4bcc61255aaead8", "is_reserved": 0, "rental_uris": {"android": "https://dc.lft.to/lastmile_qr_scan", "ios": "https://dc.lft.to/lastmile_qr_scan"}, "fusion_lon": 0.0}, {"lat": 38.855199, "is_disabled": 0, "type": "electric_bike", "lon": -77.120454, "bike_id": "b87a8a11610870f372cfbe09868ec628", "fusion_lat": 0.0, "name": "b87a8a11610870f372cfbe09868ec628", "is_reserved": 0, "rental_uris": {"android": "https://dc.lft.to/lastmile_qr_scan", "ios": "https://dc.lft.to/lastmile_qr_scan"}, "fusion_lon": 0.0}, {"lat": 38.927874, "is_disabled": 0, "type": "electric_bike", "lon": -76.97220483333334, "bike_id": "bcde866181b98fb11074704458442e42", "fusion_lat": 0.0, "name": "bcde866181b98fb11074704458442e42", "is_reserved": 0, "rental_uris": {"android": "https://dc.lft.to/lastmile_qr_scan", "ios": "https://dc.lft.to/lastmile_qr_scan"}, "fusion_lon": 0.0}, {"lat": 38.943044, "is_disabled": 0, "type": "electric_scooter", "lon": -77.05928533333334, "bike_id": "13abfd892e9f75e6c630a54be74092d8", "fusion_lat": 0.0, "name": "13abfd892e9f75e6c630a54be74092d8", "is_reserved": 0, "rental_uris": {"android": "https://dc.lft.to/lastmile_qr_scan", "ios": "https://dc.lft.to/lastmile_qr_scan"}, "fusion_lon": 0.0}, {"lat": 38.8657605, "is_disabled": 0, "type": "electric_bike", "lon": -76.97308233333334, "bike_id": "1d2648c5ab5ea556ad983ff9fd7dc301", "fusion_lat": 0.0, "name": "1d2648c5ab5ea556ad983ff9fd7dc301", "is_reserved": 0, "rental_uris": {"android": "https://dc.lft.to/lastmile_qr_scan", "ios": "https://dc.lft.to/lastmile_qr_scan"}, "fusion_lon": 0.0}, {"lat": 38.924406, "is_disabled": 0, "type": "electric_scooter", "lon": -77.0203195, "bike_id": "d8745097ff4aed515456a981182a17fa", "fusion_lat": 0.0, "name": "d8745097ff4aed515456a981182a17fa", "is_reserved": 0, "rental_uris": {"android": "https://dc.lft.to/lastmile_qr_scan", "ios": "https://dc.lft.to/lastmile_qr_scan"}, "fusion_lon": 0.0}, {"lat": 38.854603, "is_disabled": 0, "type": "electric_scooter", "lon": -76.97242266666666, "bike_id": "c3975a228be415d41b533d209b5a61b5", "fusion_lat": 0.0, "name": "c3975a228be415d41b533d209b5a61b5", "is_reserved": 0, "rental_uris": {"android": "https://dc.lft.to/lastmile_qr_scan", "ios": "https://dc.lft.to/lastmile_qr_scan"}, "fusion_lon": 0.0}, {"lat": 38.88506566666667, "is_disabled": 0, "type": "electric_scooter", "lon": -77.00567566666666, "bike_id": "fd5f516a831cd5db28116179b76d5f08", "fusion_lat": 0.0, "name": "fd5f516a831cd5db28116179b76d5f08", "is_reserved": 0, "rental_uris": {"android": "https://dc.lft.to/lastmile_qr_scan", "ios": "https://dc.lft.to/lastmile_qr_scan"}, "fusion_lon": 0.0}, {"lat": 38.978338, "is_disabled": 0, "type": "electric_bike", "lon": -77.02649, "bike_id": "0489543746f5b41bf8545a405bc67790", "fusion_lat": 0.0, "name": "0489543746f5b41bf8545a405bc67790", "is_reserved": 0, "rental_uris": {"android": "https://dc.lft.to/lastmile_qr_scan", "ios": "https://dc.lft.to/lastmile_qr_scan"}, "fusion_lon": 0.0}, {"lat": 38.86380166666667, "is_disabled": 0, "type": "electric_scooter", "lon": -76.992499, "bike_id": "efdd8cc41b98d493d71e8e74ab2f0692", "fusion_lat": 0.0, "name": "efdd8cc41b98d493d71e8e74ab2f0692", "is_reserved": 0, "rental_uris": {"android": "https://dc.lft.to/lastmile_qr_scan", "ios": "https://dc.lft.to/lastmile_qr_scan"}, "fusion_lon": 0.0}, {"lat": 38.917877833333336, "is_disabled": 0, "type": "electric_scooter", "lon": -77.04413033333333, "bike_id": "74aff239a64d2fa1b92fc93e94b1d1a0", "fusion_lat": 0.0, "name": "74aff239a64d2fa1b92fc93e94b1d1a0", "is_reserved": 0, "rental_uris": {"android": "https://dc.lft.to/lastmile_qr_scan", "ios": "https://dc.lft.to/lastmile_qr_scan"}, "fusion_lon": 0.0}, {"lat": 38.8900195, "is_disabled": 0, "type": "electric_scooter", "lon": -77.048943, "bike_id": "40ba6b8092fadd674d9e4b434aa47d5f", "fusion_lat": 0.0, "name": "40ba6b8092fadd674d9e4b434aa47d5f", "is_reserved": 0, "rental_uris": {"android": "https://dc.lft.to/lastmile_qr_scan", "ios": "https://dc.lft.to/lastmile_qr_scan"}, "fusion_lon": 0.0}, {"lat": 38.923559166666664, "is_disabled": 0, "type": "electric_scooter", "lon": -77.04395516666666, "bike_id": "c47dcb6ba492b96b24d6b052fcfa5b0e", "fusion_lat": 0.0, "name": "c47dcb6ba492b96b24d6b052fcfa5b0e", "is_reserved": 0, "rental_uris": {"android": "https://dc.lft.to/lastmile_qr_scan", "ios": "https://dc.lft.to/lastmile_qr_scan"}, "fusion_lon": 0.0}, {"lat": 38.902306833333334, "is_disabled": 0, "type": "electric_scooter", "lon": -77.04335216666666, "bike_id": "cd5ca4c946cb83e6333e4430a24ae9d1", "fusion_lat": 0.0, "name": "cd5ca4c946cb83e6333e4430a24ae9d1", "is_reserved": 0, "rental_uris": {"android": "https://dc.lft.to/lastmile_qr_scan", "ios": "https://dc.lft.to/lastmile_qr_scan"}, "fusion_lon": 0.0}, {"lat": 38.90315283333333, "is_disabled": 0, "type": "electric_scooter", "lon": -77.0289575, "bike_id": "ecbbec7a5db0bc559cd200d43f3a83ef", "fusion_lat": 0.0, "name": "ecbbec7a5db0bc559cd200d43f3a83ef", "is_reserved": 0, "rental_uris": {"android": "https://dc.lft.to/lastmile_qr_scan", "ios": "https://dc.lft.to/lastmile_qr_scan"}, "fusion_lon": 0.0}, {"lat": 38.89965866666667, "is_disabled": 0, "type": "electric_scooter", "lon": -77.02300016666666, "bike_id": "ba9757221c629a4843efd0bf7f0e2318", "fusion_lat": 0.0, "name": "ba9757221c629a4843efd0bf7f0e2318", "is_reserved": 0, "rental_uris": {"android": "https://dc.lft.to/lastmile_qr_scan", "ios": "https://dc.lft.to/lastmile_qr_scan"}, "fusion_lon": 0.0}, {"lat": 38.9225935, "is_disabled": 0, "type": "electric_scooter", "lon": -77.042886, "bike_id": "38b50f4ce9519d0a07a86cd3bf5715d0", "fusion_lat": 0.0, "name": "38b50f4ce9519d0a07a86cd3bf5715d0", "is_reserved": 0, "rental_uris": {"android": "https://dc.lft.to/lastmile_qr_scan", "ios": "https://dc.lft.to/lastmile_qr_scan"}, "fusion_lon": 0.0}, {"lat": 39.08854616666667, "is_disabled": 0, "type": "electric_bike", "lon": -77.178449, "bike_id": "958020d2ea32fa27dfa5f9df051f13b6", "fusion_lat": 0.0, "name": "958020d2ea32fa27dfa5f9df051f13b6", "is_reserved": 0, "rental_uris": {"android": "https://dc.lft.to/lastmile_qr_scan", "ios": "https://dc.lft.to/lastmile_qr_scan"}, "fusion_lon": 0.0}, {"lat": 38.906225666666664, "is_disabled": 0, "type": "electric_scooter", "lon": -77.0466675, "bike_id": "8398d2ff5ea40f59f4d5de06034614a5", "fusion_lat": 0.0, "name": "8398d2ff5ea40f59f4d5de06034614a5", "is_reserved": 0, "rental_uris": {"android": "https://dc.lft.to/lastmile_qr_scan", "ios": "https://dc.lft.to/lastmile_qr_scan"}, "fusion_lon": 0.0}, {"lat": 38.917701, "is_disabled": 0, "type": "electric_scooter", "lon": -77.02896283333334, "bike_id": "6207e4e6e7eb2dcc92e3dacd2b431534", "fusion_lat": 0.0, "name": "6207e4e6e7eb2dcc92e3dacd2b431534", "is_reserved": 0, "rental_uris": {"android": "https://dc.lft.to/lastmile_qr_scan", "ios": "https://dc.lft.to/lastmile_qr_scan"}, "fusion_lon": 0.0}, {"lat": 38.9313275, "is_disabled": 0, "type": "electric_scooter", "lon": -77.03253616666667, "bike_id": "d56f1dc4915c2f8809a726670b0504bd", "fusion_lat": 0.0, "name": "d56f1dc4915c2f8809a726670b0504bd", "is_reserved": 0, "rental_uris": {"android": "https://dc.lft.to/lastmile_qr_scan", "ios": "https://dc.lft.to/lastmile_qr_scan"}, "fusion_lon": 0.0}, {"lat": 38.87213716666667, "is_disabled": 0, "type": "electric_bike", "lon": -77.01525233333334, "bike_id": "38f052e2bba2c62c0bc7bf639ed4aed0", "fusion_lat": 0.0, "name": "38f052e2bba2c62c0bc7bf639ed4aed0", "is_reserved": 0, "rental_uris": {"android": "https://dc.lft.to/lastmile_qr_scan", "ios": "https://dc.lft.to/lastmile_qr_scan"}, "fusion_lon": 0.0}, {"lat": 38.9285555, "is_disabled": 0, "type": "electric_bike", "lon": -77.22201133333333, "bike_id": "d6322c68b76127dca3a47457d5b0922c", "fusion_lat": 0.0, "name": "d6322c68b76127dca3a47457d5b0922c", "is_reserved": 0, "rental_uris": {"android": "https://dc.lft.to/lastmile_qr_scan", "ios": "https://dc.lft.to/lastmile_qr_scan"}, "fusion_lon": 0.0}, {"lat": 38.922031833333335, "is_disabled": 0, "type": "electric_scooter", "lon": -76.95663, "bike_id": "8af529da1ef4fd4cceedb69add85c98f", "fusion_lat": 0.0, "name": "8af529da1ef4fd4cceedb69add85c98f", "is_reserved": 0, "rental_uris": {"android": "https://dc.lft.to/lastmile_qr_scan", "ios": "https://dc.lft.to/lastmile_qr_scan"}, "fusion_lon": 0.0}, {"lat": 38.96554783333333, "is_disabled": 0, "type": "electric_bike", "lon": -77.0204375, "bike_id": "ab67ee896f29af4244bef9d15296ba0e", "fusion_lat": 0.0, "name": "ab67ee896f29af4244bef9d15296ba0e", "is_reserved": 0, "rental_uris": {"android": "https://dc.lft.to/lastmile_qr_scan", "ios": "https://dc.lft.to/lastmile_qr_scan"}, "fusion_lon": 0.0}, {"lat": 38.921183666666664, "is_disabled": 0, "type": "electric_scooter", "lon": -77.0180775, "bike_id": "981cd7b474a9b6a4a089ccb8f60d0096", "fusion_lat": 0.0, "name": "981cd7b474a9b6a4a089ccb8f60d0096", "is_reserved": 0, "rental_uris": {"android": "https://dc.lft.to/lastmile_qr_scan", "ios": "https://dc.lft.to/lastmile_qr_scan"}, "fusion_lon": 0.0}, {"lat": 38.902447, "is_disabled": 0, "type": "electric_scooter", "lon": -77.017564, "bike_id": "d9425f08d686664d6ef3c7180409ca78", "fusion_lat": 0.0, "name": "d9425f08d686664d6ef3c7180409ca78", "is_reserved": 0, "rental_uris": {"android": "https://dc.lft.to/lastmile_qr_scan", "ios": "https://dc.lft.to/lastmile_qr_scan"}, "fusion_lon": 0.0}, {"lat": 38.905752, "is_disabled": 0, "type": "electric_scooter", "lon": -77.017936, "bike_id": "3fbabd2d4666d0bf9764785c22ffad5e", "fusion_lat": 0.0, "name": "3fbabd2d4666d0bf9764785c22ffad5e", "is_reserved": 0, "rental_uris": {"android": "https://dc.lft.to/lastmile_qr_scan", "ios": "https://dc.lft.to/lastmile_qr_scan"}, "fusion_lon": 0.0}, {"lat": 38.9291275, "is_disabled": 0, "type": "electric_scooter", "lon": -77.021928, "bike_id": "55ba9e1fadd9d2e655dc21d5678f7fd5", "fusion_lat": 0.0, "name": "55ba9e1fadd9d2e655dc21d5678f7fd5", "is_reserved": 0, "rental_uris": {"android": "https://dc.lft.to/lastmile_qr_scan", "ios": "https://dc.lft.to/lastmile_qr_scan"}, "fusion_lon": 0.0}, {"lat": 38.961157166666666, "is_disabled": 0, "type": "electric_scooter", "lon": -77.0281275, "bike_id": "8f676667b77fd0fd07fbdf86a74620d0", "fusion_lat": 0.0, "name": "8f676667b77fd0fd07fbdf86a74620d0", "is_reserved": 0, "rental_uris": {"android": "https://dc.lft.to/lastmile_qr_scan", "ios": "https://dc.lft.to/lastmile_qr_scan"}, "fusion_lon": 0.0}, {"lat": 38.89217466666667, "is_disabled": 0, "type": "electric_scooter", "lon": -77.02114533333334, "bike_id": "9d038716f88ee93b16c5d595f4d2e806", "fusion_lat": 0.0, "name": "9d038716f88ee93b16c5d595f4d2e806", "is_reserved": 0, "rental_uris": {"android": "https://dc.lft.to/lastmile_qr_scan", "ios": "https://dc.lft.to/lastmile_qr_scan"}, "fusion_lon": 0.0}, {"lat": 38.906771666666664, "is_disabled": 0, "type": "electric_scooter", "lon": -77.06068266666666, "bike_id": "94c9f2b033334f4f86432e1d9e251f4d", "fusion_lat": 0.0, "name": "94c9f2b033334f4f86432e1d9e251f4d", "is_reserved": 0, "rental_uris": {"android": "https://dc.lft.to/lastmile_qr_scan", "ios": "https://dc.lft.to/lastmile_qr_scan"}, "fusion_lon": 0.0}, {"lat": 38.9258415, "is_disabled": 0, "type": "electric_scooter", "lon": -77.05747866666667, "bike_id": "a366f3261b8092bf433ffe262851616b", "fusion_lat": 0.0, "name": "a366f3261b8092bf433ffe262851616b", "is_reserved": 0, "rental_uris": {"android": "https://dc.lft.to/lastmile_qr_scan", "ios": "https://dc.lft.to/lastmile_qr_scan"}, "fusion_lon": 0.0}, {"lat": 38.928116, "is_disabled": 0, "type": "electric_scooter", "lon": -77.05425533333333, "bike_id": "9551d691a3c571a0697543c5fa08befa", "fusion_lat": 0.0, "name": "9551d691a3c571a0697543c5fa08befa", "is_reserved": 0, "rental_uris": {"android": "https://dc.lft.to/lastmile_qr_scan", "ios": "https://dc.lft.to/lastmile_qr_scan"}, "fusion_lon": 0.0}, {"lat": 38.921089, "is_disabled": 0, "type": "electric_scooter", "lon": -77.04583766666667, "bike_id": "f3ad0f4fc72ac2d7e7bf1191f7b95499", "fusion_lat": 0.0, "name": "f3ad0f4fc72ac2d7e7bf1191f7b95499", "is_reserved": 0, "rental_uris": {"android": "https://dc.lft.to/lastmile_qr_scan", "ios": "https://dc.lft.to/lastmile_qr_scan"}, "fusion_lon": 0.0}, {"lat": 38.925824666666664, "is_disabled": 0, "type": "electric_scooter", "lon": -77.05290316666667, "bike_id": "32118e09cd881d801c7314e4449daf2e", "fusion_lat": 0.0, "name": "32118e09cd881d801c7314e4449daf2e", "is_reserved": 0, "rental_uris": {"android": "https://dc.lft.to/lastmile_qr_scan", "ios": "https://dc.lft.to/lastmile_qr_scan"}, "fusion_lon": 0.0}, {"lat": 38.863002, "is_disabled": 0, "type": "electric_scooter", "lon": -76.99242966666667, "bike_id": "8c864d12c1d2c608010be6e452a4264b", "fusion_lat": 0.0, "name": "8c864d12c1d2c608010be6e452a4264b", "is_reserved": 0, "rental_uris": {"android": "https://dc.lft.to/lastmile_qr_scan", "ios": "https://dc.lft.to/lastmile_qr_scan"}, "fusion_lon": 0.0}, {"lat": 38.914609, "is_disabled": 0, "type": "electric_scooter", "lon": -77.0021805, "bike_id": "7caf602b68d22440da6c8488e89115b1", "fusion_lat": 0.0, "name": "7caf602b68d22440da6c8488e89115b1", "is_reserved": 0, "rental_uris": {"android": "https://dc.lft.to/lastmile_qr_scan", "ios": "https://dc.lft.to/lastmile_qr_scan"}, "fusion_lon": 0.0}, {"lat": 38.89843233333333, "is_disabled": 0, "type": "electric_scooter", "lon": -76.94458183333333, "bike_id": "3a39126b67cb990e91d4eef412c24061", "fusion_lat": 0.0, "name": "3a39126b67cb990e91d4eef412c24061", "is_reserved": 0, "rental_uris": {"android": "https://dc.lft.to/lastmile_qr_scan", "ios": "https://dc.lft.to/lastmile_qr_scan"}, "fusion_lon": 0.0}, {"lat": 38.90563683333333, "is_disabled": 0, "type": "electric_bike", "lon": -77.0049545, "bike_id": "0137a98aee44d08e60f3220a9551890f", "fusion_lat": 0.0, "name": "0137a98aee44d08e60f3220a9551890f", "is_reserved": 0, "rental_uris": {"android": "https://dc.lft.to/lastmile_qr_scan", "ios": "https://dc.lft.to/lastmile_qr_scan"}, "fusion_lon": 0.0}, {"lat": 39.074998, "is_disabled": 0, "type": "electric_bike", "lon": -77.11898316666667, "bike_id": "ebc2e2432313be558ce2f34b5689be38", "fusion_lat": 0.0, "name": "ebc2e2432313be558ce2f34b5689be38", "is_reserved": 0, "rental_uris": {"android": "https://dc.lft.to/lastmile_qr_scan", "ios": "https://dc.lft.to/lastmile_qr_scan"}, "fusion_lon": 0.0}, {"lat": 38.94919766666667, "is_disabled": 0, "type": "electric_bike", "lon": -77.00797316666667, "bike_id": "4281b1e53686bb4675279066bb55bd26", "fusion_lat": 0.0, "name": "4281b1e53686bb4675279066bb55bd26", "is_reserved": 0, "rental_uris": {"android": "https://dc.lft.to/lastmile_qr_scan", "ios": "https://dc.lft.to/lastmile_qr_scan"}, "fusion_lon": 0.0}, {"lat": 38.92504016666667, "is_disabled": 0, "type": "electric_scooter", "lon": -76.98231666666666, "bike_id": "1ecb07980a969e9b6f2a8051fedc4e14", "fusion_lat": 0.0, "name": "1ecb07980a969e9b6f2a8051fedc4e14", "is_reserved": 0, "rental_uris": {"android": "https://dc.lft.to/lastmile_qr_scan", "ios": "https://dc.lft.to/lastmile_qr_scan"}, "fusion_lon": 0.0}, {"lat": 38.905293666666665, "is_disabled": 0, "type": "electric_scooter", "lon": -77.04888066666666, "bike_id": "89266ce774b74b3e82ce33317d84e5ef", "fusion_lat": 0.0, "name": "89266ce774b74b3e82ce33317d84e5ef", "is_reserved": 0, "rental_uris": {"android": "https://dc.lft.to/lastmile_qr_scan", "ios": "https://dc.lft.to/lastmile_qr_scan"}, "fusion_lon": 0.0}, {"lat": 38.90014083333333, "is_disabled": 0, "type": "electric_scooter", "lon": -77.01199916666667, "bike_id": "70153c7a16172cdf4e94afe6c06e36ea", "fusion_lat": 0.0, "name": "70153c7a16172cdf4e94afe6c06e36ea", "is_reserved": 0, "rental_uris": {"android": "https://dc.lft.to/lastmile_qr_scan", "ios": "https://dc.lft.to/lastmile_qr_scan"}, "fusion_lon": 0.0}, {"lat": 38.90086016666667, "is_disabled": 0, "type": "electric_scooter", "lon": -77.05059416666667, "bike_id": "b6a98036874ed1a30bc47cc62ac08bee", "fusion_lat": 0.0, "name": "b6a98036874ed1a30bc47cc62ac08bee", "is_reserved": 0, "rental_uris": {"android": "https://dc.lft.to/lastmile_qr_scan", "ios": "https://dc.lft.to/lastmile_qr_scan"}, "fusion_lon": 0.0}, {"lat": 38.884653166666666, "is_disabled": 0, "type": "electric_scooter", "lon": -77.02417666666666, "bike_id": "b6f052a2cf99b974f9d9183d4a45ba1a", "fusion_lat": 0.0, "name": "b6f052a2cf99b974f9d9183d4a45ba1a", "is_reserved": 0, "rental_uris": {"android": "https://dc.lft.to/lastmile_qr_scan", "ios": "https://dc.lft.to/lastmile_qr_scan"}, "fusion_lon": 0.0}, {"lat": 38.88114216666666, "is_disabled": 0, "type": "electric_scooter", "lon": -77.01663816666667, "bike_id": "4bd34c1f39e650dad34f6dba6efa0ba7", "fusion_lat": 0.0, "name": "4bd34c1f39e650dad34f6dba6efa0ba7", "is_reserved": 0, "rental_uris": {"android": "https://dc.lft.to/lastmile_qr_scan", "ios": "https://dc.lft.to/lastmile_qr_scan"}, "fusion_lon": 0.0}, {"lat": 38.86507533333333, "is_disabled": 0, "type": "electric_scooter", "lon": -76.99007033333334, "bike_id": "8720dac1a37444b6ad778e2b31ef872f", "fusion_lat": 0.0, "name": "8720dac1a37444b6ad778e2b31ef872f", "is_reserved": 0, "rental_uris": {"android": "https://dc.lft.to/lastmile_qr_scan", "ios": "https://dc.lft.to/lastmile_qr_scan"}, "fusion_lon": 0.0}, {"lat": 38.86710216666667, "is_disabled": 0, "type": "electric_scooter", "lon": -76.987262, "bike_id": "4fc4ee184e997a789963f71f4e2b197a", "fusion_lat": 0.0, "name": "4fc4ee184e997a789963f71f4e2b197a", "is_reserved": 0, "rental_uris": {"android": "https://dc.lft.to/lastmile_qr_scan", "ios": "https://dc.lft.to/lastmile_qr_scan"}, "fusion_lon": 0.0}, {"lat": 38.89558133333333, "is_disabled": 0, "type": "electric_scooter", "lon": -76.9307505, "bike_id": "79929a76e73cb65cf5c4e94858d36096", "fusion_lat": 0.0, "name": "79929a76e73cb65cf5c4e94858d36096", "is_reserved": 0, "rental_uris": {"android": "https://dc.lft.to/lastmile_qr_scan", "ios": "https://dc.lft.to/lastmile_qr_scan"}, "fusion_lon": 0.0}, {"lat": 38.902598, "is_disabled": 0, "type": "electric_scooter", "lon": -77.00330533333333, "bike_id": "9f23eb4103dc6b5f599a082880a42960", "fusion_lat": 0.0, "name": "9f23eb4103dc6b5f599a082880a42960", "is_reserved": 0, "rental_uris": {"android": "https://dc.lft.to/lastmile_qr_scan", "ios": "https://dc.lft.to/lastmile_qr_scan"}, "fusion_lon": 0.0}, {"lat": 38.92822233333333, "is_disabled": 0, "type": "electric_scooter", "lon": -77.02618216666667, "bike_id": "87584a63c13b4616b99fdcaa7a966e24", "fusion_lat": 0.0, "name": "87584a63c13b4616b99fdcaa7a966e24", "is_reserved": 0, "rental_uris": {"android": "https://dc.lft.to/lastmile_qr_scan", "ios": "https://dc.lft.to/lastmile_qr_scan"}, "fusion_lon": 0.0}, {"lat": 38.91929566666666, "is_disabled": 0, "type": "electric_scooter", "lon": -77.03184133333333, "bike_id": "2cb307f4880e971f723c2f7de4e35a3d", "fusion_lat": 0.0, "name": "2cb307f4880e971f723c2f7de4e35a3d", "is_reserved": 0, "rental_uris": {"android": "https://dc.lft.to/lastmile_qr_scan", "ios": "https://dc.lft.to/lastmile_qr_scan"}, "fusion_lon": 0.0}, {"lat": 38.902965, "is_disabled": 0, "type": "electric_scooter", "lon": -77.038622, "bike_id": "c3b40105b1310eba94a737153c9d3df1", "fusion_lat": 0.0, "name": "c3b40105b1310eba94a737153c9d3df1", "is_reserved": 0, "rental_uris": {"android": "https://dc.lft.to/lastmile_qr_scan", "ios": "https://dc.lft.to/lastmile_qr_scan"}, "fusion_lon": 0.0}, {"lat": 38.939539833333335, "is_disabled": 0, "type": "electric_bike", "lon": -77.360974, "bike_id": "4ea45512f3b8e267368e1d874e7bae52", "fusion_lat": 0.0, "name": "4ea45512f3b8e267368e1d874e7bae52", "is_reserved": 0, "rental_uris": {"android": "https://dc.lft.to/lastmile_qr_scan", "ios": "https://dc.lft.to/lastmile_qr_scan"}, "fusion_lon": 0.0}, {"lat": 38.8849125, "is_disabled": 0, "type": "electric_scooter", "lon": -77.00724816666667, "bike_id": "fc4fd462c2a9188337a1386b8b6e21c4", "fusion_lat": 0.0, "name": "fc4fd462c2a9188337a1386b8b6e21c4", "is_reserved": 0, "rental_uris": {"android": "https://dc.lft.to/lastmile_qr_scan", "ios": "https://dc.lft.to/lastmile_qr_scan"}, "fusion_lon": 0.0}, {"lat": 38.9528305, "is_disabled": 0, "type": "electric_bike", "lon": -76.946048, "bike_id": "b0f398528ec00263583dc9b4520e11d4", "fusion_lat": 0.0, "name": "b0f398528ec00263583dc9b4520e11d4", "is_reserved": 0, "rental_uris": {"android": "https://dc.lft.to/lastmile_qr_scan", "ios": "https://dc.lft.to/lastmile_qr_scan"}, "fusion_lon": 0.0}, {"lat": 38.92267533333333, "is_disabled": 0, "type": "electric_scooter", "lon": -77.04143, "bike_id": "9db606622b4dffb3e40a029e2a9f4d70", "fusion_lat": 0.0, "name": "9db606622b4dffb3e40a029e2a9f4d70", "is_reserved": 0, "rental_uris": {"android": "https://dc.lft.to/lastmile_qr_scan", "ios": "https://dc.lft.to/lastmile_qr_scan"}, "fusion_lon": 0.0}, {"lat": 38.917058, "is_disabled": 0, "type": "electric_scooter", "lon": -77.00117633333333, "bike_id": "3b55bbaad363d5da22eab5762c919c4c", "fusion_lat": 0.0, "name": "3b55bbaad363d5da22eab5762c919c4c", "is_reserved": 0, "rental_uris": {"android": "https://dc.lft.to/lastmile_qr_scan", "ios": "https://dc.lft.to/lastmile_qr_scan"}, "fusion_lon": 0.0}, {"lat": 38.95649866666667, "is_disabled": 0, "type": "electric_bike", "lon": -77.02255716666667, "bike_id": "5b8f097ee89f9ededd5e150d98bf198e", "fusion_lat": 0.0, "name": "5b8f097ee89f9ededd5e150d98bf198e", "is_reserved": 0, "rental_uris": {"android": "https://dc.lft.to/lastmile_qr_scan", "ios": "https://dc.lft.to/lastmile_qr_scan"}, "fusion_lon": 0.0}, {"lat": 38.874092833333336, "is_disabled": 0, "type": "electric_scooter", "lon": -76.9730535, "bike_id": "d9c22936dab780886e35a5987d309d11", "fusion_lat": 0.0, "name": "d9c22936dab780886e35a5987d309d11", "is_reserved": 0, "rental_uris": {"android": "https://dc.lft.to/lastmile_qr_scan", "ios": "https://dc.lft.to/lastmile_qr_scan"}, "fusion_lon": 0.0}, {"lat": 38.93987533333333, "is_disabled": 0, "type": "electric_scooter", "lon": -77.07171433333333, "bike_id": "352a23f2465f75e2fd18747a2c67229c", "fusion_lat": 0.0, "name": "352a23f2465f75e2fd18747a2c67229c", "is_reserved": 0, "rental_uris": {"android": "https://dc.lft.to/lastmile_qr_scan", "ios": "https://dc.lft.to/lastmile_qr_scan"}, "fusion_lon": 0.0}, {"lat": 38.8973055, "is_disabled": 0, "type": "electric_scooter", "lon": -77.04535566666667, "bike_id": "d6bdbfe25242fe1be159bc2543811090", "fusion_lat": 0.0, "name": "d6bdbfe25242fe1be159bc2543811090", "is_reserved": 0, "rental_uris": {"android": "https://dc.lft.to/lastmile_qr_scan", "ios": "https://dc.lft.to/lastmile_qr_scan"}, "fusion_lon": 0.0}, {"lat": 38.90399983333333, "is_disabled": 0, "type": "electric_scooter", "lon": -77.01774316666666, "bike_id": "3520a07dab64ee0c6d0d532eb79db937", "fusion_lat": 0.0, "name": "3520a07dab64ee0c6d0d532eb79db937", "is_reserved": 0, "rental_uris": {"android": "https://dc.lft.to/lastmile_qr_scan", "ios": "https://dc.lft.to/lastmile_qr_scan"}, "fusion_lon": 0.0}, {"lat": 38.8989785, "is_disabled": 0, "type": "electric_scooter", "lon": -76.93349016666667, "bike_id": "a7d57eaece0ab52f98bb88e4c27c6d55", "fusion_lat": 0.0, "name": "a7d57eaece0ab52f98bb88e4c27c6d55", "is_reserved": 0, "rental_uris": {"android": "https://dc.lft.to/lastmile_qr_scan", "ios": "https://dc.lft.to/lastmile_qr_scan"}, "fusion_lon": 0.0}, {"lat": 38.86656833333333, "is_disabled": 0, "type": "electric_scooter", "lon": -76.9888, "bike_id": "49e4e84790b53ba102ab8a7a6f566e13", "fusion_lat": 0.0, "name": "49e4e84790b53ba102ab8a7a6f566e13", "is_reserved": 0, "rental_uris": {"android": "https://dc.lft.to/lastmile_qr_scan", "ios": "https://dc.lft.to/lastmile_qr_scan"}, "fusion_lon": 0.0},