{"data": {"bikes": [{"lat": 38.903598333333335, "is_disabled": 0, "type": "electric_scooter", "lon": -77.01098, "bike_id": "ef57380990288e25d532db7ca2ba3b55", "fusion_lat": 0.0, "name": "ef57380990288e25d532db7ca2ba3b55", "is_reserved": 0, "rental_uris": {"android": "https://dc.lft.to/lastmile_qr_scan", "ios": "https://dc.lft.to/lastmile_qr_scan"}, "fusion_lon": 0.0}, {"lat": 38.90144183333334, "is_disabled": 0, "type": "electric_scooter", "lon": -77.04163983333333, "bike_id": "bb8ac0068ecb5619daa2a19998fbf4d9", "fusion_lat": 0.0, "name": "bb8ac0068ecb5619daa2a19998fbf4d9", "is_reserved": 0, "rental_uris": {"android": "https://dc.lft.to/lastmile_qr_scan", "ios": "https://dc.lft.to/lastmile_qr_scan"}, "fusion_lon": 0.0}, {"lat": 39.00007433333333, "is_disabled": 0, "type": "electric_bike", "lon": -76.91076733333334, "bike_id": "3d555b8c9965f833e1966b1820e0ea77", "fusion_lat": 0.0, "name": "3d555b8c9965f833e1966b1820e0ea77", "is_reserved": 0, "rental_uris": {"android": "https://dc.lft.to/lastmile_qr_scan", "ios": "https://dc.lft.to/lastmile_qr_scan"}, "fusion_lon": 0.0}, {"lat": 38.906895666666664, "is_disabled": 0, "type": "electric_scooter", "lon": -77.063564, "bike_id": "f5717fd9aeb3bba573102950b9aa4f42", "fusion_lat": 0.0, "name": "f5717fd9aeb3bba573102950b9aa4f42", "is_reserved": 0, "rental_uris": {"android": "https://dc.lft.to/lastmile_qr_scan", "ios": "https://dc.lft.to/lastmile_qr_scan"}, "fusion_lon": 0.0}, {"lat": 38.85321733333333, "is_disabled": 0, "type": "electric_bike", "lon": -76.98004083333333, "bike_id": "7ad0678d9794b33ca8ad05e7c6e6c982", "fusion_lat": 0.0, "name": "7ad0678d9794b33ca8ad05e7c6e6c982", "is_reserved": 0, "rental_uris": {"android": "https://dc.lft.to/lastmile_qr_scan", "ios": "https://dc.lft.to/lastmile_qr_scan"}, "fusion_lon": 0.0}, {"lat": 38.863890166666664, "is_disabled": 0, "type": "electric_bike", "lon": -76.98992316666667, "bike_id": "ab3bd8098f703dd96a877296557e89c0", "fusion_lat": 0.0, "name": "ab3bd8098f703dd96a877296557e89c0", "is_reserved": 0, "rental_uris": {"android": "https://dc.lft.to/lastmile_qr_scan", "ios": "https://dc.lft.to/lastmile_qr_scan"}, "fusion_lon": 0.0}, {"lat": 38.917508833333336, "is_disabled": 0, "type": "electric_scooter", "lon": -77.0365895, "bike_id": "698b83f19f6112cd52b609bc9bb53b89", "fusion_lat": 0.0, "name": "698b83f19f6112cd52b609bc9bb53b89", "is_reserved": 0, "rental_uris": {"android": "https://dc.lft.to/lastmile_qr_scan", "ios": "https://dc.lft.to/lastmile_qr_scan"}, "fusion_lon": 0.0}, {"lat": 38.930755, "is_disabled": 0, "type": "electric_scooter", "lon": -77.027933, "bike_id": "6379d18493eb521f525abb4d5357b8d5", "fusion_lat": 0.0, "name": "6379d18493eb521f525abb4d5357b8d5", "is_reserved": 0, "rental_uris": {"android": "https://dc.lft.to/lastmile_qr_scan", "ios": "https://dc.lft.to/lastmile_qr_scan"}, "fusion_lon": 0.0}, {"lat": 38.951936333333336, "is_disabled": 0, "type": "electric_bike", "lon": -76.967224, "bike_id": "13f880c0e28675498c2adb50b88532fb", "fusion_lat": 0.0, "name": "13f880c0e28675498c2adb50b88532fb", "is_reserved": 0, "rental_uris": {"android": "https://dc.lft.to/lastmile_qr_scan", "ios": "https://dc.lft.to/lastmile_qr_scan"}, "fusion_lon": 0.0}, {"lat": 38.92797566666667, "is_disabled": 0, "type": "electric_scooter", "lon": -77.05528983333333, "bike_id": "e27ee62573909c4f61f2de6b0f39803b", "fusion_lat": 0.0, "name": "e27ee62573909c4f61f2de6b0f39803b", "is_reserved": 0, "rental_uris": {"android": "https://dc.lft.to/lastmile_qr_scan", "ios": "https://dc.lft.to/lastmile_qr_scan"}, "fusion_lon": 0.0}, {"lat": 38.901006833333334, "is_disabled": 0, "type": "electric_scooter", "lon": -76.9848285, "bike_id": "b8322547bc98ef3656cdc796ee08819e", "fusion_lat": 0.0, "name": "b8322547bc98ef3656cdc796ee08819e", "is_reserved": 0, "rental_uris": {"android": "https://dc.lft.to/lastmile_qr_scan", "ios": "https://dc.lft.to/lastmile_qr_scan"}, "fusion_lon": 0.0}, {"lat": 38.933144666666664, "is_disabled": 0, "type": "electric_scooter", "lon": -77.032853, "bike_id": "f0c30dac2bc93654f63cb4118dd1a80f", "fusion_lat": 0.0, "name": "f0c30dac2bc93654f63cb4118dd1a80f", "is_reserved": 0, "rental_uris": {"android": "https://dc.lft.to/lastmile_qr_scan", "ios": "https://dc.lft.to/lastmile_qr_scan"}, "fusion_lon": 0.0}, {"lat": 38.848117, "is_disabled": 0, "type": "electric_bike", "lon": -77.079078, "bike_id": "510e9798d51fc457d620af403db644a1", "fusion_lat": 0.0, "name": "510e9798d51fc457d620af403db644a1", "is_reserved": 0, "rental_uris": {"android": "https://dc.lft.to/lastmile_qr_scan", "ios": "https://dc.lft.to/lastmile_qr_scan"}, "fusion_lon": 0.0}, {"lat": 38.91417833333333, "is_disabled": 0, "type": "electric_scooter", "lon": -77.0399315, "bike_id": "0d3e5ef5b50cb907b0440e0c7cc800b4", "fusion_lat": 0.0, "name": "0d3e5ef5b50cb907b0440e0c7cc800b4", "is_reserved": 0, "rental_uris": {"android": "https://dc.lft.to/lastmile_qr_scan", "ios": "https://dc.lft.to/lastmile_qr_scan"}, "fusion_lon": 0.0}, {"lat": 38.90548366666667, "is_disabled": 0, "type": "electric_scooter", "lon": -77.032465, "bike_id": "9008a962f5452d336a14bba9b14909d1", "fusion_lat": 0.0, "name": "9008a962f5452d336a14bba9b14909d1", "is_reserved": 0, "rental_uris": {"android": "https://dc.lft.to/lastmile_qr_scan", "ios": "https://dc.lft.to/lastmile_qr_scan"}, "fusion_lon": 0.0}, {"lat": 38.8843175, "is_disabled": 0, "type": "electric_scooter", "lon": -76.95753716666667, "bike_id": "73ec41fa7844bbcfbc870c639fe592e3", "fusion_lat": 0.0, "name": "73ec41fa7844bbcfbc870c639fe592e3", "is_reserved": 0, "rental_uris": {"android": "https://dc.lft.to/lastmile_qr_scan", "ios": "https://dc.lft.to/lastmile_qr_scan"}, "fusion_lon": 0.0}, {"lat": 38.8978465, "is_disabled": 0, "type": "electric_scooter", "lon": -77.03212, "bike_id": "6113fd8614ba0c96fdb0979014b79cc4", "fusion_lat": 0.0, "name": "6113fd8614ba0c96fdb0979014b79cc4", "is_reserved": 0, "rental_uris": {"android": "https://dc.lft.to/lastmile_qr_scan", "ios": "https://dc.lft.to/lastmile_qr_scan"}, "fusion_lon": 0.0}, {"lat": 38.90865516666667, "is_disabled": 0, "type": "electric_scooter", "lon": -77.04635616666667, "bike_id": "c932a1a502809f5259dc44dffb8c4fa6", "fusion_lat": 0.0, "name": "c932a1a502809f5259dc44dffb8c4fa6", "is_reserved": 0, "rental_uris": {"android": "https://dc.lft.to/lastmile_qr_scan", "ios": "https://dc.lft.to/lastmile_qr_scan"}, "fusion_lon": 0.0}, {"lat": 38.9226945, "is_disabled": 0, "type": "electric_scooter", "lon": -77.019645, "bike_id": "dca813bcc798d3a71937000d3fa957e2", "fusion_lat": 0.0, "name": "dca813bcc798d3a71937000d3fa957e2", "is_reserved": 0, "rental_uris": {"android": "https://dc.lft.to/lastmile_qr_scan", "ios": "https://dc.lft.to/lastmile_qr_scan"}, "fusion_lon": 0.0}, {"lat": 38.89755483333333, "is_disabled": 0, "type": "electric_scooter", "lon": -76.94187333333333, "bike_id": "3004607a8b0b554ac999eca9267610ae", "fusion_lat": 0.0, "name": "3004607a8b0b554ac999eca9267610ae", "is_reserved": 0, "rental_uris": {"android": "https://dc.lft.to/lastmile_qr_scan", "ios": "https://dc.lft.to/lastmile_qr_scan"}, "fusion_lon": 0.0}, {"lat": 38.855197, "is_disabled": 0, "type": "electric_bike", "lon": -76.98398133333333, "bike_id": "2c3f47588b659f08223ccde97f0697c6", "fusion_lat": 0.0, "name": "2c3f47588b659f08223ccde97f0697c6", "is_reserved": 0, "rental_uris": {"android": "https://dc.lft.to/lastmile_qr_scan", "ios": "https://dc.lft.to/lastmile_qr_scan"}, "fusion_lon": 0.0}, {"lat": 38.896318, "is_disabled": 0, "type": "electric_scooter", "lon": -77.03221116666667, "bike_id": "0064c20f583b2c1768501b8b89c6720e", "fusion_lat": 0.0, "name": "0064c20f583b2c1768501b8b89c6720e", "is_reserved": 0, "rental_uris": {"android": "https://dc.lft.to/lastmile_qr_scan", "ios": "https://dc.lft.to/lastmile_qr_scan"}, "fusion_lon": 0.0}, {"lat": 38.916160166666664, "is_disabled": 0, "type": "electric_scooter", "lon": -77.03271433333333, "bike_id": "05a60ad0319d6433aac4e04877f9b49b", "fusion_lat": 0.0, "name": "05a60ad0319d6433aac4e04877f9b49b", "is_reserved": 0, "rental_uris": {"android": "https://dc.lft.to/lastmile_qr_scan", "ios": "https://dc.lft.to/lastmile_qr_scan"}, "fusion_lon": 0.0}, {"lat": 38.931138833333335, "is_disabled": 0, "type": "electric_scooter", "lon": -77.03458016666667, "bike_id": "083694fb825a294a0c1bc02798906fdb", "fusion_lat": 0.0, "name": "083694fb825a294a0c1bc02798906fdb", "is_reserved": 0, "rental_uris": {"android": "https://dc.lft.to/lastmile_qr_scan", "ios": "https://dc.lft.to/lastmile_qr_scan"}, "fusion_lon": 0.0}, {"lat": 38.930945333333334, "is_disabled": 0, "type": "electric_scooter", "lon": -77.0250675, "bike_id": "eb004ac8ee08e36f4a35bf7344811d1e", "fusion_lat": 0.0, "name": "eb004ac8ee08e36f4a35bf7344811d1e", "is_reserved": 0, "rental_uris": {"android": "https://dc.lft.to/lastmile_qr_scan", "ios": "https://dc.lft.to/lastmile_qr_scan"}, "fusion_lon": 0.0}, {"lat": 38.90155566666667, "is_disabled": 0, "type": "electric_scooter", "lon": -76.98066766666666, "bike_id": "da94dadf9c7a3b04a9b1df2c3ce8e2b8", "fusion_lat": 0.0, "name": "da94dadf9c7a3b04a9b1df2c3ce8e2b8", "is_reserved": 0, "rental_uris": {"android": "https://dc.lft.to/lastmile_qr_scan", "ios": "https://dc.lft.to/lastmile_qr_scan"}, "fusion_lon": 0.0}, {"lat": 38.84572983333333, "is_disabled": 0, "type": "electric_bike", "lon": -77.09622616666667, "bike_id": "78fe54cb0bcf70963ad8175f43f76af9", "fusion_lat": 0.0, "name": "78fe54cb0bcf70963ad8175f43f76af9", "is_reserved": 0, "rental_uris": {"android": "https://dc.lft.to/lastmile_qr_scan", "ios": "https://dc.lft.to/lastmile_qr_scan"}, "fusion_lon": 0.0}, {"lat": 38.8715895, "is_disabled": 0, "type": "electric_scooter", "lon": -77.01311116666666, "bike_id": "6a1fb170e987838d52ac5c8ad31ed0b5", "fusion_lat": 0.0, "name": "6a1fb170e987838d52ac5c8ad31ed0b5", "is_reserved": 0, "rental_uris": {"android": "https://dc.lft.to/lastmile_qr_scan", "ios": "https://dc.lft.to/lastmile_qr_scan"}, "fusion_lon": 0.0}, {"lat": 38.920783666666665, "is_disabled": 0, "type": "electric_scooter", "lon": -77.02410466666667, "bike_id": "b682cf1586fd4e4c164a34c05fede942", "fusion_lat": 0.0, "name": "b682cf1586fd4e4c164a34c05fede942", "is_reserved": 0, "rental_uris": {"android": "https://dc.lft.to/lastmile_qr_scan", "ios": "https://dc.lft.to/lastmile_qr_scan"}, "fusion_lon": 0.0}, {"lat": 38.93444566666667, "is_disabled": 0, "type": "electric_scooter", "lon": -77.03872366666667, "bike_id": "bf1baca5b00ae1a27dc1402b84db3701", "fusion_lat": 0.0, "name": "bf1baca5b00ae1a27dc1402b84db3701", "is_reserved": 0, "rental_uris": {"android": "https://dc.lft.to/lastmile_qr_scan", "ios": "https://dc.lft.to/lastmile_qr_scan"}, "fusion_lon": 0.0}, {"lat": 38.91098816666667, "is_disabled": 0, "type": "electric_scooter", "lon": -77.00759716666667, "bike_id": "842cb87c9f5bfc365fe7e0c7e839df46", "fusion_lat": 0.0, "name": "842cb87c9f5bfc365fe7e0c7e839df46", "is_reserved": 0, "rental_uris": {"android": "https://dc.lft.to/lastmile_qr_scan", "ios": "https://dc.lft.to/lastmile_qr_scan"}, "fusion_lon": 0.0}, {"lat": 38.8368515, "is_disabled": 0, "type": "electric_scooter", "lon": -77.10308683333334, "bike_id": "0cbaf945dd0f48ab24ea4c4481992c2a", "fusion_lat": 0.0, "name": "0cbaf945dd0f48ab24ea4c4481992c2a", "is_reserved": 0, "rental_uris": {"android": "https://dc.lft.to/lastmile_qr_scan", "ios": "https://dc.lft.to/lastmile_qr_scan"}, "fusion_lon": 0.0}, {"lat": 38.902308833333336, "is_disabled": 0, "type": "electric_scooter", "lon": -77.0533935, "bike_id": "b22ec7349bf937dc2bf2fcb07ba43ad8", "fusion_lat": 0.0, "name": "b22ec7349bf937dc2bf2fcb07ba43ad8", "is_reserved": 0, "rental_uris": {"android": "https://dc.lft.to/lastmile_qr_scan", "ios": "https://dc.lft.to/lastmile_qr_scan"}, "fusion_lon": 0.0}, {"lat": 38.87148166666667, "is_disabled": 0, "type": "electric_bike", "lon": -76.9370215, "bike_id": "0637d8035d1abf20c32fbc1a423821a6", "fusion_lat": 0.0, "name": "0637d8035d1abf20c32fbc1a423821a6", "is_reserved": 0, "rental_uris": {"android": "https://dc.lft.to/lastmile_qr_scan", "ios": "https://dc.lft.to/lastmile_qr_scan"}, "fusion_lon": 0.0}, {"lat": 38.86709783333333, "is_disabled": 0, "type": "electric_scooter", "lon": -76.98725383333333, "bike_id": "f575215ac19a7d1052cb9b79f830971c", "fusion_lat": 0.0, "name": "f575215ac19a7d1052cb9b79f830971c", "is_reserved": 0, "rental_uris": {"android": "https://dc.lft.to/lastmile_qr_scan", "ios": "https://dc.lft.to/lastmile_qr_scan"}, "fusion_lon": 0.0}, {"lat": 38.904659333333335, "is_disabled": 0, "type": "electric_scooter", "lon": -77.00734333333334, "bike_id": "33f8bf7acc65af7fe7ac448f7ec53c4e", "fusion_lat": 0.0, "name": "33f8bf7acc65af7fe7ac448f7ec53c4e", "is_reserved": 0, "rental_uris": {"android": "https://dc.lft.to/lastmile_qr_scan", "ios": "https://dc.lft.to/lastmile_qr_scan"}, "fusion_lon": 0.0}, {"lat": 38.884289333333335, "is_disabled": 0, "type": "electric_bike", "lon": -76.95756783333333, "bike_id": "bc2c75f85db30245f6d79ca6c93ba9b4", "fusion_lat": 0.0, "name": "bc2c75f85db30245f6d79ca6c93ba9b4", "is_reserved": 0, "rental_uris": {"android": "https://dc.lft.to/lastmile_qr_scan", "ios": "https://dc.lft.to/lastmile_qr_scan"}, "fusion_lon": 0.0}, {"lat": 38.911777, "is_disabled": 0, "type": "electric_bike", "lon": -77.00270833333333, "bike_id": "ca449b01923a3fea855fc2fcf4e20d04", "fusion_lat": 0.0, "name": "ca449b01923a3fea855fc2fcf4e20d04", "is_reserved": 0, "rental_uris": {"android": "https://dc.lft.to/lastmile_qr_scan", "ios": "https://dc.lft.to/lastmile_qr_scan"}, "fusion_lon": 0.0}, {"lat": 38.9398425, "is_disabled": 0, "type": "electric_scooter", "lon": -77.03264566666667, "bike_id": "bc887e0f6afd6dcb76d4a739a710078b", "fusion_lat": 0.0, "name": "bc887e0f6afd6dcb76d4a739a710078b", "is_reserved": 0, "rental_uris": {"android": "https://dc.lft.to/lastmile_qr_scan", "ios": "https://dc.lft.to/lastmile_qr_scan"}, "fusion_lon": 0.0}, {"lat": 38.924774166666666, "is_disabled": 0, "type": "electric_scooter", "lon": -77.02629333333333, "bike_id": "0aedc6b1bbc5ea25f14420c5cc00b6a6", "fusion_lat": 0.0, "name": "0aedc6b1bbc5ea25f14420c5cc00b6a6", "is_reserved": 0, "rental_uris": {"android": "https://dc.lft.to/lastmile_qr_scan", "ios": "https://dc.lft.to/lastmile_qr_scan"}, "fusion_lon": 0.0}, {"lat": 38.87678833333333, "is_disabled": 0, "type": "electric_scooter", "lon": -77.0179075, "bike_id": "0bf2a6d80d34eddeaa19d26d214e8639", "fusion_lat": 0.0, "name": "0bf2a6d80d34eddeaa19d26d214e8639", "is_reserved": 0, "rental_uris": {"android": "https://dc.lft.to/lastmile_qr_scan", "ios": "https://dc.lft.to/lastmile_qr_scan"}, "fusion_lon": 0.0}, {"lat": 38.91695516666667, "is_disabled": 0, "type": "electric_scooter", "lon": -77.04604866666666, "bike_id": "749e658779e57daf0a7b42ed6dbfddea", "fusion_lat": 0.0, "name": "749e658779e57daf0a7b42ed6dbfddea", "is_reserved": 0, "rental_uris": {"android": "https://dc.lft.to/lastmile_qr_scan", "ios": "https://dc.lft.to/lastmile_qr_scan"}, "fusion_lon": 0.0}, {"lat": 38.92357766666667, "is_disabled": 0, "type": "electric_scooter", "lon": -77.050946, "bike_id": "00ee8f14399b74f1f7e95a5cf147ea89", "fusion_lat": 0.0, "name": "00ee8f14399b74f1f7e95a5cf147ea89", "is_reserved": 0, "rental_uris": {"android": "https://dc.lft.to/lastmile_qr_scan", "ios": "https://dc.lft.to/lastmile_qr_scan"}, "fusion_lon": 0.0}, {"lat": 38.932627833333335, "is_disabled": 0, "type": "electric_scooter", "lon": -77.03258916666667, "bike_id": "8e3258fdb4c028c1314717d5312a2b11", "fusion_lat": 0.0, "name": "8e3258fdb4c028c1314717d5312a2b11", "is_reserved": 0, "rental_uris": {"android": "https://dc.lft.to/lastmile_qr_scan", "ios": "https://dc.lft.to/lastmile_qr_scan"}, "fusion_lon": 0.0}, {"lat": 38.86719933333333, "is_disabled": 0, "type": "electric_scooter", "lon": -77.0101425, "bike_id": "5ffa6f4b24bc9e33fff829e8b65bf8d3", "fusion_lat": 0.0, "name": "5ffa6f4b24bc9e33fff829e8b65bf8d3", "is_reserved": 0, "rental_uris": {"android": "https://dc.lft.to/lastmile_qr_scan", "ios": "https://dc.lft.to/lastmile_qr_scan"}, "fusion_lon": 0.0}, {"lat": 38.9321995, "is_disabled": 0, "type": "electric_scooter", "lon": -77.038678, "bike_id": "41b0c62bd4daad3375f014180b420306", "fusion_lat": 0.0, "name": "41b0c62bd4daad3375f014180b420306", "is_reserved": 0, "rental_uris": {"android": "https://dc.lft.to/lastmile_qr_scan", "ios": "https://dc.lft.to/lastmile_qr_scan"}, "fusion_lon": 0.0}, {"lat": 38.857932166666664, "is_disabled": 0, "type": "electric_bike", "lon": -77.09960283333334, "bike_id": "e61b657f0ff0ba8c37ba1c7c7b6469fa", "fusion_lat": 0.0, "name": "e61b657f0ff0ba8c37ba1c7c7b6469fa", "is_reserved": 0, "rental_uris": {"android": "https://dc.lft.to/lastmile_qr_scan", "ios": "https://dc.lft.to/lastmile_qr_scan"}, "fusion_lon": 0.0}, {"lat": 38.92249916666667, "is_disabled": 0, "type": "electric_scooter", "lon": -77.04254916666666, "bike_id": "3b3004abb33e7f01a67e368fc291dfb0", "fusion_lat": 0.0, "name": "3b3004abb33e7f01a67e368fc291dfb0", "is_reserved": 0, "rental_uris": {"android": "https://dc.lft.to/lastmile_qr_scan", "ios": "https://dc.lft.to/lastmile_qr_scan"}, "fusion_lon": 0.0}, {"lat": 38.9399465, "is_disabled": 0, "type": "electric_scooter", "lon": -77.02885333333333, "bike_id": "7e4678053f00a0327cb3f7ba847002fe", "fusion_lat": 0.0, "name": "7e4678053f00a0327cb3f7ba847002fe", "is_reserved": 0, "rental_uris": {"android": "https://dc.lft.to/lastmile_qr_scan", "ios": "https://dc.lft.to/lastmile_qr_scan"}, "fusion_lon": 0.0}, {"lat": 38.93482433333333, "is_disabled": 0, "type": "electric_scooter", "lon": -77.07273833333333, "bike_id": "8f3948359d74cae0d90fe1bd417d3f77", "fusion_lat": 0.0, "name": "8f3948359d74cae0d90fe1bd417d3f77", "is_reserved": 0, "rental_uris": {"android": "https://dc.lft.to/lastmile_qr_scan", "ios": "https://dc.lft.to/lastmile_qr_scan"}, "fusion_lon": 0.0}, {"lat": 38.91520116666667, "is_disabled": 0, "type": "electric_scooter", "lon": -77.03840366666667, "bike_id": "c03f5ecf9329593b132612760316a4a3", "fusion_lat": 0.0, "name": "c03f5ecf9329593b132612760316a4a3", "is_reserved": 0, "rental_uris": {"android": "https://dc.lft.to/lastmile_qr_scan", "ios": "https://dc.lft.to/lastmile_qr_scan"}, "fusion_lon": 0.0}, {"lat": 38.908674, "is_disabled": 0, "type": "electric_scooter", "lon": -77.085872, "bike_id": "9ff53423b4660becdb0f1e759f398190", "fusion_lat": 0.0, "name": "9ff53423b4660becdb0f1e759f398190", "is_reserved": 0, "rental_uris": {"android": "https://dc.lft.to/lastmile_qr_scan", "ios": "https://dc.lft.to/lastmile_qr_scan"}, "fusion_lon": 0.0}, {"lat": 38.936343, "is_disabled": 0, "type": "electric_scooter", "lon": -77.05879066666667, "bike_id": "a00fdd0bc01ba677313eb58e0894dbef", "fusion_lat": 0.0, "name": "a00fdd0bc01ba677313eb58e0894dbef", "is_reserved": 0, "rental_uris": {"android": "https://dc.lft.to/lastmile_qr_scan", "ios": "https://dc.lft.to/lastmile_qr_scan"}, "fusion_lon": 0.0}, {"lat": 38.90773016666667, "is_disabled": 0, "type": "electric_scooter", "lon": -77.0680725, "bike_id": "d6cf5f5ec0a6ef36eb5f0053a02718ad", "fusion_lat": 0.0, "name": "d6cf5f5ec0a6ef36eb5f0053a02718ad", "is_reserved": 0, "rental_uris": {"android": "https://dc.lft.to/lastmile_qr_scan", "ios": "https://dc.lft.to/lastmile_qr_scan"}, "fusion_lon": 0.0}, {"lat": 38.891237833333335, "is_disabled": 0, "type": "electric_scooter", "lon": -76.9438295, "bike_id": "b8affa7970459a86b6351d084a258f48", "fusion_lat": 0.0, "name": "b8affa7970459a86b6351d084a258f48", "is_reserved": 0, "rental_uris": {"android": "https://dc.lft.to/lastmile_qr_scan", "ios": "https://dc.lft.to/lastmile_qr_scan"}, "fusion_lon": 0.0}, {"lat": 38.91691933333333, "is_disabled": 0, "type": "electric_scooter", "lon": -77.008107, "bike_id": "7482fcfd892e9ac5e9028aabd3b846e1", "fusion_lat": 0.0, "name": "7482fcfd892e9ac5e9028aabd3b846e1", "is_reserved": 0, "rental_uris": {"android": "https://dc.lft.to/lastmile_qr_scan", "ios": "https://dc.lft.to/lastmile_qr_scan"}, "fusion_lon": 0.0}, {"lat": 38.930563666666664, "is_disabled": 0, "type": "electric_scooter", "lon": -77.041828, "bike_id": "5d5f8e3bdb061e84a008d0fdd6fd4bb7", "fusion_lat": 0.0, "name": "5d5f8e3bdb061e84a008d0fdd6fd4bb7", "is_reserved": 0, "rental_uris": {"android": "https://dc.lft.to/lastmile_qr_scan", "ios": "https://dc.lft.to/lastmile_qr_scan"}, "fusion_lon": 0.0}, {"lat": 38.909153333333336, "is_disabled": 0, "type": "electric_scooter", "lon": -76.99928183333333, "bike_id": "403202d9c708c38a32cbc450fe1c6fc0", "fusion_lat": 0.0, "name": "403202d9c708c38a32cbc450fe1c6fc0", "is_reserved": 0, "rental_uris": {"android": "https://dc.lft.to/lastmile_qr_scan", "ios": "https://dc.lft.to/lastmile_qr_scan"}, "fusion_lon": 0.0}, {"lat": 38.90622283333333, "is_disabled": 0, "type": "electric_scooter", "lon": -76.98980616666667, "bike_id": "b7cd53f2aea2493c1a9b72a2104855ac", "fusion_lat": 0.0, "name": "b7cd53f2aea2493c1a9b72a2104855ac", "is_reserved": 0, "rental_uris": {"android": "https://dc.lft.to/lastmile_qr_scan", "ios": "https://dc.lft.to/lastmile_qr_scan"}, "fusion_lon": 0.0}, {"lat": 38.930623, "is_disabled": 0, "type": "electric_scooter", "lon": -77.031544, "bike_id": "1209f1ee95c379f2fe8ad7e17f9ab2da", "fusion_lat": 0.0, "name": "1209f1ee95c379f2fe8ad7e17f9ab2da", "is_reserved": 0, "rental_uris": {"android": "https://dc.lft.to/lastmile_qr_scan", "ios": "https://dc.lft.to/lastmile_qr_scan"}, "fusion_lon": 0.0}, {"lat": 38.9340705, "is_disabled": 0, "type": "electric_scooter", "lon": -77.032653, "bike_id": "a991d2d25785ae75207825217b0501be", "fusion_lat": 0.0, "name": "a991d2d25785ae75207825217b0501be", "is_reserved": 0, "rental_uris": {"android": "https://dc.lft.to/lastmile_qr_scan", "ios": "https://dc.lft.to/lastmile_qr_scan"}, "fusion_lon": 0.0}, {"lat": 38.89905983333333, "is_disabled": 0, "type": "electric_scooter", "lon": -76.93353583333334, "bike_id": "f938f80cf2a12fe611a3780da423359e", "fusion_lat": 0.0, "name": "f938f80cf2a12fe611a3780da423359e", "is_reserved": 0, "rental_uris": {"android": "https://dc.lft.to/lastmile_qr_scan", "ios": "https://dc.lft.to/lastmile_qr_scan"}, "fusion_lon": 0.0}, {"lat": 38.85907916666667, "is_disabled": 0, "type": "electric_scooter", "lon": -76.99134666666667, "bike_id": "4d990eef082ce37208f75e13cd36897c", "fusion_lat": 0.0, "name": "4d990eef082ce37208f75e13cd36897c", "is_reserved": 0, "rental_uris": {"android": "https://dc.lft.to/lastmile_qr_scan", "ios": "https://dc.lft.to/lastmile_qr_scan"}, "fusion_lon": 0.0}, {"lat": 38.900628, "is_disabled": 0, "type": "electric_scooter", "lon": -77.02601733333333, "bike_id": "9b02f3eef6ba79f18dc727fa9c418aff", "fusion_lat": 0.0, "name": "9b02f3eef6ba79f18dc727fa9c418aff", "is_reserved": 0, "rental_uris": {"android": "https://dc.lft.to/lastmile_qr_scan", "ios": "https://dc.lft.to/lastmile_qr_scan"}, "fusion_lon": 0.0}, {"lat": 38.91968883333333, "is_disabled": 0, "type": "electric_scooter", "lon": -77.01344766666666, "bike_id": "34c83893d5ee942e81047ba39f680fa8", "fusion_lat": 0.0, "name": "34c83893d5ee942e81047ba39f680fa8", "is_reserved": 0, "rental_uris": {"android": "https://dc.lft.to/lastmile_qr_scan", "ios": "https://dc.lft.to/lastmile_qr_scan"}, "fusion_lon": 0.0}, {"lat": 38.89221516666667, "is_disabled": 0, "type": "electric_scooter", "lon": -77.043635, "bike_id": "edbe1fa22a6f93fb7b7273379bd6c25a", "fusion_lat": 0.0, "name": "edbe1fa22a6f93fb7b7273379bd6c25a", "is_reserved": 0, "rental_uris": {"android": "https://dc.lft.to/lastmile_qr_scan", "ios": "https://dc.lft.to/lastmile_qr_scan"}, "fusion_lon": 0.0}, {"lat": 38.92947216666666, "is_disabled": 0, "type": "electric_scooter", "lon": -77.01886583333334, "bike_id": "e6c0b21c928e668403efcf99991fdf85", "fusion_lat": 0.0, "name": "e6c0b21c928e668403efcf99991fdf85", "is_reserved": 0, "rental_uris": {"android": "https://dc.lft.to/lastmile_qr_scan", "ios": "https://dc.lft.to/lastmile_qr_scan"}, "fusion_lon": 0.0}, {"lat": 38.90707283333333, "is_disabled": 0, "type": "electric_scooter", "lon": -77.03420216666666, "bike_id": "eb82f3b850f469e1e4a1aa6897e30b88", "fusion_lat": 0.0, "name": "eb82f3b850f469e1e4a1aa6897e30b88", "is_reserved": 0, "rental_uris": {"android": "https://dc.lft.to/lastmile_qr_scan", "ios": "https://dc.lft.to/lastmile_qr_scan"}, "fusion_lon": 0.0}, {"lat": 38.903792833333334, "is_disabled": 0, "type": "electric_scooter", "lon": -77.05392083333334, "bike_id": "6269ee0666e922a9e444f8552430521b", "fusion_lat": 0.0, "name": "6269ee0666e922a9e444f8552430521b", "is_reserved": 0, "rental_uris": {"android": "https://dc.lft.to/lastmile_qr_scan", "ios": "https://dc.lft.to/lastmile_qr_scan"}, "fusion_lon": 0.0}, {"lat": 38.90967933333334, "is_disabled": 0, "type": "electric_scooter", "lon": -77.04777683333333, "bike_id": "f300f6fba26e749689bf8939915473cb", "fusion_lat": 0.0, "name": "f300f6fba26e749689bf8939915473cb", "is_reserved": 0, "rental_uris": {"android": "https://dc.lft.to/lastmile_qr_scan", "ios": "https://dc.lft.to/lastmile_qr_scan"}, "fusion_lon": 0.0}, {"lat": 38.91753966666667, "is_disabled": 0, "type": "electric_scooter", "lon": -77.03662866666667, "bike_id": "363618466ec60f904b0647cc09774096", "fusion_lat": 0.0, "name": "363618466ec60f904b0647cc09774096", "is_reserved": 0, "rental_uris": {"android": "https://dc.lft.to/lastmile_qr_scan", "ios": "https://dc.lft.to/lastmile_qr_scan"}, "fusion_lon": 0.0}, {"lat": 38.902569, "is_disabled": 0, "type": "electric_scooter", "lon": -77.03194683333334, "bike_id": "9df039c598acde76b42d13a3fab090a4", "fusion_lat": 0.0, "name": "9df039c598acde76b42d13a3fab090a4", "is_reserved": 0, "rental_uris": {"android": "https://dc.lft.to/lastmile_qr_scan", "ios": "https://dc.lft.to/lastmile_qr_scan"}, "fusion_lon": 0.0}, {"lat": 39.05200766666667, "is_disabled": 0, "type": "electric_bike", "lon": -77.1091805, "bike_id": "53740a88a93e951cc897cbd7df538b5d", "fusion_lat": 0.0, "name": "53740a88a93e951cc897cbd7df538b5d", "is_reserved": 0, "rental_uris": {"android": "https://dc.lft.to/lastmile_qr_scan", "ios": "https://dc.lft.to/lastmile_qr_scan"}, "fusion_lon": 0.0}, {"lat": 38.90912433333333, "is_disabled": 0, "type": "electric_scooter", "lon": -77.03653366666667, "bike_id": "abcd2cd3c72ec8d92de570220170cfdb", "fusion_lat": 0.0, "name": "abcd2cd3c72ec8d92de570220170cfdb", "is_reserved": 0, "rental_uris": {"android": "https://dc.lft.to/lastmile_qr_scan", "ios": "https://dc.lft.to/lastmile_qr_scan"}, "fusion_lon": 0.0}, {"lat": 38.86650016666667, "is_disabled": 0, "type": "electric_scooter", "lon": -76.98088116666666, "bike_id": "da21c9ad5a6d7c9251d564045574de6f", "fusion_lat": 0.0, "name": "da21c9ad5a6d7c9251d564045574de6f", "is_reserved": 0, "rental_uris": {"android": "https://dc.lft.to/lastmile_qr_scan", "ios": "https://dc.lft.to/lastmile_qr_scan"}, "fusion_lon": 0.0}, {"lat": 38.905613, "is_disabled": 0, "type": "electric_scooter", "lon": -77.027958, "bike_id": "39d46d7b61a660353e982957f6e24bc8", "fusion_lat": 0.0, "name": "39d46d7b61a660353e982957f6e24bc8", "is_reserved": 0, "rental_uris": {"android": "https://dc.lft.to/lastmile_qr_scan", "ios": "https://dc.lft.to/lastmile_qr_scan"}, "fusion_lon": 0.0}, {"lat": 38.9245765, "is_disabled": 0, "type": "electric_bike", "lon": -76.97559433333333, "bike_id": "440e38af204051d530b46c8602eac0b8", "fusion_lat": 0.0, "name": "440e38af204051d530b46c8602eac0b8", "is_reserved": 0, "rental_uris": {"android": "https://dc.lft.to/lastmile_qr_scan", "ios": "https://dc.lft.to/lastmile_qr_scan"}, "fusion_lon": 0.0}, {"lat": 38.8724065, "is_disabled": 0, "type": "electric_bike", "lon": -77.01180516666666, "bike_id": "cd7876f19469c084364f0bf6305d934e", "fusion_lat": 0.0, "name": "cd7876f19469c084364f0bf6305d934e", "is_reserved": 0, "rental_uris": {"android": "https://dc.lft.to/lastmile_qr_scan", "ios": "https://dc.lft.to/lastmile_qr_scan"}, "fusion_lon": 0.0}, {"lat": 38.8616775, "is_disabled": 0, "type": "electric_bike", "lon": -77.13144783333334, "bike_id": "e4103e80fca836ced3bfcacb92642da9", "fusion_lat": 0.0, "name": "e4103e80fca836ced3bfcacb92642da9", "is_reserved": 0, "rental_uris": {"android": "https://dc.lft.to/lastmile_qr_scan", "ios": "https://dc.lft.to/lastmile_qr_scan"}, "fusion_lon": 0.0}, {"lat": 38.89699183333333, "is_disabled": 0, "type": "electric_scooter", "lon": -77.02418316666666, "bike_id": "b429a66437c11b68059bf0a2cf8e9194", "fusion_lat": 0.0, "name": "b429a66437c11b68059bf0a2cf8e9194", "is_reserved": 0, "rental_uris": {"android": "https://dc.lft.to/lastmile_qr_scan", "ios": "https://dc.lft.to/lastmile_qr_scan"}, "fusion_lon": 0.0}, {"lat": 38.90867033333333, "is_disabled": 0, "type": "electric_scooter", "lon": -77.02340466666666, "bike_id": "4a3d40ef0cfb498cb0360f536a7b8cff", "fusion_lat": 0.0, "name": "4a3d40ef0cfb498cb0360f536a7b8cff", "is_reserved": 0, "rental_uris": {"android": "https://dc.lft.to/lastmile_qr_scan", "ios": "https://dc.lft.to/lastmile_qr_scan"}, "fusion_lon": 0.0}, {"lat": 38.90004783333333, "is_disabled": 0, "type": "electric_scooter", "lon": -76.9983485, "bike_id": "d57eaa861d87a873d29b31e1c30701ba", "fusion_lat": 0.0, "name": "d57eaa861d87a873d29b31e1c30701ba", "is_reserved": 0, "rental_uris": {"android": "https://dc.lft.to/lastmile_qr_scan", "ios": "https://dc.lft.to/lastmile_qr_scan"}, "fusion_lon": 0.0}, {"lat": 38.89626333333333, "is_disabled": 0, "type": "electric_scooter", "lon": -77.04486516666667, "bike_id": "849d6a0212c5c6feacfd54d3509c9142", "fusion_lat": 0.0, "name": "849d6a0212c5c6feacfd54d3509c9142", "is_reserved": 0, "rental_uris": {"android": "https://dc.lft.to/lastmile_qr_scan", "ios": "https://dc.lft.to/lastmile_qr_scan"}, "fusion_lon": 0.0}, {"lat": 38.92169166666667, "is_disabled": 0, "type": "electric_scooter", "lon": -77.03375566666666, "bike_id": "fab689f1095d327f58a3025d22b45025", "fusion_lat": 0.0, "name": "fab689f1095d327f58a3025d22b45025", "is_reserved": 0, "rental_uris": {"android": "https://dc.lft.to/lastmile_qr_scan", "ios": "https://dc.lft.to/lastmile_qr_scan"}, "fusion_lon": 0.0}, {"lat": 38.900884, "is_disabled": 0, "type": "electric_scooter", "lon": -77.003419, "bike_id": "568b999852fdc1ce90478eed09b24dc3", "fusion_lat": 0.0, "name": "568b999852fdc1ce90478eed09b24dc3", "is_reserved": 0, "rental_uris": {"android": "https://dc.lft.to/lastmile_qr_scan", "ios": "https://dc.lft.to/lastmile_qr_scan"}, "fusion_lon": 0.0}, {"lat": 38.91374183333333, "is_disabled": 0, "type": "electric_scooter", "lon": -77.00445316666666, "bike_id": "9ff79a989fcfd2278e9f3a29f40ae5e7", "fusion_lat": 0.0, "name": "9ff79a989fcfd2278e9f3a29f40ae5e7", "is_reserved": 0, "rental_uris": {"android": "https://dc.lft.to/lastmile_qr_scan", "ios": "https://dc.lft.to/lastmile_qr_scan"}, "fusion_lon": 0.0}, {"lat": 38.95097066666666, "is_disabled": 0, "type": "electric_scooter", "lon": -77.02337333333334, "bike_id": "f41b4158f0c7c61653148fefaa0f8c8f", "fusion_lat": 0.0, "name": "f41b4158f0c7c61653148fefaa0f8c8f", "is_reserved": 0, "rental_uris": {"android": "https://dc.lft.to/lastmile_qr_scan", "ios": "https://dc.lft.to/lastmile_qr_scan"}, "fusion_lon": 0.0}, {"lat": 38.903141166666664, "is_disabled": 0, "type": "electric_scooter", "lon": -76.97793266666666, "bike_id": "5692c1696fd57c21d28486c197c807b6", "fusion_lat": 0.0, "name": "5692c1696fd57c21d28486c197c807b6", "is_reserved": 0, "rental_uris": {"android": "https://dc.lft.to/lastmile_qr_scan", "ios": "https://dc.lft.to/lastmile_qr_scan"}, "fusion_lon": 0.0}, {"lat": 38.910115833333336, "is_disabled": 0, "type": "electric_scooter", "lon": -77.08894466666666, "bike_id": "adf9afca6fb531688828b881cc452b1f", "fusion_lat": 0.0, "name": "adf9afca6fb531688828b881cc452b1f", "is_reserved": 0, "rental_uris": {"android": "https://dc.lft.to/lastmile_qr_scan", "ios": "https://dc.lft.to/lastmile_qr_scan"}, "fusion_lon": 0.0}, {"lat": 38.898150333333334, "is_disabled": 0, "type": "electric_scooter", "lon": -77.03299866666667, "bike_id": "65531b27049d4c60e8eb2f623acb9499", "fusion_lat": 0.0, "name": "65531b27049d4c60e8eb2f623acb9499", "is_reserved": 0, "rental_uris": {"android": "https://dc.lft.to/lastmile_qr_scan", "ios": "https://dc.lft.to/lastmile_qr_scan"}, "fusion_lon": 0.0}, {"lat": 38.88460666666667, "is_disabled": 0, "type": "electric_scooter", "lon": -76.92954616666667, "bike_id": "ac522d182968fe246c2f2d479028e60f", "fusion_lat": 0.0, "name": "ac522d182968fe246c2f2d479028e60f", "is_reserved": 0, "rental_uris": {"android": "https://dc.lft.to/lastmile_qr_scan", "ios": "https://dc.lft.to/lastmile_qr_scan"}, "fusion_lon": 0.0}, {"lat": 38.90791016666667, "is_disabled": 0, "type": "electric_scooter", "lon": -77.0347305, "bike_id": "b0babdecb1685d0c1705495fcd499234", "fusion_lat": 0.0, "name": "b0babdecb1685d0c1705495fcd499234", "is_reserved": 0, "rental_uris": {"android": "https://dc.lft.to/lastmile_qr_scan", "ios": "https://dc.lft.to/lastmile_qr_scan"}, "fusion_lon": 0.0}, {"lat": 38.8871465, "is_disabled": 0, "type": "electric_bike", "lon": -77.13303166666667, "bike_id": "d56b9f78a81995560b864ba46f3ceadf", "fusion_lat": 0.0, "name": "d56b9f78a81995560b864ba46f3ceadf", "is_reserved": 0, "rental_uris": {"android": "https://dc.lft.to/lastmile_qr_scan", "ios": "https://dc.lft.to/lastmile_qr_scan"}, "fusion_lon": 0.0}, {"lat": 38.933763666666664, "is_disabled": 0, "type": "electric_scooter", "lon": -77.03563166666666, "bike_id": "0304ed1cbcb49c1d3cbd70b8769f7b7e", "fusion_lat": 0.0, "name": "0304ed1cbcb49c1d3cbd70b8769f7b7e", "is_reserved": 0, "rental_uris": {"android": "https://dc.lft.to/lastmile_qr_scan", "ios": "https://dc.lft.to/lastmile_qr_scan"}, "fusion_lon": 0.0}, {"lat": 38.957074, "is_disabled": 0, "type": "electric_scooter", "lon": -77.0240255, "bike_id": "c3fb375dc53300fdee3e106307a012d6", "fusion_lat": 0.0, "name": "c3fb375dc53300fdee3e106307a012d6", "is_reserved": 0, "rental_uris": {"android": "https://dc.lft.to/lastmile_qr_scan", "ios": "https://dc.lft.to/lastmile_qr_scan"}, "fusion_lon": 0.0}, {"lat": 38.93431366666667, "is_disabled": 0, "type": "electric_scooter", "lon": -76.965109, "bike_id": "694f25837b5daa1325af7294064dee59", "fusion_lat": 0.0, "name": "694f25837b5daa1325af7294064dee59", "is_reserved": 0, "rental_uris": {"android": "https://dc.lft.to/lastmile_qr_scan", "ios": "https://dc.lft.to/lastmile_qr_scan"}, "fusion_lon": 0.0}, {"lat": 38.99846816666667, "is_disabled": 0, "type": "electric_bike", "lon": -77.02874516666667, "bike_id": "d8668c1878194270949aebc173f01bda", "fusion_lat": 0.0, "name": "d8668c1878194270949aebc173f01bda", "is_reserved": 0, "rental_uris": {"android": "https://dc.lft.to/lastmile_qr_scan", "ios": "https://dc.lft.to/lastmile_qr_scan"}, "fusion_lon": 0.0}, {"lat": 38.885481, "is_disabled": 0, "type": "electric_bike", "lon": -77.11785516666667, "bike_id": "28d96e1fa805e75ad26b1118c452e639", "fusion_lat": 0.0, "name": "28d96e1fa805e75ad26b1118c452e639", "is_reserved": 0, "rental_uris": {"android": "https://dc.lft.to/lastmile_qr_scan", "ios": "https://dc.lft.to/lastmile_qr_scan"}, "fusion_lon": 0.0}, {"lat": 38.85853866666667, "is_disabled": 0, "type": "electric_scooter", "lon": -76.99563566666667, "bike_id": "b476e04841076b3648cc0c19fe39c20e", "fusion_lat": 0.0, "name": "b476e04841076b3648cc0c19fe39c20e", "is_reserved": 0, "rental_uris": {"android": "https://dc.lft.to/lastmile_qr_scan", "ios": "https://dc.lft.to/lastmile_qr_scan"}, "fusion_lon": 0.0}, {"lat": 38.87668266666667, "is_disabled": 0, "type": "electric_scooter", "lon": -77.01760083333333, "bike_id": "b5e2684f1c0df9726c595ff22ebed13f", "fusion_lat": 0.0, "name": "b5e2684f1c0df9726c595ff22ebed13f", "is_reserved": 0, "rental_uris": {"android": "https://dc.lft.to/lastmile_qr_scan", "ios": "https://dc.lft.to/lastmile_qr_scan"}, "fusion_lon": 0.0}, {"lat": 38.9196325, "is_disabled": 0, "type": "electric_scooter", "lon": -77.01441416666667, "bike_id": "3d3793ec881e6956067233f6778c3732", "fusion_lat": 0.0, "name": "3d3793ec881e6956067233f6778c3732", "is_reserved": 0, "rental_uris": {"android": "https://dc.lft.to/lastmile_qr_scan", "ios": "https://dc.lft.to/lastmile_qr_scan"}, "fusion_lon": 0.0}, {"lat": 38.9152175, "is_disabled": 0, "type": "electric_scooter", "lon": -77.03844566666666, "bike_id": "bd02c1394e44bdb757142dbd30b2e292", "fusion_lat": 0.0, "name": "bd02c1394e44bdb757142dbd30b2e292", "is_reserved": 0, "rental_uris": {"android": "https://dc.lft.to/lastmile_qr_scan", "ios": "https://dc.lft.to/lastmile_qr_scan"}, "fusion_lon": 0.0}, {"lat": 38.9219895, "is_disabled": 0, "type": "electric_scooter", "lon": -77.04253716666666, "bike_id": "06463a9c4b4eb6867d0d958d3b1f49ec", "fusion_lat": 0.0, "name": "06463a9c4b4eb6867d0d958d3b1f49ec", "is_reserved": 0, "rental_uris": {"android": "https://dc.lft.to/lastmile_qr_scan", "ios": "https://dc.lft.to/lastmile_qr_scan"}, "fusion_lon": 0.0}, {"lat": 38.9002045, "is_disabled": 0, "type": "electric_scooter", "lon": -76.99670283333333, "bike_id": "90d8944dde36fc0d1000b7bc7f928774", "fusion_lat": 0.0, "name": "90d8944dde36fc0d1000b7bc7f928774", "is_reserved": 0, "rental_uris": {"android": "https://dc.lft.to/lastmile_qr_scan", "ios": "https://dc.lft.to/lastmile_qr_scan"}, "fusion_lon": 0.0}, {"lat": 38.924016, "is_disabled": 0, "type": "electric_scooter", "lon": -77.025463, "bike_id": "ab12756c41712c40588e7c53f9df83e5", "fusion_lat": 0.0, "name": "ab12756c41712c40588e7c53f9df83e5", "is_reserved": 0, "rental_uris": {"android": "https://dc.lft.to/lastmile_qr_scan", "ios": "https://dc.lft.to/lastmile_qr_scan"}, "fusion_lon": 0.0}, {"lat": 38.93556016666667, "is_disabled": 0, "type": "electric_scooter", "lon": -77.0587585, "bike_id": "31be39ccf62a5d723e0c8b140c2936ca", "fusion_lat": 0.0, "name": "31be39ccf62a5d723e0c8b140c2936ca", "is_reserved": 0, "rental_uris": {"android": "https://dc.lft.to/lastmile_qr_scan", "ios": "https://dc.lft.to/lastmile_qr_scan"}, "fusion_lon": 0.0}, {"lat": 38.92206083333333, "is_disabled": 0, "type": "electric_scooter", "lon": -77.040202, "bike_id": "d67f28518b6d47a3a1411499e9cd9104", "fusion_lat": 0.0, "name": "d67f28518b6d47a3a1411499e9cd9104", "is_reserved": 0, "rental_uris": {"android": "https://dc.lft.to/lastmile_qr_scan", "ios": "https://dc.lft.to/lastmile_qr_scan"}, "fusion_lon": 0.0}, {"lat": 38.867089, "is_disabled": 0, "type": "electric_scooter", "lon": -76.987311, "bike_id": "3b766729fdb3f4277076e9e0c2090df0", "fusion_lat": 0.0, "name": "3b766729fdb3f4277076e9e0c2090df0", "is_reserved": 0, "rental_uris": {"android": "https://dc.lft.to/lastmile_qr_scan", "ios": "https://dc.lft.to/lastmile_qr_scan"}, "fusion_lon": 0.0}, {"lat": 38.8959965, "is_disabled": 0, "type": "electric_scooter", "lon": -77.012252, "bike_id": "6db7c7481521baf7d7fb1eaf40aa4859", "fusion_lat": 0.0, "name": "6db7c7481521baf7d7fb1eaf40aa4859", "is_reserved": 0, "rental_uris": {"android": "https://dc.lft.to/lastmile_qr_scan", "ios": "https://dc.lft.to/lastmile_qr_scan"}, "fusion_lon": 0.0}, {"lat": 38.90865983333333, "is_disabled": 0, "type": "electric_scooter", "lon": -77.046609, "bike_id": "81021c207e970fadc990666278e60c77", "fusion_lat": 0.0, "name": "81021c207e970fadc990666278e60c77", "is_reserved": 0, "rental_uris": {"android": "https://dc.lft.to/lastmile_qr_scan", "ios": "https://dc.lft.to/lastmile_qr_scan"}, "fusion_lon": 0.0}, {"lat": 38.91663033333333, "is_disabled": 0, "type": "electric_bike", "lon": -77.04724933333334, "bike_id": "73d658ede8c14c86bccb310b79535f1e", "fusion_lat": 0.0, "name": "73d658ede8c14c86bccb310b79535f1e", "is_reserved": 0, "rental_uris": {"android": "https://dc.lft.to/lastmile_qr_scan", "ios": "https://dc.lft.to/lastmile_qr_scan"}, "fusion_lon": 0.0}, {"lat": 38.90024833333333, "is_disabled": 0, "type": "electric_scooter", "lon": -77.0402235, "bike_id": "ab01343ba17966f044017276abefb2f9", "fusion_lat": 0.0, "name": "ab01343ba17966f044017276abefb2f9", "is_reserved": 0, "rental_uris": {"android": "https://dc.lft.to/lastmile_qr_scan", "ios": "https://dc.lft.to/lastmile_qr_scan"}, "fusion_lon": 0.0}, {"lat": 39.05813783333333, "is_disabled": 0, "type": "electric_bike", "lon": -77.12624683333334, "bike_id": "61cc902bcfcdbdb931c51c82619be4a0", "fusion_lat": 0.0, "name": "61cc902bcfcdbdb931c51c82619be4a0", "is_reserved": 0, "rental_uris": {"android": "https://dc.lft.to/lastmile_qr_scan", "ios": "https://dc.lft.to/lastmile_qr_scan"}, "fusion_lon": 0.0}, {"lat": 38.84031566666667, "is_disabled": 0, "type": "electric_bike", "lon": -76.97586316666667, "bike_id": "1fcf926b8e199adc3f2e8e7b99c2f8d2", "fusion_lat": 0.0, "name": "1fcf926b8e199adc3f2e8e7b99c2f8d2", "is_reserved": 0, "rental_uris": {"android": "https://dc.lft.to/lastmile_qr_scan", "ios": "https://dc.lft.to/lastmile_qr_scan"}, "fusion_lon": 0.0}, {"lat": 38.90241316666667, "is_disabled": 0, "type": "electric_scooter", "lon": -77.02908633333334, "bike_id": "66afc67197dfab6033aa7243658bddd8", "fusion_lat": 0.0, "name": "66afc67197dfab6033aa7243658bddd8", "is_reserved": 0, "rental_uris": {"android": "https://dc.lft.to/lastmile_qr_scan", "ios": "https://dc.lft.to/lastmile_qr_scan"}, "fusion_lon": 0.0}, {"lat": 38.89190383333333, "is_disabled": 0, "type": "electric_scooter", "lon": -76.99624733333333, "bike_id": "f8066212aec8333bcd3db81f8b966399", "fusion_lat": 0.0, "name": "f8066212aec8333bcd3db81f8b966399", "is_reserved": 0, "rental_uris": {"android": "https://dc.lft.to/lastmile_qr_scan", "ios": "https://dc.lft.to/lastmile_qr_scan"}, "fusion_lon": 0.0}, {"lat": 38.92541033333333, "is_disabled": 0, "type": "electric_scooter", "lon": -77.034505, "bike_id": "8eb5716260d1ca890897c5312d57eb47", "fusion_lat": 0.0, "name": "8eb5716260d1ca890897c5312d57eb47", "is_reserved": 0, "rental_uris": {"android": "https://dc.lft.to/lastmile_qr_scan", "ios": "https://dc.lft.to/lastmile_qr_scan"}, "fusion_lon": 0.0}, {"lat": 38.9026765, "is_disabled": 0, "type": "electric_scooter", "lon": -77.00327383333334, "bike_id": "d5b69c8275fdc1546f76603b33c6de53", "fusion_lat": 0.0, "name": "d5b69c8275fdc1546f76603b33c6de53", "is_reserved": 0, "rental_uris": {"android": "https://dc.lft.to/lastmile_qr_scan", "ios": "https://dc.lft.to/lastmile_qr_scan"}, "fusion_lon": 0.0}, {"lat": 38.89617066666667, "is_disabled": 0, "type": "electric_scooter", "lon": -76.99297166666666, "bike_id": "2d18f20e981ff296c3246d5c44ac2817", "fusion_lat": 0.0, "name": "2d18f20e981ff296c3246d5c44ac2817", "is_reserved": 0, "rental_uris": {"android": "https://dc.lft.to/lastmile_qr_scan", "ios": "https://dc.lft.to/lastmile_qr_scan"}, "fusion_lon": 0.0}, {"lat": 38.93531816666667, "is_disabled": 0, "type": "electric_scooter", "lon": -77.03400983333333, "bike_id": "4c20f422f159cc6059ba18bc6ee4d884", "fusion_lat": 0.0, "name": "4c20f422f159cc6059ba18bc6ee4d884", "is_reserved": 0, "rental_uris": {"android": "https://dc.lft.to/lastmile_qr_scan", "ios": "https://dc.lft.to/lastmile_qr_scan"}, "fusion_lon": 0.0}, {"lat": 38.86109916666667, "is_disabled": 0, "type": "electric_scooter", "lon": -76.98378866666667, "bike_id": "400042db2678c0f7b7f6069a0e0da051", "fusion_lat": 0.0, "name": "400042db2678c0f7b7f6069a0e0da051", "is_reserved": 0, "rental_uris": {"android": "https://dc.lft.to/lastmile_qr_scan", "ios": "https://dc.lft.to/lastmile_qr_scan"}, "fusion_lon": 0.0}, {"lat": 38.912137333333334, "is_disabled": 0, "type": "electric_scooter", "lon": -77.03844783333334, "bike_id": "c2a671a1aa41e132024518d527d1ce6e", "fusion_lat": 0.0, "name": "c2a671a1aa41e132024518d527d1ce6e", "is_reserved": 0, "rental_uris": {"android": "https://dc.lft.to/lastmile_qr_scan", "ios": "https://dc.lft.to/lastmile_qr_scan"}, "fusion_lon": 0.0}, {"lat": 38.903964333333334, "is_disabled": 0, "type": "electric_scooter", "lon": -77.043359, "bike_id": "7196a1ae69811d0849aaeca7260501bd", "fusion_lat": 0.0, "name": "7196a1ae69811d0849aaeca7260501bd", "is_reserved": 0, "rental_uris": {"android": "https://dc.lft.to/lastmile_qr_scan", "ios": "https://dc.lft.to/lastmile_qr_scan"}, "fusion_lon": 0.0}, {"lat": 38.899472, "is_disabled": 0, "type": "electric_scooter", "lon": -77.02106666666667, "bike_id": "4c01195263fdce9cfde0f9aaba4b2143", "fusion_lat": 0.0, "name": "4c01195263fdce9cfde0f9aaba4b2143", "is_reserved": 0, "rental_uris": {"android": "https://dc.lft.to/lastmile_qr_scan", "ios": "https://dc.lft.to/lastmile_qr_scan"}, "fusion_lon": 0.0}, {"lat": 38.865274166666666, "is_disabled": 0, "type": "electric_scooter", "lon": -76.9903105, "bike_id": "163ec0acc856999f59c7390d482372ca", "fusion_lat": 0.0, "name": "163ec0acc856999f59c7390d482372ca", "is_reserved": 0, "rental_uris": {"android": "https://dc.lft.to/lastmile_qr_scan", "ios": "https://dc.lft.to/lastmile_qr_scan"}, "fusion_lon": 0.0}, {"lat": 38.9140245, "is_disabled": 0, "type": "electric_scooter", "lon": -77.01804933333334, "bike_id": "79463a1b3c1c49c0a97f8f938d3d52b6", "fusion_lat": 0.0, "name": "79463a1b3c1c49c0a97f8f938d3d52b6", "is_reserved": 0, "rental_uris": {"android": "https://dc.lft.to/lastmile_qr_scan", "ios": "https://dc.lft.to/lastmile_qr_scan"}, "fusion_lon": 0.0}, {"lat": 38.90972433333334, "is_disabled": 0, "type": "electric_scooter", "lon": -77.04796616666667, "bike_id": "1b5785967df5ff30a4c623674d819ac2", "fusion_lat": 0.0, "name": "1b5785967df5ff30a4c623674d819ac2", "is_reserved": 0, "rental_uris": {"android": "https://dc.lft.to/lastmile_qr_scan", "ios": "https://dc.lft.to/lastmile_qr_scan"}, "fusion_lon": 0.0}, {"lat": 38.87677083333333, "is_disabled": 0, "type": "electric_scooter", "lon": -77.017892, "bike_id": "770d53ed24f7b53766506c7653ecb413", "fusion_lat": 0.0, "name": "770d53ed24f7b53766506c7653ecb413", "is_reserved": 0, "rental_uris": {"android": "https://dc.lft.to/lastmile_qr_scan", "ios": "https://dc.lft.to/lastmile_qr_scan"}, "fusion_lon": 0.0}, {"lat": 38.86375016666667, "is_disabled": 0, "type": "electric_scooter", "lon": -76.99062516666666, "bike_id": "e9e5eb8eb233d0295d8d697c5872b23b", "fusion_lat": 0.0, "name": "e9e5eb8eb233d0295d8d697c5872b23b", "is_reserved": 0, "rental_uris": {"android": "https://dc.lft.to/lastmile_qr_scan", "ios": "https://dc.lft.to/lastmile_qr_scan"}, "fusion_lon": 0.0}, {"lat": 38.9190925, "is_disabled": 0, "type": "electric_scooter", "lon": -77.04627016666667, "bike_id": "865d8047c6e0cffcf499a484d0e19970", "fusion_lat": 0.0, "name": "865d8047c6e0cffcf499a484d0e19970", "is_reserved": 0, "rental_uris": {"android": "https://dc.lft.to/lastmile_qr_scan", "ios": "https://dc.lft.to/lastmile_qr_scan"}, "fusion_lon": 0.0}, {"lat": 38.911931333333335, "is_disabled": 0, "type": "electric_scooter", "lon": -77.00476216666667, "bike_id": "d558bb14db51174b23adef023e4ff153", "fusion_lat": 0.0, "name": "d558bb14db51174b23adef023e4ff153", "is_reserved": 0, "rental_uris": {"android": "https://dc.lft.to/lastmile_qr_scan", "ios": "https://dc.lft.to/lastmile_qr_scan"}, "fusion_lon": 0.0}, {"lat": 38.861651, "is_disabled": 0, "type": "electric_bike", "lon": -76.95065233333334, "bike_id": "4001db9c7d0523899ab566f56c769da3", "fusion_lat": 0.0, "name": "4001db9c7d0523899ab566f56c769da3", "is_reserved": 0, "rental_uris": {"android": "https://dc.lft.to/lastmile_qr_scan", "ios": "https://dc.lft.to/lastmile_qr_scan"}, "fusion_lon": 0.0}, {"lat": 38.90533883333333, "is_disabled": 0, "type": "electric_scooter", "lon": -77.05931216666667, "bike_id": "efc2734a1979265b6ba4bd223e16dc5b", "fusion_lat": 0.0, "name": "efc2734a1979265b6ba4bd223e16dc5b", "is_reserved": 0, "rental_uris": {"android": "https://dc.lft.to/lastmile_qr_scan", "ios": "https://dc.lft.to/lastmile_qr_scan"}, "fusion_lon": 0.0}, {"lat": 38.896849, "is_disabled": 0, "type": "electric_scooter", "lon": -77.02416683333334, "bike_id": "9ee0a875ddd9bbca911a9830e781ad3a", "fusion_lat": 0.0, "name": "9ee0a875ddd9bbca911a9830e781ad3a", "is_reserved": 0, "rental_uris": {"android": "https://dc.lft.to/lastmile_qr_scan", "ios": "https://dc.lft.to/lastmile_qr_scan"}, "fusion_lon": 0.0}, {"lat": 38.892235, "is_disabled": 0, "type": "electric_scooter", "lon": -77.0486635, "bike_id": "ba4d44cd27a0e9ba13cb949512834172", "fusion_lat": 0.0, "name": "ba4d44cd27a0e9ba13cb949512834172", "is_reserved": 0, "rental_uris": {"android": "https://dc.lft.to/lastmile_qr_scan", "ios": "https://dc.lft.to/lastmile_qr_scan"}, "fusion_lon": 0.0}, {"lat": 38.88762966666667, "is_disabled": 0, "type": "electric_scooter", "lon": -76.9559995, "bike_id": "c7f733921cf7f21084d8f04a3a11d62a", "fusion_lat": 0.0, "name": "c7f733921cf7f21084d8f04a3a11d62a", "is_reserved": 0, "rental_uris": {"android": "https://dc.lft.to/lastmile_qr_scan", "ios": "https://dc.lft.to/lastmile_qr_scan"}, "fusion_lon": 0.0}, {"lat": 38.900013333333334, "is_disabled": 0, "type": "electric_scooter", "lon": -77.02155266666666, "bike_id": "1d287a5d57e8bb50e1c19274c1bed0ec", "fusion_lat": 0.0, "name": "1d287a5d57e8bb50e1c19274c1bed0ec", "is_reserved": 0, "rental_uris": {"android": "https://dc.lft.to/lastmile_qr_scan", "ios": "https://dc.lft.to/lastmile_qr_scan"}, "fusion_lon": 0.0}, {"lat": 38.89225583333333, "is_disabled": 0, "type": "electric_scooter", "lon": -77.0486185, "bike_id": "b9226173013bd03fc7d48b83558e51cc", "fusion_lat": 0.0, "name": "b9226173013bd03fc7d48b83558e51cc", "is_reserved": 0, "rental_uris": {"android": "https://dc.lft.to/lastmile_qr_scan", "ios": "https://dc.lft.to/lastmile_qr_scan"}, "fusion_lon": 0.0}, {"lat": 38.90497033333333, "is_disabled": 0, "type": "electric_scooter", "lon": -77.001251, "bike_id": "e2967656448b5072d2d60ce9782dd2f1", "fusion_lat": 0.0, "name": "e2967656448b5072d2d60ce9782dd2f1", "is_reserved": 0, "rental_uris": {"android": "https://dc.lft.to/lastmile_qr_scan", "ios": "https://dc.lft.to/lastmile_qr_scan"}, "fusion_lon": 0.0}, {"lat": 38.917689833333334, "is_disabled": 0, "type": "electric_scooter", "lon": -77.01496066666667, "bike_id": "653f356375df8a67f37d880325a7b793", "fusion_lat": 0.0, "name": "653f356375df8a67f37d880325a7b793", "is_reserved": 0, "rental_uris": {"android": "https://dc.lft.to/lastmile_qr_scan", "ios": "https://dc.lft.to/lastmile_qr_scan"}, "fusion_lon": 0.0}, {"lat": 38.91592966666666, "is_disabled": 0, "type": "electric_scooter", "lon": -77.02133733333334, "bike_id": "8cecb23c1436493ea707b4c9fafa0ffd", "fusion_lat": 0.0, "name": "8cecb23c1436493ea707b4c9fafa0ffd", "is_reserved": 0, "rental_uris": {"android": "https://dc.lft.to/lastmile_qr_scan", "ios": "https://dc.lft.to/lastmile_qr_scan"}, "fusion_lon": 0.0}, {"lat": 38.9205895, "is_disabled": 0, "type": "electric_scooter", "lon": -77.02358216666667, "bike_id": "c7c95a754f79866fd13e0bad08c9f545", "fusion_lat": 0.0, "name": "c7c95a754f79866fd13e0bad08c9f545", "is_reserved": 0, "rental_uris": {"android": "https://dc.lft.to/lastmile_qr_scan", "ios": "https://dc.lft.to/lastmile_qr_scan"}, "fusion_lon": 0.0}, {"lat": 38.902632833333335, "is_disabled": 0, "type": "electric_scooter", "lon": -77.017316, "bike_id": "a3a11dcc8663186ba15200e0918ec0c1", "fusion_lat": 0.0, "name": "a3a11dcc8663186ba15200e0918ec0c1", "is_reserved": 0, "rental_uris": {"android": "https://dc.lft.to/lastmile_qr_scan", "ios": "https://dc.lft.to/lastmile_qr_scan"}, "fusion_lon": 0.0}, {"lat": 38.92147833333333, "is_disabled": 0, "type": "electric_scooter", "lon": -76.96919516666667, "bike_id": "37c51bfbeaa2222a4e8018aef05f002f", "fusion_lat": 0.0, "name": "37c51bfbeaa2222a4e8018aef05f002f", "is_reserved": 0, "rental_uris": {"android": "https://dc.lft.to/lastmile_qr_scan", "ios": "https://dc.lft.to/lastmile_qr_scan"}, "fusion_lon": 0.0}, {"lat": 38.92590833333333, "is_disabled": 0, "type": "electric_scooter", "lon": -77.03225833333333, "bike_id": "f14e69d13b876c28354d419ab8a5ef87", "fusion_lat": 0.0, "name": "f14e69d13b876c28354d419ab8a5ef87", "is_reserved": 0, "rental_uris": {"android": "https://dc.lft.to/lastmile_qr_scan", "ios": "https://dc.lft.to/lastmile_qr_scan"}, "fusion_lon": 0.0}, {"lat": 38.8465625, "is_disabled": 0, "type": "electric_bike", "lon": -76.97932883333333, "bike_id": "f414f7273afba76efaf6119cf958cb3b", "fusion_lat": 0.0, "name": "f414f7273afba76efaf6119cf958cb3b", "is_reserved": 0, "rental_uris": {"android": "https://dc.lft.to/lastmile_qr_scan", "ios": "https://dc.lft.to/lastmile_qr_scan"}, "fusion_lon": 0.0}, {"lat": 38.869118666666665, "is_disabled": 0, "type": "electric_bike", "lon": -77.13173683333333, "bike_id": "d3c7ccfe8bc90bc775cefc464e0de11e", "fusion_lat": 0.0, "name": "d3c7ccfe8bc90bc775cefc464e0de11e", "is_reserved": 0, "rental_uris": {"android": "https://dc.lft.to/lastmile_qr_scan", "ios": "https://dc.lft.to/lastmile_qr_scan"}, "fusion_lon": 0.0}, {"lat": 38.905466833333335, "is_disabled": 0, "type": "electric_scooter", "lon": -77.03380433333334, "bike_id": "44f3b8c159fae9256d49255cfd210516", "fusion_lat": 0.0, "name": "44f3b8c159fae9256d49255cfd210516", "is_reserved": 0, "rental_uris": {"android": "https://dc.lft.to/lastmile_qr_scan", "ios": "https://dc.lft.to/lastmile_qr_scan"}, "fusion_lon": 0.0}, {"lat": 38.894880666666666, "is_disabled": 0, "type": "electric_scooter", "lon": -77.02089833333334, "bike_id": "97918df6fe1b9e7e48f46a2e1f13bffe", "fusion_lat": 0.0, "name": "97918df6fe1b9e7e48f46a2e1f13bffe", "is_reserved": 0, "rental_uris": {"android": "https://dc.lft.to/lastmile_qr_scan", "ios": "https://dc.lft.to/lastmile_qr_scan"}, "fusion_lon": 0.0}, {"lat": 38.9428845, "is_disabled": 0, "type": "electric_scooter", "lon": -77.0772005, "bike_id": "26de3b58e48a1aebc3f42d69ee0ff93e", "fusion_lat": 0.0, "name": "26de3b58e48a1aebc3f42d69ee0ff93e", "is_reserved": 0, "rental_uris": {"android": "https://dc.lft.to/lastmile_qr_scan", "ios": "https://dc.lft.to/lastmile_qr_scan"}, "fusion_lon": 0.0}, {"lat": 38.91994783333333, "is_disabled": 0, "type": "electric_scooter", "lon": -77.03215516666667, "bike_id": "05388800a3ac4be118b1e499543f04a3", "fusion_lat": 0.0, "name": "05388800a3ac4be118b1e499543f04a3", "is_reserved": 0, "rental_uris": {"android": "https://dc.lft.to/lastmile_qr_scan", "ios": "https://dc.lft.to/lastmile_qr_scan"}, "fusion_lon": 0.0}, {"lat": 38.91047716666667, "is_disabled": 0, "type": "electric_scooter", "lon": -77.01509083333333, "bike_id": "d49e090c8bea734b53fe86cbcdea34f5", "fusion_lat": 0.0, "name": "d49e090c8bea734b53fe86cbcdea34f5", "is_reserved": 0, "rental_uris": {"android": "https://dc.lft.to/lastmile_qr_scan", "ios": "https://dc.lft.to/lastmile_qr_scan"}, "fusion_lon": 0.0}, {"lat": 38.9328305, "is_disabled": 0, "type": "electric_scooter", "lon": -77.03976033333333, "bike_id": "5371ef45485b32c943f52e0e01dbef93", "fusion_lat": 0.0, "name": "5371ef45485b32c943f52e0e01dbef93", "is_reserved": 0, "rental_uris": {"android": "https://dc.lft.to/lastmile_qr_scan", "ios": "https://dc.lft.to/lastmile_qr_scan"}, "fusion_lon": 0.0}, {"lat": 38.92479733333333, "is_disabled": 0, "type": "electric_scooter", "lon": -77.05207583333333, "bike_id": "ebc4a25973ffe08c4dd4523d0f7e9a85", "fusion_lat": 0.0, "name": "ebc4a25973ffe08c4dd4523d0f7e9a85", "is_reserved": 0, "rental_uris": {"android": "https://dc.lft.to/lastmile_qr_scan", "ios": "https://dc.lft.to/lastmile_qr_scan"}, "fusion_lon": 0.0}, {"lat": 38.93171566666667, "is_disabled": 0, "type": "electric_scooter", "lon": -77.02813683333333, "bike_id": "277e359eb409d2e59044ade02218d637", "fusion_lat": 0.0, "name": "277e359eb409d2e59044ade02218d637", "is_reserved": 0, "rental_uris": {"android": "https://dc.lft.to/lastmile_qr_scan", "ios": "https://dc.lft.to/lastmile_qr_scan"}, "fusion_lon": 0.0}, {"lat": 38.89490816666667, "is_disabled": 0, "type": "electric_scooter", "lon": -77.0231275, "bike_id": "e20e978f1c0caf97d3bd4caba08e870c", "fusion_lat": 0.0, "name": "e20e978f1c0caf97d3bd4caba08e870c", "is_reserved": 0, "rental_uris": {"android": "https://dc.lft.to/lastmile_qr_scan", "ios": "https://dc.lft.to/lastmile_qr_scan"}, "fusion_lon": 0.0}, {"lat": 38.90284666666667, "is_disabled": 0, "type": "electric_scooter", "lon": -77.02612333333333, "bike_id": "0c311df2cafc96a8d7fa6f3c0aa7d85a", "fusion_lat": 0.0, "name": "0c311df2cafc96a8d7fa6f3c0aa7d85a", "is_reserved": 0, "rental_uris": {"android": "https://dc.lft.to/lastmile_qr_scan", "ios": "https://dc.lft.to/lastmile_qr_scan"}, "fusion_lon": 0.0}, {"lat": 38.905534833333334, "is_disabled": 0, "type": "electric_scooter", "lon": -77.03401283333334, "bike_id": "f4a7a438e9e2ec1a420bbcdd138fc003", "fusion_lat": 0.0, "name": "f4a7a438e9e2ec1a420bbcdd138fc003", "is_reserved": 0, "rental_uris": {"android": "https://dc.lft.to/lastmile_qr_scan", "ios": "https://dc.lft.to/lastmile_qr_scan"}, "fusion_lon": 0.0}, {"lat": 38.893546, "is_disabled": 0, "type": "electric_scooter", "lon": -76.9498205, "bike_id": "1e6f807d6a817d6a8cc56de23c2c1c7c", "fusion_lat": 0.0, "name": "1e6f807d6a817d6a8cc56de23c2c1c7c", "is_reserved": 0, "rental_uris": {"android": "https://dc.lft.to/lastmile_qr_scan", "ios": "https://dc.lft.to/lastmile_qr_scan"}, "fusion_lon": 0.0}, {"lat": 38.941746, "is_disabled": 0, "type": "electric_scooter", "lon": -77.02349733333334, "bike_id": "76a5ebbd00c4aa89034509284139262b", "fusion_lat": 0.0, "name": "76a5ebbd00c4aa89034509284139262b", "is_reserved": 0, "rental_uris": {"android": "https://dc.lft.to/lastmile_qr_scan", "ios": "https://dc.lft.to/lastmile_qr_scan"}, "fusion_lon": 0.0}, {"lat": 38.8610635, "is_disabled": 0, "type": "electric_scooter", "lon": -76.98358583333334, "bike_id": "5be238c3d6064c1a79ac9ff5a1c194a6", "fusion_lat": 0.0, "name": "5be238c3d6064c1a79ac9ff5a1c194a6", "is_reserved": 0, "rental_uris": {"android": "https://dc.lft.to/lastmile_qr_scan", "ios": "https://dc.lft.to/lastmile_qr_scan"}, "fusion_lon": 0.0}, {"lat": 38.91013366666667, "is_disabled": 0, "type": "electric_scooter", "lon": -76.99388466666667, "bike_id": "31481df08eda51360131defa43035302", "fusion_lat": 0.0, "name": "31481df08eda51360131defa43035302", "is_reserved": 0, "rental_uris": {"android": "https://dc.lft.to/lastmile_qr_scan", "ios": "https://dc.lft.to/lastmile_qr_scan"}, "fusion_lon": 0.0}, {"lat": 38.9009575, "is_disabled": 0, "type": "electric_scooter", "lon": -77.049833, "bike_id": "9fe927602aac72733b6808b2a62e4ec6", "fusion_lat": 0.0, "name": "9fe927602aac72733b6808b2a62e4ec6", "is_reserved": 0, "rental_uris": {"android": "https://dc.lft.to/lastmile_qr_scan", "ios": "https://dc.lft.to/lastmile_qr_scan"}, "fusion_lon": 0.0}, {"lat": 38.912676, "is_disabled": 0, "type": "electric_scooter", "lon": -77.00278566666667, "bike_id": "7b69d087676cff0cb034261865fdc79f", "fusion_lat": 0.0, "name": "7b69d087676cff0cb034261865fdc79f", "is_reserved": 0, "rental_uris": {"android": "https://dc.lft.to/lastmile_qr_scan", "ios": "https://dc.lft.to/lastmile_qr_scan"}, "fusion_lon": 0.0}, {"lat": 38.913381, "is_disabled": 0, "type": "electric_scooter", "lon": -77.00218783333334, "bike_id": "25e52a7a9e5c1389ee6df9fe87bcf989", "fusion_lat": 0.0, "name": "25e52a7a9e5c1389ee6df9fe87bcf989", "is_reserved": 0, "rental_uris": {"android": "https://dc.lft.to/lastmile_qr_scan", "ios": "https://dc.lft.to/lastmile_qr_scan"}, "fusion_lon": 0.0}, {"lat": 38.88337116666667, "is_disabled": 0, "type": "electric_scooter", "lon": -77.0314755, "bike_id": "81b72ac8ec1fa29d879deefbeac8a122", "fusion_lat": 0.0, "name": "81b72ac8ec1fa29d879deefbeac8a122", "is_reserved": 0, "rental_uris": {"android": "https://dc.lft.to/lastmile_qr_scan", "ios": "https://dc.lft.to/lastmile_qr_scan"}, "fusion_lon": 0.0}, {"lat": 38.92346033333333, "is_disabled": 0, "type": "electric_scooter", "lon": -77.01886533333334, "bike_id": "27d81dbdafbd98b3d5f76ef20562fdf3", "fusion_lat": 0.0, "name": "27d81dbdafbd98b3d5f76ef20562fdf3", "is_reserved": 0, "rental_uris": {"android": "https://dc.lft.to/lastmile_qr_scan", "ios": "https://dc.lft.to/lastmile_qr_scan"}, "fusion_lon": 0.0}, {"lat": 38.911163, "is_disabled": 0, "type": "electric_scooter", "lon": -77.0024955, "bike_id": "74581dfd57a00222af739fb9aea1560b", "fusion_lat": 0.0, "name": "74581dfd57a00222af739fb9aea1560b", "is_reserved": 0, "rental_uris": {"android": "https://dc.lft.to/lastmile_qr_scan", "ios": "https://dc.lft.to/lastmile_qr_scan"}, "fusion_lon": 0.0}, {"lat": 38.90031366666667, "is_disabled": 0, "type": "electric_scooter", "lon": -76.987391, "bike_id": "9f8bee616154134b24073f069eda2b99", "fusion_lat": 0.0, "name": "9f8bee616154134b24073f069eda2b99", "is_reserved": 0, "rental_uris": {"android": "https://dc.lft.to/lastmile_qr_scan", "ios": "https://dc.lft.to/lastmile_qr_scan"}, "fusion_lon": 0.0}, {"lat": 38.897304, "is_disabled": 0, "type": "electric_scooter", "lon": -77.05522816666667, "bike_id": "7bdcb4df245782a19b23a57e6b46e73a", "fusion_lat": 0.0, "name": "7bdcb4df245782a19b23a57e6b46e73a", "is_reserved": 0, "rental_uris": {"android": "https://dc.lft.to/lastmile_qr_scan", "ios": "https://dc.lft.to/lastmile_qr_scan"}, "fusion_lon": 0.0}, {"lat": 38.9029285, "is_disabled": 0, "type": "electric_scooter", "lon": -77.03847983333333, "bike_id": "85ddbaf08d06de0d7f7e257a01c1a6ae", "fusion_lat": 0.0, "name": "85ddbaf08d06de0d7f7e257a01c1a6ae", "is_reserved": 0, "rental_uris": {"android": "https://dc.lft.to/lastmile_qr_scan", "ios": "https://dc.lft.to/lastmile_qr_scan"}, "fusion_lon": 0.0}, {"lat": 38.89753816666666, "is_disabled": 0, "type": "electric_scooter", "lon": -77.018652, "bike_id": "daaa4dfae19fbcbe6741fd206903a0e5", "fusion_lat": 0.0, "name": "daaa4dfae19fbcbe6741fd206903a0e5", "is_reserved": 0, "rental_uris": {"android": "https://dc.lft.to/lastmile_qr_scan", "ios": "https://dc.lft.to/lastmile_qr_scan"}, "fusion_lon": 0.0}, {"lat": 38.900296166666664, "is_disabled": 0, "type": "electric_scooter", "lon": -77.00205966666667, "bike_id": "dd98186603bdb30fcad9f4ad5410cba6", "fusion_lat": 0.0, "name": "dd98186603bdb30fcad9f4ad5410cba6", "is_reserved": 0, "rental_uris": {"android": "https://dc.lft.to/lastmile_qr_scan", "ios": "https://dc.lft.to/lastmile_qr_scan"}, "fusion_lon": 0.0}, {"lat": 38.90685216666667, "is_disabled": 0, "type": "electric_scooter", "lon": -77.06269266666666, "bike_id": "623e80d6e3f5bb24d304bb6ec95ef105", "fusion_lat": 0.0, "name": "623e80d6e3f5bb24d304bb6ec95ef105", "is_reserved": 0, "rental_uris": {"android": "https://dc.lft.to/lastmile_qr_scan", "ios": "https://dc.lft.to/lastmile_qr_scan"}, "fusion_lon": 0.0}, {"lat": 38.921845, "is_disabled": 0, "type": "electric_scooter", "lon": -77.04709766666667, "bike_id": "a0430905664db06a2c5650636e945dfc", "fusion_lat": 0.0, "name": "a0430905664db06a2c5650636e945dfc", "is_reserved": 0, "rental_uris": {"android": "https://dc.lft.to/lastmile_qr_scan", "ios": "https://dc.lft.to/lastmile_qr_scan"}, "fusion_lon": 0.0}, {"lat": 38.96494166666667, "is_disabled": 0, "type": "electric_scooter", "lon": -77.0278435, "bike_id": "49590753041a23edd0a469367552af64", "fusion_lat": 0.0, "name": "49590753041a23edd0a469367552af64", "is_reserved": 0, "rental_uris": {"android": "https://dc.lft.to/lastmile_qr_scan", "ios": "https://dc.lft.to/lastmile_qr_scan"}, "fusion_lon": 0.0}, {"lat": 38.86653316666667, "is_disabled": 0, "type": "electric_scooter", "lon": -76.98885466666667, "bike_id": "3b03c7c12da4e896dca1b27807140952", "fusion_lat": 0.0, "name": "3b03c7c12da4e896dca1b27807140952", "is_reserved": 0, "rental_uris": {"android": "https://dc.lft.to/lastmile_qr_scan", "ios": "https://dc.lft.to/lastmile_qr_scan"}, "fusion_lon": 0.0}, {"lat": 38.920284, "is_disabled": 0, "type": "electric_scooter", "lon": -77.03849266666667, "bike_id": "0fe51ed36d77f256565f5d8955091856", "fusion_lat": 0.0, "name": "0fe51ed36d77f256565f5d8955091856", "is_reserved": 0, "rental_uris": {"android": "https://dc.lft.to/lastmile_qr_scan", "ios": "https://dc.lft.to/lastmile_qr_scan"}, "fusion_lon": 0.0}, {"lat": 38.922966833333334, "is_disabled": 0, "type": "electric_scooter", "lon": -77.041439, "bike_id": "f12598d1ea38d4cdc77f3faa286be319", "fusion_lat": 0.0, "name": "f12598d1ea38d4cdc77f3faa286be319", "is_reserved": 0, "rental_uris": {"android": "https://dc.lft.to/lastmile_qr_scan", "ios": "https://dc.lft.to/lastmile_qr_scan"}, "fusion_lon": 0.0}, {"lat": 38.9052945, "is_disabled": 0, "type": "electric_scooter", "lon": -76.98617166666666, "bike_id": "dc36a25fa2e31380e87c4f31e6668756", "fusion_lat": 0.0, "name": "dc36a25fa2e31380e87c4f31e6668756", "is_reserved": 0, "rental_uris": {"android": "https://dc.lft.to/lastmile_qr_scan", "ios": "https://dc.lft.to/lastmile_qr_scan"}, "fusion_lon": 0.0}, {"lat": 38.91917433333333, "is_disabled": 0, "type": "electric_scooter", "lon": -77.033947, "bike_id": "01e686ea6f24a68f697010dd356f7012", "fusion_lat": 0.0, "name": "01e686ea6f24a68f697010dd356f7012", "is_reserved": 0, "rental_uris": {"android": "https://dc.lft.to/lastmile_qr_scan", "ios": "https://dc.lft.to/lastmile_qr_scan"}, "fusion_lon": 0.0}, {"lat": 38.93240866666667, "is_disabled": 0, "type": "electric_scooter", "lon": -77.03262766666667, "bike_id": "88d1e5401f140f29741914146c9f90ee", "fusion_lat": 0.0, "name": "88d1e5401f140f29741914146c9f90ee", "is_reserved": 0, "rental_uris": {"android": "https://dc.lft.to/lastmile_qr_scan", "ios": "https://dc.lft.to/lastmile_qr_scan"}, "fusion_lon": 0.0}, {"lat": 38.90379316666667, "is_disabled": 0, "type": "electric_scooter", "lon": -77.00271833333333, "bike_id": "963d1ea03ad04a927bd1287292a19162", "fusion_lat": 0.0, "name": "963d1ea03ad04a927bd1287292a19162", "is_reserved": 0, "rental_uris": {"android": "https://dc.lft.to/lastmile_qr_scan", "ios": "https://dc.lft.to/lastmile_qr_scan"}, "fusion_lon": 0.0}, {"lat": 38.867894166666666, "is_disabled": 0, "type": "electric_scooter", "lon": -76.96567116666667, "bike_id": "f55165b2ff3d7d8e05cf5663a61ff066", "fusion_lat": 0.0, "name": "f55165b2ff3d7d8e05cf5663a61ff066", "is_reserved": 0, "rental_uris": {"android": "https://dc.lft.to/lastmile_qr_scan", "ios": "https://dc.lft.to/lastmile_qr_scan"}, "fusion_lon": 0.0}, {"lat": 38.923672333333336, "is_disabled": 0, "type": "electric_scooter", "lon": -77.07675733333333, "bike_id": "0ac7021f14526f41d89c70deac18541a", "fusion_lat": 0.0, "name": "0ac7021f14526f41d89c70deac18541a", "is_reserved": 0, "rental_uris": {"android": "https://dc.lft.to/lastmile_qr_scan", "ios": "https://dc.lft.to/lastmile_qr_scan"}, "fusion_lon": 0.0}, {"lat": 38.9347985, "is_disabled": 0, "type": "electric_scooter", "lon": -77.03649283333333, "bike_id": "8ef25e09843fb52ff3935c58a0c4d7d8", "fusion_lat": 0.0, "name": "8ef25e09843fb52ff3935c58a0c4d7d8", "is_reserved": 0, "rental_uris": {"android": "https://dc.lft.to/lastmile_qr_scan", "ios": "https://dc.lft.to/lastmile_qr_scan"}, "fusion_lon": 0.0}, {"lat": 38.914705833333336, "is_disabled": 0, "type": "electric_scooter", "lon": -77.01905883333333, "bike_id": "34eb1e88f999be75df03cd3d86f45df7", "fusion_lat": 0.0, "name": "34eb1e88f999be75df03cd3d86f45df7", "is_reserved": 0, "rental_uris": {"android": "https://dc.lft.to/lastmile_qr_scan", "ios": "https://dc.lft.to/lastmile_qr_scan"}, "fusion_lon": 0.0}, {"lat": 38.929965833333334, "is_disabled": 0, "type": "electric_bike", "lon": -77.02313533333333, "bike_id": "ff43f80a6109e99175e261f3822b0472", "fusion_lat": 0.0, "name": "ff43f80a6109e99175e261f3822b0472", "is_reserved": 0, "rental_uris": {"android": "https://dc.lft.to/lastmile_qr_scan", "ios": "https://dc.lft.to/lastmile_qr_scan"}, "fusion_lon": 0.0}, {"lat": 38.903190333333335, "is_disabled": 0, "type": "electric_scooter", "lon": -77.03307766666667, "bike_id": "99b4a6a136f842282fadb132e9cb09fb", "fusion_lat": 0.0, "name": "99b4a6a136f842282fadb132e9cb09fb", "is_reserved": 0, "rental_uris": {"android": "https://dc.lft.to/lastmile_qr_scan", "ios": "https://dc.lft.to/lastmile_qr_scan"}, "fusion_lon": 0.0}, {"lat": 38.90603383333333, "is_disabled": 0, "type": "electric_scooter", "lon": -77.05857366666666, "bike_id": "f2ef25fbb3ec7257730e620046357b83", "fusion_lat": 0.0, "name": "f2ef25fbb3ec7257730e620046357b83", "is_reserved": 0, "rental_uris": {"android": "https://dc.lft.to/lastmile_qr_scan", "ios": "https://dc.lft.to/lastmile_qr_scan"}, "fusion_lon": 0.0}, {"lat": 38.907183, "is_disabled": 0, "type": "electric_scooter", "lon": -77.0440655, "bike_id": "15edcb1442b6d4df29513aa65b0b9732", "fusion_lat": 0.0, "name": "15edcb1442b6d4df29513aa65b0b9732", "is_reserved": 0, "rental_uris": {"android": "https://dc.lft.to/lastmile_qr_scan", "ios": "https://dc.lft.to/lastmile_qr_scan"}, "fusion_lon": 0.0}, {"lat": 38.892896666666665, "is_disabled": 0, "type": "electric_bike", "lon": -77.00142, "bike_id": "8ea5c6693fe09fa14b0e943413c05875", "fusion_lat": 0.0, "name": "8ea5c6693fe09fa14b0e943413c05875", "is_reserved": 0, "rental_uris": {"android": "https://dc.lft.to/lastmile_qr_scan", "ios": "https://dc.lft.to/lastmile_qr_scan"}, "fusion_lon": 0.0}, {"lat": 38.892019166666664, "is_disabled": 0, "type": "electric_bike", "lon": -76.97055316666666, "bike_id": "1db7e5fa6a62ba1e30371eb3729a428f", "fusion_lat": 0.0, "name": "1db7e5fa6a62ba1e30371eb3729a428f", "is_reserved": 0, "rental_uris": {"android": "https://dc.lft.to/lastmile_qr_scan", "ios": "https://dc.lft.to/lastmile_qr_scan"}, "fusion_lon": 0.0}, {"lat": 38.884255333333336, "is_disabled": 0, "type": "electric_bike", "lon": -76.9808555, "bike_id": "305d219eeed4ec78c7d64d8c8137a154", "fusion_lat": 0.0, "name": "305d219eeed4ec78c7d64d8c8137a154", "is_reserved": 0, "rental_uris": {"android": "https://dc.lft.to/lastmile_qr_scan", "ios": "https://dc.lft.to/lastmile_qr_scan"}, "fusion_lon": 0.0}, {"lat": 38.8953745, "is_disabled": 0, "type": "electric_scooter", "lon": -77.0109345, "bike_id": "490071edb1318432ff7c5ff3f6202840", "fusion_lat": 0.0, "name": "490071edb1318432ff7c5ff3f6202840", "is_reserved": 0, "rental_uris": {"android": "https://dc.lft.to/lastmile_qr_scan", "ios": "https://dc.lft.to/lastmile_qr_scan"}, "fusion_lon": 0.0}, {"lat": 38.918650166666666, "is_disabled": 0, "type": "electric_scooter", "lon": -77.07426066666666, "bike_id": "36afcb641897d1b70568dfe722783646", "fusion_lat": 0.0, "name": "36afcb641897d1b70568dfe722783646", "is_reserved": 0, "rental_uris": {"android": "https://dc.lft.to/lastmile_qr_scan", "ios": "https://dc.lft.to/lastmile_qr_scan"}, "fusion_lon": 0.0}, {"lat": 38.879334666666665, "is_disabled": 0, "type": "electric_scooter", "lon": -77.00733333333334, "bike_id": "d956de03e8b1871fd7a9cba0ef04988f", "fusion_lat": 0.0, "name": "d956de03e8b1871fd7a9cba0ef04988f", "is_reserved": 0, "rental_uris": {"android": "https://dc.lft.to/lastmile_qr_scan", "ios": "https://dc.lft.to/lastmile_qr_scan"}, "fusion_lon": 0.0}, {"lat": 38.904914166666664, "is_disabled": 0, "type": "electric_scooter", "lon": -76.99540833333333, "bike_id": "196bf936690a165503f40df833fb2d81", "fusion_lat": 0.0, "name": "196bf936690a165503f40df833fb2d81", "is_reserved": 0, "rental_uris": {"android": "https://dc.lft.to/lastmile_qr_scan", "ios": "https://dc.lft.to/lastmile_qr_scan"}, "fusion_lon": 0.0}, {"lat": 38.9238445, "is_disabled": 0, "type": "electric_scooter", "lon": -77.02759166666667, "bike_id": "85d4c9bbb959afa2a36ad588fa771c79", "fusion_lat": 0.0, "name": "85d4c9bbb959afa2a36ad588fa771c79", "is_reserved": 0, "rental_uris": {"android": "https://dc.lft.to/lastmile_qr_scan", "ios": "https://dc.lft.to/lastmile_qr_scan"}, "fusion_lon": 0.0}, {"lat": 38.87748333333333, "is_disabled": 0, "type": "electric_bike", "lon": -76.99516183333333, "bike_id": "69045ac27fed9e3af15f7b234860801c", "fusion_lat": 0.0, "name": "69045ac27fed9e3af15f7b234860801c", "is_reserved": 0, "rental_uris": {"android": "https://dc.lft.to/lastmile_qr_scan", "ios": "https://dc.lft.to/lastmile_qr_scan"}, "fusion_lon": 0.0}, {"lat": 38.91883716666667, "is_disabled": 0, "type": "electric_scooter", "lon": -77.0349865, "bike_id": "816db1184d9dd8bbdf5c3ea25f3e2d40", "fusion_lat": 0.0, "name": "816db1184d9dd8bbdf5c3ea25f3e2d40", "is_reserved": 0, "rental_uris": {"android": "https://dc.lft.to/lastmile_qr_scan", "ios": "https://dc.lft.to/lastmile_qr_scan"}, "fusion_lon": 0.0}, {"lat": 38.810519666666664, "is_disabled": 0, "type": "electric_bike", "lon": -77.08506483333333, "bike_id": "b896c360ca421fac9e7d104cbdc10efd", "fusion_lat": 0.0, "name": "b896c360ca421fac9e7d104cbdc10efd", "is_reserved": 0, "rental_uris": {"android": "https://dc.lft.to/lastmile_qr_scan", "ios": "https://dc.lft.to/lastmile_qr_scan"}, "fusion_lon": 0.0}, {"lat": 38.8442265, "is_disabled": 0, "type": "electric_scooter", "lon": -76.9977495, "bike_id": "bd81c8fe443f47d43a9d602e3f42813d", "fusion_lat": 0.0, "name": "bd81c8fe443f47d43a9d602e3f42813d", "is_reserved": 0, "rental_uris": {"android": "https://dc.lft.to/lastmile_qr_scan", "ios": "https://dc.lft.to/lastmile_qr_scan"}, "fusion_lon": 0.0}, {"lat": 38.94602033333334, "is_disabled": 0, "type": "electric_scooter", "lon": -77.070286, "bike_id": "91553c80ddff8853af08b6a1c7d2fb18", "fusion_lat": 0.0, "name": "91553c80ddff8853af08b6a1c7d2fb18", "is_reserved": 0, "rental_uris": {"android": "https://dc.lft.to/lastmile_qr_scan", "ios": "https://dc.lft.to/lastmile_qr_scan"}, "fusion_lon": 0.0}, {"lat": 38.926066, "is_disabled": 0, "type": "electric_scooter", "lon": -77.05698983333333, "bike_id": "3f7edbb827e69ea570eb6631cac44c39", "fusion_lat": 0.0, "name": "3f7edbb827e69ea570eb6631cac44c39", "is_reserved": 0, "rental_uris": {"android": "https://dc.lft.to/lastmile_qr_scan", "ios": "https://dc.lft.to/lastmile_qr_scan"}, "fusion_lon": 0.0}, {"lat": 38.903940666666664, "is_disabled": 0, "type": "electric_scooter", "lon": -77.0533195, "bike_id": "0c2042d54b29cb096f56faeaf245e51c", "fusion_lat": 0.0, "name": "0c2042d54b29cb096f56faeaf245e51c", "is_reserved": 0, "rental_uris": {"android": "https://dc.lft.to/lastmile_qr_scan", "ios": "https://dc.lft.to/lastmile_qr_scan"}, "fusion_lon": 0.0}, {"lat": 38.893656, "is_disabled": 0, "type": "electric_scooter", "lon": -76.99109583333333, "bike_id": "303e680b83dbfeba9556fe590dd1d6ff", "fusion_lat": 0.0, "name": "303e680b83dbfeba9556fe590dd1d6ff", "is_reserved": 0, "rental_uris": {"android": "https://dc.lft.to/lastmile_qr_scan", "ios": "https://dc.lft.to/lastmile_qr_scan"}, "fusion_lon": 0.0}, {"lat": 38.921080333333336, "is_disabled": 0, "type": "electric_scooter", "lon": -77.04223916666666, "bike_id": "7e5efbc732f831193ea883de96a04903", "fusion_lat": 0.0, "name": "7e5efbc732f831193ea883de96a04903", "is_reserved": 0, "rental_uris": {"android": "https://dc.lft.to/lastmile_qr_scan", "ios": "https://dc.lft.to/lastmile_qr_scan"}, "fusion_lon": 0.0}, {"lat": 38.91550516666667, "is_disabled": 0, "type": "electric_scooter", "lon": -77.00979016666666, "bike_id": "9dd9d514476045a7927b14e143ba35b0", "fusion_lat": 0.0, "name": "9dd9d514476045a7927b14e143ba35b0", "is_reserved": 0, "rental_uris": {"android": "https://dc.lft.to/lastmile_qr_scan", "ios": "https://dc.lft.to/lastmile_qr_scan"}, "fusion_lon": 0.0}, {"lat": 38.85440166666667, "is_disabled": 0, "type": "electric_bike", "lon": -76.90977333333333, "bike_id": "f50357e34f45ea2fd3dcd8938d85eb39", "fusion_lat": 0.0, "name": "f50357e34f45ea2fd3dcd8938d85eb39", "is_reserved": 0, "rental_uris": {"android": "https://dc.lft.to/lastmile_qr_scan", "ios": "https://dc.lft.to/lastmile_qr_scan"}, "fusion_lon": 0.0}, {"lat": 38.909172166666664, "is_disabled": 0, "type": "electric_scooter", "lon": -77.03645683333333, "bike_id": "56fe7a462435dac721f1fbc3d3ecefdb", "fusion_lat": 0.0, "name": "56fe7a462435dac721f1fbc3d3ecefdb", "is_reserved": 0, "rental_uris": {"android": "https://dc.lft.to/lastmile_qr_scan", "ios": "https://dc.lft.to/lastmile_qr_scan"}, "fusion_lon": 0.0}, {"lat": 38.86886616666666, "is_disabled": 0, "type": "electric_scooter", "lon": -76.983129, "bike_id": "8b205338b4edcbb7dfb6200d8eae5e89", "fusion_lat": 0.0, "name": "8b205338b4edcbb7dfb6200d8eae5e89", "is_reserved": 0, "rental_uris": {"android": "https://dc.lft.to/lastmile_qr_scan", "ios": "https://dc.lft.to/lastmile_qr_scan"}, "fusion_lon": 0.0}, {"lat": 38.9050125, "is_disabled": 0, "type": "electric_scooter", "lon": -77.06829633333334, "bike_id": "718f0fb14e4aba79e49531a072c1d7ec", "fusion_lat": 0.0, "name": "718f0fb14e4aba79e49531a072c1d7ec", "is_reserved": 0, "rental_uris": {"android": "https://dc.lft.to/lastmile_qr_scan", "ios": "https://dc.lft.to/lastmile_qr_scan"}, "fusion_lon": 0.0}, {"lat": 38.8734235, "is_disabled": 0, "type": "electric_scooter", "lon": -76.99166616666666, "bike_id": "fa7f1b3d4496c16dcec024ba310b24a8", "fusion_lat": 0.0, "name": "fa7f1b3d4496c16dcec024ba310b24a8", "is_reserved": 0, "rental_uris": {"android": "https://dc.lft.to/lastmile_qr_scan", "ios": "https://dc.lft.to/lastmile_qr_scan"}, "fusion_lon": 0.0}, {"lat": 38.904909833333335, "is_disabled": 0, "type": "electric_scooter", "lon": -76.98711416666667, "bike_id": "f2af51d21b9c293ee62d60d28d3ad122", "fusion_lat": 0.0, "name": "f2af51d21b9c293ee62d60d28d3ad122", "is_reserved": 0, "rental_uris": {"android": "https://dc.lft.to/lastmile_qr_scan", "ios": "https://dc.lft.to/lastmile_qr_scan"}, "fusion_lon": 0.0}, {"lat": 38.94437083333333, "is_disabled": 0, "type": "electric_scooter", "lon": -77.0635225, "bike_id": "e28231a62010ef461aed8bbfb7d20fac", "fusion_lat": 0.0, "name": "e28231a62010ef461aed8bbfb7d20fac", "is_reserved": 0, "rental_uris": {"android": "https://dc.lft.to/lastmile_qr_scan", "ios": "https://dc.lft.to/lastmile_qr_scan"}, "fusion_lon": 0.0}, {"lat": 38.93889866666667, "is_disabled": 0, "type": "electric_scooter", "lon": -77.028207, "bike_id": "0c8c5788c6a4a34da7a64a83dd12f417", "fusion_lat": 0.0, "name": "0c8c5788c6a4a34da7a64a83dd12f417", "is_reserved": 0, "rental_uris": {"android": "https://dc.lft.to/lastmile_qr_scan", "ios": "https://dc.lft.to/lastmile_qr_scan"}, "fusion_lon": 0.0}, {"lat": 38.9155075, "is_disabled": 0, "type": "electric_scooter", "lon": -77.04151733333333, "bike_id": "deaee796f21e4680f682b3b2032808ce", "fusion_lat": 0.0, "name": "deaee796f21e4680f682b3b2032808ce", "is_reserved": 0, "rental_uris": {"android": "https://dc.lft.to/lastmile_qr_scan", "ios": "https://dc.lft.to/lastmile_qr_scan"}, "fusion_lon": 0.0}, {"lat": 38.92481633333333, "is_disabled": 0, "type": "electric_scooter", "lon": -77.0265355, "bike_id": "715450fb6ec3070cb4966566fe31233e", "fusion_lat": 0.0, "name": "715450fb6ec3070cb4966566fe31233e", "is_reserved": 0, "rental_uris": {"android": "https://dc.lft.to/lastmile_qr_scan", "ios": "https://dc.lft.to/lastmile_qr_scan"}, "fusion_lon": 0.0}, {"lat": 38.90490916666667, "is_disabled": 0, "type": "electric_scooter", "lon": -77.01999883333333, "bike_id": "178bafc81474d2b0ba2f57aa453c22fb", "fusion_lat": 0.0, "name": "178bafc81474d2b0ba2f57aa453c22fb", "is_reserved": 0, "rental_uris": {"android": "https://dc.lft.to/lastmile_qr_scan", "ios": "https://dc.lft.to/lastmile_qr_scan"}, "fusion_lon": 0.0}, {"lat": 38.91223766666667, "is_disabled": 0, "type": "electric_scooter", "lon": -77.00223033333333, "bike_id": "38beb8fa0ee06bb2409c77f8169f71af", "fusion_lat": 0.0, "name": "38beb8fa0ee06bb2409c77f8169f71af", "is_reserved": 0, "rental_uris": {"android": "https://dc.lft.to/lastmile_qr_scan", "ios": "https://dc.lft.to/lastmile_qr_scan"}, "fusion_lon": 0.0}, {"lat": 38.88397416666667, "is_disabled": 0, "type": "electric_scooter", "lon": -77.01875016666666, "bike_id": "93cd44ae67fb8cfed588929d4c8ec4c2", "fusion_lat": 0.0, "name": "93cd44ae67fb8cfed588929d4c8ec4c2", "is_reserved": 0, "rental_uris": {"android": "https://dc.lft.to/lastmile_qr_scan", "ios": "https://dc.lft.to/lastmile_qr_scan"}, "fusion_lon": 0.0}, {"lat": 38.918400166666665, "is_disabled": 0, "type": "electric_scooter", "lon": -76.96540016666667, "bike_id": "3e779e1a1cb3221335e93314c28f0215", "fusion_lat": 0.0, "name": "3e779e1a1cb3221335e93314c28f0215", "is_reserved": 0, "rental_uris": {"android": "https://dc.lft.to/lastmile_qr_scan", "ios": "https://dc.lft.to/lastmile_qr_scan"}, "fusion_lon": 0.0}, {"lat": 38.929711833333336, "is_disabled": 0, "type": "electric_scooter", "lon": -77.03206233333333, "bike_id": "4bfb0d4753c5216b7ce3cc8054335306", "fusion_lat": 0.0, "name": "4bfb0d4753c5216b7ce3cc8054335306", "is_reserved": 0, "rental_uris": {"android": "https://dc.lft.to/lastmile_qr_scan", "ios": "https://dc.lft.to/lastmile_qr_scan"}, "fusion_lon": 0.0}, {"lat": 38.923134833333336, "is_disabled": 0, "type": "electric_bike", "lon": -77.03661416666667, "bike_id": "db4d81808e39d2e30d50f2ad760051a3", "fusion_lat": 0.0, "name": "db4d81808e39d2e30d50f2ad760051a3", "is_reserved": 0, "rental_uris": {"android": "https://dc.lft.to/lastmile_qr_scan", "ios": "https://dc.lft.to/lastmile_qr_scan"}, "fusion_lon": 0.0}, {"lat": 38.9171875, "is_disabled": 0, "type": "electric_scooter", "lon": -77.03468516666666, "bike_id": "6ed279960f56593b4c0aea870f8a3726", "fusion_lat": 0.0, "name": "6ed279960f56593b4c0aea870f8a3726", "is_reserved": 0, "rental_uris": {"android": "https://dc.lft.to/lastmile_qr_scan", "ios": "https://dc.lft.to/lastmile_qr_scan"}, "fusion_lon": 0.0}, {"lat": 38.923843, "is_disabled": 0, "type": "electric_scooter", "lon": -77.03070666666666, "bike_id": "95b15c05bbe994a342a120bad88955b3", "fusion_lat": 0.0, "name": "95b15c05bbe994a342a120bad88955b3", "is_reserved": 0, "rental_uris": {"android": "https://dc.lft.to/lastmile_qr_scan", "ios": "https://dc.lft.to/lastmile_qr_scan"}, "fusion_lon": 0.0}, {"lat": 38.895028833333335, "is_disabled": 0, "type": "electric_scooter", "lon": -77.02754483333334, "bike_id": "3f7a067ef9d78bf7279ec97a58d4e470", "fusion_lat": 0.0, "name": "3f7a067ef9d78bf7279ec97a58d4e470", "is_reserved": 0, "rental_uris": {"android": "https://dc.lft.to/lastmile_qr_scan", "ios": "https://dc.lft.to/lastmile_qr_scan"}, "fusion_lon": 0.0}, {"lat": 38.909626, "is_disabled": 0, "type": "electric_scooter", "lon": -77.0227205, "bike_id": "cca1c944881b051f22cce02abb16c80b", "fusion_lat": 0.0, "name": "cca1c944881b051f22cce02abb16c80b", "is_reserved": 0, "rental_uris": {"android": "https://dc.lft.to/lastmile_qr_scan", "ios": "https://dc.lft.to/lastmile_qr_scan"}, "fusion_lon": 0.0}, {"lat": 38.934854333333334, "is_disabled": 0, "type": "electric_bike", "lon": -77.03017916666667, "bike_id": "58c67affb3a218dd06c7c051620c326e", "fusion_lat": 0.0, "name": "58c67affb3a218dd06c7c051620c326e", "is_reserved": 0, "rental_uris": {"android": "https://dc.lft.to/lastmile_qr_scan", "ios": "https://dc.lft.to/lastmile_qr_scan"}, "fusion_lon": 0.0}, {"lat": 38.84626133333333, "is_disabled": 0, "type": "electric_bike", "lon": -77.06938416666667, "bike_id": "27403d3d02f68db13780c67d35ffe034", "fusion_lat": 0.0, "name": "27403d3d02f68db13780c67d35ffe034", "is_reserved": 0, "rental_uris": {"android": "https://dc.lft.to/lastmile_qr_scan", "ios": "https://dc.lft.to/lastmile_qr_scan"}, "fusion_lon": 0.0}, {"lat": 38.892799, "is_disabled": 0, "type": "electric_scooter", "lon": -77.050343, "bike_id": "e7470f3249698e6bdb0f6a64c6f6fd52", "fusion_lat": 0.0, "name": "e7470f3249698e6bdb0f6a64c6f6fd52", "is_reserved": 0, "rental_uris": {"android": "https://dc.lft.to/lastmile_qr_scan", "ios": "https://dc.lft.to/lastmile_qr_scan"}, "fusion_lon": 0.0}, {"lat": 38.92414, "is_disabled": 0, "type": "electric_scooter", "lon": -77.02971683333334, "bike_id": "6d371508e4f7e3ca13878fc8254dd4c2", "fusion_lat": 0.0, "name": "6d371508e4f7e3ca13878fc8254dd4c2", "is_reserved": 0, "rental_uris": {"android": "https://dc.lft.to/lastmile_qr_scan", "ios": "https://dc.lft.to/lastmile_qr_scan"}, "fusion_lon": 0.0}, {"lat": 38.91992316666666, "is_disabled": 0, "type": "electric_scooter", "lon": -77.041839, "bike_id": "e7eb3bb5a075da361f7450a86981d365", "fusion_lat": 0.0, "name": "e7eb3bb5a075da361f7450a86981d365", "is_reserved": 0, "rental_uris": {"android": "https://dc.lft.to/lastmile_qr_scan", "ios": "https://dc.lft.to/lastmile_qr_scan"}, "fusion_lon": 0.0}, {"lat": 38.89048, "is_disabled": 0, "type": "electric_scooter", "lon": -76.93753133333334, "bike_id": "c5ce24639032a9772e2b40794cfd6da9", "fusion_lat": 0.0, "name": "c5ce24639032a9772e2b40794cfd6da9", "is_reserved": 0, "rental_uris": {"android": "https://dc.lft.to/lastmile_qr_scan", "ios": "https://dc.lft.to/lastmile_qr_scan"}, "fusion_lon": 0.0}, {"lat": 38.91569783333333, "is_disabled": 0, "type": "electric_scooter", "lon": -77.01193816666667, "bike_id": "85724e718317a5328aca64ec3a3d06fa", "fusion_lat": 0.0, "name": "85724e718317a5328aca64ec3a3d06fa", "is_reserved": 0, "rental_uris": {"android": "https://dc.lft.to/lastmile_qr_scan", "ios": "https://dc.lft.to/lastmile_qr_scan"}, "fusion_lon": 0.0}, {"lat": 38.946326666666664, "is_disabled": 0, "type": "electric_scooter", "lon": -77.01844116666666, "bike_id": "e901ebd31b3d5c73add22a6be85051be", "fusion_lat": 0.0, "name": "e901ebd31b3d5c73add22a6be85051be", "is_reserved": 0, "rental_uris": {"android": "https://dc.lft.to/lastmile_qr_scan", "ios": "https://dc.lft.to/lastmile_qr_scan"}, "fusion_lon": 0.0}, {"lat": 38.90263483333333, "is_disabled": 0, "type": "electric_scooter", "lon": -77.01755983333334, "bike_id": "d2ff7796017fc367805436737b3343cb", "fusion_lat": 0.0, "name": "d2ff7796017fc367805436737b3343cb", "is_reserved": 0, "rental_uris": {"android": "https://dc.lft.to/lastmile_qr_scan", "ios": "https://dc.lft.to/lastmile_qr_scan"}, "fusion_lon": 0.0}, {"lat": 38.8381235, "is_disabled": 0, "type": "electric_bike", "lon": -77.09527583333333, "bike_id": "f3a1f19011acc45d4add5675b9edc03d", "fusion_lat": 0.0, "name": "f3a1f19011acc45d4add5675b9edc03d", "is_reserved": 0, "rental_uris": {"android": "https://dc.lft.to/lastmile_qr_scan", "ios": "https://dc.lft.to/lastmile_qr_scan"}, "fusion_lon": 0.0}, {"lat": 38.90449383333333, "is_disabled": 0, "type": "electric_scooter", "lon": -77.036685, "bike_id": "b7440dd390283cbbd366a7f3c64da70c", "fusion_lat": 0.0, "name": "b7440dd390283cbbd366a7f3c64da70c", "is_reserved": 0, "rental_uris": {"android": "https://dc.lft.to/lastmile_qr_scan", "ios": "https://dc.lft.to/lastmile_qr_scan"}, "fusion_lon": 0.0}, {"lat": 38.9540345, "is_disabled": 0, "type": "electric_scooter", "lon": -77.02750533333334, "bike_id": "70bf3b4e8387e7e5f09203e8ead17f25", "fusion_lat": 0.0, "name": "70bf3b4e8387e7e5f09203e8ead17f25", "is_reserved": 0, "rental_uris": {"android": "https://dc.lft.to/lastmile_qr_scan", "ios": "https://dc.lft.to/lastmile_qr_scan"}, "fusion_lon": 0.0}, {"lat": 38.87629, "is_disabled": 0, "type": "electric_scooter", "lon": -76.9653145, "bike_id": "0bd8a3557b58450ff78b1c14bff2103f", "fusion_lat": 0.0, "name": "0bd8a3557b58450ff78b1c14bff2103f", "is_reserved": 0, "rental_uris": {"android": "https://dc.lft.to/lastmile_qr_scan", "ios": "https://dc.lft.to/lastmile_qr_scan"}, "fusion_lon": 0.0}, {"lat": 38.9028005, "is_disabled": 0, "type": "electric_scooter", "lon": -77.04036416666666, "bike_id": "761dc1f7b56f396182ff6ce6868ed1c8", "fusion_lat": 0.0, "name": "761dc1f7b56f396182ff6ce6868ed1c8", "is_reserved": 0, "rental_uris": {"android": "https://dc.lft.to/lastmile_qr_scan", "ios": "https://dc.lft.to/lastmile_qr_scan"}, "fusion_lon": 0.0}, {"lat": 38.865249166666665, "is_disabled": 0, "type": "electric_scooter", "lon": -76.99033116666666, "bike_id": "3ba3ede65461800449a3435cb49d45c0", "fusion_lat": 0.0, "name": "3ba3ede65461800449a3435cb49d45c0", "is_reserved": 0, "rental_uris": {"android": "https://dc.lft.to/lastmile_qr_scan", "ios": "https://dc.lft.to/lastmile_qr_scan"}, "fusion_lon": 0.0}, {"lat": 38.925439, "is_disabled": 0, "type": "electric_scooter", "lon": -77.03325266666667, "bike_id": "988f6bb1183cbcf04d6afc5dce9b98bc", "fusion_lat": 0.0, "name": "988f6bb1183cbcf04d6afc5dce9b98bc", "is_reserved": 0, "rental_uris": {"android": "https://dc.lft.to/lastmile_qr_scan", "ios": "https://dc.lft.to/lastmile_qr_scan"}, "fusion_lon": 0.0}, {"lat": 38.86997133333333, "is_disabled": 0, "type": "electric_bike", "lon": -77.06565016666667, "bike_id": "198ff0b9bafb68cd7470071b9b33cebe", "fusion_lat": 0.0, "name": "198ff0b9bafb68cd7470071b9b33cebe", "is_reserved": 0, "rental_uris": {"android": "https://dc.lft.to/lastmile_qr_scan", "ios": "https://dc.lft.to/lastmile_qr_scan"}, "fusion_lon": 0.0}, {"lat": 38.93007733333334, "is_disabled": 0, "type": "electric_scooter", "lon": -77.05671333333333, "bike_id": "573606a03fd8d0b66e16554d9eb00df9", "fusion_lat": 0.0, "name": "573606a03fd8d0b66e16554d9eb00df9", "is_reserved": 0, "rental_uris": {"android": "https://dc.lft.to/lastmile_qr_scan", "ios": "https://dc.lft.to/lastmile_qr_scan"}, "fusion_lon": 0.0}, {"lat": 38.8593245, "is_disabled": 0, "type": "electric_scooter", "lon": -76.9971875, "bike_id": "952584a876ef1708139d8344a43d631a", "fusion_lat": 0.0, "name": "952584a876ef1708139d8344a43d631a", "is_reserved": 0, "rental_uris": {"android": "https://dc.lft.to/lastmile_qr_scan", "ios": "https://dc.lft.to/lastmile_qr_scan"}, "fusion_lon": 0.0}, {"lat": 38.918183166666665, "is_disabled": 0, "type": "electric_scooter", "lon": -77.0271025, "bike_id": "e1613b20bd26240450bd45dc07416d77", "fusion_lat": 0.0, "name": "e1613b20bd26240450bd45dc07416d77", "is_reserved": 0, "rental_uris": {"android": "https://dc.lft.to/lastmile_qr_scan", "ios": "https://dc.lft.to/lastmile_qr_scan"}, "fusion_lon": 0.0}, {"lat": 38.905099166666666, "is_disabled": 0, "type": "electric_scooter", "lon": -77.06884766666667, "bike_id": "b45a7f4260391c8d9858898a895748e3", "fusion_lat": 0.0, "name": "b45a7f4260391c8d9858898a895748e3", "is_reserved": 0, "rental_uris": {"android": "https://dc.lft.to/lastmile_qr_scan", "ios": "https://dc.lft.to/lastmile_qr_scan"}, "fusion_lon": 0.0}, {"lat": 39.01591066666667, "is_disabled": 0, "type": "electric_bike", "lon": -77.04428066666667, "bike_id": "af3862b4cde20665e0a49b7816f2551f", "fusion_lat": 0.0, "name": "af3862b4cde20665e0a49b7816f2551f", "is_reserved": 0, "rental_uris": {"android": "https://dc.lft.to/lastmile_qr_scan", "ios": "https://dc.lft.to/lastmile_qr_scan"}, "fusion_lon": 0.0}, {"lat": 38.93325733333333, "is_disabled": 0, "type": "electric_scooter", "lon": -77.057085, "bike_id": "300160f199980115343896fdc6e8080a", "fusion_lat": 0.0, "name": "300160f199980115343896fdc6e8080a", "is_reserved": 0, "rental_uris": {"android": "https://dc.lft.to/lastmile_qr_scan", "ios": "https://dc.lft.to/lastmile_qr_scan"}, "fusion_lon": 0.0}, {"lat": 38.90135683333333, "is_disabled": 0, "type": "electric_scooter", "lon": -77.01820166666667, "bike_id": "b8a256dbf802767fcb7f0d1277db9e2b", "fusion_lat": 0.0, "name": "b8a256dbf802767fcb7f0d1277db9e2b", "is_reserved": 0, "rental_uris": {"android": "https://dc.lft.to/lastmile_qr_scan", "ios": "https://dc.lft.to/lastmile_qr_scan"}, "fusion_lon": 0.0}, {"lat": 38.935412166666666, "is_disabled": 0, "type": "electric_scooter", "lon": -77.03422266666666, "bike_id": "d9966f0b84a5e8aacb90b1c423635318", "fusion_lat": 0.0, "name": "d9966f0b84a5e8aacb90b1c423635318", "is_reserved": 0, "rental_uris": {"android": "https://dc.lft.to/lastmile_qr_scan", "ios": "https://dc.lft.to/lastmile_qr_scan"}, "fusion_lon": 0.0}, {"lat": 38.904960333333335, "is_disabled": 0, "type": "electric_scooter", "lon": -77.032679, "bike_id": "988fbcdc2e5f74ffc4b17955991e3c47", "fusion_lat": 0.0, "name": "988fbcdc2e5f74ffc4b17955991e3c47", "is_reserved": 0, "rental_uris": {"android": "https://dc.lft.to/lastmile_qr_scan", "ios": "https://dc.lft.to/lastmile_qr_scan"}, "fusion_lon": 0.0}, {"lat": 38.948032, "is_disabled": 0, "type": "electric_scooter", "lon": -77.07906516666667, "bike_id": "36cc7c0e75750f46e013cb52f73007b8", "fusion_lat": 0.0, "name": "36cc7c0e75750f46e013cb52f73007b8", "is_reserved": 0, "rental_uris": {"android": "https://dc.lft.to/lastmile_qr_scan", "ios": "https://dc.lft.to/lastmile_qr_scan"}, "fusion_lon": 0.0}, {"lat": 38.884267, "is_disabled": 0, "type": "electric_scooter", "lon": -77.03048966666667, "bike_id": "47fe1c847435891bdc659ed0eac62f7f", "fusion_lat": 0.0, "name": "47fe1c847435891bdc659ed0eac62f7f", "is_reserved": 0, "rental_uris": {"android": "https://dc.lft.to/lastmile_qr_scan", "ios": "https://dc.lft.to/lastmile_qr_scan"}, "fusion_lon": 0.0}, {"lat": 38.919609666666666, "is_disabled": 0, "type": "electric_scooter", "lon": -77.0431815, "bike_id": "1e70dd7766484e5e7f4bd538cb5bced4", "fusion_lat": 0.0, "name": "1e70dd7766484e5e7f4bd538cb5bced4", "is_reserved": 0, "rental_uris": {"android": "https://dc.lft.to/lastmile_qr_scan", "ios": "https://dc.lft.to/lastmile_qr_scan"}, "fusion_lon": 0.0}, {"lat": 38.891229833333334, "is_disabled": 0, "type": "electric_scooter", "lon": -76.9409245, "bike_id": "2d11b8ad5c9ed6aefa2001f76072e6da", "fusion_lat": 0.0, "name": "2d11b8ad5c9ed6aefa2001f76072e6da", "is_reserved": 0, "rental_uris": {"android": "https://dc.lft.to/lastmile_qr_scan", "ios": "https://dc.lft.to/lastmile_qr_scan"}, "fusion_lon": 0.0}, {"lat": 38.91083016666666, "is_disabled": 0, "type": "electric_scooter", "lon": -77.076446, "bike_id": "f5b48b90fcbb1ae807256d9c5ce97dba", "fusion_lat": 0.0, "name": "f5b48b90fcbb1ae807256d9c5ce97dba", "is_reserved": 0, "rental_uris": {"android": "https://dc.lft.to/lastmile_qr_scan", "ios": "https://dc.lft.to/lastmile_qr_scan"}, "fusion_lon": 0.0}, {"lat": 38.90002166666667, "is_disabled": 0, "type": "electric_scooter", "lon": -76.99849583333334, "bike_id": "2b6c487f687709a319ff02d51e6d4189", "fusion_lat": 0.0, "name": "2b6c487f687709a319ff02d51e6d4189", "is_reserved": 0, "rental_uris": {"android": "https://dc.lft.to/lastmile_qr_scan", "ios": "https://dc.lft.to/lastmile_qr_scan"}, "fusion_lon": 0.0}, {"lat": 38.9160115, "is_disabled": 0, "type": "electric_scooter", "lon": -77.02395083333333, "bike_id": "219cc02ac8eb07c7ce3755bd1f289be5", "fusion_lat": 0.0, "name": "219cc02ac8eb07c7ce3755bd1f289be5", "is_reserved": 0, "rental_uris": {"android": "https://dc.lft.to/lastmile_qr_scan", "ios": "https://dc.lft.to/lastmile_qr_scan"}, "fusion_lon": 0.0}, {"lat": 38.965619333333336, "is_disabled": 0, "type": "electric_bike", "lon": -77.02302583333334, "bike_id": "9280a50a90a1e5797fdc57a4ffc9d9e7", "fusion_lat": 0.0, "name": "9280a50a90a1e5797fdc57a4ffc9d9e7", "is_reserved": 0, "rental_uris": {"android": "https://dc.lft.to/lastmile_qr_scan", "ios": "https://dc.lft.to/lastmile_qr_scan"}, "fusion_lon": 0.0}, {"lat": 38.90866833333333, "is_disabled": 0, "type": "electric_scooter", "lon": -77.0465925, "bike_id": "9e973efdd902aad4d8a1c2f5198a4cdf", "fusion_lat": 0.0, "name": "9e973efdd902aad4d8a1c2f5198a4cdf", "is_reserved": 0, "rental_uris": {"android": "https://dc.lft.to/lastmile_qr_scan", "ios": "https://dc.lft.to/lastmile_qr_scan"}, "fusion_lon": 0.0}, {"lat": 38.928766, "is_disabled": 0, "type": "electric_bike", "lon": -77.0370365, "bike_id": "9cfdec379baf1f0ae235daed545833ec", "fusion_lat": 0.0, "name": "9cfdec379baf1f0ae235daed545833ec", "is_reserved": 0, "rental_uris": {"android": "https://dc.lft.to/lastmile_qr_scan", "ios": "https://dc.lft.to/lastmile_qr_scan"}, "fusion_lon": 0.0}, {"lat": 38.91993383333333, "is_disabled": 0, "type": "electric_scooter", "lon": -76.97304083333333, "bike_id": "3372cb79d32828eace39ecff51b84503", "fusion_lat": 0.0, "name": "3372cb79d32828eace39ecff51b84503", "is_reserved": 0, "rental_uris": {"android": "https://dc.lft.to/lastmile_qr_scan", "ios": "https://dc.lft.to/lastmile_qr_scan"}, "fusion_lon": 0.0}, {"lat": 38.91339466666667, "is_disabled": 0, "type": "electric_scooter", "lon": -77.03981816666666, "bike_id": "940084f94456b8c10ea9050ed9de4ea3", "fusion_lat": 0.0, "name": "940084f94456b8c10ea9050ed9de4ea3", "is_reserved": 0, "rental_uris": {"android": "https://dc.lft.to/lastmile_qr_scan", "ios": "https://dc.lft.to/lastmile_qr_scan"}, "fusion_lon": 0.0}, {"lat": 38.911852833333334, "is_disabled": 0, "type": "electric_scooter", "lon": -77.03831566666666, "bike_id": "4b4a02ce916510a410a671ffe1c7f171", "fusion_lat": 0.0, "name": "4b4a02ce916510a410a671ffe1c7f171", "is_reserved": 0, "rental_uris": {"android": "https://dc.lft.to/lastmile_qr_scan", "ios": "https://dc.lft.to/lastmile_qr_scan"}, "fusion_lon": 0.0}, {"lat": 38.8977205, "is_disabled": 0, "type": "electric_scooter", "lon": -77.03219366666667, "bike_id": "9c61c5da1a83c665fff8432069f81331", "fusion_lat": 0.0, "name": "9c61c5da1a83c665fff8432069f81331", "is_reserved": 0, "rental_uris": {"android": "https://dc.lft.to/lastmile_qr_scan", "ios": "https://dc.lft.to/lastmile_qr_scan"}, "fusion_lon": 0.0}, {"lat": 38.844274666666664, "is_disabled": 0, "type": "electric_scooter", "lon": -76.99774266666667, "bike_id": "915f73376c920c46dfd1031d3759ba4a", "fusion_lat": 0.0, "name": "915f73376c920c46dfd1031d3759ba4a", "is_reserved": 0, "rental_uris": {"android": "https://dc.lft.to/lastmile_qr_scan", "ios": "https://dc.lft.to/lastmile_qr_scan"}, "fusion_lon": 0.0}, {"lat": 38.97325266666667, "is_disabled": 0, "type": "electric_bike", "lon": -77.021465, "bike_id": "097bf98bd24a0fab522bf4cf44362391", "fusion_lat": 0.0, "name": "097bf98bd24a0fab522bf4cf44362391", "is_reserved": 0, "rental_uris": {"android": "https://dc.lft.to/lastmile_qr_scan", "ios": "https://dc.lft.to/lastmile_qr_scan"}, "fusion_lon": 0.0}, {"lat": 38.879427166666666, "is_disabled": 0, "type": "electric_bike", "lon": -76.98378683333334, "bike_id": "14e4dce8c7bd181ff127eaadcf063b27", "fusion_lat": 0.0, "name": "14e4dce8c7bd181ff127eaadcf063b27", "is_reserved": 0, "rental_uris": {"android": "https://dc.lft.to/lastmile_qr_scan", "ios": "https://dc.lft.to/lastmile_qr_scan"}, "fusion_lon": 0.0}, {"lat": 38.93660233333333, "is_disabled": 0, "type": "electric_bike", "lon": -76.95218883333334, "bike_id": "28d4eb9a174e6912d8098de33808281b", "fusion_lat": 0.0, "name": "28d4eb9a174e6912d8098de33808281b", "is_reserved": 0, "rental_uris": {"android": "https://dc.lft.to/lastmile_qr_scan", "ios": "https://dc.lft.to/lastmile_qr_scan"}, "fusion_lon": 0.0}, {"lat": 38.90403116666667, "is_disabled": 0, "type": "electric_scooter", "lon": -77.0487525, "bike_id": "0e620e73cdd61d70cd739ad6d5950a9c", "fusion_lat": 0.0, "name": "0e620e73cdd61d70cd739ad6d5950a9c", "is_reserved": 0, "rental_uris": {"android": "https://dc.lft.to/lastmile_qr_scan", "ios": "https://dc.lft.to/lastmile_qr_scan"}, "fusion_lon": 0.0}, {"lat": 38.880949333333334, "is_disabled": 0, "type": "electric_scooter", "lon": -76.99248766666666, "bike_id": "bb965bacacfc0e115d2bf058b7a35b9b", "fusion_lat": 0.0, "name": "bb965bacacfc0e115d2bf058b7a35b9b", "is_reserved": 0, "rental_uris": {"android": "https://dc.lft.to/lastmile_qr_scan", "ios": "https://dc.lft.to/lastmile_qr_scan"}, "fusion_lon": 0.0}, {"lat": 38.887437, "is_disabled": 0, "type": "electric_scooter", "lon": -77.02829283333334, "bike_id": "841aebd63e13c50d9d22b4b03028b723", "fusion_lat": 0.0, "name": "841aebd63e13c50d9d22b4b03028b723", "is_reserved": 0, "rental_uris": {"android": "https://dc.lft.to/lastmile_qr_scan", "ios": "https://dc.lft.to/lastmile_qr_scan"}, "fusion_lon": 0.0}, {"lat": 38.90945716666667, "is_disabled": 0, "type": "electric_scooter", "lon": -77.0449055, "bike_id": "ad610f80147dcb079db2c2548989861a", "fusion_lat": 0.0, "name": "ad610f80147dcb079db2c2548989861a", "is_reserved": 0, "rental_uris": {"android": "https://dc.lft.to/lastmile_qr_scan", "ios": "https://dc.lft.to/lastmile_qr_scan"}, "fusion_lon": 0.0}, {"lat": 38.88123366666667, "is_disabled": 0, "type": "electric_scooter", "lon": -77.0009265, "bike_id": "f8174bcbbb692f1f703fa0b1c3403f6a", "fusion_lat": 0.0, "name": "f8174bcbbb692f1f703fa0b1c3403f6a", "is_reserved": 0, "rental_uris": {"android": "https://dc.lft.to/lastmile_qr_scan", "ios": "https://dc.lft.to/lastmile_qr_scan"}, "fusion_lon": 0.0}, {"lat": 38.914290666666666, "is_disabled": 0, "type": "electric_scooter", "lon": -77.0170125, "bike_id": "1e8de3e3ca5b3c0157c8bcbc95034383", "fusion_lat": 0.0, "name": "1e8de3e3ca5b3c0157c8bcbc95034383", "is_reserved": 0, "rental_uris": {"android": "https://dc.lft.to/lastmile_qr_scan", "ios": "https://dc.lft.to/lastmile_qr_scan"}, "fusion_lon": 0.0}, {"lat": 38.906422666666664, "is_disabled": 0, "type": "electric_scooter", "lon": -77.034617, "bike_id": "ff1dafae5f2e6945d7bd09e6bee3bea9", "fusion_lat": 0.0, "name": "ff1dafae5f2e6945d7bd09e6bee3bea9", "is_reserved": 0, "rental_uris": {"android": "https://dc.lft.to/lastmile_qr_scan", "ios": "https://dc.lft.to/lastmile_qr_scan"}, "fusion_lon": 0.0}, {"lat": 38.91552633333333, "is_disabled": 0, "type": "electric_scooter", "lon": -77.038613, "bike_id": "9c59ed8bcc056d223df34406b5750509", "fusion_lat": 0.0, "name": "9c59ed8bcc056d223df34406b5750509", "is_reserved": 0, "rental_uris": {"android": "https://dc.lft.to/lastmile_qr_scan", "ios": "https://dc.lft.to/lastmile_qr_scan"}, "fusion_lon": 0.0}, {"lat": 38.92795066666667, "is_disabled": 0, "type": "electric_scooter", "lon": -77.026039, "bike_id": "34305260f466d2e0c5a75c077e991b60", "fusion_lat": 0.0, "name": "34305260f466d2e0c5a75c077e991b60", "is_reserved": 0, "rental_uris": {"android": "https://dc.lft.to/lastmile_qr_scan", "ios": "https://dc.lft.to/lastmile_qr_scan"}, "fusion_lon": 0.0},