{"data": {"bikes": [{"lat": 38.866488, "is_disabled": 0, "type": "electric_scooter", "lon": -76.98886616666667, "bike_id": "e8255a39d06fc07ccbcc6edd47525379", "fusion_lat": 0.0, "name": "e8255a39d06fc07ccbcc6edd47525379", "is_reserved": 0, "rental_uris": {"android": "https://dc.lft.to/lastmile_qr_scan", "ios": "https://dc.lft.to/lastmile_qr_scan"}, "fusion_lon": 0.0}, {"lat": 38.900480333333334, "is_disabled": 0, "type": "electric_scooter", "lon": -76.997314, "bike_id": "18663515900d5f470966f31950c5f6aa", "fusion_lat": 0.0, "name": "18663515900d5f470966f31950c5f6aa", "is_reserved": 0, "rental_uris": {"android": "https://dc.lft.to/lastmile_qr_scan", "ios": "https://dc.lft.to/lastmile_qr_scan"}, "fusion_lon": 0.0}, {"lat": 38.899029666666664, "is_disabled": 0, "type": "electric_scooter", "lon": -76.9335535, "bike_id": "813fbd333e3646181509617323186d14", "fusion_lat": 0.0, "name": "813fbd333e3646181509617323186d14", "is_reserved": 0, "rental_uris": {"android": "https://dc.lft.to/lastmile_qr_scan", "ios": "https://dc.lft.to/lastmile_qr_scan"}, "fusion_lon": 0.0}, {"lat": 38.93062966666667, "is_disabled": 0, "type": "electric_scooter", "lon": -77.04181916666667, "bike_id": "6b33d9e7f8a7561802af2eead9182442", "fusion_lat": 0.0, "name": "6b33d9e7f8a7561802af2eead9182442", "is_reserved": 0, "rental_uris": {"android": "https://dc.lft.to/lastmile_qr_scan", "ios": "https://dc.lft.to/lastmile_qr_scan"}, "fusion_lon": 0.0}, {"lat": 38.9086015, "is_disabled": 0, "type": "electric_scooter", "lon": -76.99167716666666, "bike_id": "68daeb512e2af27f8fb98ff71e5a97a1", "fusion_lat": 0.0, "name": "68daeb512e2af27f8fb98ff71e5a97a1", "is_reserved": 0, "rental_uris": {"android": "https://dc.lft.to/lastmile_qr_scan", "ios": "https://dc.lft.to/lastmile_qr_scan"}, "fusion_lon": 0.0}, {"lat": 38.901397833333334, "is_disabled": 0, "type": "electric_scooter", "lon": -77.0500115, "bike_id": "0095cfc8097c7c6b0d048d651e82f0d2", "fusion_lat": 0.0, "name": "0095cfc8097c7c6b0d048d651e82f0d2", "is_reserved": 0, "rental_uris": {"android": "https://dc.lft.to/lastmile_qr_scan", "ios": "https://dc.lft.to/lastmile_qr_scan"}, "fusion_lon": 0.0}, {"lat": 38.96174883333333, "is_disabled": 0, "type": "electric_bike", "lon": -77.073671, "bike_id": "32325c8cbaf5b5e158c185e93cd394d5", "fusion_lat": 0.0, "name": "32325c8cbaf5b5e158c185e93cd394d5", "is_reserved": 0, "rental_uris": {"android": "https://dc.lft.to/lastmile_qr_scan", "ios": "https://dc.lft.to/lastmile_qr_scan"}, "fusion_lon": 0.0}, {"lat": 38.90043983333333, "is_disabled": 0, "type": "electric_scooter", "lon": -76.99385366666667, "bike_id": "caa6eecb0d587586b44e27761a90d38a", "fusion_lat": 0.0, "name": "caa6eecb0d587586b44e27761a90d38a", "is_reserved": 0, "rental_uris": {"android": "https://dc.lft.to/lastmile_qr_scan", "ios": "https://dc.lft.to/lastmile_qr_scan"}, "fusion_lon": 0.0}, {"lat": 38.927468833333336, "is_disabled": 0, "type": "electric_scooter", "lon": -77.02535133333333, "bike_id": "ad0e9aeb8579526b838b71c5a56418e3", "fusion_lat": 0.0, "name": "ad0e9aeb8579526b838b71c5a56418e3", "is_reserved": 0, "rental_uris": {"android": "https://dc.lft.to/lastmile_qr_scan", "ios": "https://dc.lft.to/lastmile_qr_scan"}, "fusion_lon": 0.0}, {"lat": 38.90615, "is_disabled": 0, "type": "electric_scooter", "lon": -76.9898425, "bike_id": "bcea33dcd8dae73d6bf96c1d6ac3ddb1", "fusion_lat": 0.0, "name": "bcea33dcd8dae73d6bf96c1d6ac3ddb1", "is_reserved": 0, "rental_uris": {"android": "https://dc.lft.to/lastmile_qr_scan", "ios": "https://dc.lft.to/lastmile_qr_scan"}, "fusion_lon": 0.0}, {"lat": 38.891100333333334, "is_disabled": 0, "type": "electric_scooter", "lon": -76.94386383333334, "bike_id": "c3a136305bc3e3e9574832547cbfa4fd", "fusion_lat": 0.0, "name": "c3a136305bc3e3e9574832547cbfa4fd", "is_reserved": 0, "rental_uris": {"android": "https://dc.lft.to/lastmile_qr_scan", "ios": "https://dc.lft.to/lastmile_qr_scan"}, "fusion_lon": 0.0}, {"lat": 38.85907516666666, "is_disabled": 0, "type": "electric_scooter", "lon": -76.99149983333334, "bike_id": "2e829f7a028fed4880743a95ec8bbfd1", "fusion_lat": 0.0, "name": "2e829f7a028fed4880743a95ec8bbfd1", "is_reserved": 0, "rental_uris": {"android": "https://dc.lft.to/lastmile_qr_scan", "ios": "https://dc.lft.to/lastmile_qr_scan"}, "fusion_lon": 0.0}, {"lat": 38.89540266666667, "is_disabled": 0, "type": "electric_scooter", "lon": -77.02819416666667, "bike_id": "8cb90ce830005fc1a1db7a80732a36ec", "fusion_lat": 0.0, "name": "8cb90ce830005fc1a1db7a80732a36ec", "is_reserved": 0, "rental_uris": {"android": "https://dc.lft.to/lastmile_qr_scan", "ios": "https://dc.lft.to/lastmile_qr_scan"}, "fusion_lon": 0.0}, {"lat": 38.911018, "is_disabled": 0, "type": "electric_scooter", "lon": -77.04226266666667, "bike_id": "1b0ab08c633e7ffd9aa6ab163de72e78", "fusion_lat": 0.0, "name": "1b0ab08c633e7ffd9aa6ab163de72e78", "is_reserved": 0, "rental_uris": {"android": "https://dc.lft.to/lastmile_qr_scan", "ios": "https://dc.lft.to/lastmile_qr_scan"}, "fusion_lon": 0.0}, {"lat": 38.9473835, "is_disabled": 0, "type": "electric_scooter", "lon": -77.065272, "bike_id": "c289fe833924ebac4e3c678f6bc872c4", "fusion_lat": 0.0, "name": "c289fe833924ebac4e3c678f6bc872c4", "is_reserved": 0, "rental_uris": {"android": "https://dc.lft.to/lastmile_qr_scan", "ios": "https://dc.lft.to/lastmile_qr_scan"}, "fusion_lon": 0.0}, {"lat": 38.929784, "is_disabled": 0, "type": "electric_scooter", "lon": -77.0319545, "bike_id": "ef28725f4ca836f777b826e3ec8aac5a", "fusion_lat": 0.0, "name": "ef28725f4ca836f777b826e3ec8aac5a", "is_reserved": 0, "rental_uris": {"android": "https://dc.lft.to/lastmile_qr_scan", "ios": "https://dc.lft.to/lastmile_qr_scan"}, "fusion_lon": 0.0}, {"lat": 38.92430133333333, "is_disabled": 0, "type": "electric_scooter", "lon": -77.0342005, "bike_id": "112562ec1fc40fb1830c398c9ef7a786", "fusion_lat": 0.0, "name": "112562ec1fc40fb1830c398c9ef7a786", "is_reserved": 0, "rental_uris": {"android": "https://dc.lft.to/lastmile_qr_scan", "ios": "https://dc.lft.to/lastmile_qr_scan"}, "fusion_lon": 0.0}, {"lat": 38.86661983333333, "is_disabled": 0, "type": "electric_scooter", "lon": -76.9890155, "bike_id": "1732d806f61ce06fda4eba5038973e03", "fusion_lat": 0.0, "name": "1732d806f61ce06fda4eba5038973e03", "is_reserved": 0, "rental_uris": {"android": "https://dc.lft.to/lastmile_qr_scan", "ios": "https://dc.lft.to/lastmile_qr_scan"}, "fusion_lon": 0.0}, {"lat": 38.924384333333336, "is_disabled": 0, "type": "electric_scooter", "lon": -77.03359333333333, "bike_id": "fedfa8ada7ed2e3a2407932656f86cf9", "fusion_lat": 0.0, "name": "fedfa8ada7ed2e3a2407932656f86cf9", "is_reserved": 0, "rental_uris": {"android": "https://dc.lft.to/lastmile_qr_scan", "ios": "https://dc.lft.to/lastmile_qr_scan"}, "fusion_lon": 0.0}, {"lat": 38.91106516666667, "is_disabled": 0, "type": "electric_scooter", "lon": -77.02233683333333, "bike_id": "088e837aa22e795c601c09e98210ad6a", "fusion_lat": 0.0, "name": "088e837aa22e795c601c09e98210ad6a", "is_reserved": 0, "rental_uris": {"android": "https://dc.lft.to/lastmile_qr_scan", "ios": "https://dc.lft.to/lastmile_qr_scan"}, "fusion_lon": 0.0}, {"lat": 38.9240875, "is_disabled": 0, "type": "electric_scooter", "lon": -77.03420683333333, "bike_id": "a0a4158e9aab112ef5caa52275ab6f94", "fusion_lat": 0.0, "name": "a0a4158e9aab112ef5caa52275ab6f94", "is_reserved": 0, "rental_uris": {"android": "https://dc.lft.to/lastmile_qr_scan", "ios": "https://dc.lft.to/lastmile_qr_scan"}, "fusion_lon": 0.0}, {"lat": 38.91463983333333, "is_disabled": 0, "type": "electric_scooter", "lon": -77.06692466666667, "bike_id": "8940418cf7942f5e4551a883f857c20d", "fusion_lat": 0.0, "name": "8940418cf7942f5e4551a883f857c20d", "is_reserved": 0, "rental_uris": {"android": "https://dc.lft.to/lastmile_qr_scan", "ios": "https://dc.lft.to/lastmile_qr_scan"}, "fusion_lon": 0.0}, {"lat": 38.9099335, "is_disabled": 0, "type": "electric_scooter", "lon": -76.9974125, "bike_id": "ff53fc67c53e27c28885a582c60cac7d", "fusion_lat": 0.0, "name": "ff53fc67c53e27c28885a582c60cac7d", "is_reserved": 0, "rental_uris": {"android": "https://dc.lft.to/lastmile_qr_scan", "ios": "https://dc.lft.to/lastmile_qr_scan"}, "fusion_lon": 0.0}, {"lat": 38.90834683333333, "is_disabled": 0, "type": "electric_scooter", "lon": -77.03550866666667, "bike_id": "d02a7860c1c2c85df9180059b657b497", "fusion_lat": 0.0, "name": "d02a7860c1c2c85df9180059b657b497", "is_reserved": 0, "rental_uris": {"android": "https://dc.lft.to/lastmile_qr_scan", "ios": "https://dc.lft.to/lastmile_qr_scan"}, "fusion_lon": 0.0}, {"lat": 38.921104666666665, "is_disabled": 0, "type": "electric_scooter", "lon": -77.04194466666667, "bike_id": "36c6b0f0c353dbc468c9809afd8f2f62", "fusion_lat": 0.0, "name": "36c6b0f0c353dbc468c9809afd8f2f62", "is_reserved": 0, "rental_uris": {"android": "https://dc.lft.to/lastmile_qr_scan", "ios": "https://dc.lft.to/lastmile_qr_scan"}, "fusion_lon": 0.0}, {"lat": 38.9216735, "is_disabled": 0, "type": "electric_scooter", "lon": -77.0402095, "bike_id": "b1873ffaba4707570f89845e6c626e33", "fusion_lat": 0.0, "name": "b1873ffaba4707570f89845e6c626e33", "is_reserved": 0, "rental_uris": {"android": "https://dc.lft.to/lastmile_qr_scan", "ios": "https://dc.lft.to/lastmile_qr_scan"}, "fusion_lon": 0.0}, {"lat": 38.90483283333333, "is_disabled": 0, "type": "electric_scooter", "lon": -76.97328966666667, "bike_id": "4348099aa98da3ae7e77979ea17c934f", "fusion_lat": 0.0, "name": "4348099aa98da3ae7e77979ea17c934f", "is_reserved": 0, "rental_uris": {"android": "https://dc.lft.to/lastmile_qr_scan", "ios": "https://dc.lft.to/lastmile_qr_scan"}, "fusion_lon": 0.0}, {"lat": 38.924798333333335, "is_disabled": 0, "type": "electric_scooter", "lon": -77.03484166666667, "bike_id": "b0d72894e0c5611f9f11ae8d15787a03", "fusion_lat": 0.0, "name": "b0d72894e0c5611f9f11ae8d15787a03", "is_reserved": 0, "rental_uris": {"android": "https://dc.lft.to/lastmile_qr_scan", "ios": "https://dc.lft.to/lastmile_qr_scan"}, "fusion_lon": 0.0}, {"lat": 38.96561466666667, "is_disabled": 0, "type": "electric_scooter", "lon": -77.01626283333333, "bike_id": "0479e3f8db7b2553e9519b74142abea2", "fusion_lat": 0.0, "name": "0479e3f8db7b2553e9519b74142abea2", "is_reserved": 0, "rental_uris": {"android": "https://dc.lft.to/lastmile_qr_scan", "ios": "https://dc.lft.to/lastmile_qr_scan"}, "fusion_lon": 0.0}, {"lat": 38.90274766666667, "is_disabled": 0, "type": "electric_scooter", "lon": -77.03373733333333, "bike_id": "36b41d1891f1519c92c715bb949d029e", "fusion_lat": 0.0, "name": "36b41d1891f1519c92c715bb949d029e", "is_reserved": 0, "rental_uris": {"android": "https://dc.lft.to/lastmile_qr_scan", "ios": "https://dc.lft.to/lastmile_qr_scan"}, "fusion_lon": 0.0}, {"lat": 38.943084, "is_disabled": 0, "type": "electric_scooter", "lon": -77.06138633333333, "bike_id": "b6681bfe40dcc9ca996010fd6309b66c", "fusion_lat": 0.0, "name": "b6681bfe40dcc9ca996010fd6309b66c", "is_reserved": 0, "rental_uris": {"android": "https://dc.lft.to/lastmile_qr_scan", "ios": "https://dc.lft.to/lastmile_qr_scan"}, "fusion_lon": 0.0}, {"lat": 38.886438166666665, "is_disabled": 0, "type": "electric_scooter", "lon": -76.95490583333333, "bike_id": "db83cebe130e42c4ce0ae708d0f2e491", "fusion_lat": 0.0, "name": "db83cebe130e42c4ce0ae708d0f2e491", "is_reserved": 0, "rental_uris": {"android": "https://dc.lft.to/lastmile_qr_scan", "ios": "https://dc.lft.to/lastmile_qr_scan"}, "fusion_lon": 0.0}, {"lat": 38.9270555, "is_disabled": 0, "type": "electric_scooter", "lon": -77.01503383333333, "bike_id": "695f66342d0cfec0078662f6602cc36d", "fusion_lat": 0.0, "name": "695f66342d0cfec0078662f6602cc36d", "is_reserved": 0, "rental_uris": {"android": "https://dc.lft.to/lastmile_qr_scan", "ios": "https://dc.lft.to/lastmile_qr_scan"}, "fusion_lon": 0.0}, {"lat": 38.91573966666667, "is_disabled": 0, "type": "electric_scooter", "lon": -77.05027883333334, "bike_id": "8f2b8e3780562c4a5d4dbc7a15493d9f", "fusion_lat": 0.0, "name": "8f2b8e3780562c4a5d4dbc7a15493d9f", "is_reserved": 0, "rental_uris": {"android": "https://dc.lft.to/lastmile_qr_scan", "ios": "https://dc.lft.to/lastmile_qr_scan"}, "fusion_lon": 0.0}, {"lat": 38.896559833333335, "is_disabled": 0, "type": "electric_scooter", "lon": -77.04662283333333, "bike_id": "eacc8f224c51a1a71790d3bbae88f949", "fusion_lat": 0.0, "name": "eacc8f224c51a1a71790d3bbae88f949", "is_reserved": 0, "rental_uris": {"android": "https://dc.lft.to/lastmile_qr_scan", "ios": "https://dc.lft.to/lastmile_qr_scan"}, "fusion_lon": 0.0}, {"lat": 38.895002166666664, "is_disabled": 0, "type": "electric_scooter", "lon": -77.00255283333334, "bike_id": "7634ee1de7d5d5b76bb0eb340589f17d", "fusion_lat": 0.0, "name": "7634ee1de7d5d5b76bb0eb340589f17d", "is_reserved": 0, "rental_uris": {"android": "https://dc.lft.to/lastmile_qr_scan", "ios": "https://dc.lft.to/lastmile_qr_scan"}, "fusion_lon": 0.0}, {"lat": 38.893521166666666, "is_disabled": 0, "type": "electric_scooter", "lon": -76.98474083333333, "bike_id": "302d09dbb7596f55f2d235be2821f136", "fusion_lat": 0.0, "name": "302d09dbb7596f55f2d235be2821f136", "is_reserved": 0, "rental_uris": {"android": "https://dc.lft.to/lastmile_qr_scan", "ios": "https://dc.lft.to/lastmile_qr_scan"}, "fusion_lon": 0.0}, {"lat": 38.91037983333333, "is_disabled": 0, "type": "electric_scooter", "lon": -77.04571466666667, "bike_id": "914f8ae25e39fdc5f3167032c4a99acc", "fusion_lat": 0.0, "name": "914f8ae25e39fdc5f3167032c4a99acc", "is_reserved": 0, "rental_uris": {"android": "https://dc.lft.to/lastmile_qr_scan", "ios": "https://dc.lft.to/lastmile_qr_scan"}, "fusion_lon": 0.0}, {"lat": 38.90659083333333, "is_disabled": 0, "type": "electric_scooter", "lon": -77.03859683333333, "bike_id": "e50895a17ed9e9cf2488eff2081856f9", "fusion_lat": 0.0, "name": "e50895a17ed9e9cf2488eff2081856f9", "is_reserved": 0, "rental_uris": {"android": "https://dc.lft.to/lastmile_qr_scan", "ios": "https://dc.lft.to/lastmile_qr_scan"}, "fusion_lon": 0.0}, {"lat": 38.89507916666667, "is_disabled": 0, "type": "electric_scooter", "lon": -77.01613633333334, "bike_id": "83a22dad040c594992aa86ce31d25734", "fusion_lat": 0.0, "name": "83a22dad040c594992aa86ce31d25734", "is_reserved": 0, "rental_uris": {"android": "https://dc.lft.to/lastmile_qr_scan", "ios": "https://dc.lft.to/lastmile_qr_scan"}, "fusion_lon": 0.0}, {"lat": 38.9136445, "is_disabled": 0, "type": "electric_scooter", "lon": -77.04660716666666, "bike_id": "47e2d05d72a4d4ae5e65b5d54277d624", "fusion_lat": 0.0, "name": "47e2d05d72a4d4ae5e65b5d54277d624", "is_reserved": 0, "rental_uris": {"android": "https://dc.lft.to/lastmile_qr_scan", "ios": "https://dc.lft.to/lastmile_qr_scan"}, "fusion_lon": 0.0}, {"lat": 38.90358766666667, "is_disabled": 0, "type": "electric_scooter", "lon": -77.01865866666667, "bike_id": "4fde5dd8ce057d4e833ab9b27a6dacd3", "fusion_lat": 0.0, "name": "4fde5dd8ce057d4e833ab9b27a6dacd3", "is_reserved": 0, "rental_uris": {"android": "https://dc.lft.to/lastmile_qr_scan", "ios": "https://dc.lft.to/lastmile_qr_scan"}, "fusion_lon": 0.0}, {"lat": 38.90257916666667, "is_disabled": 0, "type": "electric_scooter", "lon": -77.01760233333333, "bike_id": "84f44fb1d768515101a59bb204c0081c", "fusion_lat": 0.0, "name": "84f44fb1d768515101a59bb204c0081c", "is_reserved": 0, "rental_uris": {"android": "https://dc.lft.to/lastmile_qr_scan", "ios": "https://dc.lft.to/lastmile_qr_scan"}, "fusion_lon": 0.0}, {"lat": 38.90740233333333, "is_disabled": 0, "type": "electric_scooter", "lon": -77.03197716666666, "bike_id": "db71e36b4dd937b4d537ce8b1a8f242c", "fusion_lat": 0.0, "name": "db71e36b4dd937b4d537ce8b1a8f242c", "is_reserved": 0, "rental_uris": {"android": "https://dc.lft.to/lastmile_qr_scan", "ios": "https://dc.lft.to/lastmile_qr_scan"}, "fusion_lon": 0.0}, {"lat": 38.901902166666666, "is_disabled": 0, "type": "electric_scooter", "lon": -77.0231995, "bike_id": "efd660d7f44332adcb61ea8910fc87c7", "fusion_lat": 0.0, "name": "efd660d7f44332adcb61ea8910fc87c7", "is_reserved": 0, "rental_uris": {"android": "https://dc.lft.to/lastmile_qr_scan", "ios": "https://dc.lft.to/lastmile_qr_scan"}, "fusion_lon": 0.0}, {"lat": 38.961133, "is_disabled": 0, "type": "electric_scooter", "lon": -77.0281435, "bike_id": "fe965f090af6b9dfc2e64ed530190ee5", "fusion_lat": 0.0, "name": "fe965f090af6b9dfc2e64ed530190ee5", "is_reserved": 0, "rental_uris": {"android": "https://dc.lft.to/lastmile_qr_scan", "ios": "https://dc.lft.to/lastmile_qr_scan"}, "fusion_lon": 0.0}, {"lat": 38.904866166666665, "is_disabled": 0, "type": "electric_scooter", "lon": -77.05136833333333, "bike_id": "46a38310ddcfb0071891b43d666e45a3", "fusion_lat": 0.0, "name": "46a38310ddcfb0071891b43d666e45a3", "is_reserved": 0, "rental_uris": {"android": "https://dc.lft.to/lastmile_qr_scan", "ios": "https://dc.lft.to/lastmile_qr_scan"}, "fusion_lon": 0.0}, {"lat": 38.929140833333335, "is_disabled": 0, "type": "electric_scooter", "lon": -77.0219345, "bike_id": "46483906372569d3a8a3cbc139d9d4b5", "fusion_lat": 0.0, "name": "46483906372569d3a8a3cbc139d9d4b5", "is_reserved": 0, "rental_uris": {"android": "https://dc.lft.to/lastmile_qr_scan", "ios": "https://dc.lft.to/lastmile_qr_scan"}, "fusion_lon": 0.0}, {"lat": 38.89224866666667, "is_disabled": 0, "type": "electric_scooter", "lon": -77.02122666666666, "bike_id": "9f91ccb64498b9acd0ecda4ad2156645", "fusion_lat": 0.0, "name": "9f91ccb64498b9acd0ecda4ad2156645", "is_reserved": 0, "rental_uris": {"android": "https://dc.lft.to/lastmile_qr_scan", "ios": "https://dc.lft.to/lastmile_qr_scan"}, "fusion_lon": 0.0}, {"lat": 38.92110616666667, "is_disabled": 0, "type": "electric_scooter", "lon": -77.01827216666666, "bike_id": "5644609870f21567816b6cbab3ff36af", "fusion_lat": 0.0, "name": "5644609870f21567816b6cbab3ff36af", "is_reserved": 0, "rental_uris": {"android": "https://dc.lft.to/lastmile_qr_scan", "ios": "https://dc.lft.to/lastmile_qr_scan"}, "fusion_lon": 0.0}, {"lat": 38.9258275, "is_disabled": 0, "type": "electric_scooter", "lon": -77.057643, "bike_id": "719a39e8dd4740daa0f6d73c4fdded5b", "fusion_lat": 0.0, "name": "719a39e8dd4740daa0f6d73c4fdded5b", "is_reserved": 0, "rental_uris": {"android": "https://dc.lft.to/lastmile_qr_scan", "ios": "https://dc.lft.to/lastmile_qr_scan"}, "fusion_lon": 0.0}, {"lat": 38.92252383333334, "is_disabled": 0, "type": "electric_scooter", "lon": -77.04247816666667, "bike_id": "306f54ab67bbb77d4cca05b4859e87de", "fusion_lat": 0.0, "name": "306f54ab67bbb77d4cca05b4859e87de", "is_reserved": 0, "rental_uris": {"android": "https://dc.lft.to/lastmile_qr_scan", "ios": "https://dc.lft.to/lastmile_qr_scan"}, "fusion_lon": 0.0}, {"lat": 38.83731683333333, "is_disabled": 0, "type": "electric_bike", "lon": -76.99762733333333, "bike_id": "ba462d9a93e849d7df96cfc7752c11c4", "fusion_lat": 0.0, "name": "ba462d9a93e849d7df96cfc7752c11c4", "is_reserved": 0, "rental_uris": {"android": "https://dc.lft.to/lastmile_qr_scan", "ios": "https://dc.lft.to/lastmile_qr_scan"}, "fusion_lon": 0.0}, {"lat": 38.934159, "is_disabled": 0, "type": "electric_scooter", "lon": -77.0247035, "bike_id": "387f3efe42a514d5b8bc9f67d4a5931c", "fusion_lat": 0.0, "name": "387f3efe42a514d5b8bc9f67d4a5931c", "is_reserved": 0, "rental_uris": {"android": "https://dc.lft.to/lastmile_qr_scan", "ios": "https://dc.lft.to/lastmile_qr_scan"}, "fusion_lon": 0.0}, {"lat": 38.8567155, "is_disabled": 0, "type": "electric_scooter", "lon": -76.98183566666667, "bike_id": "f155795b36e50020a9190977eb37806c", "fusion_lat": 0.0, "name": "f155795b36e50020a9190977eb37806c", "is_reserved": 0, "rental_uris": {"android": "https://dc.lft.to/lastmile_qr_scan", "ios": "https://dc.lft.to/lastmile_qr_scan"}, "fusion_lon": 0.0}, {"lat": 38.895493, "is_disabled": 0, "type": "electric_scooter", "lon": -77.00441683333334, "bike_id": "78b0b99bc0e51cc082b221e6dd460bc0", "fusion_lat": 0.0, "name": "78b0b99bc0e51cc082b221e6dd460bc0", "is_reserved": 0, "rental_uris": {"android": "https://dc.lft.to/lastmile_qr_scan", "ios": "https://dc.lft.to/lastmile_qr_scan"}, "fusion_lon": 0.0}, {"lat": 38.901301833333335, "is_disabled": 0, "type": "electric_scooter", "lon": -77.02924283333333, "bike_id": "a6572431877222aa14dd83612a6cf7e3", "fusion_lat": 0.0, "name": "a6572431877222aa14dd83612a6cf7e3", "is_reserved": 0, "rental_uris": {"android": "https://dc.lft.to/lastmile_qr_scan", "ios": "https://dc.lft.to/lastmile_qr_scan"}, "fusion_lon": 0.0}, {"lat": 38.92658316666667, "is_disabled": 0, "type": "electric_scooter", "lon": -76.9975175, "bike_id": "f9a91df30dd1e39e08de2213c01dc243", "fusion_lat": 0.0, "name": "f9a91df30dd1e39e08de2213c01dc243", "is_reserved": 0, "rental_uris": {"android": "https://dc.lft.to/lastmile_qr_scan", "ios": "https://dc.lft.to/lastmile_qr_scan"}, "fusion_lon": 0.0}, {"lat": 38.896344666666664, "is_disabled": 0, "type": "electric_scooter", "lon": -77.02145366666667, "bike_id": "eac28c3ef149a7e44740d5c2df7aee6d", "fusion_lat": 0.0, "name": "eac28c3ef149a7e44740d5c2df7aee6d", "is_reserved": 0, "rental_uris": {"android": "https://dc.lft.to/lastmile_qr_scan", "ios": "https://dc.lft.to/lastmile_qr_scan"}, "fusion_lon": 0.0}, {"lat": 38.8848485, "is_disabled": 0, "type": "electric_scooter", "lon": -77.03478466666667, "bike_id": "5d93991be0dadcad63075b30e6ff2647", "fusion_lat": 0.0, "name": "5d93991be0dadcad63075b30e6ff2647", "is_reserved": 0, "rental_uris": {"android": "https://dc.lft.to/lastmile_qr_scan", "ios": "https://dc.lft.to/lastmile_qr_scan"}, "fusion_lon": 0.0}, {"lat": 38.8427545, "is_disabled": 0, "type": "electric_bike", "lon": -76.98843816666667, "bike_id": "a17771c6bed4138b0c4cb2a173e57d22", "fusion_lat": 0.0, "name": "a17771c6bed4138b0c4cb2a173e57d22", "is_reserved": 0, "rental_uris": {"android": "https://dc.lft.to/lastmile_qr_scan", "ios": "https://dc.lft.to/lastmile_qr_scan"}, "fusion_lon": 0.0}, {"lat": 38.86506166666667, "is_disabled": 0, "type": "electric_scooter", "lon": -76.9900885, "bike_id": "34717844222d57105dd57a3142de7609", "fusion_lat": 0.0, "name": "34717844222d57105dd57a3142de7609", "is_reserved": 0, "rental_uris": {"android": "https://dc.lft.to/lastmile_qr_scan", "ios": "https://dc.lft.to/lastmile_qr_scan"}, "fusion_lon": 0.0}, {"lat": 38.91789133333333, "is_disabled": 0, "type": "electric_scooter", "lon": -77.02314083333333, "bike_id": "e7862ce02a5f2e218000b41f5c8c3bcb", "fusion_lat": 0.0, "name": "e7862ce02a5f2e218000b41f5c8c3bcb", "is_reserved": 0, "rental_uris": {"android": "https://dc.lft.to/lastmile_qr_scan", "ios": "https://dc.lft.to/lastmile_qr_scan"}, "fusion_lon": 0.0}, {"lat": 38.935804, "is_disabled": 0, "type": "electric_bike", "lon": -77.10684733333333, "bike_id": "2dcfaff6f0e45008a237f02e000473d4", "fusion_lat": 0.0, "name": "2dcfaff6f0e45008a237f02e000473d4", "is_reserved": 0, "rental_uris": {"android": "https://dc.lft.to/lastmile_qr_scan", "ios": "https://dc.lft.to/lastmile_qr_scan"}, "fusion_lon": 0.0}, {"lat": 38.902655333333335, "is_disabled": 0, "type": "electric_scooter", "lon": -77.01209233333333, "bike_id": "d8815696d4e0ccc799b28c3a5033eda4", "fusion_lat": 0.0, "name": "d8815696d4e0ccc799b28c3a5033eda4", "is_reserved": 0, "rental_uris": {"android": "https://dc.lft.to/lastmile_qr_scan", "ios": "https://dc.lft.to/lastmile_qr_scan"}, "fusion_lon": 0.0}, {"lat": 38.9027115, "is_disabled": 0, "type": "electric_scooter", "lon": -77.03652383333333, "bike_id": "8ce64a7ce9b1724a161eca117847b345", "fusion_lat": 0.0, "name": "8ce64a7ce9b1724a161eca117847b345", "is_reserved": 0, "rental_uris": {"android": "https://dc.lft.to/lastmile_qr_scan", "ios": "https://dc.lft.to/lastmile_qr_scan"}, "fusion_lon": 0.0}, {"lat": 38.90863383333333, "is_disabled": 0, "type": "electric_scooter", "lon": -77.0383825, "bike_id": "238fbb84e449f11adb13b4a12b09d36b", "fusion_lat": 0.0, "name": "238fbb84e449f11adb13b4a12b09d36b", "is_reserved": 0, "rental_uris": {"android": "https://dc.lft.to/lastmile_qr_scan", "ios": "https://dc.lft.to/lastmile_qr_scan"}, "fusion_lon": 0.0}, {"lat": 38.944964, "is_disabled": 0, "type": "electric_bike", "lon": -77.00680766666666, "bike_id": "25df695b8fa5617dbf5235383423a886", "fusion_lat": 0.0, "name": "25df695b8fa5617dbf5235383423a886", "is_reserved": 0, "rental_uris": {"android": "https://dc.lft.to/lastmile_qr_scan", "ios": "https://dc.lft.to/lastmile_qr_scan"}, "fusion_lon": 0.0}, {"lat": 38.89645483333334, "is_disabled": 0, "type": "electric_scooter", "lon": -77.00926016666666, "bike_id": "ae785ae0ec0c1f254402b52a5cc5ad99", "fusion_lat": 0.0, "name": "ae785ae0ec0c1f254402b52a5cc5ad99", "is_reserved": 0, "rental_uris": {"android": "https://dc.lft.to/lastmile_qr_scan", "ios": "https://dc.lft.to/lastmile_qr_scan"}, "fusion_lon": 0.0}, {"lat": 38.9117785, "is_disabled": 0, "type": "electric_scooter", "lon": -77.06258666666666, "bike_id": "ab78b03195e9d7d0f1e970d8b6626218", "fusion_lat": 0.0, "name": "ab78b03195e9d7d0f1e970d8b6626218", "is_reserved": 0, "rental_uris": {"android": "https://dc.lft.to/lastmile_qr_scan", "ios": "https://dc.lft.to/lastmile_qr_scan"}, "fusion_lon": 0.0}, {"lat": 38.900514333333334, "is_disabled": 0, "type": "electric_scooter", "lon": -77.03312616666666, "bike_id": "cb9437a7fec809d9cf6d152fedc7ff26", "fusion_lat": 0.0, "name": "cb9437a7fec809d9cf6d152fedc7ff26", "is_reserved": 0, "rental_uris": {"android": "https://dc.lft.to/lastmile_qr_scan", "ios": "https://dc.lft.to/lastmile_qr_scan"}, "fusion_lon": 0.0}, {"lat": 38.916365666666664, "is_disabled": 0, "type": "electric_scooter", "lon": -77.02699483333333, "bike_id": "fb08cf455692c6b9ad73ba935e9d1dad", "fusion_lat": 0.0, "name": "fb08cf455692c6b9ad73ba935e9d1dad", "is_reserved": 0, "rental_uris": {"android": "https://dc.lft.to/lastmile_qr_scan", "ios": "https://dc.lft.to/lastmile_qr_scan"}, "fusion_lon": 0.0}, {"lat": 38.941340833333335, "is_disabled": 0, "type": "electric_scooter", "lon": -77.07616616666667, "bike_id": "a6a8138a1790225e1f51916adb293b3f", "fusion_lat": 0.0, "name": "a6a8138a1790225e1f51916adb293b3f", "is_reserved": 0, "rental_uris": {"android": "https://dc.lft.to/lastmile_qr_scan", "ios": "https://dc.lft.to/lastmile_qr_scan"}, "fusion_lon": 0.0}, {"lat": 38.909456666666664, "is_disabled": 0, "type": "electric_scooter", "lon": -77.04666383333333, "bike_id": "e801f69e90c1b707355824f51a9af9ee", "fusion_lat": 0.0, "name": "e801f69e90c1b707355824f51a9af9ee", "is_reserved": 0, "rental_uris": {"android": "https://dc.lft.to/lastmile_qr_scan", "ios": "https://dc.lft.to/lastmile_qr_scan"}, "fusion_lon": 0.0}, {"lat": 38.9071815, "is_disabled": 0, "type": "electric_scooter", "lon": -77.03467516666667, "bike_id": "a49ec5c154825b9caf7c68910e638d10", "fusion_lat": 0.0, "name": "a49ec5c154825b9caf7c68910e638d10", "is_reserved": 0, "rental_uris": {"android": "https://dc.lft.to/lastmile_qr_scan", "ios": "https://dc.lft.to/lastmile_qr_scan"}, "fusion_lon": 0.0}, {"lat": 38.87146766666667, "is_disabled": 0, "type": "electric_bike", "lon": -76.93674333333334, "bike_id": "4030e4794b75d1b68ed5b906e8c4128c", "fusion_lat": 0.0, "name": "4030e4794b75d1b68ed5b906e8c4128c", "is_reserved": 0, "rental_uris": {"android": "https://dc.lft.to/lastmile_qr_scan", "ios": "https://dc.lft.to/lastmile_qr_scan"}, "fusion_lon": 0.0}, {"lat": 38.900445166666664, "is_disabled": 0, "type": "electric_scooter", "lon": -77.033335, "bike_id": "73d1207d2f605dc73f17e7cf75438a4c", "fusion_lat": 0.0, "name": "73d1207d2f605dc73f17e7cf75438a4c", "is_reserved": 0, "rental_uris": {"android": "https://dc.lft.to/lastmile_qr_scan", "ios": "https://dc.lft.to/lastmile_qr_scan"}, "fusion_lon": 0.0}, {"lat": 38.863658, "is_disabled": 0, "type": "electric_scooter", "lon": -76.99027316666667, "bike_id": "1b9e87609afb920e853e1f2206bfb236", "fusion_lat": 0.0, "name": "1b9e87609afb920e853e1f2206bfb236", "is_reserved": 0, "rental_uris": {"android": "https://dc.lft.to/lastmile_qr_scan", "ios": "https://dc.lft.to/lastmile_qr_scan"}, "fusion_lon": 0.0}, {"lat": 38.95221083333333, "is_disabled": 0, "type": "electric_scooter", "lon": -77.002593, "bike_id": "f1c743978e11e51463c0e7623841feaf", "fusion_lat": 0.0, "name": "f1c743978e11e51463c0e7623841feaf", "is_reserved": 0, "rental_uris": {"android": "https://dc.lft.to/lastmile_qr_scan", "ios": "https://dc.lft.to/lastmile_qr_scan"}, "fusion_lon": 0.0}, {"lat": 38.895276, "is_disabled": 0, "type": "electric_scooter", "lon": -77.00063716666666, "bike_id": "f04f4b3a46d586f776819f17e4f4315a", "fusion_lat": 0.0, "name": "f04f4b3a46d586f776819f17e4f4315a", "is_reserved": 0, "rental_uris": {"android": "https://dc.lft.to/lastmile_qr_scan", "ios": "https://dc.lft.to/lastmile_qr_scan"}, "fusion_lon": 0.0}, {"lat": 38.948375166666665, "is_disabled": 0, "type": "electric_scooter", "lon": -77.025788, "bike_id": "d3b9fd69bcdce3357ccc3ca8ec1f0c59", "fusion_lat": 0.0, "name": "d3b9fd69bcdce3357ccc3ca8ec1f0c59", "is_reserved": 0, "rental_uris": {"android": "https://dc.lft.to/lastmile_qr_scan", "ios": "https://dc.lft.to/lastmile_qr_scan"}, "fusion_lon": 0.0}, {"lat": 38.9126385, "is_disabled": 0, "type": "electric_scooter", "lon": -77.022554, "bike_id": "5604044305275960a6511653bced62b1", "fusion_lat": 0.0, "name": "5604044305275960a6511653bced62b1", "is_reserved": 0, "rental_uris": {"android": "https://dc.lft.to/lastmile_qr_scan", "ios": "https://dc.lft.to/lastmile_qr_scan"}, "fusion_lon": 0.0}, {"lat": 38.927802, "is_disabled": 0, "type": "electric_scooter", "lon": -77.02684683333334, "bike_id": "2173997f9c9caf69489a2d4df903e569", "fusion_lat": 0.0, "name": "2173997f9c9caf69489a2d4df903e569", "is_reserved": 0, "rental_uris": {"android": "https://dc.lft.to/lastmile_qr_scan", "ios": "https://dc.lft.to/lastmile_qr_scan"}, "fusion_lon": 0.0}, {"lat": 38.910025, "is_disabled": 0, "type": "electric_scooter", "lon": -77.04007633333333, "bike_id": "1699d4efcde6bc5286829df3c2996abe", "fusion_lat": 0.0, "name": "1699d4efcde6bc5286829df3c2996abe", "is_reserved": 0, "rental_uris": {"android": "https://dc.lft.to/lastmile_qr_scan", "ios": "https://dc.lft.to/lastmile_qr_scan"}, "fusion_lon": 0.0}, {"lat": 38.89735566666667, "is_disabled": 0, "type": "electric_scooter", "lon": -77.049916, "bike_id": "ebfd2e9475f3d3f8917ddc1670ef608c", "fusion_lat": 0.0, "name": "ebfd2e9475f3d3f8917ddc1670ef608c", "is_reserved": 0, "rental_uris": {"android": "https://dc.lft.to/lastmile_qr_scan", "ios": "https://dc.lft.to/lastmile_qr_scan"}, "fusion_lon": 0.0}, {"lat": 38.909559333333334, "is_disabled": 0, "type": "electric_scooter", "lon": -77.04799583333333, "bike_id": "df8f691a72a753c48435f21e44442089", "fusion_lat": 0.0, "name": "df8f691a72a753c48435f21e44442089", "is_reserved": 0, "rental_uris": {"android": "https://dc.lft.to/lastmile_qr_scan", "ios": "https://dc.lft.to/lastmile_qr_scan"}, "fusion_lon": 0.0}, {"lat": 38.905558166666665, "is_disabled": 0, "type": "electric_scooter", "lon": -77.00557566666667, "bike_id": "850dae5b38c5c1cee9e113eac1ab35d3", "fusion_lat": 0.0, "name": "850dae5b38c5c1cee9e113eac1ab35d3", "is_reserved": 0, "rental_uris": {"android": "https://dc.lft.to/lastmile_qr_scan", "ios": "https://dc.lft.to/lastmile_qr_scan"}, "fusion_lon": 0.0}, {"lat": 38.99256333333334, "is_disabled": 0, "type": "electric_scooter", "lon": -77.03658483333334, "bike_id": "161b04420877ea0de38202904de3cc02", "fusion_lat": 0.0, "name": "161b04420877ea0de38202904de3cc02", "is_reserved": 0, "rental_uris": {"android": "https://dc.lft.to/lastmile_qr_scan", "ios": "https://dc.lft.to/lastmile_qr_scan"}, "fusion_lon": 0.0}, {"lat": 38.905192166666666, "is_disabled": 0, "type": "electric_scooter", "lon": -77.0630345, "bike_id": "cd3619445bc2af5f91ec5ba0bd56a9ee", "fusion_lat": 0.0, "name": "cd3619445bc2af5f91ec5ba0bd56a9ee", "is_reserved": 0, "rental_uris": {"android": "https://dc.lft.to/lastmile_qr_scan", "ios": "https://dc.lft.to/lastmile_qr_scan"}, "fusion_lon": 0.0}, {"lat": 38.91047666666667, "is_disabled": 0, "type": "electric_scooter", "lon": -77.043801, "bike_id": "a3ebeea5b7e7a3339f6619c01535bc90", "fusion_lat": 0.0, "name": "a3ebeea5b7e7a3339f6619c01535bc90", "is_reserved": 0, "rental_uris": {"android": "https://dc.lft.to/lastmile_qr_scan", "ios": "https://dc.lft.to/lastmile_qr_scan"}, "fusion_lon": 0.0}, {"lat": 38.936572166666664, "is_disabled": 0, "type": "electric_bike", "lon": -76.95223633333333, "bike_id": "a5d3db0e622f646f984549389c6b55e2", "fusion_lat": 0.0, "name": "a5d3db0e622f646f984549389c6b55e2", "is_reserved": 0, "rental_uris": {"android": "https://dc.lft.to/lastmile_qr_scan", "ios": "https://dc.lft.to/lastmile_qr_scan"}, "fusion_lon": 0.0}, {"lat": 38.94551233333333, "is_disabled": 0, "type": "electric_bike", "lon": -76.89539866666667, "bike_id": "7bcca249c799340f1f7e33d089e4cea7", "fusion_lat": 0.0, "name": "7bcca249c799340f1f7e33d089e4cea7", "is_reserved": 0, "rental_uris": {"android": "https://dc.lft.to/lastmile_qr_scan", "ios": "https://dc.lft.to/lastmile_qr_scan"}, "fusion_lon": 0.0}, {"lat": 39.0342815, "is_disabled": 0, "type": "electric_bike", "lon": -77.04309333333333, "bike_id": "d56d52e5ab4aab9d2faa97b77e94654c", "fusion_lat": 0.0, "name": "d56d52e5ab4aab9d2faa97b77e94654c", "is_reserved": 0, "rental_uris": {"android": "https://dc.lft.to/lastmile_qr_scan", "ios": "https://dc.lft.to/lastmile_qr_scan"}, "fusion_lon": 0.0}, {"lat": 38.90363116666666, "is_disabled": 0, "type": "electric_scooter", "lon": -77.0385555, "bike_id": "1ac274951de100eab613afc19b1b8037", "fusion_lat": 0.0, "name": "1ac274951de100eab613afc19b1b8037", "is_reserved": 0, "rental_uris": {"android": "https://dc.lft.to/lastmile_qr_scan", "ios": "https://dc.lft.to/lastmile_qr_scan"}, "fusion_lon": 0.0}, {"lat": 38.86256483333333, "is_disabled": 0, "type": "electric_scooter", "lon": -76.99518033333334, "bike_id": "483d4361bb884ca94801391221362f85", "fusion_lat": 0.0, "name": "483d4361bb884ca94801391221362f85", "is_reserved": 0, "rental_uris": {"android": "https://dc.lft.to/lastmile_qr_scan", "ios": "https://dc.lft.to/lastmile_qr_scan"}, "fusion_lon": 0.0}, {"lat": 38.8518855, "is_disabled": 0, "type": "electric_scooter", "lon": -76.976221, "bike_id": "5c46693317caae4da09272d1597451a5", "fusion_lat": 0.0, "name": "5c46693317caae4da09272d1597451a5", "is_reserved": 0, "rental_uris": {"android": "https://dc.lft.to/lastmile_qr_scan", "ios": "https://dc.lft.to/lastmile_qr_scan"}, "fusion_lon": 0.0}, {"lat": 38.9374, "is_disabled": 0, "type": "electric_scooter", "lon": -77.036203, "bike_id": "318b6720947adf6f11a9bb1d7e18d49a", "fusion_lat": 0.0, "name": "318b6720947adf6f11a9bb1d7e18d49a", "is_reserved": 0, "rental_uris": {"android": "https://dc.lft.to/lastmile_qr_scan", "ios": "https://dc.lft.to/lastmile_qr_scan"}, "fusion_lon": 0.0}, {"lat": 38.9259905, "is_disabled": 0, "type": "electric_scooter", "lon": -77.04401316666667, "bike_id": "986e64ac18eb59499d7318ff78363a66", "fusion_lat": 0.0, "name": "986e64ac18eb59499d7318ff78363a66", "is_reserved": 0, "rental_uris": {"android": "https://dc.lft.to/lastmile_qr_scan", "ios": "https://dc.lft.to/lastmile_qr_scan"}, "fusion_lon": 0.0}, {"lat": 38.89851783333334, "is_disabled": 0, "type": "electric_scooter", "lon": -76.99031766666667, "bike_id": "9670d78b8c469e178aa72d61274e98e2", "fusion_lat": 0.0, "name": "9670d78b8c469e178aa72d61274e98e2", "is_reserved": 0, "rental_uris": {"android": "https://dc.lft.to/lastmile_qr_scan", "ios": "https://dc.lft.to/lastmile_qr_scan"}, "fusion_lon": 0.0}, {"lat": 38.8443115, "is_disabled": 0, "type": "electric_scooter", "lon": -76.99659466666667, "bike_id": "5177edb587a24c7389b4dd0e24409783", "fusion_lat": 0.0, "name": "5177edb587a24c7389b4dd0e24409783", "is_reserved": 0, "rental_uris": {"android": "https://dc.lft.to/lastmile_qr_scan", "ios": "https://dc.lft.to/lastmile_qr_scan"}, "fusion_lon": 0.0}, {"lat": 38.90613233333333, "is_disabled": 0, "type": "electric_scooter", "lon": -77.0513095, "bike_id": "f9bb3108094cb592ec3283caff194aa2", "fusion_lat": 0.0, "name": "f9bb3108094cb592ec3283caff194aa2", "is_reserved": 0, "rental_uris": {"android": "https://dc.lft.to/lastmile_qr_scan", "ios": "https://dc.lft.to/lastmile_qr_scan"}, "fusion_lon": 0.0}, {"lat": 38.893964, "is_disabled": 0, "type": "electric_scooter", "lon": -77.05003233333333, "bike_id": "7cf2cb7ec267515abc3d9754f3c7116f", "fusion_lat": 0.0, "name": "7cf2cb7ec267515abc3d9754f3c7116f", "is_reserved": 0, "rental_uris": {"android": "https://dc.lft.to/lastmile_qr_scan", "ios": "https://dc.lft.to/lastmile_qr_scan"}, "fusion_lon": 0.0}, {"lat": 38.91708166666667, "is_disabled": 0, "type": "electric_scooter", "lon": -77.0403305, "bike_id": "173d1f955d5dc6eeeee72483427dce57", "fusion_lat": 0.0, "name": "173d1f955d5dc6eeeee72483427dce57", "is_reserved": 0, "rental_uris": {"android": "https://dc.lft.to/lastmile_qr_scan", "ios": "https://dc.lft.to/lastmile_qr_scan"}, "fusion_lon": 0.0}, {"lat": 38.90083766666667, "is_disabled": 0, "type": "electric_scooter", "lon": -77.00219, "bike_id": "fe1d48bfc0f722e70887f863df35d052", "fusion_lat": 0.0, "name": "fe1d48bfc0f722e70887f863df35d052", "is_reserved": 0, "rental_uris": {"android": "https://dc.lft.to/lastmile_qr_scan", "ios": "https://dc.lft.to/lastmile_qr_scan"}, "fusion_lon": 0.0}, {"lat": 38.828693666666666, "is_disabled": 0, "type": "electric_bike", "lon": -77.1122135, "bike_id": "0a64a93ea1cd2e236148e974c7c79d16", "fusion_lat": 0.0, "name": "0a64a93ea1cd2e236148e974c7c79d16", "is_reserved": 0, "rental_uris": {"android": "https://dc.lft.to/lastmile_qr_scan", "ios": "https://dc.lft.to/lastmile_qr_scan"}, "fusion_lon": 0.0}, {"lat": 38.90553516666667, "is_disabled": 0, "type": "electric_scooter", "lon": -77.0071935, "bike_id": "0add947c24c022e0445e344ac47c8774", "fusion_lat": 0.0, "name": "0add947c24c022e0445e344ac47c8774", "is_reserved": 0, "rental_uris": {"android": "https://dc.lft.to/lastmile_qr_scan", "ios": "https://dc.lft.to/lastmile_qr_scan"}, "fusion_lon": 0.0}, {"lat": 38.92791833333333, "is_disabled": 0, "type": "electric_scooter", "lon": -77.03812666666667, "bike_id": "7b2fa4277a2391cf506352bbba4c71a1", "fusion_lat": 0.0, "name": "7b2fa4277a2391cf506352bbba4c71a1", "is_reserved": 0, "rental_uris": {"android": "https://dc.lft.to/lastmile_qr_scan", "ios": "https://dc.lft.to/lastmile_qr_scan"}, "fusion_lon": 0.0}, {"lat": 38.900401333333335, "is_disabled": 0, "type": "electric_scooter", "lon": -77.0297015, "bike_id": "669663a8a704bb225f289eb8bd5350ee", "fusion_lat": 0.0, "name": "669663a8a704bb225f289eb8bd5350ee", "is_reserved": 0, "rental_uris": {"android": "https://dc.lft.to/lastmile_qr_scan", "ios": "https://dc.lft.to/lastmile_qr_scan"}, "fusion_lon": 0.0}, {"lat": 39.00478416666667, "is_disabled": 0, "type": "electric_bike", "lon": -76.90140283333334, "bike_id": "936e1e2bfcb60d32672b509345f5aa3f", "fusion_lat": 0.0, "name": "936e1e2bfcb60d32672b509345f5aa3f", "is_reserved": 0, "rental_uris": {"android": "https://dc.lft.to/lastmile_qr_scan", "ios": "https://dc.lft.to/lastmile_qr_scan"}, "fusion_lon": 0.0}, {"lat": 38.9276325, "is_disabled": 0, "type": "electric_scooter", "lon": -77.032597, "bike_id": "4e80da79bfd32a8b7f141f7aaab6444e", "fusion_lat": 0.0, "name": "4e80da79bfd32a8b7f141f7aaab6444e", "is_reserved": 0, "rental_uris": {"android": "https://dc.lft.to/lastmile_qr_scan", "ios": "https://dc.lft.to/lastmile_qr_scan"}, "fusion_lon": 0.0}, {"lat": 38.9099055, "is_disabled": 0, "type": "electric_scooter", "lon": -76.99738566666667, "bike_id": "20cd6667d9a9289f2994947e0f83063d", "fusion_lat": 0.0, "name": "20cd6667d9a9289f2994947e0f83063d", "is_reserved": 0, "rental_uris": {"android": "https://dc.lft.to/lastmile_qr_scan", "ios": "https://dc.lft.to/lastmile_qr_scan"}, "fusion_lon": 0.0}, {"lat": 38.92869833333334, "is_disabled": 0, "type": "electric_scooter", "lon": -77.01945883333333, "bike_id": "19485c5814370c808ec6bf221bb9f85f", "fusion_lat": 0.0, "name": "19485c5814370c808ec6bf221bb9f85f", "is_reserved": 0, "rental_uris": {"android": "https://dc.lft.to/lastmile_qr_scan", "ios": "https://dc.lft.to/lastmile_qr_scan"}, "fusion_lon": 0.0}, {"lat": 38.882977833333335, "is_disabled": 0, "type": "electric_scooter", "lon": -77.01745716666667, "bike_id": "a18ebf92a791310fcbf1804f80f9cd1e", "fusion_lat": 0.0, "name": "a18ebf92a791310fcbf1804f80f9cd1e", "is_reserved": 0, "rental_uris": {"android": "https://dc.lft.to/lastmile_qr_scan", "ios": "https://dc.lft.to/lastmile_qr_scan"}, "fusion_lon": 0.0}, {"lat": 38.91046683333333, "is_disabled": 0, "type": "electric_scooter", "lon": -77.043488, "bike_id": "2198e6a32fd180810be246211a96e898", "fusion_lat": 0.0, "name": "2198e6a32fd180810be246211a96e898", "is_reserved": 0, "rental_uris": {"android": "https://dc.lft.to/lastmile_qr_scan", "ios": "https://dc.lft.to/lastmile_qr_scan"}, "fusion_lon": 0.0}, {"lat": 38.92320383333333, "is_disabled": 0, "type": "electric_scooter", "lon": -77.02799966666667, "bike_id": "151bf09b3c6e3f2d66e52e13fd80c6c0", "fusion_lat": 0.0, "name": "151bf09b3c6e3f2d66e52e13fd80c6c0", "is_reserved": 0, "rental_uris": {"android": "https://dc.lft.to/lastmile_qr_scan", "ios": "https://dc.lft.to/lastmile_qr_scan"}, "fusion_lon": 0.0}, {"lat": 38.9182535, "is_disabled": 0, "type": "electric_scooter", "lon": -77.023852, "bike_id": "5b866a64fe6445da652bd3c563271f39", "fusion_lat": 0.0, "name": "5b866a64fe6445da652bd3c563271f39", "is_reserved": 0, "rental_uris": {"android": "https://dc.lft.to/lastmile_qr_scan", "ios": "https://dc.lft.to/lastmile_qr_scan"}, "fusion_lon": 0.0}, {"lat": 38.9358235, "is_disabled": 0, "type": "electric_scooter", "lon": -77.0375685, "bike_id": "8377502b054ca03309166a475833e03d", "fusion_lat": 0.0, "name": "8377502b054ca03309166a475833e03d", "is_reserved": 0, "rental_uris": {"android": "https://dc.lft.to/lastmile_qr_scan", "ios": "https://dc.lft.to/lastmile_qr_scan"}, "fusion_lon": 0.0}, {"lat": 38.882807666666665, "is_disabled": 0, "type": "electric_bike", "lon": -76.932451, "bike_id": "5374ca3ba29e4d7fcfd0b6bdcc36a3b7", "fusion_lat": 0.0, "name": "5374ca3ba29e4d7fcfd0b6bdcc36a3b7", "is_reserved": 0, "rental_uris": {"android": "https://dc.lft.to/lastmile_qr_scan", "ios": "https://dc.lft.to/lastmile_qr_scan"}, "fusion_lon": 0.0}, {"lat": 38.907542666666664, "is_disabled": 0, "type": "electric_scooter", "lon": -77.0416385, "bike_id": "c4e6dec6403224ae5722acb5394829da", "fusion_lat": 0.0, "name": "c4e6dec6403224ae5722acb5394829da", "is_reserved": 0, "rental_uris": {"android": "https://dc.lft.to/lastmile_qr_scan", "ios": "https://dc.lft.to/lastmile_qr_scan"}, "fusion_lon": 0.0}, {"lat": 38.902199333333336, "is_disabled": 0, "type": "electric_scooter", "lon": -77.02160766666667, "bike_id": "26c962ae31b6b228acee1fb0fe86abd2", "fusion_lat": 0.0, "name": "26c962ae31b6b228acee1fb0fe86abd2", "is_reserved": 0, "rental_uris": {"android": "https://dc.lft.to/lastmile_qr_scan", "ios": "https://dc.lft.to/lastmile_qr_scan"}, "fusion_lon": 0.0}, {"lat": 38.899705833333336, "is_disabled": 0, "type": "electric_scooter", "lon": -77.05269783333334, "bike_id": "471cd08c23d8a4105ea1361e0446bb99", "fusion_lat": 0.0, "name": "471cd08c23d8a4105ea1361e0446bb99", "is_reserved": 0, "rental_uris": {"android": "https://dc.lft.to/lastmile_qr_scan", "ios": "https://dc.lft.to/lastmile_qr_scan"}, "fusion_lon": 0.0}, {"lat": 38.9033365, "is_disabled": 0, "type": "electric_scooter", "lon": -76.970593, "bike_id": "cf67339207667daa0599466a8684912e", "fusion_lat": 0.0, "name": "cf67339207667daa0599466a8684912e", "is_reserved": 0, "rental_uris": {"android": "https://dc.lft.to/lastmile_qr_scan", "ios": "https://dc.lft.to/lastmile_qr_scan"}, "fusion_lon": 0.0}, {"lat": 38.915020166666665, "is_disabled": 0, "type": "electric_scooter", "lon": -76.98348966666667, "bike_id": "8fd0ba82f0cb9034f6bc06a12c7d6e13", "fusion_lat": 0.0, "name": "8fd0ba82f0cb9034f6bc06a12c7d6e13", "is_reserved": 0, "rental_uris": {"android": "https://dc.lft.to/lastmile_qr_scan", "ios": "https://dc.lft.to/lastmile_qr_scan"}, "fusion_lon": 0.0}, {"lat": 38.9573285, "is_disabled": 0, "type": "electric_scooter", "lon": -77.02384433333333, "bike_id": "765d2a4e22d054bcb00f82cd3ece8dc8", "fusion_lat": 0.0, "name": "765d2a4e22d054bcb00f82cd3ece8dc8", "is_reserved": 0, "rental_uris": {"android": "https://dc.lft.to/lastmile_qr_scan", "ios": "https://dc.lft.to/lastmile_qr_scan"}, "fusion_lon": 0.0}, {"lat": 38.91562116666667, "is_disabled": 0, "type": "electric_scooter", "lon": -77.0097895, "bike_id": "599fffe65beda3c7ed2e74f6c74ab45d", "fusion_lat": 0.0, "name": "599fffe65beda3c7ed2e74f6c74ab45d", "is_reserved": 0, "rental_uris": {"android": "https://dc.lft.to/lastmile_qr_scan", "ios": "https://dc.lft.to/lastmile_qr_scan"}, "fusion_lon": 0.0}, {"lat": 38.9088195, "is_disabled": 0, "type": "electric_scooter", "lon": -77.03666883333334, "bike_id": "d7300c3b11b1806f4af889b2e82a419f", "fusion_lat": 0.0, "name": "d7300c3b11b1806f4af889b2e82a419f", "is_reserved": 0, "rental_uris": {"android": "https://dc.lft.to/lastmile_qr_scan", "ios": "https://dc.lft.to/lastmile_qr_scan"}, "fusion_lon": 0.0}, {"lat": 38.866124, "is_disabled": 0, "type": "electric_scooter", "lon": -76.98663366666666, "bike_id": "cf72b45a0c5c541392f7aea25c33b319", "fusion_lat": 0.0, "name": "cf72b45a0c5c541392f7aea25c33b319", "is_reserved": 0, "rental_uris": {"android": "https://dc.lft.to/lastmile_qr_scan", "ios": "https://dc.lft.to/lastmile_qr_scan"}, "fusion_lon": 0.0}, {"lat": 38.9119135, "is_disabled": 0, "type": "electric_scooter", "lon": -77.0448155, "bike_id": "2735cb7ef3428e9212595e980ddfb9f8", "fusion_lat": 0.0, "name": "2735cb7ef3428e9212595e980ddfb9f8", "is_reserved": 0, "rental_uris": {"android": "https://dc.lft.to/lastmile_qr_scan", "ios": "https://dc.lft.to/lastmile_qr_scan"}, "fusion_lon": 0.0}, {"lat": 38.901561666666666, "is_disabled": 0, "type": "electric_scooter", "lon": -77.05129516666666, "bike_id": "31ce87ba159ccd98c850c5ec094b9e9d", "fusion_lat": 0.0, "name": "31ce87ba159ccd98c850c5ec094b9e9d", "is_reserved": 0, "rental_uris": {"android": "https://dc.lft.to/lastmile_qr_scan", "ios": "https://dc.lft.to/lastmile_qr_scan"}, "fusion_lon": 0.0}, {"lat": 38.894163666666664, "is_disabled": 0, "type": "electric_scooter", "lon": -77.02091233333333, "bike_id": "aec5d997269321e7752ff964b23e6098", "fusion_lat": 0.0, "name": "aec5d997269321e7752ff964b23e6098", "is_reserved": 0, "rental_uris": {"android": "https://dc.lft.to/lastmile_qr_scan", "ios": "https://dc.lft.to/lastmile_qr_scan"}, "fusion_lon": 0.0}, {"lat": 38.950788333333335, "is_disabled": 0, "type": "electric_bike", "lon": -77.01196883333333, "bike_id": "7d25a2b61089ebb4919badde94a2ec14", "fusion_lat": 0.0, "name": "7d25a2b61089ebb4919badde94a2ec14", "is_reserved": 0, "rental_uris": {"android": "https://dc.lft.to/lastmile_qr_scan", "ios": "https://dc.lft.to/lastmile_qr_scan"}, "fusion_lon": 0.0}, {"lat": 38.905762, "is_disabled": 0, "type": "electric_scooter", "lon": -77.02206033333333, "bike_id": "8316e2be3c2ac7952892e091ecfd4f93", "fusion_lat": 0.0, "name": "8316e2be3c2ac7952892e091ecfd4f93", "is_reserved": 0, "rental_uris": {"android": "https://dc.lft.to/lastmile_qr_scan", "ios": "https://dc.lft.to/lastmile_qr_scan"}, "fusion_lon": 0.0}, {"lat": 38.913410999999996, "is_disabled": 0, "type": "electric_scooter", "lon": -77.01267633333333, "bike_id": "39cef73c84a580444dc45f0a5505adf3", "fusion_lat": 0.0, "name": "39cef73c84a580444dc45f0a5505adf3", "is_reserved": 0, "rental_uris": {"android": "https://dc.lft.to/lastmile_qr_scan", "ios": "https://dc.lft.to/lastmile_qr_scan"}, "fusion_lon": 0.0}, {"lat": 38.90674683333334, "is_disabled": 0, "type": "electric_scooter", "lon": -77.02692316666666, "bike_id": "c99373868563ee91749fd3ac42954ea6", "fusion_lat": 0.0, "name": "c99373868563ee91749fd3ac42954ea6", "is_reserved": 0, "rental_uris": {"android": "https://dc.lft.to/lastmile_qr_scan", "ios": "https://dc.lft.to/lastmile_qr_scan"}, "fusion_lon": 0.0}, {"lat": 38.90263933333333, "is_disabled": 0, "type": "electric_scooter", "lon": -77.02815683333333, "bike_id": "0bd3170e58f71283da384bc594fa678c", "fusion_lat": 0.0, "name": "0bd3170e58f71283da384bc594fa678c", "is_reserved": 0, "rental_uris": {"android": "https://dc.lft.to/lastmile_qr_scan", "ios": "https://dc.lft.to/lastmile_qr_scan"}, "fusion_lon": 0.0}, {"lat": 38.893490166666666, "is_disabled": 0, "type": "electric_scooter", "lon": -77.03990366666666, "bike_id": "9623045b67423bc4824ff0b69966a8fb", "fusion_lat": 0.0, "name": "9623045b67423bc4824ff0b69966a8fb", "is_reserved": 0, "rental_uris": {"android": "https://dc.lft.to/lastmile_qr_scan", "ios": "https://dc.lft.to/lastmile_qr_scan"}, "fusion_lon": 0.0}, {"lat": 38.93196833333333, "is_disabled": 0, "type": "electric_scooter", "lon": -77.02357383333333, "bike_id": "79cfc5f800a40d6be28e9c0a30ac4088", "fusion_lat": 0.0, "name": "79cfc5f800a40d6be28e9c0a30ac4088", "is_reserved": 0, "rental_uris": {"android": "https://dc.lft.to/lastmile_qr_scan", "ios": "https://dc.lft.to/lastmile_qr_scan"}, "fusion_lon": 0.0}, {"lat": 38.886883, "is_disabled": 0, "type": "electric_scooter", "lon": -77.0176655, "bike_id": "eb4e51ef23f0d326e145bafce14b9b95", "fusion_lat": 0.0, "name": "eb4e51ef23f0d326e145bafce14b9b95", "is_reserved": 0, "rental_uris": {"android": "https://dc.lft.to/lastmile_qr_scan", "ios": "https://dc.lft.to/lastmile_qr_scan"}, "fusion_lon": 0.0}, {"lat": 38.892211833333334, "is_disabled": 0, "type": "electric_bike", "lon": -77.10782466666667, "bike_id": "7624b300f4b71d140666a65eec50bc39", "fusion_lat": 0.0, "name": "7624b300f4b71d140666a65eec50bc39", "is_reserved": 0, "rental_uris": {"android": "https://dc.lft.to/lastmile_qr_scan", "ios": "https://dc.lft.to/lastmile_qr_scan"}, "fusion_lon": 0.0}, {"lat": 38.894967, "is_disabled": 0, "type": "electric_scooter", "lon": -77.00208983333333, "bike_id": "db03ab3211d5b014157a58e3e089cb0d", "fusion_lat": 0.0, "name": "db03ab3211d5b014157a58e3e089cb0d", "is_reserved": 0, "rental_uris": {"android": "https://dc.lft.to/lastmile_qr_scan", "ios": "https://dc.lft.to/lastmile_qr_scan"}, "fusion_lon": 0.0}, {"lat": 38.8983805, "is_disabled": 0, "type": "electric_scooter", "lon": -76.99506083333333, "bike_id": "a89fa6b8e821db4f5696094f0fcba582", "fusion_lat": 0.0, "name": "a89fa6b8e821db4f5696094f0fcba582", "is_reserved": 0, "rental_uris": {"android": "https://dc.lft.to/lastmile_qr_scan", "ios": "https://dc.lft.to/lastmile_qr_scan"}, "fusion_lon": 0.0}, {"lat": 38.962224, "is_disabled": 0, "type": "electric_bike", "lon": -77.0263225, "bike_id": "a6c46c28ee9c94ba644668faf3d54d6e", "fusion_lat": 0.0, "name": "a6c46c28ee9c94ba644668faf3d54d6e", "is_reserved": 0, "rental_uris": {"android": "https://dc.lft.to/lastmile_qr_scan", "ios": "https://dc.lft.to/lastmile_qr_scan"}, "fusion_lon": 0.0}, {"lat": 38.901947166666666, "is_disabled": 0, "type": "electric_scooter", "lon": -77.02318216666667, "bike_id": "3dd43a5ba3125b9e5ac729fe6d8aa771", "fusion_lat": 0.0, "name": "3dd43a5ba3125b9e5ac729fe6d8aa771", "is_reserved": 0, "rental_uris": {"android": "https://dc.lft.to/lastmile_qr_scan", "ios": "https://dc.lft.to/lastmile_qr_scan"}, "fusion_lon": 0.0}, {"lat": 38.922462333333335, "is_disabled": 0, "type": "electric_scooter", "lon": -77.04342283333334, "bike_id": "a4ea297fd503b03fd8359a61b23d0c4c", "fusion_lat": 0.0, "name": "a4ea297fd503b03fd8359a61b23d0c4c", "is_reserved": 0, "rental_uris": {"android": "https://dc.lft.to/lastmile_qr_scan", "ios": "https://dc.lft.to/lastmile_qr_scan"}, "fusion_lon": 0.0}, {"lat": 38.9039635, "is_disabled": 0, "type": "electric_scooter", "lon": -76.98466083333334, "bike_id": "225547d02ab66c6913c5ce0c1fec96f3", "fusion_lat": 0.0, "name": "225547d02ab66c6913c5ce0c1fec96f3", "is_reserved": 0, "rental_uris": {"android": "https://dc.lft.to/lastmile_qr_scan", "ios": "https://dc.lft.to/lastmile_qr_scan"}, "fusion_lon": 0.0}, {"lat": 38.90848033333333, "is_disabled": 0, "type": "electric_scooter", "lon": -77.00377033333334, "bike_id": "524c6e2eb3725247d426018381af7daa", "fusion_lat": 0.0, "name": "524c6e2eb3725247d426018381af7daa", "is_reserved": 0, "rental_uris": {"android": "https://dc.lft.to/lastmile_qr_scan", "ios": "https://dc.lft.to/lastmile_qr_scan"}, "fusion_lon": 0.0}, {"lat": 38.845072333333334, "is_disabled": 0, "type": "electric_bike", "lon": -76.99354316666667, "bike_id": "4d083a22ce9fb32cd75608594409b4d4", "fusion_lat": 0.0, "name": "4d083a22ce9fb32cd75608594409b4d4", "is_reserved": 0, "rental_uris": {"android": "https://dc.lft.to/lastmile_qr_scan", "ios": "https://dc.lft.to/lastmile_qr_scan"}, "fusion_lon": 0.0}, {"lat": 38.896536833333336, "is_disabled": 0, "type": "electric_scooter", "lon": -77.00523016666666, "bike_id": "a2920c92be864fce70580823785c8bbf", "fusion_lat": 0.0, "name": "a2920c92be864fce70580823785c8bbf", "is_reserved": 0, "rental_uris": {"android": "https://dc.lft.to/lastmile_qr_scan", "ios": "https://dc.lft.to/lastmile_qr_scan"}, "fusion_lon": 0.0}, {"lat": 38.91108916666666, "is_disabled": 0, "type": "electric_scooter", "lon": -77.04530833333334, "bike_id": "d5a8882c525a137c9df2a6190e42e053", "fusion_lat": 0.0, "name": "d5a8882c525a137c9df2a6190e42e053", "is_reserved": 0, "rental_uris": {"android": "https://dc.lft.to/lastmile_qr_scan", "ios": "https://dc.lft.to/lastmile_qr_scan"}, "fusion_lon": 0.0}, {"lat": 38.9391265, "is_disabled": 0, "type": "electric_scooter", "lon": -77.06674583333333, "bike_id": "38f2a2a2abe1329bf16974cea60cd93e", "fusion_lat": 0.0, "name": "38f2a2a2abe1329bf16974cea60cd93e", "is_reserved": 0, "rental_uris": {"android": "https://dc.lft.to/lastmile_qr_scan", "ios": "https://dc.lft.to/lastmile_qr_scan"}, "fusion_lon": 0.0}, {"lat": 38.90584116666667, "is_disabled": 0, "type": "electric_scooter", "lon": -76.98620633333333, "bike_id": "8b0af88c35168922ab270448961fddc2", "fusion_lat": 0.0, "name": "8b0af88c35168922ab270448961fddc2", "is_reserved": 0, "rental_uris": {"android": "https://dc.lft.to/lastmile_qr_scan", "ios": "https://dc.lft.to/lastmile_qr_scan"}, "fusion_lon": 0.0}, {"lat": 38.867067, "is_disabled": 0, "type": "electric_scooter", "lon": -76.98729866666666, "bike_id": "5fefa533daa313bde02e05d0628e1e77", "fusion_lat": 0.0, "name": "5fefa533daa313bde02e05d0628e1e77", "is_reserved": 0, "rental_uris": {"android": "https://dc.lft.to/lastmile_qr_scan", "ios": "https://dc.lft.to/lastmile_qr_scan"}, "fusion_lon": 0.0}, {"lat": 38.91875833333334, "is_disabled": 0, "type": "electric_scooter", "lon": -77.03503033333334, "bike_id": "a8ee3c96d70739fed0ba8a3412f965c3", "fusion_lat": 0.0, "name": "a8ee3c96d70739fed0ba8a3412f965c3", "is_reserved": 0, "rental_uris": {"android": "https://dc.lft.to/lastmile_qr_scan", "ios": "https://dc.lft.to/lastmile_qr_scan"}, "fusion_lon": 0.0}, {"lat": 38.921272, "is_disabled": 0, "type": "electric_scooter", "lon": -77.04572566666667, "bike_id": "48d34d41f5fee9ef23cdf41bb723c7c2", "fusion_lat": 0.0, "name": "48d34d41f5fee9ef23cdf41bb723c7c2", "is_reserved": 0, "rental_uris": {"android": "https://dc.lft.to/lastmile_qr_scan", "ios": "https://dc.lft.to/lastmile_qr_scan"}, "fusion_lon": 0.0}, {"lat": 38.90863066666667, "is_disabled": 0, "type": "electric_bike", "lon": -76.94012183333334, "bike_id": "6827d09d4b2025c38c6c7458ba499b73", "fusion_lat": 0.0, "name": "6827d09d4b2025c38c6c7458ba499b73", "is_reserved": 0, "rental_uris": {"android": "https://dc.lft.to/lastmile_qr_scan", "ios": "https://dc.lft.to/lastmile_qr_scan"}, "fusion_lon": 0.0}, {"lat": 38.899871833333336, "is_disabled": 0, "type": "electric_scooter", "lon": -77.02138466666666, "bike_id": "9521b0694e73e5c251b00846e84dd334", "fusion_lat": 0.0, "name": "9521b0694e73e5c251b00846e84dd334", "is_reserved": 0, "rental_uris": {"android": "https://dc.lft.to/lastmile_qr_scan", "ios": "https://dc.lft.to/lastmile_qr_scan"}, "fusion_lon": 0.0}, {"lat": 38.99341533333333, "is_disabled": 0, "type": "electric_bike", "lon": -77.03298683333334, "bike_id": "a533d198e980e7b3998eb62cef7425ed", "fusion_lat": 0.0, "name": "a533d198e980e7b3998eb62cef7425ed", "is_reserved": 0, "rental_uris": {"android": "https://dc.lft.to/lastmile_qr_scan", "ios": "https://dc.lft.to/lastmile_qr_scan"}, "fusion_lon": 0.0}, {"lat": 38.873379166666666, "is_disabled": 0, "type": "electric_bike", "lon": -77.0185715, "bike_id": "da7eabfc822a2fda647a94bba05b6ec0", "fusion_lat": 0.0, "name": "da7eabfc822a2fda647a94bba05b6ec0", "is_reserved": 0, "rental_uris": {"android": "https://dc.lft.to/lastmile_qr_scan", "ios": "https://dc.lft.to/lastmile_qr_scan"}, "fusion_lon": 0.0}, {"lat": 38.90262633333333, "is_disabled": 0, "type": "electric_scooter", "lon": -76.986962, "bike_id": "ae463e3dcb13057fece4460ffa3bbd69", "fusion_lat": 0.0, "name": "ae463e3dcb13057fece4460ffa3bbd69", "is_reserved": 0, "rental_uris": {"android": "https://dc.lft.to/lastmile_qr_scan", "ios": "https://dc.lft.to/lastmile_qr_scan"}, "fusion_lon": 0.0}, {"lat": 38.903482333333336, "is_disabled": 0, "type": "electric_scooter", "lon": -77.029812, "bike_id": "70232c5bd301981862567e89758c8f2e", "fusion_lat": 0.0, "name": "70232c5bd301981862567e89758c8f2e", "is_reserved": 0, "rental_uris": {"android": "https://dc.lft.to/lastmile_qr_scan", "ios": "https://dc.lft.to/lastmile_qr_scan"}, "fusion_lon": 0.0}, {"lat": 38.9006995, "is_disabled": 0, "type": "electric_scooter", "lon": -77.0022135, "bike_id": "6bdfd7e93016142dd04781499a49456d", "fusion_lat": 0.0, "name": "6bdfd7e93016142dd04781499a49456d", "is_reserved": 0, "rental_uris": {"android": "https://dc.lft.to/lastmile_qr_scan", "ios": "https://dc.lft.to/lastmile_qr_scan"}, "fusion_lon": 0.0}, {"lat": 38.8998055, "is_disabled": 0, "type": "electric_scooter", "lon": -77.05264966666667, "bike_id": "f7431ffe22b4fa3d1021f9e70127646c", "fusion_lat": 0.0, "name": "f7431ffe22b4fa3d1021f9e70127646c", "is_reserved": 0, "rental_uris": {"android": "https://dc.lft.to/lastmile_qr_scan", "ios": "https://dc.lft.to/lastmile_qr_scan"}, "fusion_lon": 0.0}, {"lat": 38.904141333333335, "is_disabled": 0, "type": "electric_scooter", "lon": -76.992884, "bike_id": "51d7cc2e07dee90589b0517861495b71", "fusion_lat": 0.0, "name": "51d7cc2e07dee90589b0517861495b71", "is_reserved": 0, "rental_uris": {"android": "https://dc.lft.to/lastmile_qr_scan", "ios": "https://dc.lft.to/lastmile_qr_scan"}, "fusion_lon": 0.0}, {"lat": 38.91708466666667, "is_disabled": 0, "type": "electric_scooter", "lon": -77.03477883333333, "bike_id": "482e43099a7b6c31d0691269946b4050", "fusion_lat": 0.0, "name": "482e43099a7b6c31d0691269946b4050", "is_reserved": 0, "rental_uris": {"android": "https://dc.lft.to/lastmile_qr_scan", "ios": "https://dc.lft.to/lastmile_qr_scan"}, "fusion_lon": 0.0}, {"lat": 38.886743333333335, "is_disabled": 0, "type": "electric_scooter", "lon": -77.01370183333333, "bike_id": "d7eb3063fc3fb3cde5d2e77c184d9518", "fusion_lat": 0.0, "name": "d7eb3063fc3fb3cde5d2e77c184d9518", "is_reserved": 0, "rental_uris": {"android": "https://dc.lft.to/lastmile_qr_scan", "ios": "https://dc.lft.to/lastmile_qr_scan"}, "fusion_lon": 0.0}, {"lat": 38.8849135, "is_disabled": 0, "type": "electric_scooter", "lon": -77.00706766666667, "bike_id": "4e75a991d5605d796e979c97117c503f", "fusion_lat": 0.0, "name": "4e75a991d5605d796e979c97117c503f", "is_reserved": 0, "rental_uris": {"android": "https://dc.lft.to/lastmile_qr_scan", "ios": "https://dc.lft.to/lastmile_qr_scan"}, "fusion_lon": 0.0}, {"lat": 38.866520333333334, "is_disabled": 0, "type": "electric_scooter", "lon": -76.98887633333334, "bike_id": "60836e49539fd9c43717ba1447edef79", "fusion_lat": 0.0, "name": "60836e49539fd9c43717ba1447edef79", "is_reserved": 0, "rental_uris": {"android": "https://dc.lft.to/lastmile_qr_scan", "ios": "https://dc.lft.to/lastmile_qr_scan"}, "fusion_lon": 0.0}, {"lat": 38.9191075, "is_disabled": 0, "type": "electric_scooter", "lon": -77.041816, "bike_id": "84e34a14698ed9cf2ad7cedaf10ed564", "fusion_lat": 0.0, "name": "84e34a14698ed9cf2ad7cedaf10ed564", "is_reserved": 0, "rental_uris": {"android": "https://dc.lft.to/lastmile_qr_scan", "ios": "https://dc.lft.to/lastmile_qr_scan"}, "fusion_lon": 0.0}, {"lat": 38.80056183333333, "is_disabled": 0, "type": "electric_bike", "lon": -77.07117616666666, "bike_id": "7514f44e2aeb53d7ec01177e4d97594d", "fusion_lat": 0.0, "name": "7514f44e2aeb53d7ec01177e4d97594d", "is_reserved": 0, "rental_uris": {"android": "https://dc.lft.to/lastmile_qr_scan", "ios": "https://dc.lft.to/lastmile_qr_scan"}, "fusion_lon": 0.0}, {"lat": 38.931406333333335, "is_disabled": 0, "type": "electric_scooter", "lon": -77.04143883333333, "bike_id": "08df097511ba225788a9c61831a7ab13", "fusion_lat": 0.0, "name": "08df097511ba225788a9c61831a7ab13", "is_reserved": 0, "rental_uris": {"android": "https://dc.lft.to/lastmile_qr_scan", "ios": "https://dc.lft.to/lastmile_qr_scan"}, "fusion_lon": 0.0}, {"lat": 38.923125166666665, "is_disabled": 0, "type": "electric_scooter", "lon": -77.03971116666666, "bike_id": "fd2efa4e72729fbf0cb92e3b58e580f8", "fusion_lat": 0.0, "name": "fd2efa4e72729fbf0cb92e3b58e580f8", "is_reserved": 0, "rental_uris": {"android": "https://dc.lft.to/lastmile_qr_scan", "ios": "https://dc.lft.to/lastmile_qr_scan"}, "fusion_lon": 0.0}, {"lat": 38.86652183333333, "is_disabled": 0, "type": "electric_scooter", "lon": -76.98883833333333, "bike_id": "47dc96e50fe4031dd441c8b741d0c427", "fusion_lat": 0.0, "name": "47dc96e50fe4031dd441c8b741d0c427", "is_reserved": 0, "rental_uris": {"android": "https://dc.lft.to/lastmile_qr_scan", "ios": "https://dc.lft.to/lastmile_qr_scan"}, "fusion_lon": 0.0}, {"lat": 38.905707666666665, "is_disabled": 0, "type": "electric_scooter", "lon": -77.02950966666667, "bike_id": "7c9973c2d10e36cb028fb931486775a9", "fusion_lat": 0.0, "name": "7c9973c2d10e36cb028fb931486775a9", "is_reserved": 0, "rental_uris": {"android": "https://dc.lft.to/lastmile_qr_scan", "ios": "https://dc.lft.to/lastmile_qr_scan"}, "fusion_lon": 0.0}, {"lat": 38.913572, "is_disabled": 0, "type": "electric_scooter", "lon": -77.06928033333334, "bike_id": "1d70c480594e69498382cbba25478cea", "fusion_lat": 0.0, "name": "1d70c480594e69498382cbba25478cea", "is_reserved": 0, "rental_uris": {"android": "https://dc.lft.to/lastmile_qr_scan", "ios": "https://dc.lft.to/lastmile_qr_scan"}, "fusion_lon": 0.0}, {"lat": 38.905771333333334, "is_disabled": 0, "type": "electric_scooter", "lon": -77.02203916666667, "bike_id": "3bd4e6f3ef8122204667204dc54acb6c", "fusion_lat": 0.0, "name": "3bd4e6f3ef8122204667204dc54acb6c", "is_reserved": 0, "rental_uris": {"android": "https://dc.lft.to/lastmile_qr_scan", "ios": "https://dc.lft.to/lastmile_qr_scan"}, "fusion_lon": 0.0}, {"lat": 38.921602, "is_disabled": 0, "type": "electric_scooter", "lon": -77.03350133333333, "bike_id": "ec2e432e6dd344de115c2f28fa88b04c", "fusion_lat": 0.0, "name": "ec2e432e6dd344de115c2f28fa88b04c", "is_reserved": 0, "rental_uris": {"android": "https://dc.lft.to/lastmile_qr_scan", "ios": "https://dc.lft.to/lastmile_qr_scan"}, "fusion_lon": 0.0}, {"lat": 38.84290433333334, "is_disabled": 0, "type": "electric_scooter", "lon": -76.99948433333333, "bike_id": "eb986d254b56cdb20eea7638a57c6691", "fusion_lat": 0.0, "name": "eb986d254b56cdb20eea7638a57c6691", "is_reserved": 0, "rental_uris": {"android": "https://dc.lft.to/lastmile_qr_scan", "ios": "https://dc.lft.to/lastmile_qr_scan"}, "fusion_lon": 0.0}, {"lat": 38.923661333333335, "is_disabled": 0, "type": "electric_scooter", "lon": -77.0292375, "bike_id": "8550d7bbe315d7ad97d28121a513a9a7", "fusion_lat": 0.0, "name": "8550d7bbe315d7ad97d28121a513a9a7", "is_reserved": 0, "rental_uris": {"android": "https://dc.lft.to/lastmile_qr_scan", "ios": "https://dc.lft.to/lastmile_qr_scan"}, "fusion_lon": 0.0}, {"lat": 38.901720166666664, "is_disabled": 0, "type": "electric_scooter", "lon": -77.03327983333334, "bike_id": "f9fd536d93958e7bc21d7a5b99bad326", "fusion_lat": 0.0, "name": "f9fd536d93958e7bc21d7a5b99bad326", "is_reserved": 0, "rental_uris": {"android": "https://dc.lft.to/lastmile_qr_scan", "ios": "https://dc.lft.to/lastmile_qr_scan"}, "fusion_lon": 0.0}, {"lat": 38.877785333333335, "is_disabled": 0, "type": "electric_scooter", "lon": -76.99511733333334, "bike_id": "3968fa0faea2c2b366cfa1f514e94357", "fusion_lat": 0.0, "name": "3968fa0faea2c2b366cfa1f514e94357", "is_reserved": 0, "rental_uris": {"android": "https://dc.lft.to/lastmile_qr_scan", "ios": "https://dc.lft.to/lastmile_qr_scan"}, "fusion_lon": 0.0}, {"lat": 38.906145, "is_disabled": 0, "type": "electric_bike", "lon": -77.04125783333333, "bike_id": "f58ac10ac408c89d74adac31060347b3", "fusion_lat": 0.0, "name": "f58ac10ac408c89d74adac31060347b3", "is_reserved": 0, "rental_uris": {"android": "https://dc.lft.to/lastmile_qr_scan", "ios": "https://dc.lft.to/lastmile_qr_scan"}, "fusion_lon": 0.0}, {"lat": 38.926139666666664, "is_disabled": 0, "type": "electric_scooter", "lon": -77.02164816666667, "bike_id": "e62eb75f476b726fe9a7ed2da5609fee", "fusion_lat": 0.0, "name": "e62eb75f476b726fe9a7ed2da5609fee", "is_reserved": 0, "rental_uris": {"android": "https://dc.lft.to/lastmile_qr_scan", "ios": "https://dc.lft.to/lastmile_qr_scan"}, "fusion_lon": 0.0}, {"lat": 38.88488733333333, "is_disabled": 0, "type": "electric_scooter", "lon": -77.00708966666667, "bike_id": "a58952ecd3bb175b8ccb0b60acc4e811", "fusion_lat": 0.0, "name": "a58952ecd3bb175b8ccb0b60acc4e811", "is_reserved": 0, "rental_uris": {"android": "https://dc.lft.to/lastmile_qr_scan", "ios": "https://dc.lft.to/lastmile_qr_scan"}, "fusion_lon": 0.0}, {"lat": 38.9349555, "is_disabled": 0, "type": "electric_scooter", "lon": -77.036234, "bike_id": "0bceffe18a1c094218dd8a01f917eca0", "fusion_lat": 0.0, "name": "0bceffe18a1c094218dd8a01f917eca0", "is_reserved": 0, "rental_uris": {"android": "https://dc.lft.to/lastmile_qr_scan", "ios": "https://dc.lft.to/lastmile_qr_scan"}, "fusion_lon": 0.0}, {"lat": 38.906172833333336, "is_disabled": 0, "type": "electric_scooter", "lon": -77.07026133333333, "bike_id": "9a5a3883bfd5864644685c5db3bddcf9", "fusion_lat": 0.0, "name": "9a5a3883bfd5864644685c5db3bddcf9", "is_reserved": 0, "rental_uris": {"android": "https://dc.lft.to/lastmile_qr_scan", "ios": "https://dc.lft.to/lastmile_qr_scan"}, "fusion_lon": 0.0}, {"lat": 38.90979383333333, "is_disabled": 0, "type": "electric_scooter", "lon": -77.03445533333333, "bike_id": "b4a46f5301c91ce8a44cda713b2f48cf", "fusion_lat": 0.0, "name": "b4a46f5301c91ce8a44cda713b2f48cf", "is_reserved": 0, "rental_uris": {"android": "https://dc.lft.to/lastmile_qr_scan", "ios": "https://dc.lft.to/lastmile_qr_scan"}, "fusion_lon": 0.0}, {"lat": 38.89729416666667, "is_disabled": 0, "type": "electric_scooter", "lon": -77.0499805, "bike_id": "f525740786765c81b9b0b2a37d289d79", "fusion_lat": 0.0, "name": "f525740786765c81b9b0b2a37d289d79", "is_reserved": 0, "rental_uris": {"android": "https://dc.lft.to/lastmile_qr_scan", "ios": "https://dc.lft.to/lastmile_qr_scan"}, "fusion_lon": 0.0}, {"lat": 38.99411216666667, "is_disabled": 0, "type": "electric_bike", "lon": -77.03190716666667, "bike_id": "70f1d2a3140e579389a329688b134a07", "fusion_lat": 0.0, "name": "70f1d2a3140e579389a329688b134a07", "is_reserved": 0, "rental_uris": {"android": "https://dc.lft.to/lastmile_qr_scan", "ios": "https://dc.lft.to/lastmile_qr_scan"}, "fusion_lon": 0.0}, {"lat": 38.90010083333333, "is_disabled": 0, "type": "electric_scooter", "lon": -77.01205866666666, "bike_id": "6af937b28619ec2be2214c241b098a26", "fusion_lat": 0.0, "name": "6af937b28619ec2be2214c241b098a26", "is_reserved": 0, "rental_uris": {"android": "https://dc.lft.to/lastmile_qr_scan", "ios": "https://dc.lft.to/lastmile_qr_scan"}, "fusion_lon": 0.0}, {"lat": 38.92572766666667, "is_disabled": 0, "type": "electric_scooter", "lon": -76.986084, "bike_id": "d8c0fbbe3689d35b70eb84d64d47fd4e", "fusion_lat": 0.0, "name": "d8c0fbbe3689d35b70eb84d64d47fd4e", "is_reserved": 0, "rental_uris": {"android": "https://dc.lft.to/lastmile_qr_scan", "ios": "https://dc.lft.to/lastmile_qr_scan"}, "fusion_lon": 0.0}, {"lat": 38.88532933333333, "is_disabled": 0, "type": "electric_scooter", "lon": -76.98263033333333, "bike_id": "5b81a5517fb188fdcf7adb0a8affe2d4", "fusion_lat": 0.0, "name": "5b81a5517fb188fdcf7adb0a8affe2d4", "is_reserved": 0, "rental_uris": {"android": "https://dc.lft.to/lastmile_qr_scan", "ios": "https://dc.lft.to/lastmile_qr_scan"}, "fusion_lon": 0.0}, {"lat": 38.9338385, "is_disabled": 0, "type": "electric_scooter", "lon": -76.9951565, "bike_id": "c2e868183e3e71883db5b20a7b6ac328", "fusion_lat": 0.0, "name": "c2e868183e3e71883db5b20a7b6ac328", "is_reserved": 0, "rental_uris": {"android": "https://dc.lft.to/lastmile_qr_scan", "ios": "https://dc.lft.to/lastmile_qr_scan"}, "fusion_lon": 0.0}, {"lat": 38.917652833333335, "is_disabled": 0, "type": "electric_scooter", "lon": -77.044264, "bike_id": "2035e6fb0cfb5da6be7ae1af35ff3166", "fusion_lat": 0.0, "name": "2035e6fb0cfb5da6be7ae1af35ff3166", "is_reserved": 0, "rental_uris": {"android": "https://dc.lft.to/lastmile_qr_scan", "ios": "https://dc.lft.to/lastmile_qr_scan"}, "fusion_lon": 0.0}, {"lat": 38.92450933333333, "is_disabled": 0, "type": "electric_scooter", "lon": -77.03975316666667, "bike_id": "afdeafc7f640a8e47755c5620435e2ad", "fusion_lat": 0.0, "name": "afdeafc7f640a8e47755c5620435e2ad", "is_reserved": 0, "rental_uris": {"android": "https://dc.lft.to/lastmile_qr_scan", "ios": "https://dc.lft.to/lastmile_qr_scan"}, "fusion_lon": 0.0}, {"lat": 38.89693883333333, "is_disabled": 0, "type": "electric_scooter", "lon": -77.02227333333333, "bike_id": "2d285723dc970024c250a67bde3df885", "fusion_lat": 0.0, "name": "2d285723dc970024c250a67bde3df885", "is_reserved": 0, "rental_uris": {"android": "https://dc.lft.to/lastmile_qr_scan", "ios": "https://dc.lft.to/lastmile_qr_scan"}, "fusion_lon": 0.0}, {"lat": 38.92795383333333, "is_disabled": 0, "type": "electric_scooter", "lon": -77.02604216666667, "bike_id": "565524c6f6ef59a4377a489b61c61389", "fusion_lat": 0.0, "name": "565524c6f6ef59a4377a489b61c61389", "is_reserved": 0, "rental_uris": {"android": "https://dc.lft.to/lastmile_qr_scan", "ios": "https://dc.lft.to/lastmile_qr_scan"}, "fusion_lon": 0.0}, {"lat": 38.93275216666667, "is_disabled": 0, "type": "electric_scooter", "lon": -77.02672283333334, "bike_id": "939b212e139b90304cf5ef39ff87218b", "fusion_lat": 0.0, "name": "939b212e139b90304cf5ef39ff87218b", "is_reserved": 0, "rental_uris": {"android": "https://dc.lft.to/lastmile_qr_scan", "ios": "https://dc.lft.to/lastmile_qr_scan"}, "fusion_lon": 0.0}, {"lat": 38.80228816666666, "is_disabled": 0, "type": "electric_bike", "lon": -77.07917816666667, "bike_id": "4fd2a7dd66f0857271bd778d621fe79f", "fusion_lat": 0.0, "name": "4fd2a7dd66f0857271bd778d621fe79f", "is_reserved": 0, "rental_uris": {"android": "https://dc.lft.to/lastmile_qr_scan", "ios": "https://dc.lft.to/lastmile_qr_scan"}, "fusion_lon": 0.0}, {"lat": 38.920972, "is_disabled": 0, "type": "electric_scooter", "lon": -77.0468675, "bike_id": "5397ba86c3e7e8d1b7fe494c7397dbb9", "fusion_lat": 0.0, "name": "5397ba86c3e7e8d1b7fe494c7397dbb9", "is_reserved": 0, "rental_uris": {"android": "https://dc.lft.to/lastmile_qr_scan", "ios": "https://dc.lft.to/lastmile_qr_scan"}, "fusion_lon": 0.0}, {"lat": 38.86367933333333, "is_disabled": 0, "type": "electric_scooter", "lon": -76.99028283333334, "bike_id": "fbc016dff4085b42894be2a8ea59d5c2", "fusion_lat": 0.0, "name": "fbc016dff4085b42894be2a8ea59d5c2", "is_reserved": 0, "rental_uris": {"android": "https://dc.lft.to/lastmile_qr_scan", "ios": "https://dc.lft.to/lastmile_qr_scan"}, "fusion_lon": 0.0}, {"lat": 38.92082083333333, "is_disabled": 0, "type": "electric_scooter", "lon": -77.04199266666667, "bike_id": "f4fc2a796c328fab89d5739af9e973b1", "fusion_lat": 0.0, "name": "f4fc2a796c328fab89d5739af9e973b1", "is_reserved": 0, "rental_uris": {"android": "https://dc.lft.to/lastmile_qr_scan", "ios": "https://dc.lft.to/lastmile_qr_scan"}, "fusion_lon": 0.0}, {"lat": 38.91748483333333, "is_disabled": 0, "type": "electric_scooter", "lon": -77.036068, "bike_id": "7ca309cf6687414ce35b51f58e91dcc2", "fusion_lat": 0.0, "name": "7ca309cf6687414ce35b51f58e91dcc2", "is_reserved": 0, "rental_uris": {"android": "https://dc.lft.to/lastmile_qr_scan", "ios": "https://dc.lft.to/lastmile_qr_scan"}, "fusion_lon": 0.0}, {"lat": 38.89851083333333, "is_disabled": 0, "type": "electric_scooter", "lon": -76.98182233333333, "bike_id": "8d2ad4e45a759bff396a1c5e8088c252", "fusion_lat": 0.0, "name": "8d2ad4e45a759bff396a1c5e8088c252", "is_reserved": 0, "rental_uris": {"android": "https://dc.lft.to/lastmile_qr_scan", "ios": "https://dc.lft.to/lastmile_qr_scan"}, "fusion_lon": 0.0}, {"lat": 38.92249616666667, "is_disabled": 0, "type": "electric_scooter", "lon": -77.030855, "bike_id": "9183f8d6fd0b4a56d4694c213ede2cce", "fusion_lat": 0.0, "name": "9183f8d6fd0b4a56d4694c213ede2cce", "is_reserved": 0, "rental_uris": {"android": "https://dc.lft.to/lastmile_qr_scan", "ios": "https://dc.lft.to/lastmile_qr_scan"}, "fusion_lon": 0.0}, {"lat": 38.92599716666667, "is_disabled": 0, "type": "electric_scooter", "lon": -77.05696616666667, "bike_id": "cfdbea4ba5ef8178aae3fca9b5e481a1", "fusion_lat": 0.0, "name": "cfdbea4ba5ef8178aae3fca9b5e481a1", "is_reserved": 0, "rental_uris": {"android": "https://dc.lft.to/lastmile_qr_scan", "ios": "https://dc.lft.to/lastmile_qr_scan"}, "fusion_lon": 0.0}, {"lat": 38.937391833333336, "is_disabled": 0, "type": "electric_scooter", "lon": -77.03470966666667, "bike_id": "df4676fc17b88e7f7326a0384c3959f6", "fusion_lat": 0.0, "name": "df4676fc17b88e7f7326a0384c3959f6", "is_reserved": 0, "rental_uris": {"android": "https://dc.lft.to/lastmile_qr_scan", "ios": "https://dc.lft.to/lastmile_qr_scan"}, "fusion_lon": 0.0}, {"lat": 38.9540235, "is_disabled": 0, "type": "electric_scooter", "lon": -77.02747883333333, "bike_id": "cc5d20ce1bbb57a192d21dd0e79e4f66", "fusion_lat": 0.0, "name": "cc5d20ce1bbb57a192d21dd0e79e4f66", "is_reserved": 0, "rental_uris": {"android": "https://dc.lft.to/lastmile_qr_scan", "ios": "https://dc.lft.to/lastmile_qr_scan"}, "fusion_lon": 0.0}, {"lat": 38.9097495, "is_disabled": 0, "type": "electric_scooter", "lon": -77.03396416666666, "bike_id": "a72620742a63c96b791b8df8969e07a7", "fusion_lat": 0.0, "name": "a72620742a63c96b791b8df8969e07a7", "is_reserved": 0, "rental_uris": {"android": "https://dc.lft.to/lastmile_qr_scan", "ios": "https://dc.lft.to/lastmile_qr_scan"}, "fusion_lon": 0.0}, {"lat": 38.9218515, "is_disabled": 0, "type": "electric_scooter", "lon": -77.04712783333333, "bike_id": "ac492b1ef62998edf0ee4421164a0c67", "fusion_lat": 0.0, "name": "ac492b1ef62998edf0ee4421164a0c67", "is_reserved": 0, "rental_uris": {"android": "https://dc.lft.to/lastmile_qr_scan", "ios": "https://dc.lft.to/lastmile_qr_scan"}, "fusion_lon": 0.0}, {"lat": 38.885757, "is_disabled": 0, "type": "electric_scooter", "lon": -76.919122, "bike_id": "6b3184048c5a86febfff9335d41b7765", "fusion_lat": 0.0, "name": "6b3184048c5a86febfff9335d41b7765", "is_reserved": 0, "rental_uris": {"android": "https://dc.lft.to/lastmile_qr_scan", "ios": "https://dc.lft.to/lastmile_qr_scan"}, "fusion_lon": 0.0}, {"lat": 38.92740933333333, "is_disabled": 0, "type": "electric_scooter", "lon": -77.02587533333333, "bike_id": "dc7dd999db07caba1cf4e8593b71d9d3", "fusion_lat": 0.0, "name": "dc7dd999db07caba1cf4e8593b71d9d3", "is_reserved": 0, "rental_uris": {"android": "https://dc.lft.to/lastmile_qr_scan", "ios": "https://dc.lft.to/lastmile_qr_scan"}, "fusion_lon": 0.0}, {"lat": 38.943061, "is_disabled": 0, "type": "electric_scooter", "lon": -77.05932866666667, "bike_id": "dec3a0855a668fd08ef3bdee34bf8427", "fusion_lat": 0.0, "name": "dec3a0855a668fd08ef3bdee34bf8427", "is_reserved": 0, "rental_uris": {"android": "https://dc.lft.to/lastmile_qr_scan", "ios": "https://dc.lft.to/lastmile_qr_scan"}, "fusion_lon": 0.0}, {"lat": 38.855114666666665, "is_disabled": 0, "type": "electric_bike", "lon": -77.12027916666666, "bike_id": "ce6c3e14e89684237786e3820388acbb", "fusion_lat": 0.0, "name": "ce6c3e14e89684237786e3820388acbb", "is_reserved": 0, "rental_uris": {"android": "https://dc.lft.to/lastmile_qr_scan", "ios": "https://dc.lft.to/lastmile_qr_scan"}, "fusion_lon": 0.0}, {"lat": 38.927845833333336, "is_disabled": 0, "type": "electric_bike", "lon": -76.9722295, "bike_id": "21f8e330b35558c386e2cd80a2931d34", "fusion_lat": 0.0, "name": "21f8e330b35558c386e2cd80a2931d34", "is_reserved": 0, "rental_uris": {"android": "https://dc.lft.to/lastmile_qr_scan", "ios": "https://dc.lft.to/lastmile_qr_scan"}, "fusion_lon": 0.0}, {"lat": 38.92451966666667, "is_disabled": 0, "type": "electric_scooter", "lon": -77.02032183333333, "bike_id": "db3bd6539323e30ca5216f2e36cba001", "fusion_lat": 0.0, "name": "db3bd6539323e30ca5216f2e36cba001", "is_reserved": 0, "rental_uris": {"android": "https://dc.lft.to/lastmile_qr_scan", "ios": "https://dc.lft.to/lastmile_qr_scan"}, "fusion_lon": 0.0}, {"lat": 38.890360666666666, "is_disabled": 0, "type": "electric_scooter", "lon": -77.02978966666667, "bike_id": "83ec16c6d7f16c1dd1f5710022e0d1d9", "fusion_lat": 0.0, "name": "83ec16c6d7f16c1dd1f5710022e0d1d9", "is_reserved": 0, "rental_uris": {"android": "https://dc.lft.to/lastmile_qr_scan", "ios": "https://dc.lft.to/lastmile_qr_scan"}, "fusion_lon": 0.0}, {"lat": 38.88501866666667, "is_disabled": 0, "type": "electric_scooter", "lon": -77.00567316666667, "bike_id": "a947f47f0a3f55e0f37ef5f45db978c9", "fusion_lat": 0.0, "name": "a947f47f0a3f55e0f37ef5f45db978c9", "is_reserved": 0, "rental_uris": {"android": "https://dc.lft.to/lastmile_qr_scan", "ios": "https://dc.lft.to/lastmile_qr_scan"}, "fusion_lon": 0.0}, {"lat": 38.85445833333333, "is_disabled": 0, "type": "electric_scooter", "lon": -76.9723005, "bike_id": "153876e00bcf102184db2cb1abc16c24", "fusion_lat": 0.0, "name": "153876e00bcf102184db2cb1abc16c24", "is_reserved": 0, "rental_uris": {"android": "https://dc.lft.to/lastmile_qr_scan", "ios": "https://dc.lft.to/lastmile_qr_scan"}, "fusion_lon": 0.0}, {"lat": 38.8638185, "is_disabled": 0, "type": "electric_scooter", "lon": -76.99254066666667, "bike_id": "26c88a81a4c8224b92fed8254c92a31d", "fusion_lat": 0.0, "name": "26c88a81a4c8224b92fed8254c92a31d", "is_reserved": 0, "rental_uris": {"android": "https://dc.lft.to/lastmile_qr_scan", "ios": "https://dc.lft.to/lastmile_qr_scan"}, "fusion_lon": 0.0}, {"lat": 38.917864, "is_disabled": 0, "type": "electric_scooter", "lon": -77.04413016666666, "bike_id": "f678eaceb27e86917f58e216b23f75c8", "fusion_lat": 0.0, "name": "f678eaceb27e86917f58e216b23f75c8", "is_reserved": 0, "rental_uris": {"android": "https://dc.lft.to/lastmile_qr_scan", "ios": "https://dc.lft.to/lastmile_qr_scan"}, "fusion_lon": 0.0}, {"lat": 38.92350366666667, "is_disabled": 0, "type": "electric_scooter", "lon": -77.04388083333333, "bike_id": "3449fc116a7389535fc767c0530dcd7c", "fusion_lat": 0.0, "name": "3449fc116a7389535fc767c0530dcd7c", "is_reserved": 0, "rental_uris": {"android": "https://dc.lft.to/lastmile_qr_scan", "ios": "https://dc.lft.to/lastmile_qr_scan"}, "fusion_lon": 0.0}, {"lat": 38.865865666666664, "is_disabled": 0, "type": "electric_bike", "lon": -76.9728875, "bike_id": "6ce6e02012754aa65b1d9714c7961d03", "fusion_lat": 0.0, "name": "6ce6e02012754aa65b1d9714c7961d03", "is_reserved": 0, "rental_uris": {"android": "https://dc.lft.to/lastmile_qr_scan", "ios": "https://dc.lft.to/lastmile_qr_scan"}, "fusion_lon": 0.0}, {"lat": 38.97838016666667, "is_disabled": 0, "type": "electric_bike", "lon": -77.02645783333334, "bike_id": "2b117b69eca213653bbcff5e56d1af4b", "fusion_lat": 0.0, "name": "2b117b69eca213653bbcff5e56d1af4b", "is_reserved": 0, "rental_uris": {"android": "https://dc.lft.to/lastmile_qr_scan", "ios": "https://dc.lft.to/lastmile_qr_scan"}, "fusion_lon": 0.0}, {"lat": 38.932521, "is_disabled": 0, "type": "electric_scooter", "lon": -77.03265266666666, "bike_id": "a36424e59ae3e0f97df91e1d8e84df3b", "fusion_lat": 0.0, "name": "a36424e59ae3e0f97df91e1d8e84df3b", "is_reserved": 0, "rental_uris": {"android": "https://dc.lft.to/lastmile_qr_scan", "ios": "https://dc.lft.to/lastmile_qr_scan"}, "fusion_lon": 0.0}, {"lat": 38.9022035, "is_disabled": 0, "type": "electric_scooter", "lon": -77.02161, "bike_id": "9fec4dadb00e80bc90ef32b1339a87ca", "fusion_lat": 0.0, "name": "9fec4dadb00e80bc90ef32b1339a87ca", "is_reserved": 0, "rental_uris": {"android": "https://dc.lft.to/lastmile_qr_scan", "ios": "https://dc.lft.to/lastmile_qr_scan"}, "fusion_lon": 0.0}, {"lat": 38.94069233333333, "is_disabled": 0, "type": "electric_scooter", "lon": -77.06138933333334, "bike_id": "7ee3904374f81e477210d60f671e5cf0", "fusion_lat": 0.0, "name": "7ee3904374f81e477210d60f671e5cf0", "is_reserved": 0, "rental_uris": {"android": "https://dc.lft.to/lastmile_qr_scan", "ios": "https://dc.lft.to/lastmile_qr_scan"}, "fusion_lon": 0.0}, {"lat": 38.936566666666664, "is_disabled": 0, "type": "electric_scooter", "lon": -77.036524, "bike_id": "c469db005c575878bccb737bda730258", "fusion_lat": 0.0, "name": "c469db005c575878bccb737bda730258", "is_reserved": 0, "rental_uris": {"android": "https://dc.lft.to/lastmile_qr_scan", "ios": "https://dc.lft.to/lastmile_qr_scan"}, "fusion_lon": 0.0}, {"lat": 38.93298333333333, "is_disabled": 0, "type": "electric_scooter", "lon": -77.02828566666666, "bike_id": "0598ef8f6bacd57d807ba9d1654bc3e3", "fusion_lat": 0.0, "name": "0598ef8f6bacd57d807ba9d1654bc3e3", "is_reserved": 0, "rental_uris": {"android": "https://dc.lft.to/lastmile_qr_scan", "ios": "https://dc.lft.to/lastmile_qr_scan"}, "fusion_lon": 0.0}, {"lat": 38.9310675, "is_disabled": 0, "type": "electric_scooter", "lon": -77.03512883333333, "bike_id": "0cdc6e50565c7e6f1e49fd49f7445fca", "fusion_lat": 0.0, "name": "0cdc6e50565c7e6f1e49fd49f7445fca", "is_reserved": 0, "rental_uris": {"android": "https://dc.lft.to/lastmile_qr_scan", "ios": "https://dc.lft.to/lastmile_qr_scan"}, "fusion_lon": 0.0}, {"lat": 38.91475333333333, "is_disabled": 0, "type": "electric_scooter", "lon": -76.98360366666667, "bike_id": "4a208e540949340e8dd4b074dd2bb680", "fusion_lat": 0.0, "name": "4a208e540949340e8dd4b074dd2bb680", "is_reserved": 0, "rental_uris": {"android": "https://dc.lft.to/lastmile_qr_scan", "ios": "https://dc.lft.to/lastmile_qr_scan"}, "fusion_lon": 0.0}, {"lat": 38.93198183333333, "is_disabled": 0, "type": "electric_scooter", "lon": -77.044263, "bike_id": "4fc2bef0deabd7dafa8a986ef3de3c51", "fusion_lat": 0.0, "name": "4fc2bef0deabd7dafa8a986ef3de3c51", "is_reserved": 0, "rental_uris": {"android": "https://dc.lft.to/lastmile_qr_scan", "ios": "https://dc.lft.to/lastmile_qr_scan"}, "fusion_lon": 0.0}, {"lat": 38.898800666666666, "is_disabled": 0, "type": "electric_scooter", "lon": -77.00709616666667, "bike_id": "551adc21c3544473d5ef63b05d95e983", "fusion_lat": 0.0, "name": "551adc21c3544473d5ef63b05d95e983", "is_reserved": 0, "rental_uris": {"android": "https://dc.lft.to/lastmile_qr_scan", "ios": "https://dc.lft.to/lastmile_qr_scan"}, "fusion_lon": 0.0}, {"lat": 38.902079, "is_disabled": 0, "type": "electric_scooter", "lon": -77.0530675, "bike_id": "7ca2cf81b2ce72fd8f08cd3c026158bd", "fusion_lat": 0.0, "name": "7ca2cf81b2ce72fd8f08cd3c026158bd", "is_reserved": 0, "rental_uris": {"android": "https://dc.lft.to/lastmile_qr_scan", "ios": "https://dc.lft.to/lastmile_qr_scan"}, "fusion_lon": 0.0}, {"lat": 38.876267166666665, "is_disabled": 0, "type": "electric_scooter", "lon": -76.96528266666667, "bike_id": "359c3122bab8ce7a9e463410a17b9be3", "fusion_lat": 0.0, "name": "359c3122bab8ce7a9e463410a17b9be3", "is_reserved": 0, "rental_uris": {"android": "https://dc.lft.to/lastmile_qr_scan", "ios": "https://dc.lft.to/lastmile_qr_scan"}, "fusion_lon": 0.0}, {"lat": 38.90255, "is_disabled": 0, "type": "electric_scooter", "lon": -77.017597, "bike_id": "65421786352dca1739038a4132c8e339", "fusion_lat": 0.0, "name": "65421786352dca1739038a4132c8e339", "is_reserved": 0, "rental_uris": {"android": "https://dc.lft.to/lastmile_qr_scan", "ios": "https://dc.lft.to/lastmile_qr_scan"}, "fusion_lon": 0.0}, {"lat": 38.922128, "is_disabled": 0, "type": "electric_scooter", "lon": -77.03292883333333, "bike_id": "e5d80236de5049f6ab05ee0cc1cb8447", "fusion_lat": 0.0, "name": "e5d80236de5049f6ab05ee0cc1cb8447", "is_reserved": 0, "rental_uris": {"android": "https://dc.lft.to/lastmile_qr_scan", "ios": "https://dc.lft.to/lastmile_qr_scan"}, "fusion_lon": 0.0}, {"lat": 38.92444016666666, "is_disabled": 0, "type": "electric_scooter", "lon": -77.04202683333334, "bike_id": "0e1a8124a44afc5c3c78af6e5578cb2e", "fusion_lat": 0.0, "name": "0e1a8124a44afc5c3c78af6e5578cb2e", "is_reserved": 0, "rental_uris": {"android": "https://dc.lft.to/lastmile_qr_scan", "ios": "https://dc.lft.to/lastmile_qr_scan"}, "fusion_lon": 0.0}, {"lat": 38.901426666666666, "is_disabled": 0, "type": "electric_scooter", "lon": -77.00074933333333, "bike_id": "f6ef92997e8d665959e23fa02089aeda", "fusion_lat": 0.0, "name": "f6ef92997e8d665959e23fa02089aeda", "is_reserved": 0, "rental_uris": {"android": "https://dc.lft.to/lastmile_qr_scan", "ios": "https://dc.lft.to/lastmile_qr_scan"}, "fusion_lon": 0.0}, {"lat": 38.93652516666667, "is_disabled": 0, "type": "electric_bike", "lon": -77.05591983333333, "bike_id": "359997e4057c1d5040d33857a2d5ebb1", "fusion_lat": 0.0, "name": "359997e4057c1d5040d33857a2d5ebb1", "is_reserved": 0, "rental_uris": {"android": "https://dc.lft.to/lastmile_qr_scan", "ios": "https://dc.lft.to/lastmile_qr_scan"}, "fusion_lon": 0.0}, {"lat": 39.015938166666665, "is_disabled": 0, "type": "electric_bike", "lon": -77.044259, "bike_id": "7a28ae51140002d6b4d5386c3fb9b7d4", "fusion_lat": 0.0, "name": "7a28ae51140002d6b4d5386c3fb9b7d4", "is_reserved": 0, "rental_uris": {"android": "https://dc.lft.to/lastmile_qr_scan", "ios": "https://dc.lft.to/lastmile_qr_scan"}, "fusion_lon": 0.0}, {"lat": 38.90219866666666, "is_disabled": 0, "type": "electric_scooter", "lon": -77.01931033333334, "bike_id": "2d42cbe48a55323e970e67d7fdc4c78a", "fusion_lat": 0.0, "name": "2d42cbe48a55323e970e67d7fdc4c78a", "is_reserved": 0, "rental_uris": {"android": "https://dc.lft.to/lastmile_qr_scan", "ios": "https://dc.lft.to/lastmile_qr_scan"}, "fusion_lon": 0.0}, {"lat": 38.960967, "is_disabled": 0, "type": "electric_scooter", "lon": -77.08285066666667, "bike_id": "fabd47b80b1df2092f2ac9b828e02392", "fusion_lat": 0.0, "name": "fabd47b80b1df2092f2ac9b828e02392", "is_reserved": 0, "rental_uris": {"android": "https://dc.lft.to/lastmile_qr_scan", "ios": "https://dc.lft.to/lastmile_qr_scan"}, "fusion_lon": 0.0}, {"lat": 38.91720516666667, "is_disabled": 0, "type": "electric_scooter", "lon": -77.037247, "bike_id": "353038a5026069cee47f3c964b528543", "fusion_lat": 0.0, "name": "353038a5026069cee47f3c964b528543", "is_reserved": 0, "rental_uris": {"android": "https://dc.lft.to/lastmile_qr_scan", "ios": "https://dc.lft.to/lastmile_qr_scan"}, "fusion_lon": 0.0}, {"lat": 38.885134666666666, "is_disabled": 0, "type": "electric_scooter", "lon": -77.00679566666666, "bike_id": "4b0ae9ee40d6b080741bf70c08a37c37", "fusion_lat": 0.0, "name": "4b0ae9ee40d6b080741bf70c08a37c37", "is_reserved": 0, "rental_uris": {"android": "https://dc.lft.to/lastmile_qr_scan", "ios": "https://dc.lft.to/lastmile_qr_scan"}, "fusion_lon": 0.0}, {"lat": 38.92744366666667, "is_disabled": 0, "type": "electric_scooter", "lon": -76.99723133333333, "bike_id": "eff4a5f25dca17fb4ccd95f98bd1caf7", "fusion_lat": 0.0, "name": "eff4a5f25dca17fb4ccd95f98bd1caf7", "is_reserved": 0, "rental_uris": {"android": "https://dc.lft.to/lastmile_qr_scan", "ios": "https://dc.lft.to/lastmile_qr_scan"}, "fusion_lon": 0.0}, {"lat": 38.86370266666667, "is_disabled": 0, "type": "electric_scooter", "lon": -76.990297, "bike_id": "f921b137803de869e75c8ad63fcbde39", "fusion_lat": 0.0, "name": "f921b137803de869e75c8ad63fcbde39", "is_reserved": 0, "rental_uris": {"android": "https://dc.lft.to/lastmile_qr_scan", "ios": "https://dc.lft.to/lastmile_qr_scan"}, "fusion_lon": 0.0}, {"lat": 38.90788116666667, "is_disabled": 0, "type": "electric_scooter", "lon": -77.03475566666667, "bike_id": "7679e8293a3dbeed91494ff8d6e1edbf", "fusion_lat": 0.0, "name": "7679e8293a3dbeed91494ff8d6e1edbf", "is_reserved": 0, "rental_uris": {"android": "https://dc.lft.to/lastmile_qr_scan", "ios": "https://dc.lft.to/lastmile_qr_scan"}, "fusion_lon": 0.0}, {"lat": 39.0304685, "is_disabled": 0, "type": "electric_bike", "lon": -77.094787, "bike_id": "88064338f1be7ce20d8b765e22f857f2", "fusion_lat": 0.0, "name": "88064338f1be7ce20d8b765e22f857f2", "is_reserved": 0, "rental_uris": {"android": "https://dc.lft.to/lastmile_qr_scan", "ios": "https://dc.lft.to/lastmile_qr_scan"}, "fusion_lon": 0.0}, {"lat": 38.906198, "is_disabled": 0, "type": "electric_scooter", "lon": -77.039503, "bike_id": "e3027b6498b3e0228540f95d433c5632", "fusion_lat": 0.0, "name": "e3027b6498b3e0228540f95d433c5632", "is_reserved": 0, "rental_uris": {"android": "https://dc.lft.to/lastmile_qr_scan", "ios": "https://dc.lft.to/lastmile_qr_scan"}, "fusion_lon": 0.0}, {"lat": 38.91481266666667, "is_disabled": 0, "type": "electric_scooter", "lon": -77.021986, "bike_id": "7cfbededc4f3b4b265369b549e3e6b97", "fusion_lat": 0.0, "name": "7cfbededc4f3b4b265369b549e3e6b97", "is_reserved": 0, "rental_uris": {"android": "https://dc.lft.to/lastmile_qr_scan", "ios": "https://dc.lft.to/lastmile_qr_scan"}, "fusion_lon": 0.0}, {"lat": 38.9159335, "is_disabled": 0, "type": "electric_scooter", "lon": -77.03849716666667, "bike_id": "1e38c92c42f4cba516a2af149aa667d4", "fusion_lat": 0.0, "name": "1e38c92c42f4cba516a2af149aa667d4", "is_reserved": 0, "rental_uris": {"android": "https://dc.lft.to/lastmile_qr_scan", "ios": "https://dc.lft.to/lastmile_qr_scan"}, "fusion_lon": 0.0}, {"lat": 38.903799666666664, "is_disabled": 0, "type": "electric_scooter", "lon": -77.038561, "bike_id": "44db30a9a09df235aca35dede3ad75b7", "fusion_lat": 0.0, "name": "44db30a9a09df235aca35dede3ad75b7", "is_reserved": 0, "rental_uris": {"android": "https://dc.lft.to/lastmile_qr_scan", "ios": "https://dc.lft.to/lastmile_qr_scan"}, "fusion_lon": 0.0}, {"lat": 38.875682833333336, "is_disabled": 0, "type": "electric_scooter", "lon": -77.02082166666666, "bike_id": "8a6003952c1088e6979cfe10c462ddbc", "fusion_lat": 0.0, "name": "8a6003952c1088e6979cfe10c462ddbc", "is_reserved": 0, "rental_uris": {"android": "https://dc.lft.to/lastmile_qr_scan", "ios": "https://dc.lft.to/lastmile_qr_scan"}, "fusion_lon": 0.0}, {"lat": 38.91709183333333, "is_disabled": 0, "type": "electric_scooter", "lon": -77.0386515, "bike_id": "baee459ea239c22224e37b50211bc16a", "fusion_lat": 0.0, "name": "baee459ea239c22224e37b50211bc16a", "is_reserved": 0, "rental_uris": {"android": "https://dc.lft.to/lastmile_qr_scan", "ios": "https://dc.lft.to/lastmile_qr_scan"}, "fusion_lon": 0.0}, {"lat": 38.93838383333333, "is_disabled": 0, "type": "electric_bike", "lon": -76.98863133333333, "bike_id": "6724c6364c48a6a9d53049d6b2560c33", "fusion_lat": 0.0, "name": "6724c6364c48a6a9d53049d6b2560c33", "is_reserved": 0, "rental_uris": {"android": "https://dc.lft.to/lastmile_qr_scan", "ios": "https://dc.lft.to/lastmile_qr_scan"}, "fusion_lon": 0.0}, {"lat": 38.9226385, "is_disabled": 0, "type": "electric_scooter", "lon": -77.04295216666667, "bike_id": "392273439946912e3465eb08752c10cd", "fusion_lat": 0.0, "name": "392273439946912e3465eb08752c10cd", "is_reserved": 0, "rental_uris": {"android": "https://dc.lft.to/lastmile_qr_scan", "ios": "https://dc.lft.to/lastmile_qr_scan"}, "fusion_lon": 0.0}, {"lat": 38.92856483333333, "is_disabled": 0, "type": "electric_bike", "lon": -77.22225466666667, "bike_id": "33ff986b758879478817e9d367758755", "fusion_lat": 0.0, "name": "33ff986b758879478817e9d367758755", "is_reserved": 0, "rental_uris": {"android": "https://dc.lft.to/lastmile_qr_scan", "ios": "https://dc.lft.to/lastmile_qr_scan"}, "fusion_lon": 0.0}, {"lat": 38.87215533333333, "is_disabled": 0, "type": "electric_bike", "lon": -77.01525533333333, "bike_id": "3ffd2ad9d46bfd131a9722a05f02f7c5", "fusion_lat": 0.0, "name": "3ffd2ad9d46bfd131a9722a05f02f7c5", "is_reserved": 0, "rental_uris": {"android": "https://dc.lft.to/lastmile_qr_scan", "ios": "https://dc.lft.to/lastmile_qr_scan"}, "fusion_lon": 0.0}, {"lat": 38.917704666666666, "is_disabled": 0, "type": "electric_scooter", "lon": -77.028913, "bike_id": "6f7b77fb691e0d01af2f59d5021b961f", "fusion_lat": 0.0, "name": "6f7b77fb691e0d01af2f59d5021b961f", "is_reserved": 0, "rental_uris": {"android": "https://dc.lft.to/lastmile_qr_scan", "ios": "https://dc.lft.to/lastmile_qr_scan"}, "fusion_lon": 0.0}, {"lat": 39.088555166666666, "is_disabled": 0, "type": "electric_bike", "lon": -77.178402, "bike_id": "3b71825461355f9d9471a1fa23b3f349", "fusion_lat": 0.0, "name": "3b71825461355f9d9471a1fa23b3f349", "is_reserved": 0, "rental_uris": {"android": "https://dc.lft.to/lastmile_qr_scan", "ios": "https://dc.lft.to/lastmile_qr_scan"}, "fusion_lon": 0.0}, {"lat": 38.931340666666664, "is_disabled": 0, "type": "electric_scooter", "lon": -77.03256466666667, "bike_id": "253c7106292f1b70cb2eb5c5c2178da2", "fusion_lat": 0.0, "name": "253c7106292f1b70cb2eb5c5c2178da2", "is_reserved": 0, "rental_uris": {"android": "https://dc.lft.to/lastmile_qr_scan", "ios": "https://dc.lft.to/lastmile_qr_scan"}, "fusion_lon": 0.0}, {"lat": 38.965546833333335, "is_disabled": 0, "type": "electric_bike", "lon": -77.02040833333334, "bike_id": "4fa76a3211487fb111fb0e422e54e9d8", "fusion_lat": 0.0, "name": "4fa76a3211487fb111fb0e422e54e9d8", "is_reserved": 0, "rental_uris": {"android": "https://dc.lft.to/lastmile_qr_scan", "ios": "https://dc.lft.to/lastmile_qr_scan"}, "fusion_lon": 0.0}, {"lat": 38.90178016666667, "is_disabled": 0, "type": "electric_scooter", "lon": -77.04991783333334, "bike_id": "90d777b3b210807174c9c812a89fa32b", "fusion_lat": 0.0, "name": "90d777b3b210807174c9c812a89fa32b", "is_reserved": 0, "rental_uris": {"android": "https://dc.lft.to/lastmile_qr_scan", "ios": "https://dc.lft.to/lastmile_qr_scan"}, "fusion_lon": 0.0}, {"lat": 38.896921666666664, "is_disabled": 0, "type": "electric_bike", "lon": -77.0034875, "bike_id": "017ca72ae380cfa55bd0e94bf1b7cdd1", "fusion_lat": 0.0, "name": "017ca72ae380cfa55bd0e94bf1b7cdd1", "is_reserved": 0, "rental_uris": {"android": "https://dc.lft.to/lastmile_qr_scan", "ios": "https://dc.lft.to/lastmile_qr_scan"}, "fusion_lon": 0.0}, {"lat": 38.93146616666667, "is_disabled": 0, "type": "electric_scooter", "lon": -77.03283483333334, "bike_id": "2af88d5c65271f350335c5401f13163e", "fusion_lat": 0.0, "name": "2af88d5c65271f350335c5401f13163e", "is_reserved": 0, "rental_uris": {"android": "https://dc.lft.to/lastmile_qr_scan", "ios": "https://dc.lft.to/lastmile_qr_scan"}, "fusion_lon": 0.0}, {"lat": 38.922039833333336, "is_disabled": 0, "type": "electric_scooter", "lon": -76.95661016666666, "bike_id": "084236338ae6a1189d6583544b1ec030", "fusion_lat": 0.0, "name": "084236338ae6a1189d6583544b1ec030", "is_reserved": 0, "rental_uris": {"android": "https://dc.lft.to/lastmile_qr_scan", "ios": "https://dc.lft.to/lastmile_qr_scan"}, "fusion_lon": 0.0}, {"lat": 38.90220216666667, "is_disabled": 0, "type": "electric_scooter", "lon": -77.043399, "bike_id": "224b9fda95c4d003848112b612aaba9b", "fusion_lat": 0.0, "name": "224b9fda95c4d003848112b612aaba9b", "is_reserved": 0, "rental_uris": {"android": "https://dc.lft.to/lastmile_qr_scan", "ios": "https://dc.lft.to/lastmile_qr_scan"}, "fusion_lon": 0.0}, {"lat": 38.9032605, "is_disabled": 0, "type": "electric_scooter", "lon": -77.02890466666666, "bike_id": "bcb3a26985efd1b59d32117b9226728a", "fusion_lat": 0.0, "name": "bcb3a26985efd1b59d32117b9226728a", "is_reserved": 0, "rental_uris": {"android": "https://dc.lft.to/lastmile_qr_scan", "ios": "https://dc.lft.to/lastmile_qr_scan"}, "fusion_lon": 0.0}, {"lat": 38.899875, "is_disabled": 0, "type": "electric_scooter", "lon": -77.02301633333333, "bike_id": "5beb00c99539a130d6fd69fdbae9308c", "fusion_lat": 0.0, "name": "5beb00c99539a130d6fd69fdbae9308c", "is_reserved": 0, "rental_uris": {"android": "https://dc.lft.to/lastmile_qr_scan", "ios": "https://dc.lft.to/lastmile_qr_scan"}, "fusion_lon": 0.0}, {"lat": 38.95708333333333, "is_disabled": 0, "type": "electric_scooter", "lon": -77.024028, "bike_id": "150db5cfac0a651d5ddc67a6a3e1f5d3", "fusion_lat": 0.0, "name": "150db5cfac0a651d5ddc67a6a3e1f5d3", "is_reserved": 0, "rental_uris": {"android": "https://dc.lft.to/lastmile_qr_scan", "ios": "https://dc.lft.to/lastmile_qr_scan"}, "fusion_lon": 0.0}, {"lat": 38.903904, "is_disabled": 0, "type": "electric_scooter", "lon": -76.990085, "bike_id": "fd45eda2e75a58f0bbbd1e16b1932958", "fusion_lat": 0.0, "name": "fd45eda2e75a58f0bbbd1e16b1932958", "is_reserved": 0, "rental_uris": {"android": "https://dc.lft.to/lastmile_qr_scan", "ios": "https://dc.lft.to/lastmile_qr_scan"}, "fusion_lon": 0.0}, {"lat": 38.886745, "is_disabled": 0, "type": "electric_bike", "lon": -77.16241766666667, "bike_id": "afea757a0decf6e201b1846411a1bcfa", "fusion_lat": 0.0, "name": "afea757a0decf6e201b1846411a1bcfa", "is_reserved": 0, "rental_uris": {"android": "https://dc.lft.to/lastmile_qr_scan", "ios": "https://dc.lft.to/lastmile_qr_scan"}, "fusion_lon": 0.0}, {"lat": 38.89974083333333, "is_disabled": 0, "type": "electric_scooter", "lon": -77.042339, "bike_id": "e668c02a805b7c889eedd40cedad2a90", "fusion_lat": 0.0, "name": "e668c02a805b7c889eedd40cedad2a90", "is_reserved": 0, "rental_uris": {"android": "https://dc.lft.to/lastmile_qr_scan", "ios": "https://dc.lft.to/lastmile_qr_scan"}, "fusion_lon": 0.0}, {"lat": 38.94824166666667, "is_disabled": 0, "type": "electric_scooter", "lon": -76.999067, "bike_id": "f27de572a3bde7d1ed0f3d82edf62663", "fusion_lat": 0.0, "name": "f27de572a3bde7d1ed0f3d82edf62663", "is_reserved": 0, "rental_uris": {"android": "https://dc.lft.to/lastmile_qr_scan", "ios": "https://dc.lft.to/lastmile_qr_scan"}, "fusion_lon": 0.0}, {"lat": 38.908283833333336, "is_disabled": 0, "type": "electric_scooter", "lon": -77.02011783333333, "bike_id": "57469a23f66e10b9794602142bc6bce6", "fusion_lat": 0.0, "name": "57469a23f66e10b9794602142bc6bce6", "is_reserved": 0, "rental_uris": {"android": "https://dc.lft.to/lastmile_qr_scan", "ios": "https://dc.lft.to/lastmile_qr_scan"}, "fusion_lon": 0.0}, {"lat": 38.9064285, "is_disabled": 0, "type": "electric_scooter", "lon": -77.00824316666667, "bike_id": "0509a69dda2488d58cb688122b6c3699", "fusion_lat": 0.0, "name": "0509a69dda2488d58cb688122b6c3699", "is_reserved": 0, "rental_uris": {"android": "https://dc.lft.to/lastmile_qr_scan", "ios": "https://dc.lft.to/lastmile_qr_scan"}, "fusion_lon": 0.0}, {"lat": 38.8854835, "is_disabled": 0, "type": "electric_bike", "lon": -77.11788883333334, "bike_id": "f6c81eef44c3d4f4236d035d96411a78", "fusion_lat": 0.0, "name": "f6c81eef44c3d4f4236d035d96411a78", "is_reserved": 0, "rental_uris": {"android": "https://dc.lft.to/lastmile_qr_scan", "ios": "https://dc.lft.to/lastmile_qr_scan"}, "fusion_lon": 0.0}, {"lat": 38.928962, "is_disabled": 0, "type": "electric_scooter", "lon": -77.016494, "bike_id": "73a766d3de877154a462dbe7191fe528", "fusion_lat": 0.0, "name": "73a766d3de877154a462dbe7191fe528", "is_reserved": 0, "rental_uris": {"android": "https://dc.lft.to/lastmile_qr_scan", "ios": "https://dc.lft.to/lastmile_qr_scan"}, "fusion_lon": 0.0}, {"lat": 38.915999666666664, "is_disabled": 0, "type": "electric_scooter", "lon": -77.038542, "bike_id": "621c1435c8bde1d9e898667a60547f56", "fusion_lat": 0.0, "name": "621c1435c8bde1d9e898667a60547f56", "is_reserved": 0, "rental_uris": {"android": "https://dc.lft.to/lastmile_qr_scan", "ios": "https://dc.lft.to/lastmile_qr_scan"}, "fusion_lon": 0.0}, {"lat": 38.93374416666666, "is_disabled": 0, "type": "electric_scooter", "lon": -77.0355695, "bike_id": "28c4e7a1892dc70c68914233133c141a", "fusion_lat": 0.0, "name": "28c4e7a1892dc70c68914233133c141a", "is_reserved": 0, "rental_uris": {"android": "https://dc.lft.to/lastmile_qr_scan", "ios": "https://dc.lft.to/lastmile_qr_scan"}, "fusion_lon": 0.0}, {"lat": 38.885993166666665, "is_disabled": 0, "type": "electric_scooter", "lon": -77.01896933333333, "bike_id": "ae3c5c60ca7906fc3fed73cb1e6ffd8a", "fusion_lat": 0.0, "name": "ae3c5c60ca7906fc3fed73cb1e6ffd8a", "is_reserved": 0, "rental_uris": {"android": "https://dc.lft.to/lastmile_qr_scan", "ios": "https://dc.lft.to/lastmile_qr_scan"}, "fusion_lon": 0.0}, {"lat": 38.90611366666667, "is_disabled": 0, "type": "electric_bike", "lon": -77.06384783333333, "bike_id": "c4f8390755732f7e1c04c5d3ed8e7a9e", "fusion_lat": 0.0, "name": "c4f8390755732f7e1c04c5d3ed8e7a9e", "is_reserved": 0, "rental_uris": {"android": "https://dc.lft.to/lastmile_qr_scan", "ios": "https://dc.lft.to/lastmile_qr_scan"}, "fusion_lon": 0.0},