{"data": {"bikes": [{"lat": 38.915916833333334, "fusion_lat": 0.0, "type": "electric_scooter", "bike_id": "b5c2f3fe01844635b6c1f96be03f42c3", "rental_uris": {"ios": "https://dc.lft.to/lastmile_qr_scan", "android": "https://dc.lft.to/lastmile_qr_scan"}, "fusion_lon": 0.0, "lon": -77.014828, "name": "b5c2f3fe01844635b6c1f96be03f42c3", "is_reserved": 0, "is_disabled": 0}, {"lat": 38.8974355, "fusion_lat": 0.0, "type": "electric_scooter", "bike_id": "4bffba2bd0040a6de5640b709a047c94", "rental_uris": {"ios": "https://dc.lft.to/lastmile_qr_scan", "android": "https://dc.lft.to/lastmile_qr_scan"}, "fusion_lon": 0.0, "lon": -77.01267916666667, "name": "4bffba2bd0040a6de5640b709a047c94", "is_reserved": 0, "is_disabled": 0}, {"lat": 38.9015, "fusion_lat": 0.0, "type": "electric_scooter", "bike_id": "554479b8314b973c49d1ac8d8c682d03", "rental_uris": {"ios": "https://dc.lft.to/lastmile_qr_scan", "android": "https://dc.lft.to/lastmile_qr_scan"}, "fusion_lon": 0.0, "lon": -76.974197, "name": "554479b8314b973c49d1ac8d8c682d03", "is_reserved": 0, "is_disabled": 0}, {"lat": 38.907568833333336, "fusion_lat": 0.0, "type": "electric_scooter", "bike_id": "6b1471e0fe86d9be0831a81284e7c839", "rental_uris": {"ios": "https://dc.lft.to/lastmile_qr_scan", "android": "https://dc.lft.to/lastmile_qr_scan"}, "fusion_lon": 0.0, "lon": -77.03587933333333, "name": "6b1471e0fe86d9be0831a81284e7c839", "is_reserved": 0, "is_disabled": 0}, {"lat": 38.9198665, "fusion_lat": 0.0, "type": "electric_scooter", "bike_id": "0f336dadd5d7a0f50a2416d7a9f97670", "rental_uris": {"ios": "https://dc.lft.to/lastmile_qr_scan", "android": "https://dc.lft.to/lastmile_qr_scan"}, "fusion_lon": 0.0, "lon": -76.97304033333333, "name": "0f336dadd5d7a0f50a2416d7a9f97670", "is_reserved": 0, "is_disabled": 0}, {"lat": 38.898183833333334, "fusion_lat": 0.0, "type": "electric_scooter", "bike_id": "c784be0d75b3ac3c57e2e543798be050", "rental_uris": {"ios": "https://dc.lft.to/lastmile_qr_scan", "android": "https://dc.lft.to/lastmile_qr_scan"}, "fusion_lon": 0.0, "lon": -77.04173383333334, "name": "c784be0d75b3ac3c57e2e543798be050", "is_reserved": 0, "is_disabled": 0}, {"lat": 38.90481, "fusion_lat": 0.0, "type": "electric_scooter", "bike_id": "7f27c39c22a9c699c374fe857cf5e9fa", "rental_uris": {"ios": "https://dc.lft.to/lastmile_qr_scan", "android": "https://dc.lft.to/lastmile_qr_scan"}, "fusion_lon": 0.0, "lon": -77.02819133333334, "name": "7f27c39c22a9c699c374fe857cf5e9fa", "is_reserved": 0, "is_disabled": 0}, {"lat": 38.90798383333333, "fusion_lat": 0.0, "type": "electric_scooter", "bike_id": "a20bb4bd884b89b878b35d1d79f26d8a", "rental_uris": {"ios": "https://dc.lft.to/lastmile_qr_scan", "android": "https://dc.lft.to/lastmile_qr_scan"}, "fusion_lon": 0.0, "lon": -77.04242683333334, "name": "a20bb4bd884b89b878b35d1d79f26d8a", "is_reserved": 0, "is_disabled": 0}, {"lat": 38.887669, "fusion_lat": 0.0, "type": "electric_scooter", "bike_id": "24a9f0bc08d83c0c8ca1afd233039a48", "rental_uris": {"ios": "https://dc.lft.to/lastmile_qr_scan", "android": "https://dc.lft.to/lastmile_qr_scan"}, "fusion_lon": 0.0, "lon": -76.98291966666666, "name": "24a9f0bc08d83c0c8ca1afd233039a48", "is_reserved": 0, "is_disabled": 0}, {"lat": 38.92034866666667, "fusion_lat": 0.0, "type": "electric_scooter", "bike_id": "fbc740678afabdb2aa38bab514f5f633", "rental_uris": {"ios": "https://dc.lft.to/lastmile_qr_scan", "android": "https://dc.lft.to/lastmile_qr_scan"}, "fusion_lon": 0.0, "lon": -77.01212833333334, "name": "fbc740678afabdb2aa38bab514f5f633", "is_reserved": 0, "is_disabled": 0}, {"lat": 38.93212616666667, "fusion_lat": 0.0, "type": "electric_scooter", "bike_id": "35e9b184604e3069203d77e0e3e8386e", "rental_uris": {"ios": "https://dc.lft.to/lastmile_qr_scan", "android": "https://dc.lft.to/lastmile_qr_scan"}, "fusion_lon": 0.0, "lon": -77.0352195, "name": "35e9b184604e3069203d77e0e3e8386e", "is_reserved": 0, "is_disabled": 0}, {"lat": 38.90884616666666, "fusion_lat": 0.0, "type": "electric_scooter", "bike_id": "2063220eb893b18dac857b97a0852553", "rental_uris": {"ios": "https://dc.lft.to/lastmile_qr_scan", "android": "https://dc.lft.to/lastmile_qr_scan"}, "fusion_lon": 0.0, "lon": -77.04332183333334, "name": "2063220eb893b18dac857b97a0852553", "is_reserved": 0, "is_disabled": 0}, {"lat": 38.901093333333336, "fusion_lat": 0.0, "type": "electric_scooter", "bike_id": "27992e368e6d7238ead9f2cad4304623", "rental_uris": {"ios": "https://dc.lft.to/lastmile_qr_scan", "android": "https://dc.lft.to/lastmile_qr_scan"}, "fusion_lon": 0.0, "lon": -77.04358966666666, "name": "27992e368e6d7238ead9f2cad4304623", "is_reserved": 0, "is_disabled": 0}, {"lat": 38.91946266666667, "fusion_lat": 0.0, "type": "electric_scooter", "bike_id": "a10a0794bb40c47c6d30a3663e8f0dfd", "rental_uris": {"ios": "https://dc.lft.to/lastmile_qr_scan", "android": "https://dc.lft.to/lastmile_qr_scan"}, "fusion_lon": 0.0, "lon": -77.01894933333334, "name": "a10a0794bb40c47c6d30a3663e8f0dfd", "is_reserved": 0, "is_disabled": 0}, {"lat": 38.894574666666664, "fusion_lat": 0.0, "type": "electric_scooter", "bike_id": "8a3e84185d64fe9b97e9471503ee1832", "rental_uris": {"ios": "https://dc.lft.to/lastmile_qr_scan", "android": "https://dc.lft.to/lastmile_qr_scan"}, "fusion_lon": 0.0, "lon": -77.02264083333333, "name": "8a3e84185d64fe9b97e9471503ee1832", "is_reserved": 0, "is_disabled": 0}, {"lat": 38.90005433333333, "fusion_lat": 0.0, "type": "electric_scooter", "bike_id": "5c5510a05085ad54d204d9d1ead24891", "rental_uris": {"ios": "https://dc.lft.to/lastmile_qr_scan", "android": "https://dc.lft.to/lastmile_qr_scan"}, "fusion_lon": 0.0, "lon": -76.99769816666667, "name": "5c5510a05085ad54d204d9d1ead24891", "is_reserved": 0, "is_disabled": 0}, {"lat": 38.9071095, "fusion_lat": 0.0, "type": "electric_scooter", "bike_id": "665f9f796409e0b672ccc148c24ac7ba", "rental_uris": {"ios": "https://dc.lft.to/lastmile_qr_scan", "android": "https://dc.lft.to/lastmile_qr_scan"}, "fusion_lon": 0.0, "lon": -77.00351133333334, "name": "665f9f796409e0b672ccc148c24ac7ba", "is_reserved": 0, "is_disabled": 0}, {"lat": 38.89731066666667, "fusion_lat": 0.0, "type": "electric_scooter", "bike_id": "e2a9b0250f97a1ecec58df0fee03f56f", "rental_uris": {"ios": "https://dc.lft.to/lastmile_qr_scan", "android": "https://dc.lft.to/lastmile_qr_scan"}, "fusion_lon": 0.0, "lon": -77.05522333333333, "name": "e2a9b0250f97a1ecec58df0fee03f56f", "is_reserved": 0, "is_disabled": 0}, {"lat": 38.9391045, "fusion_lat": 0.0, "type": "electric_scooter", "bike_id": "414fca760f51fd293a21cef775add6c8", "rental_uris": {"ios": "https://dc.lft.to/lastmile_qr_scan", "android": "https://dc.lft.to/lastmile_qr_scan"}, "fusion_lon": 0.0, "lon": -77.02475866666667, "name": "414fca760f51fd293a21cef775add6c8", "is_reserved": 0, "is_disabled": 0}, {"lat": 38.901355333333335, "fusion_lat": 0.0, "type": "electric_scooter", "bike_id": "90879996a8532ef8ec8a932198b46370", "rental_uris": {"ios": "https://dc.lft.to/lastmile_qr_scan", "android": "https://dc.lft.to/lastmile_qr_scan"}, "fusion_lon": 0.0, "lon": -77.04423466666667, "name": "90879996a8532ef8ec8a932198b46370", "is_reserved": 0, "is_disabled": 0}, {"lat": 38.923415, "fusion_lat": 0.0, "type": "electric_scooter", "bike_id": "31381a06f89ef97507a76d99b58e025b", "rental_uris": {"ios": "https://dc.lft.to/lastmile_qr_scan", "android": "https://dc.lft.to/lastmile_qr_scan"}, "fusion_lon": 0.0, "lon": -77.05167616666667, "name": "31381a06f89ef97507a76d99b58e025b", "is_reserved": 0, "is_disabled": 0}, {"lat": 38.8964175, "fusion_lat": 0.0, "type": "electric_scooter", "bike_id": "8a7b46f269f9dd2e3a3361d6a1f80464", "rental_uris": {"ios": "https://dc.lft.to/lastmile_qr_scan", "android": "https://dc.lft.to/lastmile_qr_scan"}, "fusion_lon": 0.0, "lon": -77.00918533333333, "name": "8a7b46f269f9dd2e3a3361d6a1f80464", "is_reserved": 0, "is_disabled": 0}, {"lat": 38.92889233333333, "fusion_lat": 0.0, "type": "electric_scooter", "bike_id": "4157c3416019655b95ff8b66d431bbfa", "rental_uris": {"ios": "https://dc.lft.to/lastmile_qr_scan", "android": "https://dc.lft.to/lastmile_qr_scan"}, "fusion_lon": 0.0, "lon": -77.032452, "name": "4157c3416019655b95ff8b66d431bbfa", "is_reserved": 0, "is_disabled": 0}, {"lat": 38.892334166666664, "fusion_lat": 0.0, "type": "electric_scooter", "bike_id": "a8387072b97ef4b9079105ef53845414", "rental_uris": {"ios": "https://dc.lft.to/lastmile_qr_scan", "android": "https://dc.lft.to/lastmile_qr_scan"}, "fusion_lon": 0.0, "lon": -77.02759366666666, "name": "a8387072b97ef4b9079105ef53845414", "is_reserved": 0, "is_disabled": 0}, {"lat": 38.9077875, "fusion_lat": 0.0, "type": "electric_scooter", "bike_id": "f883423954465c3323220581e785d320", "rental_uris": {"ios": "https://dc.lft.to/lastmile_qr_scan", "android": "https://dc.lft.to/lastmile_qr_scan"}, "fusion_lon": 0.0, "lon": -77.07167716666666, "name": "f883423954465c3323220581e785d320", "is_reserved": 0, "is_disabled": 0}, {"lat": 38.914192, "fusion_lat": 0.0, "type": "electric_scooter", "bike_id": "2e836f16e1a97fc62b551663fff79be6", "rental_uris": {"ios": "https://dc.lft.to/lastmile_qr_scan", "android": "https://dc.lft.to/lastmile_qr_scan"}, "fusion_lon": 0.0, "lon": -77.0119675, "name": "2e836f16e1a97fc62b551663fff79be6", "is_reserved": 0, "is_disabled": 0}, {"lat": 38.91004233333334, "fusion_lat": 0.0, "type": "electric_scooter", "bike_id": "b39d42916bc0be85db0b4a3694c33958", "rental_uris": {"ios": "https://dc.lft.to/lastmile_qr_scan", "android": "https://dc.lft.to/lastmile_qr_scan"}, "fusion_lon": 0.0, "lon": -77.034617, "name": "b39d42916bc0be85db0b4a3694c33958", "is_reserved": 0, "is_disabled": 0}, {"lat": 38.91469633333333, "fusion_lat": 0.0, "type": "electric_scooter", "bike_id": "bdc5b01cd6170b474c16db9cf55b8eec", "rental_uris": {"ios": "https://dc.lft.to/lastmile_qr_scan", "android": "https://dc.lft.to/lastmile_qr_scan"}, "fusion_lon": 0.0, "lon": -77.046153, "name": "bdc5b01cd6170b474c16db9cf55b8eec", "is_reserved": 0, "is_disabled": 0}, {"lat": 38.904245, "fusion_lat": 0.0, "type": "electric_scooter", "bike_id": "2a2b38f537bfa9c0a5a0ecf8b3ee931f", "rental_uris": {"ios": "https://dc.lft.to/lastmile_qr_scan", "android": "https://dc.lft.to/lastmile_qr_scan"}, "fusion_lon": 0.0, "lon": -76.999426, "name": "2a2b38f537bfa9c0a5a0ecf8b3ee931f", "is_reserved": 0, "is_disabled": 0}, {"lat": 38.915865833333335, "fusion_lat": 0.0, "type": "electric_scooter", "bike_id": "956c5e5a3c012c79be7a55e7406ddefb", "rental_uris": {"ios": "https://dc.lft.to/lastmile_qr_scan", "android": "https://dc.lft.to/lastmile_qr_scan"}, "fusion_lon": 0.0, "lon": -77.01715583333333, "name": "956c5e5a3c012c79be7a55e7406ddefb", "is_reserved": 0, "is_disabled": 0}, {"lat": 38.89212333333333, "fusion_lat": 0.0, "type": "electric_scooter", "bike_id": "712a56cbef3ccb0db205e699db14ebc6", "rental_uris": {"ios": "https://dc.lft.to/lastmile_qr_scan", "android": "https://dc.lft.to/lastmile_qr_scan"}, "fusion_lon": 0.0, "lon": -77.02655283333333, "name": "712a56cbef3ccb0db205e699db14ebc6", "is_reserved": 0, "is_disabled": 0}, {"lat": 38.92681666666667, "fusion_lat": 0.0, "type": "electric_scooter", "bike_id": "efd4fff1a14e60434c94f64dcc7e2669", "rental_uris": {"ios": "https://dc.lft.to/lastmile_qr_scan", "android": "https://dc.lft.to/lastmile_qr_scan"}, "fusion_lon": 0.0, "lon": -77.02787916666666, "name": "efd4fff1a14e60434c94f64dcc7e2669", "is_reserved": 0, "is_disabled": 0}, {"lat": 38.827818, "fusion_lat": 0.0, "type": "electric_bike", "bike_id": "bddd1a1943edeb26c6e7fc4f664c9c45", "rental_uris": {"ios": "https://dc.lft.to/lastmile_qr_scan", "android": "https://dc.lft.to/lastmile_qr_scan"}, "fusion_lon": 0.0, "lon": -77.12486033333333, "name": "bddd1a1943edeb26c6e7fc4f664c9c45", "is_reserved": 0, "is_disabled": 0}, {"lat": 38.92441516666667, "fusion_lat": 0.0, "type": "electric_scooter", "bike_id": "bf05d9435f2d397503d600cd1f2ab767", "rental_uris": {"ios": "https://dc.lft.to/lastmile_qr_scan", "android": "https://dc.lft.to/lastmile_qr_scan"}, "fusion_lon": 0.0, "lon": -77.02025116666667, "name": "bf05d9435f2d397503d600cd1f2ab767", "is_reserved": 0, "is_disabled": 0}, {"lat": 38.892183, "fusion_lat": 0.0, "type": "electric_scooter", "bike_id": "129f2a2c4e2998b95239dc7afedb46a2", "rental_uris": {"ios": "https://dc.lft.to/lastmile_qr_scan", "android": "https://dc.lft.to/lastmile_qr_scan"}, "fusion_lon": 0.0, "lon": -77.04190816666667, "name": "129f2a2c4e2998b95239dc7afedb46a2", "is_reserved": 0, "is_disabled": 0}, {"lat": 38.921510833333336, "fusion_lat": 0.0, "type": "electric_scooter", "bike_id": "816c46e45c1d5d6a639cb7394ed9566c", "rental_uris": {"ios": "https://dc.lft.to/lastmile_qr_scan", "android": "https://dc.lft.to/lastmile_qr_scan"}, "fusion_lon": 0.0, "lon": -77.02094316666667, "name": "816c46e45c1d5d6a639cb7394ed9566c", "is_reserved": 0, "is_disabled": 0}, {"lat": 38.9232965, "fusion_lat": 0.0, "type": "electric_scooter", "bike_id": "9708ffd0a0e8420350f7865bed411bb2", "rental_uris": {"ios": "https://dc.lft.to/lastmile_qr_scan", "android": "https://dc.lft.to/lastmile_qr_scan"}, "fusion_lon": 0.0, "lon": -77.05682333333333, "name": "9708ffd0a0e8420350f7865bed411bb2", "is_reserved": 0, "is_disabled": 0}, {"lat": 38.91119183333333, "fusion_lat": 0.0, "type": "electric_scooter", "bike_id": "65a68d47b2bd81f274dd2d1f65b88c91", "rental_uris": {"ios": "https://dc.lft.to/lastmile_qr_scan", "android": "https://dc.lft.to/lastmile_qr_scan"}, "fusion_lon": 0.0, "lon": -77.04529133333334, "name": "65a68d47b2bd81f274dd2d1f65b88c91", "is_reserved": 0, "is_disabled": 0}, {"lat": 38.906041, "fusion_lat": 0.0, "type": "electric_scooter", "bike_id": "7d8229d9d4dc2af444ba478ffcbb8bd2", "rental_uris": {"ios": "https://dc.lft.to/lastmile_qr_scan", "android": "https://dc.lft.to/lastmile_qr_scan"}, "fusion_lon": 0.0, "lon": -77.06375733333333, "name": "7d8229d9d4dc2af444ba478ffcbb8bd2", "is_reserved": 0, "is_disabled": 0}, {"lat": 38.90624566666666, "fusion_lat": 0.0, "type": "electric_scooter", "bike_id": "61e0762295091e80826f98ec4ba28b37", "rental_uris": {"ios": "https://dc.lft.to/lastmile_qr_scan", "android": "https://dc.lft.to/lastmile_qr_scan"}, "fusion_lon": 0.0, "lon": -77.0249855, "name": "61e0762295091e80826f98ec4ba28b37", "is_reserved": 0, "is_disabled": 0}, {"lat": 38.918661666666665, "fusion_lat": 0.0, "type": "electric_scooter", "bike_id": "c56fde28a4b07149ca678f734ce5013a", "rental_uris": {"ios": "https://dc.lft.to/lastmile_qr_scan", "android": "https://dc.lft.to/lastmile_qr_scan"}, "fusion_lon": 0.0, "lon": -77.04192283333333, "name": "c56fde28a4b07149ca678f734ce5013a", "is_reserved": 0, "is_disabled": 0}, {"lat": 38.9264965, "fusion_lat": 0.0, "type": "electric_scooter", "bike_id": "48228efdec0ab3d10d86a51ccfab2f19", "rental_uris": {"ios": "https://dc.lft.to/lastmile_qr_scan", "android": "https://dc.lft.to/lastmile_qr_scan"}, "fusion_lon": 0.0, "lon": -77.03725316666667, "name": "48228efdec0ab3d10d86a51ccfab2f19", "is_reserved": 0, "is_disabled": 0}, {"lat": 38.9231385, "fusion_lat": 0.0, "type": "electric_scooter", "bike_id": "3271ecce21fd9260074b6fbd53bbafd4", "rental_uris": {"ios": "https://dc.lft.to/lastmile_qr_scan", "android": "https://dc.lft.to/lastmile_qr_scan"}, "fusion_lon": 0.0, "lon": -77.04110933333334, "name": "3271ecce21fd9260074b6fbd53bbafd4", "is_reserved": 0, "is_disabled": 0}, {"lat": 38.8719265, "fusion_lat": 0.0, "type": "electric_scooter", "bike_id": "c54763ccbc2b9a600662cd965964b4a1", "rental_uris": {"ios": "https://dc.lft.to/lastmile_qr_scan", "android": "https://dc.lft.to/lastmile_qr_scan"}, "fusion_lon": 0.0, "lon": -77.013686, "name": "c54763ccbc2b9a600662cd965964b4a1", "is_reserved": 0, "is_disabled": 0}, {"lat": 38.91506666666667, "fusion_lat": 0.0, "type": "electric_scooter", "bike_id": "52684df92181a7d5a7f991a881185de2", "rental_uris": {"ios": "https://dc.lft.to/lastmile_qr_scan", "android": "https://dc.lft.to/lastmile_qr_scan"}, "fusion_lon": 0.0, "lon": -77.01564216666667, "name": "52684df92181a7d5a7f991a881185de2", "is_reserved": 0, "is_disabled": 0}, {"lat": 38.90254183333333, "fusion_lat": 0.0, "type": "electric_scooter", "bike_id": "fb517cba0ae059160f4a36be9599f151", "rental_uris": {"ios": "https://dc.lft.to/lastmile_qr_scan", "android": "https://dc.lft.to/lastmile_qr_scan"}, "fusion_lon": 0.0, "lon": -77.0363265, "name": "fb517cba0ae059160f4a36be9599f151", "is_reserved": 0, "is_disabled": 0}, {"lat": 38.87619133333333, "fusion_lat": 0.0, "type": "electric_scooter", "bike_id": "82a52ac30aab4bcfdf963ef53670ab09", "rental_uris": {"ios": "https://dc.lft.to/lastmile_qr_scan", "android": "https://dc.lft.to/lastmile_qr_scan"}, "fusion_lon": 0.0, "lon": -76.96543716666666, "name": "82a52ac30aab4bcfdf963ef53670ab09", "is_reserved": 0, "is_disabled": 0}, {"lat": 38.92468316666667, "fusion_lat": 0.0, "type": "electric_scooter", "bike_id": "3a55ca08cb446fef762bff41d79154ee", "rental_uris": {"ios": "https://dc.lft.to/lastmile_qr_scan", "android": "https://dc.lft.to/lastmile_qr_scan"}, "fusion_lon": 0.0, "lon": -77.0523415, "name": "3a55ca08cb446fef762bff41d79154ee", "is_reserved": 0, "is_disabled": 0}, {"lat": 38.887651166666664, "fusion_lat": 0.0, "type": "electric_scooter", "bike_id": "fb4a2528a295127924e9e495f768a6e2", "rental_uris": {"ios": "https://dc.lft.to/lastmile_qr_scan", "android": "https://dc.lft.to/lastmile_qr_scan"}, "fusion_lon": 0.0, "lon": -77.01302666666666, "name": "fb4a2528a295127924e9e495f768a6e2", "is_reserved": 0, "is_disabled": 0}, {"lat": 38.9259555, "fusion_lat": 0.0, "type": "electric_bike", "bike_id": "86f11084b04086332b8b5513bc5229ba", "rental_uris": {"ios": "https://dc.lft.to/lastmile_qr_scan", "android": "https://dc.lft.to/lastmile_qr_scan"}, "fusion_lon": 0.0, "lon": -77.2100765, "name": "86f11084b04086332b8b5513bc5229ba", "is_reserved": 0, "is_disabled": 0}, {"lat": 38.8923275, "fusion_lat": 0.0, "type": "electric_scooter", "bike_id": "c3a8b3ad5206fb02a6757a864307e7fb", "rental_uris": {"ios": "https://dc.lft.to/lastmile_qr_scan", "android": "https://dc.lft.to/lastmile_qr_scan"}, "fusion_lon": 0.0, "lon": -77.02608683333334, "name": "c3a8b3ad5206fb02a6757a864307e7fb", "is_reserved": 0, "is_disabled": 0}, {"lat": 38.890019333333335, "fusion_lat": 0.0, "type": "electric_scooter", "bike_id": "88b79de3b999f6f6a4ba554d7cdcf93a", "rental_uris": {"ios": "https://dc.lft.to/lastmile_qr_scan", "android": "https://dc.lft.to/lastmile_qr_scan"}, "fusion_lon": 0.0, "lon": -76.95432683333334, "name": "88b79de3b999f6f6a4ba554d7cdcf93a", "is_reserved": 0, "is_disabled": 0}, {"lat": 38.910047666666664, "fusion_lat": 0.0, "type": "electric_scooter", "bike_id": "a74cc9d3fef8b154bb85efdf82920262", "rental_uris": {"ios": "https://dc.lft.to/lastmile_qr_scan", "android": "https://dc.lft.to/lastmile_qr_scan"}, "fusion_lon": 0.0, "lon": -77.02089666666667, "name": "a74cc9d3fef8b154bb85efdf82920262", "is_reserved": 0, "is_disabled": 0}, {"lat": 38.8874615, "fusion_lat": 0.0, "type": "electric_scooter", "bike_id": "05020bc9cb12bf7e03373d45035e3df6", "rental_uris": {"ios": "https://dc.lft.to/lastmile_qr_scan", "android": "https://dc.lft.to/lastmile_qr_scan"}, "fusion_lon": 0.0, "lon": -77.017764, "name": "05020bc9cb12bf7e03373d45035e3df6", "is_reserved": 0, "is_disabled": 0}, {"lat": 38.900682333333336, "fusion_lat": 0.0, "type": "electric_scooter", "bike_id": "84d8195c149141c556d9d4cf26692a9f", "rental_uris": {"ios": "https://dc.lft.to/lastmile_qr_scan", "android": "https://dc.lft.to/lastmile_qr_scan"}, "fusion_lon": 0.0, "lon": -77.01797833333333, "name": "84d8195c149141c556d9d4cf26692a9f", "is_reserved": 0, "is_disabled": 0}, {"lat": 38.806391833333336, "fusion_lat": 0.0, "type": "electric_bike", "bike_id": "3cb5be38ee61b7e3f87cb15af325e292", "rental_uris": {"ios": "https://dc.lft.to/lastmile_qr_scan", "android": "https://dc.lft.to/lastmile_qr_scan"}, "fusion_lon": 0.0, "lon": -77.06248633333334, "name": "3cb5be38ee61b7e3f87cb15af325e292", "is_reserved": 0, "is_disabled": 0}, {"lat": 38.920734333333336, "fusion_lat": 0.0, "type": "electric_scooter", "bike_id": "e83144e088058cc6a61efd3adcb77333", "rental_uris": {"ios": "https://dc.lft.to/lastmile_qr_scan", "android": "https://dc.lft.to/lastmile_qr_scan"}, "fusion_lon": 0.0, "lon": -77.02309533333333, "name": "e83144e088058cc6a61efd3adcb77333", "is_reserved": 0, "is_disabled": 0}, {"lat": 38.83510716666667, "fusion_lat": 0.0, "type": "electric_bike", "bike_id": "9c99660c9303f1ca523eb5a32b4f25ea", "rental_uris": {"ios": "https://dc.lft.to/lastmile_qr_scan", "android": "https://dc.lft.to/lastmile_qr_scan"}, "fusion_lon": 0.0, "lon": -76.98676483333334, "name": "9c99660c9303f1ca523eb5a32b4f25ea", "is_reserved": 0, "is_disabled": 0}, {"lat": 38.934109, "fusion_lat": 0.0, "type": "electric_scooter", "bike_id": "96278704ae10701b172c42a8048a21d9", "rental_uris": {"ios": "https://dc.lft.to/lastmile_qr_scan", "android": "https://dc.lft.to/lastmile_qr_scan"}, "fusion_lon": 0.0, "lon": -77.01979266666666, "name": "96278704ae10701b172c42a8048a21d9", "is_reserved": 0, "is_disabled": 0}, {"lat": 38.92468383333333, "fusion_lat": 0.0, "type": "electric_scooter", "bike_id": "49c0f2e50517cf3043647dca79bb2b87", "rental_uris": {"ios": "https://dc.lft.to/lastmile_qr_scan", "android": "https://dc.lft.to/lastmile_qr_scan"}, "fusion_lon": 0.0, "lon": -77.02246283333334, "name": "49c0f2e50517cf3043647dca79bb2b87", "is_reserved": 0, "is_disabled": 0}, {"lat": 38.93600133333333, "fusion_lat": 0.0, "type": "electric_scooter", "bike_id": "5e2620e846f12579b4cda04b5015382c", "rental_uris": {"ios": "https://dc.lft.to/lastmile_qr_scan", "android": "https://dc.lft.to/lastmile_qr_scan"}, "fusion_lon": 0.0, "lon": -77.03793633333333, "name": "5e2620e846f12579b4cda04b5015382c", "is_reserved": 0, "is_disabled": 0}, {"lat": 38.90024116666667, "fusion_lat": 0.0, "type": "electric_scooter", "bike_id": "25d27e2db47c62c4a3b61f5b9721e8eb", "rental_uris": {"ios": "https://dc.lft.to/lastmile_qr_scan", "android": "https://dc.lft.to/lastmile_qr_scan"}, "fusion_lon": 0.0, "lon": -77.04646083333333, "name": "25d27e2db47c62c4a3b61f5b9721e8eb", "is_reserved": 0, "is_disabled": 0}, {"lat": 38.916886166666664, "fusion_lat": 0.0, "type": "electric_scooter", "bike_id": "d6e8ff44d9fe66ce37cdb4b48c4084fb", "rental_uris": {"ios": "https://dc.lft.to/lastmile_qr_scan", "android": "https://dc.lft.to/lastmile_qr_scan"}, "fusion_lon": 0.0, "lon": -77.00918166666666, "name": "d6e8ff44d9fe66ce37cdb4b48c4084fb", "is_reserved": 0, "is_disabled": 0}, {"lat": 38.900066333333335, "fusion_lat": 0.0, "type": "electric_bike", "bike_id": "79d9ca3e0871aac4fab3d46a2cd29979", "rental_uris": {"ios": "https://dc.lft.to/lastmile_qr_scan", "android": "https://dc.lft.to/lastmile_qr_scan"}, "fusion_lon": 0.0, "lon": -76.9976155, "name": "79d9ca3e0871aac4fab3d46a2cd29979", "is_reserved": 0, "is_disabled": 0}, {"lat": 38.916451, "fusion_lat": 0.0, "type": "electric_scooter", "bike_id": "ec1c0bb3dc5d08bdc7d57cb6f7d80763", "rental_uris": {"ios": "https://dc.lft.to/lastmile_qr_scan", "android": "https://dc.lft.to/lastmile_qr_scan"}, "fusion_lon": 0.0, "lon": -77.03175966666667, "name": "ec1c0bb3dc5d08bdc7d57cb6f7d80763", "is_reserved": 0, "is_disabled": 0}, {"lat": 38.90821016666666, "fusion_lat": 0.0, "type": "electric_scooter", "bike_id": "49cb566b8fcb2e2f976230855e81f69a", "rental_uris": {"ios": "https://dc.lft.to/lastmile_qr_scan", "android": "https://dc.lft.to/lastmile_qr_scan"}, "fusion_lon": 0.0, "lon": -77.07304966666666, "name": "49cb566b8fcb2e2f976230855e81f69a", "is_reserved": 0, "is_disabled": 0}, {"lat": 38.920093, "fusion_lat": 0.0, "type": "electric_scooter", "bike_id": "329af24d349ea556fbb57baa81a9428c", "rental_uris": {"ios": "https://dc.lft.to/lastmile_qr_scan", "android": "https://dc.lft.to/lastmile_qr_scan"}, "fusion_lon": 0.0, "lon": -77.021815, "name": "329af24d349ea556fbb57baa81a9428c", "is_reserved": 0, "is_disabled": 0}, {"lat": 38.904814333333334, "fusion_lat": 0.0, "type": "electric_scooter", "bike_id": "3755a66efad2468ed0d3b5cd3f7e0ddf", "rental_uris": {"ios": "https://dc.lft.to/lastmile_qr_scan", "android": "https://dc.lft.to/lastmile_qr_scan"}, "fusion_lon": 0.0, "lon": -77.018737, "name": "3755a66efad2468ed0d3b5cd3f7e0ddf", "is_reserved": 0, "is_disabled": 0}, {"lat": 38.9204265, "fusion_lat": 0.0, "type": "electric_scooter", "bike_id": "9b5a5aee8161035938561ba55a240ca4", "rental_uris": {"ios": "https://dc.lft.to/lastmile_qr_scan", "android": "https://dc.lft.to/lastmile_qr_scan"}, "fusion_lon": 0.0, "lon": -77.018344, "name": "9b5a5aee8161035938561ba55a240ca4", "is_reserved": 0, "is_disabled": 0}, {"lat": 38.9096865, "fusion_lat": 0.0, "type": "electric_scooter", "bike_id": "3b338a7a7be7cf20b3b86186684a0f55", "rental_uris": {"ios": "https://dc.lft.to/lastmile_qr_scan", "android": "https://dc.lft.to/lastmile_qr_scan"}, "fusion_lon": 0.0, "lon": -77.038168, "name": "3b338a7a7be7cf20b3b86186684a0f55", "is_reserved": 0, "is_disabled": 0}, {"lat": 38.91497716666667, "fusion_lat": 0.0, "type": "electric_scooter", "bike_id": "6d64057c1b80d94e57fa776bf671d9cc", "rental_uris": {"ios": "https://dc.lft.to/lastmile_qr_scan", "android": "https://dc.lft.to/lastmile_qr_scan"}, "fusion_lon": 0.0, "lon": -77.04549333333334, "name": "6d64057c1b80d94e57fa776bf671d9cc", "is_reserved": 0, "is_disabled": 0}, {"lat": 38.9667845, "fusion_lat": 0.0, "type": "electric_bike", "bike_id": "7f6f9dc742bccf2aeb473aa5f8259334", "rental_uris": {"ios": "https://dc.lft.to/lastmile_qr_scan", "android": "https://dc.lft.to/lastmile_qr_scan"}, "fusion_lon": 0.0, "lon": -77.02266833333333, "name": "7f6f9dc742bccf2aeb473aa5f8259334", "is_reserved": 0, "is_disabled": 0}, {"lat": 38.921041, "fusion_lat": 0.0, "type": "electric_scooter", "bike_id": "103fd3788f214e32b04271ce43ec5eb0", "rental_uris": {"ios": "https://dc.lft.to/lastmile_qr_scan", "android": "https://dc.lft.to/lastmile_qr_scan"}, "fusion_lon": 0.0, "lon": -77.04686666666667, "name": "103fd3788f214e32b04271ce43ec5eb0", "is_reserved": 0, "is_disabled": 0}, {"lat": 38.89223883333333, "fusion_lat": 0.0, "type": "electric_scooter", "bike_id": "2d701db7eaca4913ffc986598b7a0724", "rental_uris": {"ios": "https://dc.lft.to/lastmile_qr_scan", "android": "https://dc.lft.to/lastmile_qr_scan"}, "fusion_lon": 0.0, "lon": -77.04466016666667, "name": "2d701db7eaca4913ffc986598b7a0724", "is_reserved": 0, "is_disabled": 0}, {"lat": 38.906955333333336, "fusion_lat": 0.0, "type": "electric_scooter", "bike_id": "0eea644530e15d4409388397baeb6792", "rental_uris": {"ios": "https://dc.lft.to/lastmile_qr_scan", "android": "https://dc.lft.to/lastmile_qr_scan"}, "fusion_lon": 0.0, "lon": -77.038158, "name": "0eea644530e15d4409388397baeb6792", "is_reserved": 0, "is_disabled": 0}, {"lat": 38.905697, "fusion_lat": 0.0, "type": "electric_bike", "bike_id": "f9c49253202d7c7bd220b539cad7ecf2", "rental_uris": {"ios": "https://dc.lft.to/lastmile_qr_scan", "android": "https://dc.lft.to/lastmile_qr_scan"}, "fusion_lon": 0.0, "lon": -76.99954766666667, "name": "f9c49253202d7c7bd220b539cad7ecf2", "is_reserved": 0, "is_disabled": 0}, {"lat": 38.90024316666667, "fusion_lat": 0.0, "type": "electric_scooter", "bike_id": "0053a69f639ccd3190364d5c5f70cba7", "rental_uris": {"ios": "https://dc.lft.to/lastmile_qr_scan", "android": "https://dc.lft.to/lastmile_qr_scan"}, "fusion_lon": 0.0, "lon": -77.04657, "name": "0053a69f639ccd3190364d5c5f70cba7", "is_reserved": 0, "is_disabled": 0}, {"lat": 38.978753, "fusion_lat": 0.0, "type": "electric_bike", "bike_id": "59f16ba5cf2fefef874ebb9ab8d2a48a", "rental_uris": {"ios": "https://dc.lft.to/lastmile_qr_scan", "android": "https://dc.lft.to/lastmile_qr_scan"}, "fusion_lon": 0.0, "lon": -77.060219, "name": "59f16ba5cf2fefef874ebb9ab8d2a48a", "is_reserved": 0, "is_disabled": 0}, {"lat": 38.917434, "fusion_lat": 0.0, "type": "electric_scooter", "bike_id": "046541dc1738b44d0e01eb2bcf03043c", "rental_uris": {"ios": "https://dc.lft.to/lastmile_qr_scan", "android": "https://dc.lft.to/lastmile_qr_scan"}, "fusion_lon": 0.0, "lon": -77.06938933333333, "name": "046541dc1738b44d0e01eb2bcf03043c", "is_reserved": 0, "is_disabled": 0}, {"lat": 38.923438, "fusion_lat": 0.0, "type": "electric_scooter", "bike_id": "1e8b55646af81b9c27d310452fae951b", "rental_uris": {"ios": "https://dc.lft.to/lastmile_qr_scan", "android": "https://dc.lft.to/lastmile_qr_scan"}, "fusion_lon": 0.0, "lon": -77.051689, "name": "1e8b55646af81b9c27d310452fae951b", "is_reserved": 0, "is_disabled": 0}, {"lat": 38.83808333333333, "fusion_lat": 0.0, "type": "electric_bike", "bike_id": "ee03441f5c4d854d98b97e9fad080b57", "rental_uris": {"ios": "https://dc.lft.to/lastmile_qr_scan", "android": "https://dc.lft.to/lastmile_qr_scan"}, "fusion_lon": 0.0, "lon": -77.09521416666666, "name": "ee03441f5c4d854d98b97e9fad080b57", "is_reserved": 0, "is_disabled": 0}, {"lat": 38.84257183333333, "fusion_lat": 0.0, "type": "electric_bike", "bike_id": "12d5bcc54712b3a96c02491797b02b0c", "rental_uris": {"ios": "https://dc.lft.to/lastmile_qr_scan", "android": "https://dc.lft.to/lastmile_qr_scan"}, "fusion_lon": 0.0, "lon": -76.98843716666667, "name": "12d5bcc54712b3a96c02491797b02b0c", "is_reserved": 0, "is_disabled": 0}, {"lat": 38.911141666666666, "fusion_lat": 0.0, "type": "electric_scooter", "bike_id": "e228f91416005c284fc5493c84a47c82", "rental_uris": {"ios": "https://dc.lft.to/lastmile_qr_scan", "android": "https://dc.lft.to/lastmile_qr_scan"}, "fusion_lon": 0.0, "lon": -77.03142816666667, "name": "e228f91416005c284fc5493c84a47c82", "is_reserved": 0, "is_disabled": 0}, {"lat": 38.897527333333336, "fusion_lat": 0.0, "type": "electric_scooter", "bike_id": "a1f921976203323078cf367266194f3d", "rental_uris": {"ios": "https://dc.lft.to/lastmile_qr_scan", "android": "https://dc.lft.to/lastmile_qr_scan"}, "fusion_lon": 0.0, "lon": -77.029804, "name": "a1f921976203323078cf367266194f3d", "is_reserved": 0, "is_disabled": 0}, {"lat": 38.85898916666667, "fusion_lat": 0.0, "type": "electric_scooter", "bike_id": "b57c99f13199c7db3e79d12ee94a474f", "rental_uris": {"ios": "https://dc.lft.to/lastmile_qr_scan", "android": "https://dc.lft.to/lastmile_qr_scan"}, "fusion_lon": 0.0, "lon": -76.98924566666666, "name": "b57c99f13199c7db3e79d12ee94a474f", "is_reserved": 0, "is_disabled": 0}, {"lat": 38.91568816666667, "fusion_lat": 0.0, "type": "electric_scooter", "bike_id": "789c796cc3dcfbca4599df5edac5844a", "rental_uris": {"ios": "https://dc.lft.to/lastmile_qr_scan", "android": "https://dc.lft.to/lastmile_qr_scan"}, "fusion_lon": 0.0, "lon": -77.02004633333334, "name": "789c796cc3dcfbca4599df5edac5844a", "is_reserved": 0, "is_disabled": 0}, {"lat": 38.88766666666667, "fusion_lat": 0.0, "type": "electric_scooter", "bike_id": "52be7699aae53202b52565eb9cfce30f", "rental_uris": {"ios": "https://dc.lft.to/lastmile_qr_scan", "android": "https://dc.lft.to/lastmile_qr_scan"}, "fusion_lon": 0.0, "lon": -77.00189433333334, "name": "52be7699aae53202b52565eb9cfce30f", "is_reserved": 0, "is_disabled": 0}, {"lat": 38.92316866666667, "fusion_lat": 0.0, "type": "electric_scooter", "bike_id": "78d8a9e157d0b24385c0e2cbf2949d4c", "rental_uris": {"ios": "https://dc.lft.to/lastmile_qr_scan", "android": "https://dc.lft.to/lastmile_qr_scan"}, "fusion_lon": 0.0, "lon": -77.03046, "name": "78d8a9e157d0b24385c0e2cbf2949d4c", "is_reserved": 0, "is_disabled": 0}, {"lat": 38.89191566666667, "fusion_lat": 0.0, "type": "electric_scooter", "bike_id": "632ef0f78cf92a974b151841c5184b77", "rental_uris": {"ios": "https://dc.lft.to/lastmile_qr_scan", "android": "https://dc.lft.to/lastmile_qr_scan"}, "fusion_lon": 0.0, "lon": -77.002899, "name": "632ef0f78cf92a974b151841c5184b77", "is_reserved": 0, "is_disabled": 0}, {"lat": 38.92462916666667, "fusion_lat": 0.0, "type": "electric_scooter", "bike_id": "5ee8c9cc834c9fcb352afe26ace96c92", "rental_uris": {"ios": "https://dc.lft.to/lastmile_qr_scan", "android": "https://dc.lft.to/lastmile_qr_scan"}, "fusion_lon": 0.0, "lon": -77.02245966666666, "name": "5ee8c9cc834c9fcb352afe26ace96c92", "is_reserved": 0, "is_disabled": 0}, {"lat": 38.910481833333336, "fusion_lat": 0.0, "type": "electric_scooter", "bike_id": "380310628d547d16becbf372ef4b8b2b", "rental_uris": {"ios": "https://dc.lft.to/lastmile_qr_scan", "android": "https://dc.lft.to/lastmile_qr_scan"}, "fusion_lon": 0.0, "lon": -77.043649, "name": "380310628d547d16becbf372ef4b8b2b", "is_reserved": 0, "is_disabled": 0}, {"lat": 38.898021, "fusion_lat": 0.0, "type": "electric_scooter", "bike_id": "3a710165d9daa82b832a5d2c6f7a218c", "rental_uris": {"ios": "https://dc.lft.to/lastmile_qr_scan", "android": "https://dc.lft.to/lastmile_qr_scan"}, "fusion_lon": 0.0, "lon": -77.031623, "name": "3a710165d9daa82b832a5d2c6f7a218c", "is_reserved": 0, "is_disabled": 0}, {"lat": 38.895394, "fusion_lat": 0.0, "type": "electric_scooter", "bike_id": "7faa767153c0b1dc2fc7bbd0edeb606a", "rental_uris": {"ios": "https://dc.lft.to/lastmile_qr_scan", "android": "https://dc.lft.to/lastmile_qr_scan"}, "fusion_lon": 0.0, "lon": -76.98335033333333, "name": "7faa767153c0b1dc2fc7bbd0edeb606a", "is_reserved": 0, "is_disabled": 0}, {"lat": 38.924499833333336, "fusion_lat": 0.0, "type": "electric_scooter", "bike_id": "4bec963f2496a489d713298c72527a9f", "rental_uris": {"ios": "https://dc.lft.to/lastmile_qr_scan", "android": "https://dc.lft.to/lastmile_qr_scan"}, "fusion_lon": 0.0, "lon": -77.0403565, "name": "4bec963f2496a489d713298c72527a9f", "is_reserved": 0, "is_disabled": 0}, {"lat": 38.91825883333333, "fusion_lat": 0.0, "type": "electric_scooter", "bike_id": "885f6daeaa4fc8a179d1bc6a73701ec9", "rental_uris": {"ios": "https://dc.lft.to/lastmile_qr_scan", "android": "https://dc.lft.to/lastmile_qr_scan"}, "fusion_lon": 0.0, "lon": -77.02418566666667, "name": "885f6daeaa4fc8a179d1bc6a73701ec9", "is_reserved": 0, "is_disabled": 0}, {"lat": 38.92500783333333, "fusion_lat": 0.0, "type": "electric_scooter", "bike_id": "2609292e7dfe887104243e415d6c6c4d", "rental_uris": {"ios": "https://dc.lft.to/lastmile_qr_scan", "android": "https://dc.lft.to/lastmile_qr_scan"}, "fusion_lon": 0.0, "lon": -77.0225475, "name": "2609292e7dfe887104243e415d6c6c4d", "is_reserved": 0, "is_disabled": 0}, {"lat": 38.888213, "fusion_lat": 0.0, "type": "electric_scooter", "bike_id": "e63e3aa84fd39b92471abd5fb592b4dc", "rental_uris": {"ios": "https://dc.lft.to/lastmile_qr_scan", "android": "https://dc.lft.to/lastmile_qr_scan"}, "fusion_lon": 0.0, "lon": -76.977168, "name": "e63e3aa84fd39b92471abd5fb592b4dc", "is_reserved": 0, "is_disabled": 0}, {"lat": 38.904521333333335, "fusion_lat": 0.0, "type": "electric_scooter", "bike_id": "0277f8efc9cebee30a8acd60f02bf9c9", "rental_uris": {"ios": "https://dc.lft.to/lastmile_qr_scan", "android": "https://dc.lft.to/lastmile_qr_scan"}, "fusion_lon": 0.0, "lon": -77.03555866666666, "name": "0277f8efc9cebee30a8acd60f02bf9c9", "is_reserved": 0, "is_disabled": 0}, {"lat": 38.89441566666667, "fusion_lat": 0.0, "type": "electric_scooter", "bike_id": "d4208a01d9c9deaa50904d8a6c16ab2e", "rental_uris": {"ios": "https://dc.lft.to/lastmile_qr_scan", "android": "https://dc.lft.to/lastmile_qr_scan"}, "fusion_lon": 0.0, "lon": -76.97814666666666, "name": "d4208a01d9c9deaa50904d8a6c16ab2e", "is_reserved": 0, "is_disabled": 0}, {"lat": 38.920364666666664, "fusion_lat": 0.0, "type": "electric_scooter", "bike_id": "886c52025bce01b1cc6ddc833f53fd92", "rental_uris": {"ios": "https://dc.lft.to/lastmile_qr_scan", "android": "https://dc.lft.to/lastmile_qr_scan"}, "fusion_lon": 0.0, "lon": -77.01671966666666, "name": "886c52025bce01b1cc6ddc833f53fd92", "is_reserved": 0, "is_disabled": 0}, {"lat": 38.955916, "fusion_lat": 0.0, "type": "electric_bike", "bike_id": "2dff98217375e12cc50485349f8447b2", "rental_uris": {"ios": "https://dc.lft.to/lastmile_qr_scan", "android": "https://dc.lft.to/lastmile_qr_scan"}, "fusion_lon": 0.0, "lon": -77.0100885, "name": "2dff98217375e12cc50485349f8447b2", "is_reserved": 0, "is_disabled": 0}, {"lat": 38.916346, "fusion_lat": 0.0, "type": "electric_scooter", "bike_id": "9274c237f417c1cc21be0bc85a0f32db", "rental_uris": {"ios": "https://dc.lft.to/lastmile_qr_scan", "android": "https://dc.lft.to/lastmile_qr_scan"}, "fusion_lon": 0.0, "lon": -77.02257266666666, "name": "9274c237f417c1cc21be0bc85a0f32db", "is_reserved": 0, "is_disabled": 0}, {"lat": 38.91185016666667, "fusion_lat": 0.0, "type": "electric_scooter", "bike_id": "d83e3ae5c162b4f0ffe021c57d58b277", "rental_uris": {"ios": "https://dc.lft.to/lastmile_qr_scan", "android": "https://dc.lft.to/lastmile_qr_scan"}, "fusion_lon": 0.0, "lon": -77.00465966666667, "name": "d83e3ae5c162b4f0ffe021c57d58b277", "is_reserved": 0, "is_disabled": 0}, {"lat": 38.900130833333336, "fusion_lat": 0.0, "type": "electric_scooter", "bike_id": "cc018151586c9ef0b679ebce57de1023", "rental_uris": {"ios": "https://dc.lft.to/lastmile_qr_scan", "android": "https://dc.lft.to/lastmile_qr_scan"}, "fusion_lon": 0.0, "lon": -76.9986705, "name": "cc018151586c9ef0b679ebce57de1023", "is_reserved": 0, "is_disabled": 0}, {"lat": 38.90357233333334, "fusion_lat": 0.0, "type": "electric_scooter", "bike_id": "ce71dd5ae255b9884dae72e580dc716f", "rental_uris": {"ios": "https://dc.lft.to/lastmile_qr_scan", "android": "https://dc.lft.to/lastmile_qr_scan"}, "fusion_lon": 0.0, "lon": -77.00740683333333, "name": "ce71dd5ae255b9884dae72e580dc716f", "is_reserved": 0, "is_disabled": 0}, {"lat": 38.900299, "fusion_lat": 0.0, "type": "electric_scooter", "bike_id": "650137a7f48a557dc6c7cc2773624606", "rental_uris": {"ios": "https://dc.lft.to/lastmile_qr_scan", "android": "https://dc.lft.to/lastmile_qr_scan"}, "fusion_lon": 0.0, "lon": -77.03985116666666, "name": "650137a7f48a557dc6c7cc2773624606", "is_reserved": 0, "is_disabled": 0}, {"lat": 38.900548, "fusion_lat": 0.0, "type": "electric_scooter", "bike_id": "71768af67ac759e14c554fc5322ae910", "rental_uris": {"ios": "https://dc.lft.to/lastmile_qr_scan", "android": "https://dc.lft.to/lastmile_qr_scan"}, "fusion_lon": 0.0, "lon": -77.04505683333333, "name": "71768af67ac759e14c554fc5322ae910", "is_reserved": 0, "is_disabled": 0}, {"lat": 38.9118535, "fusion_lat": 0.0, "type": "electric_scooter", "bike_id": "67051e4706f0c1b62f6dc0a56df88bfe", "rental_uris": {"ios": "https://dc.lft.to/lastmile_qr_scan", "android": "https://dc.lft.to/lastmile_qr_scan"}, "fusion_lon": 0.0, "lon": -77.04535033333333, "name": "67051e4706f0c1b62f6dc0a56df88bfe", "is_reserved": 0, "is_disabled": 0}, {"lat": 38.877215166666666, "fusion_lat": 0.0, "type": "electric_scooter", "bike_id": "465c5ed2f131f852c354f020129963a9", "rental_uris": {"ios": "https://dc.lft.to/lastmile_qr_scan", "android": "https://dc.lft.to/lastmile_qr_scan"}, "fusion_lon": 0.0, "lon": -77.01757183333334, "name": "465c5ed2f131f852c354f020129963a9", "is_reserved": 0, "is_disabled": 0}, {"lat": 38.920135, "fusion_lat": 0.0, "type": "electric_scooter", "bike_id": "acd2fb69e700b8202a16e872070152bf", "rental_uris": {"ios": "https://dc.lft.to/lastmile_qr_scan", "android": "https://dc.lft.to/lastmile_qr_scan"}, "fusion_lon": 0.0, "lon": -77.02186983333333, "name": "acd2fb69e700b8202a16e872070152bf", "is_reserved": 0, "is_disabled": 0}, {"lat": 38.8998455, "fusion_lat": 0.0, "type": "electric_scooter", "bike_id": "d99db86ed9046d41df26d918ba530410", "rental_uris": {"ios": "https://dc.lft.to/lastmile_qr_scan", "android": "https://dc.lft.to/lastmile_qr_scan"}, "fusion_lon": 0.0, "lon": -77.0066865, "name": "d99db86ed9046d41df26d918ba530410", "is_reserved": 0, "is_disabled": 0}, {"lat": 38.90315916666667, "fusion_lat": 0.0, "type": "electric_scooter", "bike_id": "43760c0e88d2417650721606a8806cc8", "rental_uris": {"ios": "https://dc.lft.to/lastmile_qr_scan", "android": "https://dc.lft.to/lastmile_qr_scan"}, "fusion_lon": 0.0, "lon": -77.03327416666667, "name": "43760c0e88d2417650721606a8806cc8", "is_reserved": 0, "is_disabled": 0}, {"lat": 38.922307833333335, "fusion_lat": 0.0, "type": "electric_scooter", "bike_id": "8e1945cbc31271a0a59b1ef7a78e77f4", "rental_uris": {"ios": "https://dc.lft.to/lastmile_qr_scan", "android": "https://dc.lft.to/lastmile_qr_scan"}, "fusion_lon": 0.0, "lon": -77.02017633333334, "name": "8e1945cbc31271a0a59b1ef7a78e77f4", "is_reserved": 0, "is_disabled": 0}, {"lat": 38.897149, "fusion_lat": 0.0, "type": "electric_scooter", "bike_id": "075eb47a184264972df4e31eaf610732", "rental_uris": {"ios": "https://dc.lft.to/lastmile_qr_scan", "android": "https://dc.lft.to/lastmile_qr_scan"}, "fusion_lon": 0.0, "lon": -77.00797, "name": "075eb47a184264972df4e31eaf610732", "is_reserved": 0, "is_disabled": 0}, {"lat": 38.91039883333333, "fusion_lat": 0.0, "type": "electric_scooter", "bike_id": "e5dd3d6f4235368ef26ab97bb48fe743", "rental_uris": {"ios": "https://dc.lft.to/lastmile_qr_scan", "android": "https://dc.lft.to/lastmile_qr_scan"}, "fusion_lon": 0.0, "lon": -77.042601, "name": "e5dd3d6f4235368ef26ab97bb48fe743", "is_reserved": 0, "is_disabled": 0}, {"lat": 38.9066995, "fusion_lat": 0.0, "type": "electric_scooter", "bike_id": "a572a429491310a8519c304be5b224e6", "rental_uris": {"ios": "https://dc.lft.to/lastmile_qr_scan", "android": "https://dc.lft.to/lastmile_qr_scan"}, "fusion_lon": 0.0, "lon": -77.02688766666667, "name": "a572a429491310a8519c304be5b224e6", "is_reserved": 0, "is_disabled": 0}, {"lat": 38.92255633333333, "fusion_lat": 0.0, "type": "electric_scooter", "bike_id": "8c43f2bf103d422c5cf37cd499d76541", "rental_uris": {"ios": "https://dc.lft.to/lastmile_qr_scan", "android": "https://dc.lft.to/lastmile_qr_scan"}, "fusion_lon": 0.0, "lon": -77.02972166666666, "name": "8c43f2bf103d422c5cf37cd499d76541", "is_reserved": 0, "is_disabled": 0}, {"lat": 38.901713666666666, "fusion_lat": 0.0, "type": "electric_scooter", "bike_id": "7ab783afc11a7cc92910b18741dbcbcb", "rental_uris": {"ios": "https://dc.lft.to/lastmile_qr_scan", "android": "https://dc.lft.to/lastmile_qr_scan"}, "fusion_lon": 0.0, "lon": -77.025536, "name": "7ab783afc11a7cc92910b18741dbcbcb", "is_reserved": 0, "is_disabled": 0}, {"lat": 38.896671, "fusion_lat": 0.0, "type": "electric_scooter", "bike_id": "fe4ebb4fc3f3d9ce3c8be6287d691dc4", "rental_uris": {"ios": "https://dc.lft.to/lastmile_qr_scan", "android": "https://dc.lft.to/lastmile_qr_scan"}, "fusion_lon": 0.0, "lon": -76.93200883333333, "name": "fe4ebb4fc3f3d9ce3c8be6287d691dc4", "is_reserved": 0, "is_disabled": 0}, {"lat": 38.88768266666666, "fusion_lat": 0.0, "type": "electric_scooter", "bike_id": "3eeabcb43474f59b90d9be09858abf2c", "rental_uris": {"ios": "https://dc.lft.to/lastmile_qr_scan", "android": "https://dc.lft.to/lastmile_qr_scan"}, "fusion_lon": 0.0, "lon": -76.9869345, "name": "3eeabcb43474f59b90d9be09858abf2c", "is_reserved": 0, "is_disabled": 0}, {"lat": 38.901565833333336, "fusion_lat": 0.0, "type": "electric_scooter", "bike_id": "47491481273a5b1d9d0b81007f69d34b", "rental_uris": {"ios": "https://dc.lft.to/lastmile_qr_scan", "android": "https://dc.lft.to/lastmile_qr_scan"}, "fusion_lon": 0.0, "lon": -77.02689883333333, "name": "47491481273a5b1d9d0b81007f69d34b", "is_reserved": 0, "is_disabled": 0}, {"lat": 38.884118, "fusion_lat": 0.0, "type": "electric_scooter", "bike_id": "b01f7aff100e64a5faf7d470e4d25aae", "rental_uris": {"ios": "https://dc.lft.to/lastmile_qr_scan", "android": "https://dc.lft.to/lastmile_qr_scan"}, "fusion_lon": 0.0, "lon": -77.00803933333333, "name": "b01f7aff100e64a5faf7d470e4d25aae", "is_reserved": 0, "is_disabled": 0}, {"lat": 38.920604833333336, "fusion_lat": 0.0, "type": "electric_scooter", "bike_id": "488b58d9fa1fdc5dbbab164c830bc909", "rental_uris": {"ios": "https://dc.lft.to/lastmile_qr_scan", "android": "https://dc.lft.to/lastmile_qr_scan"}, "fusion_lon": 0.0, "lon": -77.04613766666667, "name": "488b58d9fa1fdc5dbbab164c830bc909", "is_reserved": 0, "is_disabled": 0}, {"lat": 38.921358166666664, "fusion_lat": 0.0, "type": "electric_scooter", "bike_id": "ba808bfaac13b971a610c0b0d7251f78", "rental_uris": {"ios": "https://dc.lft.to/lastmile_qr_scan", "android": "https://dc.lft.to/lastmile_qr_scan"}, "fusion_lon": 0.0, "lon": -77.01803616666666, "name": "ba808bfaac13b971a610c0b0d7251f78", "is_reserved": 0, "is_disabled": 0}, {"lat": 38.90504166666667, "fusion_lat": 0.0, "type": "electric_scooter", "bike_id": "6d1f250969e60ce9d35fbadc42d1cd28", "rental_uris": {"ios": "https://dc.lft.to/lastmile_qr_scan", "android": "https://dc.lft.to/lastmile_qr_scan"}, "fusion_lon": 0.0, "lon": -77.051115, "name": "6d1f250969e60ce9d35fbadc42d1cd28", "is_reserved": 0, "is_disabled": 0}, {"lat": 38.89644333333333, "fusion_lat": 0.0, "type": "electric_scooter", "bike_id": "40a3096d9e43ae6bf70dde42e95f2cd1", "rental_uris": {"ios": "https://dc.lft.to/lastmile_qr_scan", "android": "https://dc.lft.to/lastmile_qr_scan"}, "fusion_lon": 0.0, "lon": -77.02715316666666, "name": "40a3096d9e43ae6bf70dde42e95f2cd1", "is_reserved": 0, "is_disabled": 0}, {"lat": 38.8950705, "fusion_lat": 0.0, "type": "electric_scooter", "bike_id": "9ef19a84a9c738feb02b03bf26364902", "rental_uris": {"ios": "https://dc.lft.to/lastmile_qr_scan", "android": "https://dc.lft.to/lastmile_qr_scan"}, "fusion_lon": 0.0, "lon": -77.02801466666666, "name": "9ef19a84a9c738feb02b03bf26364902", "is_reserved": 0, "is_disabled": 0}, {"lat": 38.8961675, "fusion_lat": 0.0, "type": "electric_scooter", "bike_id": "86899e40e133d373d8e3189982a67749", "rental_uris": {"ios": "https://dc.lft.to/lastmile_qr_scan", "android": "https://dc.lft.to/lastmile_qr_scan"}, "fusion_lon": 0.0, "lon": -76.98566716666667, "name": "86899e40e133d373d8e3189982a67749", "is_reserved": 0, "is_disabled": 0}, {"lat": 38.9259965, "fusion_lat": 0.0, "type": "electric_scooter", "bike_id": "003214b183da17594ce43b258971e210", "rental_uris": {"ios": "https://dc.lft.to/lastmile_qr_scan", "android": "https://dc.lft.to/lastmile_qr_scan"}, "fusion_lon": 0.0, "lon": -77.0238145, "name": "003214b183da17594ce43b258971e210", "is_reserved": 0, "is_disabled": 0}, {"lat": 38.907269666666664, "fusion_lat": 0.0, "type": "electric_scooter", "bike_id": "2c18fbb77c9d945941133af070ad70d7", "rental_uris": {"ios": "https://dc.lft.to/lastmile_qr_scan", "android": "https://dc.lft.to/lastmile_qr_scan"}, "fusion_lon": 0.0, "lon": -77.042525, "name": "2c18fbb77c9d945941133af070ad70d7", "is_reserved": 0, "is_disabled": 0}, {"lat": 38.906326166666666, "fusion_lat": 0.0, "type": "electric_scooter", "bike_id": "92abcf5bff66cfe371219ac071192e08", "rental_uris": {"ios": "https://dc.lft.to/lastmile_qr_scan", "android": "https://dc.lft.to/lastmile_qr_scan"}, "fusion_lon": 0.0, "lon": -77.04877433333333, "name": "92abcf5bff66cfe371219ac071192e08", "is_reserved": 0, "is_disabled": 0}, {"lat": 38.87508616666667, "fusion_lat": 0.0, "type": "electric_scooter", "bike_id": "224a49b865eff2e240bf03a8b2ffdd9f", "rental_uris": {"ios": "https://dc.lft.to/lastmile_qr_scan", "android": "https://dc.lft.to/lastmile_qr_scan"}, "fusion_lon": 0.0, "lon": -77.00052766666667, "name": "224a49b865eff2e240bf03a8b2ffdd9f", "is_reserved": 0, "is_disabled": 0}, {"lat": 38.88418566666667, "fusion_lat": 0.0, "type": "electric_scooter", "bike_id": "b7ca4d85627ce199ef83d02b413f6825", "rental_uris": {"ios": "https://dc.lft.to/lastmile_qr_scan", "android": "https://dc.lft.to/lastmile_qr_scan"}, "fusion_lon": 0.0, "lon": -76.9419835, "name": "b7ca4d85627ce199ef83d02b413f6825", "is_reserved": 0, "is_disabled": 0}, {"lat": 38.927830166666666, "fusion_lat": 0.0, "type": "electric_bike", "bike_id": "4c0390faf4cad0e78e84b10b7fe80978", "rental_uris": {"ios": "https://dc.lft.to/lastmile_qr_scan", "android": "https://dc.lft.to/lastmile_qr_scan"}, "fusion_lon": 0.0, "lon": -77.035933, "name": "4c0390faf4cad0e78e84b10b7fe80978", "is_reserved": 0, "is_disabled": 0}, {"lat": 38.9234515, "fusion_lat": 0.0, "type": "electric_scooter", "bike_id": "6c79aab25d9ba4921af3c948ec12e59b", "rental_uris": {"ios": "https://dc.lft.to/lastmile_qr_scan", "android": "https://dc.lft.to/lastmile_qr_scan"}, "fusion_lon": 0.0, "lon": -77.0516165, "name": "6c79aab25d9ba4921af3c948ec12e59b", "is_reserved": 0, "is_disabled": 0}, {"lat": 38.9259925, "fusion_lat": 0.0, "type": "electric_scooter", "bike_id": "2ded9d4202cf55382c90b0b35b0dbf11", "rental_uris": {"ios": "https://dc.lft.to/lastmile_qr_scan", "android": "https://dc.lft.to/lastmile_qr_scan"}, "fusion_lon": 0.0, "lon": -77.021541, "name": "2ded9d4202cf55382c90b0b35b0dbf11", "is_reserved": 0, "is_disabled": 0}, {"lat": 38.9012855, "fusion_lat": 0.0, "type": "electric_scooter", "bike_id": "c38ccb61da510b899d7c8cf8de63742e", "rental_uris": {"ios": "https://dc.lft.to/lastmile_qr_scan", "android": "https://dc.lft.to/lastmile_qr_scan"}, "fusion_lon": 0.0, "lon": -77.0436765, "name": "c38ccb61da510b899d7c8cf8de63742e", "is_reserved": 0, "is_disabled": 0}, {"lat": 38.89692316666667, "fusion_lat": 0.0, "type": "electric_scooter", "bike_id": "f1615a32ccad76cf1b8d3b2d48fcbd9d", "rental_uris": {"ios": "https://dc.lft.to/lastmile_qr_scan", "android": "https://dc.lft.to/lastmile_qr_scan"}, "fusion_lon": 0.0, "lon": -77.04339566666667, "name": "f1615a32ccad76cf1b8d3b2d48fcbd9d", "is_reserved": 0, "is_disabled": 0}, {"lat": 38.906439666666664, "fusion_lat": 0.0, "type": "electric_scooter", "bike_id": "80b3a448cc3e370af0d8582e510e779d", "rental_uris": {"ios": "https://dc.lft.to/lastmile_qr_scan", "android": "https://dc.lft.to/lastmile_qr_scan"}, "fusion_lon": 0.0, "lon": -77.038505, "name": "80b3a448cc3e370af0d8582e510e779d", "is_reserved": 0, "is_disabled": 0}, {"lat": 38.91100316666667, "fusion_lat": 0.0, "type": "electric_scooter", "bike_id": "e093ea3e5646e1db0bc132eb03b19249", "rental_uris": {"ios": "https://dc.lft.to/lastmile_qr_scan", "android": "https://dc.lft.to/lastmile_qr_scan"}, "fusion_lon": 0.0, "lon": -77.07349866666667, "name": "e093ea3e5646e1db0bc132eb03b19249", "is_reserved": 0, "is_disabled": 0}, {"lat": 38.903812333333335, "fusion_lat": 0.0, "type": "electric_scooter", "bike_id": "69c4494d6dcb39a4c4432b7ad247df8f", "rental_uris": {"ios": "https://dc.lft.to/lastmile_qr_scan", "android": "https://dc.lft.to/lastmile_qr_scan"}, "fusion_lon": 0.0, "lon": -76.98946683333334, "name": "69c4494d6dcb39a4c4432b7ad247df8f", "is_reserved": 0, "is_disabled": 0}, {"lat": 38.887262, "fusion_lat": 0.0, "type": "electric_scooter", "bike_id": "e2690212bc5d170baafd1c5fb5251665", "rental_uris": {"ios": "https://dc.lft.to/lastmile_qr_scan", "android": "https://dc.lft.to/lastmile_qr_scan"}, "fusion_lon": 0.0, "lon": -76.98354683333334, "name": "e2690212bc5d170baafd1c5fb5251665", "is_reserved": 0, "is_disabled": 0}, {"lat": 38.886083166666666, "fusion_lat": 0.0, "type": "electric_scooter", "bike_id": "738245804c54830c9aaa07eb54d90ec4", "rental_uris": {"ios": "https://dc.lft.to/lastmile_qr_scan", "android": "https://dc.lft.to/lastmile_qr_scan"}, "fusion_lon": 0.0, "lon": -77.003221, "name": "738245804c54830c9aaa07eb54d90ec4", "is_reserved": 0, "is_disabled": 0}, {"lat": 38.92446183333333, "fusion_lat": 0.0, "type": "electric_scooter", "bike_id": "eff6ee2e3775e438e220277eab906043", "rental_uris": {"ios": "https://dc.lft.to/lastmile_qr_scan", "android": "https://dc.lft.to/lastmile_qr_scan"}, "fusion_lon": 0.0, "lon": -77.02146683333333, "name": "eff6ee2e3775e438e220277eab906043", "is_reserved": 0, "is_disabled": 0}, {"lat": 38.91923766666667, "fusion_lat": 0.0, "type": "electric_scooter", "bike_id": "63e1eed730082e2771bad75958752572", "rental_uris": {"ios": "https://dc.lft.to/lastmile_qr_scan", "android": "https://dc.lft.to/lastmile_qr_scan"}, "fusion_lon": 0.0, "lon": -77.03431616666667, "name": "63e1eed730082e2771bad75958752572", "is_reserved": 0, "is_disabled": 0}, {"lat": 38.950868, "fusion_lat": 0.0, "type": "electric_scooter", "bike_id": "867304ebff5ea54f7c27fc8a68ee081e", "rental_uris": {"ios": "https://dc.lft.to/lastmile_qr_scan", "android": "https://dc.lft.to/lastmile_qr_scan"}, "fusion_lon": 0.0, "lon": -77.03152683333333, "name": "867304ebff5ea54f7c27fc8a68ee081e", "is_reserved": 0, "is_disabled": 0}, {"lat": 38.92005233333333, "fusion_lat": 0.0, "type": "electric_scooter", "bike_id": "d67dc1ea62482d5d30eb5d23698ec08e", "rental_uris": {"ios": "https://dc.lft.to/lastmile_qr_scan", "android": "https://dc.lft.to/lastmile_qr_scan"}, "fusion_lon": 0.0, "lon": -77.02195983333333, "name": "d67dc1ea62482d5d30eb5d23698ec08e", "is_reserved": 0, "is_disabled": 0}, {"lat": 38.90040233333333, "fusion_lat": 0.0, "type": "electric_scooter", "bike_id": "7b6ed9897562cb8cb599a2d9437e20f5", "rental_uris": {"ios": "https://dc.lft.to/lastmile_qr_scan", "android": "https://dc.lft.to/lastmile_qr_scan"}, "fusion_lon": 0.0, "lon": -76.98832966666667, "name": "7b6ed9897562cb8cb599a2d9437e20f5", "is_reserved": 0, "is_disabled": 0}, {"lat": 38.920178166666666, "fusion_lat": 0.0, "type": "electric_scooter", "bike_id": "be3dfe123881b1848afbb4bd6d54b07b", "rental_uris": {"ios": "https://dc.lft.to/lastmile_qr_scan", "android": "https://dc.lft.to/lastmile_qr_scan"}, "fusion_lon": 0.0, "lon": -77.0715595, "name": "be3dfe123881b1848afbb4bd6d54b07b", "is_reserved": 0, "is_disabled": 0}, {"lat": 38.916514, "fusion_lat": 0.0, "type": "electric_scooter", "bike_id": "c798456efd06eb8ebb9adb1701b4a6d5", "rental_uris": {"ios": "https://dc.lft.to/lastmile_qr_scan", "android": "https://dc.lft.to/lastmile_qr_scan"}, "fusion_lon": 0.0, "lon": -77.041699, "name": "c798456efd06eb8ebb9adb1701b4a6d5", "is_reserved": 0, "is_disabled": 0}, {"lat": 38.92495733333333, "fusion_lat": 0.0, "type": "electric_scooter", "bike_id": "fe04b5a850cd17f82350cdacc806f010", "rental_uris": {"ios": "https://dc.lft.to/lastmile_qr_scan", "android": "https://dc.lft.to/lastmile_qr_scan"}, "fusion_lon": 0.0, "lon": -77.02399416666667, "name": "fe04b5a850cd17f82350cdacc806f010", "is_reserved": 0, "is_disabled": 0}, {"lat": 38.892194333333336, "fusion_lat": 0.0, "type": "electric_scooter", "bike_id": "b3faa0ba641d6f85cedb8ddb7bf15e2f", "rental_uris": {"ios": "https://dc.lft.to/lastmile_qr_scan", "android": "https://dc.lft.to/lastmile_qr_scan"}, "fusion_lon": 0.0, "lon": -77.02627433333333, "name": "b3faa0ba641d6f85cedb8ddb7bf15e2f", "is_reserved": 0, "is_disabled": 0}, {"lat": 38.915561333333336, "fusion_lat": 0.0, "type": "electric_scooter", "bike_id": "d36e0fd331068e28c537114e881e2fda", "rental_uris": {"ios": "https://dc.lft.to/lastmile_qr_scan", "android": "https://dc.lft.to/lastmile_qr_scan"}, "fusion_lon": 0.0, "lon": -77.03204233333334, "name": "d36e0fd331068e28c537114e881e2fda", "is_reserved": 0, "is_disabled": 0}, {"lat": 38.87709183333333, "fusion_lat": 0.0, "type": "electric_scooter", "bike_id": "323f2f559c4eeca4131a57ec1ffbc8cd", "rental_uris": {"ios": "https://dc.lft.to/lastmile_qr_scan", "android": "https://dc.lft.to/lastmile_qr_scan"}, "fusion_lon": 0.0, "lon": -76.99688566666667, "name": "323f2f559c4eeca4131a57ec1ffbc8cd", "is_reserved": 0, "is_disabled": 0}, {"lat": 38.88769633333333, "fusion_lat": 0.0, "type": "electric_scooter", "bike_id": "1c477755fba321464ae8fa63a6abee45", "rental_uris": {"ios": "https://dc.lft.to/lastmile_qr_scan", "android": "https://dc.lft.to/lastmile_qr_scan"}, "fusion_lon": 0.0, "lon": -77.0223565, "name": "1c477755fba321464ae8fa63a6abee45", "is_reserved": 0, "is_disabled": 0}, {"lat": 38.8960625, "fusion_lat": 0.0, "type": "electric_scooter", "bike_id": "6569009fa8a3bfc0021f798a0d930ce5", "rental_uris": {"ios": "https://dc.lft.to/lastmile_qr_scan", "android": "https://dc.lft.to/lastmile_qr_scan"}, "fusion_lon": 0.0, "lon": -77.00215216666666, "name": "6569009fa8a3bfc0021f798a0d930ce5", "is_reserved": 0, "is_disabled": 0}, {"lat": 38.872211666666665, "fusion_lat": 0.0, "type": "electric_scooter", "bike_id": "3bc9d63bb08708f6327352df511e6065", "rental_uris": {"ios": "https://dc.lft.to/lastmile_qr_scan", "android": "https://dc.lft.to/lastmile_qr_scan"}, "fusion_lon": 0.0, "lon": -77.012165, "name": "3bc9d63bb08708f6327352df511e6065", "is_reserved": 0, "is_disabled": 0}, {"lat": 38.9038925, "fusion_lat": 0.0, "type": "electric_scooter", "bike_id": "3f00988ef957fabdb211d5c5cc8376b6", "rental_uris": {"ios": "https://dc.lft.to/lastmile_qr_scan", "android": "https://dc.lft.to/lastmile_qr_scan"}, "fusion_lon": 0.0, "lon": -77.06803083333334, "name": "3f00988ef957fabdb211d5c5cc8376b6", "is_reserved": 0, "is_disabled": 0}, {"lat": 38.922533, "fusion_lat": 0.0, "type": "electric_scooter", "bike_id": "24b1c327fac2f17b21f25c8a99804598", "rental_uris": {"ios": "https://dc.lft.to/lastmile_qr_scan", "android": "https://dc.lft.to/lastmile_qr_scan"}, "fusion_lon": 0.0, "lon": -77.019094, "name": "24b1c327fac2f17b21f25c8a99804598", "is_reserved": 0, "is_disabled": 0}, {"lat": 38.90854216666666, "fusion_lat": 0.0, "type": "electric_scooter", "bike_id": "439b97b061fe8a7b3a8657a646f634b1", "rental_uris": {"ios": "https://dc.lft.to/lastmile_qr_scan", "android": "https://dc.lft.to/lastmile_qr_scan"}, "fusion_lon": 0.0, "lon": -77.06397183333333, "name": "439b97b061fe8a7b3a8657a646f634b1", "is_reserved": 0, "is_disabled": 0}, {"lat": 38.887240166666665, "fusion_lat": 0.0, "type": "electric_scooter", "bike_id": "a6e5e91a8e37a00042f40ef5d2798eec", "rental_uris": {"ios": "https://dc.lft.to/lastmile_qr_scan", "android": "https://dc.lft.to/lastmile_qr_scan"}, "fusion_lon": 0.0, "lon": -77.02830133333333, "name": "a6e5e91a8e37a00042f40ef5d2798eec", "is_reserved": 0, "is_disabled": 0}, {"lat": 38.901961, "fusion_lat": 0.0, "type": "electric_scooter", "bike_id": "8a414ff030bc5cd030d2fe0c5fec7c86", "rental_uris": {"ios": "https://dc.lft.to/lastmile_qr_scan", "android": "https://dc.lft.to/lastmile_qr_scan"}, "fusion_lon": 0.0, "lon": -77.02346533333333, "name": "8a414ff030bc5cd030d2fe0c5fec7c86", "is_reserved": 0, "is_disabled": 0}, {"lat": 38.8771185, "fusion_lat": 0.0, "type": "electric_scooter", "bike_id": "5e30423ec72e06eb80edce9e4de041ca", "rental_uris": {"ios": "https://dc.lft.to/lastmile_qr_scan", "android": "https://dc.lft.to/lastmile_qr_scan"}, "fusion_lon": 0.0, "lon": -77.01836466666667, "name": "5e30423ec72e06eb80edce9e4de041ca", "is_reserved": 0, "is_disabled": 0}, {"lat": 38.917106833333335, "fusion_lat": 0.0, "type": "electric_scooter", "bike_id": "4ed49eba84e2dbdf0a6b67305cbaf040", "rental_uris": {"ios": "https://dc.lft.to/lastmile_qr_scan", "android": "https://dc.lft.to/lastmile_qr_scan"}, "fusion_lon": 0.0, "lon": -76.97645816666666, "name": "4ed49eba84e2dbdf0a6b67305cbaf040", "is_reserved": 0, "is_disabled": 0}, {"lat": 38.8867655, "fusion_lat": 0.0, "type": "electric_scooter", "bike_id": "485c36cf276bb5d7d720f781b269bc55", "rental_uris": {"ios": "https://dc.lft.to/lastmile_qr_scan", "android": "https://dc.lft.to/lastmile_qr_scan"}, "fusion_lon": 0.0, "lon": -77.0019985, "name": "485c36cf276bb5d7d720f781b269bc55", "is_reserved": 0, "is_disabled": 0}, {"lat": 38.91251283333333, "fusion_lat": 0.0, "type": "electric_scooter", "bike_id": "c72628c0157c2428a15c7059edee341c", "rental_uris": {"ios": "https://dc.lft.to/lastmile_qr_scan", "android": "https://dc.lft.to/lastmile_qr_scan"}, "fusion_lon": 0.0, "lon": -77.0383865, "name": "c72628c0157c2428a15c7059edee341c", "is_reserved": 0, "is_disabled": 0}, {"lat": 38.90021933333333, "fusion_lat": 0.0, "type": "electric_scooter", "bike_id": "313d9558af8db153e695704d795010af", "rental_uris": {"ios": "https://dc.lft.to/lastmile_qr_scan", "android": "https://dc.lft.to/lastmile_qr_scan"}, "fusion_lon": 0.0, "lon": -77.00205366666667, "name": "313d9558af8db153e695704d795010af", "is_reserved": 0, "is_disabled": 0}, {"lat": 38.9027435, "fusion_lat": 0.0, "type": "electric_scooter", "bike_id": "1434a83b1c5baa98b498bae757bcb4a1", "rental_uris": {"ios": "https://dc.lft.to/lastmile_qr_scan", "android": "https://dc.lft.to/lastmile_qr_scan"}, "fusion_lon": 0.0, "lon": -77.0397065, "name": "1434a83b1c5baa98b498bae757bcb4a1", "is_reserved": 0, "is_disabled": 0}, {"lat": 38.88312416666667, "fusion_lat": 0.0, "type": "electric_bike", "bike_id": "7d7f781d746dc6eb4084f5243dc1cdea", "rental_uris": {"ios": "https://dc.lft.to/lastmile_qr_scan", "android": "https://dc.lft.to/lastmile_qr_scan"}, "fusion_lon": 0.0, "lon": -77.10658433333333, "name": "7d7f781d746dc6eb4084f5243dc1cdea", "is_reserved": 0, "is_disabled": 0}, {"lat": 38.93475016666667, "fusion_lat": 0.0, "type": "electric_scooter", "bike_id": "06869029ac214134ef9bb8c13d5c36da", "rental_uris": {"ios": "https://dc.lft.to/lastmile_qr_scan", "android": "https://dc.lft.to/lastmile_qr_scan"}, "fusion_lon": 0.0, "lon": -77.07276883333333, "name": "06869029ac214134ef9bb8c13d5c36da", "is_reserved": 0, "is_disabled": 0}, {"lat": 38.92256583333333, "fusion_lat": 0.0, "type": "electric_scooter", "bike_id": "460256050333ad561a60d32507d9d098", "rental_uris": {"ios": "https://dc.lft.to/lastmile_qr_scan", "android": "https://dc.lft.to/lastmile_qr_scan"}, "fusion_lon": 0.0, "lon": -77.03516983333333, "name": "460256050333ad561a60d32507d9d098", "is_reserved": 0, "is_disabled": 0}, {"lat": 38.9038515, "fusion_lat": 0.0, "type": "electric_scooter", "bike_id": "9f936912ff03f665a6bd7384324c6022", "rental_uris": {"ios": "https://dc.lft.to/lastmile_qr_scan", "android": "https://dc.lft.to/lastmile_qr_scan"}, "fusion_lon": 0.0, "lon": -77.06008916666667, "name": "9f936912ff03f665a6bd7384324c6022", "is_reserved": 0, "is_disabled": 0}, {"lat": 38.9215425, "fusion_lat": 0.0, "type": "electric_scooter", "bike_id": "ea8ba3c05e7044bc5e66b3b9cbf1a74d", "rental_uris": {"ios": "https://dc.lft.to/lastmile_qr_scan", "android": "https://dc.lft.to/lastmile_qr_scan"}, "fusion_lon": 0.0, "lon": -77.02021183333333, "name": "ea8ba3c05e7044bc5e66b3b9cbf1a74d", "is_reserved": 0, "is_disabled": 0}, {"lat": 38.91820516666667, "fusion_lat": 0.0, "type": "electric_scooter", "bike_id": "5f4a017b2bc1129ee466206394fc8706", "rental_uris": {"ios": "https://dc.lft.to/lastmile_qr_scan", "android": "https://dc.lft.to/lastmile_qr_scan"}, "fusion_lon": 0.0, "lon": -77.02416066666666, "name": "5f4a017b2bc1129ee466206394fc8706", "is_reserved": 0, "is_disabled": 0}, {"lat": 38.905323333333335, "fusion_lat": 0.0, "type": "electric_scooter", "bike_id": "ba30573e218daf46b3e181cbef6e6776", "rental_uris": {"ios": "https://dc.lft.to/lastmile_qr_scan", "android": "https://dc.lft.to/lastmile_qr_scan"}, "fusion_lon": 0.0, "lon": -77.050272, "name": "ba30573e218daf46b3e181cbef6e6776", "is_reserved": 0, "is_disabled": 0}, {"lat": 38.90535466666667, "fusion_lat": 0.0, "type": "electric_scooter", "bike_id": "93494829538e4974503d20ef2dc1899e", "rental_uris": {"ios": "https://dc.lft.to/lastmile_qr_scan", "android": "https://dc.lft.to/lastmile_qr_scan"}, "fusion_lon": 0.0, "lon": -77.0219355, "name": "93494829538e4974503d20ef2dc1899e", "is_reserved": 0, "is_disabled": 0}, {"lat": 38.89502516666667, "fusion_lat": 0.0, "type": "electric_scooter", "bike_id": "f5a3e120646f845ae5b4cf3c2773091e", "rental_uris": {"ios": "https://dc.lft.to/lastmile_qr_scan", "android": "https://dc.lft.to/lastmile_qr_scan"}, "fusion_lon": 0.0, "lon": -77.01078533333333, "name": "f5a3e120646f845ae5b4cf3c2773091e", "is_reserved": 0, "is_disabled": 0}, {"lat": 38.871083, "fusion_lat": 0.0, "type": "electric_scooter", "bike_id": "12c2683a3c6dd1a06c5f723b2f0a14f4", "rental_uris": {"ios": "https://dc.lft.to/lastmile_qr_scan", "android": "https://dc.lft.to/lastmile_qr_scan"}, "fusion_lon": 0.0, "lon": -76.9657505, "name": "12c2683a3c6dd1a06c5f723b2f0a14f4", "is_reserved": 0, "is_disabled": 0}, {"lat": 38.89955166666667, "fusion_lat": 0.0, "type": "electric_scooter", "bike_id": "18f4a99b14b2b59c9e3b863568d94b88", "rental_uris": {"ios": "https://dc.lft.to/lastmile_qr_scan", "android": "https://dc.lft.to/lastmile_qr_scan"}, "fusion_lon": 0.0, "lon": -77.044787, "name": "18f4a99b14b2b59c9e3b863568d94b88", "is_reserved": 0, "is_disabled": 0}, {"lat": 38.926305666666664, "fusion_lat": 0.0, "type": "electric_scooter", "bike_id": "65af28ee2b035c0d8f172645186520fb", "rental_uris": {"ios": "https://dc.lft.to/lastmile_qr_scan", "android": "https://dc.lft.to/lastmile_qr_scan"}, "fusion_lon": 0.0, "lon": -77.035241, "name": "65af28ee2b035c0d8f172645186520fb", "is_reserved": 0, "is_disabled": 0}, {"lat": 38.89735733333333, "fusion_lat": 0.0, "type": "electric_scooter", "bike_id": "df5f5514ba648d76bc8cfc636880aec2", "rental_uris": {"ios": "https://dc.lft.to/lastmile_qr_scan", "android": "https://dc.lft.to/lastmile_qr_scan"}, "fusion_lon": 0.0, "lon": -77.04609383333333, "name": "df5f5514ba648d76bc8cfc636880aec2", "is_reserved": 0, "is_disabled": 0}, {"lat": 38.89875716666667, "fusion_lat": 0.0, "type": "electric_scooter", "bike_id": "faf6254c0349ae42d1a30cade6ad20e0", "rental_uris": {"ios": "https://dc.lft.to/lastmile_qr_scan", "android": "https://dc.lft.to/lastmile_qr_scan"}, "fusion_lon": 0.0, "lon": -77.049937, "name": "faf6254c0349ae42d1a30cade6ad20e0", "is_reserved": 0, "is_disabled": 0}, {"lat": 38.94249583333333, "fusion_lat": 0.0, "type": "electric_scooter", "bike_id": "a7d6483e7a7be3398ad5331dba4882ea", "rental_uris": {"ios": "https://dc.lft.to/lastmile_qr_scan", "android": "https://dc.lft.to/lastmile_qr_scan"}, "fusion_lon": 0.0, "lon": -77.0362355, "name": "a7d6483e7a7be3398ad5331dba4882ea", "is_reserved": 0, "is_disabled": 0}, {"lat": 38.9170025, "fusion_lat": 0.0, "type": "electric_scooter", "bike_id": "8e9dcff4b0efd1ac152b16844f6d3161", "rental_uris": {"ios": "https://dc.lft.to/lastmile_qr_scan", "android": "https://dc.lft.to/lastmile_qr_scan"}, "fusion_lon": 0.0, "lon": -77.0408015, "name": "8e9dcff4b0efd1ac152b16844f6d3161", "is_reserved": 0, "is_disabled": 0}, {"lat": 38.89333033333333, "fusion_lat": 0.0, "type": "electric_scooter", "bike_id": "87dce076b49bb7d5f717e64558e3b757", "rental_uris": {"ios": "https://dc.lft.to/lastmile_qr_scan", "android": "https://dc.lft.to/lastmile_qr_scan"}, "fusion_lon": 0.0, "lon": -77.0261215, "name": "87dce076b49bb7d5f717e64558e3b757", "is_reserved": 0, "is_disabled": 0}, {"lat": 38.91965716666667, "fusion_lat": 0.0, "type": "electric_scooter", "bike_id": "cd0625bb543f94c937736f79057d3c77", "rental_uris": {"ios": "https://dc.lft.to/lastmile_qr_scan", "android": "https://dc.lft.to/lastmile_qr_scan"}, "fusion_lon": 0.0, "lon": -77.0385105, "name": "cd0625bb543f94c937736f79057d3c77", "is_reserved": 0, "is_disabled": 0}, {"lat": 38.921526, "fusion_lat": 0.0, "type": "electric_scooter", "bike_id": "8006f4237eba4b16a3a4d80170804bd5", "rental_uris": {"ios": "https://dc.lft.to/lastmile_qr_scan", "android": "https://dc.lft.to/lastmile_qr_scan"}, "fusion_lon": 0.0, "lon": -77.0332285, "name": "8006f4237eba4b16a3a4d80170804bd5", "is_reserved": 0, "is_disabled": 0}, {"lat": 38.869718, "fusion_lat": 0.0, "type": "electric_scooter", "bike_id": "5df2a75dc10b627f369b733831d3741e", "rental_uris": {"ios": "https://dc.lft.to/lastmile_qr_scan", "android": "https://dc.lft.to/lastmile_qr_scan"}, "fusion_lon": 0.0, "lon": -76.978497, "name": "5df2a75dc10b627f369b733831d3741e", "is_reserved": 0, "is_disabled": 0}, {"lat": 38.891772833333334, "fusion_lat": 0.0, "type": "electric_scooter", "bike_id": "02369524c3b158ea55a7d27a2532cd6a", "rental_uris": {"ios": "https://dc.lft.to/lastmile_qr_scan", "android": "https://dc.lft.to/lastmile_qr_scan"}, "fusion_lon": 0.0, "lon": -77.01596133333334, "name": "02369524c3b158ea55a7d27a2532cd6a", "is_reserved": 0, "is_disabled": 0}, {"lat": 38.872673166666665, "fusion_lat": 0.0, "type": "electric_scooter", "bike_id": "1ae28a9a0f2cd5a09893602feee8a8b5", "rental_uris": {"ios": "https://dc.lft.to/lastmile_qr_scan", "android": "https://dc.lft.to/lastmile_qr_scan"}, "fusion_lon": 0.0, "lon": -77.01355183333334, "name": "1ae28a9a0f2cd5a09893602feee8a8b5", "is_reserved": 0, "is_disabled": 0}, {"lat": 38.873696, "fusion_lat": 0.0, "type": "electric_scooter", "bike_id": "92410ad0a31cc745b43375465310c165", "rental_uris": {"ios": "https://dc.lft.to/lastmile_qr_scan", "android": "https://dc.lft.to/lastmile_qr_scan"}, "fusion_lon": 0.0, "lon": -77.00085183333333, "name": "92410ad0a31cc745b43375465310c165", "is_reserved": 0, "is_disabled": 0}, {"lat": 38.8949535, "fusion_lat": 0.0, "type": "electric_scooter", "bike_id": "f867bfaefe2ec599ed1c5a95981d6c41", "rental_uris": {"ios": "https://dc.lft.to/lastmile_qr_scan", "android": "https://dc.lft.to/lastmile_qr_scan"}, "fusion_lon": 0.0, "lon": -77.00355733333333, "name": "f867bfaefe2ec599ed1c5a95981d6c41", "is_reserved": 0, "is_disabled": 0}, {"lat": 38.896805, "fusion_lat": 0.0, "type": "electric_scooter", "bike_id": "f33ef90e3dd07d6f8603d32f5f3fb2ca", "rental_uris": {"ios": "https://dc.lft.to/lastmile_qr_scan", "android": "https://dc.lft.to/lastmile_qr_scan"}, "fusion_lon": 0.0, "lon": -77.0432645, "name": "f33ef90e3dd07d6f8603d32f5f3fb2ca", "is_reserved": 0, "is_disabled": 0}, {"lat": 38.925339, "fusion_lat": 0.0, "type": "electric_scooter", "bike_id": "59c5c97a7ae988d31631b999ff5068cd", "rental_uris": {"ios": "https://dc.lft.to/lastmile_qr_scan", "android": "https://dc.lft.to/lastmile_qr_scan"}, "fusion_lon": 0.0, "lon": -77.04120683333333, "name": "59c5c97a7ae988d31631b999ff5068cd", "is_reserved": 0, "is_disabled": 0}, {"lat": 38.930439666666665, "fusion_lat": 0.0, "type": "electric_scooter", "bike_id": "3e2a30649e3b4d02bfeff6b0fe56cd3f", "rental_uris": {"ios": "https://dc.lft.to/lastmile_qr_scan", "android": "https://dc.lft.to/lastmile_qr_scan"}, "fusion_lon": 0.0, "lon": -77.07298616666667, "name": "3e2a30649e3b4d02bfeff6b0fe56cd3f", "is_reserved": 0, "is_disabled": 0}, {"lat": 39.015367833333336, "fusion_lat": 0.0, "type": "electric_scooter", "bike_id": "0252dea7b8ac58abcd2752c20ec71d10", "rental_uris": {"ios": "https://dc.lft.to/lastmile_qr_scan", "android": "https://dc.lft.to/lastmile_qr_scan"}, "fusion_lon": 0.0, "lon": -77.0435695, "name": "0252dea7b8ac58abcd2752c20ec71d10", "is_reserved": 0, "is_disabled": 0}, {"lat": 38.904372333333335, "fusion_lat": 0.0, "type": "electric_scooter", "bike_id": "f36014dc9e6eeb8cadc887e77b905573", "rental_uris": {"ios": "https://dc.lft.to/lastmile_qr_scan", "android": "https://dc.lft.to/lastmile_qr_scan"}, "fusion_lon": 0.0, "lon": -77.043492, "name": "f36014dc9e6eeb8cadc887e77b905573", "is_reserved": 0, "is_disabled": 0}, {"lat": 38.895855166666664, "fusion_lat": 0.0, "type": "electric_scooter", "bike_id": "330381336cdd520f1c27a59f497af1a3", "rental_uris": {"ios": "https://dc.lft.to/lastmile_qr_scan", "android": "https://dc.lft.to/lastmile_qr_scan"}, "fusion_lon": 0.0, "lon": -77.02207183333333, "name": "330381336cdd520f1c27a59f497af1a3", "is_reserved": 0, "is_disabled": 0}, {"lat": 38.9480455, "fusion_lat": 0.0, "type": "electric_bike", "bike_id": "8d1cd2118a75dbdd25d1354ba11c5e30", "rental_uris": {"ios": "https://dc.lft.to/lastmile_qr_scan", "android": "https://dc.lft.to/lastmile_qr_scan"}, "fusion_lon": 0.0, "lon": -76.9596745, "name": "8d1cd2118a75dbdd25d1354ba11c5e30", "is_reserved": 0, "is_disabled": 0}, {"lat": 38.911810333333335, "fusion_lat": 0.0, "type": "electric_scooter", "bike_id": "47b4c27c97bb2ac65b28ca1361325d65", "rental_uris": {"ios": "https://dc.lft.to/lastmile_qr_scan", "android": "https://dc.lft.to/lastmile_qr_scan"}, "fusion_lon": 0.0, "lon": -77.005512, "name": "47b4c27c97bb2ac65b28ca1361325d65", "is_reserved": 0, "is_disabled": 0}, {"lat": 38.923933166666664, "fusion_lat": 0.0, "type": "electric_scooter", "bike_id": "4d82a46eb4ed838aff428c242c090fa0", "rental_uris": {"ios": "https://dc.lft.to/lastmile_qr_scan", "android": "https://dc.lft.to/lastmile_qr_scan"}, "fusion_lon": 0.0, "lon": -77.05057933333333, "name": "4d82a46eb4ed838aff428c242c090fa0", "is_reserved": 0, "is_disabled": 0}, {"lat": 38.905309333333335, "fusion_lat": 0.0, "type": "electric_scooter", "bike_id": "cbdd39d1516f491261d60735047e881c", "rental_uris": {"ios": "https://dc.lft.to/lastmile_qr_scan", "android": "https://dc.lft.to/lastmile_qr_scan"}, "fusion_lon": 0.0, "lon": -77.049915, "name": "cbdd39d1516f491261d60735047e881c", "is_reserved": 0, "is_disabled": 0}, {"lat": 38.9248415, "fusion_lat": 0.0, "type": "electric_scooter", "bike_id": "54fe271f710510d6a4a925d4f64e5423", "rental_uris": {"ios": "https://dc.lft.to/lastmile_qr_scan", "android": "https://dc.lft.to/lastmile_qr_scan"}, "fusion_lon": 0.0, "lon": -77.0226925, "name": "54fe271f710510d6a4a925d4f64e5423", "is_reserved": 0, "is_disabled": 0}, {"lat": 38.96179816666667, "fusion_lat": 0.0, "type": "electric_scooter", "bike_id": "9ababd3022cfc42f399f4e90f2b0c809", "rental_uris": {"ios": "https://dc.lft.to/lastmile_qr_scan", "android": "https://dc.lft.to/lastmile_qr_scan"}, "fusion_lon": 0.0, "lon": -77.01430916666666, "name": "9ababd3022cfc42f399f4e90f2b0c809", "is_reserved": 0, "is_disabled": 0}, {"lat": 38.892689833333336, "fusion_lat": 0.0, "type": "electric_scooter", "bike_id": "da6c06ec0ff7a90a1793e499184ee9ee", "rental_uris": {"ios": "https://dc.lft.to/lastmile_qr_scan", "android": "https://dc.lft.to/lastmile_qr_scan"}, "fusion_lon": 0.0, "lon": -77.00357183333334, "name": "da6c06ec0ff7a90a1793e499184ee9ee", "is_reserved": 0, "is_disabled": 0}, {"lat": 38.876453833333336, "fusion_lat": 0.0, "type": "electric_scooter", "bike_id": "f49257a6bc20e8c681680b9646f8f946", "rental_uris": {"ios": "https://dc.lft.to/lastmile_qr_scan", "android": "https://dc.lft.to/lastmile_qr_scan"}, "fusion_lon": 0.0, "lon": -77.00318816666666, "name": "f49257a6bc20e8c681680b9646f8f946", "is_reserved": 0, "is_disabled": 0}, {"lat": 38.903566833333336, "fusion_lat": 0.0, "type": "electric_scooter", "bike_id": "fe4fb22d829fcc9181b9fe2f3544a56e", "rental_uris": {"ios": "https://dc.lft.to/lastmile_qr_scan", "android": "https://dc.lft.to/lastmile_qr_scan"}, "fusion_lon": 0.0, "lon": -77.017725, "name": "fe4fb22d829fcc9181b9fe2f3544a56e", "is_reserved": 0, "is_disabled": 0}, {"lat": 38.891875, "fusion_lat": 0.0, "type": "electric_scooter", "bike_id": "2218c13c5316f2c1e3243b417313c516", "rental_uris": {"ios": "https://dc.lft.to/lastmile_qr_scan", "android": "https://dc.lft.to/lastmile_qr_scan"}, "fusion_lon": 0.0, "lon": -77.003369, "name": "2218c13c5316f2c1e3243b417313c516", "is_reserved": 0, "is_disabled": 0}, {"lat": 38.916536, "fusion_lat": 0.0, "type": "electric_scooter", "bike_id": "46e49121cb1174beeefa5fe4865d2a89", "rental_uris": {"ios": "https://dc.lft.to/lastmile_qr_scan", "android": "https://dc.lft.to/lastmile_qr_scan"}, "fusion_lon": 0.0, "lon": -77.02473666666667, "name": "46e49121cb1174beeefa5fe4865d2a89", "is_reserved": 0, "is_disabled": 0}, {"lat": 38.80977016666667, "fusion_lat": 0.0, "type": "electric_bike", "bike_id": "d1a320301d4119653fbef4f8dd13b404", "rental_uris": {"ios": "https://dc.lft.to/lastmile_qr_scan", "android": "https://dc.lft.to/lastmile_qr_scan"}, "fusion_lon": 0.0, "lon": -77.076563, "name": "d1a320301d4119653fbef4f8dd13b404", "is_reserved": 0, "is_disabled": 0}, {"lat": 38.892251, "fusion_lat": 0.0, "type": "electric_scooter", "bike_id": "3352b3a6396877835b5cf707af27cd45", "rental_uris": {"ios": "https://dc.lft.to/lastmile_qr_scan", "android": "https://dc.lft.to/lastmile_qr_scan"}, "fusion_lon": 0.0, "lon": -77.02203333333334, "name": "3352b3a6396877835b5cf707af27cd45", "is_reserved": 0, "is_disabled": 0}, {"lat": 38.924193, "fusion_lat": 0.0, "type": "electric_scooter", "bike_id": "ed1efe9c1c0459a847b4fe6f534ef897", "rental_uris": {"ios": "https://dc.lft.to/lastmile_qr_scan", "android": "https://dc.lft.to/lastmile_qr_scan"}, "fusion_lon": 0.0, "lon": -77.020097, "name": "ed1efe9c1c0459a847b4fe6f534ef897", "is_reserved": 0, "is_disabled": 0}, {"lat": 38.949479, "fusion_lat": 0.0, "type": "electric_scooter", "bike_id": "f76197ab45b1acf46a02afa7a40de878", "rental_uris": {"ios": "https://dc.lft.to/lastmile_qr_scan", "android": "https://dc.lft.to/lastmile_qr_scan"}, "fusion_lon": 0.0, "lon": -77.06673483333333, "name": "f76197ab45b1acf46a02afa7a40de878", "is_reserved": 0, "is_disabled": 0}, {"lat": 38.9265035, "fusion_lat": 0.0, "type": "electric_scooter", "bike_id": "00d5aebc66d95fbdfb93ccb06ba01d2f", "rental_uris": {"ios": "https://dc.lft.to/lastmile_qr_scan", "android": "https://dc.lft.to/lastmile_qr_scan"}, "fusion_lon": 0.0, "lon": -77.0372555, "name": "00d5aebc66d95fbdfb93ccb06ba01d2f", "is_reserved": 0, "is_disabled": 0}, {"lat": 38.89586383333334, "fusion_lat": 0.0, "type": "electric_scooter", "bike_id": "8fca2d89d493108d6aa2004ed11dc2b4", "rental_uris": {"ios": "https://dc.lft.to/lastmile_qr_scan", "android": "https://dc.lft.to/lastmile_qr_scan"}, "fusion_lon": 0.0, "lon": -76.9831575, "name": "8fca2d89d493108d6aa2004ed11dc2b4", "is_reserved": 0, "is_disabled": 0}, {"lat": 38.90676883333333, "fusion_lat": 0.0, "type": "electric_scooter", "bike_id": "b8fc9ca57854088150279e2d63de934a", "rental_uris": {"ios": "https://dc.lft.to/lastmile_qr_scan", "android": "https://dc.lft.to/lastmile_qr_scan"}, "fusion_lon": 0.0, "lon": -77.02688633333334, "name": "b8fc9ca57854088150279e2d63de934a", "is_reserved": 0, "is_disabled": 0}, {"lat": 38.9138145, "fusion_lat": 0.0, "type": "electric_scooter", "bike_id": "921d541067270bbde6b5ab2cfdd091fa", "rental_uris": {"ios": "https://dc.lft.to/lastmile_qr_scan", "android": "https://dc.lft.to/lastmile_qr_scan"}, "fusion_lon": 0.0, "lon": -77.02195366666666, "name": "921d541067270bbde6b5ab2cfdd091fa", "is_reserved": 0, "is_disabled": 0}, {"lat": 38.900271000000004, "fusion_lat": 0.0, "type": "electric_scooter", "bike_id": "15d96f1e941f17f6184d9ffc012d0a18", "rental_uris": {"ios": "https://dc.lft.to/lastmile_qr_scan", "android": "https://dc.lft.to/lastmile_qr_scan"}, "fusion_lon": 0.0, "lon": -77.04661766666666, "name": "15d96f1e941f17f6184d9ffc012d0a18", "is_reserved": 0, "is_disabled": 0}, {"lat": 38.90258733333334, "fusion_lat": 0.0, "type": "electric_scooter", "bike_id": "fa7aa7c4897e16776b1f74e0539cb738", "rental_uris": {"ios": "https://dc.lft.to/lastmile_qr_scan", "android": "https://dc.lft.to/lastmile_qr_scan"}, "fusion_lon": 0.0, "lon": -77.04069966666667, "name": "fa7aa7c4897e16776b1f74e0539cb738", "is_reserved": 0, "is_disabled": 0}, {"lat": 38.910218666666665, "fusion_lat": 0.0, "type": "electric_scooter", "bike_id": "6fdebffc5714450bc9b79ce25f0f4d4e", "rental_uris": {"ios": "https://dc.lft.to/lastmile_qr_scan", "android": "https://dc.lft.to/lastmile_qr_scan"}, "fusion_lon": 0.0, "lon": -77.02931333333333, "name": "6fdebffc5714450bc9b79ce25f0f4d4e", "is_reserved": 0, "is_disabled": 0}, {"lat": 38.923187666666664, "fusion_lat": 0.0, "type": "electric_scooter", "bike_id": "7daeac4dfceebd24f3a04e56ad92b24e", "rental_uris": {"ios": "https://dc.lft.to/lastmile_qr_scan", "android": "https://dc.lft.to/lastmile_qr_scan"}, "fusion_lon": 0.0, "lon": -77.0363795, "name": "7daeac4dfceebd24f3a04e56ad92b24e", "is_reserved": 0, "is_disabled": 0}, {"lat": 38.89787333333334, "fusion_lat": 0.0, "type": "electric_scooter", "bike_id": "081da8a3ccbaef6cfc8874d6ff0d674e", "rental_uris": {"ios": "https://dc.lft.to/lastmile_qr_scan", "android": "https://dc.lft.to/lastmile_qr_scan"}, "fusion_lon": 0.0, "lon": -77.01073, "name": "081da8a3ccbaef6cfc8874d6ff0d674e", "is_reserved": 0, "is_disabled": 0}, {"lat": 38.887265, "fusion_lat": 0.0, "type": "electric_scooter", "bike_id": "5a99fc7aff7fd0fa3d7f8065944ab2cd", "rental_uris": {"ios": "https://dc.lft.to/lastmile_qr_scan", "android": "https://dc.lft.to/lastmile_qr_scan"}, "fusion_lon": 0.0, "lon": -76.98356566666666, "name": "5a99fc7aff7fd0fa3d7f8065944ab2cd", "is_reserved": 0, "is_disabled": 0}, {"lat": 38.94289633333333, "fusion_lat": 0.0, "type": "electric_scooter", "bike_id": "752e8633fceb5c3ed212b44658410e9a", "rental_uris": {"ios": "https://dc.lft.to/lastmile_qr_scan", "android": "https://dc.lft.to/lastmile_qr_scan"}, "fusion_lon": 0.0, "lon": -77.0216875, "name": "752e8633fceb5c3ed212b44658410e9a", "is_reserved": 0, "is_disabled": 0}, {"lat": 38.938749, "fusion_lat": 0.0, "type": "electric_scooter", "bike_id": "2064197af7320d510b663661f136b301", "rental_uris": {"ios": "https://dc.lft.to/lastmile_qr_scan", "android": "https://dc.lft.to/lastmile_qr_scan"}, "fusion_lon": 0.0, "lon": -77.02482833333333, "name": "2064197af7320d510b663661f136b301", "is_reserved": 0, "is_disabled": 0}, {"lat": 38.88430266666667, "fusion_lat": 0.0, "type": "electric_scooter", "bike_id": "50337684ef41d6eb0adec69f742fbfa8", "rental_uris": {"ios": "https://dc.lft.to/lastmile_qr_scan", "android": "https://dc.lft.to/lastmile_qr_scan"}, "fusion_lon": 0.0, "lon": -76.95752216666666, "name": "50337684ef41d6eb0adec69f742fbfa8", "is_reserved": 0, "is_disabled": 0}, {"lat": 38.919064, "fusion_lat": 0.0, "type": "electric_scooter", "bike_id": "2cb60868b96a0b86ce1652d654674247", "rental_uris": {"ios": "https://dc.lft.to/lastmile_qr_scan", "android": "https://dc.lft.to/lastmile_qr_scan"}, "fusion_lon": 0.0, "lon": -77.020479, "name": "2cb60868b96a0b86ce1652d654674247", "is_reserved": 0, "is_disabled": 0}, {"lat": 38.90380733333333, "fusion_lat": 0.0, "type": "electric_scooter", "bike_id": "68c3cf271e5971831561ea6538a84a5a", "rental_uris": {"ios": "https://dc.lft.to/lastmile_qr_scan", "android": "https://dc.lft.to/lastmile_qr_scan"}, "fusion_lon": 0.0, "lon": -77.050721, "name": "68c3cf271e5971831561ea6538a84a5a", "is_reserved": 0, "is_disabled": 0}, {"lat": 38.92461616666667, "fusion_lat": 0.0, "type": "electric_scooter", "bike_id": "8e7b5ea832059abff1eda3999ef88fdd", "rental_uris": {"ios": "https://dc.lft.to/lastmile_qr_scan", "android": "https://dc.lft.to/lastmile_qr_scan"}, "fusion_lon": 0.0, "lon": -77.021538, "name": "8e7b5ea832059abff1eda3999ef88fdd", "is_reserved": 0, "is_disabled": 0}, {"lat": 38.92036183333333, "fusion_lat": 0.0, "type": "electric_bike", "bike_id": "3063dc28bf5d1ae23e8f41a8a90ca55c", "rental_uris": {"ios": "https://dc.lft.to/lastmile_qr_scan", "android": "https://dc.lft.to/lastmile_qr_scan"}, "fusion_lon": 0.0, "lon": -76.9795405, "name": "3063dc28bf5d1ae23e8f41a8a90ca55c", "is_reserved": 0, "is_disabled": 0}, {"lat": 38.9073925, "fusion_lat": 0.0, "type": "electric_scooter", "bike_id": "40090082acb24719c89447b10a5461fd", "rental_uris": {"ios": "https://dc.lft.to/lastmile_qr_scan", "android": "https://dc.lft.to/lastmile_qr_scan"}, "fusion_lon": 0.0, "lon": -77.04288216666667, "name": "40090082acb24719c89447b10a5461fd", "is_reserved": 0, "is_disabled": 0}, {"lat": 38.97346, "fusion_lat": 0.0, "type": "electric_scooter", "bike_id": "289a3c1667ebf6d20890766f5a352d5b", "rental_uris": {"ios": "https://dc.lft.to/lastmile_qr_scan", "android": "https://dc.lft.to/lastmile_qr_scan"}, "fusion_lon": 0.0, "lon": -77.0278505, "name": "289a3c1667ebf6d20890766f5a352d5b", "is_reserved": 0, "is_disabled": 0}, {"lat": 38.911755, "fusion_lat": 0.0, "type": "electric_scooter", "bike_id": "c943ab4747544e0aaf189f226ab737b6", "rental_uris": {"ios": "https://dc.lft.to/lastmile_qr_scan", "android": "https://dc.lft.to/lastmile_qr_scan"}, "fusion_lon": 0.0, "lon": -77.03188683333333, "name": "c943ab4747544e0aaf189f226ab737b6", "is_reserved": 0, "is_disabled": 0}, {"lat": 38.90832416666667, "fusion_lat": 0.0, "type": "electric_scooter", "bike_id": "03bedb4afe87d10d4a073f6386d793b8", "rental_uris": {"ios": "https://dc.lft.to/lastmile_qr_scan", "android": "https://dc.lft.to/lastmile_qr_scan"}, "fusion_lon": 0.0, "lon": -77.06379233333334, "name": "03bedb4afe87d10d4a073f6386d793b8", "is_reserved": 0, "is_disabled": 0}, {"lat": 38.9442895, "fusion_lat": 0.0, "type": "electric_scooter", "bike_id": "edd814ec3bfa6478b948efe2137ed4d6", "rental_uris": {"ios": "https://dc.lft.to/lastmile_qr_scan", "android": "https://dc.lft.to/lastmile_qr_scan"}, "fusion_lon": 0.0, "lon": -77.0631945, "name": "edd814ec3bfa6478b948efe2137ed4d6", "is_reserved": 0, "is_disabled": 0}, {"lat": 38.945036333333334, "fusion_lat": 0.0, "type": "electric_scooter", "bike_id": "0b055b49ebef2328ea0349700c8b0052", "rental_uris": {"ios": "https://dc.lft.to/lastmile_qr_scan", "android": "https://dc.lft.to/lastmile_qr_scan"}, "fusion_lon": 0.0, "lon": -77.03830216666667, "name": "0b055b49ebef2328ea0349700c8b0052", "is_reserved": 0, "is_disabled": 0}, {"lat": 38.887052, "fusion_lat": 0.0, "type": "electric_scooter", "bike_id": "2f382c6db2f91222bb4505b242fb2b64", "rental_uris": {"ios": "https://dc.lft.to/lastmile_qr_scan", "android": "https://dc.lft.to/lastmile_qr_scan"}, "fusion_lon": 0.0, "lon": -77.01362633333333, "name": "2f382c6db2f91222bb4505b242fb2b64", "is_reserved": 0, "is_disabled": 0}, {"lat": 38.904041666666664, "fusion_lat": 0.0, "type": "electric_scooter", "bike_id": "ed9b133a17b1a485a0850afa29a76c07", "rental_uris": {"ios": "https://dc.lft.to/lastmile_qr_scan", "android": "https://dc.lft.to/lastmile_qr_scan"}, "fusion_lon": 0.0, "lon": -77.046419, "name": "ed9b133a17b1a485a0850afa29a76c07", "is_reserved": 0, "is_disabled": 0}, {"lat": 38.917979, "fusion_lat": 0.0, "type": "electric_scooter", "bike_id": "4c40263883bed3bd4d14fb3bb8965ba2", "rental_uris": {"ios": "https://dc.lft.to/lastmile_qr_scan", "android": "https://dc.lft.to/lastmile_qr_scan"}, "fusion_lon": 0.0, "lon": -77.03214516666667, "name": "4c40263883bed3bd4d14fb3bb8965ba2", "is_reserved": 0, "is_disabled": 0}, {"lat": 38.90266883333334, "fusion_lat": 0.0, "type": "electric_scooter", "bike_id": "b1f8fefc1ed1e7b2268904a6a59cbce2", "rental_uris": {"ios": "https://dc.lft.to/lastmile_qr_scan", "android": "https://dc.lft.to/lastmile_qr_scan"}, "fusion_lon": 0.0, "lon": -77.0433015, "name": "b1f8fefc1ed1e7b2268904a6a59cbce2", "is_reserved": 0, "is_disabled": 0}, {"lat": 38.901421, "fusion_lat": 0.0, "type": "electric_scooter", "bike_id": "742f791c7aaa31662892d09670818720", "rental_uris": {"ios": "https://dc.lft.to/lastmile_qr_scan", "android": "https://dc.lft.to/lastmile_qr_scan"}, "fusion_lon": 0.0, "lon": -77.0273255, "name": "742f791c7aaa31662892d09670818720", "is_reserved": 0, "is_disabled": 0}, {"lat": 38.907395333333334, "fusion_lat": 0.0, "type": "electric_scooter", "bike_id": "594e22240c7b8299e70e383db8c35753", "rental_uris": {"ios": "https://dc.lft.to/lastmile_qr_scan", "android": "https://dc.lft.to/lastmile_qr_scan"}, "fusion_lon": 0.0, "lon": -77.003122, "name": "594e22240c7b8299e70e383db8c35753", "is_reserved": 0, "is_disabled": 0}, {"lat": 38.901982, "fusion_lat": 0.0, "type": "electric_scooter", "bike_id": "75fbb81d74b5086f035fe8ddc651612f", "rental_uris": {"ios": "https://dc.lft.to/lastmile_qr_scan", "android": "https://dc.lft.to/lastmile_qr_scan"}, "fusion_lon": 0.0, "lon": -77.02373, "name": "75fbb81d74b5086f035fe8ddc651612f", "is_reserved": 0, "is_disabled": 0}, {"lat": 38.91825333333333, "fusion_lat": 0.0, "type": "electric_scooter", "bike_id": "e43559dea5f29e0824bf486b6b765afd", "rental_uris": {"ios": "https://dc.lft.to/lastmile_qr_scan", "android": "https://dc.lft.to/lastmile_qr_scan"}, "fusion_lon": 0.0, "lon": -77.0347075, "name": "e43559dea5f29e0824bf486b6b765afd", "is_reserved": 0, "is_disabled": 0}, {"lat": 38.902575666666664, "fusion_lat": 0.0, "type": "electric_scooter", "bike_id": "6ebdcf8b85f3ce410291302553cbf5d0", "rental_uris": {"ios": "https://dc.lft.to/lastmile_qr_scan", "android": "https://dc.lft.to/lastmile_qr_scan"}, "fusion_lon": 0.0, "lon": -77.04597083333333, "name": "6ebdcf8b85f3ce410291302553cbf5d0", "is_reserved": 0, "is_disabled": 0}, {"lat": 38.91338233333333, "fusion_lat": 0.0, "type": "electric_scooter", "bike_id": "4dfb98e8269b1d759d3460e83859c457", "rental_uris": {"ios": "https://dc.lft.to/lastmile_qr_scan", "android": "https://dc.lft.to/lastmile_qr_scan"}, "fusion_lon": 0.0, "lon": -77.00333166666667, "name": "4dfb98e8269b1d759d3460e83859c457", "is_reserved": 0, "is_disabled": 0}, {"lat": 38.93443383333333, "fusion_lat": 0.0, "type": "electric_scooter", "bike_id": "ede25c96510b19b1f9e1e517e52713b4", "rental_uris": {"ios": "https://dc.lft.to/lastmile_qr_scan", "android": "https://dc.lft.to/lastmile_qr_scan"}, "fusion_lon": 0.0, "lon": -77.0298155, "name": "ede25c96510b19b1f9e1e517e52713b4", "is_reserved": 0, "is_disabled": 0}, {"lat": 38.8982125, "fusion_lat": 0.0, "type": "electric_scooter", "bike_id": "6f5a3505f05e1f7cffd06d36888786e6", "rental_uris": {"ios": "https://dc.lft.to/lastmile_qr_scan", "android": "https://dc.lft.to/lastmile_qr_scan"}, "fusion_lon": 0.0, "lon": -77.01531866666667, "name": "6f5a3505f05e1f7cffd06d36888786e6", "is_reserved": 0, "is_disabled": 0}, {"lat": 38.98787266666667, "fusion_lat": 0.0, "type": "electric_bike", "bike_id": "572fbb2ea4c1b9d77998b0ecbaf06081", "rental_uris": {"ios": "https://dc.lft.to/lastmile_qr_scan", "android": "https://dc.lft.to/lastmile_qr_scan"}, "fusion_lon": 0.0, "lon": -77.14091233333333, "name": "572fbb2ea4c1b9d77998b0ecbaf06081", "is_reserved": 0, "is_disabled": 0}, {"lat": 38.838713, "fusion_lat": 0.0, "type": "electric_bike", "bike_id": "215a694e0ecab09c69f67879c17fff02", "rental_uris": {"ios": "https://dc.lft.to/lastmile_qr_scan", "android": "https://dc.lft.to/lastmile_qr_scan"}, "fusion_lon": 0.0, "lon": -76.9970515, "name": "215a694e0ecab09c69f67879c17fff02", "is_reserved": 0, "is_disabled": 0}, {"lat": 38.8954735, "fusion_lat": 0.0, "type": "electric_scooter", "bike_id": "2fb842a2377f6c89a049e6635b602cbb", "rental_uris": {"ios": "https://dc.lft.to/lastmile_qr_scan", "android": "https://dc.lft.to/lastmile_qr_scan"}, "fusion_lon": 0.0, "lon": -76.9833635, "name": "2fb842a2377f6c89a049e6635b602cbb", "is_reserved": 0, "is_disabled": 0}, {"lat": 38.87374066666667, "fusion_lat": 0.0, "type": "electric_scooter", "bike_id": "94e8c7d7a3f1113761362d953e51fe92", "rental_uris": {"ios": "https://dc.lft.to/lastmile_qr_scan", "android": "https://dc.lft.to/lastmile_qr_scan"}, "fusion_lon": 0.0, "lon": -77.00124633333333, "name": "94e8c7d7a3f1113761362d953e51fe92", "is_reserved": 0, "is_disabled": 0}, {"lat": 38.9270865, "fusion_lat": 0.0, "type": "electric_scooter", "bike_id": "6ec4ead375e5f3d13f17a18ea764aa71", "rental_uris": {"ios": "https://dc.lft.to/lastmile_qr_scan", "android": "https://dc.lft.to/lastmile_qr_scan"}, "fusion_lon": 0.0, "lon": -77.05352666666667, "name": "6ec4ead375e5f3d13f17a18ea764aa71", "is_reserved": 0, "is_disabled": 0}, {"lat": 38.86332566666667, "fusion_lat": 0.0, "type": "electric_bike", "bike_id": "3f9221307d7699c069e7a07847d87cd4", "rental_uris": {"ios": "https://dc.lft.to/lastmile_qr_scan", "android": "https://dc.lft.to/lastmile_qr_scan"}, "fusion_lon": 0.0, "lon": -76.98724516666667, "name": "3f9221307d7699c069e7a07847d87cd4", "is_reserved": 0, "is_disabled": 0}, {"lat": 38.90458616666667, "fusion_lat": 0.0, "type": "electric_scooter", "bike_id": "acd7366fa1c567aa4b52c05f4ccec775", "rental_uris": {"ios": "https://dc.lft.to/lastmile_qr_scan", "android": "https://dc.lft.to/lastmile_qr_scan"}, "fusion_lon": 0.0, "lon": -77.06603033333333, "name": "acd7366fa1c567aa4b52c05f4ccec775", "is_reserved": 0, "is_disabled": 0}, {"lat": 38.901403333333334, "fusion_lat": 0.0, "type": "electric_scooter", "bike_id": "a67d3852dcb69096df11335860039f6e", "rental_uris": {"ios": "https://dc.lft.to/lastmile_qr_scan", "android": "https://dc.lft.to/lastmile_qr_scan"}, "fusion_lon": 0.0, "lon": -77.0257, "name": "a67d3852dcb69096df11335860039f6e", "is_reserved": 0, "is_disabled": 0}, {"lat": 38.865643666666664, "fusion_lat": 0.0, "type": "electric_bike", "bike_id": "d57f55d7278326d9713566423d02abd0", "rental_uris": {"ios": "https://dc.lft.to/lastmile_qr_scan", "android": "https://dc.lft.to/lastmile_qr_scan"}, "fusion_lon": 0.0, "lon": -76.98949733333333, "name": "d57f55d7278326d9713566423d02abd0", "is_reserved": 0, "is_disabled": 0}, {"lat": 38.93842083333333, "fusion_lat": 0.0, "type": "electric_scooter", "bike_id": "7974cd2130b2be08f180b9c73da6a2d4", "rental_uris": {"ios": "https://dc.lft.to/lastmile_qr_scan", "android": "https://dc.lft.to/lastmile_qr_scan"}, "fusion_lon": 0.0, "lon": -77.03380866666667, "name": "7974cd2130b2be08f180b9c73da6a2d4", "is_reserved": 0, "is_disabled": 0}, {"lat": 38.924873, "fusion_lat": 0.0, "type": "electric_scooter", "bike_id": "57f76d11222ed1fdd56fa52059b92336", "rental_uris": {"ios": "https://dc.lft.to/lastmile_qr_scan", "android": "https://dc.lft.to/lastmile_qr_scan"}, "fusion_lon": 0.0, "lon": -77.0226755, "name": "57f76d11222ed1fdd56fa52059b92336", "is_reserved": 0, "is_disabled": 0}, {"lat": 38.923778166666665, "fusion_lat": 0.0, "type": "electric_scooter", "bike_id": "2f1aa658ef26c035d257ea387f714648", "rental_uris": {"ios": "https://dc.lft.to/lastmile_qr_scan", "android": "https://dc.lft.to/lastmile_qr_scan"}, "fusion_lon": 0.0, "lon": -77.04107, "name": "2f1aa658ef26c035d257ea387f714648", "is_reserved": 0, "is_disabled": 0}, {"lat": 38.9091225, "fusion_lat": 0.0, "type": "electric_scooter", "bike_id": "54703055d181a9f48696ea01779e6d01", "rental_uris": {"ios": "https://dc.lft.to/lastmile_qr_scan", "android": "https://dc.lft.to/lastmile_qr_scan"}, "fusion_lon": 0.0, "lon": -77.07269933333333, "name": "54703055d181a9f48696ea01779e6d01", "is_reserved": 0, "is_disabled": 0}, {"lat": 38.876356333333334, "fusion_lat": 0.0, "type": "electric_scooter", "bike_id": "406eefee4cae8af3a8337e32c2046df6", "rental_uris": {"ios": "https://dc.lft.to/lastmile_qr_scan", "android": "https://dc.lft.to/lastmile_qr_scan"}, "fusion_lon": 0.0, "lon": -77.00332683333333, "name": "406eefee4cae8af3a8337e32c2046df6", "is_reserved": 0, "is_disabled": 0}, {"lat": 38.92752383333333, "fusion_lat": 0.0, "type": "electric_scooter", "bike_id": "75794d05729a24a14547d14925fb8f78", "rental_uris": {"ios": "https://dc.lft.to/lastmile_qr_scan", "android": "https://dc.lft.to/lastmile_qr_scan"}, "fusion_lon": 0.0, "lon": -77.03276766666667, "name": "75794d05729a24a14547d14925fb8f78", "is_reserved": 0, "is_disabled": 0}, {"lat": 38.92124166666667, "fusion_lat": 0.0, "type": "electric_bike", "bike_id": "4a422c9204ddcba75ea7c3f0c85e700e", "rental_uris": {"ios": "https://dc.lft.to/lastmile_qr_scan", "android": "https://dc.lft.to/lastmile_qr_scan"}, "fusion_lon": 0.0, "lon": -77.23675666666666, "name": "4a422c9204ddcba75ea7c3f0c85e700e", "is_reserved": 0, "is_disabled": 0}, {"lat": 38.94229933333333, "fusion_lat": 0.0, "type": "electric_scooter", "bike_id": "af230bf01f2387fc20fd0a5f9361c7d8", "rental_uris": {"ios": "https://dc.lft.to/lastmile_qr_scan", "android": "https://dc.lft.to/lastmile_qr_scan"}, "fusion_lon": 0.0, "lon": -77.03867383333333, "name": "af230bf01f2387fc20fd0a5f9361c7d8", "is_reserved": 0, "is_disabled": 0}, {"lat": 38.912584833333334, "fusion_lat": 0.0, "type": "electric_scooter", "bike_id": "c88663b20a56e4078a35fae2225007c3", "rental_uris": {"ios": "https://dc.lft.to/lastmile_qr_scan", "android": "https://dc.lft.to/lastmile_qr_scan"}, "fusion_lon": 0.0, "lon": -77.04458566666666, "name": "c88663b20a56e4078a35fae2225007c3", "is_reserved": 0, "is_disabled": 0}, {"lat": 38.8922845, "fusion_lat": 0.0, "type": "electric_scooter", "bike_id": "eb04fc9cbfe73ec3365c18d7f1a4f0be", "rental_uris": {"ios": "https://dc.lft.to/lastmile_qr_scan", "android": "https://dc.lft.to/lastmile_qr_scan"}, "fusion_lon": 0.0, "lon": -77.0489405, "name": "eb04fc9cbfe73ec3365c18d7f1a4f0be", "is_reserved": 0, "is_disabled": 0}, {"lat": 38.900157, "fusion_lat": 0.0, "type": "electric_scooter", "bike_id": "bafd8273ad89f13232e9608f3e6f1b13", "rental_uris": {"ios": "https://dc.lft.to/lastmile_qr_scan", "android": "https://dc.lft.to/lastmile_qr_scan"}, "fusion_lon": 0.0, "lon": -76.99869066666666, "name": "bafd8273ad89f13232e9608f3e6f1b13", "is_reserved": 0, "is_disabled": 0}, {"lat": 38.90378, "fusion_lat": 0.0, "type": "electric_scooter", "bike_id": "26aa7493bd21d31e60c28a51f981bbcb", "rental_uris": {"ios": "https://dc.lft.to/lastmile_qr_scan", "android": "https://dc.lft.to/lastmile_qr_scan"}, "fusion_lon": 0.0, "lon": -77.017437, "name": "26aa7493bd21d31e60c28a51f981bbcb", "is_reserved": 0, "is_disabled": 0}, {"lat": 38.9010435, "fusion_lat": 0.0, "type": "electric_scooter", "bike_id": "25b96b6332dfb22bc8c5b25b8c0dae88", "rental_uris": {"ios": "https://dc.lft.to/lastmile_qr_scan", "android": "https://dc.lft.to/lastmile_qr_scan"}, "fusion_lon": 0.0, "lon": -77.03449266666667, "name": "25b96b6332dfb22bc8c5b25b8c0dae88", "is_reserved": 0, "is_disabled": 0}, {"lat": 38.92515683333333, "fusion_lat": 0.0, "type": "electric_scooter", "bike_id": "0905cc981f6d6adaf32f2f95e99d6935", "rental_uris": {"ios": "https://dc.lft.to/lastmile_qr_scan", "android": "https://dc.lft.to/lastmile_qr_scan"}, "fusion_lon": 0.0, "lon": -77.023599, "name": "0905cc981f6d6adaf32f2f95e99d6935", "is_reserved": 0, "is_disabled": 0}, {"lat": 38.9010845, "fusion_lat": 0.0, "type": "electric_scooter", "bike_id": "6a72c65148674c90c901ab31d9cd634d", "rental_uris": {"ios": "https://dc.lft.to/lastmile_qr_scan", "android": "https://dc.lft.to/lastmile_qr_scan"}, "fusion_lon": 0.0, "lon": -77.04981566666666, "name": "6a72c65148674c90c901ab31d9cd634d", "is_reserved": 0, "is_disabled": 0}, {"lat": 38.93556866666667, "fusion_lat": 0.0, "type": "electric_scooter", "bike_id": "183411e00b6089752fb779ab2724f13e", "rental_uris": {"ios": "https://dc.lft.to/lastmile_qr_scan", "android": "https://dc.lft.to/lastmile_qr_scan"}, "fusion_lon": 0.0, "lon": -77.08775016666667, "name": "183411e00b6089752fb779ab2724f13e", "is_reserved": 0, "is_disabled": 0}, {"lat": 38.892229, "fusion_lat": 0.0, "type": "electric_scooter", "bike_id": "bf0f81e1a61a80f9de35a74a206c648d", "rental_uris": {"ios": "https://dc.lft.to/lastmile_qr_scan", "android": "https://dc.lft.to/lastmile_qr_scan"}, "fusion_lon": 0.0, "lon": -77.032155, "name": "bf0f81e1a61a80f9de35a74a206c648d", "is_reserved": 0, "is_disabled": 0}, {"lat": 38.9247725, "fusion_lat": 0.0, "type": "electric_scooter", "bike_id": "86d5df41b0eecd40861dcd3c83f847a7", "rental_uris": {"ios": "https://dc.lft.to/lastmile_qr_scan", "android": "https://dc.lft.to/lastmile_qr_scan"}, "fusion_lon": 0.0, "lon": -77.02585716666667, "name": "86d5df41b0eecd40861dcd3c83f847a7", "is_reserved": 0, "is_disabled": 0}, {"lat": 38.96142616666667, "fusion_lat": 0.0, "type": "electric_scooter", "bike_id": "99c71c51a23e86b0a1527c078e310f86", "rental_uris": {"ios": "https://dc.lft.to/lastmile_qr_scan", "android": "https://dc.lft.to/lastmile_qr_scan"}, "fusion_lon": 0.0, "lon": -77.02780083333333, "name": "99c71c51a23e86b0a1527c078e310f86", "is_reserved": 0, "is_disabled": 0}, {"lat": 38.892325166666666, "fusion_lat": 0.0, "type": "electric_scooter", "bike_id": "e49db57865f30359e345f2bd7febf745", "rental_uris": {"ios": "https://dc.lft.to/lastmile_qr_scan", "android": "https://dc.lft.to/lastmile_qr_scan"}, "fusion_lon": 0.0, "lon": -77.0318995, "name": "e49db57865f30359e345f2bd7febf745", "is_reserved": 0, "is_disabled": 0}, {"lat": 38.897299833333335, "fusion_lat": 0.0, "type": "electric_scooter", "bike_id": "80b1b2e9baed0124ad120da444efd898", "rental_uris": {"ios": "https://dc.lft.to/lastmile_qr_scan", "android": "https://dc.lft.to/lastmile_qr_scan"}, "fusion_lon": 0.0, "lon": -77.04926466666667, "name": "80b1b2e9baed0124ad120da444efd898", "is_reserved": 0, "is_disabled": 0}, {"lat": 38.9462885, "fusion_lat": 0.0, "type": "electric_scooter", "bike_id": "247db0afee86a292c841901ebb1be251", "rental_uris": {"ios": "https://dc.lft.to/lastmile_qr_scan", "android": "https://dc.lft.to/lastmile_qr_scan"}, "fusion_lon": 0.0, "lon": -77.0183845, "name": "247db0afee86a292c841901ebb1be251", "is_reserved": 0, "is_disabled": 0}, {"lat": 38.906962166666666, "fusion_lat": 0.0, "type": "electric_scooter", "bike_id": "aa200c57bb68bc81490c6a36d917adcd", "rental_uris": {"ios": "https://dc.lft.to/lastmile_qr_scan", "android": "https://dc.lft.to/lastmile_qr_scan"}, "fusion_lon": 0.0, "lon": -76.98689083333333, "name": "aa200c57bb68bc81490c6a36d917adcd", "is_reserved": 0, "is_disabled": 0}, {"lat": 38.925138833333335, "fusion_lat": 0.0, "type": "electric_scooter", "bike_id": "1866e1db288a4971e00bcc6f04c4a889", "rental_uris": {"ios": "https://dc.lft.to/lastmile_qr_scan", "android": "https://dc.lft.to/lastmile_qr_scan"}, "fusion_lon": 0.0, "lon": -77.0227875, "name": "1866e1db288a4971e00bcc6f04c4a889", "is_reserved": 0, "is_disabled": 0}, {"lat": 38.91116866666667, "fusion_lat": 0.0, "type": "electric_scooter", "bike_id": "2d03c37da9007d14b40faf482dacb057", "rental_uris": {"ios": "https://dc.lft.to/lastmile_qr_scan", "android": "https://dc.lft.to/lastmile_qr_scan"}, "fusion_lon": 0.0, "lon": -77.04465266666666, "name": "2d03c37da9007d14b40faf482dacb057", "is_reserved": 0, "is_disabled": 0}, {"lat": 38.910881333333336, "fusion_lat": 0.0, "type": "electric_scooter", "bike_id": "3297cf98b1de637fb0b983385342efd2", "rental_uris": {"ios": "https://dc.lft.to/lastmile_qr_scan", "android": "https://dc.lft.to/lastmile_qr_scan"}, "fusion_lon": 0.0, "lon": -77.03194566666667, "name": "3297cf98b1de637fb0b983385342efd2", "is_reserved": 0, "is_disabled": 0},