{"data": {"bikes": [{"is_reserved": 0, "type": "electric_scooter", "bike_id": "edd4e277dec91c5af22af237653d372e", "lat": 38.9110405, "lon": -77.01908533333334, "rental_uris": {"android": "https://dc.lft.to/lastmile_qr_scan", "ios": "https://dc.lft.to/lastmile_qr_scan"}, "is_disabled": 0, "fusion_lat": 0.0, "name": "edd4e277dec91c5af22af237653d372e", "fusion_lon": 0.0}, {"is_reserved": 0, "type": "electric_scooter", "bike_id": "95f0a954de7853c32ac22e38044515cd", "lat": 38.9256, "lon": -77.0228545, "rental_uris": {"android": "https://dc.lft.to/lastmile_qr_scan", "ios": "https://dc.lft.to/lastmile_qr_scan"}, "is_disabled": 0, "fusion_lat": 0.0, "name": "95f0a954de7853c32ac22e38044515cd", "fusion_lon": 0.0}, {"is_reserved": 0, "type": "electric_scooter", "bike_id": "cfa27796650b96834fdff605002d5524", "lat": 38.95204866666667, "lon": -77.0026065, "rental_uris": {"android": "https://dc.lft.to/lastmile_qr_scan", "ios": "https://dc.lft.to/lastmile_qr_scan"}, "is_disabled": 0, "fusion_lat": 0.0, "name": "cfa27796650b96834fdff605002d5524", "fusion_lon": 0.0}, {"is_reserved": 0, "type": "electric_scooter", "bike_id": "bc11c0fffe20d69a5b3d0b01da860edd", "lat": 38.9260855, "lon": -77.0241605, "rental_uris": {"android": "https://dc.lft.to/lastmile_qr_scan", "ios": "https://dc.lft.to/lastmile_qr_scan"}, "is_disabled": 0, "fusion_lat": 0.0, "name": "bc11c0fffe20d69a5b3d0b01da860edd", "fusion_lon": 0.0}, {"is_reserved": 0, "type": "electric_scooter", "bike_id": "bc3541945c9a1bd3c3d97d6892c811e3", "lat": 38.898020833333334, "lon": -77.02952016666667, "rental_uris": {"android": "https://dc.lft.to/lastmile_qr_scan", "ios": "https://dc.lft.to/lastmile_qr_scan"}, "is_disabled": 0, "fusion_lat": 0.0, "name": "bc3541945c9a1bd3c3d97d6892c811e3", "fusion_lon": 0.0}, {"is_reserved": 0, "type": "electric_scooter", "bike_id": "0de119e354dddaba3f68a11d65ae4fe7", "lat": 38.916797333333335, "lon": -77.02398216666667, "rental_uris": {"android": "https://dc.lft.to/lastmile_qr_scan", "ios": "https://dc.lft.to/lastmile_qr_scan"}, "is_disabled": 0, "fusion_lat": 0.0, "name": "0de119e354dddaba3f68a11d65ae4fe7", "fusion_lon": 0.0}, {"is_reserved": 0, "type": "electric_scooter", "bike_id": "c8e3cbb6910dd72a367b10da9217e1df", "lat": 38.9077015, "lon": -77.04508683333333, "rental_uris": {"android": "https://dc.lft.to/lastmile_qr_scan", "ios": "https://dc.lft.to/lastmile_qr_scan"}, "is_disabled": 0, "fusion_lat": 0.0, "name": "c8e3cbb6910dd72a367b10da9217e1df", "fusion_lon": 0.0}, {"is_reserved": 0, "type": "electric_bike", "bike_id": "06c4b27aa6a3c6888ae74b5ea737f54c", "lat": 38.916801, "lon": -76.96371316666666, "rental_uris": {"android": "https://dc.lft.to/lastmile_qr_scan", "ios": "https://dc.lft.to/lastmile_qr_scan"}, "is_disabled": 0, "fusion_lat": 0.0, "name": "06c4b27aa6a3c6888ae74b5ea737f54c", "fusion_lon": 0.0}, {"is_reserved": 0, "type": "electric_scooter", "bike_id": "fd6b8221c09b3f2ad72e666aa1b822c7", "lat": 38.880247, "lon": -77.02460766666667, "rental_uris": {"android": "https://dc.lft.to/lastmile_qr_scan", "ios": "https://dc.lft.to/lastmile_qr_scan"}, "is_disabled": 0, "fusion_lat": 0.0, "name": "fd6b8221c09b3f2ad72e666aa1b822c7", "fusion_lon": 0.0}, {"is_reserved": 0, "type": "electric_scooter", "bike_id": "99cd301e4712d5aa3b1fb9ca4d857fba", "lat": 38.91413166666667, "lon": -77.01877916666666, "rental_uris": {"android": "https://dc.lft.to/lastmile_qr_scan", "ios": "https://dc.lft.to/lastmile_qr_scan"}, "is_disabled": 0, "fusion_lat": 0.0, "name": "99cd301e4712d5aa3b1fb9ca4d857fba", "fusion_lon": 0.0}, {"is_reserved": 0, "type": "electric_scooter", "bike_id": "ff32a655363fc6f733c3af759a343fdd", "lat": 38.8766585, "lon": -77.005878, "rental_uris": {"android": "https://dc.lft.to/lastmile_qr_scan", "ios": "https://dc.lft.to/lastmile_qr_scan"}, "is_disabled": 0, "fusion_lat": 0.0, "name": "ff32a655363fc6f733c3af759a343fdd", "fusion_lon": 0.0}, {"is_reserved": 0, "type": "electric_scooter", "bike_id": "0453162e8b98c1461d2813b438e3bd1e", "lat": 38.930113166666665, "lon": -77.02338883333333, "rental_uris": {"android": "https://dc.lft.to/lastmile_qr_scan", "ios": "https://dc.lft.to/lastmile_qr_scan"}, "is_disabled": 0, "fusion_lat": 0.0, "name": "0453162e8b98c1461d2813b438e3bd1e", "fusion_lon": 0.0}, {"is_reserved": 0, "type": "electric_scooter", "bike_id": "4dd4e097e65dcbf5d454595afbb61301", "lat": 38.895542166666665, "lon": -77.03952816666667, "rental_uris": {"android": "https://dc.lft.to/lastmile_qr_scan", "ios": "https://dc.lft.to/lastmile_qr_scan"}, "is_disabled": 0, "fusion_lat": 0.0, "name": "4dd4e097e65dcbf5d454595afbb61301", "fusion_lon": 0.0}, {"is_reserved": 0, "type": "electric_scooter", "bike_id": "0e871f6843968e48c57ea563315af970", "lat": 38.911827, "lon": -77.02384483333333, "rental_uris": {"android": "https://dc.lft.to/lastmile_qr_scan", "ios": "https://dc.lft.to/lastmile_qr_scan"}, "is_disabled": 0, "fusion_lat": 0.0, "name": "0e871f6843968e48c57ea563315af970", "fusion_lon": 0.0}, {"is_reserved": 0, "type": "electric_scooter", "bike_id": "183f61e80f80aad08b81a3e587b16f8f", "lat": 38.871715, "lon": -77.0061665, "rental_uris": {"android": "https://dc.lft.to/lastmile_qr_scan", "ios": "https://dc.lft.to/lastmile_qr_scan"}, "is_disabled": 0, "fusion_lat": 0.0, "name": "183f61e80f80aad08b81a3e587b16f8f", "fusion_lon": 0.0}, {"is_reserved": 0, "type": "electric_bike", "bike_id": "ec5db0a6aa54f4736f3370df287a9260", "lat": 39.08491216666667, "lon": -76.950603, "rental_uris": {"android": "https://dc.lft.to/lastmile_qr_scan", "ios": "https://dc.lft.to/lastmile_qr_scan"}, "is_disabled": 0, "fusion_lat": 0.0, "name": "ec5db0a6aa54f4736f3370df287a9260", "fusion_lon": 0.0}, {"is_reserved": 0, "type": "electric_scooter", "bike_id": "1bd18a4d883424164ffad385a8a32673", "lat": 38.919275999999996, "lon": -77.03420966666667, "rental_uris": {"android": "https://dc.lft.to/lastmile_qr_scan", "ios": "https://dc.lft.to/lastmile_qr_scan"}, "is_disabled": 0, "fusion_lat": 0.0, "name": "1bd18a4d883424164ffad385a8a32673", "fusion_lon": 0.0}, {"is_reserved": 0, "type": "electric_scooter", "bike_id": "31882f38b3bff615a935516b7f057616", "lat": 38.95614883333333, "lon": -77.00325983333333, "rental_uris": {"android": "https://dc.lft.to/lastmile_qr_scan", "ios": "https://dc.lft.to/lastmile_qr_scan"}, "is_disabled": 0, "fusion_lat": 0.0, "name": "31882f38b3bff615a935516b7f057616", "fusion_lon": 0.0}, {"is_reserved": 0, "type": "electric_scooter", "bike_id": "343ad892467ed84003d41792797ca445", "lat": 38.930445666666664, "lon": -77.03616033333333, "rental_uris": {"android": "https://dc.lft.to/lastmile_qr_scan", "ios": "https://dc.lft.to/lastmile_qr_scan"}, "is_disabled": 0, "fusion_lat": 0.0, "name": "343ad892467ed84003d41792797ca445", "fusion_lon": 0.0}, {"is_reserved": 0, "type": "electric_scooter", "bike_id": "4c9d8f7702acaff47e1e5feb4531ce75", "lat": 38.92369133333333, "lon": -77.02049933333333, "rental_uris": {"android": "https://dc.lft.to/lastmile_qr_scan", "ios": "https://dc.lft.to/lastmile_qr_scan"}, "is_disabled": 0, "fusion_lat": 0.0, "name": "4c9d8f7702acaff47e1e5feb4531ce75", "fusion_lon": 0.0}, {"is_reserved": 0, "type": "electric_scooter", "bike_id": "5b9a61f6ad64fd64114c215f6c963517", "lat": 38.9573805, "lon": -77.03012083333333, "rental_uris": {"android": "https://dc.lft.to/lastmile_qr_scan", "ios": "https://dc.lft.to/lastmile_qr_scan"}, "is_disabled": 0, "fusion_lat": 0.0, "name": "5b9a61f6ad64fd64114c215f6c963517", "fusion_lon": 0.0}, {"is_reserved": 0, "type": "electric_scooter", "bike_id": "83060f62567413df3320d4ec59955cd1", "lat": 38.9064355, "lon": -77.0119735, "rental_uris": {"android": "https://dc.lft.to/lastmile_qr_scan", "ios": "https://dc.lft.to/lastmile_qr_scan"}, "is_disabled": 0, "fusion_lat": 0.0, "name": "83060f62567413df3320d4ec59955cd1", "fusion_lon": 0.0}, {"is_reserved": 0, "type": "electric_scooter", "bike_id": "058cda227cee157b312ff071614ad90a", "lat": 38.89525533333333, "lon": -77.044697, "rental_uris": {"android": "https://dc.lft.to/lastmile_qr_scan", "ios": "https://dc.lft.to/lastmile_qr_scan"}, "is_disabled": 0, "fusion_lat": 0.0, "name": "058cda227cee157b312ff071614ad90a", "fusion_lon": 0.0}, {"is_reserved": 0, "type": "electric_scooter", "bike_id": "a039918cb38af3371d82ca59eae5332c", "lat": 38.914709, "lon": -77.03236216666667, "rental_uris": {"android": "https://dc.lft.to/lastmile_qr_scan", "ios": "https://dc.lft.to/lastmile_qr_scan"}, "is_disabled": 0, "fusion_lat": 0.0, "name": "a039918cb38af3371d82ca59eae5332c", "fusion_lon": 0.0}, {"is_reserved": 0, "type": "electric_scooter", "bike_id": "64e4cb32ea687f2c53f2fbfb0137961a", "lat": 38.926540333333335, "lon": -77.03700133333334, "rental_uris": {"android": "https://dc.lft.to/lastmile_qr_scan", "ios": "https://dc.lft.to/lastmile_qr_scan"}, "is_disabled": 0, "fusion_lat": 0.0, "name": "64e4cb32ea687f2c53f2fbfb0137961a", "fusion_lon": 0.0}, {"is_reserved": 0, "type": "electric_scooter", "bike_id": "aa8cca9fa45596415618fc196f0e5024", "lat": 38.970018833333334, "lon": -77.00904633333333, "rental_uris": {"android": "https://dc.lft.to/lastmile_qr_scan", "ios": "https://dc.lft.to/lastmile_qr_scan"}, "is_disabled": 0, "fusion_lat": 0.0, "name": "aa8cca9fa45596415618fc196f0e5024", "fusion_lon": 0.0}, {"is_reserved": 0, "type": "electric_scooter", "bike_id": "e6bbcf95e25e40da41b6bfde2ebe6d72", "lat": 38.892237, "lon": -77.024168, "rental_uris": {"android": "https://dc.lft.to/lastmile_qr_scan", "ios": "https://dc.lft.to/lastmile_qr_scan"}, "is_disabled": 0, "fusion_lat": 0.0, "name": "e6bbcf95e25e40da41b6bfde2ebe6d72", "fusion_lon": 0.0}, {"is_reserved": 0, "type": "electric_scooter", "bike_id": "4d14cec30c88eb1fa4ba2f96a1313fcf", "lat": 38.90542833333333, "lon": -77.03253666666667, "rental_uris": {"android": "https://dc.lft.to/lastmile_qr_scan", "ios": "https://dc.lft.to/lastmile_qr_scan"}, "is_disabled": 0, "fusion_lat": 0.0, "name": "4d14cec30c88eb1fa4ba2f96a1313fcf", "fusion_lon": 0.0}, {"is_reserved": 0, "type": "electric_scooter", "bike_id": "42db4d9aa936331ebfe17d7f4a01c4d7", "lat": 38.876338, "lon": -77.0080535, "rental_uris": {"android": "https://dc.lft.to/lastmile_qr_scan", "ios": "https://dc.lft.to/lastmile_qr_scan"}, "is_disabled": 0, "fusion_lat": 0.0, "name": "42db4d9aa936331ebfe17d7f4a01c4d7", "fusion_lon": 0.0}, {"is_reserved": 0, "type": "electric_scooter", "bike_id": "7a893ec04aad7f980a48ffba94affa0b", "lat": 38.923945833333335, "lon": -77.04454416666667, "rental_uris": {"android": "https://dc.lft.to/lastmile_qr_scan", "ios": "https://dc.lft.to/lastmile_qr_scan"}, "is_disabled": 0, "fusion_lat": 0.0, "name": "7a893ec04aad7f980a48ffba94affa0b", "fusion_lon": 0.0}, {"is_reserved": 0, "type": "electric_scooter", "bike_id": "f7faff3974a1f3c9e482558cfc38007e", "lat": 38.90368733333333, "lon": -77.04001916666667, "rental_uris": {"android": "https://dc.lft.to/lastmile_qr_scan", "ios": "https://dc.lft.to/lastmile_qr_scan"}, "is_disabled": 0, "fusion_lat": 0.0, "name": "f7faff3974a1f3c9e482558cfc38007e", "fusion_lon": 0.0}, {"is_reserved": 0, "type": "electric_scooter", "bike_id": "c5bf1a38d87d9f5c8d6ef6996b1b20f9", "lat": 38.898215666666665, "lon": -77.030478, "rental_uris": {"android": "https://dc.lft.to/lastmile_qr_scan", "ios": "https://dc.lft.to/lastmile_qr_scan"}, "is_disabled": 0, "fusion_lat": 0.0, "name": "c5bf1a38d87d9f5c8d6ef6996b1b20f9", "fusion_lon": 0.0}, {"is_reserved": 0, "type": "electric_scooter", "bike_id": "96004118253bb98fd55bdd5d70aae761", "lat": 38.8951665, "lon": -77.03959833333333, "rental_uris": {"android": "https://dc.lft.to/lastmile_qr_scan", "ios": "https://dc.lft.to/lastmile_qr_scan"}, "is_disabled": 0, "fusion_lat": 0.0, "name": "96004118253bb98fd55bdd5d70aae761", "fusion_lon": 0.0}, {"is_reserved": 0, "type": "electric_scooter", "bike_id": "309db6dc105e62b428633800ecf17892", "lat": 38.91672033333333, "lon": -77.0346015, "rental_uris": {"android": "https://dc.lft.to/lastmile_qr_scan", "ios": "https://dc.lft.to/lastmile_qr_scan"}, "is_disabled": 0, "fusion_lat": 0.0, "name": "309db6dc105e62b428633800ecf17892", "fusion_lon": 0.0}, {"is_reserved": 0, "type": "electric_scooter", "bike_id": "97d99260584c9591ffd7dd4a12b5aeac", "lat": 38.89831616666667, "lon": -77.02203633333333, "rental_uris": {"android": "https://dc.lft.to/lastmile_qr_scan", "ios": "https://dc.lft.to/lastmile_qr_scan"}, "is_disabled": 0, "fusion_lat": 0.0, "name": "97d99260584c9591ffd7dd4a12b5aeac", "fusion_lon": 0.0}, {"is_reserved": 0, "type": "electric_scooter", "bike_id": "9205cf828f3a17390f1e82c16701d610", "lat": 38.896005833333334, "lon": -76.92983633333333, "rental_uris": {"android": "https://dc.lft.to/lastmile_qr_scan", "ios": "https://dc.lft.to/lastmile_qr_scan"}, "is_disabled": 0, "fusion_lat": 0.0, "name": "9205cf828f3a17390f1e82c16701d610", "fusion_lon": 0.0}, {"is_reserved": 0, "type": "electric_scooter", "bike_id": "3374a2bb4bc57cf30f620abd1e7d62e1", "lat": 38.903018, "lon": -76.93414583333333, "rental_uris": {"android": "https://dc.lft.to/lastmile_qr_scan", "ios": "https://dc.lft.to/lastmile_qr_scan"}, "is_disabled": 0, "fusion_lat": 0.0, "name": "3374a2bb4bc57cf30f620abd1e7d62e1", "fusion_lon": 0.0}, {"is_reserved": 0, "type": "electric_scooter", "bike_id": "03c53a79e1e4635ed89892ffcf405126", "lat": 38.92059283333333, "lon": -77.02507633333333, "rental_uris": {"android": "https://dc.lft.to/lastmile_qr_scan", "ios": "https://dc.lft.to/lastmile_qr_scan"}, "is_disabled": 0, "fusion_lat": 0.0, "name": "03c53a79e1e4635ed89892ffcf405126", "fusion_lon": 0.0}, {"is_reserved": 0, "type": "electric_scooter", "bike_id": "9641a189d28f42fc4f348ec8c314e4f3", "lat": 38.935343833333334, "lon": -77.0235435, "rental_uris": {"android": "https://dc.lft.to/lastmile_qr_scan", "ios": "https://dc.lft.to/lastmile_qr_scan"}, "is_disabled": 0, "fusion_lat": 0.0, "name": "9641a189d28f42fc4f348ec8c314e4f3", "fusion_lon": 0.0}, {"is_reserved": 0, "type": "electric_scooter", "bike_id": "de0c2fa9c7770bf717acbc67663370c7", "lat": 38.946486166666666, "lon": -77.06480566666667, "rental_uris": {"android": "https://dc.lft.to/lastmile_qr_scan", "ios": "https://dc.lft.to/lastmile_qr_scan"}, "is_disabled": 0, "fusion_lat": 0.0, "name": "de0c2fa9c7770bf717acbc67663370c7", "fusion_lon": 0.0}, {"is_reserved": 0, "type": "electric_scooter", "bike_id": "5d26e4f7833ddae5b55d10548c79521f", "lat": 38.89477766666667, "lon": -77.02154866666666, "rental_uris": {"android": "https://dc.lft.to/lastmile_qr_scan", "ios": "https://dc.lft.to/lastmile_qr_scan"}, "is_disabled": 0, "fusion_lat": 0.0, "name": "5d26e4f7833ddae5b55d10548c79521f", "fusion_lon": 0.0}, {"is_reserved": 0, "type": "electric_bike", "bike_id": "5bd4b4a2e05d5f5de011f22ff534be79", "lat": 38.920373, "lon": -76.9795585, "rental_uris": {"android": "https://dc.lft.to/lastmile_qr_scan", "ios": "https://dc.lft.to/lastmile_qr_scan"}, "is_disabled": 0, "fusion_lat": 0.0, "name": "5bd4b4a2e05d5f5de011f22ff534be79", "fusion_lon": 0.0}, {"is_reserved": 0, "type": "electric_scooter", "bike_id": "cdfd3758c93597d5f40d93120c6d4ea5", "lat": 38.9450945, "lon": -77.03365666666667, "rental_uris": {"android": "https://dc.lft.to/lastmile_qr_scan", "ios": "https://dc.lft.to/lastmile_qr_scan"}, "is_disabled": 0, "fusion_lat": 0.0, "name": "cdfd3758c93597d5f40d93120c6d4ea5", "fusion_lon": 0.0}, {"is_reserved": 0, "type": "electric_scooter", "bike_id": "f6aa439a1b7f6c0097c1ae35878903d2", "lat": 38.931046333333335, "lon": -77.02472683333333, "rental_uris": {"android": "https://dc.lft.to/lastmile_qr_scan", "ios": "https://dc.lft.to/lastmile_qr_scan"}, "is_disabled": 0, "fusion_lat": 0.0, "name": "f6aa439a1b7f6c0097c1ae35878903d2", "fusion_lon": 0.0}, {"is_reserved": 0, "type": "electric_scooter", "bike_id": "90936e76bf02d30f4c432a702ee44126", "lat": 38.9163185, "lon": -77.03157716666666, "rental_uris": {"android": "https://dc.lft.to/lastmile_qr_scan", "ios": "https://dc.lft.to/lastmile_qr_scan"}, "is_disabled": 0, "fusion_lat": 0.0, "name": "90936e76bf02d30f4c432a702ee44126", "fusion_lon": 0.0}, {"is_reserved": 0, "type": "electric_scooter", "bike_id": "52dbc6f1e747efc4637208f1c7757708", "lat": 38.90015733333333, "lon": -76.99167466666667, "rental_uris": {"android": "https://dc.lft.to/lastmile_qr_scan", "ios": "https://dc.lft.to/lastmile_qr_scan"}, "is_disabled": 0, "fusion_lat": 0.0, "name": "52dbc6f1e747efc4637208f1c7757708", "fusion_lon": 0.0}, {"is_reserved": 0, "type": "electric_scooter", "bike_id": "c25d4953994da31003a6086ee8c03924", "lat": 38.93061866666667, "lon": -77.039407, "rental_uris": {"android": "https://dc.lft.to/lastmile_qr_scan", "ios": "https://dc.lft.to/lastmile_qr_scan"}, "is_disabled": 0, "fusion_lat": 0.0, "name": "c25d4953994da31003a6086ee8c03924", "fusion_lon": 0.0}, {"is_reserved": 0, "type": "electric_scooter", "bike_id": "9b547ac8a2e61ff6f92b4e0db7e4e770", "lat": 38.90839066666667, "lon": -77.0433585, "rental_uris": {"android": "https://dc.lft.to/lastmile_qr_scan", "ios": "https://dc.lft.to/lastmile_qr_scan"}, "is_disabled": 0, "fusion_lat": 0.0, "name": "9b547ac8a2e61ff6f92b4e0db7e4e770", "fusion_lon": 0.0}, {"is_reserved": 0, "type": "electric_scooter", "bike_id": "f0fe3c2078da445063d9e9005b7317e3", "lat": 38.90552566666667, "lon": -77.00615233333333, "rental_uris": {"android": "https://dc.lft.to/lastmile_qr_scan", "ios": "https://dc.lft.to/lastmile_qr_scan"}, "is_disabled": 0, "fusion_lat": 0.0, "name": "f0fe3c2078da445063d9e9005b7317e3", "fusion_lon": 0.0}, {"is_reserved": 0, "type": "electric_scooter", "bike_id": "db86dbbb1f31d1732274f6868b5212f3", "lat": 38.88723183333333, "lon": -77.028293, "rental_uris": {"android": "https://dc.lft.to/lastmile_qr_scan", "ios": "https://dc.lft.to/lastmile_qr_scan"}, "is_disabled": 0, "fusion_lat": 0.0, "name": "db86dbbb1f31d1732274f6868b5212f3", "fusion_lon": 0.0}, {"is_reserved": 0, "type": "electric_scooter", "bike_id": "e8e969b0c3930dab8ab9c236518fe894", "lat": 38.93289766666667, "lon": -77.03933733333334, "rental_uris": {"android": "https://dc.lft.to/lastmile_qr_scan", "ios": "https://dc.lft.to/lastmile_qr_scan"}, "is_disabled": 0, "fusion_lat": 0.0, "name": "e8e969b0c3930dab8ab9c236518fe894", "fusion_lon": 0.0}, {"is_reserved": 0, "type": "electric_scooter", "bike_id": "970825f779626051a77a7d0650f98aed", "lat": 38.92036, "lon": -77.02209483333333, "rental_uris": {"android": "https://dc.lft.to/lastmile_qr_scan", "ios": "https://dc.lft.to/lastmile_qr_scan"}, "is_disabled": 0, "fusion_lat": 0.0, "name": "970825f779626051a77a7d0650f98aed", "fusion_lon": 0.0}, {"is_reserved": 0, "type": "electric_scooter", "bike_id": "267cb78690ae03ed636c17ecab353517", "lat": 38.9188305, "lon": -77.04172966666667, "rental_uris": {"android": "https://dc.lft.to/lastmile_qr_scan", "ios": "https://dc.lft.to/lastmile_qr_scan"}, "is_disabled": 0, "fusion_lat": 0.0, "name": "267cb78690ae03ed636c17ecab353517", "fusion_lon": 0.0}, {"is_reserved": 0, "type": "electric_scooter", "bike_id": "43eba19f98e61bf6fe09a8100bd8f48d", "lat": 38.925957333333336, "lon": -77.0215965, "rental_uris": {"android": "https://dc.lft.to/lastmile_qr_scan", "ios": "https://dc.lft.to/lastmile_qr_scan"}, "is_disabled": 0, "fusion_lat": 0.0, "name": "43eba19f98e61bf6fe09a8100bd8f48d", "fusion_lon": 0.0}, {"is_reserved": 0, "type": "electric_scooter", "bike_id": "785195f8cff3af91912095652529ff95", "lat": 38.926248, "lon": -77.035334, "rental_uris": {"android": "https://dc.lft.to/lastmile_qr_scan", "ios": "https://dc.lft.to/lastmile_qr_scan"}, "is_disabled": 0, "fusion_lat": 0.0, "name": "785195f8cff3af91912095652529ff95", "fusion_lon": 0.0}, {"is_reserved": 0, "type": "electric_scooter", "bike_id": "9e9c26d02999d0b8ac292f4bf4085de6", "lat": 38.92681616666667, "lon": -76.995506, "rental_uris": {"android": "https://dc.lft.to/lastmile_qr_scan", "ios": "https://dc.lft.to/lastmile_qr_scan"}, "is_disabled": 0, "fusion_lat": 0.0, "name": "9e9c26d02999d0b8ac292f4bf4085de6", "fusion_lon": 0.0}, {"is_reserved": 0, "type": "electric_scooter", "bike_id": "609ed16be9d9670089dbd82bcabc0f21", "lat": 38.9236325, "lon": -77.0195985, "rental_uris": {"android": "https://dc.lft.to/lastmile_qr_scan", "ios": "https://dc.lft.to/lastmile_qr_scan"}, "is_disabled": 0, "fusion_lat": 0.0, "name": "609ed16be9d9670089dbd82bcabc0f21", "fusion_lon": 0.0}, {"is_reserved": 0, "type": "electric_scooter", "bike_id": "c622d4343b137b054a861ebe3f8351f5", "lat": 38.948989833333336, "lon": -77.03178483333333, "rental_uris": {"android": "https://dc.lft.to/lastmile_qr_scan", "ios": "https://dc.lft.to/lastmile_qr_scan"}, "is_disabled": 0, "fusion_lat": 0.0, "name": "c622d4343b137b054a861ebe3f8351f5", "fusion_lon": 0.0}, {"is_reserved": 0, "type": "electric_scooter", "bike_id": "8846f63a83d658d52b57d9dca89efaaa", "lat": 38.91717966666667, "lon": -77.02969833333333, "rental_uris": {"android": "https://dc.lft.to/lastmile_qr_scan", "ios": "https://dc.lft.to/lastmile_qr_scan"}, "is_disabled": 0, "fusion_lat": 0.0, "name": "8846f63a83d658d52b57d9dca89efaaa", "fusion_lon": 0.0}, {"is_reserved": 0, "type": "electric_scooter", "bike_id": "5d0f5d5f4cdd7031dfc95c2b09dce6e5", "lat": 38.91607716666667, "lon": -77.02285233333333, "rental_uris": {"android": "https://dc.lft.to/lastmile_qr_scan", "ios": "https://dc.lft.to/lastmile_qr_scan"}, "is_disabled": 0, "fusion_lat": 0.0, "name": "5d0f5d5f4cdd7031dfc95c2b09dce6e5", "fusion_lon": 0.0}, {"is_reserved": 0, "type": "electric_scooter", "bike_id": "9130a163c27d6ef5be49bdb4c0a5064e", "lat": 38.8746685, "lon": -77.0055475, "rental_uris": {"android": "https://dc.lft.to/lastmile_qr_scan", "ios": "https://dc.lft.to/lastmile_qr_scan"}, "is_disabled": 0, "fusion_lat": 0.0, "name": "9130a163c27d6ef5be49bdb4c0a5064e", "fusion_lon": 0.0}, {"is_reserved": 0, "type": "electric_scooter", "bike_id": "f9028ec2a776d25db829850cb247d100", "lat": 38.9822165, "lon": -77.0264255, "rental_uris": {"android": "https://dc.lft.to/lastmile_qr_scan", "ios": "https://dc.lft.to/lastmile_qr_scan"}, "is_disabled": 0, "fusion_lat": 0.0, "name": "f9028ec2a776d25db829850cb247d100", "fusion_lon": 0.0}, {"is_reserved": 0, "type": "electric_scooter", "bike_id": "bf8ab4fc7e87eeb32f49526d02bfbc20", "lat": 38.88512566666667, "lon": -76.99675333333333, "rental_uris": {"android": "https://dc.lft.to/lastmile_qr_scan", "ios": "https://dc.lft.to/lastmile_qr_scan"}, "is_disabled": 0, "fusion_lat": 0.0, "name": "bf8ab4fc7e87eeb32f49526d02bfbc20", "fusion_lon": 0.0}, {"is_reserved": 0, "type": "electric_scooter", "bike_id": "62848d98dc1e3bc8b37c3477af17166d", "lat": 38.922471, "lon": -77.038906, "rental_uris": {"android": "https://dc.lft.to/lastmile_qr_scan", "ios": "https://dc.lft.to/lastmile_qr_scan"}, "is_disabled": 0, "fusion_lat": 0.0, "name": "62848d98dc1e3bc8b37c3477af17166d", "fusion_lon": 0.0}, {"is_reserved": 0, "type": "electric_scooter", "bike_id": "9bc6cad0ad10b5307e32dd81b3f49cd1", "lat": 38.914396833333335, "lon": -77.02399183333333, "rental_uris": {"android": "https://dc.lft.to/lastmile_qr_scan", "ios": "https://dc.lft.to/lastmile_qr_scan"}, "is_disabled": 0, "fusion_lat": 0.0, "name": "9bc6cad0ad10b5307e32dd81b3f49cd1", "fusion_lon": 0.0}, {"is_reserved": 0, "type": "electric_scooter", "bike_id": "c735abfeb254d827b5a71ba6d28a9485", "lat": 38.92048666666667, "lon": -77.0418405, "rental_uris": {"android": "https://dc.lft.to/lastmile_qr_scan", "ios": "https://dc.lft.to/lastmile_qr_scan"}, "is_disabled": 0, "fusion_lat": 0.0, "name": "c735abfeb254d827b5a71ba6d28a9485", "fusion_lon": 0.0}, {"is_reserved": 0, "type": "electric_scooter", "bike_id": "61b78534089a6d74cd3884690dc55120", "lat": 38.8954465, "lon": -76.98342666666667, "rental_uris": {"android": "https://dc.lft.to/lastmile_qr_scan", "ios": "https://dc.lft.to/lastmile_qr_scan"}, "is_disabled": 0, "fusion_lat": 0.0, "name": "61b78534089a6d74cd3884690dc55120", "fusion_lon": 0.0}, {"is_reserved": 0, "type": "electric_scooter", "bike_id": "0bb98d9a47b18d865cd73af660f29454", "lat": 38.90261233333333, "lon": -77.03970216666667, "rental_uris": {"android": "https://dc.lft.to/lastmile_qr_scan", "ios": "https://dc.lft.to/lastmile_qr_scan"}, "is_disabled": 0, "fusion_lat": 0.0, "name": "0bb98d9a47b18d865cd73af660f29454", "fusion_lon": 0.0}, {"is_reserved": 0, "type": "electric_scooter", "bike_id": "0cc594d65e6a7af2df5621bb50e3b9c3", "lat": 38.917126, "lon": -77.026793, "rental_uris": {"android": "https://dc.lft.to/lastmile_qr_scan", "ios": "https://dc.lft.to/lastmile_qr_scan"}, "is_disabled": 0, "fusion_lat": 0.0, "name": "0cc594d65e6a7af2df5621bb50e3b9c3", "fusion_lon": 0.0}, {"is_reserved": 0, "type": "electric_scooter", "bike_id": "20c8135f6815b9ed41e66508c5302f4c", "lat": 38.9162725, "lon": -77.028096, "rental_uris": {"android": "https://dc.lft.to/lastmile_qr_scan", "ios": "https://dc.lft.to/lastmile_qr_scan"}, "is_disabled": 0, "fusion_lat": 0.0, "name": "20c8135f6815b9ed41e66508c5302f4c", "fusion_lon": 0.0}, {"is_reserved": 0, "type": "electric_scooter", "bike_id": "4ed82093aab62fc766fc09a4419fa545", "lat": 38.90958083333334, "lon": -77.021293, "rental_uris": {"android": "https://dc.lft.to/lastmile_qr_scan", "ios": "https://dc.lft.to/lastmile_qr_scan"}, "is_disabled": 0, "fusion_lat": 0.0, "name": "4ed82093aab62fc766fc09a4419fa545", "fusion_lon": 0.0}, {"is_reserved": 0, "type": "electric_scooter", "bike_id": "6e017bcd76ff5e29eeabcde81fe5524e", "lat": 38.89728516666667, "lon": -77.00753716666667, "rental_uris": {"android": "https://dc.lft.to/lastmile_qr_scan", "ios": "https://dc.lft.to/lastmile_qr_scan"}, "is_disabled": 0, "fusion_lat": 0.0, "name": "6e017bcd76ff5e29eeabcde81fe5524e", "fusion_lon": 0.0}, {"is_reserved": 0, "type": "electric_scooter", "bike_id": "fb0ad3968e87a3df8671a82d43f80aea", "lat": 38.92598683333333, "lon": -77.02154633333333, "rental_uris": {"android": "https://dc.lft.to/lastmile_qr_scan", "ios": "https://dc.lft.to/lastmile_qr_scan"}, "is_disabled": 0, "fusion_lat": 0.0, "name": "fb0ad3968e87a3df8671a82d43f80aea", "fusion_lon": 0.0}, {"is_reserved": 0, "type": "electric_scooter", "bike_id": "bda6cafca9d11494ee0fd5d734a6bfc9", "lat": 38.883307333333335, "lon": -77.02014333333334, "rental_uris": {"android": "https://dc.lft.to/lastmile_qr_scan", "ios": "https://dc.lft.to/lastmile_qr_scan"}, "is_disabled": 0, "fusion_lat": 0.0, "name": "bda6cafca9d11494ee0fd5d734a6bfc9", "fusion_lon": 0.0}, {"is_reserved": 0, "type": "electric_scooter", "bike_id": "db24ee41bf28b94913c06c03da74a3be", "lat": 38.9051815, "lon": -77.0419125, "rental_uris": {"android": "https://dc.lft.to/lastmile_qr_scan", "ios": "https://dc.lft.to/lastmile_qr_scan"}, "is_disabled": 0, "fusion_lat": 0.0, "name": "db24ee41bf28b94913c06c03da74a3be", "fusion_lon": 0.0}, {"is_reserved": 0, "type": "electric_scooter", "bike_id": "753fa8ddd4423b999b14fc5554b2f0b3", "lat": 38.94025366666666, "lon": -77.02513766666667, "rental_uris": {"android": "https://dc.lft.to/lastmile_qr_scan", "ios": "https://dc.lft.to/lastmile_qr_scan"}, "is_disabled": 0, "fusion_lat": 0.0, "name": "753fa8ddd4423b999b14fc5554b2f0b3", "fusion_lon": 0.0}, {"is_reserved": 0, "type": "electric_scooter", "bike_id": "013fd158e441e45e41991b1fb58d62d0", "lat": 38.935401, "lon": -77.0727225, "rental_uris": {"android": "https://dc.lft.to/lastmile_qr_scan", "ios": "https://dc.lft.to/lastmile_qr_scan"}, "is_disabled": 0, "fusion_lat": 0.0, "name": "013fd158e441e45e41991b1fb58d62d0", "fusion_lon": 0.0}, {"is_reserved": 0, "type": "electric_scooter", "bike_id": "c2fef187598af9a91a78f42ea5beb9bb", "lat": 38.938592666666665, "lon": -77.0758885, "rental_uris": {"android": "https://dc.lft.to/lastmile_qr_scan", "ios": "https://dc.lft.to/lastmile_qr_scan"}, "is_disabled": 0, "fusion_lat": 0.0, "name": "c2fef187598af9a91a78f42ea5beb9bb", "fusion_lon": 0.0}, {"is_reserved": 0, "type": "electric_scooter", "bike_id": "d6b43ca30f7f92721fef5fa02f4f5216", "lat": 38.900939666666666, "lon": -77.05063533333333, "rental_uris": {"android": "https://dc.lft.to/lastmile_qr_scan", "ios": "https://dc.lft.to/lastmile_qr_scan"}, "is_disabled": 0, "fusion_lat": 0.0, "name": "d6b43ca30f7f92721fef5fa02f4f5216", "fusion_lon": 0.0}, {"is_reserved": 0, "type": "electric_scooter", "bike_id": "499aefed4f4bca001bf0b49f1849e4c9", "lat": 38.88727516666667, "lon": -76.9837715, "rental_uris": {"android": "https://dc.lft.to/lastmile_qr_scan", "ios": "https://dc.lft.to/lastmile_qr_scan"}, "is_disabled": 0, "fusion_lat": 0.0, "name": "499aefed4f4bca001bf0b49f1849e4c9", "fusion_lon": 0.0}, {"is_reserved": 0, "type": "electric_bike", "bike_id": "4333ba03622a16868c71e9d59006804c", "lat": 38.836020166666664, "lon": -77.0037375, "rental_uris": {"android": "https://dc.lft.to/lastmile_qr_scan", "ios": "https://dc.lft.to/lastmile_qr_scan"}, "is_disabled": 0, "fusion_lat": 0.0, "name": "4333ba03622a16868c71e9d59006804c", "fusion_lon": 0.0}, {"is_reserved": 0, "type": "electric_scooter", "bike_id": "cf89164175d24990a9d6bb2c1973c990", "lat": 38.903912, "lon": -77.0630125, "rental_uris": {"android": "https://dc.lft.to/lastmile_qr_scan", "ios": "https://dc.lft.to/lastmile_qr_scan"}, "is_disabled": 0, "fusion_lat": 0.0, "name": "cf89164175d24990a9d6bb2c1973c990", "fusion_lon": 0.0}, {"is_reserved": 0, "type": "electric_scooter", "bike_id": "0e706ad0bc5a0cc54e3559d7f55aadf0", "lat": 38.905776333333336, "lon": -77.00935066666666, "rental_uris": {"android": "https://dc.lft.to/lastmile_qr_scan", "ios": "https://dc.lft.to/lastmile_qr_scan"}, "is_disabled": 0, "fusion_lat": 0.0, "name": "0e706ad0bc5a0cc54e3559d7f55aadf0", "fusion_lon": 0.0}, {"is_reserved": 0, "type": "electric_scooter", "bike_id": "6fac6a589489f83a22ea25a3f5df060e", "lat": 38.92052316666667, "lon": -77.033888, "rental_uris": {"android": "https://dc.lft.to/lastmile_qr_scan", "ios": "https://dc.lft.to/lastmile_qr_scan"}, "is_disabled": 0, "fusion_lat": 0.0, "name": "6fac6a589489f83a22ea25a3f5df060e", "fusion_lon": 0.0}, {"is_reserved": 0, "type": "electric_scooter", "bike_id": "c190c05209f3e2da133a0ca2cc2bf6a5", "lat": 38.8923815, "lon": -77.013524, "rental_uris": {"android": "https://dc.lft.to/lastmile_qr_scan", "ios": "https://dc.lft.to/lastmile_qr_scan"}, "is_disabled": 0, "fusion_lat": 0.0, "name": "c190c05209f3e2da133a0ca2cc2bf6a5", "fusion_lon": 0.0}, {"is_reserved": 0, "type": "electric_scooter", "bike_id": "b8208c1ac6fbfc188041cbfa5fbb76e0", "lat": 38.892226, "lon": -77.03106133333333, "rental_uris": {"android": "https://dc.lft.to/lastmile_qr_scan", "ios": "https://dc.lft.to/lastmile_qr_scan"}, "is_disabled": 0, "fusion_lat": 0.0, "name": "b8208c1ac6fbfc188041cbfa5fbb76e0", "fusion_lon": 0.0}, {"is_reserved": 0, "type": "electric_bike", "bike_id": "8e9a4e6d251a270b02e950493fcb4afe", "lat": 38.92901533333333, "lon": -77.0973685, "rental_uris": {"android": "https://dc.lft.to/lastmile_qr_scan", "ios": "https://dc.lft.to/lastmile_qr_scan"}, "is_disabled": 0, "fusion_lat": 0.0, "name": "8e9a4e6d251a270b02e950493fcb4afe", "fusion_lon": 0.0}, {"is_reserved": 0, "type": "electric_scooter", "bike_id": "e59f19273fb47ec64dadeb67df502bcd", "lat": 38.89227783333333, "lon": -77.01764766666666, "rental_uris": {"android": "https://dc.lft.to/lastmile_qr_scan", "ios": "https://dc.lft.to/lastmile_qr_scan"}, "is_disabled": 0, "fusion_lat": 0.0, "name": "e59f19273fb47ec64dadeb67df502bcd", "fusion_lon": 0.0}, {"is_reserved": 0, "type": "electric_bike", "bike_id": "a453a39f3485979c0fcdda4796ec9447", "lat": 38.9089275, "lon": -77.0726645, "rental_uris": {"android": "https://dc.lft.to/lastmile_qr_scan", "ios": "https://dc.lft.to/lastmile_qr_scan"}, "is_disabled": 0, "fusion_lat": 0.0, "name": "a453a39f3485979c0fcdda4796ec9447", "fusion_lon": 0.0}, {"is_reserved": 0, "type": "electric_scooter", "bike_id": "e118009142616abca890bbc6802e97c1", "lat": 38.9517975, "lon": -77.026131, "rental_uris": {"android": "https://dc.lft.to/lastmile_qr_scan", "ios": "https://dc.lft.to/lastmile_qr_scan"}, "is_disabled": 0, "fusion_lat": 0.0, "name": "e118009142616abca890bbc6802e97c1", "fusion_lon": 0.0}, {"is_reserved": 0, "type": "electric_scooter", "bike_id": "6bc69b0a587476efb494bcefa9cd7161", "lat": 38.922566, "lon": -77.0366525, "rental_uris": {"android": "https://dc.lft.to/lastmile_qr_scan", "ios": "https://dc.lft.to/lastmile_qr_scan"}, "is_disabled": 0, "fusion_lat": 0.0, "name": "6bc69b0a587476efb494bcefa9cd7161", "fusion_lon": 0.0}, {"is_reserved": 0, "type": "electric_scooter", "bike_id": "10c7e2abfe82f307e298b2799b5cc4d8", "lat": 38.906484, "lon": -77.07565233333334, "rental_uris": {"android": "https://dc.lft.to/lastmile_qr_scan", "ios": "https://dc.lft.to/lastmile_qr_scan"}, "is_disabled": 0, "fusion_lat": 0.0, "name": "10c7e2abfe82f307e298b2799b5cc4d8", "fusion_lon": 0.0}, {"is_reserved": 0, "type": "electric_scooter", "bike_id": "b7846f0f6b44840e11047bcee211712f", "lat": 38.90578583333333, "lon": -76.98432116666666, "rental_uris": {"android": "https://dc.lft.to/lastmile_qr_scan", "ios": "https://dc.lft.to/lastmile_qr_scan"}, "is_disabled": 0, "fusion_lat": 0.0, "name": "b7846f0f6b44840e11047bcee211712f", "fusion_lon": 0.0}, {"is_reserved": 0, "type": "electric_scooter", "bike_id": "91961fd67615ff204d1224e4c6613aba", "lat": 38.93700883333333, "lon": -77.05596916666667, "rental_uris": {"android": "https://dc.lft.to/lastmile_qr_scan", "ios": "https://dc.lft.to/lastmile_qr_scan"}, "is_disabled": 0, "fusion_lat": 0.0, "name": "91961fd67615ff204d1224e4c6613aba", "fusion_lon": 0.0}, {"is_reserved": 0, "type": "electric_scooter", "bike_id": "023aaf9ca0ccecc0974abb070f7ab0db", "lat": 38.895012333333334, "lon": -77.022084, "rental_uris": {"android": "https://dc.lft.to/lastmile_qr_scan", "ios": "https://dc.lft.to/lastmile_qr_scan"}, "is_disabled": 0, "fusion_lat": 0.0, "name": "023aaf9ca0ccecc0974abb070f7ab0db", "fusion_lon": 0.0}, {"is_reserved": 0, "type": "electric_scooter", "bike_id": "f381a07ae09a02d48fd470fbea9b00ee", "lat": 38.909679, "lon": -77.0240415, "rental_uris": {"android": "https://dc.lft.to/lastmile_qr_scan", "ios": "https://dc.lft.to/lastmile_qr_scan"}, "is_disabled": 0, "fusion_lat": 0.0, "name": "f381a07ae09a02d48fd470fbea9b00ee", "fusion_lon": 0.0}, {"is_reserved": 0, "type": "electric_scooter", "bike_id": "ecc239999045af19ad0cf5c83b2d3201", "lat": 38.887430333333334, "lon": -76.98356766666667, "rental_uris": {"android": "https://dc.lft.to/lastmile_qr_scan", "ios": "https://dc.lft.to/lastmile_qr_scan"}, "is_disabled": 0, "fusion_lat": 0.0, "name": "ecc239999045af19ad0cf5c83b2d3201", "fusion_lon": 0.0}, {"is_reserved": 0, "type": "electric_scooter", "bike_id": "86225d04d0a4e093696152c40db92cfb", "lat": 38.89515816666667, "lon": -76.9921775, "rental_uris": {"android": "https://dc.lft.to/lastmile_qr_scan", "ios": "https://dc.lft.to/lastmile_qr_scan"}, "is_disabled": 0, "fusion_lat": 0.0, "name": "86225d04d0a4e093696152c40db92cfb", "fusion_lon": 0.0}, {"is_reserved": 0, "type": "electric_scooter", "bike_id": "d0aca5eba52e07032fc9ed2f72ecf656", "lat": 38.899787333333336, "lon": -77.023, "rental_uris": {"android": "https://dc.lft.to/lastmile_qr_scan", "ios": "https://dc.lft.to/lastmile_qr_scan"}, "is_disabled": 0, "fusion_lat": 0.0, "name": "d0aca5eba52e07032fc9ed2f72ecf656", "fusion_lon": 0.0}, {"is_reserved": 0, "type": "electric_scooter", "bike_id": "8f8cf0e379122b47f7e534cb4e3e700f", "lat": 38.9275465, "lon": -77.0243405, "rental_uris": {"android": "https://dc.lft.to/lastmile_qr_scan", "ios": "https://dc.lft.to/lastmile_qr_scan"}, "is_disabled": 0, "fusion_lat": 0.0, "name": "8f8cf0e379122b47f7e534cb4e3e700f", "fusion_lon": 0.0}, {"is_reserved": 0, "type": "electric_scooter", "bike_id": "a4a480e78b5a7eb4b3c04730db00cc28", "lat": 38.921407, "lon": -77.03507266666666, "rental_uris": {"android": "https://dc.lft.to/lastmile_qr_scan", "ios": "https://dc.lft.to/lastmile_qr_scan"}, "is_disabled": 0, "fusion_lat": 0.0, "name": "a4a480e78b5a7eb4b3c04730db00cc28", "fusion_lon": 0.0}, {"is_reserved": 0, "type": "electric_scooter", "bike_id": "53c395f1014df8f3e17394cc51e4c413", "lat": 38.923661833333334, "lon": -77.04318483333333, "rental_uris": {"android": "https://dc.lft.to/lastmile_qr_scan", "ios": "https://dc.lft.to/lastmile_qr_scan"}, "is_disabled": 0, "fusion_lat": 0.0, "name": "53c395f1014df8f3e17394cc51e4c413", "fusion_lon": 0.0}, {"is_reserved": 0, "type": "electric_scooter", "bike_id": "8c7a0a3fdb8e11907bcd704cbcb33101", "lat": 38.89858516666666, "lon": -76.97764183333334, "rental_uris": {"android": "https://dc.lft.to/lastmile_qr_scan", "ios": "https://dc.lft.to/lastmile_qr_scan"}, "is_disabled": 0, "fusion_lat": 0.0, "name": "8c7a0a3fdb8e11907bcd704cbcb33101", "fusion_lon": 0.0}, {"is_reserved": 0, "type": "electric_bike", "bike_id": "a8ce57ffbb237df15f6db22bad974e44", "lat": 38.87211933333333, "lon": -77.11735466666667, "rental_uris": {"android": "https://dc.lft.to/lastmile_qr_scan", "ios": "https://dc.lft.to/lastmile_qr_scan"}, "is_disabled": 0, "fusion_lat": 0.0, "name": "a8ce57ffbb237df15f6db22bad974e44", "fusion_lon": 0.0}, {"is_reserved": 0, "type": "electric_bike", "bike_id": "a1aef558ecdbcef303289f65584e48b6", "lat": 38.903121166666665, "lon": -76.99128633333333, "rental_uris": {"android": "https://dc.lft.to/lastmile_qr_scan", "ios": "https://dc.lft.to/lastmile_qr_scan"}, "is_disabled": 0, "fusion_lat": 0.0, "name": "a1aef558ecdbcef303289f65584e48b6", "fusion_lon": 0.0}, {"is_reserved": 0, "type": "electric_bike", "bike_id": "c2927ef342ddc858c93f10687e2788d3", "lat": 38.80672933333334, "lon": -77.08754733333333, "rental_uris": {"android": "https://dc.lft.to/lastmile_qr_scan", "ios": "https://dc.lft.to/lastmile_qr_scan"}, "is_disabled": 0, "fusion_lat": 0.0, "name": "c2927ef342ddc858c93f10687e2788d3", "fusion_lon": 0.0}, {"is_reserved": 0, "type": "electric_scooter", "bike_id": "9831780826efe5539f2dd4c5efe039fb", "lat": 38.914151333333336, "lon": -77.0314665, "rental_uris": {"android": "https://dc.lft.to/lastmile_qr_scan", "ios": "https://dc.lft.to/lastmile_qr_scan"}, "is_disabled": 0, "fusion_lat": 0.0, "name": "9831780826efe5539f2dd4c5efe039fb", "fusion_lon": 0.0}, {"is_reserved": 0, "type": "electric_bike", "bike_id": "399f082893a3131ff9e923787c983ca4", "lat": 38.85778783333333, "lon": -76.98758066666667, "rental_uris": {"android": "https://dc.lft.to/lastmile_qr_scan", "ios": "https://dc.lft.to/lastmile_qr_scan"}, "is_disabled": 0, "fusion_lat": 0.0, "name": "399f082893a3131ff9e923787c983ca4", "fusion_lon": 0.0}, {"is_reserved": 0, "type": "electric_bike", "bike_id": "b5d7233274a6fdb4e2556618ec5e03a3", "lat": 38.94317483333333, "lon": -76.99014666666666, "rental_uris": {"android": "https://dc.lft.to/lastmile_qr_scan", "ios": "https://dc.lft.to/lastmile_qr_scan"}, "is_disabled": 0, "fusion_lat": 0.0, "name": "b5d7233274a6fdb4e2556618ec5e03a3", "fusion_lon": 0.0}, {"is_reserved": 0, "type": "electric_scooter", "bike_id": "5106adf1a8d71528ee068ac82281831e", "lat": 38.92117616666667, "lon": -77.0120955, "rental_uris": {"android": "https://dc.lft.to/lastmile_qr_scan", "ios": "https://dc.lft.to/lastmile_qr_scan"}, "is_disabled": 0, "fusion_lat": 0.0, "name": "5106adf1a8d71528ee068ac82281831e", "fusion_lon": 0.0}, {"is_reserved": 0, "type": "electric_scooter", "bike_id": "cab4f9a0ec6504aeb5eac8669b03ae14", "lat": 38.91083016666666, "lon": -77.02194866666666, "rental_uris": {"android": "https://dc.lft.to/lastmile_qr_scan", "ios": "https://dc.lft.to/lastmile_qr_scan"}, "is_disabled": 0, "fusion_lat": 0.0, "name": "cab4f9a0ec6504aeb5eac8669b03ae14", "fusion_lon": 0.0}, {"is_reserved": 0, "type": "electric_scooter", "bike_id": "9552f93c47b2f970f37fee1ac7c7e2ea", "lat": 38.917334, "lon": -77.03658116666666, "rental_uris": {"android": "https://dc.lft.to/lastmile_qr_scan", "ios": "https://dc.lft.to/lastmile_qr_scan"}, "is_disabled": 0, "fusion_lat": 0.0, "name": "9552f93c47b2f970f37fee1ac7c7e2ea", "fusion_lon": 0.0}, {"is_reserved": 0, "type": "electric_scooter", "bike_id": "9e91ecdd044755a945996072fc389672", "lat": 38.9047025, "lon": -77.03448066666667, "rental_uris": {"android": "https://dc.lft.to/lastmile_qr_scan", "ios": "https://dc.lft.to/lastmile_qr_scan"}, "is_disabled": 0, "fusion_lat": 0.0, "name": "9e91ecdd044755a945996072fc389672", "fusion_lon": 0.0}, {"is_reserved": 0, "type": "electric_scooter", "bike_id": "2222b6e16826ca4c65afd8a891cd4dec", "lat": 38.9213965, "lon": -77.04709716666666, "rental_uris": {"android": "https://dc.lft.to/lastmile_qr_scan", "ios": "https://dc.lft.to/lastmile_qr_scan"}, "is_disabled": 0, "fusion_lat": 0.0, "name": "2222b6e16826ca4c65afd8a891cd4dec", "fusion_lon": 0.0}, {"is_reserved": 0, "type": "electric_bike", "bike_id": "30027bb6600eaa02d96d33788d9fd531", "lat": 38.85594183333333, "lon": -76.97457316666667, "rental_uris": {"android": "https://dc.lft.to/lastmile_qr_scan", "ios": "https://dc.lft.to/lastmile_qr_scan"}, "is_disabled": 0, "fusion_lat": 0.0, "name": "30027bb6600eaa02d96d33788d9fd531", "fusion_lon": 0.0}, {"is_reserved": 0, "type": "electric_scooter", "bike_id": "dfe9e293d294c9a1538891f62fa9471b", "lat": 38.919594833333335, "lon": -77.014402, "rental_uris": {"android": "https://dc.lft.to/lastmile_qr_scan", "ios": "https://dc.lft.to/lastmile_qr_scan"}, "is_disabled": 0, "fusion_lat": 0.0, "name": "dfe9e293d294c9a1538891f62fa9471b", "fusion_lon": 0.0}, {"is_reserved": 0, "type": "electric_scooter", "bike_id": "1ecbf9fb851a0ff9df2926edcc8fd093", "lat": 38.900451833333335, "lon": -77.0434305, "rental_uris": {"android": "https://dc.lft.to/lastmile_qr_scan", "ios": "https://dc.lft.to/lastmile_qr_scan"}, "is_disabled": 0, "fusion_lat": 0.0, "name": "1ecbf9fb851a0ff9df2926edcc8fd093", "fusion_lon": 0.0}, {"is_reserved": 0, "type": "electric_scooter", "bike_id": "04ab089cd3b5e995a94bd15db5c88e07", "lat": 38.91664883333333, "lon": -77.02974666666667, "rental_uris": {"android": "https://dc.lft.to/lastmile_qr_scan", "ios": "https://dc.lft.to/lastmile_qr_scan"}, "is_disabled": 0, "fusion_lat": 0.0, "name": "04ab089cd3b5e995a94bd15db5c88e07", "fusion_lon": 0.0}, {"is_reserved": 0, "type": "electric_scooter", "bike_id": "26063d5a48ed1e92811424439619b550", "lat": 38.95519566666667, "lon": -77.0239945, "rental_uris": {"android": "https://dc.lft.to/lastmile_qr_scan", "ios": "https://dc.lft.to/lastmile_qr_scan"}, "is_disabled": 0, "fusion_lat": 0.0, "name": "26063d5a48ed1e92811424439619b550", "fusion_lon": 0.0}, {"is_reserved": 0, "type": "electric_scooter", "bike_id": "e6dccb8fdebc2e4e78c6ee8115b2dc33", "lat": 38.91457416666667, "lon": -77.022854, "rental_uris": {"android": "https://dc.lft.to/lastmile_qr_scan", "ios": "https://dc.lft.to/lastmile_qr_scan"}, "is_disabled": 0, "fusion_lat": 0.0, "name": "e6dccb8fdebc2e4e78c6ee8115b2dc33", "fusion_lon": 0.0}, {"is_reserved": 0, "type": "electric_scooter", "bike_id": "7a33b5236e80ee2ab6e084e99a6954cd", "lat": 38.90586016666666, "lon": -77.03639133333333, "rental_uris": {"android": "https://dc.lft.to/lastmile_qr_scan", "ios": "https://dc.lft.to/lastmile_qr_scan"}, "is_disabled": 0, "fusion_lat": 0.0, "name": "7a33b5236e80ee2ab6e084e99a6954cd", "fusion_lon": 0.0}, {"is_reserved": 0, "type": "electric_scooter", "bike_id": "fb6d18400ce9cf58334a47a1b5784414", "lat": 38.90795466666667, "lon": -77.04235616666666, "rental_uris": {"android": "https://dc.lft.to/lastmile_qr_scan", "ios": "https://dc.lft.to/lastmile_qr_scan"}, "is_disabled": 0, "fusion_lat": 0.0, "name": "fb6d18400ce9cf58334a47a1b5784414", "fusion_lon": 0.0}, {"is_reserved": 0, "type": "electric_scooter", "bike_id": "1fd1767ddb260bbdc3f685b4ff99457f", "lat": 38.925493833333334, "lon": -77.03223416666667, "rental_uris": {"android": "https://dc.lft.to/lastmile_qr_scan", "ios": "https://dc.lft.to/lastmile_qr_scan"}, "is_disabled": 0, "fusion_lat": 0.0, "name": "1fd1767ddb260bbdc3f685b4ff99457f", "fusion_lon": 0.0}, {"is_reserved": 0, "type": "electric_scooter", "bike_id": "77841a860651c6bf80bb9b7fb3b464f4", "lat": 38.91488583333334, "lon": -77.01998516666667, "rental_uris": {"android": "https://dc.lft.to/lastmile_qr_scan", "ios": "https://dc.lft.to/lastmile_qr_scan"}, "is_disabled": 0, "fusion_lat": 0.0, "name": "77841a860651c6bf80bb9b7fb3b464f4", "fusion_lon": 0.0}, {"is_reserved": 0, "type": "electric_scooter", "bike_id": "72ba69db34d238e692edc87f047ae8a1", "lat": 38.91788183333333, "lon": -77.023372, "rental_uris": {"android": "https://dc.lft.to/lastmile_qr_scan", "ios": "https://dc.lft.to/lastmile_qr_scan"}, "is_disabled": 0, "fusion_lat": 0.0, "name": "72ba69db34d238e692edc87f047ae8a1", "fusion_lon": 0.0}, {"is_reserved": 0, "type": "electric_scooter", "bike_id": "039b464746da82d6daa01b38ca2c0609", "lat": 38.89695733333333, "lon": -77.05018983333333, "rental_uris": {"android": "https://dc.lft.to/lastmile_qr_scan", "ios": "https://dc.lft.to/lastmile_qr_scan"}, "is_disabled": 0, "fusion_lat": 0.0, "name": "039b464746da82d6daa01b38ca2c0609", "fusion_lon": 0.0}, {"is_reserved": 0, "type": "electric_scooter", "bike_id": "e2707099edd7580eb25c5cc7d22b0512", "lat": 38.933559833333334, "lon": -77.05722916666667, "rental_uris": {"android": "https://dc.lft.to/lastmile_qr_scan", "ios": "https://dc.lft.to/lastmile_qr_scan"}, "is_disabled": 0, "fusion_lat": 0.0, "name": "e2707099edd7580eb25c5cc7d22b0512", "fusion_lon": 0.0}, {"is_reserved": 0, "type": "electric_scooter", "bike_id": "9c8fc7e2742cbb80c00a5025f5928ef0", "lat": 38.932436, "lon": -77.029456, "rental_uris": {"android": "https://dc.lft.to/lastmile_qr_scan", "ios": "https://dc.lft.to/lastmile_qr_scan"}, "is_disabled": 0, "fusion_lat": 0.0, "name": "9c8fc7e2742cbb80c00a5025f5928ef0", "fusion_lon": 0.0}, {"is_reserved": 0, "type": "electric_scooter", "bike_id": "34f8e0b639f775f0af24574a9aaec04b", "lat": 38.911242333333334, "lon": -77.02198916666667, "rental_uris": {"android": "https://dc.lft.to/lastmile_qr_scan", "ios": "https://dc.lft.to/lastmile_qr_scan"}, "is_disabled": 0, "fusion_lat": 0.0, "name": "34f8e0b639f775f0af24574a9aaec04b", "fusion_lon": 0.0}, {"is_reserved": 0, "type": "electric_scooter", "bike_id": "66470c90202c0946e3aee6bc1c15185a", "lat": 38.924174, "lon": -77.02006816666666, "rental_uris": {"android": "https://dc.lft.to/lastmile_qr_scan", "ios": "https://dc.lft.to/lastmile_qr_scan"}, "is_disabled": 0, "fusion_lat": 0.0, "name": "66470c90202c0946e3aee6bc1c15185a", "fusion_lon": 0.0}, {"is_reserved": 0, "type": "electric_scooter", "bike_id": "ca8b9e9eda449684f81e28620714ce30", "lat": 38.93953883333333, "lon": -77.02755783333333, "rental_uris": {"android": "https://dc.lft.to/lastmile_qr_scan", "ios": "https://dc.lft.to/lastmile_qr_scan"}, "is_disabled": 0, "fusion_lat": 0.0, "name": "ca8b9e9eda449684f81e28620714ce30", "fusion_lon": 0.0}, {"is_reserved": 0, "type": "electric_scooter", "bike_id": "24d364c6698d22e173f8d64f1a79aac3", "lat": 38.87722016666667, "lon": -77.0176195, "rental_uris": {"android": "https://dc.lft.to/lastmile_qr_scan", "ios": "https://dc.lft.to/lastmile_qr_scan"}, "is_disabled": 0, "fusion_lat": 0.0, "name": "24d364c6698d22e173f8d64f1a79aac3", "fusion_lon": 0.0}, {"is_reserved": 0, "type": "electric_scooter", "bike_id": "33aeeda4bb8a089cb3d66982a9f09c5e", "lat": 38.9196265, "lon": -77.0222295, "rental_uris": {"android": "https://dc.lft.to/lastmile_qr_scan", "ios": "https://dc.lft.to/lastmile_qr_scan"}, "is_disabled": 0, "fusion_lat": 0.0, "name": "33aeeda4bb8a089cb3d66982a9f09c5e", "fusion_lon": 0.0}, {"is_reserved": 0, "type": "electric_scooter", "bike_id": "f9f3c56cf606f611eeeba42b55ec0390", "lat": 38.8914005, "lon": -76.9994075, "rental_uris": {"android": "https://dc.lft.to/lastmile_qr_scan", "ios": "https://dc.lft.to/lastmile_qr_scan"}, "is_disabled": 0, "fusion_lat": 0.0, "name": "f9f3c56cf606f611eeeba42b55ec0390", "fusion_lon": 0.0}, {"is_reserved": 0, "type": "electric_scooter", "bike_id": "d353a97165bf5158cd17ef6bdf687cf6", "lat": 38.9279515, "lon": -77.02533283333334, "rental_uris": {"android": "https://dc.lft.to/lastmile_qr_scan", "ios": "https://dc.lft.to/lastmile_qr_scan"}, "is_disabled": 0, "fusion_lat": 0.0, "name": "d353a97165bf5158cd17ef6bdf687cf6", "fusion_lon": 0.0}, {"is_reserved": 0, "type": "electric_scooter", "bike_id": "31472592a844f0baff64a14db2985440", "lat": 38.905575166666665, "lon": -77.02725683333334, "rental_uris": {"android": "https://dc.lft.to/lastmile_qr_scan", "ios": "https://dc.lft.to/lastmile_qr_scan"}, "is_disabled": 0, "fusion_lat": 0.0, "name": "31472592a844f0baff64a14db2985440", "fusion_lon": 0.0}, {"is_reserved": 0, "type": "electric_scooter", "bike_id": "924c366980608f2a2db3a1f6fd89a0e6", "lat": 38.872886666666666, "lon": -77.00232233333334, "rental_uris": {"android": "https://dc.lft.to/lastmile_qr_scan", "ios": "https://dc.lft.to/lastmile_qr_scan"}, "is_disabled": 0, "fusion_lat": 0.0, "name": "924c366980608f2a2db3a1f6fd89a0e6", "fusion_lon": 0.0}, {"is_reserved": 0, "type": "electric_scooter", "bike_id": "54c4197bd98d2cb7ca67752f47f048e3", "lat": 38.9204405, "lon": -77.04189133333334, "rental_uris": {"android": "https://dc.lft.to/lastmile_qr_scan", "ios": "https://dc.lft.to/lastmile_qr_scan"}, "is_disabled": 0, "fusion_lat": 0.0, "name": "54c4197bd98d2cb7ca67752f47f048e3", "fusion_lon": 0.0}, {"is_reserved": 0, "type": "electric_scooter", "bike_id": "37215dad75693b6d27af267001f8a851", "lat": 38.87827383333333, "lon": -77.00687716666667, "rental_uris": {"android": "https://dc.lft.to/lastmile_qr_scan", "ios": "https://dc.lft.to/lastmile_qr_scan"}, "is_disabled": 0, "fusion_lat": 0.0, "name": "37215dad75693b6d27af267001f8a851", "fusion_lon": 0.0}, {"is_reserved": 0, "type": "electric_scooter", "bike_id": "57fe101c02efe56d71342a19355f08ee", "lat": 38.93001316666667, "lon": -77.02308166666667, "rental_uris": {"android": "https://dc.lft.to/lastmile_qr_scan", "ios": "https://dc.lft.to/lastmile_qr_scan"}, "is_disabled": 0, "fusion_lat": 0.0, "name": "57fe101c02efe56d71342a19355f08ee", "fusion_lon": 0.0}, {"is_reserved": 0, "type": "electric_scooter", "bike_id": "14be6fb8207d231b46704329eeef8578", "lat": 38.921645166666664, "lon": -77.0337755, "rental_uris": {"android": "https://dc.lft.to/lastmile_qr_scan", "ios": "https://dc.lft.to/lastmile_qr_scan"}, "is_disabled": 0, "fusion_lat": 0.0, "name": "14be6fb8207d231b46704329eeef8578", "fusion_lon": 0.0}, {"is_reserved": 0, "type": "electric_scooter", "bike_id": "4bb8ba06fa77f29440f93c79d2bfddcf", "lat": 38.918667166666665, "lon": -77.0445305, "rental_uris": {"android": "https://dc.lft.to/lastmile_qr_scan", "ios": "https://dc.lft.to/lastmile_qr_scan"}, "is_disabled": 0, "fusion_lat": 0.0, "name": "4bb8ba06fa77f29440f93c79d2bfddcf", "fusion_lon": 0.0}, {"is_reserved": 0, "type": "electric_scooter", "bike_id": "675cbd5f6a2119812839b7a289221b26", "lat": 38.91415666666666, "lon": -77.01871633333333, "rental_uris": {"android": "https://dc.lft.to/lastmile_qr_scan", "ios": "https://dc.lft.to/lastmile_qr_scan"}, "is_disabled": 0, "fusion_lat": 0.0, "name": "675cbd5f6a2119812839b7a289221b26", "fusion_lon": 0.0}, {"is_reserved": 0, "type": "electric_scooter", "bike_id": "af2a0709c8c480a1989a5d8838711857", "lat": 38.91400066666667, "lon": -77.031697, "rental_uris": {"android": "https://dc.lft.to/lastmile_qr_scan", "ios": "https://dc.lft.to/lastmile_qr_scan"}, "is_disabled": 0, "fusion_lat": 0.0, "name": "af2a0709c8c480a1989a5d8838711857", "fusion_lon": 0.0}, {"is_reserved": 0, "type": "electric_scooter", "bike_id": "387d8808745505f29faeb6bc59bef87d", "lat": 38.882990166666666, "lon": -76.948596, "rental_uris": {"android": "https://dc.lft.to/lastmile_qr_scan", "ios": "https://dc.lft.to/lastmile_qr_scan"}, "is_disabled": 0, "fusion_lat": 0.0, "name": "387d8808745505f29faeb6bc59bef87d", "fusion_lon": 0.0}, {"is_reserved": 0, "type": "electric_scooter", "bike_id": "acb03785aaa29d50004c8385e633ce03", "lat": 38.90078, "lon": -77.04949083333334, "rental_uris": {"android": "https://dc.lft.to/lastmile_qr_scan", "ios": "https://dc.lft.to/lastmile_qr_scan"}, "is_disabled": 0, "fusion_lat": 0.0, "name": "acb03785aaa29d50004c8385e633ce03", "fusion_lon": 0.0}, {"is_reserved": 0, "type": "electric_scooter", "bike_id": "1f33e7bb50ab50939187c7e877f01aae", "lat": 38.920204166666664, "lon": -77.01802716666667, "rental_uris": {"android": "https://dc.lft.to/lastmile_qr_scan", "ios": "https://dc.lft.to/lastmile_qr_scan"}, "is_disabled": 0, "fusion_lat": 0.0, "name": "1f33e7bb50ab50939187c7e877f01aae", "fusion_lon": 0.0}, {"is_reserved": 0, "type": "electric_scooter", "bike_id": "61b4aa6ebf683edb1f5ce3bbd2988311", "lat": 38.92302316666667, "lon": -77.030184, "rental_uris": {"android": "https://dc.lft.to/lastmile_qr_scan", "ios": "https://dc.lft.to/lastmile_qr_scan"}, "is_disabled": 0, "fusion_lat": 0.0, "name": "61b4aa6ebf683edb1f5ce3bbd2988311", "fusion_lon": 0.0}, {"is_reserved": 0, "type": "electric_scooter", "bike_id": "dacf6119d36baabfe9efc7132617bf17", "lat": 38.91099466666667, "lon": -77.073438, "rental_uris": {"android": "https://dc.lft.to/lastmile_qr_scan", "ios": "https://dc.lft.to/lastmile_qr_scan"}, "is_disabled": 0, "fusion_lat": 0.0, "name": "dacf6119d36baabfe9efc7132617bf17", "fusion_lon": 0.0}, {"is_reserved": 0, "type": "electric_scooter", "bike_id": "57458b7c0d05a857daa422a8ff50cca2", "lat": 38.911966166666666, "lon": -77.011996, "rental_uris": {"android": "https://dc.lft.to/lastmile_qr_scan", "ios": "https://dc.lft.to/lastmile_qr_scan"}, "is_disabled": 0, "fusion_lat": 0.0, "name": "57458b7c0d05a857daa422a8ff50cca2", "fusion_lon": 0.0}, {"is_reserved": 0, "type": "electric_scooter", "bike_id": "1021bd7663219ea0e920b552688f1306", "lat": 38.90558633333333, "lon": -77.01799716666666, "rental_uris": {"android": "https://dc.lft.to/lastmile_qr_scan", "ios": "https://dc.lft.to/lastmile_qr_scan"}, "is_disabled": 0, "fusion_lat": 0.0, "name": "1021bd7663219ea0e920b552688f1306", "fusion_lon": 0.0}, {"is_reserved": 0, "type": "electric_scooter", "bike_id": "1588be42cb5cd1526efeaa4ca7a7f3ce", "lat": 38.92917, "lon": -76.998098, "rental_uris": {"android": "https://dc.lft.to/lastmile_qr_scan", "ios": "https://dc.lft.to/lastmile_qr_scan"}, "is_disabled": 0, "fusion_lat": 0.0, "name": "1588be42cb5cd1526efeaa4ca7a7f3ce", "fusion_lon": 0.0}, {"is_reserved": 0, "type": "electric_scooter", "bike_id": "21b3be82a51097d989e28e9ae6669dee", "lat": 38.911691, "lon": -77.0198065, "rental_uris": {"android": "https://dc.lft.to/lastmile_qr_scan", "ios": "https://dc.lft.to/lastmile_qr_scan"}, "is_disabled": 0, "fusion_lat": 0.0, "name": "21b3be82a51097d989e28e9ae6669dee", "fusion_lon": 0.0}, {"is_reserved": 0, "type": "electric_scooter", "bike_id": "cc6e63056ad3a53c3bd65968962e0013", "lat": 38.904029333333334, "lon": -77.06772566666666, "rental_uris": {"android": "https://dc.lft.to/lastmile_qr_scan", "ios": "https://dc.lft.to/lastmile_qr_scan"}, "is_disabled": 0, "fusion_lat": 0.0, "name": "cc6e63056ad3a53c3bd65968962e0013", "fusion_lon": 0.0}, {"is_reserved": 0, "type": "electric_scooter", "bike_id": "e2f6ab4cdee89d4e72fb05d79262d453", "lat": 38.892208333333336, "lon": -77.043526, "rental_uris": {"android": "https://dc.lft.to/lastmile_qr_scan", "ios": "https://dc.lft.to/lastmile_qr_scan"}, "is_disabled": 0, "fusion_lat": 0.0, "name": "e2f6ab4cdee89d4e72fb05d79262d453", "fusion_lon": 0.0}, {"is_reserved": 0, "type": "electric_scooter", "bike_id": "417cf1093ca6d35fe2a58702fe60c14e", "lat": 38.916566833333334, "lon": -77.02692066666667, "rental_uris": {"android": "https://dc.lft.to/lastmile_qr_scan", "ios": "https://dc.lft.to/lastmile_qr_scan"}, "is_disabled": 0, "fusion_lat": 0.0, "name": "417cf1093ca6d35fe2a58702fe60c14e", "fusion_lon": 0.0}, {"is_reserved": 0, "type": "electric_scooter", "bike_id": "270c4d96db8c62c6dedd5be3083762d5", "lat": 38.9059015, "lon": -77.016095, "rental_uris": {"android": "https://dc.lft.to/lastmile_qr_scan", "ios": "https://dc.lft.to/lastmile_qr_scan"}, "is_disabled": 0, "fusion_lat": 0.0, "name": "270c4d96db8c62c6dedd5be3083762d5", "fusion_lon": 0.0}, {"is_reserved": 0, "type": "electric_scooter", "bike_id": "a9cc0df25c1ec088e01538a4fb411b8d", "lat": 38.91485083333333, "lon": -77.021755, "rental_uris": {"android": "https://dc.lft.to/lastmile_qr_scan", "ios": "https://dc.lft.to/lastmile_qr_scan"}, "is_disabled": 0, "fusion_lat": 0.0, "name": "a9cc0df25c1ec088e01538a4fb411b8d", "fusion_lon": 0.0}, {"is_reserved": 0, "type": "electric_scooter", "bike_id": "417d0556b4c35d0940dfedab562abdfd", "lat": 38.89623233333333, "lon": -77.04476, "rental_uris": {"android": "https://dc.lft.to/lastmile_qr_scan", "ios": "https://dc.lft.to/lastmile_qr_scan"}, "is_disabled": 0, "fusion_lat": 0.0, "name": "417d0556b4c35d0940dfedab562abdfd", "fusion_lon": 0.0}, {"is_reserved": 0, "type": "electric_scooter", "bike_id": "8bd85babffe5f5e8fbe505b5c547f2f4", "lat": 38.9192425, "lon": -77.01978266666667, "rental_uris": {"android": "https://dc.lft.to/lastmile_qr_scan", "ios": "https://dc.lft.to/lastmile_qr_scan"}, "is_disabled": 0, "fusion_lat": 0.0, "name": "8bd85babffe5f5e8fbe505b5c547f2f4", "fusion_lon": 0.0}, {"is_reserved": 0, "type": "electric_scooter", "bike_id": "c37f39875f859afea50c7a4427964466", "lat": 38.88630933333334, "lon": -77.01287783333333, "rental_uris": {"android": "https://dc.lft.to/lastmile_qr_scan", "ios": "https://dc.lft.to/lastmile_qr_scan"}, "is_disabled": 0, "fusion_lat": 0.0, "name": "c37f39875f859afea50c7a4427964466", "fusion_lon": 0.0}, {"is_reserved": 0, "type": "electric_scooter", "bike_id": "42fb571a5bfc940e162d5e3b4a73a262", "lat": 38.88498216666667, "lon": -77.020983, "rental_uris": {"android": "https://dc.lft.to/lastmile_qr_scan", "ios": "https://dc.lft.to/lastmile_qr_scan"}, "is_disabled": 0, "fusion_lat": 0.0, "name": "42fb571a5bfc940e162d5e3b4a73a262", "fusion_lon": 0.0}, {"is_reserved": 0, "type": "electric_scooter", "bike_id": "321d7950cfefdfea55181bfba5c8b26f", "lat": 38.927161, "lon": -77.01632383333333, "rental_uris": {"android": "https://dc.lft.to/lastmile_qr_scan", "ios": "https://dc.lft.to/lastmile_qr_scan"}, "is_disabled": 0, "fusion_lat": 0.0, "name": "321d7950cfefdfea55181bfba5c8b26f", "fusion_lon": 0.0}, {"is_reserved": 0, "type": "electric_scooter", "bike_id": "c3f498b54aeff98741b01dc7d8ba90c2", "lat": 38.89826133333333, "lon": -77.03209533333333, "rental_uris": {"android": "https://dc.lft.to/lastmile_qr_scan", "ios": "https://dc.lft.to/lastmile_qr_scan"}, "is_disabled": 0, "fusion_lat": 0.0, "name": "c3f498b54aeff98741b01dc7d8ba90c2", "fusion_lon": 0.0}, {"is_reserved": 0, "type": "electric_scooter", "bike_id": "479b94222c61b0c1c35c03575b7b912f", "lat": 38.90158616666667, "lon": -77.0417, "rental_uris": {"android": "https://dc.lft.to/lastmile_qr_scan", "ios": "https://dc.lft.to/lastmile_qr_scan"}, "is_disabled": 0, "fusion_lat": 0.0, "name": "479b94222c61b0c1c35c03575b7b912f", "fusion_lon": 0.0}, {"is_reserved": 0, "type": "electric_scooter", "bike_id": "a7654c454e6b0b6047925628e1be9a26", "lat": 38.90120666666667, "lon": -77.02723316666666, "rental_uris": {"android": "https://dc.lft.to/lastmile_qr_scan", "ios": "https://dc.lft.to/lastmile_qr_scan"}, "is_disabled": 0, "fusion_lat": 0.0, "name": "a7654c454e6b0b6047925628e1be9a26", "fusion_lon": 0.0}, {"is_reserved": 0, "type": "electric_scooter", "bike_id": "9c68ce1755009c956bdb0046a58ff2f6", "lat": 38.89221033333333, "lon": -77.02797333333334, "rental_uris": {"android": "https://dc.lft.to/lastmile_qr_scan", "ios": "https://dc.lft.to/lastmile_qr_scan"}, "is_disabled": 0, "fusion_lat": 0.0, "name": "9c68ce1755009c956bdb0046a58ff2f6", "fusion_lon": 0.0}, {"is_reserved": 0, "type": "electric_scooter", "bike_id": "690e581ad2110a5085ecfdd7053b3d72", "lat": 38.90026233333333, "lon": -77.0119765, "rental_uris": {"android": "https://dc.lft.to/lastmile_qr_scan", "ios": "https://dc.lft.to/lastmile_qr_scan"}, "is_disabled": 0, "fusion_lat": 0.0, "name": "690e581ad2110a5085ecfdd7053b3d72", "fusion_lon": 0.0}, {"is_reserved": 0, "type": "electric_scooter", "bike_id": "c9f75cb5796c202d02ec345e03b2046d", "lat": 38.886598166666666, "lon": -76.93670583333333, "rental_uris": {"android": "https://dc.lft.to/lastmile_qr_scan", "ios": "https://dc.lft.to/lastmile_qr_scan"}, "is_disabled": 0, "fusion_lat": 0.0, "name": "c9f75cb5796c202d02ec345e03b2046d", "fusion_lon": 0.0}, {"is_reserved": 0, "type": "electric_scooter", "bike_id": "ca9a2f42e18f861ed022b56bcec0b38b", "lat": 38.89991083333334, "lon": -76.99015733333333, "rental_uris": {"android": "https://dc.lft.to/lastmile_qr_scan", "ios": "https://dc.lft.to/lastmile_qr_scan"}, "is_disabled": 0, "fusion_lat": 0.0, "name": "ca9a2f42e18f861ed022b56bcec0b38b", "fusion_lon": 0.0}, {"is_reserved": 0, "type": "electric_scooter", "bike_id": "f450dc1324a18a900add3b158840f8a9", "lat": 38.87466833333333, "lon": -77.00560583333333, "rental_uris": {"android": "https://dc.lft.to/lastmile_qr_scan", "ios": "https://dc.lft.to/lastmile_qr_scan"}, "is_disabled": 0, "fusion_lat": 0.0, "name": "f450dc1324a18a900add3b158840f8a9", "fusion_lon": 0.0}, {"is_reserved": 0, "type": "electric_scooter", "bike_id": "895e8358c37369f7ac3e08577e79288f", "lat": 38.92444833333333, "lon": -77.02159166666667, "rental_uris": {"android": "https://dc.lft.to/lastmile_qr_scan", "ios": "https://dc.lft.to/lastmile_qr_scan"}, "is_disabled": 0, "fusion_lat": 0.0, "name": "895e8358c37369f7ac3e08577e79288f", "fusion_lon": 0.0}, {"is_reserved": 0, "type": "electric_scooter", "bike_id": "ffe1d95a867242d042d33e5fb625cd98", "lat": 38.86114116666667, "lon": -76.9837785, "rental_uris": {"android": "https://dc.lft.to/lastmile_qr_scan", "ios": "https://dc.lft.to/lastmile_qr_scan"}, "is_disabled": 0, "fusion_lat": 0.0, "name": "ffe1d95a867242d042d33e5fb625cd98", "fusion_lon": 0.0}, {"is_reserved": 0, "type": "electric_scooter", "bike_id": "0772a25236774ffda7307e560cd6e2db", "lat": 38.905145833333336, "lon": -77.04019416666667, "rental_uris": {"android": "https://dc.lft.to/lastmile_qr_scan", "ios": "https://dc.lft.to/lastmile_qr_scan"}, "is_disabled": 0, "fusion_lat": 0.0, "name": "0772a25236774ffda7307e560cd6e2db", "fusion_lon": 0.0}, {"is_reserved": 0, "type": "electric_scooter", "bike_id": "3017238c54fec1f1f7d803e43df7cc69", "lat": 38.9089785, "lon": -77.0441775, "rental_uris": {"android": "https://dc.lft.to/lastmile_qr_scan", "ios": "https://dc.lft.to/lastmile_qr_scan"}, "is_disabled": 0, "fusion_lat": 0.0, "name": "3017238c54fec1f1f7d803e43df7cc69", "fusion_lon": 0.0}, {"is_reserved": 0, "type": "electric_scooter", "bike_id": "b4c43b94a7b4c46a2c1ed96e745ad4f7", "lat": 38.896018833333336, "lon": -77.009249, "rental_uris": {"android": "https://dc.lft.to/lastmile_qr_scan", "ios": "https://dc.lft.to/lastmile_qr_scan"}, "is_disabled": 0, "fusion_lat": 0.0, "name": "b4c43b94a7b4c46a2c1ed96e745ad4f7", "fusion_lon": 0.0}, {"is_reserved": 0, "type": "electric_bike", "bike_id": "7c314c8cee052aa4c4c7306140785d53", "lat": 38.83538816666667, "lon": -77.00753266666666, "rental_uris": {"android": "https://dc.lft.to/lastmile_qr_scan", "ios": "https://dc.lft.to/lastmile_qr_scan"}, "is_disabled": 0, "fusion_lat": 0.0, "name": "7c314c8cee052aa4c4c7306140785d53", "fusion_lon": 0.0}, {"is_reserved": 0, "type": "electric_scooter", "bike_id": "ed2c11061bb33afc014adf9a0fb11457", "lat": 38.92424833333333, "lon": -77.02254633333334, "rental_uris": {"android": "https://dc.lft.to/lastmile_qr_scan", "ios": "https://dc.lft.to/lastmile_qr_scan"}, "is_disabled": 0, "fusion_lat": 0.0, "name": "ed2c11061bb33afc014adf9a0fb11457", "fusion_lon": 0.0}, {"is_reserved": 0, "type": "electric_bike", "bike_id": "02992a19d6afc695f50cf75293b1d4c6", "lat": 38.9453355, "lon": -77.34457666666667, "rental_uris": {"android": "https://dc.lft.to/lastmile_qr_scan", "ios": "https://dc.lft.to/lastmile_qr_scan"}, "is_disabled": 0, "fusion_lat": 0.0, "name": "02992a19d6afc695f50cf75293b1d4c6", "fusion_lon": 0.0}, {"is_reserved": 0, "type": "electric_scooter", "bike_id": "0d591e2098948feba00937666a2f0583", "lat": 38.932021166666665, "lon": -77.038531, "rental_uris": {"android": "https://dc.lft.to/lastmile_qr_scan", "ios": "https://dc.lft.to/lastmile_qr_scan"}, "is_disabled": 0, "fusion_lat": 0.0, "name": "0d591e2098948feba00937666a2f0583", "fusion_lon": 0.0}, {"is_reserved": 0, "type": "electric_scooter", "bike_id": "cb3a724f4e6675f81532447cc18e74c3", "lat": 38.9126555, "lon": -77.03161883333334, "rental_uris": {"android": "https://dc.lft.to/lastmile_qr_scan", "ios": "https://dc.lft.to/lastmile_qr_scan"}, "is_disabled": 0, "fusion_lat": 0.0, "name": "cb3a724f4e6675f81532447cc18e74c3", "fusion_lon": 0.0}, {"is_reserved": 0, "type": "electric_scooter", "bike_id": "b8c2c989668a819caceb520e04f36271", "lat": 38.90376833333333, "lon": -77.021808, "rental_uris": {"android": "https://dc.lft.to/lastmile_qr_scan", "ios": "https://dc.lft.to/lastmile_qr_scan"}, "is_disabled": 0, "fusion_lat": 0.0, "name": "b8c2c989668a819caceb520e04f36271", "fusion_lon": 0.0}, {"is_reserved": 0, "type": "electric_scooter", "bike_id": "f62d192f28510b18dbfef60c58d42721", "lat": 38.91412033333334, "lon": -77.02111633333334, "rental_uris": {"android": "https://dc.lft.to/lastmile_qr_scan", "ios": "https://dc.lft.to/lastmile_qr_scan"}, "is_disabled": 0, "fusion_lat": 0.0, "name": "f62d192f28510b18dbfef60c58d42721", "fusion_lon": 0.0}, {"is_reserved": 0, "type": "electric_scooter", "bike_id": "35b5c6ccb4755ff36d0a5457b9929f2f", "lat": 38.907439, "lon": -77.00749083333334, "rental_uris": {"android": "https://dc.lft.to/lastmile_qr_scan", "ios": "https://dc.lft.to/lastmile_qr_scan"}, "is_disabled": 0, "fusion_lat": 0.0, "name": "35b5c6ccb4755ff36d0a5457b9929f2f", "fusion_lon": 0.0}, {"is_reserved": 0, "type": "electric_scooter", "bike_id": "cfbf0f640292a753d16f9031efe222b3", "lat": 38.92579166666667, "lon": -76.99495433333334, "rental_uris": {"android": "https://dc.lft.to/lastmile_qr_scan", "ios": "https://dc.lft.to/lastmile_qr_scan"}, "is_disabled": 0, "fusion_lat": 0.0, "name": "cfbf0f640292a753d16f9031efe222b3", "fusion_lon": 0.0}, {"is_reserved": 0, "type": "electric_scooter", "bike_id": "f2e58686c78bd8d4e625f09486cc2d79", "lat": 38.88613616666667, "lon": -76.99652733333333, "rental_uris": {"android": "https://dc.lft.to/lastmile_qr_scan", "ios": "https://dc.lft.to/lastmile_qr_scan"}, "is_disabled": 0, "fusion_lat": 0.0, "name": "f2e58686c78bd8d4e625f09486cc2d79", "fusion_lon": 0.0}, {"is_reserved": 0, "type": "electric_bike", "bike_id": "2c0e20a175ef0d555a64eda1a22da716", "lat": 38.8812475, "lon": -77.01675983333334, "rental_uris": {"android": "https://dc.lft.to/lastmile_qr_scan", "ios": "https://dc.lft.to/lastmile_qr_scan"}, "is_disabled": 0, "fusion_lat": 0.0, "name": "2c0e20a175ef0d555a64eda1a22da716", "fusion_lon": 0.0}, {"is_reserved": 0, "type": "electric_scooter", "bike_id": "fd04a3a0134f2a5a503465e821232a96", "lat": 38.884936333333336, "lon": -77.00714833333333, "rental_uris": {"android": "https://dc.lft.to/lastmile_qr_scan", "ios": "https://dc.lft.to/lastmile_qr_scan"}, "is_disabled": 0, "fusion_lat": 0.0, "name": "fd04a3a0134f2a5a503465e821232a96", "fusion_lon": 0.0}, {"is_reserved": 0, "type": "electric_scooter", "bike_id": "b877f00840697d65db58f8b94d702607", "lat": 38.9243785, "lon": -77.03402083333333, "rental_uris": {"android": "https://dc.lft.to/lastmile_qr_scan", "ios": "https://dc.lft.to/lastmile_qr_scan"}, "is_disabled": 0, "fusion_lat": 0.0, "name": "b877f00840697d65db58f8b94d702607", "fusion_lon": 0.0}, {"is_reserved": 0, "type": "electric_bike", "bike_id": "89445409f92c5cd96012fa2f9b38bc91", "lat": 39.038098166666664, "lon": -77.0422875, "rental_uris": {"android": "https://dc.lft.to/lastmile_qr_scan", "ios": "https://dc.lft.to/lastmile_qr_scan"}, "is_disabled": 0, "fusion_lat": 0.0, "name": "89445409f92c5cd96012fa2f9b38bc91", "fusion_lon": 0.0}, {"is_reserved": 0, "type": "electric_scooter", "bike_id": "54c5a9cfb1112aa5ebfadbb946f0ff6d", "lat": 38.92444366666667, "lon": -77.0340175, "rental_uris": {"android": "https://dc.lft.to/lastmile_qr_scan", "ios": "https://dc.lft.to/lastmile_qr_scan"}, "is_disabled": 0, "fusion_lat": 0.0, "name": "54c5a9cfb1112aa5ebfadbb946f0ff6d", "fusion_lon": 0.0}, {"is_reserved": 0, "type": "electric_scooter", "bike_id": "80d73f884c3c6eedd2b47dd4449125f1", "lat": 38.8921975, "lon": -77.027981, "rental_uris": {"android": "https://dc.lft.to/lastmile_qr_scan", "ios": "https://dc.lft.to/lastmile_qr_scan"}, "is_disabled": 0, "fusion_lat": 0.0, "name": "80d73f884c3c6eedd2b47dd4449125f1", "fusion_lon": 0.0}, {"is_reserved": 0, "type": "electric_scooter", "bike_id": "9f7d7629dea7b492845ed59794e5db70", "lat": 38.90276133333333, "lon": -77.0227645, "rental_uris": {"android": "https://dc.lft.to/lastmile_qr_scan", "ios": "https://dc.lft.to/lastmile_qr_scan"}, "is_disabled": 0, "fusion_lat": 0.0, "name": "9f7d7629dea7b492845ed59794e5db70", "fusion_lon": 0.0}, {"is_reserved": 0, "type": "electric_scooter", "bike_id": "d9f01f3bd3b32f4b118ec75ce13d2ff2", "lat": 38.912552166666664, "lon": -77.028161, "rental_uris": {"android": "https://dc.lft.to/lastmile_qr_scan", "ios": "https://dc.lft.to/lastmile_qr_scan"}, "is_disabled": 0, "fusion_lat": 0.0, "name": "d9f01f3bd3b32f4b118ec75ce13d2ff2", "fusion_lon": 0.0}, {"is_reserved": 0, "type": "electric_scooter", "bike_id": "d5cf48c2be575742d8c3c2e442a11988", "lat": 38.9037735, "lon": -77.0160835, "rental_uris": {"android": "https://dc.lft.to/lastmile_qr_scan", "ios": "https://dc.lft.to/lastmile_qr_scan"}, "is_disabled": 0, "fusion_lat": 0.0, "name": "d5cf48c2be575742d8c3c2e442a11988", "fusion_lon": 0.0}, {"is_reserved": 0, "type": "electric_scooter", "bike_id": "f404240168d655160e6deafd3bd24dc4", "lat": 38.92623733333333, "lon": -77.042489, "rental_uris": {"android": "https://dc.lft.to/lastmile_qr_scan", "ios": "https://dc.lft.to/lastmile_qr_scan"}, "is_disabled": 0, "fusion_lat": 0.0, "name": "f404240168d655160e6deafd3bd24dc4", "fusion_lon": 0.0}, {"is_reserved": 0, "type": "electric_scooter", "bike_id": "c2ba3bc9584ce74de838c5a4eddb9e24", "lat": 38.905782, "lon": -77.02993816666667, "rental_uris": {"android": "https://dc.lft.to/lastmile_qr_scan", "ios": "https://dc.lft.to/lastmile_qr_scan"}, "is_disabled": 0, "fusion_lat": 0.0, "name": "c2ba3bc9584ce74de838c5a4eddb9e24", "fusion_lon": 0.0}, {"is_reserved": 0, "type": "electric_scooter", "bike_id": "a77367bec5244570e08b646fddeede77", "lat": 38.92333433333334, "lon": -77.05237033333333, "rental_uris": {"android": "https://dc.lft.to/lastmile_qr_scan", "ios": "https://dc.lft.to/lastmile_qr_scan"}, "is_disabled": 0, "fusion_lat": 0.0, "name": "a77367bec5244570e08b646fddeede77", "fusion_lon": 0.0}, {"is_reserved": 0, "type": "electric_scooter", "bike_id": "e1258b9e9e3c9f5f6d76d5eee6e10abe", "lat": 38.894420833333335, "lon": -77.02622733333334, "rental_uris": {"android": "https://dc.lft.to/lastmile_qr_scan", "ios": "https://dc.lft.to/lastmile_qr_scan"}, "is_disabled": 0, "fusion_lat": 0.0, "name": "e1258b9e9e3c9f5f6d76d5eee6e10abe", "fusion_lon": 0.0}, {"is_reserved": 0, "type": "electric_scooter", "bike_id": "4812214e86548475e26186535ef69b72", "lat": 38.924026833333336, "lon": -77.042641, "rental_uris": {"android": "https://dc.lft.to/lastmile_qr_scan", "ios": "https://dc.lft.to/lastmile_qr_scan"}, "is_disabled": 0, "fusion_lat": 0.0, "name": "4812214e86548475e26186535ef69b72", "fusion_lon": 0.0}, {"is_reserved": 0, "type": "electric_scooter", "bike_id": "8e184b58c1961be92c72f555b1084c16", "lat": 38.943238, "lon": -77.01260166666667, "rental_uris": {"android": "https://dc.lft.to/lastmile_qr_scan", "ios": "https://dc.lft.to/lastmile_qr_scan"}, "is_disabled": 0, "fusion_lat": 0.0, "name": "8e184b58c1961be92c72f555b1084c16", "fusion_lon": 0.0}, {"is_reserved": 0, "type": "electric_scooter", "bike_id": "6357db16dbc90dc2fff8fd2fa1c5caf4", "lat": 38.9370345, "lon": -77.02399733333333, "rental_uris": {"android": "https://dc.lft.to/lastmile_qr_scan", "ios": "https://dc.lft.to/lastmile_qr_scan"}, "is_disabled": 0, "fusion_lat": 0.0, "name": "6357db16dbc90dc2fff8fd2fa1c5caf4", "fusion_lon": 0.0}, {"is_reserved": 0, "type": "electric_scooter", "bike_id": "46cd204accc53affa0b2342f007dc03c", "lat": 38.97517466666667, "lon": -77.0173625, "rental_uris": {"android": "https://dc.lft.to/lastmile_qr_scan", "ios": "https://dc.lft.to/lastmile_qr_scan"}, "is_disabled": 0, "fusion_lat": 0.0, "name": "46cd204accc53affa0b2342f007dc03c", "fusion_lon": 0.0}, {"is_reserved": 0, "type": "electric_scooter", "bike_id": "306a4edb1de768d8cfdf6254afb61dcd", "lat": 38.9432825, "lon": -77.06524066666667, "rental_uris": {"android": "https://dc.lft.to/lastmile_qr_scan", "ios": "https://dc.lft.to/lastmile_qr_scan"}, "is_disabled": 0, "fusion_lat": 0.0, "name": "306a4edb1de768d8cfdf6254afb61dcd", "fusion_lon": 0.0}, {"is_reserved": 0, "type": "electric_scooter", "bike_id": "a269792039fd11defaec8dc8abf58fb1", "lat": 38.88379833333333, "lon": -77.04607983333334, "rental_uris": {"android": "https://dc.lft.to/lastmile_qr_scan", "ios": "https://dc.lft.to/lastmile_qr_scan"}, "is_disabled": 0, "fusion_lat": 0.0, "name": "a269792039fd11defaec8dc8abf58fb1", "fusion_lon": 0.0}, {"is_reserved": 0, "type": "electric_scooter", "bike_id": "e1b6c55537d5f28313dfde8d73604b4a", "lat": 38.8922555, "lon": -77.04485283333334, "rental_uris": {"android": "https://dc.lft.to/lastmile_qr_scan", "ios": "https://dc.lft.to/lastmile_qr_scan"}, "is_disabled": 0, "fusion_lat": 0.0, "name": "e1b6c55537d5f28313dfde8d73604b4a", "fusion_lon": 0.0}, {"is_reserved": 0, "type": "electric_scooter", "bike_id": "fd3d8e637737f6be3438f71d0a9bb854", "lat": 38.9089735, "lon": -76.99621416666666, "rental_uris": {"android": "https://dc.lft.to/lastmile_qr_scan", "ios": "https://dc.lft.to/lastmile_qr_scan"}, "is_disabled": 0, "fusion_lat": 0.0, "name": "fd3d8e637737f6be3438f71d0a9bb854", "fusion_lon": 0.0}, {"is_reserved": 0, "type": "electric_scooter", "bike_id": "419e9936d997f49a3a72af3325b007eb", "lat": 38.93356633333333, "lon": -77.05721483333333, "rental_uris": {"android": "https://dc.lft.to/lastmile_qr_scan", "ios": "https://dc.lft.to/lastmile_qr_scan"}, "is_disabled": 0, "fusion_lat": 0.0, "name": "419e9936d997f49a3a72af3325b007eb", "fusion_lon": 0.0}, {"is_reserved": 0, "type": "electric_scooter", "bike_id": "5a1333ee3ea95c9712d69f1622f2ecf4", "lat": 38.89907516666667, "lon": -77.00738166666666, "rental_uris": {"android": "https://dc.lft.to/lastmile_qr_scan", "ios": "https://dc.lft.to/lastmile_qr_scan"}, "is_disabled": 0, "fusion_lat": 0.0, "name": "5a1333ee3ea95c9712d69f1622f2ecf4", "fusion_lon": 0.0}, {"is_reserved": 0, "type": "electric_scooter", "bike_id": "67018e4e75b0fd878c1eaea113ba1bbc", "lat": 38.918216, "lon": -77.01209616666667, "rental_uris": {"android": "https://dc.lft.to/lastmile_qr_scan", "ios": "https://dc.lft.to/lastmile_qr_scan"}, "is_disabled": 0, "fusion_lat": 0.0, "name": "67018e4e75b0fd878c1eaea113ba1bbc", "fusion_lon": 0.0}, {"is_reserved": 0, "type": "electric_scooter", "bike_id": "18294ce7b7baefef0e8c8b9a08b6827a", "lat": 38.91748916666667, "lon": -77.014675, "rental_uris": {"android": "https://dc.lft.to/lastmile_qr_scan", "ios": "https://dc.lft.to/lastmile_qr_scan"}, "is_disabled": 0, "fusion_lat": 0.0, "name": "18294ce7b7baefef0e8c8b9a08b6827a", "fusion_lon": 0.0}, {"is_reserved": 0, "type": "electric_scooter", "bike_id": "76a4addded33a11440d0db7ee2a6e256", "lat": 38.9175535, "lon": -77.023067, "rental_uris": {"android": "https://dc.lft.to/lastmile_qr_scan", "ios": "https://dc.lft.to/lastmile_qr_scan"}, "is_disabled": 0, "fusion_lat": 0.0, "name": "76a4addded33a11440d0db7ee2a6e256", "fusion_lon": 0.0}, {"is_reserved": 0, "type": "electric_scooter", "bike_id": "ea19819a30c6c1476797140da372defe", "lat": 38.83797666666667, "lon": -76.998543, "rental_uris": {"android": "https://dc.lft.to/lastmile_qr_scan", "ios": "https://dc.lft.to/lastmile_qr_scan"}, "is_disabled": 0, "fusion_lat": 0.0, "name": "ea19819a30c6c1476797140da372defe", "fusion_lon": 0.0}, {"is_reserved": 0, "type": "electric_scooter", "bike_id": "38e06e09dd8fae645d79da70879ef564", "lat": 38.8996405, "lon": -77.044829, "rental_uris": {"android": "https://dc.lft.to/lastmile_qr_scan", "ios": "https://dc.lft.to/lastmile_qr_scan"}, "is_disabled": 0, "fusion_lat": 0.0, "name": "38e06e09dd8fae645d79da70879ef564", "fusion_lon": 0.0}, {"is_reserved": 0, "type": "electric_scooter", "bike_id": "4fa2df866ee0731b2e12bfe9d6dad5d9", "lat": 38.91252266666667, "lon": -77.02843933333334, "rental_uris": {"android": "https://dc.lft.to/lastmile_qr_scan", "ios": "https://dc.lft.to/lastmile_qr_scan"}, "is_disabled": 0, "fusion_lat": 0.0, "name": "4fa2df866ee0731b2e12bfe9d6dad5d9", "fusion_lon": 0.0}, {"is_reserved": 0, "type": "electric_scooter", "bike_id": "33b171df331cee481f9ab71268c207e6", "lat": 38.938328, "lon": -77.024821, "rental_uris": {"android": "https://dc.lft.to/lastmile_qr_scan", "ios": "https://dc.lft.to/lastmile_qr_scan"}, "is_disabled": 0, "fusion_lat": 0.0, "name": "33b171df331cee481f9ab71268c207e6", "fusion_lon": 0.0}, {"is_reserved": 0, "type": "electric_scooter", "bike_id": "bf7e667a8672919f882ac63dac491894", "lat": 38.93100416666667, "lon": -77.02477383333333, "rental_uris": {"android": "https://dc.lft.to/lastmile_qr_scan", "ios": "https://dc.lft.to/lastmile_qr_scan"}, "is_disabled": 0, "fusion_lat": 0.0, "name": "bf7e667a8672919f882ac63dac491894", "fusion_lon": 0.0}, {"is_reserved": 0, "type": "electric_scooter", "bike_id": "b02395e85ecae46185bd9dc78b90d53d", "lat": 38.960332, "lon": -77.02431366666667, "rental_uris": {"android": "https://dc.lft.to/lastmile_qr_scan", "ios": "https://dc.lft.to/lastmile_qr_scan"}, "is_disabled": 0, "fusion_lat": 0.0, "name": "b02395e85ecae46185bd9dc78b90d53d", "fusion_lon": 0.0}, {"is_reserved": 0, "type": "electric_bike", "bike_id": "f375cf2b0557201df149e4587fc3a568", "lat": 38.90017516666666, "lon": -76.98049133333333, "rental_uris": {"android": "https://dc.lft.to/lastmile_qr_scan", "ios": "https://dc.lft.to/lastmile_qr_scan"}, "is_disabled": 0, "fusion_lat": 0.0, "name": "f375cf2b0557201df149e4587fc3a568", "fusion_lon": 0.0}, {"is_reserved": 0, "type": "electric_scooter", "bike_id": "dc08f97329ff4383f473291da656f801", "lat": 38.898286666666664, "lon": -76.94652383333333, "rental_uris": {"android": "https://dc.lft.to/lastmile_qr_scan", "ios": "https://dc.lft.to/lastmile_qr_scan"}, "is_disabled": 0, "fusion_lat": 0.0, "name": "dc08f97329ff4383f473291da656f801", "fusion_lon": 0.0}, {"is_reserved": 0, "type": "electric_scooter", "bike_id": "bde659ba761d0f2f08d85c28ceabfae1", "lat": 38.936332666666665, "lon": -77.072943, "rental_uris": {"android": "https://dc.lft.to/lastmile_qr_scan", "ios": "https://dc.lft.to/lastmile_qr_scan"}, "is_disabled": 0, "fusion_lat": 0.0, "name": "bde659ba761d0f2f08d85c28ceabfae1", "fusion_lon": 0.0}, {"is_reserved": 0, "type": "electric_bike", "bike_id": "cabac517fadf6c721bf751193f807272", "lat": 38.94664266666667, "lon": -76.99336516666666, "rental_uris": {"android": "https://dc.lft.to/lastmile_qr_scan", "ios": "https://dc.lft.to/lastmile_qr_scan"}, "is_disabled": 0, "fusion_lat": 0.0, "name": "cabac517fadf6c721bf751193f807272", "fusion_lon": 0.0}, {"is_reserved": 0, "type": "electric_scooter", "bike_id": "7242fffd7f366d152f09b377aa24fe78", "lat": 38.9155475, "lon": -77.03984116666666, "rental_uris": {"android": "https://dc.lft.to/lastmile_qr_scan", "ios": "https://dc.lft.to/lastmile_qr_scan"}, "is_disabled": 0, "fusion_lat": 0.0, "name": "7242fffd7f366d152f09b377aa24fe78", "fusion_lon": 0.0}, {"is_reserved": 0, "type": "electric_scooter", "bike_id": "487656660d8e2e2b6c3d5e84a4f61dd6", "lat": 38.89908533333333, "lon": -77.03288566666667, "rental_uris": {"android": "https://dc.lft.to/lastmile_qr_scan", "ios": "https://dc.lft.to/lastmile_qr_scan"}, "is_disabled": 0, "fusion_lat": 0.0, "name": "487656660d8e2e2b6c3d5e84a4f61dd6", "fusion_lon": 0.0}, {"is_reserved": 0, "type": "electric_bike", "bike_id": "357caf10b0b5167a10938c7505d3016c", "lat": 38.886019, "lon": -77.14235216666667, "rental_uris": {"android": "https://dc.lft.to/lastmile_qr_scan", "ios": "https://dc.lft.to/lastmile_qr_scan"}, "is_disabled": 0, "fusion_lat": 0.0, "name": "357caf10b0b5167a10938c7505d3016c", "fusion_lon": 0.0}, {"is_reserved": 0, "type": "electric_scooter", "bike_id": "cb91d737f40a56a6c2094e18b5e79c67", "lat": 38.91647616666667, "lon": -77.023852, "rental_uris": {"android": "https://dc.lft.to/lastmile_qr_scan", "ios": "https://dc.lft.to/lastmile_qr_scan"}, "is_disabled": 0, "fusion_lat": 0.0, "name": "cb91d737f40a56a6c2094e18b5e79c67", "fusion_lon": 0.0}, {"is_reserved": 0, "type": "electric_scooter", "bike_id": "c58607caf836b49b258acb7f458671cf", "lat": 38.918713, "lon": -77.0364165, "rental_uris": {"android": "https://dc.lft.to/lastmile_qr_scan", "ios": "https://dc.lft.to/lastmile_qr_scan"}, "is_disabled": 0, "fusion_lat": 0.0, "name": "c58607caf836b49b258acb7f458671cf", "fusion_lon": 0.0}, {"is_reserved": 0, "type": "electric_scooter", "bike_id": "f1c66b1a73d739b23a1edab7af592478", "lat": 38.906676, "lon": -77.02714316666666, "rental_uris": {"android": "https://dc.lft.to/lastmile_qr_scan", "ios": "https://dc.lft.to/lastmile_qr_scan"}, "is_disabled": 0, "fusion_lat": 0.0, "name": "f1c66b1a73d739b23a1edab7af592478", "fusion_lon": 0.0}, {"is_reserved": 0, "type": "electric_scooter", "bike_id": "f1080da5c4231aa7ca6c6ffd9e3857a9", "lat": 38.897392833333335, "lon": -76.99762883333334, "rental_uris": {"android": "https://dc.lft.to/lastmile_qr_scan", "ios": "https://dc.lft.to/lastmile_qr_scan"}, "is_disabled": 0, "fusion_lat": 0.0, "name": "f1080da5c4231aa7ca6c6ffd9e3857a9", "fusion_lon": 0.0}, {"is_reserved": 0, "type": "electric_scooter", "bike_id": "2aab85fa60190f6b8a11679905483971", "lat": 38.92916533333333, "lon": -77.03737783333334, "rental_uris": {"android": "https://dc.lft.to/lastmile_qr_scan", "ios": "https://dc.lft.to/lastmile_qr_scan"}, "is_disabled": 0, "fusion_lat": 0.0, "name": "2aab85fa60190f6b8a11679905483971", "fusion_lon": 0.0}, {"is_reserved": 0, "type": "electric_scooter", "bike_id": "1e484bbdff101680fbaeb0b5d4135b22", "lat": 38.921109333333334, "lon": -77.0421985, "rental_uris": {"android": "https://dc.lft.to/lastmile_qr_scan", "ios": "https://dc.lft.to/lastmile_qr_scan"}, "is_disabled": 0, "fusion_lat": 0.0, "name": "1e484bbdff101680fbaeb0b5d4135b22", "fusion_lon": 0.0}, {"is_reserved": 0, "type": "electric_scooter", "bike_id": "b006985531c9bc1c63cbb9df998d81e0", "lat": 38.90571816666667, "lon": -77.01850033333334, "rental_uris": {"android": "https://dc.lft.to/lastmile_qr_scan", "ios": "https://dc.lft.to/lastmile_qr_scan"}, "is_disabled": 0, "fusion_lat": 0.0, "name": "b006985531c9bc1c63cbb9df998d81e0", "fusion_lon": 0.0}, {"is_reserved": 0, "type": "electric_scooter", "bike_id": "050e86b9b40e859c6981f085b0c9773e", "lat": 38.9253345, "lon": -77.055602, "rental_uris": {"android": "https://dc.lft.to/lastmile_qr_scan", "ios": "https://dc.lft.to/lastmile_qr_scan"}, "is_disabled": 0, "fusion_lat": 0.0, "name": "050e86b9b40e859c6981f085b0c9773e", "fusion_lon": 0.0}, {"is_reserved": 0, "type": "electric_scooter", "bike_id": "0bfd282668c3b0edb98600859aa5bc45", "lat": 38.937182166666666, "lon": -77.03263116666666, "rental_uris": {"android": "https://dc.lft.to/lastmile_qr_scan", "ios": "https://dc.lft.to/lastmile_qr_scan"}, "is_disabled": 0, "fusion_lat": 0.0, "name": "0bfd282668c3b0edb98600859aa5bc45", "fusion_lon": 0.0}, {"is_reserved": 0, "type": "electric_scooter", "bike_id": "3007e99491534621678b6f5c56d27ca5", "lat": 38.89643216666666, "lon": -77.0006285, "rental_uris": {"android": "https://dc.lft.to/lastmile_qr_scan", "ios": "https://dc.lft.to/lastmile_qr_scan"}, "is_disabled": 0, "fusion_lat": 0.0, "name": "3007e99491534621678b6f5c56d27ca5", "fusion_lon": 0.0}, {"is_reserved": 0, "type": "electric_scooter", "bike_id": "e8074798ecb30157c8d982f209f31923", "lat": 38.9408555, "lon": -77.02973516666667, "rental_uris": {"android": "https://dc.lft.to/lastmile_qr_scan", "ios": "https://dc.lft.to/lastmile_qr_scan"}, "is_disabled": 0, "fusion_lat": 0.0, "name": "e8074798ecb30157c8d982f209f31923", "fusion_lon": 0.0}, {"is_reserved": 0, "type": "electric_scooter", "bike_id": "10177a24812ab45cbe010061706f9108", "lat": 38.9178045, "lon": -77.022998, "rental_uris": {"android": "https://dc.lft.to/lastmile_qr_scan", "ios": "https://dc.lft.to/lastmile_qr_scan"}, "is_disabled": 0, "fusion_lat": 0.0, "name": "10177a24812ab45cbe010061706f9108", "fusion_lon": 0.0}, {"is_reserved": 0, "type": "electric_scooter", "bike_id": "714c0993e5fa8bdc190021e534ced4c1", "lat": 38.89248883333333, "lon": -76.9413555, "rental_uris": {"android": "https://dc.lft.to/lastmile_qr_scan", "ios": "https://dc.lft.to/lastmile_qr_scan"}, "is_disabled": 0, "fusion_lat": 0.0, "name": "714c0993e5fa8bdc190021e534ced4c1", "fusion_lon": 0.0}, {"is_reserved": 0, "type": "electric_scooter", "bike_id": "c400f0cee56065cccb55bc34fc8bd319", "lat": 38.92110566666667, "lon": -77.04215416666666, "rental_uris": {"android": "https://dc.lft.to/lastmile_qr_scan", "ios": "https://dc.lft.to/lastmile_qr_scan"}, "is_disabled": 0, "fusion_lat": 0.0, "name": "c400f0cee56065cccb55bc34fc8bd319", "fusion_lon": 0.0}, {"is_reserved": 0, "type": "electric_scooter", "bike_id": "1e7067e2b036b2e7b0d280371667b7a3", "lat": 38.899131833333335, "lon": -76.933604, "rental_uris": {"android": "https://dc.lft.to/lastmile_qr_scan", "ios": "https://dc.lft.to/lastmile_qr_scan"}, "is_disabled": 0, "fusion_lat": 0.0, "name": "1e7067e2b036b2e7b0d280371667b7a3", "fusion_lon": 0.0}, {"is_reserved": 0, "type": "electric_scooter", "bike_id": "c840072eeaa0a44e4d1f96cb5aac53af", "lat": 38.90745533333333, "lon": -77.007549, "rental_uris": {"android": "https://dc.lft.to/lastmile_qr_scan", "ios": "https://dc.lft.to/lastmile_qr_scan"}, "is_disabled": 0, "fusion_lat": 0.0, "name": "c840072eeaa0a44e4d1f96cb5aac53af", "fusion_lon": 0.0}, {"is_reserved": 0, "type": "electric_scooter", "bike_id": "b74f24d65707d2f54e9581099c07e8f5", "lat": 38.91375633333333, "lon": -77.04603, "rental_uris": {"android": "https://dc.lft.to/lastmile_qr_scan", "ios": "https://dc.lft.to/lastmile_qr_scan"}, "is_disabled": 0, "fusion_lat": 0.0, "name": "b74f24d65707d2f54e9581099c07e8f5", "fusion_lon": 0.0}, {"is_reserved": 0, "type": "electric_scooter", "bike_id": "dd647f5764611d3372d09b51aa4a490a", "lat": 38.898822, "lon": -76.98839083333333, "rental_uris": {"android": "https://dc.lft.to/lastmile_qr_scan", "ios": "https://dc.lft.to/lastmile_qr_scan"}, "is_disabled": 0, "fusion_lat": 0.0, "name": "dd647f5764611d3372d09b51aa4a490a", "fusion_lon": 0.0}, {"is_reserved": 0, "type": "electric_scooter", "bike_id": "32490baf568810accd6a17be8df6423a", "lat": 38.9181255, "lon": -77.02479066666666, "rental_uris": {"android": "https://dc.lft.to/lastmile_qr_scan", "ios": "https://dc.lft.to/lastmile_qr_scan"}, "is_disabled": 0, "fusion_lat": 0.0, "name": "32490baf568810accd6a17be8df6423a", "fusion_lon": 0.0}, {"is_reserved": 0, "type": "electric_scooter", "bike_id": "ed8c937628f4f07c602d0f1991fdb471", "lat": 38.934883, "lon": -77.04454483333333, "rental_uris": {"android": "https://dc.lft.to/lastmile_qr_scan", "ios": "https://dc.lft.to/lastmile_qr_scan"}, "is_disabled": 0, "fusion_lat": 0.0, "name": "ed8c937628f4f07c602d0f1991fdb471", "fusion_lon": 0.0}, {"is_reserved": 0, "type": "electric_scooter", "bike_id": "7554838fd7231b0b683183b577e0e17b", "lat": 38.92640216666667, "lon": -77.0250695, "rental_uris": {"android": "https://dc.lft.to/lastmile_qr_scan", "ios": "https://dc.lft.to/lastmile_qr_scan"}, "is_disabled": 0, "fusion_lat": 0.0, "name": "7554838fd7231b0b683183b577e0e17b", "fusion_lon": 0.0}, {"is_reserved": 0, "type": "electric_scooter", "bike_id": "a7b61c34a318ea396851d159ae8f4d7d", "lat": 38.88611616666667, "lon": -77.0034475, "rental_uris": {"android": "https://dc.lft.to/lastmile_qr_scan", "ios": "https://dc.lft.to/lastmile_qr_scan"}, "is_disabled": 0, "fusion_lat": 0.0, "name": "a7b61c34a318ea396851d159ae8f4d7d", "fusion_lon": 0.0}, {"is_reserved": 0, "type": "electric_bike", "bike_id": "f77d8cd72cade7154acb7a3f803164fd", "lat": 38.981297166666664, "lon": -77.0076845, "rental_uris": {"android": "https://dc.lft.to/lastmile_qr_scan", "ios": "https://dc.lft.to/lastmile_qr_scan"}, "is_disabled": 0, "fusion_lat": 0.0, "name": "f77d8cd72cade7154acb7a3f803164fd", "fusion_lon": 0.0}, {"is_reserved": 0, "type": "electric_scooter", "bike_id": "5aa128bc35e528b0757d23b3bae7e329", "lat": 38.9273185, "lon": -77.02252466666667, "rental_uris": {"android": "https://dc.lft.to/lastmile_qr_scan", "ios": "https://dc.lft.to/lastmile_qr_scan"}, "is_disabled": 0, "fusion_lat": 0.0, "name": "5aa128bc35e528b0757d23b3bae7e329", "fusion_lon": 0.0}, {"is_reserved": 0, "type": "electric_scooter", "bike_id": "2dd664713f16373a905d6336efc113dc", "lat": 38.925555833333334, "lon": -77.0531865, "rental_uris": {"android": "https://dc.lft.to/lastmile_qr_scan", "ios": "https://dc.lft.to/lastmile_qr_scan"}, "is_disabled": 0, "fusion_lat": 0.0, "name": "2dd664713f16373a905d6336efc113dc", "fusion_lon": 0.0}, {"is_reserved": 0, "type": "electric_scooter", "bike_id": "3f33ef64e05b881139f6c59af37aeddf", "lat": 38.906311, "lon": -77.02499266666666, "rental_uris": {"android": "https://dc.lft.to/lastmile_qr_scan", "ios": "https://dc.lft.to/lastmile_qr_scan"}, "is_disabled": 0, "fusion_lat": 0.0, "name": "3f33ef64e05b881139f6c59af37aeddf", "fusion_lon": 0.0}, {"is_reserved": 0, "type": "electric_scooter", "bike_id": "f51894301211e0800b99c808157b46a5", "lat": 38.9898415, "lon": -77.03361133333334, "rental_uris": {"android": "https://dc.lft.to/lastmile_qr_scan", "ios": "https://dc.lft.to/lastmile_qr_scan"}, "is_disabled": 0, "fusion_lat": 0.0, "name": "f51894301211e0800b99c808157b46a5", "fusion_lon": 0.0}, {"is_reserved": 0, "type": "electric_scooter", "bike_id": "1b323b743913a5085a1b22bd21e12599", "lat": 38.89864166666667, "lon": -76.946432, "rental_uris": {"android": "https://dc.lft.to/lastmile_qr_scan", "ios": "https://dc.lft.to/lastmile_qr_scan"}, "is_disabled": 0, "fusion_lat": 0.0, "name": "1b323b743913a5085a1b22bd21e12599", "fusion_lon": 0.0}, {"is_reserved": 0, "type": "electric_scooter", "bike_id": "0fbf220b43ce01bf39d8cf19c0f3e742", "lat": 38.918086, "lon": -77.040006, "rental_uris": {"android": "https://dc.lft.to/lastmile_qr_scan", "ios": "https://dc.lft.to/lastmile_qr_scan"}, "is_disabled": 0, "fusion_lat": 0.0, "name": "0fbf220b43ce01bf39d8cf19c0f3e742", "fusion_lon": 0.0}, {"is_reserved": 0, "type": "electric_scooter", "bike_id": "066d0de38498758564fd09ea57f21fdc", "lat": 38.896702166666664, "lon": -77.05034616666667, "rental_uris": {"android": "https://dc.lft.to/lastmile_qr_scan", "ios": "https://dc.lft.to/lastmile_qr_scan"}, "is_disabled": 0, "fusion_lat": 0.0, "name": "066d0de38498758564fd09ea57f21fdc", "fusion_lon": 0.0}, {"is_reserved": 0, "type": "electric_bike", "bike_id": "1c35b403f456a4b2194c76ea5a629a13", "lat": 38.94149816666667, "lon": -77.00192383333334, "rental_uris": {"android": "https://dc.lft.to/lastmile_qr_scan", "ios": "https://dc.lft.to/lastmile_qr_scan"}, "is_disabled": 0, "fusion_lat": 0.0, "name": "1c35b403f456a4b2194c76ea5a629a13", "fusion_lon": 0.0}, {"is_reserved": 0, "type": "electric_scooter", "bike_id": "88531d18f4350291ac2c54aad16c4814", "lat": 38.9261295, "lon": -77.02162483333333, "rental_uris": {"android": "https://dc.lft.to/lastmile_qr_scan", "ios": "https://dc.lft.to/lastmile_qr_scan"}, "is_disabled": 0, "fusion_lat": 0.0, "name": "88531d18f4350291ac2c54aad16c4814", "fusion_lon": 0.0}, {"is_reserved": 0, "type": "electric_scooter", "bike_id": "c1fadf4813df9e32d52be7d8eba7c831", "lat": 38.91538633333333, "lon": -77.01227966666667, "rental_uris": {"android": "https://dc.lft.to/lastmile_qr_scan", "ios": "https://dc.lft.to/lastmile_qr_scan"}, "is_disabled": 0, "fusion_lat": 0.0, "name": "c1fadf4813df9e32d52be7d8eba7c831", "fusion_lon": 0.0}, {"is_reserved": 0, "type": "electric_scooter", "bike_id": "85258dcfadd6dc49650f56f5ef70580e", "lat": 38.900691333333334, "lon": -77.04859233333333, "rental_uris": {"android": "https://dc.lft.to/lastmile_qr_scan", "ios": "https://dc.lft.to/lastmile_qr_scan"}, "is_disabled": 0, "fusion_lat": 0.0, "name": "85258dcfadd6dc49650f56f5ef70580e", "fusion_lon": 0.0}, {"is_reserved": 0, "type": "electric_scooter", "bike_id": "5c695b67c675c2e16245d544a052e6d4", "lat": 38.89702066666667, "lon": -77.005043, "rental_uris": {"android": "https://dc.lft.to/lastmile_qr_scan", "ios": "https://dc.lft.to/lastmile_qr_scan"}, "is_disabled": 0, "fusion_lat": 0.0, "name": "5c695b67c675c2e16245d544a052e6d4", "fusion_lon": 0.0}, {"is_reserved": 0, "type": "electric_bike", "bike_id": "65256f8a98c4e341305f708c48830d47", "lat": 38.882465833333335, "lon": -76.96260766666667, "rental_uris": {"android": "https://dc.lft.to/lastmile_qr_scan", "ios": "https://dc.lft.to/lastmile_qr_scan"}, "is_disabled": 0, "fusion_lat": 0.0, "name": "65256f8a98c4e341305f708c48830d47", "fusion_lon": 0.0}, {"is_reserved": 0, "type": "electric_scooter", "bike_id": "43b15fb5518a74d26bd868acb8a7009a", "lat": 38.92596533333333, "lon": -77.024888, "rental_uris": {"android": "https://dc.lft.to/lastmile_qr_scan", "ios": "https://dc.lft.to/lastmile_qr_scan"}, "is_disabled": 0, "fusion_lat": 0.0, "name": "43b15fb5518a74d26bd868acb8a7009a", "fusion_lon": 0.0}, {"is_reserved": 0, "type": "electric_scooter", "bike_id": "ccd0802cf0ed209861962cad715e5da8", "lat": 38.92692016666667, "lon": -77.0258085, "rental_uris": {"android": "https://dc.lft.to/lastmile_qr_scan", "ios": "https://dc.lft.to/lastmile_qr_scan"}, "is_disabled": 0, "fusion_lat": 0.0, "name": "ccd0802cf0ed209861962cad715e5da8", "fusion_lon": 0.0}, {"is_reserved": 0, "type": "electric_scooter", "bike_id": "cffa4ca7437e6b0c0f4a868d8bff2a83", "lat": 38.89220533333334, "lon": -77.026281, "rental_uris": {"android": "https://dc.lft.to/lastmile_qr_scan", "ios": "https://dc.lft.to/lastmile_qr_scan"}, "is_disabled": 0, "fusion_lat": 0.0, "name": "cffa4ca7437e6b0c0f4a868d8bff2a83", "fusion_lon": 0.0}, {"is_reserved": 0, "type": "electric_bike", "bike_id": "8b0a18378dc0c8887ad392e35fb1452f", "lat": 38.89388483333333, "lon": -76.86839533333334, "rental_uris": {"android": "https://dc.lft.to/lastmile_qr_scan", "ios": "https://dc.lft.to/lastmile_qr_scan"}, "is_disabled": 0, "fusion_lat": 0.0, "name": "8b0a18378dc0c8887ad392e35fb1452f", "fusion_lon": 0.0}, {"is_reserved": 0, "type": "electric_scooter", "bike_id": "8fbcc0eb48e526b52089a129ad903ca8", "lat": 38.923298833333334, "lon": -77.00889783333334, "rental_uris": {"android": "https://dc.lft.to/lastmile_qr_scan", "ios": "https://dc.lft.to/lastmile_qr_scan"}, "is_disabled": 0, "fusion_lat": 0.0, "name": "8fbcc0eb48e526b52089a129ad903ca8", "fusion_lon": 0.0}, {"is_reserved": 0, "type": "electric_scooter", "bike_id": "71276ebba205eee38f9fc5d2b42615b3", "lat": 38.89984316666666, "lon": -77.02722566666667, "rental_uris": {"android": "https://dc.lft.to/lastmile_qr_scan", "ios": "https://dc.lft.to/lastmile_qr_scan"}, "is_disabled": 0, "fusion_lat": 0.0, "name": "71276ebba205eee38f9fc5d2b42615b3", "fusion_lon": 0.0}, {"is_reserved": 0, "type": "electric_scooter", "bike_id": "5dbaf0dc98c775c5a26c321139d48996", "lat": 38.9183985, "lon": -77.04114283333334, "rental_uris": {"android": "https://dc.lft.to/lastmile_qr_scan", "ios": "https://dc.lft.to/lastmile_qr_scan"}, "is_disabled": 0, "fusion_lat": 0.0, "name": "5dbaf0dc98c775c5a26c321139d48996", "fusion_lon": 0.0}, {"is_reserved": 0, "type": "electric_scooter", "bike_id": "251e2c280cab8c09995d0ae81d9368d0", "lat": 38.905462666666665, "lon": -77.0415895, "rental_uris": {"android": "https://dc.lft.to/lastmile_qr_scan", "ios": "https://dc.lft.to/lastmile_qr_scan"}, "is_disabled": 0, "fusion_lat": 0.0, "name": "251e2c280cab8c09995d0ae81d9368d0", "fusion_lon": 0.0}, {"is_reserved": 0, "type": "electric_scooter", "bike_id": "884d81d0ba48c07069abceba94aef4b1", "lat": 38.91687816666666, "lon": -77.02598566666667, "rental_uris": {"android": "https://dc.lft.to/lastmile_qr_scan", "ios": "https://dc.lft.to/lastmile_qr_scan"}, "is_disabled": 0, "fusion_lat": 0.0, "name": "884d81d0ba48c07069abceba94aef4b1", "fusion_lon": 0.0}, {"is_reserved": 0, "type": "electric_scooter", "bike_id": "b928cdb9a07de9d02c219a7bff5cc058", "lat": 38.891883166666666, "lon": -77.02177433333334, "rental_uris": {"android": "https://dc.lft.to/lastmile_qr_scan", "ios": "https://dc.lft.to/lastmile_qr_scan"}, "is_disabled": 0, "fusion_lat": 0.0, "name": "b928cdb9a07de9d02c219a7bff5cc058", "fusion_lon": 0.0}, {"is_reserved": 0, "type": "electric_scooter", "bike_id": "579a08f9057413ffb8b25cc652f30165", "lat": 38.930930000000004, "lon": -77.025495, "rental_uris": {"android": "https://dc.lft.to/lastmile_qr_scan", "ios": "https://dc.lft.to/lastmile_qr_scan"}, "is_disabled": 0, "fusion_lat": 0.0, "name": "579a08f9057413ffb8b25cc652f30165", "fusion_lon": 0.0}, {"is_reserved": 0, "type": "electric_scooter", "bike_id": "817ba179b4ab4795b815ba50b8007be4", "lat": 38.917259, "lon": -77.01600883333333, "rental_uris": {"android": "https://dc.lft.to/lastmile_qr_scan", "ios": "https://dc.lft.to/lastmile_qr_scan"}, "is_disabled": 0, "fusion_lat": 0.0, "name": "817ba179b4ab4795b815ba50b8007be4", "fusion_lon": 0.0}, {"is_reserved": 0, "type": "electric_scooter", "bike_id": "bd0f74a0722d9c91f79fcc90c1455e17", "lat": 38.9057735, "lon": -77.00570733333333, "rental_uris": {"android": "https://dc.lft.to/lastmile_qr_scan", "ios": "https://dc.lft.to/lastmile_qr_scan"}, "is_disabled": 0, "fusion_lat": 0.0, "name": "bd0f74a0722d9c91f79fcc90c1455e17", "fusion_lon": 0.0}, {"is_reserved": 0, "type": "electric_scooter", "bike_id": "147a09ed96005e27c0e146a49fc5bfd9", "lat": 38.935044833333336, "lon": -77.04283683333334, "rental_uris": {"android": "https://dc.lft.to/lastmile_qr_scan", "ios": "https://dc.lft.to/lastmile_qr_scan"}, "is_disabled": 0, "fusion_lat": 0.0, "name": "147a09ed96005e27c0e146a49fc5bfd9", "fusion_lon": 0.0}, {"is_reserved": 0, "type": "electric_scooter", "bike_id": "bd9a33579ae87e738479f76f3830f98e", "lat": 38.920581166666665, "lon": -77.02509516666667, "rental_uris": {"android": "https://dc.lft.to/lastmile_qr_scan", "ios": "https://dc.lft.to/lastmile_qr_scan"}, "is_disabled": 0, "fusion_lat": 0.0, "name": "bd9a33579ae87e738479f76f3830f98e", "fusion_lon": 0.0}, {"is_reserved": 0, "type": "electric_scooter", "bike_id": "a208882590d3819b4497731700e79afc", "lat": 38.912858, "lon": -77.07276, "rental_uris": {"android": "https://dc.lft.to/lastmile_qr_scan", "ios": "https://dc.lft.to/lastmile_qr_scan"}, "is_disabled": 0, "fusion_lat": 0.0, "name": "a208882590d3819b4497731700e79afc", "fusion_lon": 0.0}, {"is_reserved": 0, "type": "electric_scooter", "bike_id": "dffc46a7a8d96571afbfdc328f4bc92a", "lat": 38.856463833333336, "lon": -76.99671383333333, "rental_uris": {"android": "https://dc.lft.to/lastmile_qr_scan", "ios": "https://dc.lft.to/lastmile_qr_scan"}, "is_disabled": 0, "fusion_lat": 0.0, "name": "dffc46a7a8d96571afbfdc328f4bc92a", "fusion_lon": 0.0}, {"is_reserved": 0, "type": "electric_scooter", "bike_id": "a58834cd70d43fc406023f3754c6dd23", "lat": 38.900443833333334, "lon": -76.98832966666667, "rental_uris": {"android": "https://dc.lft.to/lastmile_qr_scan", "ios": "https://dc.lft.to/lastmile_qr_scan"}, "is_disabled": 0, "fusion_lat": 0.0, "name": "a58834cd70d43fc406023f3754c6dd23", "fusion_lon": 0.0}, {"is_reserved": 0, "type": "electric_scooter", "bike_id": "436534587151d28912a4f50c6ac6dae9", "lat": 38.92397366666667, "lon": -77.05040733333334, "rental_uris": {"android": "https://dc.lft.to/lastmile_qr_scan", "ios": "https://dc.lft.to/lastmile_qr_scan"}, "is_disabled": 0, "fusion_lat": 0.0, "name": "436534587151d28912a4f50c6ac6dae9", "fusion_lon": 0.0}, {"is_reserved": 0, "type": "electric_scooter", "bike_id": "cb8c896917eda2cbefde7eead61fa23c", "lat": 38.92388666666667, "lon": -77.0505075, "rental_uris": {"android": "https://dc.lft.to/lastmile_qr_scan", "ios": "https://dc.lft.to/lastmile_qr_scan"}, "is_disabled": 0, "fusion_lat": 0.0, "name": "cb8c896917eda2cbefde7eead61fa23c", "fusion_lon": 0.0}, {"is_reserved": 0, "type": "electric_scooter", "bike_id": "8cf19ff1290179c79f8c0c4aa43912df", "lat": 38.94741883333333, "lon": -77.01934533333333, "rental_uris": {"android": "https://dc.lft.to/lastmile_qr_scan", "ios": "https://dc.lft.to/lastmile_qr_scan"}, "is_disabled": 0, "fusion_lat": 0.0, "name": "8cf19ff1290179c79f8c0c4aa43912df", "fusion_lon": 0.0}, {"is_reserved": 0, "type": "electric_scooter", "bike_id": "650b129003ac83c37d5a8c3124871705", "lat": 38.897936, "lon": -77.01192133333333, "rental_uris": {"android": "https://dc.lft.to/lastmile_qr_scan", "ios": "https://dc.lft.to/lastmile_qr_scan"},