{"data": {"bikes": [{"is_disabled": 0, "is_reserved": 0, "fusion_lat": 0.0, "lat": 38.8763355, "fusion_lon": 0.0, "rental_uris": {"ios": "https://dc.lft.to/lastmile_qr_scan", "android": "https://dc.lft.to/lastmile_qr_scan"}, "lon": -77.00956866666667, "bike_id": "a8fba87ce586a5df5125ca2c3f19efff", "type": "electric_scooter", "name": "a8fba87ce586a5df5125ca2c3f19efff"}, {"is_disabled": 0, "is_reserved": 0, "fusion_lat": 0.0, "lat": 38.91056316666667, "fusion_lon": 0.0, "rental_uris": {"ios": "https://dc.lft.to/lastmile_qr_scan", "android": "https://dc.lft.to/lastmile_qr_scan"}, "lon": -77.02299883333333, "bike_id": "94eaa75b56c0590ce3983a5cec727e43", "type": "electric_scooter", "name": "94eaa75b56c0590ce3983a5cec727e43"}, {"is_disabled": 0, "is_reserved": 0, "fusion_lat": 0.0, "lat": 38.8939615, "fusion_lon": 0.0, "rental_uris": {"ios": "https://dc.lft.to/lastmile_qr_scan", "android": "https://dc.lft.to/lastmile_qr_scan"}, "lon": -77.04638966666667, "bike_id": "4511e539868203e4112148c9d694d88d", "type": "electric_scooter", "name": "4511e539868203e4112148c9d694d88d"}, {"is_disabled": 0, "is_reserved": 0, "fusion_lat": 0.0, "lat": 38.92107133333333, "fusion_lon": 0.0, "rental_uris": {"ios": "https://dc.lft.to/lastmile_qr_scan", "android": "https://dc.lft.to/lastmile_qr_scan"}, "lon": -77.041727, "bike_id": "4d6aa0e721e09e86224400fb63b6bdbe", "type": "electric_scooter", "name": "4d6aa0e721e09e86224400fb63b6bdbe"}, {"is_disabled": 0, "is_reserved": 0, "fusion_lat": 0.0, "lat": 38.931848, "fusion_lon": 0.0, "rental_uris": {"ios": "https://dc.lft.to/lastmile_qr_scan", "android": "https://dc.lft.to/lastmile_qr_scan"}, "lon": -77.0345175, "bike_id": "fc83316285d23fda092e8c89fd5e7430", "type": "electric_scooter", "name": "fc83316285d23fda092e8c89fd5e7430"}, {"is_disabled": 0, "is_reserved": 0, "fusion_lat": 0.0, "lat": 38.91269416666667, "fusion_lon": 0.0, "rental_uris": {"ios": "https://dc.lft.to/lastmile_qr_scan", "android": "https://dc.lft.to/lastmile_qr_scan"}, "lon": -77.03142716666666, "bike_id": "ca48d1c08f0cd20ae6d156dfddd9fb51", "type": "electric_scooter", "name": "ca48d1c08f0cd20ae6d156dfddd9fb51"}, {"is_disabled": 0, "is_reserved": 0, "fusion_lat": 0.0, "lat": 38.92973716666667, "fusion_lon": 0.0, "rental_uris": {"ios": "https://dc.lft.to/lastmile_qr_scan", "android": "https://dc.lft.to/lastmile_qr_scan"}, "lon": -77.028194, "bike_id": "baff1f45a2df238cbb5c32c7493bf3fb", "type": "electric_scooter", "name": "baff1f45a2df238cbb5c32c7493bf3fb"}, {"is_disabled": 0, "is_reserved": 0, "fusion_lat": 0.0, "lat": 38.9160735, "fusion_lon": 0.0, "rental_uris": {"ios": "https://dc.lft.to/lastmile_qr_scan", "android": "https://dc.lft.to/lastmile_qr_scan"}, "lon": -77.02118516666667, "bike_id": "77e363715e9b471fc560a8d4720e12ba", "type": "electric_scooter", "name": "77e363715e9b471fc560a8d4720e12ba"}, {"is_disabled": 0, "is_reserved": 0, "fusion_lat": 0.0, "lat": 38.90533966666667, "fusion_lon": 0.0, "rental_uris": {"ios": "https://dc.lft.to/lastmile_qr_scan", "android": "https://dc.lft.to/lastmile_qr_scan"}, "lon": -77.06519416666667, "bike_id": "7ec096fd3f5f7e71ea3ba77ae7be4cb6", "type": "electric_scooter", "name": "7ec096fd3f5f7e71ea3ba77ae7be4cb6"}, {"is_disabled": 0, "is_reserved": 0, "fusion_lat": 0.0, "lat": 38.900263, "fusion_lon": 0.0, "rental_uris": {"ios": "https://dc.lft.to/lastmile_qr_scan", "android": "https://dc.lft.to/lastmile_qr_scan"}, "lon": -76.99873533333333, "bike_id": "eb545a9ff29b38b3d436030a941911bd", "type": "electric_scooter", "name": "eb545a9ff29b38b3d436030a941911bd"}, {"is_disabled": 0, "is_reserved": 0, "fusion_lat": 0.0, "lat": 38.878895666666665, "fusion_lon": 0.0, "rental_uris": {"ios": "https://dc.lft.to/lastmile_qr_scan", "android": "https://dc.lft.to/lastmile_qr_scan"}, "lon": -77.0228125, "bike_id": "43bd515be20f801ece16e37abe983fc5", "type": "electric_scooter", "name": "43bd515be20f801ece16e37abe983fc5"}, {"is_disabled": 0, "is_reserved": 0, "fusion_lat": 0.0, "lat": 38.916739, "fusion_lon": 0.0, "rental_uris": {"ios": "https://dc.lft.to/lastmile_qr_scan", "android": "https://dc.lft.to/lastmile_qr_scan"}, "lon": -77.04604083333334, "bike_id": "0ae4f92f9f2f1f8eb65c3974fc0e2e8d", "type": "electric_scooter", "name": "0ae4f92f9f2f1f8eb65c3974fc0e2e8d"}, {"is_disabled": 0, "is_reserved": 0, "fusion_lat": 0.0, "lat": 38.906438, "fusion_lon": 0.0, "rental_uris": {"ios": "https://dc.lft.to/lastmile_qr_scan", "android": "https://dc.lft.to/lastmile_qr_scan"}, "lon": -77.0690065, "bike_id": "f9527cb9a4ae9fd31d8a53f51eb7a4e1", "type": "electric_scooter", "name": "f9527cb9a4ae9fd31d8a53f51eb7a4e1"}, {"is_disabled": 0, "is_reserved": 0, "fusion_lat": 0.0, "lat": 38.896186666666665, "fusion_lon": 0.0, "rental_uris": {"ios": "https://dc.lft.to/lastmile_qr_scan", "android": "https://dc.lft.to/lastmile_qr_scan"}, "lon": -77.0317085, "bike_id": "79176e94dce139371ef41aa77b65b286", "type": "electric_scooter", "name": "79176e94dce139371ef41aa77b65b286"}, {"is_disabled": 0, "is_reserved": 0, "fusion_lat": 0.0, "lat": 38.95239566666667, "fusion_lon": 0.0, "rental_uris": {"ios": "https://dc.lft.to/lastmile_qr_scan", "android": "https://dc.lft.to/lastmile_qr_scan"}, "lon": -76.97949, "bike_id": "a914f548c9ff99b0daa3c4d8b4c5eebb", "type": "electric_bike", "name": "a914f548c9ff99b0daa3c4d8b4c5eebb"}, {"is_disabled": 0, "is_reserved": 0, "fusion_lat": 0.0, "lat": 38.915176, "fusion_lon": 0.0, "rental_uris": {"ios": "https://dc.lft.to/lastmile_qr_scan", "android": "https://dc.lft.to/lastmile_qr_scan"}, "lon": -77.01843366666667, "bike_id": "8ebb728eca8e9529506d8cd375a3ad34", "type": "electric_scooter", "name": "8ebb728eca8e9529506d8cd375a3ad34"}, {"is_disabled": 0, "is_reserved": 0, "fusion_lat": 0.0, "lat": 38.9578035, "fusion_lon": 0.0, "rental_uris": {"ios": "https://dc.lft.to/lastmile_qr_scan", "android": "https://dc.lft.to/lastmile_qr_scan"}, "lon": -77.02413016666667, "bike_id": "8078033c79788495ec0f478f97c220ef", "type": "electric_scooter", "name": "8078033c79788495ec0f478f97c220ef"}, {"is_disabled": 0, "is_reserved": 0, "fusion_lat": 0.0, "lat": 38.892775666666665, "fusion_lon": 0.0, "rental_uris": {"ios": "https://dc.lft.to/lastmile_qr_scan", "android": "https://dc.lft.to/lastmile_qr_scan"}, "lon": -77.04655566666666, "bike_id": "97829cbb32536f3e173db81e8bf305a3", "type": "electric_scooter", "name": "97829cbb32536f3e173db81e8bf305a3"}, {"is_disabled": 0, "is_reserved": 0, "fusion_lat": 0.0, "lat": 38.86968366666667, "fusion_lon": 0.0, "rental_uris": {"ios": "https://dc.lft.to/lastmile_qr_scan", "android": "https://dc.lft.to/lastmile_qr_scan"}, "lon": -77.01377233333334, "bike_id": "4d41f858a745037ceef4387cd848a2e0", "type": "electric_scooter", "name": "4d41f858a745037ceef4387cd848a2e0"}, {"is_disabled": 0, "is_reserved": 0, "fusion_lat": 0.0, "lat": 38.959308166666666, "fusion_lon": 0.0, "rental_uris": {"ios": "https://dc.lft.to/lastmile_qr_scan", "android": "https://dc.lft.to/lastmile_qr_scan"}, "lon": -76.92525483333333, "bike_id": "2c2b81c60146146569c9423c30242156", "type": "electric_bike", "name": "2c2b81c60146146569c9423c30242156"}, {"is_disabled": 0, "is_reserved": 0, "fusion_lat": 0.0, "lat": 38.86372033333333, "fusion_lon": 0.0, "rental_uris": {"ios": "https://dc.lft.to/lastmile_qr_scan", "android": "https://dc.lft.to/lastmile_qr_scan"}, "lon": -77.013631, "bike_id": "c82dea8937a861847bf44ed3efc7725e", "type": "electric_scooter", "name": "c82dea8937a861847bf44ed3efc7725e"}, {"is_disabled": 0, "is_reserved": 0, "fusion_lat": 0.0, "lat": 38.92726616666667, "fusion_lon": 0.0, "rental_uris": {"ios": "https://dc.lft.to/lastmile_qr_scan", "android": "https://dc.lft.to/lastmile_qr_scan"}, "lon": -77.05137616666667, "bike_id": "a67475723fca32ebdacc49cac4139a93", "type": "electric_scooter", "name": "a67475723fca32ebdacc49cac4139a93"}, {"is_disabled": 0, "is_reserved": 0, "fusion_lat": 0.0, "lat": 38.8551445, "fusion_lon": 0.0, "rental_uris": {"ios": "https://dc.lft.to/lastmile_qr_scan", "android": "https://dc.lft.to/lastmile_qr_scan"}, "lon": -77.1015805, "bike_id": "8f1cd5a29489ad154544b93619901320", "type": "electric_bike", "name": "8f1cd5a29489ad154544b93619901320"}, {"is_disabled": 0, "is_reserved": 0, "fusion_lat": 0.0, "lat": 38.92092783333333, "fusion_lon": 0.0, "rental_uris": {"ios": "https://dc.lft.to/lastmile_qr_scan", "android": "https://dc.lft.to/lastmile_qr_scan"}, "lon": -77.023213, "bike_id": "db3c7ff20b2fdd564ae14eea23d0e530", "type": "electric_scooter", "name": "db3c7ff20b2fdd564ae14eea23d0e530"}, {"is_disabled": 0, "is_reserved": 0, "fusion_lat": 0.0, "lat": 38.910558333333334, "fusion_lon": 0.0, "rental_uris": {"ios": "https://dc.lft.to/lastmile_qr_scan", "android": "https://dc.lft.to/lastmile_qr_scan"}, "lon": -77.052878, "bike_id": "6c48dfbb909e89941bce8c6b893df85d", "type": "electric_bike", "name": "6c48dfbb909e89941bce8c6b893df85d"}, {"is_disabled": 0, "is_reserved": 0, "fusion_lat": 0.0, "lat": 38.8988425, "fusion_lon": 0.0, "rental_uris": {"ios": "https://dc.lft.to/lastmile_qr_scan", "android": "https://dc.lft.to/lastmile_qr_scan"}, "lon": -76.9317525, "bike_id": "668b9a61f8e1f136291011538171a19b", "type": "electric_scooter", "name": "668b9a61f8e1f136291011538171a19b"}, {"is_disabled": 0, "is_reserved": 0, "fusion_lat": 0.0, "lat": 38.892463, "fusion_lon": 0.0, "rental_uris": {"ios": "https://dc.lft.to/lastmile_qr_scan", "android": "https://dc.lft.to/lastmile_qr_scan"}, "lon": -77.039559, "bike_id": "3539d66c58d81527392e240fc72e7607", "type": "electric_scooter", "name": "3539d66c58d81527392e240fc72e7607"}, {"is_disabled": 0, "is_reserved": 0, "fusion_lat": 0.0, "lat": 38.936571, "fusion_lon": 0.0, "rental_uris": {"ios": "https://dc.lft.to/lastmile_qr_scan", "android": "https://dc.lft.to/lastmile_qr_scan"}, "lon": -77.06612466666667, "bike_id": "0f9aee1db538fa7daeea642c57d04772", "type": "electric_scooter", "name": "0f9aee1db538fa7daeea642c57d04772"}, {"is_disabled": 0, "is_reserved": 0, "fusion_lat": 0.0, "lat": 38.895154833333336, "fusion_lon": 0.0, "rental_uris": {"ios": "https://dc.lft.to/lastmile_qr_scan", "android": "https://dc.lft.to/lastmile_qr_scan"}, "lon": -77.0227725, "bike_id": "7f48934df06e60b5489232c9fb39208d", "type": "electric_scooter", "name": "7f48934df06e60b5489232c9fb39208d"}, {"is_disabled": 0, "is_reserved": 0, "fusion_lat": 0.0, "lat": 38.92849316666667, "fusion_lon": 0.0, "rental_uris": {"ios": "https://dc.lft.to/lastmile_qr_scan", "android": "https://dc.lft.to/lastmile_qr_scan"}, "lon": -77.03738483333333, "bike_id": "0bb2e0bc77eadf9eeb223357ada9310f", "type": "electric_scooter", "name": "0bb2e0bc77eadf9eeb223357ada9310f"}, {"is_disabled": 0, "is_reserved": 0, "fusion_lat": 0.0, "lat": 38.92028083333334, "fusion_lon": 0.0, "rental_uris": {"ios": "https://dc.lft.to/lastmile_qr_scan", "android": "https://dc.lft.to/lastmile_qr_scan"}, "lon": -77.03083816666667, "bike_id": "f31726441e7d9422af45b3911d18fde7", "type": "electric_scooter", "name": "f31726441e7d9422af45b3911d18fde7"}, {"is_disabled": 0, "is_reserved": 0, "fusion_lat": 0.0, "lat": 38.901465333333334, "fusion_lon": 0.0, "rental_uris": {"ios": "https://dc.lft.to/lastmile_qr_scan", "android": "https://dc.lft.to/lastmile_qr_scan"}, "lon": -77.03231833333334, "bike_id": "893b958e3d62e45cec2e7772dcf32729", "type": "electric_scooter", "name": "893b958e3d62e45cec2e7772dcf32729"}, {"is_disabled": 0, "is_reserved": 0, "fusion_lat": 0.0, "lat": 38.949004, "fusion_lon": 0.0, "rental_uris": {"ios": "https://dc.lft.to/lastmile_qr_scan", "android": "https://dc.lft.to/lastmile_qr_scan"}, "lon": -76.96377966666667, "bike_id": "ff2e88ef14e810cefde6ee7804bb9640", "type": "electric_bike", "name": "ff2e88ef14e810cefde6ee7804bb9640"}, {"is_disabled": 0, "is_reserved": 0, "fusion_lat": 0.0, "lat": 38.91814183333334, "fusion_lon": 0.0, "rental_uris": {"ios": "https://dc.lft.to/lastmile_qr_scan", "android": "https://dc.lft.to/lastmile_qr_scan"}, "lon": -77.027888, "bike_id": "322f905adc4617e1a11598b097104f43", "type": "electric_scooter", "name": "322f905adc4617e1a11598b097104f43"}, {"is_disabled": 0, "is_reserved": 0, "fusion_lat": 0.0, "lat": 38.932935666666665, "fusion_lon": 0.0, "rental_uris": {"ios": "https://dc.lft.to/lastmile_qr_scan", "android": "https://dc.lft.to/lastmile_qr_scan"}, "lon": -77.03543416666666, "bike_id": "de52cb06873a60aa5971ab732fd131b1", "type": "electric_scooter", "name": "de52cb06873a60aa5971ab732fd131b1"}, {"is_disabled": 0, "is_reserved": 0, "fusion_lat": 0.0, "lat": 38.898354499999996, "fusion_lon": 0.0, "rental_uris": {"ios": "https://dc.lft.to/lastmile_qr_scan", "android": "https://dc.lft.to/lastmile_qr_scan"}, "lon": -76.94634233333333, "bike_id": "d93d33da848e3efaf220a6f558620868", "type": "electric_scooter", "name": "d93d33da848e3efaf220a6f558620868"}, {"is_disabled": 0, "is_reserved": 0, "fusion_lat": 0.0, "lat": 38.89671833333333, "fusion_lon": 0.0, "rental_uris": {"ios": "https://dc.lft.to/lastmile_qr_scan", "android": "https://dc.lft.to/lastmile_qr_scan"}, "lon": -77.05081183333333, "bike_id": "934f86b0c9c84ba19b1cc14a6e0532b0", "type": "electric_scooter", "name": "934f86b0c9c84ba19b1cc14a6e0532b0"}, {"is_disabled": 0, "is_reserved": 0, "fusion_lat": 0.0, "lat": 38.897504833333336, "fusion_lon": 0.0, "rental_uris": {"ios": "https://dc.lft.to/lastmile_qr_scan", "android": "https://dc.lft.to/lastmile_qr_scan"}, "lon": -77.02705033333334, "bike_id": "83673264c80a9aac54de5511010a4999", "type": "electric_scooter", "name": "83673264c80a9aac54de5511010a4999"}, {"is_disabled": 0, "is_reserved": 0, "fusion_lat": 0.0, "lat": 38.89860633333333, "fusion_lon": 0.0, "rental_uris": {"ios": "https://dc.lft.to/lastmile_qr_scan", "android": "https://dc.lft.to/lastmile_qr_scan"}, "lon": -76.94641266666666, "bike_id": "c5a802283c6632a22b68be268f49a977", "type": "electric_scooter", "name": "c5a802283c6632a22b68be268f49a977"}, {"is_disabled": 0, "is_reserved": 0, "fusion_lat": 0.0, "lat": 38.912056666666665, "fusion_lon": 0.0, "rental_uris": {"ios": "https://dc.lft.to/lastmile_qr_scan", "android": "https://dc.lft.to/lastmile_qr_scan"}, "lon": -77.0020015, "bike_id": "7f685c5164bd098580e375df682918cf", "type": "electric_scooter", "name": "7f685c5164bd098580e375df682918cf"}, {"is_disabled": 0, "is_reserved": 0, "fusion_lat": 0.0, "lat": 38.9387395, "fusion_lon": 0.0, "rental_uris": {"ios": "https://dc.lft.to/lastmile_qr_scan", "android": "https://dc.lft.to/lastmile_qr_scan"}, "lon": -77.030456, "bike_id": "3213506b1fabb9b756afa52f866fb92b", "type": "electric_scooter", "name": "3213506b1fabb9b756afa52f866fb92b"}, {"is_disabled": 0, "is_reserved": 0, "fusion_lat": 0.0, "lat": 38.91991616666667, "fusion_lon": 0.0, "rental_uris": {"ios": "https://dc.lft.to/lastmile_qr_scan", "android": "https://dc.lft.to/lastmile_qr_scan"}, "lon": -77.0324685, "bike_id": "8d772ace04a3db11b6974304fc621b32", "type": "electric_scooter", "name": "8d772ace04a3db11b6974304fc621b32"}, {"is_disabled": 0, "is_reserved": 0, "fusion_lat": 0.0, "lat": 38.9199215, "fusion_lon": 0.0, "rental_uris": {"ios": "https://dc.lft.to/lastmile_qr_scan", "android": "https://dc.lft.to/lastmile_qr_scan"}, "lon": -77.0324635, "bike_id": "a826de6e76e3e623f22731d1fb012217", "type": "electric_scooter", "name": "a826de6e76e3e623f22731d1fb012217"}, {"is_disabled": 0, "is_reserved": 0, "fusion_lat": 0.0, "lat": 38.87067566666666, "fusion_lon": 0.0, "rental_uris": {"ios": "https://dc.lft.to/lastmile_qr_scan", "android": "https://dc.lft.to/lastmile_qr_scan"}, "lon": -76.9794165, "bike_id": "c149539d752b8be1d54a984c2b72f5c6", "type": "electric_scooter", "name": "c149539d752b8be1d54a984c2b72f5c6"}, {"is_disabled": 0, "is_reserved": 0, "fusion_lat": 0.0, "lat": 38.905272333333336, "fusion_lon": 0.0, "rental_uris": {"ios": "https://dc.lft.to/lastmile_qr_scan", "android": "https://dc.lft.to/lastmile_qr_scan"}, "lon": -77.01709433333333, "bike_id": "c9798b2ab2e404e473954162db3aa464", "type": "electric_scooter", "name": "c9798b2ab2e404e473954162db3aa464"}, {"is_disabled": 0, "is_reserved": 0, "fusion_lat": 0.0, "lat": 38.923207166666664, "fusion_lon": 0.0, "rental_uris": {"ios": "https://dc.lft.to/lastmile_qr_scan", "android": "https://dc.lft.to/lastmile_qr_scan"}, "lon": -77.0418735, "bike_id": "27a6e984258284f59109175d443cb57b", "type": "electric_scooter", "name": "27a6e984258284f59109175d443cb57b"}, {"is_disabled": 0, "is_reserved": 0, "fusion_lat": 0.0, "lat": 38.9003035, "fusion_lon": 0.0, "rental_uris": {"ios": "https://dc.lft.to/lastmile_qr_scan", "android": "https://dc.lft.to/lastmile_qr_scan"}, "lon": -76.99997833333333, "bike_id": "2acdd05090873e1663eb0a90beece173", "type": "electric_scooter", "name": "2acdd05090873e1663eb0a90beece173"}, {"is_disabled": 0, "is_reserved": 0, "fusion_lat": 0.0, "lat": 38.89301966666667, "fusion_lon": 0.0, "rental_uris": {"ios": "https://dc.lft.to/lastmile_qr_scan", "android": "https://dc.lft.to/lastmile_qr_scan"}, "lon": -76.99957916666666, "bike_id": "1a3321fd9977bba843572ab561f5bf75", "type": "electric_scooter", "name": "1a3321fd9977bba843572ab561f5bf75"}, {"is_disabled": 0, "is_reserved": 0, "fusion_lat": 0.0, "lat": 38.905386, "fusion_lon": 0.0, "rental_uris": {"ios": "https://dc.lft.to/lastmile_qr_scan", "android": "https://dc.lft.to/lastmile_qr_scan"}, "lon": -77.0651865, "bike_id": "663991c5522ac2167d4051cd0d650c9f", "type": "electric_scooter", "name": "663991c5522ac2167d4051cd0d650c9f"}, {"is_disabled": 0, "is_reserved": 0, "fusion_lat": 0.0, "lat": 38.896646833333335, "fusion_lon": 0.0, "rental_uris": {"ios": "https://dc.lft.to/lastmile_qr_scan", "android": "https://dc.lft.to/lastmile_qr_scan"}, "lon": -77.032047, "bike_id": "71dd2741a0e0177672cd35864d2aef15", "type": "electric_scooter", "name": "71dd2741a0e0177672cd35864d2aef15"}, {"is_disabled": 0, "is_reserved": 0, "fusion_lat": 0.0, "lat": 38.902768333333334, "fusion_lon": 0.0, "rental_uris": {"ios": "https://dc.lft.to/lastmile_qr_scan", "android": "https://dc.lft.to/lastmile_qr_scan"}, "lon": -77.0519045, "bike_id": "7efe5c1feff4bc87b957e7900b04adef", "type": "electric_scooter", "name": "7efe5c1feff4bc87b957e7900b04adef"}, {"is_disabled": 0, "is_reserved": 0, "fusion_lat": 0.0, "lat": 38.910991333333335, "fusion_lon": 0.0, "rental_uris": {"ios": "https://dc.lft.to/lastmile_qr_scan", "android": "https://dc.lft.to/lastmile_qr_scan"}, "lon": -77.03204066666666, "bike_id": "4acdc0e81406036c0df4a0731c2eb4e4", "type": "electric_scooter", "name": "4acdc0e81406036c0df4a0731c2eb4e4"}, {"is_disabled": 0, "is_reserved": 0, "fusion_lat": 0.0, "lat": 38.9072485, "fusion_lon": 0.0, "rental_uris": {"ios": "https://dc.lft.to/lastmile_qr_scan", "android": "https://dc.lft.to/lastmile_qr_scan"}, "lon": -77.02441433333334, "bike_id": "6c2e2923aca05f180afab5e7364540a7", "type": "electric_scooter", "name": "6c2e2923aca05f180afab5e7364540a7"}, {"is_disabled": 0, "is_reserved": 0, "fusion_lat": 0.0, "lat": 38.895087333333336, "fusion_lon": 0.0, "rental_uris": {"ios": "https://dc.lft.to/lastmile_qr_scan", "android": "https://dc.lft.to/lastmile_qr_scan"}, "lon": -77.02287716666666, "bike_id": "ca092d6407c6c6c664f85db60c34e488", "type": "electric_scooter", "name": "ca092d6407c6c6c664f85db60c34e488"}, {"is_disabled": 0, "is_reserved": 0, "fusion_lat": 0.0, "lat": 38.8965705, "fusion_lon": 0.0, "rental_uris": {"ios": "https://dc.lft.to/lastmile_qr_scan", "android": "https://dc.lft.to/lastmile_qr_scan"}, "lon": -77.02588766666666, "bike_id": "98d8e1a2b37a27ac2b7920f532854325", "type": "electric_scooter", "name": "98d8e1a2b37a27ac2b7920f532854325"}, {"is_disabled": 0, "is_reserved": 0, "fusion_lat": 0.0, "lat": 38.90217116666667, "fusion_lon": 0.0, "rental_uris": {"ios": "https://dc.lft.to/lastmile_qr_scan", "android": "https://dc.lft.to/lastmile_qr_scan"}, "lon": -77.023709, "bike_id": "772cee9a57c2ccc28459bd7ffb473ae9", "type": "electric_scooter", "name": "772cee9a57c2ccc28459bd7ffb473ae9"}, {"is_disabled": 0, "is_reserved": 0, "fusion_lat": 0.0, "lat": 38.87916283333333, "fusion_lon": 0.0, "rental_uris": {"ios": "https://dc.lft.to/lastmile_qr_scan", "android": "https://dc.lft.to/lastmile_qr_scan"}, "lon": -76.9951255, "bike_id": "3dfc9d9c72d36f5b0acbc91b9d35f55d", "type": "electric_scooter", "name": "3dfc9d9c72d36f5b0acbc91b9d35f55d"}, {"is_disabled": 0, "is_reserved": 0, "fusion_lat": 0.0, "lat": 38.96356316666667, "fusion_lon": 0.0, "rental_uris": {"ios": "https://dc.lft.to/lastmile_qr_scan", "android": "https://dc.lft.to/lastmile_qr_scan"}, "lon": -77.03442283333334, "bike_id": "25bdc5497df7bac72b71ee54196461f5", "type": "electric_scooter", "name": "25bdc5497df7bac72b71ee54196461f5"}, {"is_disabled": 0, "is_reserved": 0, "fusion_lat": 0.0, "lat": 38.905299666666664, "fusion_lon": 0.0, "rental_uris": {"ios": "https://dc.lft.to/lastmile_qr_scan", "android": "https://dc.lft.to/lastmile_qr_scan"}, "lon": -77.05934433333333, "bike_id": "48ec615e92094304bfa3b269812507b9", "type": "electric_scooter", "name": "48ec615e92094304bfa3b269812507b9"}, {"is_disabled": 0, "is_reserved": 0, "fusion_lat": 0.0, "lat": 38.907599833333336, "fusion_lon": 0.0, "rental_uris": {"ios": "https://dc.lft.to/lastmile_qr_scan", "android": "https://dc.lft.to/lastmile_qr_scan"}, "lon": -77.02392016666667, "bike_id": "52cd58166b4a6ee3dade1333c23e4863", "type": "electric_scooter", "name": "52cd58166b4a6ee3dade1333c23e4863"}, {"is_disabled": 0, "is_reserved": 0, "fusion_lat": 0.0, "lat": 38.842665333333336, "fusion_lon": 0.0, "rental_uris": {"ios": "https://dc.lft.to/lastmile_qr_scan", "android": "https://dc.lft.to/lastmile_qr_scan"}, "lon": -76.98849866666667, "bike_id": "5bac5033f48f94aa5f2ea321e661686b", "type": "electric_scooter", "name": "5bac5033f48f94aa5f2ea321e661686b"}, {"is_disabled": 0, "is_reserved": 0, "fusion_lat": 0.0, "lat": 38.903588666666664, "fusion_lon": 0.0, "rental_uris": {"ios": "https://dc.lft.to/lastmile_qr_scan", "android": "https://dc.lft.to/lastmile_qr_scan"}, "lon": -77.06004233333333, "bike_id": "807149566e771a230aa62db7e9f02166", "type": "electric_scooter", "name": "807149566e771a230aa62db7e9f02166"}, {"is_disabled": 0, "is_reserved": 0, "fusion_lat": 0.0, "lat": 38.90446166666667, "fusion_lon": 0.0, "rental_uris": {"ios": "https://dc.lft.to/lastmile_qr_scan", "android": "https://dc.lft.to/lastmile_qr_scan"}, "lon": -76.973083, "bike_id": "bb6361533472a45fb00db9ab79542592", "type": "electric_scooter", "name": "bb6361533472a45fb00db9ab79542592"}, {"is_disabled": 0, "is_reserved": 0, "fusion_lat": 0.0, "lat": 38.926103499999996, "fusion_lon": 0.0, "rental_uris": {"ios": "https://dc.lft.to/lastmile_qr_scan", "android": "https://dc.lft.to/lastmile_qr_scan"}, "lon": -77.036921, "bike_id": "8fdc1588eee53aa83232c849797e5f25", "type": "electric_scooter", "name": "8fdc1588eee53aa83232c849797e5f25"}, {"is_disabled": 0, "is_reserved": 0, "fusion_lat": 0.0, "lat": 38.916542666666665, "fusion_lon": 0.0, "rental_uris": {"ios": "https://dc.lft.to/lastmile_qr_scan", "android": "https://dc.lft.to/lastmile_qr_scan"}, "lon": -77.02392233333333, "bike_id": "bbb6eeeb784e4272a2e51b094cf42bfb", "type": "electric_scooter", "name": "bbb6eeeb784e4272a2e51b094cf42bfb"}, {"is_disabled": 0, "is_reserved": 0, "fusion_lat": 0.0, "lat": 38.910607, "fusion_lon": 0.0, "rental_uris": {"ios": "https://dc.lft.to/lastmile_qr_scan", "android": "https://dc.lft.to/lastmile_qr_scan"}, "lon": -77.05513916666666, "bike_id": "d20d3a085afd5dbbb92329c6cfb9e210", "type": "electric_scooter", "name": "d20d3a085afd5dbbb92329c6cfb9e210"}, {"is_disabled": 0, "is_reserved": 0, "fusion_lat": 0.0, "lat": 38.956852, "fusion_lon": 0.0, "rental_uris": {"ios": "https://dc.lft.to/lastmile_qr_scan", "android": "https://dc.lft.to/lastmile_qr_scan"}, "lon": -77.02234033333333, "bike_id": "007d55e94432fa7c151224f7e014e5df", "type": "electric_scooter", "name": "007d55e94432fa7c151224f7e014e5df"}, {"is_disabled": 0, "is_reserved": 0, "fusion_lat": 0.0, "lat": 38.907383, "fusion_lon": 0.0, "rental_uris": {"ios": "https://dc.lft.to/lastmile_qr_scan", "android": "https://dc.lft.to/lastmile_qr_scan"}, "lon": -77.03168533333333, "bike_id": "729a92b8e25f46ad00cf7095883b23c7", "type": "electric_scooter", "name": "729a92b8e25f46ad00cf7095883b23c7"}, {"is_disabled": 0, "is_reserved": 0, "fusion_lat": 0.0, "lat": 38.902558166666665, "fusion_lon": 0.0, "rental_uris": {"ios": "https://dc.lft.to/lastmile_qr_scan", "android": "https://dc.lft.to/lastmile_qr_scan"}, "lon": -77.03955233333333, "bike_id": "636edec46aa3a790036d5421c581ad63", "type": "electric_scooter", "name": "636edec46aa3a790036d5421c581ad63"}, {"is_disabled": 0, "is_reserved": 0, "fusion_lat": 0.0, "lat": 38.89625, "fusion_lon": 0.0, "rental_uris": {"ios": "https://dc.lft.to/lastmile_qr_scan", "android": "https://dc.lft.to/lastmile_qr_scan"}, "lon": -76.907514, "bike_id": "0daab3bd00bd532a596c1355e88dcbb1", "type": "electric_bike", "name": "0daab3bd00bd532a596c1355e88dcbb1"}, {"is_disabled": 0, "is_reserved": 0, "fusion_lat": 0.0, "lat": 38.87666083333333, "fusion_lon": 0.0, "rental_uris": {"ios": "https://dc.lft.to/lastmile_qr_scan", "android": "https://dc.lft.to/lastmile_qr_scan"}, "lon": -76.99626516666666, "bike_id": "2b9e82e6e6f734fc24d3a0f83b1d22ec", "type": "electric_scooter", "name": "2b9e82e6e6f734fc24d3a0f83b1d22ec"}, {"is_disabled": 0, "is_reserved": 0, "fusion_lat": 0.0, "lat": 38.93197083333333, "fusion_lon": 0.0, "rental_uris": {"ios": "https://dc.lft.to/lastmile_qr_scan", "android": "https://dc.lft.to/lastmile_qr_scan"}, "lon": -77.0239195, "bike_id": "22adefb455fd4669a36ac4139c859719", "type": "electric_scooter", "name": "22adefb455fd4669a36ac4139c859719"}, {"is_disabled": 0, "is_reserved": 0, "fusion_lat": 0.0, "lat": 38.883005, "fusion_lon": 0.0, "rental_uris": {"ios": "https://dc.lft.to/lastmile_qr_scan", "android": "https://dc.lft.to/lastmile_qr_scan"}, "lon": -76.9349445, "bike_id": "e2a34de46d2adc11e611d9c665c8d356", "type": "electric_scooter", "name": "e2a34de46d2adc11e611d9c665c8d356"}, {"is_disabled": 0, "is_reserved": 0, "fusion_lat": 0.0, "lat": 38.899997666666664, "fusion_lon": 0.0, "rental_uris": {"ios": "https://dc.lft.to/lastmile_qr_scan", "android": "https://dc.lft.to/lastmile_qr_scan"}, "lon": -76.99427466666667, "bike_id": "04e978bef8e0464e7de570cd78e2677c", "type": "electric_scooter", "name": "04e978bef8e0464e7de570cd78e2677c"}, {"is_disabled": 0, "is_reserved": 0, "fusion_lat": 0.0, "lat": 38.94653133333333, "fusion_lon": 0.0, "rental_uris": {"ios": "https://dc.lft.to/lastmile_qr_scan", "android": "https://dc.lft.to/lastmile_qr_scan"}, "lon": -77.06482166666666, "bike_id": "e3ddccfe481de51f19463afd405704da", "type": "electric_scooter", "name": "e3ddccfe481de51f19463afd405704da"}, {"is_disabled": 0, "is_reserved": 0, "fusion_lat": 0.0, "lat": 38.906507833333336, "fusion_lon": 0.0, "rental_uris": {"ios": "https://dc.lft.to/lastmile_qr_scan", "android": "https://dc.lft.to/lastmile_qr_scan"}, "lon": -77.04560866666667, "bike_id": "33b32d8d91033c090a462c56398389ad", "type": "electric_scooter", "name": "33b32d8d91033c090a462c56398389ad"}, {"is_disabled": 0, "is_reserved": 0, "fusion_lat": 0.0, "lat": 38.901481, "fusion_lon": 0.0, "rental_uris": {"ios": "https://dc.lft.to/lastmile_qr_scan", "android": "https://dc.lft.to/lastmile_qr_scan"}, "lon": -76.92982683333334, "bike_id": "b01869dbe1edecaaea3ec05688ad5170", "type": "electric_scooter", "name": "b01869dbe1edecaaea3ec05688ad5170"}, {"is_disabled": 0, "is_reserved": 0, "fusion_lat": 0.0, "lat": 38.896757, "fusion_lon": 0.0, "rental_uris": {"ios": "https://dc.lft.to/lastmile_qr_scan", "android": "https://dc.lft.to/lastmile_qr_scan"}, "lon": -77.04891833333333, "bike_id": "dc52e4cd314973d4220773e0bd374f2e", "type": "electric_scooter", "name": "dc52e4cd314973d4220773e0bd374f2e"}, {"is_disabled": 0, "is_reserved": 0, "fusion_lat": 0.0, "lat": 38.8428095, "fusion_lon": 0.0, "rental_uris": {"ios": "https://dc.lft.to/lastmile_qr_scan", "android": "https://dc.lft.to/lastmile_qr_scan"}, "lon": -76.9885765, "bike_id": "207b4c508fd0e0b1910f1c18132efcd6", "type": "electric_scooter", "name": "207b4c508fd0e0b1910f1c18132efcd6"}, {"is_disabled": 0, "is_reserved": 0, "fusion_lat": 0.0, "lat": 38.923377333333335, "fusion_lon": 0.0, "rental_uris": {"ios": "https://dc.lft.to/lastmile_qr_scan", "android": "https://dc.lft.to/lastmile_qr_scan"}, "lon": -77.05667316666667, "bike_id": "79b724650170bc899e0861b3e02e1d10", "type": "electric_scooter", "name": "79b724650170bc899e0861b3e02e1d10"}, {"is_disabled": 0, "is_reserved": 0, "fusion_lat": 0.0, "lat": 38.902856, "fusion_lon": 0.0, "rental_uris": {"ios": "https://dc.lft.to/lastmile_qr_scan", "android": "https://dc.lft.to/lastmile_qr_scan"}, "lon": -77.06002183333334, "bike_id": "d74870b2fd591eacb61e9c388f0cb1a9", "type": "electric_bike", "name": "d74870b2fd591eacb61e9c388f0cb1a9"}, {"is_disabled": 0, "is_reserved": 0, "fusion_lat": 0.0, "lat": 38.952154666666665, "fusion_lon": 0.0, "rental_uris": {"ios": "https://dc.lft.to/lastmile_qr_scan", "android": "https://dc.lft.to/lastmile_qr_scan"}, "lon": -77.08864, "bike_id": "361f7ac439def076d7d470885490cc6b", "type": "electric_scooter", "name": "361f7ac439def076d7d470885490cc6b"}, {"is_disabled": 0, "is_reserved": 0, "fusion_lat": 0.0, "lat": 38.90459333333333, "fusion_lon": 0.0, "rental_uris": {"ios": "https://dc.lft.to/lastmile_qr_scan", "android": "https://dc.lft.to/lastmile_qr_scan"}, "lon": -77.04352066666667, "bike_id": "7650f36d71a8b8d7e4bff78805be7418", "type": "electric_scooter", "name": "7650f36d71a8b8d7e4bff78805be7418"}, {"is_disabled": 0, "is_reserved": 0, "fusion_lat": 0.0, "lat": 38.923141666666666, "fusion_lon": 0.0, "rental_uris": {"ios": "https://dc.lft.to/lastmile_qr_scan", "android": "https://dc.lft.to/lastmile_qr_scan"}, "lon": -77.0289875, "bike_id": "12e72235ada7d7e52bb2baee4d7717fe", "type": "electric_scooter", "name": "12e72235ada7d7e52bb2baee4d7717fe"}, {"is_disabled": 0, "is_reserved": 0, "fusion_lat": 0.0, "lat": 38.892481333333336, "fusion_lon": 0.0, "rental_uris": {"ios": "https://dc.lft.to/lastmile_qr_scan", "android": "https://dc.lft.to/lastmile_qr_scan"}, "lon": -77.03957666666666, "bike_id": "c859257a29e27c9d8a1bd10f75f159bf", "type": "electric_scooter", "name": "c859257a29e27c9d8a1bd10f75f159bf"}, {"is_disabled": 0, "is_reserved": 0, "fusion_lat": 0.0, "lat": 38.911651666666664, "fusion_lon": 0.0, "rental_uris": {"ios": "https://dc.lft.to/lastmile_qr_scan", "android": "https://dc.lft.to/lastmile_qr_scan"}, "lon": -77.02196166666667, "bike_id": "bc2c5f6186a428b9d4052c0b9a58ab60", "type": "electric_scooter", "name": "bc2c5f6186a428b9d4052c0b9a58ab60"}, {"is_disabled": 0, "is_reserved": 0, "fusion_lat": 0.0, "lat": 38.852534666666664, "fusion_lon": 0.0, "rental_uris": {"ios": "https://dc.lft.to/lastmile_qr_scan", "android": "https://dc.lft.to/lastmile_qr_scan"}, "lon": -77.11405733333334, "bike_id": "5e702d22cc59f728f6da1d344eb906e8", "type": "electric_bike", "name": "5e702d22cc59f728f6da1d344eb906e8"}, {"is_disabled": 0, "is_reserved": 0, "fusion_lat": 0.0, "lat": 38.91263816666667, "fusion_lon": 0.0, "rental_uris": {"ios": "https://dc.lft.to/lastmile_qr_scan", "android": "https://dc.lft.to/lastmile_qr_scan"}, "lon": -77.02251133333333, "bike_id": "3a50c4ee7da902c5d050f84082158641", "type": "electric_scooter", "name": "3a50c4ee7da902c5d050f84082158641"}, {"is_disabled": 0, "is_reserved": 0, "fusion_lat": 0.0, "lat": 38.9121355, "fusion_lon": 0.0, "rental_uris": {"ios": "https://dc.lft.to/lastmile_qr_scan", "android": "https://dc.lft.to/lastmile_qr_scan"}, "lon": -77.032068, "bike_id": "596bc62224e28b8c14bf9693734f562a", "type": "electric_scooter", "name": "596bc62224e28b8c14bf9693734f562a"}, {"is_disabled": 0, "is_reserved": 0, "fusion_lat": 0.0, "lat": 38.8996805, "fusion_lon": 0.0, "rental_uris": {"ios": "https://dc.lft.to/lastmile_qr_scan", "android": "https://dc.lft.to/lastmile_qr_scan"}, "lon": -77.05492166666667, "bike_id": "b78ca0b7f674dfa17345c3461798f3b6", "type": "electric_scooter", "name": "b78ca0b7f674dfa17345c3461798f3b6"}, {"is_disabled": 0, "is_reserved": 0, "fusion_lat": 0.0, "lat": 38.892357833333335, "fusion_lon": 0.0, "rental_uris": {"ios": "https://dc.lft.to/lastmile_qr_scan", "android": "https://dc.lft.to/lastmile_qr_scan"}, "lon": -77.0319205, "bike_id": "3d0d22a8349646edb682f71da6fe23ba", "type": "electric_scooter", "name": "3d0d22a8349646edb682f71da6fe23ba"}, {"is_disabled": 0, "is_reserved": 0, "fusion_lat": 0.0, "lat": 38.92064283333333, "fusion_lon": 0.0, "rental_uris": {"ios": "https://dc.lft.to/lastmile_qr_scan", "android": "https://dc.lft.to/lastmile_qr_scan"}, "lon": -77.0244465, "bike_id": "34a87391c7e58b6d06a082e28aff9b8d", "type": "electric_scooter", "name": "34a87391c7e58b6d06a082e28aff9b8d"}, {"is_disabled": 0, "is_reserved": 0, "fusion_lat": 0.0, "lat": 38.87648433333333, "fusion_lon": 0.0, "rental_uris": {"ios": "https://dc.lft.to/lastmile_qr_scan", "android": "https://dc.lft.to/lastmile_qr_scan"}, "lon": -77.007983, "bike_id": "f15f413973dce90f5742b8d483dddf27", "type": "electric_scooter", "name": "f15f413973dce90f5742b8d483dddf27"}, {"is_disabled": 0, "is_reserved": 0, "fusion_lat": 0.0, "lat": 38.89727466666667, "fusion_lon": 0.0, "rental_uris": {"ios": "https://dc.lft.to/lastmile_qr_scan", "android": "https://dc.lft.to/lastmile_qr_scan"}, "lon": -77.04370333333334, "bike_id": "c513e027d1e072ad94d3b744be0aedc6", "type": "electric_scooter", "name": "c513e027d1e072ad94d3b744be0aedc6"}, {"is_disabled": 0, "is_reserved": 0, "fusion_lat": 0.0, "lat": 38.93011583333333, "fusion_lon": 0.0, "rental_uris": {"ios": "https://dc.lft.to/lastmile_qr_scan", "android": "https://dc.lft.to/lastmile_qr_scan"}, "lon": -77.02402616666667, "bike_id": "18b66e0fb65f62acc65f2b7f02c39986", "type": "electric_scooter", "name": "18b66e0fb65f62acc65f2b7f02c39986"}, {"is_disabled": 0, "is_reserved": 0, "fusion_lat": 0.0, "lat": 38.8982455, "fusion_lon": 0.0, "rental_uris": {"ios": "https://dc.lft.to/lastmile_qr_scan", "android": "https://dc.lft.to/lastmile_qr_scan"}, "lon": -77.02482, "bike_id": "1da1a1c05ec5ade5c90986751b20cec1", "type": "electric_scooter", "name": "1da1a1c05ec5ade5c90986751b20cec1"}, {"is_disabled": 0, "is_reserved": 0, "fusion_lat": 0.0, "lat": 38.86686233333333, "fusion_lon": 0.0, "rental_uris": {"ios": "https://dc.lft.to/lastmile_qr_scan", "android": "https://dc.lft.to/lastmile_qr_scan"}, "lon": -77.01052866666667, "bike_id": "5be0bcf30de200b719e5c8800f36d62f", "type": "electric_scooter", "name": "5be0bcf30de200b719e5c8800f36d62f"}, {"is_disabled": 0, "is_reserved": 0, "fusion_lat": 0.0, "lat": 38.927468, "fusion_lon": 0.0, "rental_uris": {"ios": "https://dc.lft.to/lastmile_qr_scan", "android": "https://dc.lft.to/lastmile_qr_scan"}, "lon": -77.03304583333333, "bike_id": "48d73298af40092123b8d36714298da6", "type": "electric_scooter", "name": "48d73298af40092123b8d36714298da6"}, {"is_disabled": 0, "is_reserved": 0, "fusion_lat": 0.0, "lat": 38.87187216666667, "fusion_lon": 0.0, "rental_uris": {"ios": "https://dc.lft.to/lastmile_qr_scan", "android": "https://dc.lft.to/lastmile_qr_scan"}, "lon": -77.0058585, "bike_id": "4ba46f80a0668a4b677405b31fdd16ec", "type": "electric_scooter", "name": "4ba46f80a0668a4b677405b31fdd16ec"}, {"is_disabled": 0, "is_reserved": 0, "fusion_lat": 0.0, "lat": 38.8936435, "fusion_lon": 0.0, "rental_uris": {"ios": "https://dc.lft.to/lastmile_qr_scan", "android": "https://dc.lft.to/lastmile_qr_scan"}, "lon": -76.94109766666666, "bike_id": "c07f88cbf9320216434df44d9198c795", "type": "electric_scooter", "name": "c07f88cbf9320216434df44d9198c795"}, {"is_disabled": 0, "is_reserved": 0, "fusion_lat": 0.0, "lat": 38.885284, "fusion_lon": 0.0, "rental_uris": {"ios": "https://dc.lft.to/lastmile_qr_scan", "android": "https://dc.lft.to/lastmile_qr_scan"}, "lon": -76.99798166666666, "bike_id": "8fa8e54034ea7f0d2b8e5d79b73c720c", "type": "electric_scooter", "name": "8fa8e54034ea7f0d2b8e5d79b73c720c"}, {"is_disabled": 0, "is_reserved": 0, "fusion_lat": 0.0, "lat": 38.920088, "fusion_lon": 0.0, "rental_uris": {"ios": "https://dc.lft.to/lastmile_qr_scan", "android": "https://dc.lft.to/lastmile_qr_scan"}, "lon": -77.04182533333334, "bike_id": "34ebb12cb362383228c8a6800c40796d", "type": "electric_scooter", "name": "34ebb12cb362383228c8a6800c40796d"}, {"is_disabled": 0, "is_reserved": 0, "fusion_lat": 0.0, "lat": 38.807393833333336, "fusion_lon": 0.0, "rental_uris": {"ios": "https://dc.lft.to/lastmile_qr_scan", "android": "https://dc.lft.to/lastmile_qr_scan"}, "lon": -77.09689033333333, "bike_id": "0ddd847efd0dc15b95bcbfc21db0a1aa", "type": "electric_bike", "name": "0ddd847efd0dc15b95bcbfc21db0a1aa"}, {"is_disabled": 0, "is_reserved": 0, "fusion_lat": 0.0, "lat": 38.92016816666667, "fusion_lon": 0.0, "rental_uris": {"ios": "https://dc.lft.to/lastmile_qr_scan", "android": "https://dc.lft.to/lastmile_qr_scan"}, "lon": -77.0218655, "bike_id": "f95750ee53f0746625e76c9144da9f49", "type": "electric_scooter", "name": "f95750ee53f0746625e76c9144da9f49"}, {"is_disabled": 0, "is_reserved": 0, "fusion_lat": 0.0, "lat": 38.87176783333334, "fusion_lon": 0.0, "rental_uris": {"ios": "https://dc.lft.to/lastmile_qr_scan", "android": "https://dc.lft.to/lastmile_qr_scan"}, "lon": -77.23401383333334, "bike_id": "4bd3b76ae1f25bab36395254fe280f08", "type": "electric_bike", "name": "4bd3b76ae1f25bab36395254fe280f08"}, {"is_disabled": 0, "is_reserved": 0, "fusion_lat": 0.0, "lat": 38.8887425, "fusion_lon": 0.0, "rental_uris": {"ios": "https://dc.lft.to/lastmile_qr_scan", "android": "https://dc.lft.to/lastmile_qr_scan"}, "lon": -76.99039233333333, "bike_id": "c1c96bed91b853664fa9ae27441e9799", "type": "electric_scooter", "name": "c1c96bed91b853664fa9ae27441e9799"}, {"is_disabled": 0, "is_reserved": 0, "fusion_lat": 0.0, "lat": 38.953168, "fusion_lon": 0.0, "rental_uris": {"ios": "https://dc.lft.to/lastmile_qr_scan", "android": "https://dc.lft.to/lastmile_qr_scan"}, "lon": -76.994621, "bike_id": "65d2faa5907e129036cae080e9fd3419", "type": "electric_scooter", "name": "65d2faa5907e129036cae080e9fd3419"}, {"is_disabled": 0, "is_reserved": 0, "fusion_lat": 0.0, "lat": 38.89620383333333, "fusion_lon": 0.0, "rental_uris": {"ios": "https://dc.lft.to/lastmile_qr_scan", "android": "https://dc.lft.to/lastmile_qr_scan"}, "lon": -77.026733, "bike_id": "fd81ac7f9743d0f98b0a5be1c32af657", "type": "electric_scooter", "name": "fd81ac7f9743d0f98b0a5be1c32af657"}, {"is_disabled": 0, "is_reserved": 0, "fusion_lat": 0.0, "lat": 38.900725333333334, "fusion_lon": 0.0, "rental_uris": {"ios": "https://dc.lft.to/lastmile_qr_scan", "android": "https://dc.lft.to/lastmile_qr_scan"}, "lon": -77.0493955, "bike_id": "c62827928b4a08489af5352c00bfacb9", "type": "electric_scooter", "name": "c62827928b4a08489af5352c00bfacb9"}, {"is_disabled": 0, "is_reserved": 0, "fusion_lat": 0.0, "lat": 38.89992983333333, "fusion_lon": 0.0, "rental_uris": {"ios": "https://dc.lft.to/lastmile_qr_scan", "android": "https://dc.lft.to/lastmile_qr_scan"}, "lon": -77.00916183333334, "bike_id": "8c396efd472392c07b8f1658de1878ac", "type": "electric_scooter", "name": "8c396efd472392c07b8f1658de1878ac"}, {"is_disabled": 0, "is_reserved": 0, "fusion_lat": 0.0, "lat": 38.9241255, "fusion_lon": 0.0, "rental_uris": {"ios": "https://dc.lft.to/lastmile_qr_scan", "android": "https://dc.lft.to/lastmile_qr_scan"}, "lon": -77.02706516666667, "bike_id": "663fef77997b7f226e9c5743a5ec9659", "type": "electric_scooter", "name": "663fef77997b7f226e9c5743a5ec9659"}, {"is_disabled": 0, "is_reserved": 0, "fusion_lat": 0.0, "lat": 39.000022, "fusion_lon": 0.0, "rental_uris": {"ios": "https://dc.lft.to/lastmile_qr_scan", "android": "https://dc.lft.to/lastmile_qr_scan"}, "lon": -76.91805583333333, "bike_id": "4b41d68a2736227383a19074517c3f80", "type": "electric_bike", "name": "4b41d68a2736227383a19074517c3f80"}, {"is_disabled": 0, "is_reserved": 0, "fusion_lat": 0.0, "lat": 38.937029, "fusion_lon": 0.0, "rental_uris": {"ios": "https://dc.lft.to/lastmile_qr_scan", "android": "https://dc.lft.to/lastmile_qr_scan"}, "lon": -77.056028, "bike_id": "ef7afafde57fc7a41997b35b9bdf43b0", "type": "electric_scooter", "name": "ef7afafde57fc7a41997b35b9bdf43b0"}, {"is_disabled": 0, "is_reserved": 0, "fusion_lat": 0.0, "lat": 38.918135, "fusion_lon": 0.0, "rental_uris": {"ios": "https://dc.lft.to/lastmile_qr_scan", "android": "https://dc.lft.to/lastmile_qr_scan"}, "lon": -77.03981733333333, "bike_id": "f5fd0a879dd108d66f8af3eca7608171", "type": "electric_scooter", "name": "f5fd0a879dd108d66f8af3eca7608171"}, {"is_disabled": 0, "is_reserved": 0, "fusion_lat": 0.0, "lat": 38.899999, "fusion_lon": 0.0, "rental_uris": {"ios": "https://dc.lft.to/lastmile_qr_scan", "android": "https://dc.lft.to/lastmile_qr_scan"}, "lon": -77.0270085, "bike_id": "bb024e51b61ff02ac61155433a0f6222", "type": "electric_scooter", "name": "bb024e51b61ff02ac61155433a0f6222"}, {"is_disabled": 0, "is_reserved": 0, "fusion_lat": 0.0, "lat": 38.90252866666667, "fusion_lon": 0.0, "rental_uris": {"ios": "https://dc.lft.to/lastmile_qr_scan", "android": "https://dc.lft.to/lastmile_qr_scan"}, "lon": -76.97705833333333, "bike_id": "32906369e26450cd324f76e36a4f4212", "type": "electric_scooter", "name": "32906369e26450cd324f76e36a4f4212"}, {"is_disabled": 0, "is_reserved": 0, "fusion_lat": 0.0, "lat": 38.920193, "fusion_lon": 0.0, "rental_uris": {"ios": "https://dc.lft.to/lastmile_qr_scan", "android": "https://dc.lft.to/lastmile_qr_scan"}, "lon": -77.0217975, "bike_id": "32e5cd51bc444824edc4ca9022df1177", "type": "electric_scooter", "name": "32e5cd51bc444824edc4ca9022df1177"}, {"is_disabled": 0, "is_reserved": 0, "fusion_lat": 0.0, "lat": 38.90950016666667, "fusion_lon": 0.0, "rental_uris": {"ios": "https://dc.lft.to/lastmile_qr_scan", "android": "https://dc.lft.to/lastmile_qr_scan"}, "lon": -77.03182333333334, "bike_id": "f6206ff238412f7b9f79a04075f32dd3", "type": "electric_scooter", "name": "f6206ff238412f7b9f79a04075f32dd3"}, {"is_disabled": 0, "is_reserved": 0, "fusion_lat": 0.0, "lat": 38.91857616666667, "fusion_lon": 0.0, "rental_uris": {"ios": "https://dc.lft.to/lastmile_qr_scan", "android": "https://dc.lft.to/lastmile_qr_scan"}, "lon": -76.960895, "bike_id": "9dbafb8df8597861bb068f1d3eec0269", "type": "electric_scooter", "name": "9dbafb8df8597861bb068f1d3eec0269"}, {"is_disabled": 0, "is_reserved": 0, "fusion_lat": 0.0, "lat": 38.8901125, "fusion_lon": 0.0, "rental_uris": {"ios": "https://dc.lft.to/lastmile_qr_scan", "android": "https://dc.lft.to/lastmile_qr_scan"}, "lon": -76.93741033333333, "bike_id": "c9ef1647544a3008b5c96f5414b211e4", "type": "electric_scooter", "name": "c9ef1647544a3008b5c96f5414b211e4"}, {"is_disabled": 0, "is_reserved": 0, "fusion_lat": 0.0, "lat": 38.909712666666664, "fusion_lon": 0.0, "rental_uris": {"ios": "https://dc.lft.to/lastmile_qr_scan", "android": "https://dc.lft.to/lastmile_qr_scan"}, "lon": -77.04833483333333, "bike_id": "255d48eaa7c1ca168de17794751685ce", "type": "electric_scooter", "name": "255d48eaa7c1ca168de17794751685ce"}, {"is_disabled": 0, "is_reserved": 0, "fusion_lat": 0.0, "lat": 38.89413533333333, "fusion_lon": 0.0, "rental_uris": {"ios": "https://dc.lft.to/lastmile_qr_scan", "android": "https://dc.lft.to/lastmile_qr_scan"}, "lon": -77.03381083333333, "bike_id": "680f256ba078fa2ea3ce848a3a1d1335", "type": "electric_scooter", "name": "680f256ba078fa2ea3ce848a3a1d1335"}, {"is_disabled": 0, "is_reserved": 0, "fusion_lat": 0.0, "lat": 38.91489833333333, "fusion_lon": 0.0, "rental_uris": {"ios": "https://dc.lft.to/lastmile_qr_scan", "android": "https://dc.lft.to/lastmile_qr_scan"}, "lon": -77.022009, "bike_id": "871201b4a8e1d9c54a5ab9a89d5cdf6a", "type": "electric_scooter", "name": "871201b4a8e1d9c54a5ab9a89d5cdf6a"}, {"is_disabled": 0, "is_reserved": 0, "fusion_lat": 0.0, "lat": 38.920390833333336, "fusion_lon": 0.0, "rental_uris": {"ios": "https://dc.lft.to/lastmile_qr_scan", "android": "https://dc.lft.to/lastmile_qr_scan"}, "lon": -77.0260285, "bike_id": "defcb8f2c80d6422a88408c86c97910d", "type": "electric_scooter", "name": "defcb8f2c80d6422a88408c86c97910d"}, {"is_disabled": 0, "is_reserved": 0, "fusion_lat": 0.0, "lat": 38.93637483333333, "fusion_lon": 0.0, "rental_uris": {"ios": "https://dc.lft.to/lastmile_qr_scan", "android": "https://dc.lft.to/lastmile_qr_scan"}, "lon": -77.0326225, "bike_id": "e46fd9317750e0ec7e29bce9e11c187e", "type": "electric_scooter", "name": "e46fd9317750e0ec7e29bce9e11c187e"}, {"is_disabled": 0, "is_reserved": 0, "fusion_lat": 0.0, "lat": 39.01068883333333, "fusion_lon": 0.0, "rental_uris": {"ios": "https://dc.lft.to/lastmile_qr_scan", "android": "https://dc.lft.to/lastmile_qr_scan"}, "lon": -76.92244666666667, "bike_id": "7253374ed1462598045bf51e6c3214db", "type": "electric_bike", "name": "7253374ed1462598045bf51e6c3214db"}, {"is_disabled": 0, "is_reserved": 0, "fusion_lat": 0.0, "lat": 38.883012, "fusion_lon": 0.0, "rental_uris": {"ios": "https://dc.lft.to/lastmile_qr_scan", "android": "https://dc.lft.to/lastmile_qr_scan"}, "lon": -77.02558616666667, "bike_id": "ca39531d432320c7f54cb9e79de1a8c6", "type": "electric_scooter", "name": "ca39531d432320c7f54cb9e79de1a8c6"}, {"is_disabled": 0, "is_reserved": 0, "fusion_lat": 0.0, "lat": 38.8784235, "fusion_lon": 0.0, "rental_uris": {"ios": "https://dc.lft.to/lastmile_qr_scan", "android": "https://dc.lft.to/lastmile_qr_scan"}, "lon": -76.93135516666666, "bike_id": "4e764572b04d030f7de3ef8e7f52aab7", "type": "electric_scooter", "name": "4e764572b04d030f7de3ef8e7f52aab7"}, {"is_disabled": 0, "is_reserved": 0, "fusion_lat": 0.0, "lat": 38.8992805, "fusion_lon": 0.0, "rental_uris": {"ios": "https://dc.lft.to/lastmile_qr_scan", "android": "https://dc.lft.to/lastmile_qr_scan"}, "lon": -77.00161966666667, "bike_id": "98cc3a5dbe97f774eff0567c0fc6e3d1", "type": "electric_bike", "name": "98cc3a5dbe97f774eff0567c0fc6e3d1"}, {"is_disabled": 0, "is_reserved": 0, "fusion_lat": 0.0, "lat": 38.91688666666667, "fusion_lon": 0.0, "rental_uris": {"ios": "https://dc.lft.to/lastmile_qr_scan", "android": "https://dc.lft.to/lastmile_qr_scan"}, "lon": -77.02522483333334, "bike_id": "2b6092ceee033542e5e4a77cd66f6b9a", "type": "electric_scooter", "name": "2b6092ceee033542e5e4a77cd66f6b9a"}, {"is_disabled": 0, "is_reserved": 0, "fusion_lat": 0.0, "lat": 38.91844283333333, "fusion_lon": 0.0, "rental_uris": {"ios": "https://dc.lft.to/lastmile_qr_scan", "android": "https://dc.lft.to/lastmile_qr_scan"}, "lon": -77.02315066666667, "bike_id": "1e31b4fb906867622ec67d2b831192b4", "type": "electric_scooter", "name": "1e31b4fb906867622ec67d2b831192b4"}, {"is_disabled": 0, "is_reserved": 0, "fusion_lat": 0.0, "lat": 38.93863266666666, "fusion_lon": 0.0, "rental_uris": {"ios": "https://dc.lft.to/lastmile_qr_scan", "android": "https://dc.lft.to/lastmile_qr_scan"}, "lon": -77.02629166666667, "bike_id": "2ae9ad3486cae49d08612e837ae8e454", "type": "electric_bike", "name": "2ae9ad3486cae49d08612e837ae8e454"}, {"is_disabled": 0, "is_reserved": 0, "fusion_lat": 0.0, "lat": 38.9231945, "fusion_lon": 0.0, "rental_uris": {"ios": "https://dc.lft.to/lastmile_qr_scan", "android": "https://dc.lft.to/lastmile_qr_scan"}, "lon": -77.028078, "bike_id": "1bc45c63937ca2fe6b37bbf64cc4cd01", "type": "electric_scooter", "name": "1bc45c63937ca2fe6b37bbf64cc4cd01"}, {"is_disabled": 0, "is_reserved": 0, "fusion_lat": 0.0, "lat": 38.9112025, "fusion_lon": 0.0, "rental_uris": {"ios": "https://dc.lft.to/lastmile_qr_scan", "android": "https://dc.lft.to/lastmile_qr_scan"}, "lon": -77.03834533333334, "bike_id": "8720660f2eb68b7f5cc7f60e5b057ca4", "type": "electric_scooter", "name": "8720660f2eb68b7f5cc7f60e5b057ca4"}, {"is_disabled": 0, "is_reserved": 0, "fusion_lat": 0.0, "lat": 38.857834833333335, "fusion_lon": 0.0, "rental_uris": {"ios": "https://dc.lft.to/lastmile_qr_scan", "android": "https://dc.lft.to/lastmile_qr_scan"}, "lon": -76.98762033333334, "bike_id": "cc7c20fa75748a1f7028e5edce04d004", "type": "electric_bike", "name": "cc7c20fa75748a1f7028e5edce04d004"}, {"is_disabled": 0, "is_reserved": 0, "fusion_lat": 0.0, "lat": 38.897540666666664, "fusion_lon": 0.0, "rental_uris": {"ios": "https://dc.lft.to/lastmile_qr_scan", "android": "https://dc.lft.to/lastmile_qr_scan"}, "lon": -77.027141, "bike_id": "a34adf6ff14eae93466c0af9be77c96d", "type": "electric_scooter", "name": "a34adf6ff14eae93466c0af9be77c96d"}, {"is_disabled": 0, "is_reserved": 0, "fusion_lat": 0.0, "lat": 38.918171666666666, "fusion_lon": 0.0, "rental_uris": {"ios": "https://dc.lft.to/lastmile_qr_scan", "android": "https://dc.lft.to/lastmile_qr_scan"}, "lon": -77.03996766666667, "bike_id": "045a99a01aba062a2e98ffcdb08211f9", "type": "electric_scooter", "name": "045a99a01aba062a2e98ffcdb08211f9"}, {"is_disabled": 0, "is_reserved": 0, "fusion_lat": 0.0, "lat": 38.9241245, "fusion_lon": 0.0, "rental_uris": {"ios": "https://dc.lft.to/lastmile_qr_scan", "android": "https://dc.lft.to/lastmile_qr_scan"}, "lon": -77.02711816666667, "bike_id": "a382c44ad7c876565f9c0f182d3da3b3", "type": "electric_scooter", "name": "a382c44ad7c876565f9c0f182d3da3b3"}, {"is_disabled": 0, "is_reserved": 0, "fusion_lat": 0.0, "lat": 38.858399166666665, "fusion_lon": 0.0, "rental_uris": {"ios": "https://dc.lft.to/lastmile_qr_scan", "android": "https://dc.lft.to/lastmile_qr_scan"}, "lon": -76.9881895, "bike_id": "c4c6333b35eb0793ad799a61260571e6", "type": "electric_scooter", "name": "c4c6333b35eb0793ad799a61260571e6"}, {"is_disabled": 0, "is_reserved": 0, "fusion_lat": 0.0, "lat": 38.890358, "fusion_lon": 0.0, "rental_uris": {"ios": "https://dc.lft.to/lastmile_qr_scan", "android": "https://dc.lft.to/lastmile_qr_scan"}, "lon": -77.029807, "bike_id": "e98b8528a8241b245993c731b584dea4", "type": "electric_scooter", "name": "e98b8528a8241b245993c731b584dea4"}, {"is_disabled": 0, "is_reserved": 0, "fusion_lat": 0.0, "lat": 38.885296833333335, "fusion_lon": 0.0, "rental_uris": {"ios": "https://dc.lft.to/lastmile_qr_scan", "android": "https://dc.lft.to/lastmile_qr_scan"}, "lon": -76.99606666666666, "bike_id": "2f290237e5a36145aef243186eef2124", "type": "electric_scooter", "name": "2f290237e5a36145aef243186eef2124"}, {"is_disabled": 0, "is_reserved": 0, "fusion_lat": 0.0, "lat": 38.881070666666666, "fusion_lon": 0.0, "rental_uris": {"ios": "https://dc.lft.to/lastmile_qr_scan", "android": "https://dc.lft.to/lastmile_qr_scan"}, "lon": -77.012313, "bike_id": "30e6f9bab287f524d1482752cc3df130", "type": "electric_scooter", "name": "30e6f9bab287f524d1482752cc3df130"}, {"is_disabled": 0, "is_reserved": 0, "fusion_lat": 0.0, "lat": 38.9005785, "fusion_lon": 0.0, "rental_uris": {"ios": "https://dc.lft.to/lastmile_qr_scan", "android": "https://dc.lft.to/lastmile_qr_scan"}, "lon": -77.04889083333333, "bike_id": "d04a6defd80c0f22047c34d6ea048fde", "type": "electric_scooter", "name": "d04a6defd80c0f22047c34d6ea048fde"}, {"is_disabled": 0, "is_reserved": 0, "fusion_lat": 0.0, "lat": 38.898627833333336, "fusion_lon": 0.0, "rental_uris": {"ios": "https://dc.lft.to/lastmile_qr_scan", "android": "https://dc.lft.to/lastmile_qr_scan"}, "lon": -77.04879133333333, "bike_id": "5e16852ba3dd1ceb0006682823d023bb", "type": "electric_scooter", "name": "5e16852ba3dd1ceb0006682823d023bb"}, {"is_disabled": 0, "is_reserved": 0, "fusion_lat": 0.0, "lat": 39.00533983333333, "fusion_lon": 0.0, "rental_uris": {"ios": "https://dc.lft.to/lastmile_qr_scan", "android": "https://dc.lft.to/lastmile_qr_scan"}, "lon": -77.10401816666666, "bike_id": "628e657c390536e0cc662e2afda0dea1", "type": "electric_bike", "name": "628e657c390536e0cc662e2afda0dea1"}, {"is_disabled": 0, "is_reserved": 0, "fusion_lat": 0.0, "lat": 38.906674333333335, "fusion_lon": 0.0, "rental_uris": {"ios": "https://dc.lft.to/lastmile_qr_scan", "android": "https://dc.lft.to/lastmile_qr_scan"}, "lon": -77.00973233333333, "bike_id": "fa86f6345160e2f458322a730d2f43e2", "type": "electric_scooter", "name": "fa86f6345160e2f458322a730d2f43e2"}, {"is_disabled": 0, "is_reserved": 0, "fusion_lat": 0.0, "lat": 38.877393166666664, "fusion_lon": 0.0, "rental_uris": {"ios": "https://dc.lft.to/lastmile_qr_scan", "android": "https://dc.lft.to/lastmile_qr_scan"}, "lon": -77.14872683333333, "bike_id": "adbc2875bfc54caac71a6820f84afee8", "type": "electric_bike", "name": "adbc2875bfc54caac71a6820f84afee8"}, {"is_disabled": 0, "is_reserved": 0, "fusion_lat": 0.0, "lat": 38.973700666666666, "fusion_lon": 0.0, "rental_uris": {"ios": "https://dc.lft.to/lastmile_qr_scan", "android": "https://dc.lft.to/lastmile_qr_scan"}, "lon": -77.018666, "bike_id": "dc91920c06cb61e7ef17fb6224380e7e", "type": "electric_scooter", "name": "dc91920c06cb61e7ef17fb6224380e7e"}, {"is_disabled": 0, "is_reserved": 0, "fusion_lat": 0.0, "lat": 38.90772716666667, "fusion_lon": 0.0, "rental_uris": {"ios": "https://dc.lft.to/lastmile_qr_scan", "android": "https://dc.lft.to/lastmile_qr_scan"}, "lon": -77.0453545, "bike_id": "7684bbd2feac147f3d7a46cf82664fed", "type": "electric_scooter", "name": "7684bbd2feac147f3d7a46cf82664fed"}, {"is_disabled": 0, "is_reserved": 0, "fusion_lat": 0.0, "lat": 38.923325, "fusion_lon": 0.0, "rental_uris": {"ios": "https://dc.lft.to/lastmile_qr_scan", "android": "https://dc.lft.to/lastmile_qr_scan"}, "lon": -77.04663533333333, "bike_id": "22aa440976bbaffeb4e45b10b1644cb7", "type": "electric_scooter", "name": "22aa440976bbaffeb4e45b10b1644cb7"}, {"is_disabled": 0, "is_reserved": 0, "fusion_lat": 0.0, "lat": 38.914174833333334, "fusion_lon": 0.0, "rental_uris": {"ios": "https://dc.lft.to/lastmile_qr_scan", "android": "https://dc.lft.to/lastmile_qr_scan"}, "lon": -77.02211266666667, "bike_id": "b0ced544026f9aafc4042d8c11887b8a", "type": "electric_scooter", "name": "b0ced544026f9aafc4042d8c11887b8a"}, {"is_disabled": 0, "is_reserved": 0, "fusion_lat": 0.0, "lat": 38.850841, "fusion_lon": 0.0, "rental_uris": {"ios": "https://dc.lft.to/lastmile_qr_scan", "android": "https://dc.lft.to/lastmile_qr_scan"}, "lon": -76.981262, "bike_id": "8993f32de2c8fe9f267ab0bce9965447", "type": "electric_bike", "name": "8993f32de2c8fe9f267ab0bce9965447"}, {"is_disabled": 0, "is_reserved": 0, "fusion_lat": 0.0, "lat": 38.905336, "fusion_lon": 0.0, "rental_uris": {"ios": "https://dc.lft.to/lastmile_qr_scan", "android": "https://dc.lft.to/lastmile_qr_scan"}, "lon": -77.05159133333333, "bike_id": "72b14892e13e92405e6fb5297a02f5ab", "type": "electric_scooter", "name": "72b14892e13e92405e6fb5297a02f5ab"}, {"is_disabled": 0, "is_reserved": 0, "fusion_lat": 0.0, "lat": 38.921391666666665, "fusion_lon": 0.0, "rental_uris": {"ios": "https://dc.lft.to/lastmile_qr_scan", "android": "https://dc.lft.to/lastmile_qr_scan"}, "lon": -77.03663116666667, "bike_id": "f96fea2b9468183aeae3f351e4a9fec3", "type": "electric_scooter", "name": "f96fea2b9468183aeae3f351e4a9fec3"}, {"is_disabled": 0, "is_reserved": 0, "fusion_lat": 0.0, "lat": 38.91836133333334, "fusion_lon": 0.0, "rental_uris": {"ios": "https://dc.lft.to/lastmile_qr_scan", "android": "https://dc.lft.to/lastmile_qr_scan"}, "lon": -77.05322383333333, "bike_id": "3e3188fc7010f74959b4d80cc939c6bc", "type": "electric_scooter", "name": "3e3188fc7010f74959b4d80cc939c6bc"}, {"is_disabled": 0, "is_reserved": 0, "fusion_lat": 0.0, "lat": 38.89238483333333, "fusion_lon": 0.0, "rental_uris": {"ios": "https://dc.lft.to/lastmile_qr_scan", "android": "https://dc.lft.to/lastmile_qr_scan"}, "lon": -77.0318055, "bike_id": "3f91ab9536317f61780f79f5d1d4096a", "type": "electric_scooter", "name": "3f91ab9536317f61780f79f5d1d4096a"}, {"is_disabled": 0, "is_reserved": 0, "fusion_lat": 0.0, "lat": 38.90280033333333, "fusion_lon": 0.0, "rental_uris": {"ios": "https://dc.lft.to/lastmile_qr_scan", "android": "https://dc.lft.to/lastmile_qr_scan"}, "lon": -77.05999716666666, "bike_id": "d699991ea3c0506a2fce92ed0b4d8f36", "type": "electric_bike", "name": "d699991ea3c0506a2fce92ed0b4d8f36"}, {"is_disabled": 0, "is_reserved": 0, "fusion_lat": 0.0, "lat": 38.92134566666667, "fusion_lon": 0.0, "rental_uris": {"ios": "https://dc.lft.to/lastmile_qr_scan", "android": "https://dc.lft.to/lastmile_qr_scan"}, "lon": -77.0457015, "bike_id": "2550ee44f8ac2a9d0edd99eb5d13882d", "type": "electric_scooter", "name": "2550ee44f8ac2a9d0edd99eb5d13882d"}, {"is_disabled": 0, "is_reserved": 0, "fusion_lat": 0.0, "lat": 38.905092833333335, "fusion_lon": 0.0, "rental_uris": {"ios": "https://dc.lft.to/lastmile_qr_scan", "android": "https://dc.lft.to/lastmile_qr_scan"}, "lon": -77.06017366666667, "bike_id": "a347a09ce79cf5e3d4ef60408dde99ef", "type": "electric_scooter", "name": "a347a09ce79cf5e3d4ef60408dde99ef"}, {"is_disabled": 0, "is_reserved": 0, "fusion_lat": 0.0, "lat": 38.91136633333333, "fusion_lon": 0.0, "rental_uris": {"ios": "https://dc.lft.to/lastmile_qr_scan", "android": "https://dc.lft.to/lastmile_qr_scan"}, "lon": -77.02196766666667, "bike_id": "a9629dd0a67e17baa396e0365d08efb0", "type": "electric_scooter", "name": "a9629dd0a67e17baa396e0365d08efb0"}, {"is_disabled": 0, "is_reserved": 0, "fusion_lat": 0.0, "lat": 38.904435, "fusion_lon": 0.0, "rental_uris": {"ios": "https://dc.lft.to/lastmile_qr_scan", "android": "https://dc.lft.to/lastmile_qr_scan"}, "lon": -77.03084766666667, "bike_id": "6cf50bf09bf67bbda8149d3662eb568a", "type": "electric_scooter", "name": "6cf50bf09bf67bbda8149d3662eb568a"}, {"is_disabled": 0, "is_reserved": 0, "fusion_lat": 0.0, "lat": 38.8843785, "fusion_lon": 0.0, "rental_uris": {"ios": "https://dc.lft.to/lastmile_qr_scan", "android": "https://dc.lft.to/lastmile_qr_scan"}, "lon": -77.02509633333334, "bike_id": "9ebe6ba2cd6fe8e5b3b3a4034ef73a33", "type": "electric_scooter", "name": "9ebe6ba2cd6fe8e5b3b3a4034ef73a33"}, {"is_disabled": 0, "is_reserved": 0, "fusion_lat": 0.0, "lat": 38.9260915, "fusion_lon": 0.0, "rental_uris": {"ios": "https://dc.lft.to/lastmile_qr_scan", "android": "https://dc.lft.to/lastmile_qr_scan"}, "lon": -77.0796845, "bike_id": "a52f84ed1871f1c3e506316f679ba425", "type": "electric_scooter", "name": "a52f84ed1871f1c3e506316f679ba425"}, {"is_disabled": 0, "is_reserved": 0, "fusion_lat": 0.0, "lat": 38.93080716666667, "fusion_lon": 0.0, "rental_uris": {"ios": "https://dc.lft.to/lastmile_qr_scan", "android": "https://dc.lft.to/lastmile_qr_scan"}, "lon": -77.02352233333333, "bike_id": "2ec0743f9d244492d167e5460b1f1430", "type": "electric_scooter", "name": "2ec0743f9d244492d167e5460b1f1430"}, {"is_disabled": 0, "is_reserved": 0, "fusion_lat": 0.0, "lat": 38.918382, "fusion_lon": 0.0, "rental_uris": {"ios": "https://dc.lft.to/lastmile_qr_scan", "android": "https://dc.lft.to/lastmile_qr_scan"}, "lon": -77.04173616666667, "bike_id": "489c6d6d9862cb94b4aff15fbb567b1f", "type": "electric_scooter", "name": "489c6d6d9862cb94b4aff15fbb567b1f"}, {"is_disabled": 0, "is_reserved": 0, "fusion_lat": 0.0, "lat": 38.83412666666667, "fusion_lon": 0.0, "rental_uris": {"ios": "https://dc.lft.to/lastmile_qr_scan", "android": "https://dc.lft.to/lastmile_qr_scan"}, "lon": -77.05009683333333, "bike_id": "bad2d3d0b1309f71c4a5a9a0f06ed45f", "type": "electric_bike", "name": "bad2d3d0b1309f71c4a5a9a0f06ed45f"}, {"is_disabled": 0, "is_reserved": 0, "fusion_lat": 0.0, "lat": 38.94922583333334, "fusion_lon": 0.0, "rental_uris": {"ios": "https://dc.lft.to/lastmile_qr_scan", "android": "https://dc.lft.to/lastmile_qr_scan"}, "lon": -77.023131, "bike_id": "35767cc31962b19321f04d2b002930a0", "type": "electric_scooter", "name": "35767cc31962b19321f04d2b002930a0"}, {"is_disabled": 0, "is_reserved": 0, "fusion_lat": 0.0, "lat": 38.88481, "fusion_lon": 0.0, "rental_uris": {"ios": "https://dc.lft.to/lastmile_qr_scan", "android": "https://dc.lft.to/lastmile_qr_scan"}, "lon": -77.02640833333334, "bike_id": "2ef24edc2c77fa2eeec738e5ccb65832", "type": "electric_scooter", "name": "2ef24edc2c77fa2eeec738e5ccb65832"}, {"is_disabled": 0, "is_reserved": 0, "fusion_lat": 0.0, "lat": 38.900769833333335, "fusion_lon": 0.0, "rental_uris": {"ios": "https://dc.lft.to/lastmile_qr_scan", "android": "https://dc.lft.to/lastmile_qr_scan"}, "lon": -77.02216116666666, "bike_id": "899d3c1e11eb58e9d46d233a80533198", "type": "electric_scooter", "name": "899d3c1e11eb58e9d46d233a80533198"}, {"is_disabled": 0, "is_reserved": 0, "fusion_lat": 0.0, "lat": 38.8834805, "fusion_lon": 0.0, "rental_uris": {"ios": "https://dc.lft.to/lastmile_qr_scan", "android": "https://dc.lft.to/lastmile_qr_scan"}, "lon": -76.99487316666666, "bike_id": "4d36868b648acf4535eb3ffeb5f37593", "type": "electric_scooter", "name": "4d36868b648acf4535eb3ffeb5f37593"}, {"is_disabled": 0, "is_reserved": 0, "fusion_lat": 0.0, "lat": 38.897494333333334, "fusion_lon": 0.0, "rental_uris": {"ios": "https://dc.lft.to/lastmile_qr_scan", "android": "https://dc.lft.to/lastmile_qr_scan"}, "lon": -77.0453145, "bike_id": "1b1218ac5f3c5bb61bac7dd7582db0f4", "type": "electric_scooter", "name": "1b1218ac5f3c5bb61bac7dd7582db0f4"}, {"is_disabled": 0, "is_reserved": 0, "fusion_lat": 0.0, "lat": 38.897553333333335, "fusion_lon": 0.0, "rental_uris": {"ios": "https://dc.lft.to/lastmile_qr_scan", "android": "https://dc.lft.to/lastmile_qr_scan"}, "lon": -77.02138666666667, "bike_id": "a8c3479558fe56d799d47b256293f5f2", "type": "electric_scooter", "name": "a8c3479558fe56d799d47b256293f5f2"}, {"is_disabled": 0, "is_reserved": 0, "fusion_lat": 0.0, "lat": 38.92798466666667, "fusion_lon": 0.0, "rental_uris": {"ios": "https://dc.lft.to/lastmile_qr_scan", "android": "https://dc.lft.to/lastmile_qr_scan"}, "lon": -77.02599816666667, "bike_id": "157b6598e42202c722ab228a531077ed", "type": "electric_scooter", "name": "157b6598e42202c722ab228a531077ed"}, {"is_disabled": 0, "is_reserved": 0, "fusion_lat": 0.0, "lat": 38.949834833333334, "fusion_lon": 0.0, "rental_uris": {"ios": "https://dc.lft.to/lastmile_qr_scan", "android": "https://dc.lft.to/lastmile_qr_scan"}, "lon": -77.08081566666667, "bike_id": "08ea71faddf593ed7b41df4ba643dfd6", "type": "electric_scooter", "name": "08ea71faddf593ed7b41df4ba643dfd6"}, {"is_disabled": 0, "is_reserved": 0, "fusion_lat": 0.0, "lat": 38.906201, "fusion_lon": 0.0, "rental_uris": {"ios": "https://dc.lft.to/lastmile_qr_scan", "android": "https://dc.lft.to/lastmile_qr_scan"}, "lon": -77.03656333333333, "bike_id": "e8a2faa9bad0d9c46e5ede4a1406e3d7", "type": "electric_scooter", "name": "e8a2faa9bad0d9c46e5ede4a1406e3d7"}, {"is_disabled": 0, "is_reserved": 0, "fusion_lat": 0.0, "lat": 38.857187333333336, "fusion_lon": 0.0, "rental_uris": {"ios": "https://dc.lft.to/lastmile_qr_scan", "android": "https://dc.lft.to/lastmile_qr_scan"}, "lon": -76.98094466666667, "bike_id": "cd344e86d6da313d0d886a29e5830270", "type": "electric_scooter", "name": "cd344e86d6da313d0d886a29e5830270"}, {"is_disabled": 0, "is_reserved": 0, "fusion_lat": 0.0, "lat": 38.89872016666666, "fusion_lon": 0.0, "rental_uris": {"ios": "https://dc.lft.to/lastmile_qr_scan", "android": "https://dc.lft.to/lastmile_qr_scan"}, "lon": -76.946634, "bike_id": "4e76abc3908f79a27081018ed7a2d739", "type": "electric_scooter", "name": "4e76abc3908f79a27081018ed7a2d739"}, {"is_disabled": 0, "is_reserved": 0, "fusion_lat": 0.0, "lat": 38.89616133333333, "fusion_lon": 0.0, "rental_uris": {"ios": "https://dc.lft.to/lastmile_qr_scan", "android": "https://dc.lft.to/lastmile_qr_scan"}, "lon": -77.00604633333333, "bike_id": "39359b666ebb8c7591cf5563bc21de56", "type": "electric_scooter", "name": "39359b666ebb8c7591cf5563bc21de56"}, {"is_disabled": 0, "is_reserved": 0, "fusion_lat": 0.0, "lat": 38.89676883333333, "fusion_lon": 0.0, "rental_uris": {"ios": "https://dc.lft.to/lastmile_qr_scan", "android": "https://dc.lft.to/lastmile_qr_scan"}, "lon": -77.05465, "bike_id": "b1385247394e5d8378d4bf51bb8f90df", "type": "electric_scooter", "name": "b1385247394e5d8378d4bf51bb8f90df"}, {"is_disabled": 0, "is_reserved": 0, "fusion_lat": 0.0, "lat": 38.97598583333333, "fusion_lon": 0.0, "rental_uris": {"ios": "https://dc.lft.to/lastmile_qr_scan", "android": "https://dc.lft.to/lastmile_qr_scan"}, "lon": -77.01865533333333, "bike_id": "c3124c89d7376aaba9b0fde3761c57ca", "type": "electric_scooter", "name": "c3124c89d7376aaba9b0fde3761c57ca"}, {"is_disabled": 0, "is_reserved": 0, "fusion_lat": 0.0, "lat": 38.908631666666665, "fusion_lon": 0.0, "rental_uris": {"ios": "https://dc.lft.to/lastmile_qr_scan", "android": "https://dc.lft.to/lastmile_qr_scan"}, "lon": -77.05483033333333, "bike_id": "097d4da313ede4ce52abf73dc68a2e4e", "type": "electric_bike", "name": "097d4da313ede4ce52abf73dc68a2e4e"}, {"is_disabled": 0, "is_reserved": 0, "fusion_lat": 0.0, "lat": 38.892375666666666, "fusion_lon": 0.0, "rental_uris": {"ios": "https://dc.lft.to/lastmile_qr_scan", "android": "https://dc.lft.to/lastmile_qr_scan"}, "lon": -77.03181716666667, "bike_id": "5708c46f1d03a04eac138e41453d68fd", "type": "electric_scooter", "name": "5708c46f1d03a04eac138e41453d68fd"}, {"is_disabled": 0, "is_reserved": 0, "fusion_lat": 0.0, "lat": 38.98716833333334, "fusion_lon": 0.0, "rental_uris": {"ios": "https://dc.lft.to/lastmile_qr_scan", "android": "https://dc.lft.to/lastmile_qr_scan"}, "lon": -77.037647, "bike_id": "35a071be4a91412a84c7e453228eac5d", "type": "electric_bike", "name": "35a071be4a91412a84c7e453228eac5d"}, {"is_disabled": 0, "is_reserved": 0, "fusion_lat": 0.0, "lat": 38.897362, "fusion_lon": 0.0, "rental_uris": {"ios": "https://dc.lft.to/lastmile_qr_scan", "android": "https://dc.lft.to/lastmile_qr_scan"}, "lon": -77.0454425, "bike_id": "5282272f5316f615b2453aff9e5a2193", "type": "electric_scooter", "name": "5282272f5316f615b2453aff9e5a2193"}, {"is_disabled": 0, "is_reserved": 0, "fusion_lat": 0.0, "lat": 38.95085916666667, "fusion_lon": 0.0, "rental_uris": {"ios": "https://dc.lft.to/lastmile_qr_scan", "android": "https://dc.lft.to/lastmile_qr_scan"}, "lon": -77.012556, "bike_id": "8d88035fa6c3082b82d9c550c0d1c76c", "type": "electric_bike", "name": "8d88035fa6c3082b82d9c550c0d1c76c"}, {"is_disabled": 0, "is_reserved": 0, "fusion_lat": 0.0, "lat": 38.84299333333333, "fusion_lon": 0.0, "rental_uris": {"ios": "https://dc.lft.to/lastmile_qr_scan", "android": "https://dc.lft.to/lastmile_qr_scan"}, "lon": -77.06381416666666, "bike_id": "884e41e2c736a891487f71a80a4e5d45", "type": "electric_bike", "name": "884e41e2c736a891487f71a80a4e5d45"}, {"is_disabled": 0, "is_reserved": 0, "fusion_lat": 0.0, "lat": 38.9106395, "fusion_lon": 0.0, "rental_uris": {"ios": "https://dc.lft.to/lastmile_qr_scan", "android": "https://dc.lft.to/lastmile_qr_scan"}, "lon": -77.01996333333334, "bike_id": "bfe201c00a8300e0ba0ea8d30a12c5eb", "type": "electric_scooter", "name": "bfe201c00a8300e0ba0ea8d30a12c5eb"}, {"is_disabled": 0, "is_reserved": 0, "fusion_lat": 0.0, "lat": 38.86974983333333, "fusion_lon": 0.0, "rental_uris": {"ios": "https://dc.lft.to/lastmile_qr_scan", "android": "https://dc.lft.to/lastmile_qr_scan"}, "lon": -77.01385083333334, "bike_id": "8b02d2fd150bf9e497c146269ba014f6", "type": "electric_scooter", "name": "8b02d2fd150bf9e497c146269ba014f6"}, {"is_disabled": 0, "is_reserved": 0, "fusion_lat": 0.0, "lat": 38.91573316666667, "fusion_lon": 0.0, "rental_uris": {"ios": "https://dc.lft.to/lastmile_qr_scan", "android": "https://dc.lft.to/lastmile_qr_scan"}, "lon": -77.050388, "bike_id": "33c8317ca6972995418d09e3d125f449", "type": "electric_scooter", "name": "33c8317ca6972995418d09e3d125f449"}, {"is_disabled": 0, "is_reserved": 0, "fusion_lat": 0.0, "lat": 38.91013983333333, "fusion_lon": 0.0, "rental_uris": {"ios": "https://dc.lft.to/lastmile_qr_scan", "android": "https://dc.lft.to/lastmile_qr_scan"}, "lon": -77.031993, "bike_id": "027bdc4c9a75bbe3972ea136ec76c825", "type": "electric_scooter", "name": "027bdc4c9a75bbe3972ea136ec76c825"}, {"is_disabled": 0, "is_reserved": 0, "fusion_lat": 0.0, "lat": 38.91267633333333, "fusion_lon": 0.0, "rental_uris": {"ios": "https://dc.lft.to/lastmile_qr_scan", "android": "https://dc.lft.to/lastmile_qr_scan"}, "lon": -77.03295116666666, "bike_id": "1750cd48849c429b5c984f5d64259545", "type": "electric_scooter", "name": "1750cd48849c429b5c984f5d64259545"}, {"is_disabled": 0, "is_reserved": 0, "fusion_lat": 0.0, "lat": 38.868891166666664, "fusion_lon": 0.0, "rental_uris": {"ios": "https://dc.lft.to/lastmile_qr_scan", "android": "https://dc.lft.to/lastmile_qr_scan"}, "lon": -76.99001883333334, "bike_id": "46dd93d5968086b6aa9195a00ba4d4a5", "type": "electric_scooter", "name": "46dd93d5968086b6aa9195a00ba4d4a5"}, {"is_disabled": 0, "is_reserved": 0, "fusion_lat": 0.0, "lat": 38.896059666666666, "fusion_lon": 0.0, "rental_uris": {"ios": "https://dc.lft.to/lastmile_qr_scan", "android": "https://dc.lft.to/lastmile_qr_scan"}, "lon": -76.98316633333333, "bike_id": "3990a52fb7889619b7271b7471c1e206", "type": "electric_scooter", "name": "3990a52fb7889619b7271b7471c1e206"}, {"is_disabled": 0, "is_reserved": 0, "fusion_lat": 0.0, "lat": 38.82429, "fusion_lon": 0.0, "rental_uris": {"ios": "https://dc.lft.to/lastmile_qr_scan", "android": "https://dc.lft.to/lastmile_qr_scan"}, "lon": -77.12039666666666, "bike_id": "dddfb1e48b0da558a49c68828b8a70a3", "type": "electric_bike", "name": "dddfb1e48b0da558a49c68828b8a70a3"}, {"is_disabled": 0, "is_reserved": 0, "fusion_lat": 0.0, "lat": 38.897468, "fusion_lon": 0.0, "rental_uris": {"ios": "https://dc.lft.to/lastmile_qr_scan", "android": "https://dc.lft.to/lastmile_qr_scan"}, "lon": -77.02726533333333, "bike_id": "bb77ef04d2605128213556d8f15f842d", "type": "electric_scooter", "name": "bb77ef04d2605128213556d8f15f842d"}, {"is_disabled": 0, "is_reserved": 0, "fusion_lat": 0.0, "lat": 38.91701333333334, "fusion_lon": 0.0, "rental_uris": {"ios": "https://dc.lft.to/lastmile_qr_scan", "android": "https://dc.lft.to/lastmile_qr_scan"}, "lon": -77.02841666666667, "bike_id": "56ca0c87306ac57c82911f158c34774e", "type": "electric_scooter", "name": "56ca0c87306ac57c82911f158c34774e"}, {"is_disabled": 0, "is_reserved": 0, "fusion_lat": 0.0, "lat": 38.88221033333333, "fusion_lon": 0.0, "rental_uris": {"ios": "https://dc.lft.to/lastmile_qr_scan", "android": "https://dc.lft.to/lastmile_qr_scan"}, "lon": -76.99735783333334, "bike_id": "8b2e44aa3492756874981b0a18ed104a", "type": "electric_scooter", "name": "8b2e44aa3492756874981b0a18ed104a"}, {"is_disabled": 0, "is_reserved": 0, "fusion_lat": 0.0, "lat": 38.856409666666664, "fusion_lon": 0.0, "rental_uris": {"ios": "https://dc.lft.to/lastmile_qr_scan", "android": "https://dc.lft.to/lastmile_qr_scan"}, "lon": -77.0683415, "bike_id": "dbde9f9b25d7e80c5aecdb31f3544783", "type": "electric_bike", "name": "dbde9f9b25d7e80c5aecdb31f3544783"}, {"is_disabled": 0, "is_reserved": 0, "fusion_lat": 0.0, "lat": 38.900894, "fusion_lon": 0.0, "rental_uris": {"ios": "https://dc.lft.to/lastmile_qr_scan", "android": "https://dc.lft.to/lastmile_qr_scan"}, "lon": -77.038247, "bike_id": "3eb3641f53c6ede67ed697c9e3a3f1f6", "type": "electric_scooter", "name": "3eb3641f53c6ede67ed697c9e3a3f1f6"}, {"is_disabled": 0, "is_reserved": 0, "fusion_lat": 0.0, "lat": 38.86564933333333, "fusion_lon": 0.0, "rental_uris": {"ios": "https://dc.lft.to/lastmile_qr_scan", "android": "https://dc.lft.to/lastmile_qr_scan"}, "lon": -76.97474216666667, "bike_id": "6c18236214c861019689d02b26696253", "type": "electric_bike", "name": "6c18236214c861019689d02b26696253"}, {"is_disabled": 0, "is_reserved": 0, "fusion_lat": 0.0, "lat": 38.89517433333333, "fusion_lon": 0.0, "rental_uris": {"ios": "https://dc.lft.to/lastmile_qr_scan", "android": "https://dc.lft.to/lastmile_qr_scan"}, "lon": -77.0228485, "bike_id": "6ff335e47192cc8c0ea87d2001d1f771", "type": "electric_scooter", "name": "6ff335e47192cc8c0ea87d2001d1f771"}, {"is_disabled": 0, "is_reserved": 0, "fusion_lat": 0.0, "lat": 38.920714, "fusion_lon": 0.0, "rental_uris": {"ios": "https://dc.lft.to/lastmile_qr_scan", "android": "https://dc.lft.to/lastmile_qr_scan"}, "lon": -77.0437795, "bike_id": "3c940775c31ec95fffd1da17353f5066", "type": "electric_scooter", "name": "3c940775c31ec95fffd1da17353f5066"}, {"is_disabled": 0, "is_reserved": 0, "fusion_lat": 0.0, "lat": 38.92174, "fusion_lon": 0.0, "rental_uris": {"ios": "https://dc.lft.to/lastmile_qr_scan", "android": "https://dc.lft.to/lastmile_qr_scan"}, "lon": -76.994228, "bike_id": "8d2c1163e00c7ef05d4277750a4f6104", "type": "electric_scooter", "name": "8d2c1163e00c7ef05d4277750a4f6104"}, {"is_disabled": 0, "is_reserved": 0, "fusion_lat": 0.0, "lat": 38.9181115, "fusion_lon": 0.0, "rental_uris": {"ios": "https://dc.lft.to/lastmile_qr_scan", "android": "https://dc.lft.to/lastmile_qr_scan"}, "lon": -77.040036, "bike_id": "e2404d987964249535598be1bf0d9722", "type": "electric_scooter", "name": "e2404d987964249535598be1bf0d9722"}, {"is_disabled": 0, "is_reserved": 0, "fusion_lat": 0.0, "lat": 38.942910833333336, "fusion_lon": 0.0, "rental_uris": {"ios": "https://dc.lft.to/lastmile_qr_scan", "android": "https://dc.lft.to/lastmile_qr_scan"}, "lon": -77.02170966666667, "bike_id": "26b657a33f186d67a5b248f3d078ded8", "type": "electric_scooter", "name": "26b657a33f186d67a5b248f3d078ded8"}, {"is_disabled": 0, "is_reserved": 0, "fusion_lat": 0.0, "lat": 38.92746066666667, "fusion_lon": 0.0, "rental_uris": {"ios": "https://dc.lft.to/lastmile_qr_scan", "android": "https://dc.lft.to/lastmile_qr_scan"}, "lon": -77.021613, "bike_id": "14609e483aa371cface6ccf1244a5e38", "type": "electric_scooter", "name": "14609e483aa371cface6ccf1244a5e38"}, {"is_disabled": 0, "is_reserved": 0, "fusion_lat": 0.0, "lat": 38.92169833333333, "fusion_lon": 0.0, "rental_uris": {"ios": "https://dc.lft.to/lastmile_qr_scan", "android": "https://dc.lft.to/lastmile_qr_scan"}, "lon": -77.04227466666667, "bike_id": "80e9713927eb08fed29a6ba846ed32fc", "type": "electric_scooter", "name": "80e9713927eb08fed29a6ba846ed32fc"}, {"is_disabled": 0, "is_reserved": 0, "fusion_lat": 0.0, "lat": 38.89664883333333, "fusion_lon": 0.0, "rental_uris": {"ios": "https://dc.lft.to/lastmile_qr_scan", "android": "https://dc.lft.to/lastmile_qr_scan"}, "lon": -76.949073, "bike_id": "a9d592aa575f70b4135fa439d5959693", "type": "electric_scooter", "name": "a9d592aa575f70b4135fa439d5959693"}, {"is_disabled": 0, "is_reserved": 0, "fusion_lat": 0.0, "lat": 38.8984975, "fusion_lon": 0.0, "rental_uris": {"ios": "https://dc.lft.to/lastmile_qr_scan", "android": "https://dc.lft.to/lastmile_qr_scan"}, "lon": -77.02865066666666, "bike_id": "edc7d25e63df70f89ad05a7f0e5195ba", "type": "electric_scooter", "name": "edc7d25e63df70f89ad05a7f0e5195ba"}, {"is_disabled": 0, "is_reserved": 0, "fusion_lat": 0.0, "lat": 38.94180883333333, "fusion_lon": 0.0, "rental_uris": {"ios": "https://dc.lft.to/lastmile_qr_scan", "android": "https://dc.lft.to/lastmile_qr_scan"}, "lon": -77.01529383333333, "bike_id": "5c6dbcf9d2ef34cc58fb7427b2e42abc", "type": "electric_scooter", "name": "5c6dbcf9d2ef34cc58fb7427b2e42abc"}, {"is_disabled": 0, "is_reserved": 0, "fusion_lat": 0.0, "lat": 38.90963583333333, "fusion_lon": 0.0, "rental_uris": {"ios": "https://dc.lft.to/lastmile_qr_scan", "android": "https://dc.lft.to/lastmile_qr_scan"}, "lon": -77.0231065, "bike_id": "8ce53e55ca54faf1983b928150a56824", "type": "electric_scooter", "name": "8ce53e55ca54faf1983b928150a56824"}, {"is_disabled": 0, "is_reserved": 0, "fusion_lat": 0.0, "lat": 38.936575500000004, "fusion_lon": 0.0, "rental_uris": {"ios": "https://dc.lft.to/lastmile_qr_scan", "android": "https://dc.lft.to/lastmile_qr_scan"}, "lon": -77.06613033333333, "bike_id": "f413fcbf79cec3c32ba7d14ef641d11d", "type": "electric_scooter", "name": "f413fcbf79cec3c32ba7d14ef641d11d"}, {"is_disabled": 0, "is_reserved": 0, "fusion_lat": 0.0, "lat": 38.931188666666664, "fusion_lon": 0.0, "rental_uris": {"ios": "https://dc.lft.to/lastmile_qr_scan", "android": "https://dc.lft.to/lastmile_qr_scan"}, "lon": -77.02070116666667, "bike_id": "399b51471a8d062d3b9b6290f75d3ba4", "type": "electric_scooter", "name": "399b51471a8d062d3b9b6290f75d3ba4"}, {"is_disabled": 0, "is_reserved": 0, "fusion_lat": 0.0, "lat": 38.88258966666667, "fusion_lon": 0.0, "rental_uris": {"ios": "https://dc.lft.to/lastmile_qr_scan", "android": "https://dc.lft.to/lastmile_qr_scan"}, "lon": -77.0006765, "bike_id": "9508f7b9fc0e74e4f77b41048572beeb", "type": "electric_scooter", "name": "9508f7b9fc0e74e4f77b41048572beeb"}, {"is_disabled": 0, "is_reserved": 0, "fusion_lat": 0.0, "lat": 38.92315583333333, "fusion_lon": 0.0, "rental_uris": {"ios": "https://dc.lft.to/lastmile_qr_scan", "android": "https://dc.lft.to/lastmile_qr_scan"}, "lon": -77.041804, "bike_id": "46855d714f472fbd0c9720a89642e852", "type": "electric_scooter", "name": "46855d714f472fbd0c9720a89642e852"}, {"is_disabled": 0, "is_reserved": 0, "fusion_lat": 0.0, "lat": 38.930634166666664, "fusion_lon": 0.0, "rental_uris": {"ios": "https://dc.lft.to/lastmile_qr_scan", "android": "https://dc.lft.to/lastmile_qr_scan"}, "lon": -77.04028566666666, "bike_id": "411664d365b16d107bc5a54adb1426a6", "type": "electric_scooter", "name": "411664d365b16d107bc5a54adb1426a6"}, {"is_disabled": 0, "is_reserved": 0, "fusion_lat": 0.0, "lat": 38.91633433333333, "fusion_lon": 0.0, "rental_uris": {"ios": "https://dc.lft.to/lastmile_qr_scan", "android": "https://dc.lft.to/lastmile_qr_scan"}, "lon": -77.0085245, "bike_id": "8f162b7ef8a2b114e9109f475bdfb4d0", "type": "electric_scooter", "name": "8f162b7ef8a2b114e9109f475bdfb4d0"}, {"is_disabled": 0, "is_reserved": 0, "fusion_lat": 0.0, "lat": 38.925521, "fusion_lon": 0.0, "rental_uris": {"ios": "https://dc.lft.to/lastmile_qr_scan", "android": "https://dc.lft.to/lastmile_qr_scan"}, "lon": -77.00323666666667, "bike_id": "2eef271cb6ff7a9c1bc4b1a1470e7547", "type": "electric_scooter", "name": "2eef271cb6ff7a9c1bc4b1a1470e7547"}, {"is_disabled": 0, "is_reserved": 0, "fusion_lat": 0.0, "lat": 38.92054616666667, "fusion_lon": 0.0, "rental_uris": {"ios": "https://dc.lft.to/lastmile_qr_scan", "android": "https://dc.lft.to/lastmile_qr_scan"}, "lon": -77.04393216666666, "bike_id": "887792ca30f711d99f73c8a7cd620e2a", "type": "electric_scooter", "name": "887792ca30f711d99f73c8a7cd620e2a"}, {"is_disabled": 0, "is_reserved": 0, "fusion_lat": 0.0, "lat": 38.87478933333333, "fusion_lon": 0.0, "rental_uris": {"ios": "https://dc.lft.to/lastmile_qr_scan", "android": "https://dc.lft.to/lastmile_qr_scan"}, "lon": -77.01071416666667, "bike_id": "41b440d61cd2f69424118acbfde36c85", "type": "electric_scooter", "name": "41b440d61cd2f69424118acbfde36c85"}, {"is_disabled": 0, "is_reserved": 0, "fusion_lat": 0.0, "lat": 38.92974433333333, "fusion_lon": 0.0, "rental_uris": {"ios": "https://dc.lft.to/lastmile_qr_scan", "android": "https://dc.lft.to/lastmile_qr_scan"}, "lon": -77.02823616666667, "bike_id": "b6cb791e89e4205ef8b91ec978e0f2d4", "type": "electric_scooter", "name": "b6cb791e89e4205ef8b91ec978e0f2d4"}, {"is_disabled": 0, "is_reserved": 0, "fusion_lat": 0.0, "lat": 38.90656233333333, "fusion_lon": 0.0, "rental_uris": {"ios": "https://dc.lft.to/lastmile_qr_scan", "android": "https://dc.lft.to/lastmile_qr_scan"}, "lon": -77.05314883333334, "bike_id": "4008a5abac451eea41531cbadc4b6784", "type": "electric_scooter", "name": "4008a5abac451eea41531cbadc4b6784"}, {"is_disabled": 0, "is_reserved": 0, "fusion_lat": 0.0, "lat": 38.902473, "fusion_lon": 0.0, "rental_uris": {"ios": "https://dc.lft.to/lastmile_qr_scan", "android": "https://dc.lft.to/lastmile_qr_scan"}, "lon": -77.02644183333334, "bike_id": "881df1a2c2d52dcef1d92993fca852cd", "type": "electric_scooter", "name": "881df1a2c2d52dcef1d92993fca852cd"}, {"is_disabled": 0, "is_reserved": 0, "fusion_lat": 0.0, "lat": 38.886601666666664, "fusion_lon": 0.0, "rental_uris": {"ios": "https://dc.lft.to/lastmile_qr_scan", "android": "https://dc.lft.to/lastmile_qr_scan"}, "lon": -77.162418, "bike_id": "2a1d84bca6db8a4dab789aa3e4921fe3", "type": "electric_bike", "name": "2a1d84bca6db8a4dab789aa3e4921fe3"}, {"is_disabled": 0, "is_reserved": 0, "fusion_lat": 0.0, "lat": 38.925160166666664, "fusion_lon": 0.0, "rental_uris": {"ios": "https://dc.lft.to/lastmile_qr_scan", "android": "https://dc.lft.to/lastmile_qr_scan"}, "lon": -77.02129316666667, "bike_id": "76598d342f9859f37154c54aa7b63c60", "type": "electric_scooter", "name": "76598d342f9859f37154c54aa7b63c60"}, {"is_disabled": 0, "is_reserved": 0, "fusion_lat": 0.0, "lat": 38.96763466666667, "fusion_lon": 0.0, "rental_uris": {"ios": "https://dc.lft.to/lastmile_qr_scan", "android": "https://dc.lft.to/lastmile_qr_scan"}, "lon": -77.033527, "bike_id": "398ac159369a7936547c4f962f325dec", "type": "electric_scooter", "name": "398ac159369a7936547c4f962f325dec"}, {"is_disabled": 0, "is_reserved": 0, "fusion_lat": 0.0, "lat": 38.92157483333333, "fusion_lon": 0.0, "rental_uris": {"ios": "https://dc.lft.to/lastmile_qr_scan", "android": "https://dc.lft.to/lastmile_qr_scan"}, "lon": -77.03387416666666, "bike_id": "01b50902faefa8be8590f7bb29bc414b", "type": "electric_scooter", "name": "01b50902faefa8be8590f7bb29bc414b"}, {"is_disabled": 0, "is_reserved": 0, "fusion_lat": 0.0, "lat": 38.92781933333333, "fusion_lon": 0.0, "rental_uris": {"ios": "https://dc.lft.to/lastmile_qr_scan", "android": "https://dc.lft.to/lastmile_qr_scan"}, "lon": -77.0526535, "bike_id": "952c3d2791d869f759c64bcf436fccf7", "type": "electric_scooter", "name": "952c3d2791d869f759c64bcf436fccf7"}, {"is_disabled": 0, "is_reserved": 0, "fusion_lat": 0.0, "lat": 38.942921166666665, "fusion_lon": 0.0, "rental_uris": {"ios": "https://dc.lft.to/lastmile_qr_scan", "android": "https://dc.lft.to/lastmile_qr_scan"}, "lon": -77.077202, "bike_id": "1cad09ff0dc88248971618bba514d638", "type": "electric_scooter", "name": "1cad09ff0dc88248971618bba514d638"}, {"is_disabled": 0, "is_reserved": 0, "fusion_lat": 0.0, "lat": 38.932438166666664, "fusion_lon": 0.0, "rental_uris": {"ios": "https://dc.lft.to/lastmile_qr_scan", "android": "https://dc.lft.to/lastmile_qr_scan"}, "lon": -77.03887816666666, "bike_id": "ae77b7d378033280a0563ab8f6fd8deb", "type": "electric_scooter", "name": "ae77b7d378033280a0563ab8f6fd8deb"}, {"is_disabled": 0, "is_reserved": 0, "fusion_lat": 0.0, "lat": 38.91210916666667, "fusion_lon": 0.0, "rental_uris": {"ios": "https://dc.lft.to/lastmile_qr_scan", "android": "https://dc.lft.to/lastmile_qr_scan"}, "lon": -77.04457133333334, "bike_id": "48f2e9a8d6219378ce82c5a9953eaf14", "type": "electric_scooter", "name": "48f2e9a8d6219378ce82c5a9953eaf14"}, {"is_disabled": 0, "is_reserved": 0, "fusion_lat": 0.0, "lat": 38.90777, "fusion_lon": 0.0, "rental_uris": {"ios": "https://dc.lft.to/lastmile_qr_scan", "android": "https://dc.lft.to/lastmile_qr_scan"}, "lon": -77.03552533333334, "bike_id": "aed8e9998c5572373723389e912d806c", "type": "electric_scooter", "name": "aed8e9998c5572373723389e912d806c"}, {"is_disabled": 0, "is_reserved": 0, "fusion_lat": 0.0, "lat": 38.807319666666665, "fusion_lon": 0.0, "rental_uris": {"ios": "https://dc.lft.to/lastmile_qr_scan", "android": "https://dc.lft.to/lastmile_qr_scan"}, "lon": -76.99262416666667, "bike_id": "cafbdb7976d1e475101d8ff1dbd9d459", "type": "electric_bike", "name": "cafbdb7976d1e475101d8ff1dbd9d459"}, {"is_disabled": 0, "is_reserved": 0, "fusion_lat": 0.0, "lat": 38.891999, "fusion_lon": 0.0, "rental_uris": {"ios": "https://dc.lft.to/lastmile_qr_scan", "android": "https://dc.lft.to/lastmile_qr_scan"}, "lon": -77.00297433333333, "bike_id": "8a101d231090a38f3cc1bb67fe826177", "type": "electric_scooter", "name": "8a101d231090a38f3cc1bb67fe826177"}, {"is_disabled": 0, "is_reserved": 0, "fusion_lat": 0.0, "lat": 38.907729, "fusion_lon": 0.0, "rental_uris": {"ios": "https://dc.lft.to/lastmile_qr_scan", "android": "https://dc.lft.to/lastmile_qr_scan"}, "lon": -77.0453535, "bike_id": "0cd80335edf917787a3a0fa5b0664b92", "type": "electric_scooter", "name": "0cd80335edf917787a3a0fa5b0664b92"}, {"is_disabled": 0, "is_reserved": 0, "fusion_lat": 0.0, "lat": 38.91992666666667, "fusion_lon": 0.0, "rental_uris": {"ios": "https://dc.lft.to/lastmile_qr_scan", "android": "https://dc.lft.to/lastmile_qr_scan"}, "lon": -77.03242116666667, "bike_id": "273ecfdf7fa3e7458a00e649e3d52072", "type": "electric_scooter", "name": "273ecfdf7fa3e7458a00e649e3d52072"}, {"is_disabled": 0, "is_reserved": 0, "fusion_lat": 0.0, "lat": 38.96230383333334, "fusion_lon": 0.0, "rental_uris": {"ios": "https://dc.lft.to/lastmile_qr_scan", "android": "https://dc.lft.to/lastmile_qr_scan"}, "lon": -77.0262165, "bike_id": "e7cc2d711f469902c12a56ce3a0c3680", "type": "electric_bike", "name": "e7cc2d711f469902c12a56ce3a0c3680"}, {"is_disabled": 0, "is_reserved": 0, "fusion_lat": 0.0, "lat": 38.924517, "fusion_lon": 0.0, "rental_uris": {"ios": "https://dc.lft.to/lastmile_qr_scan", "android": "https://dc.lft.to/lastmile_qr_scan"}, "lon": -77.02042866666666, "bike_id": "22c4ac17a7609f52af9403501c089645", "type": "electric_scooter", "name": "22c4ac17a7609f52af9403501c089645"}, {"is_disabled": 0, "is_reserved": 0, "fusion_lat": 0.0, "lat": 38.923996333333335, "fusion_lon": 0.0, "rental_uris": {"ios": "https://dc.lft.to/lastmile_qr_scan", "android": "https://dc.lft.to/lastmile_qr_scan"}, "lon": -77.03538666666667, "bike_id": "e6742add97529bd5afc5795aa4af8831", "type": "electric_scooter", "name": "e6742add97529bd5afc5795aa4af8831"}, {"is_disabled": 0, "is_reserved": 0, "fusion_lat": 0.0, "lat": 38.923525833333336, "fusion_lon": 0.0, "rental_uris": {"ios": "https://dc.lft.to/lastmile_qr_scan", "android": "https://dc.lft.to/lastmile_qr_scan"}, "lon": -77.00202433333334, "bike_id": "3fe4194ea8f297dd4a0d307bf205c087", "type": "electric_scooter", "name": "3fe4194ea8f297dd4a0d307bf205c087"}, {"is_disabled": 0, "is_reserved": 0, "fusion_lat": 0.0, "lat": 38.905642666666665, "fusion_lon": 0.0, "rental_uris": {"ios": "https://dc.lft.to/lastmile_qr_scan", "android": "https://dc.lft.to/lastmile_qr_scan"}, "lon": -77.0054035, "bike_id": "42a88bb56c28cf8da15912ee8c9d17a0", "type": "electric_scooter", "name": "42a88bb56c28cf8da15912ee8c9d17a0"}, {"is_disabled": 0, "is_reserved": 0, "fusion_lat": 0.0, "lat": 38.93356816666667, "fusion_lon": 0.0, "rental_uris": {"ios": "https://dc.lft.to/lastmile_qr_scan", "android": "https://dc.lft.to/lastmile_qr_scan"}, "lon": -77.025625, "bike_id": "6bcdd0926b3d8711a20c6c833ce5e774", "type": "electric_scooter", "name": "6bcdd0926b3d8711a20c6c833ce5e774"}, {"is_disabled": 0, "is_reserved": 0, "fusion_lat": 0.0, "lat": 38.9101775, "fusion_lon": 0.0, "rental_uris": {"ios": "https://dc.lft.to/lastmile_qr_scan", "android": "https://dc.lft.to/lastmile_qr_scan"}, "lon": -77.03189283333333, "bike_id": "6717a8316ca8eb71777b584a738ad85e", "type": "electric_scooter", "name": "6717a8316ca8eb71777b584a738ad85e"}, {"is_disabled": 0, "is_reserved": 0, "fusion_lat": 0.0, "lat": 38.8839245, "fusion_lon": 0.0, "rental_uris": {"ios": "https://dc.lft.to/lastmile_qr_scan", "android": "https://dc.lft.to/lastmile_qr_scan"}, "lon": -76.93037983333333, "bike_id": "9c093d116dd5c48ac08a44dd457cae20", "type": "electric_scooter", "name": "9c093d116dd5c48ac08a44dd457cae20"}, {"is_disabled": 0, "is_reserved": 0, "fusion_lat": 0.0, "lat": 38.9287475, "fusion_lon": 0.0, "rental_uris": {"ios": "https://dc.lft.to/lastmile_qr_scan", "android": "https://dc.lft.to/lastmile_qr_scan"}, "lon": -77.03830566666667, "bike_id": "8bd76278dcc943b6bffdf83ba7b9ec0a", "type": "electric_scooter", "name": "8bd76278dcc943b6bffdf83ba7b9ec0a"}, {"is_disabled": 0, "is_reserved": 0, "fusion_lat": 0.0, "lat": 38.919282, "fusion_lon": 0.0, "rental_uris": {"ios": "https://dc.lft.to/lastmile_qr_scan", "android": "https://dc.lft.to/lastmile_qr_scan"}, "lon": -77.04152516666667, "bike_id": "f7ee7044712cf29cc7c58c6bcb0d93a5", "type": "electric_scooter", "name": "f7ee7044712cf29cc7c58c6bcb0d93a5"}, {"is_disabled": 0, "is_reserved": 0, "fusion_lat": 0.0, "lat": 38.884488166666664, "fusion_lon": 0.0, "rental_uris": {"ios": "https://dc.lft.to/lastmile_qr_scan", "android": "https://dc.lft.to/lastmile_qr_scan"}, "lon": -77.00899366666667, "bike_id": "e8520285a80b64da48daff9743a3f43b", "type": "electric_scooter", "name": "e8520285a80b64da48daff9743a3f43b"}, {"is_disabled": 0, "is_reserved": 0, "fusion_lat": 0.0, "lat": 38.934677666666666, "fusion_lon": 0.0, "rental_uris": {"ios": "https://dc.lft.to/lastmile_qr_scan", "android": "https://dc.lft.to/lastmile_qr_scan"}, "lon": -77.02780366666667, "bike_id": "37fc10181a89f5ba23bc6f95b3e2a18c", "type": "electric_scooter", "name": "37fc10181a89f5ba23bc6f95b3e2a18c"}, {"is_disabled": 0, "is_reserved": 0, "fusion_lat": 0.0, "lat": 38.9570265, "fusion_lon": 0.0, "rental_uris": {"ios": "https://dc.lft.to/lastmile_qr_scan", "android": "https://dc.lft.to/lastmile_qr_scan"}, "lon": -77.35972, "bike_id": "51936431f76b4abaf4f31cfd6277eb3f", "type": "electric_bike", "name": "51936431f76b4abaf4f31cfd6277eb3f"}, {"is_disabled": 0, "is_reserved": 0, "fusion_lat": 0.0, "lat": 38.921758833333335, "fusion_lon": 0.0, "rental_uris": {"ios": "https://dc.lft.to/lastmile_qr_scan", "android": "https://dc.lft.to/lastmile_qr_scan"}, "lon": -77.02100616666667, "bike_id": "a492de7596dde6d21ed7b46330712a63", "type": "electric_scooter", "name": "a492de7596dde6d21ed7b46330712a63"}, {"is_disabled": 0, "is_reserved": 0, "fusion_lat": 0.0, "lat": 38.89262183333334, "fusion_lon": 0.0, "rental_uris": {"ios": "https://dc.lft.to/lastmile_qr_scan", "android": "https://dc.lft.to/lastmile_qr_scan"}, "lon": -77.05032083333333, "bike_id": "fc30302f4639bae854339a180b2f1f35", "type": "electric_scooter", "name": "fc30302f4639bae854339a180b2f1f35"}, {"is_disabled": 0, "is_reserved": 0, "fusion_lat": 0.0, "lat": 39.0843275, "fusion_lon": 0.0, "rental_uris": {"ios": "https://dc.lft.to/lastmile_qr_scan", "android": "https://dc.lft.to/lastmile_qr_scan"}, "lon": -76.95142716666666, "bike_id": "47a637ce6417eda3a75d408d1abf304b", "type": "electric_bike", "name": "47a637ce6417eda3a75d408d1abf304b"}, {"is_disabled": 0, "is_reserved": 0, "fusion_lat": 0.0, "lat": 38.85899366666666, "fusion_lon": 0.0, "rental_uris": {"ios": "https://dc.lft.to/lastmile_qr_scan", "android": "https://dc.lft.to/lastmile_qr_scan"}, "lon": -77.0955805, "bike_id": "c84ef7668f55f2ed56f51f1019395cac", "type": "electric_bike", "name": "c84ef7668f55f2ed56f51f1019395cac"}, {"is_disabled": 0, "is_reserved": 0, "fusion_lat": 0.0, "lat": 38.90843533333334, "fusion_lon": 0.0, "rental_uris": {"ios": "https://dc.lft.to/lastmile_qr_scan", "android": "https://dc.lft.to/lastmile_qr_scan"}, "lon": -77.00061216666667, "bike_id": "6d65f80d4fda861e3d560f80adda72ca", "type": "electric_scooter", "name": "6d65f80d4fda861e3d560f80adda72ca"}, {"is_disabled": 0, "is_reserved": 0, "fusion_lat": 0.0, "lat": 38.883771833333334, "fusion_lon": 0.0, "rental_uris": {"ios": "https://dc.lft.to/lastmile_qr_scan", "android": "https://dc.lft.to/lastmile_qr_scan"}, "lon": -76.92370866666667, "bike_id": "b6041012c1c15dbc586cd7a0a148a517", "type": "electric_bike", "name": "b6041012c1c15dbc586cd7a0a148a517"}, {"is_disabled": 0, "is_reserved": 0, "fusion_lat": 0.0, "lat": 38.89481283333333, "fusion_lon": 0.0, "rental_uris": {"ios": "https://dc.lft.to/lastmile_qr_scan", "android": "https://dc.lft.to/lastmile_qr_scan"}, "lon": -77.00982183333333, "bike_id": "10303f83de43b7d5a04f2a2f6129abf1", "type": "electric_scooter", "name": "10303f83de43b7d5a04f2a2f6129abf1"}, {"is_disabled": 0, "is_reserved": 0, "fusion_lat": 0.0, "lat": 38.939348333333335, "fusion_lon": 0.0, "rental_uris": {"ios": "https://dc.lft.to/lastmile_qr_scan", "android": "https://dc.lft.to/lastmile_qr_scan"}, "lon": -77.025869, "bike_id": "7c9eeb783fd2051b7f00bd0e391c07dd", "type": "electric_scooter", "name": "7c9eeb783fd2051b7f00bd0e391c07dd"}, {"is_disabled": 0, "is_reserved": 0, "fusion_lat": 0.0, "lat": 38.9107365, "fusion_lon": 0.0, "rental_uris": {"ios": "https://dc.lft.to/lastmile_qr_scan", "android": "https://dc.lft.to/lastmile_qr_scan"}, "lon": -77.03734616666667, "bike_id": "da650b9e6fb3750f0205e5ac01977164", "type": "electric_scooter", "name": "da650b9e6fb3750f0205e5ac01977164"}, {"is_disabled": 0, "is_reserved": 0, "fusion_lat": 0.0, "lat": 38.895665, "fusion_lon": 0.0, "rental_uris": {"ios": "https://dc.lft.to/lastmile_qr_scan", "android": "https://dc.lft.to/lastmile_qr_scan"}, "lon": -77.1273635, "bike_id": "429154ee2c9fb4086b0b0137e9f99059", "type": "electric_bike", "name": "429154ee2c9fb4086b0b0137e9f99059"}, {"is_disabled": 0, "is_reserved": 0, "fusion_lat": 0.0, "lat": 38.9171355, "fusion_lon": 0.0, "rental_uris": {"ios": "https://dc.lft.to/lastmile_qr_scan", "android": "https://dc.lft.to/lastmile_qr_scan"}, "lon": -77.041728, "bike_id": "4693598f0fbb58c1d8cede376a552377", "type": "electric_scooter", "name": "4693598f0fbb58c1d8cede376a552377"}, {"is_disabled": 0, "is_reserved": 0, "fusion_lat": 0.0, "lat": 38.909175, "fusion_lon": 0.0, "rental_uris": {"ios": "https://dc.lft.to/lastmile_qr_scan", "android": "https://dc.lft.to/lastmile_qr_scan"}, "lon": -77.02308316666667, "bike_id": "5f7d63a647e4883900439462eee8292f", "type": "electric_scooter", "name": "5f7d63a647e4883900439462eee8292f"}, {"is_disabled": 0, "is_reserved": 0, "fusion_lat": 0.0, "lat": 38.916811, "fusion_lon": 0.0, "rental_uris": {"ios": "https://dc.lft.to/lastmile_qr_scan", "android": "https://dc.lft.to/lastmile_qr_scan"}, "lon": -77.02804633333334, "bike_id": "ff50488f5a4dd9907ec4e2871eb677a4", "type": "electric_scooter", "name": "ff50488f5a4dd9907ec4e2871eb677a4"}, {"is_disabled": 0, "is_reserved": 0, "fusion_lat": 0.0, "lat": 38.90156316666667, "fusion_lon": 0.0, "rental_uris": {"ios": "https://dc.lft.to/lastmile_qr_scan", "android": "https://dc.lft.to/lastmile_qr_scan"}, "lon": -77.032286, "bike_id": "18af6a79153d0b8fba9d885be219addc", "type": "electric_scooter", "name": "18af6a79153d0b8fba9d885be219addc"}, {"is_disabled": 0, "is_reserved": 0, "fusion_lat": 0.0, "lat": 38.87176866666667, "fusion_lon": 0.0, "rental_uris": {"ios": "https://dc.lft.to/lastmile_qr_scan", "android": "https://dc.lft.to/lastmile_qr_scan"}, "lon": -77.00626633333333, "bike_id": "1585ef4e3d7364f00ea8351ddf4a94aa", "type": "electric_scooter", "name": "1585ef4e3d7364f00ea8351ddf4a94aa"}, {"is_disabled": 0, "is_reserved": 0, "fusion_lat": 0.0, "lat": 38.91695583333333, "fusion_lon": 0.0, "rental_uris": {"ios": "https://dc.lft.to/lastmile_qr_scan", "android": "https://dc.lft.to/lastmile_qr_scan"}, "lon": -77.025185, "bike_id": "a868df6f25d2d27f690049514b4e0541", "type": "electric_scooter", "name": "a868df6f25d2d27f690049514b4e0541"}, {"is_disabled": 0, "is_reserved": 0, "fusion_lat": 0.0, "lat": 38.97156066666667, "fusion_lon": 0.0, "rental_uris": {"ios": "https://dc.lft.to/lastmile_qr_scan", "android": "https://dc.lft.to/lastmile_qr_scan"}, "lon": -76.98362516666667, "bike_id": "66ec056b24dbd16af9935410e7f1df33", "type": "electric_bike", "name": "66ec056b24dbd16af9935410e7f1df33"}, {"is_disabled": 0, "is_reserved": 0, "fusion_lat": 0.0, "lat": 38.911569666666665, "fusion_lon": 0.0, "rental_uris": {"ios": "https://dc.lft.to/lastmile_qr_scan", "android": "https://dc.lft.to/lastmile_qr_scan"}, "lon": -77.01087283333334, "bike_id": "375da090177973ef29018e732b278655", "type": "electric_scooter", "name": "375da090177973ef29018e732b278655"}, {"is_disabled": 0, "is_reserved": 0, "fusion_lat": 0.0, "lat": 38.897097333333335, "fusion_lon": 0.0, "rental_uris": {"ios": "https://dc.lft.to/lastmile_qr_scan", "android": "https://dc.lft.to/lastmile_qr_scan"}, "lon": -76.9391565, "bike_id": "8e518eac477dfc0395d638120e45cb65", "type": "electric_scooter", "name": "8e518eac477dfc0395d638120e45cb65"}, {"is_disabled": 0, "is_reserved": 0, "fusion_lat": 0.0, "lat": 38.8902125, "fusion_lon": 0.0, "rental_uris": {"ios": "https://dc.lft.to/lastmile_qr_scan", "android": "https://dc.lft.to/lastmile_qr_scan"}, "lon": -76.93730533333333, "bike_id": "d7ebfe17b75486476bb3863694e92d72", "type": "electric_scooter", "name": "d7ebfe17b75486476bb3863694e92d72"}, {"is_disabled": 0, "is_reserved": 0, "fusion_lat": 0.0, "lat": 38.92653416666667, "fusion_lon": 0.0, "rental_uris": {"ios": "https://dc.lft.to/lastmile_qr_scan", "android": "https://dc.lft.to/lastmile_qr_scan"}, "lon": -77.09024083333334, "bike_id": "3122f23cf09e4c318e099a3496612a6f", "type": "electric_bike", "name": "3122f23cf09e4c318e099a3496612a6f"}, {"is_disabled": 0, "is_reserved": 0, "fusion_lat": 0.0, "lat": 38.90320783333333, "fusion_lon": 0.0, "rental_uris": {"ios": "https://dc.lft.to/lastmile_qr_scan", "android": "https://dc.lft.to/lastmile_qr_scan"}, "lon": -76.97541616666666, "bike_id": "128f76b8bc10b15e1e9ed64965ee32f3", "type": "electric_scooter", "name": "128f76b8bc10b15e1e9ed64965ee32f3"}, {"is_disabled": 0, "is_reserved": 0, "fusion_lat": 0.0, "lat": 38.89229383333333, "fusion_lon": 0.0, "rental_uris": {"ios": "https://dc.lft.to/lastmile_qr_scan", "android": "https://dc.lft.to/lastmile_qr_scan"}, "lon": -77.03146866666667, "bike_id": "f15e72c86985f6402520555f5bc6c17b", "type": "electric_scooter", "name": "f15e72c86985f6402520555f5bc6c17b"}, {"is_disabled": 0, "is_reserved": 0, "fusion_lat": 0.0, "lat": 38.87660016666667, "fusion_lon": 0.0, "rental_uris": {"ios": "https://dc.lft.to/lastmile_qr_scan", "android": "https://dc.lft.to/lastmile_qr_scan"}, "lon": -77.00564366666667, "bike_id": "4d0d9dafb6200c6c84c0172d623cf397", "type": "electric_scooter", "name": "4d0d9dafb6200c6c84c0172d623cf397"}, {"is_disabled": 0, "is_reserved": 0, "fusion_lat": 0.0, "lat": 38.91807383333333, "fusion_lon": 0.0, "rental_uris": {"ios": "https://dc.lft.to/lastmile_qr_scan", "android": "https://dc.lft.to/lastmile_qr_scan"}, "lon": -77.0000895, "bike_id": "586cffa9805f64e09a9a346b2857b1f7", "type": "electric_scooter", "name": "586cffa9805f64e09a9a346b2857b1f7"}, {"is_disabled": 0, "is_reserved": 0, "fusion_lat": 0.0, "lat": 38.911820666666664, "fusion_lon": 0.0, "rental_uris": {"ios": "https://dc.lft.to/lastmile_qr_scan", "android": "https://dc.lft.to/lastmile_qr_scan"}, "lon": -77.012131, "bike_id": "c466459c1e70f27d23d7b98de4cdff40", "type": "electric_scooter", "name": "c466459c1e70f27d23d7b98de4cdff40"}, {"is_disabled": 0, "is_reserved": 0, "fusion_lat": 0.0, "lat": 38.92821516666667, "fusion_lon": 0.0, "rental_uris": {"ios": "https://dc.lft.to/lastmile_qr_scan", "android": "https://dc.lft.to/lastmile_qr_scan"}, "lon": -77.05971616666666, "bike_id": "8fda25263f1e01348cb178f237cca1a7", "type": "electric_bike", "name": "8fda25263f1e01348cb178f237cca1a7"}, {"is_disabled": 0, "is_reserved": 0, "fusion_lat": 0.0, "lat": 38.916731666666664, "fusion_lon": 0.0, "rental_uris": {"ios": "https://dc.lft.to/lastmile_qr_scan", "android": "https://dc.lft.to/lastmile_qr_scan"}, "lon": -77.0145345, "bike_id": "46c911ae74fce5ef31e5dffd0e91bf42", "type": "electric_scooter", "name": "46c911ae74fce5ef31e5dffd0e91bf42"}, {"is_disabled": 0, "is_reserved": 0, "fusion_lat": 0.0, "lat": 38.88979233333333, "fusion_lon": 0.0, "rental_uris": {"ios": "https://dc.lft.to/lastmile_qr_scan", "android": "https://dc.lft.to/lastmile_qr_scan"}, "lon": -76.981771, "bike_id": "8f7ecdbd1ceadf90c189939fe5e39df1", "type": "electric_scooter", "name": "8f7ecdbd1ceadf90c189939fe5e39df1"}, {"is_disabled": 0, "is_reserved": 0, "fusion_lat": 0.0, "lat": 38.934560833333336, "fusion_lon": 0.0, "rental_uris": {"ios": "https://dc.lft.to/lastmile_qr_scan", "android": "https://dc.lft.to/lastmile_qr_scan"}, "lon": -77.02913366666667, "bike_id": "c6a588ffd27717d329ee43a6cd63b493", "type": "electric_scooter", "name": "c6a588ffd27717d329ee43a6cd63b493"}, {"is_disabled": 0, "is_reserved": 0, "fusion_lat": 0.0, "lat": 38.9165385, "fusion_lon": 0.0, "rental_uris": {"ios": "https://dc.lft.to/lastmile_qr_scan", "android": "https://dc.lft.to/lastmile_qr_scan"}, "lon": -77.04664583333333, "bike_id": "cf945605dacbb55ddd755ba8def7e2cc", "type": "electric_scooter", "name": "cf945605dacbb55ddd755ba8def7e2cc"}, {"is_disabled": 0, "is_reserved": 0, "fusion_lat": 0.0, "lat": 38.899386666666665, "fusion_lon": 0.0, "rental_uris": {"ios": "https://dc.lft.to/lastmile_qr_scan", "android": "https://dc.lft.to/lastmile_qr_scan"}, "lon": -76.93767816666667, "bike_id": "e5bf1aa9d48ae4be3cdb9d94a054581a", "type": "electric_scooter", "name": "e5bf1aa9d48ae4be3cdb9d94a054581a"}, {"is_disabled": 0, "is_reserved": 0, "fusion_lat": 0.0, "lat": 38.89912533333333, "fusion_lon": 0.0, "rental_uris": {"ios": "https://dc.lft.to/lastmile_qr_scan", "android": "https://dc.lft.to/lastmile_qr_scan"}, "lon": -77.0397655, "bike_id": "d860cfae5e2c3a4cdf597696f1fbdfe0", "type": "electric_scooter", "name": "d860cfae5e2c3a4cdf597696f1fbdfe0"}, {"is_disabled": 0, "is_reserved": 0, "fusion_lat": 0.0, "lat": 38.965879666666666, "fusion_lon": 0.0, "rental_uris": {"ios": "https://dc.lft.to/lastmile_qr_scan", "android": "https://dc.lft.to/lastmile_qr_scan"},