{"data": {"bikes": [{"fusion_lat": 0.0, "lat": 38.88597033333333, "rental_uris": {"ios": "https://dc.lft.to/lastmile_qr_scan", "android": "https://dc.lft.to/lastmile_qr_scan"}, "name": "7223798113634adef98a157cbca15e05", "type": "electric_scooter", "fusion_lon": 0.0, "is_disabled": 0, "is_reserved": 0, "bike_id": "7223798113634adef98a157cbca15e05", "lon": -76.9560745}, {"fusion_lat": 0.0, "lat": 38.93679383333333, "rental_uris": {"ios": "https://dc.lft.to/lastmile_qr_scan", "android": "https://dc.lft.to/lastmile_qr_scan"}, "name": "9c90f15eab5ae6c8cd66bf10f66ef5ed", "type": "electric_scooter", "fusion_lon": 0.0, "is_disabled": 0, "is_reserved": 0, "bike_id": "9c90f15eab5ae6c8cd66bf10f66ef5ed", "lon": -77.0359495}, {"fusion_lat": 0.0, "lat": 38.881797, "rental_uris": {"ios": "https://dc.lft.to/lastmile_qr_scan", "android": "https://dc.lft.to/lastmile_qr_scan"}, "name": "d1545353c255cff1f84b01e91a823c99", "type": "electric_scooter", "fusion_lon": 0.0, "is_disabled": 0, "is_reserved": 0, "bike_id": "d1545353c255cff1f84b01e91a823c99", "lon": -76.95899916666667}, {"fusion_lat": 0.0, "lat": 38.90000916666666, "rental_uris": {"ios": "https://dc.lft.to/lastmile_qr_scan", "android": "https://dc.lft.to/lastmile_qr_scan"}, "name": "2d3b0791027f14ad696c985e3c5bfe9c", "type": "electric_scooter", "fusion_lon": 0.0, "is_disabled": 0, "is_reserved": 0, "bike_id": "2d3b0791027f14ad696c985e3c5bfe9c", "lon": -76.99937233333333}, {"fusion_lat": 0.0, "lat": 38.931800333333335, "rental_uris": {"ios": "https://dc.lft.to/lastmile_qr_scan", "android": "https://dc.lft.to/lastmile_qr_scan"}, "name": "cef7d21a4c2132261e72b1fb0c300769", "type": "electric_scooter", "fusion_lon": 0.0, "is_disabled": 0, "is_reserved": 0, "bike_id": "cef7d21a4c2132261e72b1fb0c300769", "lon": -77.04302016666666}, {"fusion_lat": 0.0, "lat": 38.936151, "rental_uris": {"ios": "https://dc.lft.to/lastmile_qr_scan", "android": "https://dc.lft.to/lastmile_qr_scan"}, "name": "9d28d97ee5d6eaebdc3fcf62fdf2a7a7", "type": "electric_scooter", "fusion_lon": 0.0, "is_disabled": 0, "is_reserved": 0, "bike_id": "9d28d97ee5d6eaebdc3fcf62fdf2a7a7", "lon": -77.037683}, {"fusion_lat": 0.0, "lat": 38.9038645, "rental_uris": {"ios": "https://dc.lft.to/lastmile_qr_scan", "android": "https://dc.lft.to/lastmile_qr_scan"}, "name": "d40f0727c18a5224f705115ffcdf4183", "type": "electric_scooter", "fusion_lon": 0.0, "is_disabled": 0, "is_reserved": 0, "bike_id": "d40f0727c18a5224f705115ffcdf4183", "lon": -77.0435095}, {"fusion_lat": 0.0, "lat": 38.91987816666666, "rental_uris": {"ios": "https://dc.lft.to/lastmile_qr_scan", "android": "https://dc.lft.to/lastmile_qr_scan"}, "name": "500bbd3dad862c322ff860336a457cf1", "type": "electric_scooter", "fusion_lon": 0.0, "is_disabled": 0, "is_reserved": 0, "bike_id": "500bbd3dad862c322ff860336a457cf1", "lon": -76.973033}, {"fusion_lat": 0.0, "lat": 38.898446166666666, "rental_uris": {"ios": "https://dc.lft.to/lastmile_qr_scan", "android": "https://dc.lft.to/lastmile_qr_scan"}, "name": "14be8d42ae94f47f791cf60350fa028d", "type": "electric_scooter", "fusion_lon": 0.0, "is_disabled": 0, "is_reserved": 0, "bike_id": "14be8d42ae94f47f791cf60350fa028d", "lon": -77.02376383333333}, {"fusion_lat": 0.0, "lat": 38.896108166666664, "rental_uris": {"ios": "https://dc.lft.to/lastmile_qr_scan", "android": "https://dc.lft.to/lastmile_qr_scan"}, "name": "f2630b621759a442af0431044daacf19", "type": "electric_scooter", "fusion_lon": 0.0, "is_disabled": 0, "is_reserved": 0, "bike_id": "f2630b621759a442af0431044daacf19", "lon": -77.026111}, {"fusion_lat": 0.0, "lat": 38.92121783333333, "rental_uris": {"ios": "https://dc.lft.to/lastmile_qr_scan", "android": "https://dc.lft.to/lastmile_qr_scan"}, "name": "91d9bc3878059e1aac0c2cc5e4614c16", "type": "electric_scooter", "fusion_lon": 0.0, "is_disabled": 0, "is_reserved": 0, "bike_id": "91d9bc3878059e1aac0c2cc5e4614c16", "lon": -77.0191575}, {"fusion_lat": 0.0, "lat": 38.904018, "rental_uris": {"ios": "https://dc.lft.to/lastmile_qr_scan", "android": "https://dc.lft.to/lastmile_qr_scan"}, "name": "677da1d96bede82d7ffcd045072d7bbe", "type": "electric_scooter", "fusion_lon": 0.0, "is_disabled": 0, "is_reserved": 0, "bike_id": "677da1d96bede82d7ffcd045072d7bbe", "lon": -76.984635}, {"fusion_lat": 0.0, "lat": 38.90475633333333, "rental_uris": {"ios": "https://dc.lft.to/lastmile_qr_scan", "android": "https://dc.lft.to/lastmile_qr_scan"}, "name": "44c29d680d6c692c2d20a082b23bf744", "type": "electric_scooter", "fusion_lon": 0.0, "is_disabled": 0, "is_reserved": 0, "bike_id": "44c29d680d6c692c2d20a082b23bf744", "lon": -77.06536633333333}, {"fusion_lat": 0.0, "lat": 38.89866383333333, "rental_uris": {"ios": "https://dc.lft.to/lastmile_qr_scan", "android": "https://dc.lft.to/lastmile_qr_scan"}, "name": "effeb681b5f81d68f112c01d22c83516", "type": "electric_scooter", "fusion_lon": 0.0, "is_disabled": 0, "is_reserved": 0, "bike_id": "effeb681b5f81d68f112c01d22c83516", "lon": -76.94628083333333}, {"fusion_lat": 0.0, "lat": 38.909710833333335, "rental_uris": {"ios": "https://dc.lft.to/lastmile_qr_scan", "android": "https://dc.lft.to/lastmile_qr_scan"}, "name": "55de767de0fb34c3708541ff5c8d599b", "type": "electric_scooter", "fusion_lon": 0.0, "is_disabled": 0, "is_reserved": 0, "bike_id": "55de767de0fb34c3708541ff5c8d599b", "lon": -77.031779}, {"fusion_lat": 0.0, "lat": 38.9339485, "rental_uris": {"ios": "https://dc.lft.to/lastmile_qr_scan", "android": "https://dc.lft.to/lastmile_qr_scan"}, "name": "83d79f75d2a53122ac9e01dcb4bfe4f4", "type": "electric_scooter", "fusion_lon": 0.0, "is_disabled": 0, "is_reserved": 0, "bike_id": "83d79f75d2a53122ac9e01dcb4bfe4f4", "lon": -77.05739266666667}, {"fusion_lat": 0.0, "lat": 38.89231216666667, "rental_uris": {"ios": "https://dc.lft.to/lastmile_qr_scan", "android": "https://dc.lft.to/lastmile_qr_scan"}, "name": "e21ae81632fbc19682237eb353e17cd0", "type": "electric_scooter", "fusion_lon": 0.0, "is_disabled": 0, "is_reserved": 0, "bike_id": "e21ae81632fbc19682237eb353e17cd0", "lon": -77.03309}, {"fusion_lat": 0.0, "lat": 38.90548033333334, "rental_uris": {"ios": "https://dc.lft.to/lastmile_qr_scan", "android": "https://dc.lft.to/lastmile_qr_scan"}, "name": "48566a1e18c39ed228e701b8148e8797", "type": "electric_scooter", "fusion_lon": 0.0, "is_disabled": 0, "is_reserved": 0, "bike_id": "48566a1e18c39ed228e701b8148e8797", "lon": -77.05705683333333}, {"fusion_lat": 0.0, "lat": 38.9141965, "rental_uris": {"ios": "https://dc.lft.to/lastmile_qr_scan", "android": "https://dc.lft.to/lastmile_qr_scan"}, "name": "cff4fcbedc68df1b775602ce8183afa4", "type": "electric_scooter", "fusion_lon": 0.0, "is_disabled": 0, "is_reserved": 0, "bike_id": "cff4fcbedc68df1b775602ce8183afa4", "lon": -77.01884283333334}, {"fusion_lat": 0.0, "lat": 38.938819, "rental_uris": {"ios": "https://dc.lft.to/lastmile_qr_scan", "android": "https://dc.lft.to/lastmile_qr_scan"}, "name": "d5119dc5cc6b69f162e0d598d3daabae", "type": "electric_scooter", "fusion_lon": 0.0, "is_disabled": 0, "is_reserved": 0, "bike_id": "d5119dc5cc6b69f162e0d598d3daabae", "lon": -77.02461433333333}, {"fusion_lat": 0.0, "lat": 38.924160666666666, "rental_uris": {"ios": "https://dc.lft.to/lastmile_qr_scan", "android": "https://dc.lft.to/lastmile_qr_scan"}, "name": "c02043371285c2579c150ea8607caad9", "type": "electric_scooter", "fusion_lon": 0.0, "is_disabled": 0, "is_reserved": 0, "bike_id": "c02043371285c2579c150ea8607caad9", "lon": -77.020073}, {"fusion_lat": 0.0, "lat": 38.8973125, "rental_uris": {"ios": "https://dc.lft.to/lastmile_qr_scan", "android": "https://dc.lft.to/lastmile_qr_scan"}, "name": "a05e4ea63ccf9a710c4619791d564dd4", "type": "electric_scooter", "fusion_lon": 0.0, "is_disabled": 0, "is_reserved": 0, "bike_id": "a05e4ea63ccf9a710c4619791d564dd4", "lon": -77.05527366666666}, {"fusion_lat": 0.0, "lat": 38.901351166666664, "rental_uris": {"ios": "https://dc.lft.to/lastmile_qr_scan", "android": "https://dc.lft.to/lastmile_qr_scan"}, "name": "5ea9ce57e56286c9dcfd370c0c09f46c", "type": "electric_scooter", "fusion_lon": 0.0, "is_disabled": 0, "is_reserved": 0, "bike_id": "5ea9ce57e56286c9dcfd370c0c09f46c", "lon": -77.041911}, {"fusion_lat": 0.0, "lat": 38.90400433333333, "rental_uris": {"ios": "https://dc.lft.to/lastmile_qr_scan", "android": "https://dc.lft.to/lastmile_qr_scan"}, "name": "c6bb272e0a126f2f6e98d2b37f2a7c57", "type": "electric_scooter", "fusion_lon": 0.0, "is_disabled": 0, "is_reserved": 0, "bike_id": "c6bb272e0a126f2f6e98d2b37f2a7c57", "lon": -77.02005516666667}, {"fusion_lat": 0.0, "lat": 38.919161, "rental_uris": {"ios": "https://dc.lft.to/lastmile_qr_scan", "android": "https://dc.lft.to/lastmile_qr_scan"}, "name": "2ce0b9c8a85e1d77b3e8414acbca6cf2", "type": "electric_scooter", "fusion_lon": 0.0, "is_disabled": 0, "is_reserved": 0, "bike_id": "2ce0b9c8a85e1d77b3e8414acbca6cf2", "lon": -77.0261745}, {"fusion_lat": 0.0, "lat": 38.97386616666667, "rental_uris": {"ios": "https://dc.lft.to/lastmile_qr_scan", "android": "https://dc.lft.to/lastmile_qr_scan"}, "name": "161255e4b403bf772cda3dc2df1b966a", "type": "electric_bike", "fusion_lon": 0.0, "is_disabled": 0, "is_reserved": 0, "bike_id": "161255e4b403bf772cda3dc2df1b966a", "lon": -77.06474466666667}, {"fusion_lat": 0.0, "lat": 38.92119, "rental_uris": {"ios": "https://dc.lft.to/lastmile_qr_scan", "android": "https://dc.lft.to/lastmile_qr_scan"}, "name": "2fa93b9db109d5df435163cd1877e430", "type": "electric_scooter", "fusion_lon": 0.0, "is_disabled": 0, "is_reserved": 0, "bike_id": "2fa93b9db109d5df435163cd1877e430", "lon": -77.02525416666667}, {"fusion_lat": 0.0, "lat": 38.885046833333334, "rental_uris": {"ios": "https://dc.lft.to/lastmile_qr_scan", "android": "https://dc.lft.to/lastmile_qr_scan"}, "name": "a84621aa0c58be3c614e83458ff271df", "type": "electric_scooter", "fusion_lon": 0.0, "is_disabled": 0, "is_reserved": 0, "bike_id": "a84621aa0c58be3c614e83458ff271df", "lon": -77.00698716666666}, {"fusion_lat": 0.0, "lat": 38.87126516666667, "rental_uris": {"ios": "https://dc.lft.to/lastmile_qr_scan", "android": "https://dc.lft.to/lastmile_qr_scan"}, "name": "667e9b46aa91427ca30286affdd811c1", "type": "electric_scooter", "fusion_lon": 0.0, "is_disabled": 0, "is_reserved": 0, "bike_id": "667e9b46aa91427ca30286affdd811c1", "lon": -77.0059795}, {"fusion_lat": 0.0, "lat": 38.827976166666666, "rental_uris": {"ios": "https://dc.lft.to/lastmile_qr_scan", "android": "https://dc.lft.to/lastmile_qr_scan"}, "name": "b1558ca1f4b280110c0e5bd567cafbe0", "type": "electric_bike", "fusion_lon": 0.0, "is_disabled": 0, "is_reserved": 0, "bike_id": "b1558ca1f4b280110c0e5bd567cafbe0", "lon": -77.12489683333334}, {"fusion_lat": 0.0, "lat": 38.88405433333333, "rental_uris": {"ios": "https://dc.lft.to/lastmile_qr_scan", "android": "https://dc.lft.to/lastmile_qr_scan"}, "name": "6298f132b4a9b38b82174e776f96cdb9", "type": "electric_scooter", "fusion_lon": 0.0, "is_disabled": 0, "is_reserved": 0, "bike_id": "6298f132b4a9b38b82174e776f96cdb9", "lon": -77.01525166666667}, {"fusion_lat": 0.0, "lat": 38.928631333333335, "rental_uris": {"ios": "https://dc.lft.to/lastmile_qr_scan", "android": "https://dc.lft.to/lastmile_qr_scan"}, "name": "d8822d428fcdb10feec6c091ea94bf22", "type": "electric_scooter", "fusion_lon": 0.0, "is_disabled": 0, "is_reserved": 0, "bike_id": "d8822d428fcdb10feec6c091ea94bf22", "lon": -77.03240266666667}, {"fusion_lat": 0.0, "lat": 38.898501, "rental_uris": {"ios": "https://dc.lft.to/lastmile_qr_scan", "android": "https://dc.lft.to/lastmile_qr_scan"}, "name": "b6e7312493e0fae09873deaa12be9ca0", "type": "electric_scooter", "fusion_lon": 0.0, "is_disabled": 0, "is_reserved": 0, "bike_id": "b6e7312493e0fae09873deaa12be9ca0", "lon": -77.03338283333333}, {"fusion_lat": 0.0, "lat": 38.9141585, "rental_uris": {"ios": "https://dc.lft.to/lastmile_qr_scan", "android": "https://dc.lft.to/lastmile_qr_scan"}, "name": "2893f8d51e2ac0335b078458e959f9e5", "type": "electric_scooter", "fusion_lon": 0.0, "is_disabled": 0, "is_reserved": 0, "bike_id": "2893f8d51e2ac0335b078458e959f9e5", "lon": -77.01266316666667}, {"fusion_lat": 0.0, "lat": 38.90963133333333, "rental_uris": {"ios": "https://dc.lft.to/lastmile_qr_scan", "android": "https://dc.lft.to/lastmile_qr_scan"}, "name": "ca37d5dd19b9d9279927152d9c439aee", "type": "electric_bike", "fusion_lon": 0.0, "is_disabled": 0, "is_reserved": 0, "bike_id": "ca37d5dd19b9d9279927152d9c439aee", "lon": -76.98441}, {"fusion_lat": 0.0, "lat": 38.91113216666667, "rental_uris": {"ios": "https://dc.lft.to/lastmile_qr_scan", "android": "https://dc.lft.to/lastmile_qr_scan"}, "name": "7926fbca8ab19da0d69643c75cdfa677", "type": "electric_scooter", "fusion_lon": 0.0, "is_disabled": 0, "is_reserved": 0, "bike_id": "7926fbca8ab19da0d69643c75cdfa677", "lon": -77.03137216666667}, {"fusion_lat": 0.0, "lat": 38.937340666666664, "rental_uris": {"ios": "https://dc.lft.to/lastmile_qr_scan", "android": "https://dc.lft.to/lastmile_qr_scan"}, "name": "57a9072ce472adeae02907af6a456cca", "type": "electric_scooter", "fusion_lon": 0.0, "is_disabled": 0, "is_reserved": 0, "bike_id": "57a9072ce472adeae02907af6a456cca", "lon": -77.02435316666667}, {"fusion_lat": 0.0, "lat": 38.9023495, "rental_uris": {"ios": "https://dc.lft.to/lastmile_qr_scan", "android": "https://dc.lft.to/lastmile_qr_scan"}, "name": "a0287ada2b99ab4d94cb57cdd1f00df7", "type": "electric_scooter", "fusion_lon": 0.0, "is_disabled": 0, "is_reserved": 0, "bike_id": "a0287ada2b99ab4d94cb57cdd1f00df7", "lon": -77.01799083333333}, {"fusion_lat": 0.0, "lat": 38.858062, "rental_uris": {"ios": "https://dc.lft.to/lastmile_qr_scan", "android": "https://dc.lft.to/lastmile_qr_scan"}, "name": "29e2c989159dcb192f348cc20a521567", "type": "electric_scooter", "fusion_lon": 0.0, "is_disabled": 0, "is_reserved": 0, "bike_id": "29e2c989159dcb192f348cc20a521567", "lon": -76.98653516666667}, {"fusion_lat": 0.0, "lat": 38.8646275, "rental_uris": {"ios": "https://dc.lft.to/lastmile_qr_scan", "android": "https://dc.lft.to/lastmile_qr_scan"}, "name": "c836ed81088b5d716e3f99ad783edd9d", "type": "electric_bike", "fusion_lon": 0.0, "is_disabled": 0, "is_reserved": 0, "bike_id": "c836ed81088b5d716e3f99ad783edd9d", "lon": -76.94531916666666}, {"fusion_lat": 0.0, "lat": 38.9198305, "rental_uris": {"ios": "https://dc.lft.to/lastmile_qr_scan", "android": "https://dc.lft.to/lastmile_qr_scan"}, "name": "68e0dc79713685b27ebf0065f4b76f3d", "type": "electric_scooter", "fusion_lon": 0.0, "is_disabled": 0, "is_reserved": 0, "bike_id": "68e0dc79713685b27ebf0065f4b76f3d", "lon": -77.07103333333333}, {"fusion_lat": 0.0, "lat": 38.92476633333333, "rental_uris": {"ios": "https://dc.lft.to/lastmile_qr_scan", "android": "https://dc.lft.to/lastmile_qr_scan"}, "name": "d8903cb5b4c707e64c9c12f34011b54c", "type": "electric_scooter", "fusion_lon": 0.0, "is_disabled": 0, "is_reserved": 0, "bike_id": "d8903cb5b4c707e64c9c12f34011b54c", "lon": -77.0221525}, {"fusion_lat": 0.0, "lat": 38.8980845, "rental_uris": {"ios": "https://dc.lft.to/lastmile_qr_scan", "android": "https://dc.lft.to/lastmile_qr_scan"}, "name": "167cbdb3e8d32daf30469ea9e222fb87", "type": "electric_scooter", "fusion_lon": 0.0, "is_disabled": 0, "is_reserved": 0, "bike_id": "167cbdb3e8d32daf30469ea9e222fb87", "lon": -77.03186683333334}, {"fusion_lat": 0.0, "lat": 38.86631633333333, "rental_uris": {"ios": "https://dc.lft.to/lastmile_qr_scan", "android": "https://dc.lft.to/lastmile_qr_scan"}, "name": "38319c16ee9ba86aab1f6a68f381298f", "type": "electric_scooter", "fusion_lon": 0.0, "is_disabled": 0, "is_reserved": 0, "bike_id": "38319c16ee9ba86aab1f6a68f381298f", "lon": -76.98712166666667}, {"fusion_lat": 0.0, "lat": 38.88750833333334, "rental_uris": {"ios": "https://dc.lft.to/lastmile_qr_scan", "android": "https://dc.lft.to/lastmile_qr_scan"}, "name": "f57e6bf8d7019160d34da3119a55b92e", "type": "electric_scooter", "fusion_lon": 0.0, "is_disabled": 0, "is_reserved": 0, "bike_id": "f57e6bf8d7019160d34da3119a55b92e", "lon": -77.01725766666667}, {"fusion_lat": 0.0, "lat": 38.8668755, "rental_uris": {"ios": "https://dc.lft.to/lastmile_qr_scan", "android": "https://dc.lft.to/lastmile_qr_scan"}, "name": "426442516d7067669bfa36ded16b1712", "type": "electric_scooter", "fusion_lon": 0.0, "is_disabled": 0, "is_reserved": 0, "bike_id": "426442516d7067669bfa36ded16b1712", "lon": -76.98570216666667}, {"fusion_lat": 0.0, "lat": 38.892292833333336, "rental_uris": {"ios": "https://dc.lft.to/lastmile_qr_scan", "android": "https://dc.lft.to/lastmile_qr_scan"}, "name": "e9aef2ff12290489167042578b7ec3e3", "type": "electric_scooter", "fusion_lon": 0.0, "is_disabled": 0, "is_reserved": 0, "bike_id": "e9aef2ff12290489167042578b7ec3e3", "lon": -77.02206183333334}, {"fusion_lat": 0.0, "lat": 38.910019, "rental_uris": {"ios": "https://dc.lft.to/lastmile_qr_scan", "android": "https://dc.lft.to/lastmile_qr_scan"}, "name": "ce9313e3854f1b844322a1d4a7037f7a", "type": "electric_scooter", "fusion_lon": 0.0, "is_disabled": 0, "is_reserved": 0, "bike_id": "ce9313e3854f1b844322a1d4a7037f7a", "lon": -77.06607266666667}, {"fusion_lat": 0.0, "lat": 38.91814383333333, "rental_uris": {"ios": "https://dc.lft.to/lastmile_qr_scan", "android": "https://dc.lft.to/lastmile_qr_scan"}, "name": "68d4534d08fe153d9ca5c5a404544e28", "type": "electric_scooter", "fusion_lon": 0.0, "is_disabled": 0, "is_reserved": 0, "bike_id": "68d4534d08fe153d9ca5c5a404544e28", "lon": -77.02558133333334}, {"fusion_lat": 0.0, "lat": 38.90025133333333, "rental_uris": {"ios": "https://dc.lft.to/lastmile_qr_scan", "android": "https://dc.lft.to/lastmile_qr_scan"}, "name": "77520e05a65cab71b1ce7827d40bc263", "type": "electric_scooter", "fusion_lon": 0.0, "is_disabled": 0, "is_reserved": 0, "bike_id": "77520e05a65cab71b1ce7827d40bc263", "lon": -77.00680283333334}, {"fusion_lat": 0.0, "lat": 38.9022565, "rental_uris": {"ios": "https://dc.lft.to/lastmile_qr_scan", "android": "https://dc.lft.to/lastmile_qr_scan"}, "name": "70b5a181f3283154e423d3acaf3220d0", "type": "electric_scooter", "fusion_lon": 0.0, "is_disabled": 0, "is_reserved": 0, "bike_id": "70b5a181f3283154e423d3acaf3220d0", "lon": -77.03911216666667}, {"fusion_lat": 0.0, "lat": 38.916841833333336, "rental_uris": {"ios": "https://dc.lft.to/lastmile_qr_scan", "android": "https://dc.lft.to/lastmile_qr_scan"}, "name": "6fe69a2a03bacf106bbb33ec5d072297", "type": "electric_scooter", "fusion_lon": 0.0, "is_disabled": 0, "is_reserved": 0, "bike_id": "6fe69a2a03bacf106bbb33ec5d072297", "lon": -77.02968816666667}, {"fusion_lat": 0.0, "lat": 38.91866266666667, "rental_uris": {"ios": "https://dc.lft.to/lastmile_qr_scan", "android": "https://dc.lft.to/lastmile_qr_scan"}, "name": "d549e5e419e778219b335a40e2bfa360", "type": "electric_scooter", "fusion_lon": 0.0, "is_disabled": 0, "is_reserved": 0, "bike_id": "d549e5e419e778219b335a40e2bfa360", "lon": -77.0416265}, {"fusion_lat": 0.0, "lat": 38.898403, "rental_uris": {"ios": "https://dc.lft.to/lastmile_qr_scan", "android": "https://dc.lft.to/lastmile_qr_scan"}, "name": "328e91d9237d873ef7420bb83284e6f8", "type": "electric_scooter", "fusion_lon": 0.0, "is_disabled": 0, "is_reserved": 0, "bike_id": "328e91d9237d873ef7420bb83284e6f8", "lon": -77.01275866666667}, {"fusion_lat": 0.0, "lat": 38.92813233333333, "rental_uris": {"ios": "https://dc.lft.to/lastmile_qr_scan", "android": "https://dc.lft.to/lastmile_qr_scan"}, "name": "3261ccaca3caf77fdd080737b9d59458", "type": "electric_scooter", "fusion_lon": 0.0, "is_disabled": 0, "is_reserved": 0, "bike_id": "3261ccaca3caf77fdd080737b9d59458", "lon": -77.03251583333333}, {"fusion_lat": 0.0, "lat": 38.915598333333335, "rental_uris": {"ios": "https://dc.lft.to/lastmile_qr_scan", "android": "https://dc.lft.to/lastmile_qr_scan"}, "name": "d3b60c9ad25233ded1273f597aa81081", "type": "electric_scooter", "fusion_lon": 0.0, "is_disabled": 0, "is_reserved": 0, "bike_id": "d3b60c9ad25233ded1273f597aa81081", "lon": -77.031348}, {"fusion_lat": 0.0, "lat": 38.90987633333334, "rental_uris": {"ios": "https://dc.lft.to/lastmile_qr_scan", "android": "https://dc.lft.to/lastmile_qr_scan"}, "name": "bb17b4060507d23033fd90b37b2b63af", "type": "electric_scooter", "fusion_lon": 0.0, "is_disabled": 0, "is_reserved": 0, "bike_id": "bb17b4060507d23033fd90b37b2b63af", "lon": -77.00504883333333}, {"fusion_lat": 0.0, "lat": 38.944438166666664, "rental_uris": {"ios": "https://dc.lft.to/lastmile_qr_scan", "android": "https://dc.lft.to/lastmile_qr_scan"}, "name": "3af49516c652aefd92978b6a714e9209", "type": "electric_scooter", "fusion_lon": 0.0, "is_disabled": 0, "is_reserved": 0, "bike_id": "3af49516c652aefd92978b6a714e9209", "lon": -77.06410383333333}, {"fusion_lat": 0.0, "lat": 38.908789166666665, "rental_uris": {"ios": "https://dc.lft.to/lastmile_qr_scan", "android": "https://dc.lft.to/lastmile_qr_scan"}, "name": "7d04479f50a7f604320621842df2d558", "type": "electric_scooter", "fusion_lon": 0.0, "is_disabled": 0, "is_reserved": 0, "bike_id": "7d04479f50a7f604320621842df2d558", "lon": -77.04410616666667}, {"fusion_lat": 0.0, "lat": 38.88668916666666, "rental_uris": {"ios": "https://dc.lft.to/lastmile_qr_scan", "android": "https://dc.lft.to/lastmile_qr_scan"}, "name": "305a3e90f4b9e4dacaa2ca859e2e705d", "type": "electric_scooter", "fusion_lon": 0.0, "is_disabled": 0, "is_reserved": 0, "bike_id": "305a3e90f4b9e4dacaa2ca859e2e705d", "lon": -76.95195883333334}, {"fusion_lat": 0.0, "lat": 38.898422, "rental_uris": {"ios": "https://dc.lft.to/lastmile_qr_scan", "android": "https://dc.lft.to/lastmile_qr_scan"}, "name": "1ac365bff99206222d8592e679528d35", "type": "electric_scooter", "fusion_lon": 0.0, "is_disabled": 0, "is_reserved": 0, "bike_id": "1ac365bff99206222d8592e679528d35", "lon": -77.01881883333333}, {"fusion_lat": 0.0, "lat": 38.916386, "rental_uris": {"ios": "https://dc.lft.to/lastmile_qr_scan", "android": "https://dc.lft.to/lastmile_qr_scan"}, "name": "c67fc35616a9d0b3a9274ca884e58d7f", "type": "electric_scooter", "fusion_lon": 0.0, "is_disabled": 0, "is_reserved": 0, "bike_id": "c67fc35616a9d0b3a9274ca884e58d7f", "lon": -77.03188983333334}, {"fusion_lat": 0.0, "lat": 38.8768035, "rental_uris": {"ios": "https://dc.lft.to/lastmile_qr_scan", "android": "https://dc.lft.to/lastmile_qr_scan"}, "name": "8fec7b18ae1e63c27f4da5ec22d80d19", "type": "electric_scooter", "fusion_lon": 0.0, "is_disabled": 0, "is_reserved": 0, "bike_id": "8fec7b18ae1e63c27f4da5ec22d80d19", "lon": -77.01790583333333}, {"fusion_lat": 0.0, "lat": 38.88165933333333, "rental_uris": {"ios": "https://dc.lft.to/lastmile_qr_scan", "android": "https://dc.lft.to/lastmile_qr_scan"}, "name": "39a6e11335b3d3855cd0d2afcd7234cd", "type": "electric_scooter", "fusion_lon": 0.0, "is_disabled": 0, "is_reserved": 0, "bike_id": "39a6e11335b3d3855cd0d2afcd7234cd", "lon": -77.0276445}, {"fusion_lat": 0.0, "lat": 38.931336333333334, "rental_uris": {"ios": "https://dc.lft.to/lastmile_qr_scan", "android": "https://dc.lft.to/lastmile_qr_scan"}, "name": "ce6e3d514a954a86f9494c35a62dc7cb", "type": "electric_scooter", "fusion_lon": 0.0, "is_disabled": 0, "is_reserved": 0, "bike_id": "ce6e3d514a954a86f9494c35a62dc7cb", "lon": -77.032537}, {"fusion_lat": 0.0, "lat": 38.857655, "rental_uris": {"ios": "https://dc.lft.to/lastmile_qr_scan", "android": "https://dc.lft.to/lastmile_qr_scan"}, "name": "9dd14de7f6376e1c1c2064fbd625cdac", "type": "electric_bike", "fusion_lon": 0.0, "is_disabled": 0, "is_reserved": 0, "bike_id": "9dd14de7f6376e1c1c2064fbd625cdac", "lon": -76.98764766666666}, {"fusion_lat": 0.0, "lat": 38.90247216666667, "rental_uris": {"ios": "https://dc.lft.to/lastmile_qr_scan", "android": "https://dc.lft.to/lastmile_qr_scan"}, "name": "ee82ea9c8ff8751c0f7b26b0f80aed02", "type": "electric_scooter", "fusion_lon": 0.0, "is_disabled": 0, "is_reserved": 0, "bike_id": "ee82ea9c8ff8751c0f7b26b0f80aed02", "lon": -77.03057416666667}, {"fusion_lat": 0.0, "lat": 38.9140585, "rental_uris": {"ios": "https://dc.lft.to/lastmile_qr_scan", "android": "https://dc.lft.to/lastmile_qr_scan"}, "name": "df5e513d5235599094a864dae353b5a1", "type": "electric_scooter", "fusion_lon": 0.0, "is_disabled": 0, "is_reserved": 0, "bike_id": "df5e513d5235599094a864dae353b5a1", "lon": -77.01223883333333}, {"fusion_lat": 0.0, "lat": 38.912397, "rental_uris": {"ios": "https://dc.lft.to/lastmile_qr_scan", "android": "https://dc.lft.to/lastmile_qr_scan"}, "name": "179a1c155d9868ae148d9cce0a2519b1", "type": "electric_scooter", "fusion_lon": 0.0, "is_disabled": 0, "is_reserved": 0, "bike_id": "179a1c155d9868ae148d9cce0a2519b1", "lon": -77.0487085}, {"fusion_lat": 0.0, "lat": 38.904860166666666, "rental_uris": {"ios": "https://dc.lft.to/lastmile_qr_scan", "android": "https://dc.lft.to/lastmile_qr_scan"}, "name": "325f4875d1a501af3537c695b3186965", "type": "electric_scooter", "fusion_lon": 0.0, "is_disabled": 0, "is_reserved": 0, "bike_id": "325f4875d1a501af3537c695b3186965", "lon": -77.04327566666667}, {"fusion_lat": 0.0, "lat": 38.92862866666667, "rental_uris": {"ios": "https://dc.lft.to/lastmile_qr_scan", "android": "https://dc.lft.to/lastmile_qr_scan"}, "name": "b205937983b2d2bc6d82a6a7836504a7", "type": "electric_scooter", "fusion_lon": 0.0, "is_disabled": 0, "is_reserved": 0, "bike_id": "b205937983b2d2bc6d82a6a7836504a7", "lon": -77.03245516666667}, {"fusion_lat": 0.0, "lat": 38.9169815, "rental_uris": {"ios": "https://dc.lft.to/lastmile_qr_scan", "android": "https://dc.lft.to/lastmile_qr_scan"}, "name": "84c3897d4f2704c9052bdb8799fa6ad2", "type": "electric_scooter", "fusion_lon": 0.0, "is_disabled": 0, "is_reserved": 0, "bike_id": "84c3897d4f2704c9052bdb8799fa6ad2", "lon": -77.037801}, {"fusion_lat": 0.0, "lat": 38.906345333333334, "rental_uris": {"ios": "https://dc.lft.to/lastmile_qr_scan", "android": "https://dc.lft.to/lastmile_qr_scan"}, "name": "dd5bfb49d9103862217adc22a546350e", "type": "electric_scooter", "fusion_lon": 0.0, "is_disabled": 0, "is_reserved": 0, "bike_id": "dd5bfb49d9103862217adc22a546350e", "lon": -77.04189233333334}, {"fusion_lat": 0.0, "lat": 38.90025383333333, "rental_uris": {"ios": "https://dc.lft.to/lastmile_qr_scan", "android": "https://dc.lft.to/lastmile_qr_scan"}, "name": "037db7eea0ebaedbdcf4105921b900a9", "type": "electric_scooter", "fusion_lon": 0.0, "is_disabled": 0, "is_reserved": 0, "bike_id": "037db7eea0ebaedbdcf4105921b900a9", "lon": -76.987001}, {"fusion_lat": 0.0, "lat": 38.90393983333333, "rental_uris": {"ios": "https://dc.lft.to/lastmile_qr_scan", "android": "https://dc.lft.to/lastmile_qr_scan"}, "name": "7e4728c7aa547f29200d8f22e26d8262", "type": "electric_scooter", "fusion_lon": 0.0, "is_disabled": 0, "is_reserved": 0, "bike_id": "7e4728c7aa547f29200d8f22e26d8262", "lon": -77.04351716666666}, {"fusion_lat": 0.0, "lat": 38.92946883333333, "rental_uris": {"ios": "https://dc.lft.to/lastmile_qr_scan", "android": "https://dc.lft.to/lastmile_qr_scan"}, "name": "630066aa27e7b4d6d68846421f18831b", "type": "electric_scooter", "fusion_lon": 0.0, "is_disabled": 0, "is_reserved": 0, "bike_id": "630066aa27e7b4d6d68846421f18831b", "lon": -77.0189025}, {"fusion_lat": 0.0, "lat": 38.92031516666667, "rental_uris": {"ios": "https://dc.lft.to/lastmile_qr_scan", "android": "https://dc.lft.to/lastmile_qr_scan"}, "name": "77076fd42a192b9d7e21ca595b8880e7", "type": "electric_scooter", "fusion_lon": 0.0, "is_disabled": 0, "is_reserved": 0, "bike_id": "77076fd42a192b9d7e21ca595b8880e7", "lon": -77.01069766666667}, {"fusion_lat": 0.0, "lat": 38.89224266666667, "rental_uris": {"ios": "https://dc.lft.to/lastmile_qr_scan", "android": "https://dc.lft.to/lastmile_qr_scan"}, "name": "75470ee032a131001f7a4d0cc05be0fe", "type": "electric_scooter", "fusion_lon": 0.0, "is_disabled": 0, "is_reserved": 0, "bike_id": "75470ee032a131001f7a4d0cc05be0fe", "lon": -77.04193783333334}, {"fusion_lat": 0.0, "lat": 38.924696833333336, "rental_uris": {"ios": "https://dc.lft.to/lastmile_qr_scan", "android": "https://dc.lft.to/lastmile_qr_scan"}, "name": "f8285d7de24ec02a4cd11131b56d8739", "type": "electric_scooter", "fusion_lon": 0.0, "is_disabled": 0, "is_reserved": 0, "bike_id": "f8285d7de24ec02a4cd11131b56d8739", "lon": -77.0220985}, {"fusion_lat": 0.0, "lat": 38.926588, "rental_uris": {"ios": "https://dc.lft.to/lastmile_qr_scan", "android": "https://dc.lft.to/lastmile_qr_scan"}, "name": "26a668f6234e6c8f838d246efe2ad864", "type": "electric_scooter", "fusion_lon": 0.0, "is_disabled": 0, "is_reserved": 0, "bike_id": "26a668f6234e6c8f838d246efe2ad864", "lon": -77.02303016666667}, {"fusion_lat": 0.0, "lat": 38.91030416666667, "rental_uris": {"ios": "https://dc.lft.to/lastmile_qr_scan", "android": "https://dc.lft.to/lastmile_qr_scan"}, "name": "acdf2752ce3c2c516a2f73d0b3798592", "type": "electric_scooter", "fusion_lon": 0.0, "is_disabled": 0, "is_reserved": 0, "bike_id": "acdf2752ce3c2c516a2f73d0b3798592", "lon": -77.03441716666667}, {"fusion_lat": 0.0, "lat": 38.90892066666667, "rental_uris": {"ios": "https://dc.lft.to/lastmile_qr_scan", "android": "https://dc.lft.to/lastmile_qr_scan"}, "name": "8d4d1edf930825dd4e1f4948eca4df8c", "type": "electric_scooter", "fusion_lon": 0.0, "is_disabled": 0, "is_reserved": 0, "bike_id": "8d4d1edf930825dd4e1f4948eca4df8c", "lon": -77.022904}, {"fusion_lat": 0.0, "lat": 38.8979045, "rental_uris": {"ios": "https://dc.lft.to/lastmile_qr_scan", "android": "https://dc.lft.to/lastmile_qr_scan"}, "name": "fe115a1f5562d0e9df9bbe57e4815392", "type": "electric_scooter", "fusion_lon": 0.0, "is_disabled": 0, "is_reserved": 0, "bike_id": "fe115a1f5562d0e9df9bbe57e4815392", "lon": -76.9257405}, {"fusion_lat": 0.0, "lat": 38.92222683333333, "rental_uris": {"ios": "https://dc.lft.to/lastmile_qr_scan", "android": "https://dc.lft.to/lastmile_qr_scan"}, "name": "066a4421bbe2082117a7808ba6151a5a", "type": "electric_scooter", "fusion_lon": 0.0, "is_disabled": 0, "is_reserved": 0, "bike_id": "066a4421bbe2082117a7808ba6151a5a", "lon": -77.04334816666666}, {"fusion_lat": 0.0, "lat": 38.9482005, "rental_uris": {"ios": "https://dc.lft.to/lastmile_qr_scan", "android": "https://dc.lft.to/lastmile_qr_scan"}, "name": "c6e665dfed630c7d35c58eccc3fa228b", "type": "electric_bike", "fusion_lon": 0.0, "is_disabled": 0, "is_reserved": 0, "bike_id": "c6e665dfed630c7d35c58eccc3fa228b", "lon": -77.02978616666667}, {"fusion_lat": 0.0, "lat": 38.9233795, "rental_uris": {"ios": "https://dc.lft.to/lastmile_qr_scan", "android": "https://dc.lft.to/lastmile_qr_scan"}, "name": "18a4aa5c8f9cd0b0b0ea99d91276d4fd", "type": "electric_scooter", "fusion_lon": 0.0, "is_disabled": 0, "is_reserved": 0, "bike_id": "18a4aa5c8f9cd0b0b0ea99d91276d4fd", "lon": -77.041934}, {"fusion_lat": 0.0, "lat": 38.8934615, "rental_uris": {"ios": "https://dc.lft.to/lastmile_qr_scan", "android": "https://dc.lft.to/lastmile_qr_scan"}, "name": "28bd04aabc7ed42950d0a18f52f13270", "type": "electric_scooter", "fusion_lon": 0.0, "is_disabled": 0, "is_reserved": 0, "bike_id": "28bd04aabc7ed42950d0a18f52f13270", "lon": -77.01193766666667}, {"fusion_lat": 0.0, "lat": 38.924603166666664, "rental_uris": {"ios": "https://dc.lft.to/lastmile_qr_scan", "android": "https://dc.lft.to/lastmile_qr_scan"}, "name": "17bc32c29b3b1c5f153d52922f37bb39", "type": "electric_scooter", "fusion_lon": 0.0, "is_disabled": 0, "is_reserved": 0, "bike_id": "17bc32c29b3b1c5f153d52922f37bb39", "lon": -77.02152983333333}, {"fusion_lat": 0.0, "lat": 38.900480333333334, "rental_uris": {"ios": "https://dc.lft.to/lastmile_qr_scan", "android": "https://dc.lft.to/lastmile_qr_scan"}, "name": "11f51937f2f82afbee3fbc16a0345e6e", "type": "electric_scooter", "fusion_lon": 0.0, "is_disabled": 0, "is_reserved": 0, "bike_id": "11f51937f2f82afbee3fbc16a0345e6e", "lon": -76.98282933333333}, {"fusion_lat": 0.0, "lat": 38.92364633333333, "rental_uris": {"ios": "https://dc.lft.to/lastmile_qr_scan", "android": "https://dc.lft.to/lastmile_qr_scan"}, "name": "92955291ab8857d8ce1474852e2db22a", "type": "electric_scooter", "fusion_lon": 0.0, "is_disabled": 0, "is_reserved": 0, "bike_id": "92955291ab8857d8ce1474852e2db22a", "lon": -77.050287}, {"fusion_lat": 0.0, "lat": 38.923980666666665, "rental_uris": {"ios": "https://dc.lft.to/lastmile_qr_scan", "android": "https://dc.lft.to/lastmile_qr_scan"}, "name": "c0eb0e88bf5a936ba42757217e279763", "type": "electric_scooter", "fusion_lon": 0.0, "is_disabled": 0, "is_reserved": 0, "bike_id": "c0eb0e88bf5a936ba42757217e279763", "lon": -77.020399}, {"fusion_lat": 0.0, "lat": 38.855807666666664, "rental_uris": {"ios": "https://dc.lft.to/lastmile_qr_scan", "android": "https://dc.lft.to/lastmile_qr_scan"}, "name": "4d2a6b72801edab790592ed77a6fba0d", "type": "electric_scooter", "fusion_lon": 0.0, "is_disabled": 0, "is_reserved": 0, "bike_id": "4d2a6b72801edab790592ed77a6fba0d", "lon": -76.96655816666667}, {"fusion_lat": 0.0, "lat": 38.91556966666667, "rental_uris": {"ios": "https://dc.lft.to/lastmile_qr_scan", "android": "https://dc.lft.to/lastmile_qr_scan"}, "name": "c9b2a87f3088e20542da52330361a730", "type": "electric_scooter", "fusion_lon": 0.0, "is_disabled": 0, "is_reserved": 0, "bike_id": "c9b2a87f3088e20542da52330361a730", "lon": -77.03176766666667}, {"fusion_lat": 0.0, "lat": 38.897095, "rental_uris": {"ios": "https://dc.lft.to/lastmile_qr_scan", "android": "https://dc.lft.to/lastmile_qr_scan"}, "name": "aba0beb9453b6e05ae3088e522530555", "type": "electric_scooter", "fusion_lon": 0.0, "is_disabled": 0, "is_reserved": 0, "bike_id": "aba0beb9453b6e05ae3088e522530555", "lon": -77.0228955}, {"fusion_lat": 0.0, "lat": 38.9236875, "rental_uris": {"ios": "https://dc.lft.to/lastmile_qr_scan", "android": "https://dc.lft.to/lastmile_qr_scan"}, "name": "32f5036b90875b04b6ad63690839f857", "type": "electric_scooter", "fusion_lon": 0.0, "is_disabled": 0, "is_reserved": 0, "bike_id": "32f5036b90875b04b6ad63690839f857", "lon": -77.0195125}, {"fusion_lat": 0.0, "lat": 38.918920166666666, "rental_uris": {"ios": "https://dc.lft.to/lastmile_qr_scan", "android": "https://dc.lft.to/lastmile_qr_scan"}, "name": "804fce24dadf92a762831c5ab472472c", "type": "electric_scooter", "fusion_lon": 0.0, "is_disabled": 0, "is_reserved": 0, "bike_id": "804fce24dadf92a762831c5ab472472c", "lon": -77.00345283333333}, {"fusion_lat": 0.0, "lat": 38.956376666666664, "rental_uris": {"ios": "https://dc.lft.to/lastmile_qr_scan", "android": "https://dc.lft.to/lastmile_qr_scan"}, "name": "ce9eff333ab9b0778e9035a0b52efad8", "type": "electric_bike", "fusion_lon": 0.0, "is_disabled": 0, "is_reserved": 0, "bike_id": "ce9eff333ab9b0778e9035a0b52efad8", "lon": -76.93870666666666}, {"fusion_lat": 0.0, "lat": 38.897703166666666, "rental_uris": {"ios": "https://dc.lft.to/lastmile_qr_scan", "android": "https://dc.lft.to/lastmile_qr_scan"}, "name": "1e74c624d7c6c919417338e58e492bde", "type": "electric_scooter", "fusion_lon": 0.0, "is_disabled": 0, "is_reserved": 0, "bike_id": "1e74c624d7c6c919417338e58e492bde", "lon": -77.03169616666666}, {"fusion_lat": 0.0, "lat": 38.89728083333333, "rental_uris": {"ios": "https://dc.lft.to/lastmile_qr_scan", "android": "https://dc.lft.to/lastmile_qr_scan"}, "name": "ae88fc9e00d10947c7ee8be16159abee", "type": "electric_scooter", "fusion_lon": 0.0, "is_disabled": 0, "is_reserved": 0, "bike_id": "ae88fc9e00d10947c7ee8be16159abee", "lon": -77.05525183333333}, {"fusion_lat": 0.0, "lat": 38.908137833333335, "rental_uris": {"ios": "https://dc.lft.to/lastmile_qr_scan", "android": "https://dc.lft.to/lastmile_qr_scan"}, "name": "5f8e4c60b424ea269a97c6bba336aa88", "type": "electric_scooter", "fusion_lon": 0.0, "is_disabled": 0, "is_reserved": 0, "bike_id": "5f8e4c60b424ea269a97c6bba336aa88", "lon": -77.0339155}, {"fusion_lat": 0.0, "lat": 38.89728183333333, "rental_uris": {"ios": "https://dc.lft.to/lastmile_qr_scan", "android": "https://dc.lft.to/lastmile_qr_scan"}, "name": "7ddd3527c9cdbed5ea3686ad0f1cb8ac", "type": "electric_scooter", "fusion_lon": 0.0, "is_disabled": 0, "is_reserved": 0, "bike_id": "7ddd3527c9cdbed5ea3686ad0f1cb8ac", "lon": -77.00984066666666}, {"fusion_lat": 0.0, "lat": 38.9234425, "rental_uris": {"ios": "https://dc.lft.to/lastmile_qr_scan", "android": "https://dc.lft.to/lastmile_qr_scan"}, "name": "d69669d69800eb4e12ac1cededc9348f", "type": "electric_scooter", "fusion_lon": 0.0, "is_disabled": 0, "is_reserved": 0, "bike_id": "d69669d69800eb4e12ac1cededc9348f", "lon": -77.05121283333334}, {"fusion_lat": 0.0, "lat": 38.93282083333333, "rental_uris": {"ios": "https://dc.lft.to/lastmile_qr_scan", "android": "https://dc.lft.to/lastmile_qr_scan"}, "name": "655fb2a624493e064859bf1c509b43b5", "type": "electric_scooter", "fusion_lon": 0.0, "is_disabled": 0, "is_reserved": 0, "bike_id": "655fb2a624493e064859bf1c509b43b5", "lon": -77.02542133333333}, {"fusion_lat": 0.0, "lat": 38.92367483333334, "rental_uris": {"ios": "https://dc.lft.to/lastmile_qr_scan", "android": "https://dc.lft.to/lastmile_qr_scan"}, "name": "3f9329db0f476676c47acef66f1007a5", "type": "electric_scooter", "fusion_lon": 0.0, "is_disabled": 0, "is_reserved": 0, "bike_id": "3f9329db0f476676c47acef66f1007a5", "lon": -77.0212145}, {"fusion_lat": 0.0, "lat": 38.91979966666667, "rental_uris": {"ios": "https://dc.lft.to/lastmile_qr_scan", "android": "https://dc.lft.to/lastmile_qr_scan"}, "name": "8cb289ba3e898a81b0157fb45f11ba08", "type": "electric_scooter", "fusion_lon": 0.0, "is_disabled": 0, "is_reserved": 0, "bike_id": "8cb289ba3e898a81b0157fb45f11ba08", "lon": -77.02402466666666}, {"fusion_lat": 0.0, "lat": 38.9163215, "rental_uris": {"ios": "https://dc.lft.to/lastmile_qr_scan", "android": "https://dc.lft.to/lastmile_qr_scan"}, "name": "440beb7cd0983f5fad922d6e21dd06bc", "type": "electric_scooter", "fusion_lon": 0.0, "is_disabled": 0, "is_reserved": 0, "bike_id": "440beb7cd0983f5fad922d6e21dd06bc", "lon": -77.032128}, {"fusion_lat": 0.0, "lat": 38.935343333333336, "rental_uris": {"ios": "https://dc.lft.to/lastmile_qr_scan", "android": "https://dc.lft.to/lastmile_qr_scan"}, "name": "52e84ca7982a15a0c1bb0dc472022063", "type": "electric_scooter", "fusion_lon": 0.0, "is_disabled": 0, "is_reserved": 0, "bike_id": "52e84ca7982a15a0c1bb0dc472022063", "lon": -77.02352766666667}, {"fusion_lat": 0.0, "lat": 38.87960666666667, "rental_uris": {"ios": "https://dc.lft.to/lastmile_qr_scan", "android": "https://dc.lft.to/lastmile_qr_scan"}, "name": "0b5c26671cc51381f39e031b1815c3c1", "type": "electric_scooter", "fusion_lon": 0.0, "is_disabled": 0, "is_reserved": 0, "bike_id": "0b5c26671cc51381f39e031b1815c3c1", "lon": -77.0237315}, {"fusion_lat": 0.0, "lat": 38.922414333333336, "rental_uris": {"ios": "https://dc.lft.to/lastmile_qr_scan", "android": "https://dc.lft.to/lastmile_qr_scan"}, "name": "a3ba60531605b6438d1d18bb52aeb3d7", "type": "electric_scooter", "fusion_lon": 0.0, "is_disabled": 0, "is_reserved": 0, "bike_id": "a3ba60531605b6438d1d18bb52aeb3d7", "lon": -77.03895916666667}, {"fusion_lat": 0.0, "lat": 38.898276833333334, "rental_uris": {"ios": "https://dc.lft.to/lastmile_qr_scan", "android": "https://dc.lft.to/lastmile_qr_scan"}, "name": "f09f44311e81e7ba44483b0cc98b1d49", "type": "electric_scooter", "fusion_lon": 0.0, "is_disabled": 0, "is_reserved": 0, "bike_id": "f09f44311e81e7ba44483b0cc98b1d49", "lon": -77.03343}, {"fusion_lat": 0.0, "lat": 38.89621266666666, "rental_uris": {"ios": "https://dc.lft.to/lastmile_qr_scan", "android": "https://dc.lft.to/lastmile_qr_scan"}, "name": "15cea635b2ce125f0a0b623f187e4168", "type": "electric_scooter", "fusion_lon": 0.0, "is_disabled": 0, "is_reserved": 0, "bike_id": "15cea635b2ce125f0a0b623f187e4168", "lon": -77.0092165}, {"fusion_lat": 0.0, "lat": 38.873733, "rental_uris": {"ios": "https://dc.lft.to/lastmile_qr_scan", "android": "https://dc.lft.to/lastmile_qr_scan"}, "name": "049a2e4c1dbc98cd03d63f11d77d8980", "type": "electric_scooter", "fusion_lon": 0.0, "is_disabled": 0, "is_reserved": 0, "bike_id": "049a2e4c1dbc98cd03d63f11d77d8980", "lon": -76.97003033333333}, {"fusion_lat": 0.0, "lat": 38.89623066666667, "rental_uris": {"ios": "https://dc.lft.to/lastmile_qr_scan", "android": "https://dc.lft.to/lastmile_qr_scan"}, "name": "066433be0db392e06c04a5c3b2556dfa", "type": "electric_scooter", "fusion_lon": 0.0, "is_disabled": 0, "is_reserved": 0, "bike_id": "066433be0db392e06c04a5c3b2556dfa", "lon": -77.02592133333333}, {"fusion_lat": 0.0, "lat": 38.9391275, "rental_uris": {"ios": "https://dc.lft.to/lastmile_qr_scan", "android": "https://dc.lft.to/lastmile_qr_scan"}, "name": "6a9bff0b0159d8cccbd85790990fc48e", "type": "electric_scooter", "fusion_lon": 0.0, "is_disabled": 0, "is_reserved": 0, "bike_id": "6a9bff0b0159d8cccbd85790990fc48e", "lon": -77.03620783333334}, {"fusion_lat": 0.0, "lat": 39.05255833333333, "rental_uris": {"ios": "https://dc.lft.to/lastmile_qr_scan", "android": "https://dc.lft.to/lastmile_qr_scan"}, "name": "d08e994cb9c4cede540f1767fde2334e", "type": "electric_bike", "fusion_lon": 0.0, "is_disabled": 0, "is_reserved": 0, "bike_id": "d08e994cb9c4cede540f1767fde2334e", "lon": -77.0806635}, {"fusion_lat": 0.0, "lat": 38.909809333333335, "rental_uris": {"ios": "https://dc.lft.to/lastmile_qr_scan", "android": "https://dc.lft.to/lastmile_qr_scan"}, "name": "553d39d9dd66ec19b225b2f68ff78d4d", "type": "electric_scooter", "fusion_lon": 0.0, "is_disabled": 0, "is_reserved": 0, "bike_id": "553d39d9dd66ec19b225b2f68ff78d4d", "lon": -77.06500616666666}, {"fusion_lat": 0.0, "lat": 38.88336783333333, "rental_uris": {"ios": "https://dc.lft.to/lastmile_qr_scan", "android": "https://dc.lft.to/lastmile_qr_scan"}, "name": "ce07ff9b62fb5afb778aa0ec1a7d397e", "type": "electric_scooter", "fusion_lon": 0.0, "is_disabled": 0, "is_reserved": 0, "bike_id": "ce07ff9b62fb5afb778aa0ec1a7d397e", "lon": -77.017459}, {"fusion_lat": 0.0, "lat": 38.912701, "rental_uris": {"ios": "https://dc.lft.to/lastmile_qr_scan", "android": "https://dc.lft.to/lastmile_qr_scan"}, "name": "7429bc5649c7503521b3515b27b075f8", "type": "electric_scooter", "fusion_lon": 0.0, "is_disabled": 0, "is_reserved": 0, "bike_id": "7429bc5649c7503521b3515b27b075f8", "lon": -77.04553}, {"fusion_lat": 0.0, "lat": 38.87396433333333, "rental_uris": {"ios": "https://dc.lft.to/lastmile_qr_scan", "android": "https://dc.lft.to/lastmile_qr_scan"}, "name": "357c01f723511081ac430050cc34ac81", "type": "electric_scooter", "fusion_lon": 0.0, "is_disabled": 0, "is_reserved": 0, "bike_id": "357c01f723511081ac430050cc34ac81", "lon": -77.00194516666667}, {"fusion_lat": 0.0, "lat": 38.9287655, "rental_uris": {"ios": "https://dc.lft.to/lastmile_qr_scan", "android": "https://dc.lft.to/lastmile_qr_scan"}, "name": "c752a1d5c7869dac594d5f76ad71efae", "type": "electric_scooter", "fusion_lon": 0.0, "is_disabled": 0, "is_reserved": 0, "bike_id": "c752a1d5c7869dac594d5f76ad71efae", "lon": -77.03325283333334}, {"fusion_lat": 0.0, "lat": 38.902655, "rental_uris": {"ios": "https://dc.lft.to/lastmile_qr_scan", "android": "https://dc.lft.to/lastmile_qr_scan"}, "name": "743ba3fa6467f7ca5f6b71c2bc2c03ba", "type": "electric_scooter", "fusion_lon": 0.0, "is_disabled": 0, "is_reserved": 0, "bike_id": "743ba3fa6467f7ca5f6b71c2bc2c03ba", "lon": -77.0296815}, {"fusion_lat": 0.0, "lat": 38.883280666666664, "rental_uris": {"ios": "https://dc.lft.to/lastmile_qr_scan", "android": "https://dc.lft.to/lastmile_qr_scan"}, "name": "aa4440c833597790203058c05ea6d0ce", "type": "electric_scooter", "fusion_lon": 0.0, "is_disabled": 0, "is_reserved": 0, "bike_id": "aa4440c833597790203058c05ea6d0ce", "lon": -77.01782366666667}, {"fusion_lat": 0.0, "lat": 38.9011815, "rental_uris": {"ios": "https://dc.lft.to/lastmile_qr_scan", "android": "https://dc.lft.to/lastmile_qr_scan"}, "name": "166861b776fa4868886cb4083dfc69e2", "type": "electric_scooter", "fusion_lon": 0.0, "is_disabled": 0, "is_reserved": 0, "bike_id": "166861b776fa4868886cb4083dfc69e2", "lon": -77.03267216666667}, {"fusion_lat": 0.0, "lat": 38.931681833333336, "rental_uris": {"ios": "https://dc.lft.to/lastmile_qr_scan", "android": "https://dc.lft.to/lastmile_qr_scan"}, "name": "7910918df679d0073907fb1304216a6f", "type": "electric_scooter", "fusion_lon": 0.0, "is_disabled": 0, "is_reserved": 0, "bike_id": "7910918df679d0073907fb1304216a6f", "lon": -77.07072783333334}, {"fusion_lat": 0.0, "lat": 38.904140166666664, "rental_uris": {"ios": "https://dc.lft.to/lastmile_qr_scan", "android": "https://dc.lft.to/lastmile_qr_scan"}, "name": "b1ea312cfeab24ba570f0c9bffeaa9b0", "type": "electric_scooter", "fusion_lon": 0.0, "is_disabled": 0, "is_reserved": 0, "bike_id": "b1ea312cfeab24ba570f0c9bffeaa9b0", "lon": -77.04355883333334}, {"fusion_lat": 0.0, "lat": 38.902787333333336, "rental_uris": {"ios": "https://dc.lft.to/lastmile_qr_scan", "android": "https://dc.lft.to/lastmile_qr_scan"}, "name": "e602f6fb3ed6961fd0e43b55b14485ed", "type": "electric_scooter", "fusion_lon": 0.0, "is_disabled": 0, "is_reserved": 0, "bike_id": "e602f6fb3ed6961fd0e43b55b14485ed", "lon": -77.02282016666666}, {"fusion_lat": 0.0, "lat": 38.8982505, "rental_uris": {"ios": "https://dc.lft.to/lastmile_qr_scan", "android": "https://dc.lft.to/lastmile_qr_scan"}, "name": "39074f1cd47fd328cd1c275250f863fc", "type": "electric_scooter", "fusion_lon": 0.0, "is_disabled": 0, "is_reserved": 0, "bike_id": "39074f1cd47fd328cd1c275250f863fc", "lon": -77.03338166666667}, {"fusion_lat": 0.0, "lat": 38.876999833333336, "rental_uris": {"ios": "https://dc.lft.to/lastmile_qr_scan", "android": "https://dc.lft.to/lastmile_qr_scan"}, "name": "e8b0087ec776521cabee7e29c26c0891", "type": "electric_scooter", "fusion_lon": 0.0, "is_disabled": 0, "is_reserved": 0, "bike_id": "e8b0087ec776521cabee7e29c26c0891", "lon": -77.00454966666666}, {"fusion_lat": 0.0, "lat": 38.924454833333336, "rental_uris": {"ios": "https://dc.lft.to/lastmile_qr_scan", "android": "https://dc.lft.to/lastmile_qr_scan"}, "name": "b8f6ee3fed760e5af620008cf6e9e14a", "type": "electric_scooter", "fusion_lon": 0.0, "is_disabled": 0, "is_reserved": 0, "bike_id": "b8f6ee3fed760e5af620008cf6e9e14a", "lon": -77.02154183333333}, {"fusion_lat": 0.0, "lat": 38.92065816666667, "rental_uris": {"ios": "https://dc.lft.to/lastmile_qr_scan", "android": "https://dc.lft.to/lastmile_qr_scan"}, "name": "548d07cc9f6fd0b9c7cb05a7f1c4c52e", "type": "electric_scooter", "fusion_lon": 0.0, "is_disabled": 0, "is_reserved": 0, "bike_id": "548d07cc9f6fd0b9c7cb05a7f1c4c52e", "lon": -77.03829833333333}, {"fusion_lat": 0.0, "lat": 38.90502683333333, "rental_uris": {"ios": "https://dc.lft.to/lastmile_qr_scan", "android": "https://dc.lft.to/lastmile_qr_scan"}, "name": "5cd2b84b7ab58101de617f524d75324c", "type": "electric_scooter", "fusion_lon": 0.0, "is_disabled": 0, "is_reserved": 0, "bike_id": "5cd2b84b7ab58101de617f524d75324c", "lon": -77.061038}, {"fusion_lat": 0.0, "lat": 38.866029833333336, "rental_uris": {"ios": "https://dc.lft.to/lastmile_qr_scan", "android": "https://dc.lft.to/lastmile_qr_scan"}, "name": "69a02edc968e2e95a6dfec75a5016ce3", "type": "electric_scooter", "fusion_lon": 0.0, "is_disabled": 0, "is_reserved": 0, "bike_id": "69a02edc968e2e95a6dfec75a5016ce3", "lon": -76.98208116666666}, {"fusion_lat": 0.0, "lat": 38.905478, "rental_uris": {"ios": "https://dc.lft.to/lastmile_qr_scan", "android": "https://dc.lft.to/lastmile_qr_scan"}, "name": "36ea286c9512f9793349fc1f4597d3a7", "type": "electric_bike", "fusion_lon": 0.0, "is_disabled": 0, "is_reserved": 0, "bike_id": "36ea286c9512f9793349fc1f4597d3a7", "lon": -77.05704783333333}, {"fusion_lat": 0.0, "lat": 38.92084083333334, "rental_uris": {"ios": "https://dc.lft.to/lastmile_qr_scan", "android": "https://dc.lft.to/lastmile_qr_scan"}, "name": "a123a6da5156d326909aba45850619ea", "type": "electric_scooter", "fusion_lon": 0.0, "is_disabled": 0, "is_reserved": 0, "bike_id": "a123a6da5156d326909aba45850619ea", "lon": -77.01391433333333}, {"fusion_lat": 0.0, "lat": 38.8986925, "rental_uris": {"ios": "https://dc.lft.to/lastmile_qr_scan", "android": "https://dc.lft.to/lastmile_qr_scan"}, "name": "aaf72bba2f3f7fc5420aa174eaac10bf", "type": "electric_scooter", "fusion_lon": 0.0, "is_disabled": 0, "is_reserved": 0, "bike_id": "aaf72bba2f3f7fc5420aa174eaac10bf", "lon": -77.03931283333333}, {"fusion_lat": 0.0, "lat": 38.88529233333333, "rental_uris": {"ios": "https://dc.lft.to/lastmile_qr_scan", "android": "https://dc.lft.to/lastmile_qr_scan"}, "name": "129499a5746a087f358dad39c2ff8957", "type": "electric_scooter", "fusion_lon": 0.0, "is_disabled": 0, "is_reserved": 0, "bike_id": "129499a5746a087f358dad39c2ff8957", "lon": -77.0151535}, {"fusion_lat": 0.0, "lat": 38.8872105, "rental_uris": {"ios": "https://dc.lft.to/lastmile_qr_scan", "android": "https://dc.lft.to/lastmile_qr_scan"}, "name": "94a17bf436a5b952f5c1b959a8f62c19", "type": "electric_scooter", "fusion_lon": 0.0, "is_disabled": 0, "is_reserved": 0, "bike_id": "94a17bf436a5b952f5c1b959a8f62c19", "lon": -76.99691033333333}, {"fusion_lat": 0.0, "lat": 38.902661333333334, "rental_uris": {"ios": "https://dc.lft.to/lastmile_qr_scan", "android": "https://dc.lft.to/lastmile_qr_scan"}, "name": "1538653e17a780f3996add88e8166f3c", "type": "electric_scooter", "fusion_lon": 0.0, "is_disabled": 0, "is_reserved": 0, "bike_id": "1538653e17a780f3996add88e8166f3c", "lon": -77.02000916666667}, {"fusion_lat": 0.0, "lat": 38.874028333333335, "rental_uris": {"ios": "https://dc.lft.to/lastmile_qr_scan", "android": "https://dc.lft.to/lastmile_qr_scan"}, "name": "5f7aa95deb5e5ce201f40cd4336d4592", "type": "electric_scooter", "fusion_lon": 0.0, "is_disabled": 0, "is_reserved": 0, "bike_id": "5f7aa95deb5e5ce201f40cd4336d4592", "lon": -77.00029583333334}, {"fusion_lat": 0.0, "lat": 38.9335575, "rental_uris": {"ios": "https://dc.lft.to/lastmile_qr_scan", "android": "https://dc.lft.to/lastmile_qr_scan"}, "name": "73c5d886b377f0c5a7f9578492317504", "type": "electric_bike", "fusion_lon": 0.0, "is_disabled": 0, "is_reserved": 0, "bike_id": "73c5d886b377f0c5a7f9578492317504", "lon": -77.07100183333333}, {"fusion_lat": 0.0, "lat": 38.87674283333333, "rental_uris": {"ios": "https://dc.lft.to/lastmile_qr_scan", "android": "https://dc.lft.to/lastmile_qr_scan"}, "name": "d76c0d374579599aaf286474bc70519f", "type": "electric_scooter", "fusion_lon": 0.0, "is_disabled": 0, "is_reserved": 0, "bike_id": "d76c0d374579599aaf286474bc70519f", "lon": -77.00882316666667}, {"fusion_lat": 0.0, "lat": 38.900671333333335, "rental_uris": {"ios": "https://dc.lft.to/lastmile_qr_scan", "android": "https://dc.lft.to/lastmile_qr_scan"}, "name": "6e6723c59efc85119633c8cfbb4ff300", "type": "electric_scooter", "fusion_lon": 0.0, "is_disabled": 0, "is_reserved": 0, "bike_id": "6e6723c59efc85119633c8cfbb4ff300", "lon": -77.045346}, {"fusion_lat": 0.0, "lat": 38.91003283333333, "rental_uris": {"ios": "https://dc.lft.to/lastmile_qr_scan", "android": "https://dc.lft.to/lastmile_qr_scan"}, "name": "41258028c6d99c40b6f9a3937a39ab0a", "type": "electric_scooter", "fusion_lon": 0.0, "is_disabled": 0, "is_reserved": 0, "bike_id": "41258028c6d99c40b6f9a3937a39ab0a", "lon": -76.99408716666667}, {"fusion_lat": 0.0, "lat": 38.902324166666666, "rental_uris": {"ios": "https://dc.lft.to/lastmile_qr_scan", "android": "https://dc.lft.to/lastmile_qr_scan"}, "name": "1adb9bbc360f40d8cb40f0b226fe6270", "type": "electric_scooter", "fusion_lon": 0.0, "is_disabled": 0, "is_reserved": 0, "bike_id": "1adb9bbc360f40d8cb40f0b226fe6270", "lon": -77.05942266666666}, {"fusion_lat": 0.0, "lat": 38.91727383333333, "rental_uris": {"ios": "https://dc.lft.to/lastmile_qr_scan", "android": "https://dc.lft.to/lastmile_qr_scan"}, "name": "e0ac11855ec3f10e3da23d8215f95ebe", "type": "electric_scooter", "fusion_lon": 0.0, "is_disabled": 0, "is_reserved": 0, "bike_id": "e0ac11855ec3f10e3da23d8215f95ebe", "lon": -77.03440166666667}, {"fusion_lat": 0.0, "lat": 38.8617835, "rental_uris": {"ios": "https://dc.lft.to/lastmile_qr_scan", "android": "https://dc.lft.to/lastmile_qr_scan"}, "name": "830c0d7965d5e2b22f73367105781f5a", "type": "electric_scooter", "fusion_lon": 0.0, "is_disabled": 0, "is_reserved": 0, "bike_id": "830c0d7965d5e2b22f73367105781f5a", "lon": -76.99712866666667}, {"fusion_lat": 0.0, "lat": 38.9168075, "rental_uris": {"ios": "https://dc.lft.to/lastmile_qr_scan", "android": "https://dc.lft.to/lastmile_qr_scan"}, "name": "1a8ccb6cf566df42bfb4c5ebc8617482", "type": "electric_scooter", "fusion_lon": 0.0, "is_disabled": 0, "is_reserved": 0, "bike_id": "1a8ccb6cf566df42bfb4c5ebc8617482", "lon": -77.029701}, {"fusion_lat": 0.0, "lat": 38.89995566666666, "rental_uris": {"ios": "https://dc.lft.to/lastmile_qr_scan", "android": "https://dc.lft.to/lastmile_qr_scan"}, "name": "bf0f7d8af18ba0b9f31721666de10c50", "type": "electric_scooter", "fusion_lon": 0.0, "is_disabled": 0, "is_reserved": 0, "bike_id": "bf0f7d8af18ba0b9f31721666de10c50", "lon": -77.02695933333334}, {"fusion_lat": 0.0, "lat": 38.8844585, "rental_uris": {"ios": "https://dc.lft.to/lastmile_qr_scan", "android": "https://dc.lft.to/lastmile_qr_scan"}, "name": "28450e7ec9f917293031162c5d4e56d0", "type": "electric_scooter", "fusion_lon": 0.0, "is_disabled": 0, "is_reserved": 0, "bike_id": "28450e7ec9f917293031162c5d4e56d0", "lon": -76.99630133333334}, {"fusion_lat": 0.0, "lat": 38.920482, "rental_uris": {"ios": "https://dc.lft.to/lastmile_qr_scan", "android": "https://dc.lft.to/lastmile_qr_scan"}, "name": "4872ab7a7c377a112c5a3c16e2c0159e", "type": "electric_scooter", "fusion_lon": 0.0, "is_disabled": 0, "is_reserved": 0, "bike_id": "4872ab7a7c377a112c5a3c16e2c0159e", "lon": -77.02577566666666}, {"fusion_lat": 0.0, "lat": 38.900765, "rental_uris": {"ios": "https://dc.lft.to/lastmile_qr_scan", "android": "https://dc.lft.to/lastmile_qr_scan"}, "name": "b1118bd9f6f2a4f9cc5b7d1637d6d9b9", "type": "electric_scooter", "fusion_lon": 0.0, "is_disabled": 0, "is_reserved": 0, "bike_id": "b1118bd9f6f2a4f9cc5b7d1637d6d9b9", "lon": -76.980269}, {"fusion_lat": 0.0, "lat": 38.8986345, "rental_uris": {"ios": "https://dc.lft.to/lastmile_qr_scan", "android": "https://dc.lft.to/lastmile_qr_scan"}, "name": "fb99c6beac1cfeaf8cf0714067790724", "type": "electric_scooter", "fusion_lon": 0.0, "is_disabled": 0, "is_reserved": 0, "bike_id": "fb99c6beac1cfeaf8cf0714067790724", "lon": -77.0076585}, {"fusion_lat": 0.0, "lat": 38.90102066666667, "rental_uris": {"ios": "https://dc.lft.to/lastmile_qr_scan", "android": "https://dc.lft.to/lastmile_qr_scan"}, "name": "786cc70747c4c4588b24523255e83b8e", "type": "electric_scooter", "fusion_lon": 0.0, "is_disabled": 0, "is_reserved": 0, "bike_id": "786cc70747c4c4588b24523255e83b8e", "lon": -77.03625866666667}, {"fusion_lat": 0.0, "lat": 38.901808, "rental_uris": {"ios": "https://dc.lft.to/lastmile_qr_scan", "android": "https://dc.lft.to/lastmile_qr_scan"}, "name": "e7efbfdf41822202b959a29be46861de", "type": "electric_scooter", "fusion_lon": 0.0, "is_disabled": 0, "is_reserved": 0, "bike_id": "e7efbfdf41822202b959a29be46861de", "lon": -76.94143383333333}, {"fusion_lat": 0.0, "lat": 38.897147833333335, "rental_uris": {"ios": "https://dc.lft.to/lastmile_qr_scan", "android": "https://dc.lft.to/lastmile_qr_scan"}, "name": "ebbbd9b8db22a101932f2dfef8b47220", "type": "electric_scooter", "fusion_lon": 0.0, "is_disabled": 0, "is_reserved": 0, "bike_id": "ebbbd9b8db22a101932f2dfef8b47220", "lon": -77.03333383333333}, {"fusion_lat": 0.0, "lat": 38.935158333333334, "rental_uris": {"ios": "https://dc.lft.to/lastmile_qr_scan", "android": "https://dc.lft.to/lastmile_qr_scan"}, "name": "3ce4e394c0ee7910c4a5940f27ac3b4f", "type": "electric_scooter", "fusion_lon": 0.0, "is_disabled": 0, "is_reserved": 0, "bike_id": "3ce4e394c0ee7910c4a5940f27ac3b4f", "lon": -77.0741455}, {"fusion_lat": 0.0, "lat": 38.896080833333336, "rental_uris": {"ios": "https://dc.lft.to/lastmile_qr_scan", "android": "https://dc.lft.to/lastmile_qr_scan"}, "name": "fffbf8c2a99d562051ea98b13c913783", "type": "electric_scooter", "fusion_lon": 0.0, "is_disabled": 0, "is_reserved": 0, "bike_id": "fffbf8c2a99d562051ea98b13c913783", "lon": -76.9978285}, {"fusion_lat": 0.0, "lat": 38.88735966666667, "rental_uris": {"ios": "https://dc.lft.to/lastmile_qr_scan", "android": "https://dc.lft.to/lastmile_qr_scan"}, "name": "93636d7b26ac2803d7f55168a657ae86", "type": "electric_scooter", "fusion_lon": 0.0, "is_disabled": 0, "is_reserved": 0, "bike_id": "93636d7b26ac2803d7f55168a657ae86", "lon": -77.025825}, {"fusion_lat": 0.0, "lat": 38.896237666666664, "rental_uris": {"ios": "https://dc.lft.to/lastmile_qr_scan", "android": "https://dc.lft.to/lastmile_qr_scan"}, "name": "acaec42c38effc04c77eb5e5e4651b22", "type": "electric_scooter", "fusion_lon": 0.0, "is_disabled": 0, "is_reserved": 0, "bike_id": "acaec42c38effc04c77eb5e5e4651b22", "lon": -76.99333716666666}, {"fusion_lat": 0.0, "lat": 38.91007916666667, "rental_uris": {"ios": "https://dc.lft.to/lastmile_qr_scan", "android": "https://dc.lft.to/lastmile_qr_scan"}, "name": "58ad19218103d961f11777f52f80e00c", "type": "electric_scooter", "fusion_lon": 0.0, "is_disabled": 0, "is_reserved": 0, "bike_id": "58ad19218103d961f11777f52f80e00c", "lon": -77.02199533333334}, {"fusion_lat": 0.0, "lat": 38.901367666666665, "rental_uris": {"ios": "https://dc.lft.to/lastmile_qr_scan", "android": "https://dc.lft.to/lastmile_qr_scan"}, "name": "a954477dd87b38b409b5ca22370f07c4", "type": "electric_scooter", "fusion_lon": 0.0, "is_disabled": 0, "is_reserved": 0, "bike_id": "a954477dd87b38b409b5ca22370f07c4", "lon": -76.9896335}, {"fusion_lat": 0.0, "lat": 38.864742166666666, "rental_uris": {"ios": "https://dc.lft.to/lastmile_qr_scan", "android": "https://dc.lft.to/lastmile_qr_scan"}, "name": "d6702a35ee07f23d9e7c9575867d8aa1", "type": "electric_scooter", "fusion_lon": 0.0, "is_disabled": 0, "is_reserved": 0, "bike_id": "d6702a35ee07f23d9e7c9575867d8aa1", "lon": -76.98231166666666}, {"fusion_lat": 0.0, "lat": 38.929803166666666, "rental_uris": {"ios": "https://dc.lft.to/lastmile_qr_scan", "android": "https://dc.lft.to/lastmile_qr_scan"}, "name": "73a44e1b73290baa551fecb12e1cbb02", "type": "electric_scooter", "fusion_lon": 0.0, "is_disabled": 0, "is_reserved": 0, "bike_id": "73a44e1b73290baa551fecb12e1cbb02", "lon": -77.03258683333334}, {"fusion_lat": 0.0, "lat": 38.93194666666667, "rental_uris": {"ios": "https://dc.lft.to/lastmile_qr_scan", "android": "https://dc.lft.to/lastmile_qr_scan"}, "name": "7b3ae235893a6fa2c6e6b9e8534eb97e", "type": "electric_scooter", "fusion_lon": 0.0, "is_disabled": 0, "is_reserved": 0, "bike_id": "7b3ae235893a6fa2c6e6b9e8534eb97e", "lon": -77.0198875}, {"fusion_lat": 0.0, "lat": 38.92278666666667, "rental_uris": {"ios": "https://dc.lft.to/lastmile_qr_scan", "android": "https://dc.lft.to/lastmile_qr_scan"}, "name": "de7890ad16dac7c57538b8efd9736f3a", "type": "electric_scooter", "fusion_lon": 0.0, "is_disabled": 0, "is_reserved": 0, "bike_id": "de7890ad16dac7c57538b8efd9736f3a", "lon": -77.02111833333333}, {"fusion_lat": 0.0, "lat": 38.900228166666665, "rental_uris": {"ios": "https://dc.lft.to/lastmile_qr_scan", "android": "https://dc.lft.to/lastmile_qr_scan"}, "name": "c759909930d74ec718e2477fed16db65", "type": "electric_scooter", "fusion_lon": 0.0, "is_disabled": 0, "is_reserved": 0, "bike_id": "c759909930d74ec718e2477fed16db65", "lon": -76.97400766666667}, {"fusion_lat": 0.0, "lat": 38.89963933333333, "rental_uris": {"ios": "https://dc.lft.to/lastmile_qr_scan", "android": "https://dc.lft.to/lastmile_qr_scan"}, "name": "0de8a122aeb1511954415a7a9750c87e", "type": "electric_bike", "fusion_lon": 0.0, "is_disabled": 0, "is_reserved": 0, "bike_id": "0de8a122aeb1511954415a7a9750c87e", "lon": -76.98676966666666}, {"fusion_lat": 0.0, "lat": 38.90497766666667, "rental_uris": {"ios": "https://dc.lft.to/lastmile_qr_scan", "android": "https://dc.lft.to/lastmile_qr_scan"}, "name": "d401a3186ea0c00c6cbe4b221af3798b", "type": "electric_scooter", "fusion_lon": 0.0, "is_disabled": 0, "is_reserved": 0, "bike_id": "d401a3186ea0c00c6cbe4b221af3798b", "lon": -76.981303}, {"fusion_lat": 0.0, "lat": 38.91330833333333, "rental_uris": {"ios": "https://dc.lft.to/lastmile_qr_scan", "android": "https://dc.lft.to/lastmile_qr_scan"}, "name": "d9c3b0adabd0b7534331a4ef33f21307", "type": "electric_scooter", "fusion_lon": 0.0, "is_disabled": 0, "is_reserved": 0, "bike_id": "d9c3b0adabd0b7534331a4ef33f21307", "lon": -77.048585}, {"fusion_lat": 0.0, "lat": 38.919172333333336, "rental_uris": {"ios": "https://dc.lft.to/lastmile_qr_scan", "android": "https://dc.lft.to/lastmile_qr_scan"}, "name": "3cbc320a3fa2dc8e5d0217b1236bbf03", "type": "electric_scooter", "fusion_lon": 0.0, "is_disabled": 0, "is_reserved": 0, "bike_id": "3cbc320a3fa2dc8e5d0217b1236bbf03", "lon": -77.04152166666667}, {"fusion_lat": 0.0, "lat": 38.931970166666666, "rental_uris": {"ios": "https://dc.lft.to/lastmile_qr_scan", "android": "https://dc.lft.to/lastmile_qr_scan"}, "name": "9786e6b0e1d35f24bf210f3df918e279", "type": "electric_scooter", "fusion_lon": 0.0, "is_disabled": 0, "is_reserved": 0, "bike_id": "9786e6b0e1d35f24bf210f3df918e279", "lon": -77.0722765}, {"fusion_lat": 0.0, "lat": 38.88736633333333, "rental_uris": {"ios": "https://dc.lft.to/lastmile_qr_scan", "android": "https://dc.lft.to/lastmile_qr_scan"}, "name": "97aed8259d31b31f3dcb90f2c6af7993", "type": "electric_scooter", "fusion_lon": 0.0, "is_disabled": 0, "is_reserved": 0, "bike_id": "97aed8259d31b31f3dcb90f2c6af7993", "lon": -77.015072}, {"fusion_lat": 0.0, "lat": 38.9193205, "rental_uris": {"ios": "https://dc.lft.to/lastmile_qr_scan", "android": "https://dc.lft.to/lastmile_qr_scan"}, "name": "ab141a64b9f2c5122aca6f281a2d8efb", "type": "electric_scooter", "fusion_lon": 0.0, "is_disabled": 0, "is_reserved": 0, "bike_id": "ab141a64b9f2c5122aca6f281a2d8efb", "lon": -77.04178833333333}, {"fusion_lat": 0.0, "lat": 38.893333, "rental_uris": {"ios": "https://dc.lft.to/lastmile_qr_scan", "android": "https://dc.lft.to/lastmile_qr_scan"}, "name": "b16ba56fb0892a0a8019c5edd78e7780", "type": "electric_scooter", "fusion_lon": 0.0, "is_disabled": 0, "is_reserved": 0, "bike_id": "b16ba56fb0892a0a8019c5edd78e7780", "lon": -76.93927}, {"fusion_lat": 0.0, "lat": 38.9026355, "rental_uris": {"ios": "https://dc.lft.to/lastmile_qr_scan", "android": "https://dc.lft.to/lastmile_qr_scan"}, "name": "251ca9bae8cd2a9b107195bd61d16159", "type": "electric_scooter", "fusion_lon": 0.0, "is_disabled": 0, "is_reserved": 0, "bike_id": "251ca9bae8cd2a9b107195bd61d16159", "lon": -77.04668566666666}, {"fusion_lat": 0.0, "lat": 38.91421716666667, "rental_uris": {"ios": "https://dc.lft.to/lastmile_qr_scan", "android": "https://dc.lft.to/lastmile_qr_scan"}, "name": "5511bac012aa76984d5ee04c46233084", "type": "electric_scooter", "fusion_lon": 0.0, "is_disabled": 0, "is_reserved": 0, "bike_id": "5511bac012aa76984d5ee04c46233084", "lon": -77.0317415}, {"fusion_lat": 0.0, "lat": 38.9085195, "rental_uris": {"ios": "https://dc.lft.to/lastmile_qr_scan", "android": "https://dc.lft.to/lastmile_qr_scan"}, "name": "8d6294a59b501aeeb6334528a57bc879", "type": "electric_scooter", "fusion_lon": 0.0, "is_disabled": 0, "is_reserved": 0, "bike_id": "8d6294a59b501aeeb6334528a57bc879", "lon": -77.02333116666667}, {"fusion_lat": 0.0, "lat": 38.8746335, "rental_uris": {"ios": "https://dc.lft.to/lastmile_qr_scan", "android": "https://dc.lft.to/lastmile_qr_scan"}, "name": "490196994c2a7479a643754d350334c8", "type": "electric_scooter", "fusion_lon": 0.0, "is_disabled": 0, "is_reserved": 0, "bike_id": "490196994c2a7479a643754d350334c8", "lon": -77.0082555}, {"fusion_lat": 0.0, "lat": 38.88812166666666, "rental_uris": {"ios": "https://dc.lft.to/lastmile_qr_scan", "android": "https://dc.lft.to/lastmile_qr_scan"}, "name": "dcf99f5055424c9d55c2e12a691b23b3", "type": "electric_scooter", "fusion_lon": 0.0, "is_disabled": 0, "is_reserved": 0, "bike_id": "dcf99f5055424c9d55c2e12a691b23b3", "lon": -76.9835755}, {"fusion_lat": 0.0, "lat": 38.89702966666667, "rental_uris": {"ios": "https://dc.lft.to/lastmile_qr_scan", "android": "https://dc.lft.to/lastmile_qr_scan"}, "name": "1846589d8954b5bb0671685fadc01aba", "type": "electric_scooter", "fusion_lon": 0.0, "is_disabled": 0, "is_reserved": 0, "bike_id": "1846589d8954b5bb0671685fadc01aba", "lon": -77.01618416666666}, {"fusion_lat": 0.0, "lat": 38.9166025, "rental_uris": {"ios": "https://dc.lft.to/lastmile_qr_scan", "android": "https://dc.lft.to/lastmile_qr_scan"}, "name": "34633522e632d34a81332ed5ff89a9f8", "type": "electric_scooter", "fusion_lon": 0.0, "is_disabled": 0, "is_reserved": 0, "bike_id": "34633522e632d34a81332ed5ff89a9f8", "lon": -77.031759}, {"fusion_lat": 0.0, "lat": 38.953543833333335, "rental_uris": {"ios": "https://dc.lft.to/lastmile_qr_scan", "android": "https://dc.lft.to/lastmile_qr_scan"}, "name": "be756a596297cbde74a87cf118ad6bca", "type": "electric_bike", "fusion_lon": 0.0, "is_disabled": 0, "is_reserved": 0, "bike_id": "be756a596297cbde74a87cf118ad6bca", "lon": -76.98092183333333}, {"fusion_lat": 0.0, "lat": 38.914835333333336, "rental_uris": {"ios": "https://dc.lft.to/lastmile_qr_scan", "android": "https://dc.lft.to/lastmile_qr_scan"}, "name": "af461f4aadbf552b9c37c4c77890a19d", "type": "electric_scooter", "fusion_lon": 0.0, "is_disabled": 0, "is_reserved": 0, "bike_id": "af461f4aadbf552b9c37c4c77890a19d", "lon": -77.00644283333334}, {"fusion_lat": 0.0, "lat": 38.9545315, "rental_uris": {"ios": "https://dc.lft.to/lastmile_qr_scan", "android": "https://dc.lft.to/lastmile_qr_scan"}, "name": "ee98188e74446e7844cfb88755ed10b0", "type": "electric_scooter", "fusion_lon": 0.0, "is_disabled": 0, "is_reserved": 0, "bike_id": "ee98188e74446e7844cfb88755ed10b0", "lon": -77.02217116666667}, {"fusion_lat": 0.0, "lat": 38.90368466666666, "rental_uris": {"ios": "https://dc.lft.to/lastmile_qr_scan", "android": "https://dc.lft.to/lastmile_qr_scan"}, "name": "f77787d051536db65ac547a65826f3df", "type": "electric_scooter", "fusion_lon": 0.0, "is_disabled": 0, "is_reserved": 0, "bike_id": "f77787d051536db65ac547a65826f3df", "lon": -77.00343083333334}, {"fusion_lat": 0.0, "lat": 38.92051466666667, "rental_uris": {"ios": "https://dc.lft.to/lastmile_qr_scan", "android": "https://dc.lft.to/lastmile_qr_scan"}, "name": "b90f15a46477af4e71996fb885599ff3", "type": "electric_scooter", "fusion_lon": 0.0, "is_disabled": 0, "is_reserved": 0, "bike_id": "b90f15a46477af4e71996fb885599ff3", "lon": -77.03442216666667}, {"fusion_lat": 0.0, "lat": 38.901362666666664, "rental_uris": {"ios": "https://dc.lft.to/lastmile_qr_scan", "android": "https://dc.lft.to/lastmile_qr_scan"}, "name": "0a4a59eb192b156975d8e68aa40ecd13", "type": "electric_scooter", "fusion_lon": 0.0, "is_disabled": 0, "is_reserved": 0, "bike_id": "0a4a59eb192b156975d8e68aa40ecd13", "lon": -77.0592255}, {"fusion_lat": 0.0, "lat": 38.89236866666667, "rental_uris": {"ios": "https://dc.lft.to/lastmile_qr_scan", "android": "https://dc.lft.to/lastmile_qr_scan"}, "name": "4bd73d05b54a43bfc7ee81810fd160a6", "type": "electric_scooter", "fusion_lon": 0.0, "is_disabled": 0, "is_reserved": 0, "bike_id": "4bd73d05b54a43bfc7ee81810fd160a6", "lon": -77.04873216666667}, {"fusion_lat": 0.0, "lat": 38.8778195, "rental_uris": {"ios": "https://dc.lft.to/lastmile_qr_scan", "android": "https://dc.lft.to/lastmile_qr_scan"}, "name": "cc3956d075a093ad74bae431f00a6cd6", "type": "electric_scooter", "fusion_lon": 0.0, "is_disabled": 0, "is_reserved": 0, "bike_id": "cc3956d075a093ad74bae431f00a6cd6", "lon": -76.99408333333334}, {"fusion_lat": 0.0, "lat": 38.89955533333333, "rental_uris": {"ios": "https://dc.lft.to/lastmile_qr_scan", "android": "https://dc.lft.to/lastmile_qr_scan"}, "name": "0ebfa6d6d156bd7ac76f8be8bf054ca2", "type": "electric_scooter", "fusion_lon": 0.0, "is_disabled": 0, "is_reserved": 0, "bike_id": "0ebfa6d6d156bd7ac76f8be8bf054ca2", "lon": -77.04161916666666}, {"fusion_lat": 0.0, "lat": 38.907698833333335, "rental_uris": {"ios": "https://dc.lft.to/lastmile_qr_scan", "android": "https://dc.lft.to/lastmile_qr_scan"}, "name": "5014b92384322c54c82dee47b3a1957c", "type": "electric_scooter", "fusion_lon": 0.0, "is_disabled": 0, "is_reserved": 0, "bike_id": "5014b92384322c54c82dee47b3a1957c", "lon": -77.07136483333333}, {"fusion_lat": 0.0, "lat": 38.93379016666667, "rental_uris": {"ios": "https://dc.lft.to/lastmile_qr_scan", "android": "https://dc.lft.to/lastmile_qr_scan"}, "name": "cc4a98b66e8531a651bf3e4333bc395d", "type": "electric_scooter", "fusion_lon": 0.0, "is_disabled": 0, "is_reserved": 0, "bike_id": "cc4a98b66e8531a651bf3e4333bc395d", "lon": -77.0368345}, {"fusion_lat": 0.0, "lat": 38.910699666666666, "rental_uris": {"ios": "https://dc.lft.to/lastmile_qr_scan", "android": "https://dc.lft.to/lastmile_qr_scan"}, "name": "8a69104ac2934a65671207147617f85c", "type": "electric_scooter", "fusion_lon": 0.0, "is_disabled": 0, "is_reserved": 0, "bike_id": "8a69104ac2934a65671207147617f85c", "lon": -77.00454633333334}, {"fusion_lat": 0.0, "lat": 38.949207666666666, "rental_uris": {"ios": "https://dc.lft.to/lastmile_qr_scan", "android": "https://dc.lft.to/lastmile_qr_scan"}, "name": "7b3dbc87d99d6f9adbe038d0318f3a67", "type": "electric_bike", "fusion_lon": 0.0, "is_disabled": 0, "is_reserved": 0, "bike_id": "7b3dbc87d99d6f9adbe038d0318f3a67", "lon": -77.0784215}, {"fusion_lat": 0.0, "lat": 38.898993, "rental_uris": {"ios": "https://dc.lft.to/lastmile_qr_scan", "android": "https://dc.lft.to/lastmile_qr_scan"}, "name": "d5fe1371669799c2212d82486a2a7d00", "type": "electric_scooter", "fusion_lon": 0.0, "is_disabled": 0, "is_reserved": 0, "bike_id": "d5fe1371669799c2212d82486a2a7d00", "lon": -77.02823183333334}, {"fusion_lat": 0.0, "lat": 38.907772, "rental_uris": {"ios": "https://dc.lft.to/lastmile_qr_scan", "android": "https://dc.lft.to/lastmile_qr_scan"}, "name": "f49166bfb3aa44817f763071e1f5bc2d", "type": "electric_scooter", "fusion_lon": 0.0, "is_disabled": 0, "is_reserved": 0, "bike_id": "f49166bfb3aa44817f763071e1f5bc2d", "lon": -77.038409}, {"fusion_lat": 0.0, "lat": 38.91866666666667, "rental_uris": {"ios": "https://dc.lft.to/lastmile_qr_scan", "android": "https://dc.lft.to/lastmile_qr_scan"}, "name": "5e4613f55f9561978a134a84421ce392", "type": "electric_scooter", "fusion_lon": 0.0, "is_disabled": 0, "is_reserved": 0, "bike_id": "5e4613f55f9561978a134a84421ce392", "lon": -77.032166}, {"fusion_lat": 0.0, "lat": 38.89265533333333, "rental_uris": {"ios": "https://dc.lft.to/lastmile_qr_scan", "android": "https://dc.lft.to/lastmile_qr_scan"}, "name": "74a53011f8b36c13d2f9b926c14968d0", "type": "electric_scooter", "fusion_lon": 0.0, "is_disabled": 0, "is_reserved": 0, "bike_id": "74a53011f8b36c13d2f9b926c14968d0", "lon": -77.00345783333333}, {"fusion_lat": 0.0, "lat": 38.8853445, "rental_uris": {"ios": "https://dc.lft.to/lastmile_qr_scan", "android": "https://dc.lft.to/lastmile_qr_scan"}, "name": "879c4869b9cd1b49bf15095739bf7eaa", "type": "electric_bike", "fusion_lon": 0.0, "is_disabled": 0, "is_reserved": 0, "bike_id": "879c4869b9cd1b49bf15095739bf7eaa", "lon": -77.12190033333333}, {"fusion_lat": 0.0, "lat": 38.92396566666667, "rental_uris": {"ios": "https://dc.lft.to/lastmile_qr_scan", "android": "https://dc.lft.to/lastmile_qr_scan"}, "name": "e9f57298eac50b2fe2018a3bce9e46c2", "type": "electric_scooter", "fusion_lon": 0.0, "is_disabled": 0, "is_reserved": 0, "bike_id": "e9f57298eac50b2fe2018a3bce9e46c2", "lon": -77.0430615}, {"fusion_lat": 0.0, "lat": 38.924376, "rental_uris": {"ios": "https://dc.lft.to/lastmile_qr_scan", "android": "https://dc.lft.to/lastmile_qr_scan"}, "name": "60880b384c3c590d72595c1ab099e15c", "type": "electric_scooter", "fusion_lon": 0.0, "is_disabled": 0, "is_reserved": 0, "bike_id": "60880b384c3c590d72595c1ab099e15c", "lon": -77.021175}, {"fusion_lat": 0.0, "lat": 38.91655216666667, "rental_uris": {"ios": "https://dc.lft.to/lastmile_qr_scan", "android": "https://dc.lft.to/lastmile_qr_scan"}, "name": "efa5ea4adab7ec45fba04821e0ea723d", "type": "electric_scooter", "fusion_lon": 0.0, "is_disabled": 0, "is_reserved": 0, "bike_id": "efa5ea4adab7ec45fba04821e0ea723d", "lon": -76.97916133333334}, {"fusion_lat": 0.0, "lat": 38.92301066666667, "rental_uris": {"ios": "https://dc.lft.to/lastmile_qr_scan", "android": "https://dc.lft.to/lastmile_qr_scan"}, "name": "b52a57cbe0c1f2418c5fbb1b7dc57850", "type": "electric_scooter", "fusion_lon": 0.0, "is_disabled": 0, "is_reserved": 0, "bike_id": "b52a57cbe0c1f2418c5fbb1b7dc57850", "lon": -77.0271275}, {"fusion_lat": 0.0, "lat": 38.87289216666667, "rental_uris": {"ios": "https://dc.lft.to/lastmile_qr_scan", "android": "https://dc.lft.to/lastmile_qr_scan"}, "name": "033c2dbaadd0b7580243a47f1915907a", "type": "electric_scooter", "fusion_lon": 0.0, "is_disabled": 0, "is_reserved": 0, "bike_id": "033c2dbaadd0b7580243a47f1915907a", "lon": -77.00985083333333}, {"fusion_lat": 0.0, "lat": 38.8984115, "rental_uris": {"ios": "https://dc.lft.to/lastmile_qr_scan", "android": "https://dc.lft.to/lastmile_qr_scan"}, "name": "cc89a3a18844355c67dbc6804ed9da32", "type": "electric_scooter", "fusion_lon": 0.0, "is_disabled": 0, "is_reserved": 0, "bike_id": "cc89a3a18844355c67dbc6804ed9da32", "lon": -77.03191866666667}, {"fusion_lat": 0.0, "lat": 38.917821833333335, "rental_uris": {"ios": "https://dc.lft.to/lastmile_qr_scan", "android": "https://dc.lft.to/lastmile_qr_scan"}, "name": "5c126d48860bd30868139f7dea8f0761", "type": "electric_scooter", "fusion_lon": 0.0, "is_disabled": 0, "is_reserved": 0, "bike_id": "5c126d48860bd30868139f7dea8f0761", "lon": -77.03173983333333}, {"fusion_lat": 0.0, "lat": 38.89986233333333, "rental_uris": {"ios": "https://dc.lft.to/lastmile_qr_scan", "android": "https://dc.lft.to/lastmile_qr_scan"}, "name": "40cedd4eaae1acb5e6af8c6467f3dcda", "type": "electric_scooter", "fusion_lon": 0.0, "is_disabled": 0, "is_reserved": 0, "bike_id": "40cedd4eaae1acb5e6af8c6467f3dcda", "lon": -76.98242583333334}, {"fusion_lat": 0.0, "lat": 38.91594766666667, "rental_uris": {"ios": "https://dc.lft.to/lastmile_qr_scan", "android": "https://dc.lft.to/lastmile_qr_scan"}, "name": "9e1fcb56be2df1cf4862fb848c5834f3", "type": "electric_scooter", "fusion_lon": 0.0, "is_disabled": 0, "is_reserved": 0, "bike_id": "9e1fcb56be2df1cf4862fb848c5834f3", "lon": -76.98382766666667}, {"fusion_lat": 0.0, "lat": 38.88367983333333, "rental_uris": {"ios": "https://dc.lft.to/lastmile_qr_scan", "android": "https://dc.lft.to/lastmile_qr_scan"}, "name": "a20c01923cdc0e68a24e4a31e72551b6", "type": "electric_scooter", "fusion_lon": 0.0, "is_disabled": 0, "is_reserved": 0, "bike_id": "a20c01923cdc0e68a24e4a31e72551b6", "lon": -76.92895416666667}, {"fusion_lat": 0.0, "lat": 38.957829, "rental_uris": {"ios": "https://dc.lft.to/lastmile_qr_scan", "android": "https://dc.lft.to/lastmile_qr_scan"}, "name": "1b0e88741e922a79d0e66035a058cec4", "type": "electric_scooter", "fusion_lon": 0.0, "is_disabled": 0, "is_reserved": 0, "bike_id": "1b0e88741e922a79d0e66035a058cec4", "lon": -77.02753}, {"fusion_lat": 0.0, "lat": 38.830563, "rental_uris": {"ios": "https://dc.lft.to/lastmile_qr_scan", "android": "https://dc.lft.to/lastmile_qr_scan"}, "name": "0df4c41220bb49a62d97d37a3a085462", "type": "electric_bike", "fusion_lon": 0.0, "is_disabled": 0, "is_reserved": 0, "bike_id": "0df4c41220bb49a62d97d37a3a085462", "lon": -77.03989083333333}, {"fusion_lat": 0.0, "lat": 38.938810833333335, "rental_uris": {"ios": "https://dc.lft.to/lastmile_qr_scan", "android": "https://dc.lft.to/lastmile_qr_scan"}, "name": "36e1fc4e644378a41cd51da51da2401a", "type": "electric_bike", "fusion_lon": 0.0, "is_disabled": 0, "is_reserved": 0, "bike_id": "36e1fc4e644378a41cd51da51da2401a", "lon": -76.99031033333333}, {"fusion_lat": 0.0, "lat": 38.8354625, "rental_uris": {"ios": "https://dc.lft.to/lastmile_qr_scan", "android": "https://dc.lft.to/lastmile_qr_scan"}, "name": "a334eb6c87a37151a9ac561e4b0cfdc5", "type": "electric_bike", "fusion_lon": 0.0, "is_disabled": 0, "is_reserved": 0, "bike_id": "a334eb6c87a37151a9ac561e4b0cfdc5", "lon": -76.98727083333333}, {"fusion_lat": 0.0, "lat": 38.84393933333333, "rental_uris": {"ios": "https://dc.lft.to/lastmile_qr_scan", "android": "https://dc.lft.to/lastmile_qr_scan"}, "name": "6cb73727baf7b79098df2e2642320cd6", "type": "electric_scooter", "fusion_lon": 0.0, "is_disabled": 0, "is_reserved": 0, "bike_id": "6cb73727baf7b79098df2e2642320cd6", "lon": -76.98954016666667}, {"fusion_lat": 0.0, "lat": 38.93199333333333, "rental_uris": {"ios": "https://dc.lft.to/lastmile_qr_scan", "android": "https://dc.lft.to/lastmile_qr_scan"}, "name": "d5345fb99aa9200730310024fb2f9959", "type": "electric_scooter", "fusion_lon": 0.0, "is_disabled": 0, "is_reserved": 0, "bike_id": "d5345fb99aa9200730310024fb2f9959", "lon": -77.02351966666667}, {"fusion_lat": 0.0, "lat": 38.9155535, "rental_uris": {"ios": "https://dc.lft.to/lastmile_qr_scan", "android": "https://dc.lft.to/lastmile_qr_scan"}, "name": "282023ec0238fd7e203f155074ec1dd4", "type": "electric_scooter", "fusion_lon": 0.0, "is_disabled": 0, "is_reserved": 0, "bike_id": "282023ec0238fd7e203f155074ec1dd4", "lon": -77.03174633333333}, {"fusion_lat": 0.0, "lat": 38.88636566666667, "rental_uris": {"ios": "https://dc.lft.to/lastmile_qr_scan", "android": "https://dc.lft.to/lastmile_qr_scan"}, "name": "f7da00ca8f8fcd2de53d47a28d847508", "type": "electric_scooter", "fusion_lon": 0.0, "is_disabled": 0, "is_reserved": 0, "bike_id": "f7da00ca8f8fcd2de53d47a28d847508", "lon": -77.01537766666667}, {"fusion_lat": 0.0, "lat": 38.87899133333333, "rental_uris": {"ios": "https://dc.lft.to/lastmile_qr_scan", "android": "https://dc.lft.to/lastmile_qr_scan"}, "name": "092b58c6f9940c54a1a3bc6f905e3afe", "type": "electric_scooter", "fusion_lon": 0.0, "is_disabled": 0, "is_reserved": 0, "bike_id": "092b58c6f9940c54a1a3bc6f905e3afe", "lon": -77.021971}, {"fusion_lat": 0.0, "lat": 38.907678, "rental_uris": {"ios": "https://dc.lft.to/lastmile_qr_scan", "android": "https://dc.lft.to/lastmile_qr_scan"}, "name": "46d6ccb3d055381ea34b055fd160b973", "type": "electric_scooter", "fusion_lon": 0.0, "is_disabled": 0, "is_reserved": 0, "bike_id": "46d6ccb3d055381ea34b055fd160b973", "lon": -77.03195616666666}, {"fusion_lat": 0.0, "lat": 38.90782866666667, "rental_uris": {"ios": "https://dc.lft.to/lastmile_qr_scan", "android": "https://dc.lft.to/lastmile_qr_scan"}, "name": "4c053d0f79cfe14a51cb642a5d382070", "type": "electric_scooter", "fusion_lon": 0.0, "is_disabled": 0, "is_reserved": 0, "bike_id": "4c053d0f79cfe14a51cb642a5d382070", "lon": -77.0426385}, {"fusion_lat": 0.0, "lat": 38.99053933333333, "rental_uris": {"ios": "https://dc.lft.to/lastmile_qr_scan", "android": "https://dc.lft.to/lastmile_qr_scan"}, "name": "9119e67eaeb463496341e418d82acaae", "type": "electric_bike", "fusion_lon": 0.0, "is_disabled": 0, "is_reserved": 0, "bike_id": "9119e67eaeb463496341e418d82acaae", "lon": -77.0386825}, {"fusion_lat": 0.0, "lat": 38.8922575, "rental_uris": {"ios": "https://dc.lft.to/lastmile_qr_scan", "android": "https://dc.lft.to/lastmile_qr_scan"}, "name": "59eaaa560fc6b4e67e941e682acbdeff", "type": "electric_scooter", "fusion_lon": 0.0, "is_disabled": 0, "is_reserved": 0, "bike_id": "59eaaa560fc6b4e67e941e682acbdeff", "lon": -77.04773133333333}, {"fusion_lat": 0.0, "lat": 38.916947, "rental_uris": {"ios": "https://dc.lft.to/lastmile_qr_scan", "android": "https://dc.lft.to/lastmile_qr_scan"}, "name": "eda05e93be6658b2c3f94657f5c12f1d", "type": "electric_scooter", "fusion_lon": 0.0, "is_disabled": 0, "is_reserved": 0, "bike_id": "eda05e93be6658b2c3f94657f5c12f1d", "lon": -77.01194433333333}, {"fusion_lat": 0.0, "lat": 38.899071666666664, "rental_uris": {"ios": "https://dc.lft.to/lastmile_qr_scan", "android": "https://dc.lft.to/lastmile_qr_scan"}, "name": "73b8fccb716c13feb66b4d2bbaa157e1", "type": "electric_scooter", "fusion_lon": 0.0, "is_disabled": 0, "is_reserved": 0, "bike_id": "73b8fccb716c13feb66b4d2bbaa157e1", "lon": -76.9336655}, {"fusion_lat": 0.0, "lat": 38.8747085, "rental_uris": {"ios": "https://dc.lft.to/lastmile_qr_scan", "android": "https://dc.lft.to/lastmile_qr_scan"}, "name": "d69f7208aa9e9ff01f625034198d6e67", "type": "electric_scooter", "fusion_lon": 0.0, "is_disabled": 0, "is_reserved": 0, "bike_id": "d69f7208aa9e9ff01f625034198d6e67", "lon": -77.005574}, {"fusion_lat": 0.0, "lat": 38.932108166666666, "rental_uris": {"ios": "https://dc.lft.to/lastmile_qr_scan", "android": "https://dc.lft.to/lastmile_qr_scan"}, "name": "5c0189a1246cab67df06c025f7a0e144", "type": "electric_scooter", "fusion_lon": 0.0, "is_disabled": 0, "is_reserved": 0, "bike_id": "5c0189a1246cab67df06c025f7a0e144", "lon": -77.03266516666666}, {"fusion_lat": 0.0, "lat": 38.956873333333334, "rental_uris": {"ios": "https://dc.lft.to/lastmile_qr_scan", "android": "https://dc.lft.to/lastmile_qr_scan"}, "name": "0c38578c7a98f91029fe60c32c18c8ba", "type": "electric_scooter", "fusion_lon": 0.0, "is_disabled": 0, "is_reserved": 0, "bike_id": "0c38578c7a98f91029fe60c32c18c8ba", "lon": -77.01926116666667}, {"fusion_lat": 0.0, "lat": 38.9034765, "rental_uris": {"ios": "https://dc.lft.to/lastmile_qr_scan", "android": "https://dc.lft.to/lastmile_qr_scan"}, "name": "43a7a956a265fb53faf8bd94f66fcba5", "type": "electric_scooter", "fusion_lon": 0.0, "is_disabled": 0, "is_reserved": 0, "bike_id": "43a7a956a265fb53faf8bd94f66fcba5", "lon": -77.00753266666666}, {"fusion_lat": 0.0, "lat": 38.956437333333334, "rental_uris": {"ios": "https://dc.lft.to/lastmile_qr_scan", "android": "https://dc.lft.to/lastmile_qr_scan"}, "name": "848f65e2b9a72778ca37fa46d1406cd3", "type": "electric_scooter", "fusion_lon": 0.0, "is_disabled": 0, "is_reserved": 0, "bike_id": "848f65e2b9a72778ca37fa46d1406cd3", "lon": -76.99792516666666}, {"fusion_lat": 0.0, "lat": 38.91540366666667, "rental_uris": {"ios": "https://dc.lft.to/lastmile_qr_scan", "android": "https://dc.lft.to/lastmile_qr_scan"}, "name": "8b56859c96dc4794e3ea5151aecc7e7d", "type": "electric_scooter", "fusion_lon": 0.0, "is_disabled": 0, "is_reserved": 0, "bike_id": "8b56859c96dc4794e3ea5151aecc7e7d", "lon": -76.983664}, {"fusion_lat": 0.0, "lat": 38.89735816666666, "rental_uris": {"ios": "https://dc.lft.to/lastmile_qr_scan", "android": "https://dc.lft.to/lastmile_qr_scan"}, "name": "aa97887f485f1b79c22b9369af581738", "type": "electric_bike", "fusion_lon": 0.0, "is_disabled": 0, "is_reserved": 0, "bike_id": "aa97887f485f1b79c22b9369af581738", "lon": -76.920456}, {"fusion_lat": 0.0, "lat": 38.923657, "rental_uris": {"ios": "https://dc.lft.to/lastmile_qr_scan", "android": "https://dc.lft.to/lastmile_qr_scan"}, "name": "41910b9b6066e022746b5d81faffd5e7", "type": "electric_scooter", "fusion_lon": 0.0, "is_disabled": 0, "is_reserved": 0, "bike_id": "41910b9b6066e022746b5d81faffd5e7", "lon": -77.050533}, {"fusion_lat": 0.0, "lat": 38.856553166666664, "rental_uris": {"ios": "https://dc.lft.to/lastmile_qr_scan", "android": "https://dc.lft.to/lastmile_qr_scan"}, "name": "6a8f20437b546342f3db77a3c501e6c2", "type": "electric_scooter", "fusion_lon": 0.0, "is_disabled": 0, "is_reserved": 0, "bike_id": "6a8f20437b546342f3db77a3c501e6c2", "lon": -76.99672383333333}, {"fusion_lat": 0.0, "lat": 38.90827933333333, "rental_uris": {"ios": "https://dc.lft.to/lastmile_qr_scan", "android": "https://dc.lft.to/lastmile_qr_scan"}, "name": "c47211dcd384f1fe8011a698666ef822", "type": "electric_scooter", "fusion_lon": 0.0, "is_disabled": 0, "is_reserved": 0, "bike_id": "c47211dcd384f1fe8011a698666ef822", "lon": -77.03196516666667}, {"fusion_lat": 0.0, "lat": 38.846417333333335, "rental_uris": {"ios": "https://dc.lft.to/lastmile_qr_scan", "android": "https://dc.lft.to/lastmile_qr_scan"}, "name": "04ccf34f700df934e3e28b8bc4cf6df3", "type": "electric_scooter", "fusion_lon": 0.0, "is_disabled": 0, "is_reserved": 0, "bike_id": "04ccf34f700df934e3e28b8bc4cf6df3", "lon": -77.00390833333333}, {"fusion_lat": 0.0, "lat": 38.901129, "rental_uris": {"ios": "https://dc.lft.to/lastmile_qr_scan", "android": "https://dc.lft.to/lastmile_qr_scan"}, "name": "2357a4e039d5aa57a8c069908a4bfa2a", "type": "electric_scooter", "fusion_lon": 0.0, "is_disabled": 0, "is_reserved": 0, "bike_id": "2357a4e039d5aa57a8c069908a4bfa2a", "lon": -77.04482166666666}, {"fusion_lat": 0.0, "lat": 38.899268, "rental_uris": {"ios": "https://dc.lft.to/lastmile_qr_scan", "android": "https://dc.lft.to/lastmile_qr_scan"}, "name": "1cec5ab22c418510da952ff87ecc7fe6", "type": "electric_scooter", "fusion_lon": 0.0, "is_disabled": 0, "is_reserved": 0, "bike_id": "1cec5ab22c418510da952ff87ecc7fe6", "lon": -77.01386916666667}, {"fusion_lat": 0.0, "lat": 38.91466116666667, "rental_uris": {"ios": "https://dc.lft.to/lastmile_qr_scan", "android": "https://dc.lft.to/lastmile_qr_scan"}, "name": "549a27f62f391a036e10a3326319af1b", "type": "electric_scooter", "fusion_lon": 0.0, "is_disabled": 0, "is_reserved": 0, "bike_id": "549a27f62f391a036e10a3326319af1b", "lon": -77.0317915}, {"fusion_lat": 0.0, "lat": 38.897316000000004, "rental_uris": {"ios": "https://dc.lft.to/lastmile_qr_scan", "android": "https://dc.lft.to/lastmile_qr_scan"}, "name": "63f104a76352bf4cf5c1c8be5d448864", "type": "electric_scooter", "fusion_lon": 0.0, "is_disabled": 0, "is_reserved": 0, "bike_id": "63f104a76352bf4cf5c1c8be5d448864", "lon": -77.00375833333334}, {"fusion_lat": 0.0, "lat": 38.9087715, "rental_uris": {"ios": "https://dc.lft.to/lastmile_qr_scan", "android": "https://dc.lft.to/lastmile_qr_scan"}, "name": "93f608dc703a1f7248f8c66ab516602f", "type": "electric_scooter", "fusion_lon": 0.0, "is_disabled": 0, "is_reserved": 0, "bike_id": "93f608dc703a1f7248f8c66ab516602f", "lon": -77.022816}, {"fusion_lat": 0.0, "lat": 38.900156833333334, "rental_uris": {"ios": "https://dc.lft.to/lastmile_qr_scan", "android": "https://dc.lft.to/lastmile_qr_scan"}, "name": "4ea3ccacee059bb7ae4bddb4b11a31f4", "type": "electric_scooter", "fusion_lon": 0.0, "is_disabled": 0, "is_reserved": 0, "bike_id": "4ea3ccacee059bb7ae4bddb4b11a31f4", "lon": -76.9955205}, {"fusion_lat": 0.0, "lat": 38.894366833333336, "rental_uris": {"ios": "https://dc.lft.to/lastmile_qr_scan", "android": "https://dc.lft.to/lastmile_qr_scan"}, "name": "7bc54d2f46a2bf507448c634d91574d6", "type": "electric_scooter", "fusion_lon": 0.0, "is_disabled": 0, "is_reserved": 0, "bike_id": "7bc54d2f46a2bf507448c634d91574d6", "lon": -76.983581}, {"fusion_lat": 0.0, "lat": 38.91685583333334, "rental_uris": {"ios": "https://dc.lft.to/lastmile_qr_scan", "android": "https://dc.lft.to/lastmile_qr_scan"}, "name": "6a1c1eccf8778a8a162071f3a047e0a1", "type": "electric_scooter", "fusion_lon": 0.0, "is_disabled": 0, "is_reserved": 0, "bike_id": "6a1c1eccf8778a8a162071f3a047e0a1", "lon": -77.02701233333333}, {"fusion_lat": 0.0, "lat": 38.9265325, "rental_uris": {"ios": "https://dc.lft.to/lastmile_qr_scan", "android": "https://dc.lft.to/lastmile_qr_scan"}, "name": "4e51857f1c969c4fa1f08bce5585565c", "type": "electric_scooter", "fusion_lon": 0.0, "is_disabled": 0, "is_reserved": 0, "bike_id": "4e51857f1c969c4fa1f08bce5585565c", "lon": -77.024241}, {"fusion_lat": 0.0, "lat": 38.9072715, "rental_uris": {"ios": "https://dc.lft.to/lastmile_qr_scan", "android": "https://dc.lft.to/lastmile_qr_scan"}, "name": "c223e7d8d35983d1d7e7d3f0df27ce65", "type": "electric_scooter", "fusion_lon": 0.0, "is_disabled": 0, "is_reserved": 0, "bike_id": "c223e7d8d35983d1d7e7d3f0df27ce65", "lon": -77.02373616666667}, {"fusion_lat": 0.0, "lat": 38.916395666666666, "rental_uris": {"ios": "https://dc.lft.to/lastmile_qr_scan", "android": "https://dc.lft.to/lastmile_qr_scan"}, "name": "c61b06f070bff4669704c67e4ff75a85", "type": "electric_scooter", "fusion_lon": 0.0, "is_disabled": 0, "is_reserved": 0, "bike_id": "c61b06f070bff4669704c67e4ff75a85", "lon": -77.032035}, {"fusion_lat": 0.0, "lat": 38.89738966666667, "rental_uris": {"ios": "https://dc.lft.to/lastmile_qr_scan", "android": "https://dc.lft.to/lastmile_qr_scan"}, "name": "1a5dc022555b09ef3b960759caa0246d", "type": "electric_scooter", "fusion_lon": 0.0, "is_disabled": 0, "is_reserved": 0, "bike_id": "1a5dc022555b09ef3b960759caa0246d", "lon": -77.04741733333333}, {"fusion_lat": 0.0, "lat": 38.89255216666667, "rental_uris": {"ios": "https://dc.lft.to/lastmile_qr_scan", "android": "https://dc.lft.to/lastmile_qr_scan"}, "name": "efb9c05c2424f20146bf4b265d09cb6e", "type": "electric_scooter", "fusion_lon": 0.0, "is_disabled": 0, "is_reserved": 0, "bike_id": "efb9c05c2424f20146bf4b265d09cb6e", "lon": -77.01958733333333}, {"fusion_lat": 0.0, "lat": 38.894702833333334, "rental_uris": {"ios": "https://dc.lft.to/lastmile_qr_scan", "android": "https://dc.lft.to/lastmile_qr_scan"}, "name": "6f9a25b73d9b761ff67414b30f6d71dc", "type": "electric_scooter", "fusion_lon": 0.0, "is_disabled": 0, "is_reserved": 0, "bike_id": "6f9a25b73d9b761ff67414b30f6d71dc", "lon": -77.02679866666666}, {"fusion_lat": 0.0, "lat": 38.90123333333333, "rental_uris": {"ios": "https://dc.lft.to/lastmile_qr_scan", "android": "https://dc.lft.to/lastmile_qr_scan"}, "name": "cf75556dc6c9b6356e2928ec749fd820", "type": "electric_scooter", "fusion_lon": 0.0, "is_disabled": 0, "is_reserved": 0, "bike_id": "cf75556dc6c9b6356e2928ec749fd820", "lon": -77.01689183333333}, {"fusion_lat": 0.0, "lat": 38.8969765, "rental_uris": {"ios": "https://dc.lft.to/lastmile_qr_scan", "android": "https://dc.lft.to/lastmile_qr_scan"}, "name": "35a96853ce1bb0dda3eb51b0c12a006f", "type": "electric_scooter", "fusion_lon": 0.0, "is_disabled": 0, "is_reserved": 0, "bike_id": "35a96853ce1bb0dda3eb51b0c12a006f", "lon": -77.054969}, {"fusion_lat": 0.0, "lat": 38.8906695, "rental_uris": {"ios": "https://dc.lft.to/lastmile_qr_scan", "android": "https://dc.lft.to/lastmile_qr_scan"}, "name": "cdfed79df178af9282a6be1eff58183d", "type": "electric_bike", "fusion_lon": 0.0, "is_disabled": 0, "is_reserved": 0, "bike_id": "cdfed79df178af9282a6be1eff58183d", "lon": -77.184319}, {"fusion_lat": 0.0, "lat": 38.930739, "rental_uris": {"ios": "https://dc.lft.to/lastmile_qr_scan", "android": "https://dc.lft.to/lastmile_qr_scan"}, "name": "2ab15ddea8d1bc310fb10f1046d79743", "type": "electric_scooter", "fusion_lon": 0.0, "is_disabled": 0, "is_reserved": 0, "bike_id": "2ab15ddea8d1bc310fb10f1046d79743", "lon": -77.03486283333334}, {"fusion_lat": 0.0, "lat": 38.883664, "rental_uris": {"ios": "https://dc.lft.to/lastmile_qr_scan", "android": "https://dc.lft.to/lastmile_qr_scan"}, "name": "be367eb90399d33a4a58612d2aad6515", "type": "electric_scooter", "fusion_lon": 0.0, "is_disabled": 0, "is_reserved": 0, "bike_id": "be367eb90399d33a4a58612d2aad6515", "lon": -76.9415405}, {"fusion_lat": 0.0, "lat": 38.866345333333335, "rental_uris": {"ios": "https://dc.lft.to/lastmile_qr_scan", "android": "https://dc.lft.to/lastmile_qr_scan"}, "name": "3f69db3fe55fe8a2d9c446979a42ed15", "type": "electric_scooter", "fusion_lon": 0.0, "is_disabled": 0, "is_reserved": 0, "bike_id": "3f69db3fe55fe8a2d9c446979a42ed15", "lon": -76.98710733333333}, {"fusion_lat": 0.0, "lat": 38.884883, "rental_uris": {"ios": "https://dc.lft.to/lastmile_qr_scan", "android": "https://dc.lft.to/lastmile_qr_scan"}, "name": "52b7d00db2a8d735094526982de1e679", "type": "electric_scooter", "fusion_lon": 0.0, "is_disabled": 0, "is_reserved": 0, "bike_id": "52b7d00db2a8d735094526982de1e679", "lon": -77.02161316666667}, {"fusion_lat": 0.0, "lat": 38.905244833333334, "rental_uris": {"ios": "https://dc.lft.to/lastmile_qr_scan", "android": "https://dc.lft.to/lastmile_qr_scan"}, "name": "ac8c5a3ee812b9d40d55c69f29bb069f", "type": "electric_scooter", "fusion_lon": 0.0, "is_disabled": 0, "is_reserved": 0, "bike_id": "ac8c5a3ee812b9d40d55c69f29bb069f", "lon": -77.02685716666667}, {"fusion_lat": 0.0, "lat": 38.8198375, "rental_uris": {"ios": "https://dc.lft.to/lastmile_qr_scan", "android": "https://dc.lft.to/lastmile_qr_scan"}, "name": "a32f0afef5c9cab322ad7ee3a585ea71", "type": "electric_bike", "fusion_lon": 0.0, "is_disabled": 0, "is_reserved": 0, "bike_id": "a32f0afef5c9cab322ad7ee3a585ea71", "lon": -76.99815916666667}, {"fusion_lat": 0.0, "lat": 38.8982925, "rental_uris": {"ios": "https://dc.lft.to/lastmile_qr_scan", "android": "https://dc.lft.to/lastmile_qr_scan"}, "name": "4226924bca4cfea839072cd46b50c915", "type": "electric_scooter", "fusion_lon": 0.0, "is_disabled": 0, "is_reserved": 0, "bike_id": "4226924bca4cfea839072cd46b50c915", "lon": -77.01993016666667}, {"fusion_lat": 0.0, "lat": 38.903062, "rental_uris": {"ios": "https://dc.lft.to/lastmile_qr_scan", "android": "https://dc.lft.to/lastmile_qr_scan"}, "name": "beb9836e6043b3abae86a1546125154c", "type": "electric_scooter", "fusion_lon": 0.0, "is_disabled": 0, "is_reserved": 0, "bike_id": "beb9836e6043b3abae86a1546125154c", "lon": -77.0602325}, {"fusion_lat": 0.0, "lat": 38.91324866666667, "rental_uris": {"ios": "https://dc.lft.to/lastmile_qr_scan", "android": "https://dc.lft.to/lastmile_qr_scan"}, "name": "4aa4b8712dcfd28fc5f42e2d8e7d8b06", "type": "electric_scooter", "fusion_lon": 0.0, "is_disabled": 0, "is_reserved": 0, "bike_id": "4aa4b8712dcfd28fc5f42e2d8e7d8b06", "lon": -77.04020566666667}, {"fusion_lat": 0.0, "lat": 38.907461, "rental_uris": {"ios": "https://dc.lft.to/lastmile_qr_scan", "android": "https://dc.lft.to/lastmile_qr_scan"}, "name": "3f4a720a63a134e63229149eb073ed64", "type": "electric_scooter", "fusion_lon": 0.0, "is_disabled": 0, "is_reserved": 0, "bike_id": "3f4a720a63a134e63229149eb073ed64", "lon": -77.00777966666666}, {"fusion_lat": 0.0, "lat": 38.89855216666667, "rental_uris": {"ios": "https://dc.lft.to/lastmile_qr_scan", "android": "https://dc.lft.to/lastmile_qr_scan"}, "name": "027af66be71adc07ff39abea97074a81", "type": "electric_scooter", "fusion_lon": 0.0, "is_disabled": 0, "is_reserved": 0, "bike_id": "027af66be71adc07ff39abea97074a81", "lon": -77.02379283333333}, {"fusion_lat": 0.0, "lat": 38.866915, "rental_uris": {"ios": "https://dc.lft.to/lastmile_qr_scan", "android": "https://dc.lft.to/lastmile_qr_scan"}, "name": "6a6d95847ad647b40a9d6f3077ecbefc", "type": "electric_scooter", "fusion_lon": 0.0, "is_disabled": 0, "is_reserved": 0, "bike_id": "6a6d95847ad647b40a9d6f3077ecbefc", "lon": -76.9854535}, {"fusion_lat": 0.0, "lat": 38.90032683333333, "rental_uris": {"ios": "https://dc.lft.to/lastmile_qr_scan", "android": "https://dc.lft.to/lastmile_qr_scan"}, "name": "7d9a9484c0aa1322643c68592cbbbfca", "type": "electric_scooter", "fusion_lon": 0.0, "is_disabled": 0, "is_reserved": 0, "bike_id": "7d9a9484c0aa1322643c68592cbbbfca", "lon": -77.05825266666666}, {"fusion_lat": 0.0, "lat": 38.972186666666666, "rental_uris": {"ios": "https://dc.lft.to/lastmile_qr_scan", "android": "https://dc.lft.to/lastmile_qr_scan"}, "name": "05e0211e11f83fece269b2110a6b1ef2", "type": "electric_bike", "fusion_lon": 0.0, "is_disabled": 0, "is_reserved": 0, "bike_id": "05e0211e11f83fece269b2110a6b1ef2", "lon": -77.01424733333333}, {"fusion_lat": 0.0, "lat": 38.9451125, "rental_uris": {"ios": "https://dc.lft.to/lastmile_qr_scan", "android": "https://dc.lft.to/lastmile_qr_scan"}, "name": "571e0a7401e9b274bbf44af79e960a25", "type": "electric_scooter", "fusion_lon": 0.0, "is_disabled": 0, "is_reserved": 0, "bike_id": "571e0a7401e9b274bbf44af79e960a25", "lon": -77.03359783333333}, {"fusion_lat": 0.0, "lat": 38.8928195, "rental_uris": {"ios": "https://dc.lft.to/lastmile_qr_scan", "android": "https://dc.lft.to/lastmile_qr_scan"}, "name": "226c5a6d37fc859fb5c4afd8e3b6c524", "type": "electric_scooter", "fusion_lon": 0.0, "is_disabled": 0, "is_reserved": 0, "bike_id": "226c5a6d37fc859fb5c4afd8e3b6c524", "lon": -77.05034316666666}, {"fusion_lat": 0.0, "lat": 38.90381516666667, "rental_uris": {"ios": "https://dc.lft.to/lastmile_qr_scan", "android": "https://dc.lft.to/lastmile_qr_scan"}, "name": "ca6b7d21f2449fab219b803ab9e4fa7f", "type": "electric_scooter", "fusion_lon": 0.0, "is_disabled": 0, "is_reserved": 0, "bike_id": "ca6b7d21f2449fab219b803ab9e4fa7f", "lon": -77.035587}, {"fusion_lat": 0.0, "lat": 38.79470083333333, "rental_uris": {"ios": "https://dc.lft.to/lastmile_qr_scan", "android": "https://dc.lft.to/lastmile_qr_scan"}, "name": "1f0f270f71b5ea8d4b7f9a8edacc9c9f", "type": "electric_bike", "fusion_lon": 0.0, "is_disabled": 0, "is_reserved": 0, "bike_id": "1f0f270f71b5ea8d4b7f9a8edacc9c9f", "lon": -76.99249966666666}, {"fusion_lat": 0.0, "lat": 38.90022916666667, "rental_uris": {"ios": "https://dc.lft.to/lastmile_qr_scan", "android": "https://dc.lft.to/lastmile_qr_scan"}, "name": "adea2d47c557c331c0f695fad0dea6ee", "type": "electric_scooter", "fusion_lon": 0.0, "is_disabled": 0, "is_reserved": 0, "bike_id": "adea2d47c557c331c0f695fad0dea6ee", "lon": -77.00211233333333}, {"fusion_lat": 0.0, "lat": 38.875645666666664, "rental_uris": {"ios": "https://dc.lft.to/lastmile_qr_scan", "android": "https://dc.lft.to/lastmile_qr_scan"}, "name": "c7255ee46a3b9d834a8d4f2a52b6bead", "type": "electric_scooter", "fusion_lon": 0.0, "is_disabled": 0, "is_reserved": 0, "bike_id": "c7255ee46a3b9d834a8d4f2a52b6bead", "lon": -77.0057305}, {"fusion_lat": 0.0, "lat": 38.9111435, "rental_uris": {"ios": "https://dc.lft.to/lastmile_qr_scan", "android": "https://dc.lft.to/lastmile_qr_scan"}, "name": "417898cd37bd9015bf820509c387deb8", "type": "electric_scooter", "fusion_lon": 0.0, "is_disabled": 0, "is_reserved": 0, "bike_id": "417898cd37bd9015bf820509c387deb8", "lon": -77.04502483333333}, {"fusion_lat": 0.0, "lat": 38.924374, "rental_uris": {"ios": "https://dc.lft.to/lastmile_qr_scan", "android": "https://dc.lft.to/lastmile_qr_scan"}, "name": "37ab7379c9f052af16af34b1ea6c3375", "type": "electric_scooter", "fusion_lon": 0.0, "is_disabled": 0, "is_reserved": 0, "bike_id": "37ab7379c9f052af16af34b1ea6c3375", "lon": -77.04024166666666}, {"fusion_lat": 0.0, "lat": 38.897316000000004, "rental_uris": {"ios": "https://dc.lft.to/lastmile_qr_scan", "android": "https://dc.lft.to/lastmile_qr_scan"}, "name": "634b6238cbe95da47c6643bbe5190c2e", "type": "electric_scooter", "fusion_lon": 0.0, "is_disabled": 0, "is_reserved": 0, "bike_id": "634b6238cbe95da47c6643bbe5190c2e", "lon": -77.00886066666666}, {"fusion_lat": 0.0, "lat": 38.896994166666666, "rental_uris": {"ios": "https://dc.lft.to/lastmile_qr_scan", "android": "https://dc.lft.to/lastmile_qr_scan"}, "name": "0cdb50847c9a2922c6f3657d9511d4a4", "type": "electric_scooter", "fusion_lon": 0.0, "is_disabled": 0, "is_reserved": 0, "bike_id": "0cdb50847c9a2922c6f3657d9511d4a4", "lon": -77.00759433333333}, {"fusion_lat": 0.0, "lat": 38.91124833333333, "rental_uris": {"ios": "https://dc.lft.to/lastmile_qr_scan", "android": "https://dc.lft.to/lastmile_qr_scan"}, "name": "fb4b66c8c02bc5383ab87e4e2ed49508", "type": "electric_scooter", "fusion_lon": 0.0, "is_disabled": 0, "is_reserved": 0, "bike_id": "fb4b66c8c02bc5383ab87e4e2ed49508", "lon": -77.02717933333334}, {"fusion_lat": 0.0, "lat": 38.918714333333334, "rental_uris": {"ios": "https://dc.lft.to/lastmile_qr_scan", "android": "https://dc.lft.to/lastmile_qr_scan"}, "name": "8af4b4ecd93dbb4030712739b9fce330", "type": "electric_scooter", "fusion_lon": 0.0, "is_disabled": 0, "is_reserved": 0, "bike_id": "8af4b4ecd93dbb4030712739b9fce330", "lon": -77.0367835}, {"fusion_lat": 0.0, "lat": 38.9125755, "rental_uris": {"ios": "https://dc.lft.to/lastmile_qr_scan", "android": "https://dc.lft.to/lastmile_qr_scan"}, "name": "14d5c9690e4ad1c4fa0e81e65ca58998", "type": "electric_scooter", "fusion_lon": 0.0, "is_disabled": 0, "is_reserved": 0, "bike_id": "14d5c9690e4ad1c4fa0e81e65ca58998", "lon": -77.03931783333333}, {"fusion_lat": 0.0, "lat": 38.908819, "rental_uris": {"ios": "https://dc.lft.to/lastmile_qr_scan", "android": "https://dc.lft.to/lastmile_qr_scan"}, "name": "6078f6278feebf8eef58a062f8e12ec3", "type": "electric_scooter", "fusion_lon": 0.0, "is_disabled": 0, "is_reserved": 0, "bike_id": "6078f6278feebf8eef58a062f8e12ec3", "lon": -77.07527}, {"fusion_lat": 0.0, "lat": 38.92856483333333, "rental_uris": {"ios": "https://dc.lft.to/lastmile_qr_scan", "android": "https://dc.lft.to/lastmile_qr_scan"}, "name": "1b222dec488af9256c4c2fb4e532f58e", "type": "electric_bike", "fusion_lon": 0.0, "is_disabled": 0, "is_reserved": 0, "bike_id": "1b222dec488af9256c4c2fb4e532f58e", "lon": -77.033029}, {"fusion_lat": 0.0, "lat": 38.8874535, "rental_uris": {"ios": "https://dc.lft.to/lastmile_qr_scan", "android": "https://dc.lft.to/lastmile_qr_scan"}, "name": "9dbac38cfb834c831ad38315c9b88b4f", "type": "electric_scooter", "fusion_lon": 0.0, "is_disabled": 0, "is_reserved": 0, "bike_id": "9dbac38cfb834c831ad38315c9b88b4f", "lon": -77.03159533333333}, {"fusion_lat": 0.0, "lat": 38.8661875, "rental_uris": {"ios": "https://dc.lft.to/lastmile_qr_scan", "android": "https://dc.lft.to/lastmile_qr_scan"},