{"data": {"bikes": [{"bike_id": "246e943caf96ae2d85d430011d69df12", "type": "electric_scooter", "is_disabled": 0, "lat": 38.902342, "rental_uris": {"ios": "https://dc.lft.to/lastmile_qr_scan", "android": "https://dc.lft.to/lastmile_qr_scan"}, "is_reserved": 0, "fusion_lon": 0.0, "fusion_lat": 0.0, "lon": -77.0181675, "name": "246e943caf96ae2d85d430011d69df12"}, {"bike_id": "c9211848b465a32db6ebe2e2058d29d1", "type": "electric_scooter", "is_disabled": 0, "lat": 38.90488466666667, "rental_uris": {"ios": "https://dc.lft.to/lastmile_qr_scan", "android": "https://dc.lft.to/lastmile_qr_scan"}, "is_reserved": 0, "fusion_lon": 0.0, "fusion_lat": 0.0, "lon": -77.04872816666666, "name": "c9211848b465a32db6ebe2e2058d29d1"}, {"bike_id": "0ddcc9648be42058ebc984db6240b287", "type": "electric_scooter", "is_disabled": 0, "lat": 38.94622, "rental_uris": {"ios": "https://dc.lft.to/lastmile_qr_scan", "android": "https://dc.lft.to/lastmile_qr_scan"}, "is_reserved": 0, "fusion_lon": 0.0, "fusion_lat": 0.0, "lon": -77.07239116666666, "name": "0ddcc9648be42058ebc984db6240b287"}, {"bike_id": "3ebb630f8ee4abeb6b71d7107651050f", "type": "electric_bike", "is_disabled": 0, "lat": 38.893660833333335, "rental_uris": {"ios": "https://dc.lft.to/lastmile_qr_scan", "android": "https://dc.lft.to/lastmile_qr_scan"}, "is_reserved": 0, "fusion_lon": 0.0, "fusion_lat": 0.0, "lon": -77.186813, "name": "3ebb630f8ee4abeb6b71d7107651050f"}, {"bike_id": "e022ee5e67f926084ec92fdef8a85c05", "type": "electric_scooter", "is_disabled": 0, "lat": 38.9104085, "rental_uris": {"ios": "https://dc.lft.to/lastmile_qr_scan", "android": "https://dc.lft.to/lastmile_qr_scan"}, "is_reserved": 0, "fusion_lon": 0.0, "fusion_lat": 0.0, "lon": -77.03800233333334, "name": "e022ee5e67f926084ec92fdef8a85c05"}, {"bike_id": "fbafd0ea0716a9518023217f67046e9e", "type": "electric_scooter", "is_disabled": 0, "lat": 38.9064595, "rental_uris": {"ios": "https://dc.lft.to/lastmile_qr_scan", "android": "https://dc.lft.to/lastmile_qr_scan"}, "is_reserved": 0, "fusion_lon": 0.0, "fusion_lat": 0.0, "lon": -77.01733016666667, "name": "fbafd0ea0716a9518023217f67046e9e"}, {"bike_id": "6103eae771c6c313534d4b847188bccf", "type": "electric_scooter", "is_disabled": 0, "lat": 38.90248166666667, "rental_uris": {"ios": "https://dc.lft.to/lastmile_qr_scan", "android": "https://dc.lft.to/lastmile_qr_scan"}, "is_reserved": 0, "fusion_lon": 0.0, "fusion_lat": 0.0, "lon": -77.03460283333334, "name": "6103eae771c6c313534d4b847188bccf"}, {"bike_id": "a198c3143584824605bb825cb1a17cb9", "type": "electric_scooter", "is_disabled": 0, "lat": 38.90076283333333, "rental_uris": {"ios": "https://dc.lft.to/lastmile_qr_scan", "android": "https://dc.lft.to/lastmile_qr_scan"}, "is_reserved": 0, "fusion_lon": 0.0, "fusion_lat": 0.0, "lon": -77.03089116666666, "name": "a198c3143584824605bb825cb1a17cb9"}, {"bike_id": "59f8eb9873881c5dd9db1836eaed8dfc", "type": "electric_scooter", "is_disabled": 0, "lat": 38.90646683333333, "rental_uris": {"ios": "https://dc.lft.to/lastmile_qr_scan", "android": "https://dc.lft.to/lastmile_qr_scan"}, "is_reserved": 0, "fusion_lon": 0.0, "fusion_lat": 0.0, "lon": -77.0436415, "name": "59f8eb9873881c5dd9db1836eaed8dfc"}, {"bike_id": "3c0ce2adccc17a1951287118a59e30fa", "type": "electric_scooter", "is_disabled": 0, "lat": 38.9140525, "rental_uris": {"ios": "https://dc.lft.to/lastmile_qr_scan", "android": "https://dc.lft.to/lastmile_qr_scan"}, "is_reserved": 0, "fusion_lon": 0.0, "fusion_lat": 0.0, "lon": -77.0314915, "name": "3c0ce2adccc17a1951287118a59e30fa"}, {"bike_id": "25793459f8b547dc0eddf07bb92dfa13", "type": "electric_bike", "is_disabled": 0, "lat": 38.83159766666667, "rental_uris": {"ios": "https://dc.lft.to/lastmile_qr_scan", "android": "https://dc.lft.to/lastmile_qr_scan"}, "is_reserved": 0, "fusion_lon": 0.0, "fusion_lat": 0.0, "lon": -76.995492, "name": "25793459f8b547dc0eddf07bb92dfa13"}, {"bike_id": "595b21f9a7dccb7e940151f9a3572998", "type": "electric_scooter", "is_disabled": 0, "lat": 38.9008335, "rental_uris": {"ios": "https://dc.lft.to/lastmile_qr_scan", "android": "https://dc.lft.to/lastmile_qr_scan"}, "is_reserved": 0, "fusion_lon": 0.0, "fusion_lat": 0.0, "lon": -77.024774, "name": "595b21f9a7dccb7e940151f9a3572998"}, {"bike_id": "446892e43096e28fd0ae3677f2e35f55", "type": "electric_scooter", "is_disabled": 0, "lat": 38.90879133333333, "rental_uris": {"ios": "https://dc.lft.to/lastmile_qr_scan", "android": "https://dc.lft.to/lastmile_qr_scan"}, "is_reserved": 0, "fusion_lon": 0.0, "fusion_lat": 0.0, "lon": -77.044945, "name": "446892e43096e28fd0ae3677f2e35f55"}, {"bike_id": "62f4ee29bb2c48a05a5312cae3277e5e", "type": "electric_scooter", "is_disabled": 0, "lat": 38.921836166666665, "rental_uris": {"ios": "https://dc.lft.to/lastmile_qr_scan", "android": "https://dc.lft.to/lastmile_qr_scan"}, "is_reserved": 0, "fusion_lon": 0.0, "fusion_lat": 0.0, "lon": -77.042328, "name": "62f4ee29bb2c48a05a5312cae3277e5e"}, {"bike_id": "53f73504eb027a2c51969830a847126e", "type": "electric_scooter", "is_disabled": 0, "lat": 38.91959533333333, "rental_uris": {"ios": "https://dc.lft.to/lastmile_qr_scan", "android": "https://dc.lft.to/lastmile_qr_scan"}, "is_reserved": 0, "fusion_lon": 0.0, "fusion_lat": 0.0, "lon": -77.02500633333334, "name": "53f73504eb027a2c51969830a847126e"}, {"bike_id": "ae897d91cae85b7c36840882f142ca06", "type": "electric_scooter", "is_disabled": 0, "lat": 38.92293516666667, "rental_uris": {"ios": "https://dc.lft.to/lastmile_qr_scan", "android": "https://dc.lft.to/lastmile_qr_scan"}, "is_reserved": 0, "fusion_lon": 0.0, "fusion_lat": 0.0, "lon": -77.07321466666667, "name": "ae897d91cae85b7c36840882f142ca06"}, {"bike_id": "f64175d82b7b8da8e1d0ec9ca60c2624", "type": "electric_scooter", "is_disabled": 0, "lat": 38.893234666666665, "rental_uris": {"ios": "https://dc.lft.to/lastmile_qr_scan", "android": "https://dc.lft.to/lastmile_qr_scan"}, "is_reserved": 0, "fusion_lon": 0.0, "fusion_lat": 0.0, "lon": -77.0488015, "name": "f64175d82b7b8da8e1d0ec9ca60c2624"}, {"bike_id": "15348481a52df60546e3d0e8b92b1b69", "type": "electric_scooter", "is_disabled": 0, "lat": 38.912130833333336, "rental_uris": {"ios": "https://dc.lft.to/lastmile_qr_scan", "android": "https://dc.lft.to/lastmile_qr_scan"}, "is_reserved": 0, "fusion_lon": 0.0, "fusion_lat": 0.0, "lon": -77.03462816666666, "name": "15348481a52df60546e3d0e8b92b1b69"}, {"bike_id": "8d48202bd0f0d77bcad55212de77d2b5", "type": "electric_scooter", "is_disabled": 0, "lat": 38.930978333333336, "rental_uris": {"ios": "https://dc.lft.to/lastmile_qr_scan", "android": "https://dc.lft.to/lastmile_qr_scan"}, "is_reserved": 0, "fusion_lon": 0.0, "fusion_lat": 0.0, "lon": -77.03481533333333, "name": "8d48202bd0f0d77bcad55212de77d2b5"}, {"bike_id": "e08e77bf5a87d47f76655743075a943e", "type": "electric_bike", "is_disabled": 0, "lat": 38.92011083333333, "rental_uris": {"ios": "https://dc.lft.to/lastmile_qr_scan", "android": "https://dc.lft.to/lastmile_qr_scan"}, "is_reserved": 0, "fusion_lon": 0.0, "fusion_lat": 0.0, "lon": -76.9928005, "name": "e08e77bf5a87d47f76655743075a943e"}, {"bike_id": "46d670b031dd16f7e25809d941838084", "type": "electric_scooter", "is_disabled": 0, "lat": 38.87455533333333, "rental_uris": {"ios": "https://dc.lft.to/lastmile_qr_scan", "android": "https://dc.lft.to/lastmile_qr_scan"}, "is_reserved": 0, "fusion_lon": 0.0, "fusion_lat": 0.0, "lon": -77.00944283333334, "name": "46d670b031dd16f7e25809d941838084"}, {"bike_id": "e551866ec0c317804e94adb4546a2cb5", "type": "electric_scooter", "is_disabled": 0, "lat": 38.87492316666667, "rental_uris": {"ios": "https://dc.lft.to/lastmile_qr_scan", "android": "https://dc.lft.to/lastmile_qr_scan"}, "is_reserved": 0, "fusion_lon": 0.0, "fusion_lat": 0.0, "lon": -76.99975216666667, "name": "e551866ec0c317804e94adb4546a2cb5"}, {"bike_id": "124049eccb5cdee2c7a229d0716e27fc", "type": "electric_scooter", "is_disabled": 0, "lat": 38.945106833333334, "rental_uris": {"ios": "https://dc.lft.to/lastmile_qr_scan", "android": "https://dc.lft.to/lastmile_qr_scan"}, "is_reserved": 0, "fusion_lon": 0.0, "fusion_lat": 0.0, "lon": -77.0216925, "name": "124049eccb5cdee2c7a229d0716e27fc"}, {"bike_id": "c43e7fdff1690a59b06c3779dc608eda", "type": "electric_scooter", "is_disabled": 0, "lat": 38.904172333333335, "rental_uris": {"ios": "https://dc.lft.to/lastmile_qr_scan", "android": "https://dc.lft.to/lastmile_qr_scan"}, "is_reserved": 0, "fusion_lon": 0.0, "fusion_lat": 0.0, "lon": -77.0180045, "name": "c43e7fdff1690a59b06c3779dc608eda"}, {"bike_id": "1e26b6db979e96d55b42307517b4b4e9", "type": "electric_bike", "is_disabled": 0, "lat": 39.03703, "rental_uris": {"ios": "https://dc.lft.to/lastmile_qr_scan", "android": "https://dc.lft.to/lastmile_qr_scan"}, "is_reserved": 0, "fusion_lon": 0.0, "fusion_lat": 0.0, "lon": -77.028648, "name": "1e26b6db979e96d55b42307517b4b4e9"}, {"bike_id": "11817bf6c2ea34f8c915d1f046058cae", "type": "electric_scooter", "is_disabled": 0, "lat": 38.92381116666667, "rental_uris": {"ios": "https://dc.lft.to/lastmile_qr_scan", "android": "https://dc.lft.to/lastmile_qr_scan"}, "is_reserved": 0, "fusion_lon": 0.0, "fusion_lat": 0.0, "lon": -77.03027116666667, "name": "11817bf6c2ea34f8c915d1f046058cae"}, {"bike_id": "f62399c4c6170e1dda0e3a929ec6c3f8", "type": "electric_scooter", "is_disabled": 0, "lat": 38.875629333333336, "rental_uris": {"ios": "https://dc.lft.to/lastmile_qr_scan", "android": "https://dc.lft.to/lastmile_qr_scan"}, "is_reserved": 0, "fusion_lon": 0.0, "fusion_lat": 0.0, "lon": -76.95874916666666, "name": "f62399c4c6170e1dda0e3a929ec6c3f8"}, {"bike_id": "b6ec0503c29f4e8d59e4c7b5bd8b8dfa", "type": "electric_scooter", "is_disabled": 0, "lat": 38.90639933333333, "rental_uris": {"ios": "https://dc.lft.to/lastmile_qr_scan", "android": "https://dc.lft.to/lastmile_qr_scan"}, "is_reserved": 0, "fusion_lon": 0.0, "fusion_lat": 0.0, "lon": -77.051474, "name": "b6ec0503c29f4e8d59e4c7b5bd8b8dfa"}, {"bike_id": "eb470fbde2ac609a4565467174f52de4", "type": "electric_scooter", "is_disabled": 0, "lat": 38.88916866666667, "rental_uris": {"ios": "https://dc.lft.to/lastmile_qr_scan", "android": "https://dc.lft.to/lastmile_qr_scan"}, "is_reserved": 0, "fusion_lon": 0.0, "fusion_lat": 0.0, "lon": -76.98958866666666, "name": "eb470fbde2ac609a4565467174f52de4"}, {"bike_id": "6b7986971d89f11e28bb120c6e57e502", "type": "electric_scooter", "is_disabled": 0, "lat": 38.93924233333333, "rental_uris": {"ios": "https://dc.lft.to/lastmile_qr_scan", "android": "https://dc.lft.to/lastmile_qr_scan"}, "is_reserved": 0, "fusion_lon": 0.0, "fusion_lat": 0.0, "lon": -77.06052, "name": "6b7986971d89f11e28bb120c6e57e502"}, {"bike_id": "dc7161f88f5e916243287c0568117383", "type": "electric_scooter", "is_disabled": 0, "lat": 38.95933016666667, "rental_uris": {"ios": "https://dc.lft.to/lastmile_qr_scan", "android": "https://dc.lft.to/lastmile_qr_scan"}, "is_reserved": 0, "fusion_lon": 0.0, "fusion_lat": 0.0, "lon": -77.03132083333334, "name": "dc7161f88f5e916243287c0568117383"}, {"bike_id": "9295ac7c7157dba887728096bb3b3fe5", "type": "electric_scooter", "is_disabled": 0, "lat": 38.87176766666666, "rental_uris": {"ios": "https://dc.lft.to/lastmile_qr_scan", "android": "https://dc.lft.to/lastmile_qr_scan"}, "is_reserved": 0, "fusion_lon": 0.0, "fusion_lat": 0.0, "lon": -77.006164, "name": "9295ac7c7157dba887728096bb3b3fe5"}, {"bike_id": "9d5b9985a48cd1ce5e57bb30f9a39739", "type": "electric_scooter", "is_disabled": 0, "lat": 38.864373666666665, "rental_uris": {"ios": "https://dc.lft.to/lastmile_qr_scan", "android": "https://dc.lft.to/lastmile_qr_scan"}, "is_reserved": 0, "fusion_lon": 0.0, "fusion_lat": 0.0, "lon": -76.980025, "name": "9d5b9985a48cd1ce5e57bb30f9a39739"}, {"bike_id": "09f2d95276e63b1a2d6a3b86b67282ed", "type": "electric_scooter", "is_disabled": 0, "lat": 38.890064833333334, "rental_uris": {"ios": "https://dc.lft.to/lastmile_qr_scan", "android": "https://dc.lft.to/lastmile_qr_scan"}, "is_reserved": 0, "fusion_lon": 0.0, "fusion_lat": 0.0, "lon": -76.9374755, "name": "09f2d95276e63b1a2d6a3b86b67282ed"}, {"bike_id": "33b7667abc1d42102c2183145dce526a", "type": "electric_scooter", "is_disabled": 0, "lat": 38.950071, "rental_uris": {"ios": "https://dc.lft.to/lastmile_qr_scan", "android": "https://dc.lft.to/lastmile_qr_scan"}, "is_reserved": 0, "fusion_lon": 0.0, "fusion_lat": 0.0, "lon": -77.01559983333334, "name": "33b7667abc1d42102c2183145dce526a"}, {"bike_id": "0882f3eb2a406db0ad94a8916f2f8384", "type": "electric_bike", "is_disabled": 0, "lat": 38.99315433333334, "rental_uris": {"ios": "https://dc.lft.to/lastmile_qr_scan", "android": "https://dc.lft.to/lastmile_qr_scan"}, "is_reserved": 0, "fusion_lon": 0.0, "fusion_lat": 0.0, "lon": -77.02513633333334, "name": "0882f3eb2a406db0ad94a8916f2f8384"}, {"bike_id": "caf66c0f8174ab023d08c78543c1ba94", "type": "electric_scooter", "is_disabled": 0, "lat": 38.9155265, "rental_uris": {"ios": "https://dc.lft.to/lastmile_qr_scan", "android": "https://dc.lft.to/lastmile_qr_scan"}, "is_reserved": 0, "fusion_lon": 0.0, "fusion_lat": 0.0, "lon": -77.03172783333333, "name": "caf66c0f8174ab023d08c78543c1ba94"}, {"bike_id": "3dc6777a7977b218985e76f81e694a5a", "type": "electric_scooter", "is_disabled": 0, "lat": 38.92323483333333, "rental_uris": {"ios": "https://dc.lft.to/lastmile_qr_scan", "android": "https://dc.lft.to/lastmile_qr_scan"}, "is_reserved": 0, "fusion_lon": 0.0, "fusion_lat": 0.0, "lon": -77.03915833333333, "name": "3dc6777a7977b218985e76f81e694a5a"}, {"bike_id": "8a93414015d78a9a1573a5cd797fb3bc", "type": "electric_scooter", "is_disabled": 0, "lat": 38.876669666666665, "rental_uris": {"ios": "https://dc.lft.to/lastmile_qr_scan", "android": "https://dc.lft.to/lastmile_qr_scan"}, "is_reserved": 0, "fusion_lon": 0.0, "fusion_lat": 0.0, "lon": -77.00747483333333, "name": "8a93414015d78a9a1573a5cd797fb3bc"}, {"bike_id": "c0d1d65d829abe193a097d34cb4c74d0", "type": "electric_scooter", "is_disabled": 0, "lat": 38.902610833333334, "rental_uris": {"ios": "https://dc.lft.to/lastmile_qr_scan", "android": "https://dc.lft.to/lastmile_qr_scan"}, "is_reserved": 0, "fusion_lon": 0.0, "fusion_lat": 0.0, "lon": -77.04148933333333, "name": "c0d1d65d829abe193a097d34cb4c74d0"}, {"bike_id": "ab12e72f1c88c23e47a2b27304cb5876", "type": "electric_scooter", "is_disabled": 0, "lat": 38.95656866666667, "rental_uris": {"ios": "https://dc.lft.to/lastmile_qr_scan", "android": "https://dc.lft.to/lastmile_qr_scan"}, "is_reserved": 0, "fusion_lon": 0.0, "fusion_lat": 0.0, "lon": -77.02400116666666, "name": "ab12e72f1c88c23e47a2b27304cb5876"}, {"bike_id": "25984f4700c55c8223cb87fddf947cbd", "type": "electric_scooter", "is_disabled": 0, "lat": 38.9039165, "rental_uris": {"ios": "https://dc.lft.to/lastmile_qr_scan", "android": "https://dc.lft.to/lastmile_qr_scan"}, "is_reserved": 0, "fusion_lon": 0.0, "fusion_lat": 0.0, "lon": -77.0180445, "name": "25984f4700c55c8223cb87fddf947cbd"}, {"bike_id": "713fbf250f97711dec2ec8e6bddd8f17", "type": "electric_bike", "is_disabled": 0, "lat": 39.0376515, "rental_uris": {"ios": "https://dc.lft.to/lastmile_qr_scan", "android": "https://dc.lft.to/lastmile_qr_scan"}, "is_reserved": 0, "fusion_lon": 0.0, "fusion_lat": 0.0, "lon": -77.05485883333333, "name": "713fbf250f97711dec2ec8e6bddd8f17"}, {"bike_id": "3b5681db8b4807d08abfd2e700153446", "type": "electric_scooter", "is_disabled": 0, "lat": 38.8774915, "rental_uris": {"ios": "https://dc.lft.to/lastmile_qr_scan", "android": "https://dc.lft.to/lastmile_qr_scan"}, "is_reserved": 0, "fusion_lon": 0.0, "fusion_lat": 0.0, "lon": -76.9972355, "name": "3b5681db8b4807d08abfd2e700153446"}, {"bike_id": "2c7492fad6fec8b0ca28a395725bee30", "type": "electric_scooter", "is_disabled": 0, "lat": 38.90846033333333, "rental_uris": {"ios": "https://dc.lft.to/lastmile_qr_scan", "android": "https://dc.lft.to/lastmile_qr_scan"}, "is_reserved": 0, "fusion_lon": 0.0, "fusion_lat": 0.0, "lon": -77.02199583333334, "name": "2c7492fad6fec8b0ca28a395725bee30"}, {"bike_id": "35859e632a7b02a046d846c69a94c642", "type": "electric_scooter", "is_disabled": 0, "lat": 38.88642, "rental_uris": {"ios": "https://dc.lft.to/lastmile_qr_scan", "android": "https://dc.lft.to/lastmile_qr_scan"}, "is_reserved": 0, "fusion_lon": 0.0, "fusion_lat": 0.0, "lon": -77.00009633333333, "name": "35859e632a7b02a046d846c69a94c642"}, {"bike_id": "ccc5c56b13f1e01eef4b763c35e83cd7", "type": "electric_bike", "is_disabled": 0, "lat": 39.054974666666666, "rental_uris": {"ios": "https://dc.lft.to/lastmile_qr_scan", "android": "https://dc.lft.to/lastmile_qr_scan"}, "is_reserved": 0, "fusion_lon": 0.0, "fusion_lat": 0.0, "lon": -77.11795366666666, "name": "ccc5c56b13f1e01eef4b763c35e83cd7"}, {"bike_id": "0dff6b023f9e0872674399565690b3aa", "type": "electric_bike", "is_disabled": 0, "lat": 38.908273333333334, "rental_uris": {"ios": "https://dc.lft.to/lastmile_qr_scan", "android": "https://dc.lft.to/lastmile_qr_scan"}, "is_reserved": 0, "fusion_lon": 0.0, "fusion_lat": 0.0, "lon": -76.94157333333334, "name": "0dff6b023f9e0872674399565690b3aa"}, {"bike_id": "2f626e56c38d4114a9f9dda13dfdc497", "type": "electric_scooter", "is_disabled": 0, "lat": 38.9053885, "rental_uris": {"ios": "https://dc.lft.to/lastmile_qr_scan", "android": "https://dc.lft.to/lastmile_qr_scan"}, "is_reserved": 0, "fusion_lon": 0.0, "fusion_lat": 0.0, "lon": -77.0688405, "name": "2f626e56c38d4114a9f9dda13dfdc497"}, {"bike_id": "a5b9fbcff980526f4721b09335d7f18a", "type": "electric_scooter", "is_disabled": 0, "lat": 38.884995, "rental_uris": {"ios": "https://dc.lft.to/lastmile_qr_scan", "android": "https://dc.lft.to/lastmile_qr_scan"}, "is_reserved": 0, "fusion_lon": 0.0, "fusion_lat": 0.0, "lon": -77.0152875, "name": "a5b9fbcff980526f4721b09335d7f18a"}, {"bike_id": "020d90054e03de3a7ae460a21488c904", "type": "electric_scooter", "is_disabled": 0, "lat": 38.926849833333335, "rental_uris": {"ios": "https://dc.lft.to/lastmile_qr_scan", "android": "https://dc.lft.to/lastmile_qr_scan"}, "is_reserved": 0, "fusion_lon": 0.0, "fusion_lat": 0.0, "lon": -77.02159866666666, "name": "020d90054e03de3a7ae460a21488c904"}, {"bike_id": "ab39efbcff1db8683d8cc17020a65da0", "type": "electric_scooter", "is_disabled": 0, "lat": 38.919779, "rental_uris": {"ios": "https://dc.lft.to/lastmile_qr_scan", "android": "https://dc.lft.to/lastmile_qr_scan"}, "is_reserved": 0, "fusion_lon": 0.0, "fusion_lat": 0.0, "lon": -77.03333233333333, "name": "ab39efbcff1db8683d8cc17020a65da0"}, {"bike_id": "b5b428a44435ceb45a572ee67607fcca", "type": "electric_scooter", "is_disabled": 0, "lat": 38.933472, "rental_uris": {"ios": "https://dc.lft.to/lastmile_qr_scan", "android": "https://dc.lft.to/lastmile_qr_scan"}, "is_reserved": 0, "fusion_lon": 0.0, "fusion_lat": 0.0, "lon": -77.02392833333333, "name": "b5b428a44435ceb45a572ee67607fcca"}, {"bike_id": "caee4592cb48324d8b2eb4194c957ff9", "type": "electric_scooter", "is_disabled": 0, "lat": 38.90725233333333, "rental_uris": {"ios": "https://dc.lft.to/lastmile_qr_scan", "android": "https://dc.lft.to/lastmile_qr_scan"}, "is_reserved": 0, "fusion_lon": 0.0, "fusion_lat": 0.0, "lon": -77.0532915, "name": "caee4592cb48324d8b2eb4194c957ff9"}, {"bike_id": "0e33d4fa363bd9d422b229b9e9b9fbf7", "type": "electric_scooter", "is_disabled": 0, "lat": 38.95681866666666, "rental_uris": {"ios": "https://dc.lft.to/lastmile_qr_scan", "android": "https://dc.lft.to/lastmile_qr_scan"}, "is_reserved": 0, "fusion_lon": 0.0, "fusion_lat": 0.0, "lon": -77.0241055, "name": "0e33d4fa363bd9d422b229b9e9b9fbf7"}, {"bike_id": "673d565ccfd7c7fbdd16551e4b7d73e7", "type": "electric_scooter", "is_disabled": 0, "lat": 38.921231166666665, "rental_uris": {"ios": "https://dc.lft.to/lastmile_qr_scan", "android": "https://dc.lft.to/lastmile_qr_scan"}, "is_reserved": 0, "fusion_lon": 0.0, "fusion_lat": 0.0, "lon": -77.01793516666666, "name": "673d565ccfd7c7fbdd16551e4b7d73e7"}, {"bike_id": "7726284d15176ec8b058778f20dca821", "type": "electric_scooter", "is_disabled": 0, "lat": 38.932429, "rental_uris": {"ios": "https://dc.lft.to/lastmile_qr_scan", "android": "https://dc.lft.to/lastmile_qr_scan"}, "is_reserved": 0, "fusion_lon": 0.0, "fusion_lat": 0.0, "lon": -77.03590116666666, "name": "7726284d15176ec8b058778f20dca821"}, {"bike_id": "a703dce524521544c79ce838bbcc6f73", "type": "electric_scooter", "is_disabled": 0, "lat": 38.920651666666664, "rental_uris": {"ios": "https://dc.lft.to/lastmile_qr_scan", "android": "https://dc.lft.to/lastmile_qr_scan"}, "is_reserved": 0, "fusion_lon": 0.0, "fusion_lat": 0.0, "lon": -77.0346775, "name": "a703dce524521544c79ce838bbcc6f73"}, {"bike_id": "45c217088f5adddda74ba1e3644b6efe", "type": "electric_scooter", "is_disabled": 0, "lat": 38.88423433333333, "rental_uris": {"ios": "https://dc.lft.to/lastmile_qr_scan", "android": "https://dc.lft.to/lastmile_qr_scan"}, "is_reserved": 0, "fusion_lon": 0.0, "fusion_lat": 0.0, "lon": -76.95748083333334, "name": "45c217088f5adddda74ba1e3644b6efe"}, {"bike_id": "fa416ab8d07612656428e2e7df5cc78f", "type": "electric_scooter", "is_disabled": 0, "lat": 38.924858666666665, "rental_uris": {"ios": "https://dc.lft.to/lastmile_qr_scan", "android": "https://dc.lft.to/lastmile_qr_scan"}, "is_reserved": 0, "fusion_lon": 0.0, "fusion_lat": 0.0, "lon": -77.05221433333334, "name": "fa416ab8d07612656428e2e7df5cc78f"}, {"bike_id": "dfd0796eb006f4320dce352a2659459c", "type": "electric_scooter", "is_disabled": 0, "lat": 38.90721116666667, "rental_uris": {"ios": "https://dc.lft.to/lastmile_qr_scan", "android": "https://dc.lft.to/lastmile_qr_scan"}, "is_reserved": 0, "fusion_lon": 0.0, "fusion_lat": 0.0, "lon": -77.01471383333333, "name": "dfd0796eb006f4320dce352a2659459c"}, {"bike_id": "8d0abafae3249f8661c69a3bd1655aea", "type": "electric_scooter", "is_disabled": 0, "lat": 38.914698333333334, "rental_uris": {"ios": "https://dc.lft.to/lastmile_qr_scan", "android": "https://dc.lft.to/lastmile_qr_scan"}, "is_reserved": 0, "fusion_lon": 0.0, "fusion_lat": 0.0, "lon": -77.03220666666667, "name": "8d0abafae3249f8661c69a3bd1655aea"}, {"bike_id": "a626b9a571f2419f2a282a0d56271119", "type": "electric_scooter", "is_disabled": 0, "lat": 38.9282405, "rental_uris": {"ios": "https://dc.lft.to/lastmile_qr_scan", "android": "https://dc.lft.to/lastmile_qr_scan"}, "is_reserved": 0, "fusion_lon": 0.0, "fusion_lat": 0.0, "lon": -77.02257766666666, "name": "a626b9a571f2419f2a282a0d56271119"}, {"bike_id": "af808570de051317f91144374761bb3b", "type": "electric_scooter", "is_disabled": 0, "lat": 38.9286115, "rental_uris": {"ios": "https://dc.lft.to/lastmile_qr_scan", "android": "https://dc.lft.to/lastmile_qr_scan"}, "is_reserved": 0, "fusion_lon": 0.0, "fusion_lat": 0.0, "lon": -77.05447, "name": "af808570de051317f91144374761bb3b"}, {"bike_id": "b1b3b41e5c2866ec9f38f1b5ff217e50", "type": "electric_scooter", "is_disabled": 0, "lat": 38.93524933333333, "rental_uris": {"ios": "https://dc.lft.to/lastmile_qr_scan", "android": "https://dc.lft.to/lastmile_qr_scan"}, "is_reserved": 0, "fusion_lon": 0.0, "fusion_lat": 0.0, "lon": -77.02368033333333, "name": "b1b3b41e5c2866ec9f38f1b5ff217e50"}, {"bike_id": "c69fe58728b57b968ff42fac8529b821", "type": "electric_scooter", "is_disabled": 0, "lat": 38.916603, "rental_uris": {"ios": "https://dc.lft.to/lastmile_qr_scan", "android": "https://dc.lft.to/lastmile_qr_scan"}, "is_reserved": 0, "fusion_lon": 0.0, "fusion_lat": 0.0, "lon": -77.02700366666667, "name": "c69fe58728b57b968ff42fac8529b821"}, {"bike_id": "d1b87a66ea39851c05b58d0b799d99ed", "type": "electric_scooter", "is_disabled": 0, "lat": 38.920836333333334, "rental_uris": {"ios": "https://dc.lft.to/lastmile_qr_scan", "android": "https://dc.lft.to/lastmile_qr_scan"}, "is_reserved": 0, "fusion_lon": 0.0, "fusion_lat": 0.0, "lon": -77.023117, "name": "d1b87a66ea39851c05b58d0b799d99ed"}, {"bike_id": "9d1513193088ce69c93a9b5f843afa8a", "type": "electric_scooter", "is_disabled": 0, "lat": 38.903161833333336, "rental_uris": {"ios": "https://dc.lft.to/lastmile_qr_scan", "android": "https://dc.lft.to/lastmile_qr_scan"}, "is_reserved": 0, "fusion_lon": 0.0, "fusion_lat": 0.0, "lon": -77.02888, "name": "9d1513193088ce69c93a9b5f843afa8a"}, {"bike_id": "853c5c78fdf4c3795179780d108bb183", "type": "electric_scooter", "is_disabled": 0, "lat": 38.918781833333334, "rental_uris": {"ios": "https://dc.lft.to/lastmile_qr_scan", "android": "https://dc.lft.to/lastmile_qr_scan"}, "is_reserved": 0, "fusion_lon": 0.0, "fusion_lat": 0.0, "lon": -77.0420195, "name": "853c5c78fdf4c3795179780d108bb183"}, {"bike_id": "27e5a2d1b12f823301340d67e4640f1d", "type": "electric_scooter", "is_disabled": 0, "lat": 38.911227833333335, "rental_uris": {"ios": "https://dc.lft.to/lastmile_qr_scan", "android": "https://dc.lft.to/lastmile_qr_scan"}, "is_reserved": 0, "fusion_lon": 0.0, "fusion_lat": 0.0, "lon": -77.02201633333334, "name": "27e5a2d1b12f823301340d67e4640f1d"}, {"bike_id": "accbd0fc2d517272481788a2bfd732aa", "type": "electric_scooter", "is_disabled": 0, "lat": 38.90741116666667, "rental_uris": {"ios": "https://dc.lft.to/lastmile_qr_scan", "android": "https://dc.lft.to/lastmile_qr_scan"}, "is_reserved": 0, "fusion_lon": 0.0, "fusion_lat": 0.0, "lon": -77.02328816666666, "name": "accbd0fc2d517272481788a2bfd732aa"}, {"bike_id": "d306b8bd02495d293213f5af690183bb", "type": "electric_scooter", "is_disabled": 0, "lat": 38.87792866666667, "rental_uris": {"ios": "https://dc.lft.to/lastmile_qr_scan", "android": "https://dc.lft.to/lastmile_qr_scan"}, "is_reserved": 0, "fusion_lon": 0.0, "fusion_lat": 0.0, "lon": -76.93086483333333, "name": "d306b8bd02495d293213f5af690183bb"}, {"bike_id": "24da2092d857a0f0e554e8b557ea0547", "type": "electric_scooter", "is_disabled": 0, "lat": 38.88653016666667, "rental_uris": {"ios": "https://dc.lft.to/lastmile_qr_scan", "android": "https://dc.lft.to/lastmile_qr_scan"}, "is_reserved": 0, "fusion_lon": 0.0, "fusion_lat": 0.0, "lon": -77.001218, "name": "24da2092d857a0f0e554e8b557ea0547"}, {"bike_id": "7aab43501746219d9a17c62f2d015931", "type": "electric_scooter", "is_disabled": 0, "lat": 38.935167666666665, "rental_uris": {"ios": "https://dc.lft.to/lastmile_qr_scan", "android": "https://dc.lft.to/lastmile_qr_scan"}, "is_reserved": 0, "fusion_lon": 0.0, "fusion_lat": 0.0, "lon": -77.05845233333334, "name": "7aab43501746219d9a17c62f2d015931"}, {"bike_id": "974030c74b6667fe7c0216d5a329752a", "type": "electric_scooter", "is_disabled": 0, "lat": 38.902651666666664, "rental_uris": {"ios": "https://dc.lft.to/lastmile_qr_scan", "android": "https://dc.lft.to/lastmile_qr_scan"}, "is_reserved": 0, "fusion_lon": 0.0, "fusion_lat": 0.0, "lon": -77.05488083333333, "name": "974030c74b6667fe7c0216d5a329752a"}, {"bike_id": "ab9a3ec13f5173601abb95d57740049d", "type": "electric_scooter", "is_disabled": 0, "lat": 38.898453, "rental_uris": {"ios": "https://dc.lft.to/lastmile_qr_scan", "android": "https://dc.lft.to/lastmile_qr_scan"}, "is_reserved": 0, "fusion_lon": 0.0, "fusion_lat": 0.0, "lon": -76.94632016666667, "name": "ab9a3ec13f5173601abb95d57740049d"}, {"bike_id": "4682a29eaf01344150ed04122e7536e3", "type": "electric_scooter", "is_disabled": 0, "lat": 38.89542, "rental_uris": {"ios": "https://dc.lft.to/lastmile_qr_scan", "android": "https://dc.lft.to/lastmile_qr_scan"}, "is_reserved": 0, "fusion_lon": 0.0, "fusion_lat": 0.0, "lon": -77.0398795, "name": "4682a29eaf01344150ed04122e7536e3"}, {"bike_id": "dfa9a705117762b1298d6e017fdba0ad", "type": "electric_scooter", "is_disabled": 0, "lat": 38.915796666666665, "rental_uris": {"ios": "https://dc.lft.to/lastmile_qr_scan", "android": "https://dc.lft.to/lastmile_qr_scan"}, "is_reserved": 0, "fusion_lon": 0.0, "fusion_lat": 0.0, "lon": -77.03192366666667, "name": "dfa9a705117762b1298d6e017fdba0ad"}, {"bike_id": "e5aadc7e3e9f1d86daa7ba399070563e", "type": "electric_scooter", "is_disabled": 0, "lat": 38.9234615, "rental_uris": {"ios": "https://dc.lft.to/lastmile_qr_scan", "android": "https://dc.lft.to/lastmile_qr_scan"}, "is_reserved": 0, "fusion_lon": 0.0, "fusion_lat": 0.0, "lon": -77.0335425, "name": "e5aadc7e3e9f1d86daa7ba399070563e"}, {"bike_id": "0dbdb71feb29b10ccc84cc4738a27173", "type": "electric_bike", "is_disabled": 0, "lat": 38.87555066666667, "rental_uris": {"ios": "https://dc.lft.to/lastmile_qr_scan", "android": "https://dc.lft.to/lastmile_qr_scan"}, "is_reserved": 0, "fusion_lon": 0.0, "fusion_lat": 0.0, "lon": -76.96509316666666, "name": "0dbdb71feb29b10ccc84cc4738a27173"}, {"bike_id": "731d4e4b3e6735c932556ccdd380dadb", "type": "electric_scooter", "is_disabled": 0, "lat": 38.91040316666667, "rental_uris": {"ios": "https://dc.lft.to/lastmile_qr_scan", "android": "https://dc.lft.to/lastmile_qr_scan"}, "is_reserved": 0, "fusion_lon": 0.0, "fusion_lat": 0.0, "lon": -77.03341366666666, "name": "731d4e4b3e6735c932556ccdd380dadb"}, {"bike_id": "066b500fe2cf0650e1e634c4365871d0", "type": "electric_scooter", "is_disabled": 0, "lat": 38.90738016666667, "rental_uris": {"ios": "https://dc.lft.to/lastmile_qr_scan", "android": "https://dc.lft.to/lastmile_qr_scan"}, "is_reserved": 0, "fusion_lon": 0.0, "fusion_lat": 0.0, "lon": -76.99913583333333, "name": "066b500fe2cf0650e1e634c4365871d0"}, {"bike_id": "684beb0ea882f6aa6223bcc166ecbff6", "type": "electric_scooter", "is_disabled": 0, "lat": 38.9124495, "rental_uris": {"ios": "https://dc.lft.to/lastmile_qr_scan", "android": "https://dc.lft.to/lastmile_qr_scan"}, "is_reserved": 0, "fusion_lon": 0.0, "fusion_lat": 0.0, "lon": -77.03862116666667, "name": "684beb0ea882f6aa6223bcc166ecbff6"}, {"bike_id": "35082d3590486bab1a97a7db60b785ea", "type": "electric_scooter", "is_disabled": 0, "lat": 38.894777833333336, "rental_uris": {"ios": "https://dc.lft.to/lastmile_qr_scan", "android": "https://dc.lft.to/lastmile_qr_scan"}, "is_reserved": 0, "fusion_lon": 0.0, "fusion_lat": 0.0, "lon": -76.948618, "name": "35082d3590486bab1a97a7db60b785ea"}, {"bike_id": "c5e90235639daf0cfb0136b4c92fa432", "type": "electric_scooter", "is_disabled": 0, "lat": 38.9078935, "rental_uris": {"ios": "https://dc.lft.to/lastmile_qr_scan", "android": "https://dc.lft.to/lastmile_qr_scan"}, "is_reserved": 0, "fusion_lon": 0.0, "fusion_lat": 0.0, "lon": -77.03420816666667, "name": "c5e90235639daf0cfb0136b4c92fa432"}, {"bike_id": "9ab6e30e8b41ae06b1c2bbb86c8d9654", "type": "electric_scooter", "is_disabled": 0, "lat": 38.90591716666667, "rental_uris": {"ios": "https://dc.lft.to/lastmile_qr_scan", "android": "https://dc.lft.to/lastmile_qr_scan"}, "is_reserved": 0, "fusion_lon": 0.0, "fusion_lat": 0.0, "lon": -77.07009716666667, "name": "9ab6e30e8b41ae06b1c2bbb86c8d9654"}, {"bike_id": "a0aac1cfc28d19e8cec1cbd1a8f9dd70", "type": "electric_bike", "is_disabled": 0, "lat": 38.8740665, "rental_uris": {"ios": "https://dc.lft.to/lastmile_qr_scan", "android": "https://dc.lft.to/lastmile_qr_scan"}, "is_reserved": 0, "fusion_lon": 0.0, "fusion_lat": 0.0, "lon": -77.0058545, "name": "a0aac1cfc28d19e8cec1cbd1a8f9dd70"}, {"bike_id": "8e14c2eff989321d8e563b73776bb252", "type": "electric_scooter", "is_disabled": 0, "lat": 38.906925666666666, "rental_uris": {"ios": "https://dc.lft.to/lastmile_qr_scan", "android": "https://dc.lft.to/lastmile_qr_scan"}, "is_reserved": 0, "fusion_lon": 0.0, "fusion_lat": 0.0, "lon": -77.0367345, "name": "8e14c2eff989321d8e563b73776bb252"}, {"bike_id": "3ff7d39cfbb9b0125dee44ddcac0360b", "type": "electric_scooter", "is_disabled": 0, "lat": 38.956028, "rental_uris": {"ios": "https://dc.lft.to/lastmile_qr_scan", "android": "https://dc.lft.to/lastmile_qr_scan"}, "is_reserved": 0, "fusion_lon": 0.0, "fusion_lat": 0.0, "lon": -77.0009605, "name": "3ff7d39cfbb9b0125dee44ddcac0360b"}, {"bike_id": "5098cb49a9446cad38d6618603f1bd84", "type": "electric_scooter", "is_disabled": 0, "lat": 38.862451166666666, "rental_uris": {"ios": "https://dc.lft.to/lastmile_qr_scan", "android": "https://dc.lft.to/lastmile_qr_scan"}, "is_reserved": 0, "fusion_lon": 0.0, "fusion_lat": 0.0, "lon": -76.99503833333333, "name": "5098cb49a9446cad38d6618603f1bd84"}, {"bike_id": "ceeb3e82eb82919fb103c0e21698e8d1", "type": "electric_scooter", "is_disabled": 0, "lat": 38.917747, "rental_uris": {"ios": "https://dc.lft.to/lastmile_qr_scan", "android": "https://dc.lft.to/lastmile_qr_scan"}, "is_reserved": 0, "fusion_lon": 0.0, "fusion_lat": 0.0, "lon": -77.02412816666667, "name": "ceeb3e82eb82919fb103c0e21698e8d1"}, {"bike_id": "041d442e9ddec6170e6f312b631253de", "type": "electric_scooter", "is_disabled": 0, "lat": 38.92388583333333, "rental_uris": {"ios": "https://dc.lft.to/lastmile_qr_scan", "android": "https://dc.lft.to/lastmile_qr_scan"}, "is_reserved": 0, "fusion_lon": 0.0, "fusion_lat": 0.0, "lon": -77.03082016666667, "name": "041d442e9ddec6170e6f312b631253de"}, {"bike_id": "f5d2b11931dc7ae655911beb6eaa02a2", "type": "electric_scooter", "is_disabled": 0, "lat": 38.926602333333335, "rental_uris": {"ios": "https://dc.lft.to/lastmile_qr_scan", "android": "https://dc.lft.to/lastmile_qr_scan"}, "is_reserved": 0, "fusion_lon": 0.0, "fusion_lat": 0.0, "lon": -76.99545566666667, "name": "f5d2b11931dc7ae655911beb6eaa02a2"}, {"bike_id": "fbd7be7a53a146befd5c74650b8833c0", "type": "electric_bike", "is_disabled": 0, "lat": 38.90621066666667, "rental_uris": {"ios": "https://dc.lft.to/lastmile_qr_scan", "android": "https://dc.lft.to/lastmile_qr_scan"}, "is_reserved": 0, "fusion_lon": 0.0, "fusion_lat": 0.0, "lon": -77.00901033333334, "name": "fbd7be7a53a146befd5c74650b8833c0"}, {"bike_id": "12ebdb30da02b8877955a22a8bf736c1", "type": "electric_scooter", "is_disabled": 0, "lat": 38.931059166666664, "rental_uris": {"ios": "https://dc.lft.to/lastmile_qr_scan", "android": "https://dc.lft.to/lastmile_qr_scan"}, "is_reserved": 0, "fusion_lon": 0.0, "fusion_lat": 0.0, "lon": -77.03026833333334, "name": "12ebdb30da02b8877955a22a8bf736c1"}, {"bike_id": "6c1db682dd7f05a7e0ed9757486c7d9b", "type": "electric_scooter", "is_disabled": 0, "lat": 38.921367833333335, "rental_uris": {"ios": "https://dc.lft.to/lastmile_qr_scan", "android": "https://dc.lft.to/lastmile_qr_scan"}, "is_reserved": 0, "fusion_lon": 0.0, "fusion_lat": 0.0, "lon": -77.01816783333334, "name": "6c1db682dd7f05a7e0ed9757486c7d9b"}, {"bike_id": "e821a0339330bbcfb208ddef7589fa2f", "type": "electric_scooter", "is_disabled": 0, "lat": 38.91399783333333, "rental_uris": {"ios": "https://dc.lft.to/lastmile_qr_scan", "android": "https://dc.lft.to/lastmile_qr_scan"}, "is_reserved": 0, "fusion_lon": 0.0, "fusion_lat": 0.0, "lon": -77.04177666666666, "name": "e821a0339330bbcfb208ddef7589fa2f"}, {"bike_id": "3e097fcb602322a3613a3bf298306034", "type": "electric_scooter", "is_disabled": 0, "lat": 38.8804995, "rental_uris": {"ios": "https://dc.lft.to/lastmile_qr_scan", "android": "https://dc.lft.to/lastmile_qr_scan"}, "is_reserved": 0, "fusion_lon": 0.0, "fusion_lat": 0.0, "lon": -76.93212533333333, "name": "3e097fcb602322a3613a3bf298306034"}, {"bike_id": "b1bf2311a934bc4cfa6d3601b1766ad0", "type": "electric_scooter", "is_disabled": 0, "lat": 38.93190933333333, "rental_uris": {"ios": "https://dc.lft.to/lastmile_qr_scan", "android": "https://dc.lft.to/lastmile_qr_scan"}, "is_reserved": 0, "fusion_lon": 0.0, "fusion_lat": 0.0, "lon": -77.02769233333333, "name": "b1bf2311a934bc4cfa6d3601b1766ad0"}, {"bike_id": "d45fd1fb1cc086c575465d77fabecc07", "type": "electric_scooter", "is_disabled": 0, "lat": 38.92345383333333, "rental_uris": {"ios": "https://dc.lft.to/lastmile_qr_scan", "android": "https://dc.lft.to/lastmile_qr_scan"}, "is_reserved": 0, "fusion_lon": 0.0, "fusion_lat": 0.0, "lon": -77.0510085, "name": "d45fd1fb1cc086c575465d77fabecc07"}, {"bike_id": "5da9d91c1d2b22cb75cc9d6f43b4828c", "type": "electric_bike", "is_disabled": 0, "lat": 38.88930116666667, "rental_uris": {"ios": "https://dc.lft.to/lastmile_qr_scan", "android": "https://dc.lft.to/lastmile_qr_scan"}, "is_reserved": 0, "fusion_lon": 0.0, "fusion_lat": 0.0, "lon": -76.99181433333334, "name": "5da9d91c1d2b22cb75cc9d6f43b4828c"}, {"bike_id": "45d5695be32f2b0b892ccc0f2aa6bc56", "type": "electric_scooter", "is_disabled": 0, "lat": 38.901958, "rental_uris": {"ios": "https://dc.lft.to/lastmile_qr_scan", "android": "https://dc.lft.to/lastmile_qr_scan"}, "is_reserved": 0, "fusion_lon": 0.0, "fusion_lat": 0.0, "lon": -76.98849966666667, "name": "45d5695be32f2b0b892ccc0f2aa6bc56"}, {"bike_id": "49ef71e951717a6444e3389ecd93f1b7", "type": "electric_scooter", "is_disabled": 0, "lat": 38.9020945, "rental_uris": {"ios": "https://dc.lft.to/lastmile_qr_scan", "android": "https://dc.lft.to/lastmile_qr_scan"}, "is_reserved": 0, "fusion_lon": 0.0, "fusion_lat": 0.0, "lon": -77.03384133333333, "name": "49ef71e951717a6444e3389ecd93f1b7"}, {"bike_id": "31e514f03091c107f9dc00e36723aba0", "type": "electric_scooter", "is_disabled": 0, "lat": 38.87577916666667, "rental_uris": {"ios": "https://dc.lft.to/lastmile_qr_scan", "android": "https://dc.lft.to/lastmile_qr_scan"}, "is_reserved": 0, "fusion_lon": 0.0, "fusion_lat": 0.0, "lon": -77.01285216666666, "name": "31e514f03091c107f9dc00e36723aba0"}, {"bike_id": "8bf58c1b1ad20ccbfe2a3583c9d5702a", "type": "electric_scooter", "is_disabled": 0, "lat": 38.9196615, "rental_uris": {"ios": "https://dc.lft.to/lastmile_qr_scan", "android": "https://dc.lft.to/lastmile_qr_scan"}, "is_reserved": 0, "fusion_lon": 0.0, "fusion_lat": 0.0, "lon": -77.03950033333334, "name": "8bf58c1b1ad20ccbfe2a3583c9d5702a"}, {"bike_id": "5d58af0ac86c61e49e673642b34bbf83", "type": "electric_scooter", "is_disabled": 0, "lat": 38.89740283333333, "rental_uris": {"ios": "https://dc.lft.to/lastmile_qr_scan", "android": "https://dc.lft.to/lastmile_qr_scan"}, "is_reserved": 0, "fusion_lon": 0.0, "fusion_lat": 0.0, "lon": -76.94724916666667, "name": "5d58af0ac86c61e49e673642b34bbf83"}, {"bike_id": "3346c585cdee2fb23e690188b0ef1ca6", "type": "electric_scooter", "is_disabled": 0, "lat": 38.90059983333333, "rental_uris": {"ios": "https://dc.lft.to/lastmile_qr_scan", "android": "https://dc.lft.to/lastmile_qr_scan"}, "is_reserved": 0, "fusion_lon": 0.0, "fusion_lat": 0.0, "lon": -77.013656, "name": "3346c585cdee2fb23e690188b0ef1ca6"}, {"bike_id": "205cf871e16640db8f922fdf84643f4e", "type": "electric_scooter", "is_disabled": 0, "lat": 38.8937675, "rental_uris": {"ios": "https://dc.lft.to/lastmile_qr_scan", "android": "https://dc.lft.to/lastmile_qr_scan"}, "is_reserved": 0, "fusion_lon": 0.0, "fusion_lat": 0.0, "lon": -77.02437333333333, "name": "205cf871e16640db8f922fdf84643f4e"}, {"bike_id": "2c63f3ce37689d911caa35d0f09e6f0c", "type": "electric_scooter", "is_disabled": 0, "lat": 38.941725166666664, "rental_uris": {"ios": "https://dc.lft.to/lastmile_qr_scan", "android": "https://dc.lft.to/lastmile_qr_scan"}, "is_reserved": 0, "fusion_lon": 0.0, "fusion_lat": 0.0, "lon": -77.03285883333334, "name": "2c63f3ce37689d911caa35d0f09e6f0c"}, {"bike_id": "dae47e9a9791156cc2168a21104eb842", "type": "electric_scooter", "is_disabled": 0, "lat": 38.91123266666666, "rental_uris": {"ios": "https://dc.lft.to/lastmile_qr_scan", "android": "https://dc.lft.to/lastmile_qr_scan"}, "is_reserved": 0, "fusion_lon": 0.0, "fusion_lat": 0.0, "lon": -77.03739916666666, "name": "dae47e9a9791156cc2168a21104eb842"}, {"bike_id": "3aae6aab5ac2a3e7a1cbcc0834179290", "type": "electric_scooter", "is_disabled": 0, "lat": 38.89219033333333, "rental_uris": {"ios": "https://dc.lft.to/lastmile_qr_scan", "android": "https://dc.lft.to/lastmile_qr_scan"}, "is_reserved": 0, "fusion_lon": 0.0, "fusion_lat": 0.0, "lon": -77.02785616666667, "name": "3aae6aab5ac2a3e7a1cbcc0834179290"}, {"bike_id": "7576899d984acc52a15638f858282f25", "type": "electric_bike", "is_disabled": 0, "lat": 38.931407, "rental_uris": {"ios": "https://dc.lft.to/lastmile_qr_scan", "android": "https://dc.lft.to/lastmile_qr_scan"}, "is_reserved": 0, "fusion_lon": 0.0, "fusion_lat": 0.0, "lon": -77.07837083333334, "name": "7576899d984acc52a15638f858282f25"}, {"bike_id": "e94b3604d802ae524cb351f01f92c142", "type": "electric_scooter", "is_disabled": 0, "lat": 38.9084735, "rental_uris": {"ios": "https://dc.lft.to/lastmile_qr_scan", "android": "https://dc.lft.to/lastmile_qr_scan"}, "is_reserved": 0, "fusion_lon": 0.0, "fusion_lat": 0.0, "lon": -77.02234416666667, "name": "e94b3604d802ae524cb351f01f92c142"}, {"bike_id": "842158df877f9f6c12e5a0ee0bc0d327", "type": "electric_scooter", "is_disabled": 0, "lat": 38.920529, "rental_uris": {"ios": "https://dc.lft.to/lastmile_qr_scan", "android": "https://dc.lft.to/lastmile_qr_scan"}, "is_reserved": 0, "fusion_lon": 0.0, "fusion_lat": 0.0, "lon": -77.07177566666667, "name": "842158df877f9f6c12e5a0ee0bc0d327"}, {"bike_id": "23ed7c16503fa88855dbc4f872af10f0", "type": "electric_scooter", "is_disabled": 0, "lat": 38.8663155, "rental_uris": {"ios": "https://dc.lft.to/lastmile_qr_scan", "android": "https://dc.lft.to/lastmile_qr_scan"}, "is_reserved": 0, "fusion_lon": 0.0, "fusion_lat": 0.0, "lon": -76.98718083333333, "name": "23ed7c16503fa88855dbc4f872af10f0"}, {"bike_id": "175d1cd65ba7ee9978e1fc9d0dc26894", "type": "electric_scooter", "is_disabled": 0, "lat": 38.92889683333333, "rental_uris": {"ios": "https://dc.lft.to/lastmile_qr_scan", "android": "https://dc.lft.to/lastmile_qr_scan"}, "is_reserved": 0, "fusion_lon": 0.0, "fusion_lat": 0.0, "lon": -77.03291633333333, "name": "175d1cd65ba7ee9978e1fc9d0dc26894"}, {"bike_id": "e1ad04107c52620ce9c889c6d0371f1a", "type": "electric_scooter", "is_disabled": 0, "lat": 38.922435666666665, "rental_uris": {"ios": "https://dc.lft.to/lastmile_qr_scan", "android": "https://dc.lft.to/lastmile_qr_scan"}, "is_reserved": 0, "fusion_lon": 0.0, "fusion_lat": 0.0, "lon": -77.03140716666667, "name": "e1ad04107c52620ce9c889c6d0371f1a"}, {"bike_id": "056fae831cdb43ff4fd2c8ec5fdd51a7", "type": "electric_scooter", "is_disabled": 0, "lat": 38.89959483333333, "rental_uris": {"ios": "https://dc.lft.to/lastmile_qr_scan", "android": "https://dc.lft.to/lastmile_qr_scan"}, "is_reserved": 0, "fusion_lon": 0.0, "fusion_lat": 0.0, "lon": -76.92630066666666, "name": "056fae831cdb43ff4fd2c8ec5fdd51a7"}, {"bike_id": "1b9914962e6cc79a9c7d15cea45e55c8", "type": "electric_scooter", "is_disabled": 0, "lat": 38.888821, "rental_uris": {"ios": "https://dc.lft.to/lastmile_qr_scan", "android": "https://dc.lft.to/lastmile_qr_scan"}, "is_reserved": 0, "fusion_lon": 0.0, "fusion_lat": 0.0, "lon": -77.02844216666666, "name": "1b9914962e6cc79a9c7d15cea45e55c8"}, {"bike_id": "5a368c3aebb59b2946e24c2c8c09f1f8", "type": "electric_scooter", "is_disabled": 0, "lat": 38.924882, "rental_uris": {"ios": "https://dc.lft.to/lastmile_qr_scan", "android": "https://dc.lft.to/lastmile_qr_scan"}, "is_reserved": 0, "fusion_lon": 0.0, "fusion_lat": 0.0, "lon": -77.057683, "name": "5a368c3aebb59b2946e24c2c8c09f1f8"}, {"bike_id": "4000d198818647f916b91d82095a2833", "type": "electric_scooter", "is_disabled": 0, "lat": 38.90489783333334, "rental_uris": {"ios": "https://dc.lft.to/lastmile_qr_scan", "android": "https://dc.lft.to/lastmile_qr_scan"}, "is_reserved": 0, "fusion_lon": 0.0, "fusion_lat": 0.0, "lon": -77.06787866666667, "name": "4000d198818647f916b91d82095a2833"}, {"bike_id": "7ee6775dfd466f459080ad4216d3723a", "type": "electric_bike", "is_disabled": 0, "lat": 38.891015333333335, "rental_uris": {"ios": "https://dc.lft.to/lastmile_qr_scan", "android": "https://dc.lft.to/lastmile_qr_scan"}, "is_reserved": 0, "fusion_lon": 0.0, "fusion_lat": 0.0, "lon": -76.934839, "name": "7ee6775dfd466f459080ad4216d3723a"}, {"bike_id": "46cbac2f53149fba0ae81e5717de3dbe", "type": "electric_scooter", "is_disabled": 0, "lat": 38.88042166666666, "rental_uris": {"ios": "https://dc.lft.to/lastmile_qr_scan", "android": "https://dc.lft.to/lastmile_qr_scan"}, "is_reserved": 0, "fusion_lon": 0.0, "fusion_lat": 0.0, "lon": -76.93215016666667, "name": "46cbac2f53149fba0ae81e5717de3dbe"}, {"bike_id": "372c394b2a9e5c31275af7a8cc1b851d", "type": "electric_scooter", "is_disabled": 0, "lat": 38.914069166666664, "rental_uris": {"ios": "https://dc.lft.to/lastmile_qr_scan", "android": "https://dc.lft.to/lastmile_qr_scan"}, "is_reserved": 0, "fusion_lon": 0.0, "fusion_lat": 0.0, "lon": -77.03261933333333, "name": "372c394b2a9e5c31275af7a8cc1b851d"}, {"bike_id": "1665bb9ddf52ddb6bf5e6d108a617644", "type": "electric_scooter", "is_disabled": 0, "lat": 38.91916533333333, "rental_uris": {"ios": "https://dc.lft.to/lastmile_qr_scan", "android": "https://dc.lft.to/lastmile_qr_scan"}, "is_reserved": 0, "fusion_lon": 0.0, "fusion_lat": 0.0, "lon": -77.070745, "name": "1665bb9ddf52ddb6bf5e6d108a617644"}, {"bike_id": "ae65a8eeb6f6d76bb0c15093a417922a", "type": "electric_scooter", "is_disabled": 0, "lat": 38.9165735, "rental_uris": {"ios": "https://dc.lft.to/lastmile_qr_scan", "android": "https://dc.lft.to/lastmile_qr_scan"}, "is_reserved": 0, "fusion_lon": 0.0, "fusion_lat": 0.0, "lon": -77.028968, "name": "ae65a8eeb6f6d76bb0c15093a417922a"}, {"bike_id": "859542c6e2babcaf83da6ee83a34219b", "type": "electric_scooter", "is_disabled": 0, "lat": 38.888513, "rental_uris": {"ios": "https://dc.lft.to/lastmile_qr_scan", "android": "https://dc.lft.to/lastmile_qr_scan"}, "is_reserved": 0, "fusion_lon": 0.0, "fusion_lat": 0.0, "lon": -77.00046216666667, "name": "859542c6e2babcaf83da6ee83a34219b"}, {"bike_id": "ccc9fe8bf953aa6b5e85ac9b91c34e2d", "type": "electric_scooter", "is_disabled": 0, "lat": 38.8874745, "rental_uris": {"ios": "https://dc.lft.to/lastmile_qr_scan", "android": "https://dc.lft.to/lastmile_qr_scan"}, "is_reserved": 0, "fusion_lon": 0.0, "fusion_lat": 0.0, "lon": -76.99632666666666, "name": "ccc9fe8bf953aa6b5e85ac9b91c34e2d"}, {"bike_id": "6151f1728205b84f4b35cb6c5cd58bff", "type": "electric_scooter", "is_disabled": 0, "lat": 38.92408866666667, "rental_uris": {"ios": "https://dc.lft.to/lastmile_qr_scan", "android": "https://dc.lft.to/lastmile_qr_scan"}, "is_reserved": 0, "fusion_lon": 0.0, "fusion_lat": 0.0, "lon": -77.04306183333334, "name": "6151f1728205b84f4b35cb6c5cd58bff"}, {"bike_id": "8b2e2d1048ac0a7bb91f5392a62908bc", "type": "electric_scooter", "is_disabled": 0, "lat": 38.92272083333334, "rental_uris": {"ios": "https://dc.lft.to/lastmile_qr_scan", "android": "https://dc.lft.to/lastmile_qr_scan"}, "is_reserved": 0, "fusion_lon": 0.0, "fusion_lat": 0.0, "lon": -77.0420405, "name": "8b2e2d1048ac0a7bb91f5392a62908bc"}, {"bike_id": "a658fafc500b52c24d479eeeab757e2f", "type": "electric_scooter", "is_disabled": 0, "lat": 38.92480833333333, "rental_uris": {"ios": "https://dc.lft.to/lastmile_qr_scan", "android": "https://dc.lft.to/lastmile_qr_scan"}, "is_reserved": 0, "fusion_lon": 0.0, "fusion_lat": 0.0, "lon": -77.0522195, "name": "a658fafc500b52c24d479eeeab757e2f"}, {"bike_id": "0c429df6055d96cdd84b50d83f3cf47a", "type": "electric_scooter", "is_disabled": 0, "lat": 38.915121166666665, "rental_uris": {"ios": "https://dc.lft.to/lastmile_qr_scan", "android": "https://dc.lft.to/lastmile_qr_scan"}, "is_reserved": 0, "fusion_lon": 0.0, "fusion_lat": 0.0, "lon": -77.021803, "name": "0c429df6055d96cdd84b50d83f3cf47a"}, {"bike_id": "eccb91a9feb33c72cd6f2eee0be595e8", "type": "electric_scooter", "is_disabled": 0, "lat": 38.92109583333333, "rental_uris": {"ios": "https://dc.lft.to/lastmile_qr_scan", "android": "https://dc.lft.to/lastmile_qr_scan"}, "is_reserved": 0, "fusion_lon": 0.0, "fusion_lat": 0.0, "lon": -77.04219216666667, "name": "eccb91a9feb33c72cd6f2eee0be595e8"}, {"bike_id": "7dfd361ace0879ded25f1c4757341916", "type": "electric_scooter", "is_disabled": 0, "lat": 38.863734, "rental_uris": {"ios": "https://dc.lft.to/lastmile_qr_scan", "android": "https://dc.lft.to/lastmile_qr_scan"}, "is_reserved": 0, "fusion_lon": 0.0, "fusion_lat": 0.0, "lon": -76.99057333333333, "name": "7dfd361ace0879ded25f1c4757341916"}, {"bike_id": "c35f667d95ec38bafadcda171886bd06", "type": "electric_bike", "is_disabled": 0, "lat": 38.9563925, "rental_uris": {"ios": "https://dc.lft.to/lastmile_qr_scan", "android": "https://dc.lft.to/lastmile_qr_scan"}, "is_reserved": 0, "fusion_lon": 0.0, "fusion_lat": 0.0, "lon": -76.93873016666667, "name": "c35f667d95ec38bafadcda171886bd06"}, {"bike_id": "1e5132702736d8aa38a550e3aeb60e69", "type": "electric_scooter", "is_disabled": 0, "lat": 38.927971, "rental_uris": {"ios": "https://dc.lft.to/lastmile_qr_scan", "android": "https://dc.lft.to/lastmile_qr_scan"}, "is_reserved": 0, "fusion_lon": 0.0, "fusion_lat": 0.0, "lon": -77.026082, "name": "1e5132702736d8aa38a550e3aeb60e69"}, {"bike_id": "31765494e9f8382fd5140d10d3d2037b", "type": "electric_scooter", "is_disabled": 0, "lat": 38.902617166666666, "rental_uris": {"ios": "https://dc.lft.to/lastmile_qr_scan", "android": "https://dc.lft.to/lastmile_qr_scan"}, "is_reserved": 0, "fusion_lon": 0.0, "fusion_lat": 0.0, "lon": -77.04480216666667, "name": "31765494e9f8382fd5140d10d3d2037b"}, {"bike_id": "a169f4ad004f7c098e86aef86845b8f3", "type": "electric_bike", "is_disabled": 0, "lat": 38.94026383333333, "rental_uris": {"ios": "https://dc.lft.to/lastmile_qr_scan", "android": "https://dc.lft.to/lastmile_qr_scan"}, "is_reserved": 0, "fusion_lon": 0.0, "fusion_lat": 0.0, "lon": -76.976167, "name": "a169f4ad004f7c098e86aef86845b8f3"}, {"bike_id": "9f08fd3e620687facef07d98a960fd3d", "type": "electric_scooter", "is_disabled": 0, "lat": 38.917628, "rental_uris": {"ios": "https://dc.lft.to/lastmile_qr_scan", "android": "https://dc.lft.to/lastmile_qr_scan"}, "is_reserved": 0, "fusion_lon": 0.0, "fusion_lat": 0.0, "lon": -77.04767133333333, "name": "9f08fd3e620687facef07d98a960fd3d"}, {"bike_id": "e3656531cffdfce16f87c5930cd0167d", "type": "electric_scooter", "is_disabled": 0, "lat": 38.984322666666664, "rental_uris": {"ios": "https://dc.lft.to/lastmile_qr_scan", "android": "https://dc.lft.to/lastmile_qr_scan"}, "is_reserved": 0, "fusion_lon": 0.0, "fusion_lat": 0.0, "lon": -77.02678733333333, "name": "e3656531cffdfce16f87c5930cd0167d"}, {"bike_id": "768943a6f4988d519d5ee84e1e1c72bc", "type": "electric_scooter", "is_disabled": 0, "lat": 38.902476, "rental_uris": {"ios": "https://dc.lft.to/lastmile_qr_scan", "android": "https://dc.lft.to/lastmile_qr_scan"}, "is_reserved": 0, "fusion_lon": 0.0, "fusion_lat": 0.0, "lon": -77.00076933333334, "name": "768943a6f4988d519d5ee84e1e1c72bc"}, {"bike_id": "c6f420a33c8a8178970e6b34e4b5d786", "type": "electric_scooter", "is_disabled": 0, "lat": 38.931797833333334, "rental_uris": {"ios": "https://dc.lft.to/lastmile_qr_scan", "android": "https://dc.lft.to/lastmile_qr_scan"}, "is_reserved": 0, "fusion_lon": 0.0, "fusion_lat": 0.0, "lon": -77.023547, "name": "c6f420a33c8a8178970e6b34e4b5d786"}, {"bike_id": "73f5363807fd906f169fbcad7d3a9afb", "type": "electric_scooter", "is_disabled": 0, "lat": 38.921306, "rental_uris": {"ios": "https://dc.lft.to/lastmile_qr_scan", "android": "https://dc.lft.to/lastmile_qr_scan"}, "is_reserved": 0, "fusion_lon": 0.0, "fusion_lat": 0.0, "lon": -77.01808083333333, "name": "73f5363807fd906f169fbcad7d3a9afb"}, {"bike_id": "e142c8e7e79e2325f2dceeabd9b0acc7", "type": "electric_scooter", "is_disabled": 0, "lat": 38.928447166666665, "rental_uris": {"ios": "https://dc.lft.to/lastmile_qr_scan", "android": "https://dc.lft.to/lastmile_qr_scan"}, "is_reserved": 0, "fusion_lon": 0.0, "fusion_lat": 0.0, "lon": -77.05511733333333, "name": "e142c8e7e79e2325f2dceeabd9b0acc7"}, {"bike_id": "66d9226b39d3706a14aba0be79af5cc3", "type": "electric_bike", "is_disabled": 0, "lat": 39.052789833333335, "rental_uris": {"ios": "https://dc.lft.to/lastmile_qr_scan", "android": "https://dc.lft.to/lastmile_qr_scan"}, "is_reserved": 0, "fusion_lon": 0.0, "fusion_lat": 0.0, "lon": -77.08079983333333, "name": "66d9226b39d3706a14aba0be79af5cc3"}, {"bike_id": "66c386a2955de64d280cb30051c2f33c", "type": "electric_scooter", "is_disabled": 0, "lat": 38.91824533333333, "rental_uris": {"ios": "https://dc.lft.to/lastmile_qr_scan", "android": "https://dc.lft.to/lastmile_qr_scan"}, "is_reserved": 0, "fusion_lon": 0.0, "fusion_lat": 0.0, "lon": -77.04943033333333, "name": "66c386a2955de64d280cb30051c2f33c"}, {"bike_id": "d42ae8f47efbf65e72c5b95f3ae25211", "type": "electric_scooter", "is_disabled": 0, "lat": 38.867013666666665, "rental_uris": {"ios": "https://dc.lft.to/lastmile_qr_scan", "android": "https://dc.lft.to/lastmile_qr_scan"}, "is_reserved": 0, "fusion_lon": 0.0, "fusion_lat": 0.0, "lon": -76.98719816666667, "name": "d42ae8f47efbf65e72c5b95f3ae25211"}, {"bike_id": "9072778030fe67448bd50dd52d81b270", "type": "electric_scooter", "is_disabled": 0, "lat": 38.9444035, "rental_uris": {"ios": "https://dc.lft.to/lastmile_qr_scan", "android": "https://dc.lft.to/lastmile_qr_scan"}, "is_reserved": 0, "fusion_lon": 0.0, "fusion_lat": 0.0, "lon": -77.0145965, "name": "9072778030fe67448bd50dd52d81b270"}, {"bike_id": "29471bc69f1327b6118b5a9b13955e70", "type": "electric_scooter", "is_disabled": 0, "lat": 38.931275166666666, "rental_uris": {"ios": "https://dc.lft.to/lastmile_qr_scan", "android": "https://dc.lft.to/lastmile_qr_scan"}, "is_reserved": 0, "fusion_lon": 0.0, "fusion_lat": 0.0, "lon": -76.99577866666667, "name": "29471bc69f1327b6118b5a9b13955e70"}, {"bike_id": "8156d54e1763281411ee9160bbb9a099", "type": "electric_scooter", "is_disabled": 0, "lat": 38.902640833333336, "rental_uris": {"ios": "https://dc.lft.to/lastmile_qr_scan", "android": "https://dc.lft.to/lastmile_qr_scan"}, "is_reserved": 0, "fusion_lon": 0.0, "fusion_lat": 0.0, "lon": -77.01748066666667, "name": "8156d54e1763281411ee9160bbb9a099"}, {"bike_id": "797c6579a861a8269417ae5eab1ca49a", "type": "electric_scooter", "is_disabled": 0, "lat": 38.9562, "rental_uris": {"ios": "https://dc.lft.to/lastmile_qr_scan", "android": "https://dc.lft.to/lastmile_qr_scan"}, "is_reserved": 0, "fusion_lon": 0.0, "fusion_lat": 0.0, "lon": -77.01156916666666, "name": "797c6579a861a8269417ae5eab1ca49a"}, {"bike_id": "6cb2d356a62c1f30ed782b68fb2f77ec", "type": "electric_scooter", "is_disabled": 0, "lat": 38.917045333333334, "rental_uris": {"ios": "https://dc.lft.to/lastmile_qr_scan", "android": "https://dc.lft.to/lastmile_qr_scan"}, "is_reserved": 0, "fusion_lon": 0.0, "fusion_lat": 0.0, "lon": -77.00654516666667, "name": "6cb2d356a62c1f30ed782b68fb2f77ec"}, {"bike_id": "6bbb12611383aada7f3850a879057bc5", "type": "electric_scooter", "is_disabled": 0, "lat": 38.899755166666665, "rental_uris": {"ios": "https://dc.lft.to/lastmile_qr_scan", "android": "https://dc.lft.to/lastmile_qr_scan"}, "is_reserved": 0, "fusion_lon": 0.0, "fusion_lat": 0.0, "lon": -77.02002083333333, "name": "6bbb12611383aada7f3850a879057bc5"}, {"bike_id": "50a2101dc11c693821e6b4d42a456b14", "type": "electric_scooter", "is_disabled": 0, "lat": 38.881125, "rental_uris": {"ios": "https://dc.lft.to/lastmile_qr_scan", "android": "https://dc.lft.to/lastmile_qr_scan"}, "is_reserved": 0, "fusion_lon": 0.0, "fusion_lat": 0.0, "lon": -77.01660766666667, "name": "50a2101dc11c693821e6b4d42a456b14"}, {"bike_id": "cff0e05b11404732a7b5a1bd58406284", "type": "electric_scooter", "is_disabled": 0, "lat": 38.92025866666667, "rental_uris": {"ios": "https://dc.lft.to/lastmile_qr_scan", "android": "https://dc.lft.to/lastmile_qr_scan"}, "is_reserved": 0, "fusion_lon": 0.0, "fusion_lat": 0.0, "lon": -77.01309083333334, "name": "cff0e05b11404732a7b5a1bd58406284"}, {"bike_id": "f13ce236ca6333e4c0bddeba20999ce6", "type": "electric_scooter", "is_disabled": 0, "lat": 38.942108, "rental_uris": {"ios": "https://dc.lft.to/lastmile_qr_scan", "android": "https://dc.lft.to/lastmile_qr_scan"}, "is_reserved": 0, "fusion_lon": 0.0, "fusion_lat": 0.0, "lon": -77.01741083333333, "name": "f13ce236ca6333e4c0bddeba20999ce6"}, {"bike_id": "49caa5197676c7e48de592624419ca6f", "type": "electric_scooter", "is_disabled": 0, "lat": 38.9239605, "rental_uris": {"ios": "https://dc.lft.to/lastmile_qr_scan", "android": "https://dc.lft.to/lastmile_qr_scan"}, "is_reserved": 0, "fusion_lon": 0.0, "fusion_lat": 0.0, "lon": -76.9938145, "name": "49caa5197676c7e48de592624419ca6f"}, {"bike_id": "afe3b2021ffebc5dbe99fb6e0a5e5d8a", "type": "electric_scooter", "is_disabled": 0, "lat": 38.915461666666666, "rental_uris": {"ios": "https://dc.lft.to/lastmile_qr_scan", "android": "https://dc.lft.to/lastmile_qr_scan"}, "is_reserved": 0, "fusion_lon": 0.0, "fusion_lat": 0.0, "lon": -76.9837895, "name": "afe3b2021ffebc5dbe99fb6e0a5e5d8a"}, {"bike_id": "4ba0dcffcac21638d6e9c12adb367684", "type": "electric_scooter", "is_disabled": 0, "lat": 38.922388, "rental_uris": {"ios": "https://dc.lft.to/lastmile_qr_scan", "android": "https://dc.lft.to/lastmile_qr_scan"}, "is_reserved": 0, "fusion_lon": 0.0, "fusion_lat": 0.0, "lon": -77.02836, "name": "4ba0dcffcac21638d6e9c12adb367684"}, {"bike_id": "5834561df76b8d3034a218ddd42b0433", "type": "electric_scooter", "is_disabled": 0, "lat": 38.90873916666666, "rental_uris": {"ios": "https://dc.lft.to/lastmile_qr_scan", "android": "https://dc.lft.to/lastmile_qr_scan"}, "is_reserved": 0, "fusion_lon": 0.0, "fusion_lat": 0.0, "lon": -77.00254533333333, "name": "5834561df76b8d3034a218ddd42b0433"}, {"bike_id": "3ae0e16ed1d2bc42a16ea5ce8f91b4da", "type": "electric_scooter", "is_disabled": 0, "lat": 38.932730666666664, "rental_uris": {"ios": "https://dc.lft.to/lastmile_qr_scan", "android": "https://dc.lft.to/lastmile_qr_scan"}, "is_reserved": 0, "fusion_lon": 0.0, "fusion_lat": 0.0, "lon": -77.04535183333333, "name": "3ae0e16ed1d2bc42a16ea5ce8f91b4da"}, {"bike_id": "4db1e4079c40d70cd3387b8198d76bcc", "type": "electric_bike", "is_disabled": 0, "lat": 38.87307366666667, "rental_uris": {"ios": "https://dc.lft.to/lastmile_qr_scan", "android": "https://dc.lft.to/lastmile_qr_scan"}, "is_reserved": 0, "fusion_lon": 0.0, "fusion_lat": 0.0, "lon": -77.139326, "name": "4db1e4079c40d70cd3387b8198d76bcc"}, {"bike_id": "70f63a6684082180cea90a1ccd770684", "type": "electric_scooter", "is_disabled": 0, "lat": 38.90276516666667, "rental_uris": {"ios": "https://dc.lft.to/lastmile_qr_scan", "android": "https://dc.lft.to/lastmile_qr_scan"}, "is_reserved": 0, "fusion_lon": 0.0, "fusion_lat": 0.0, "lon": -77.04376783333333, "name": "70f63a6684082180cea90a1ccd770684"}, {"bike_id": "13dff420a7aa8dcb4660834a6be3f300", "type": "electric_scooter", "is_disabled": 0, "lat": 38.915827, "rental_uris": {"ios": "https://dc.lft.to/lastmile_qr_scan", "android": "https://dc.lft.to/lastmile_qr_scan"}, "is_reserved": 0, "fusion_lon": 0.0, "fusion_lat": 0.0, "lon": -77.03205233333334, "name": "13dff420a7aa8dcb4660834a6be3f300"}, {"bike_id": "df3f93131503d17561613cd245c07cff", "type": "electric_scooter", "is_disabled": 0, "lat": 38.916346, "rental_uris": {"ios": "https://dc.lft.to/lastmile_qr_scan", "android": "https://dc.lft.to/lastmile_qr_scan"}, "is_reserved": 0, "fusion_lon": 0.0, "fusion_lat": 0.0, "lon": -77.02556783333333, "name": "df3f93131503d17561613cd245c07cff"}, {"bike_id": "d27afd20a2067560f6f75cd610ac6363", "type": "electric_bike", "is_disabled": 0, "lat": 38.837908166666665, "rental_uris": {"ios": "https://dc.lft.to/lastmile_qr_scan", "android": "https://dc.lft.to/lastmile_qr_scan"}, "is_reserved": 0, "fusion_lon": 0.0, "fusion_lat": 0.0, "lon": -77.09351116666667, "name": "d27afd20a2067560f6f75cd610ac6363"}, {"bike_id": "cf0ece3e404af1f4e9ba967871443749", "type": "electric_scooter", "is_disabled": 0, "lat": 38.939174333333334, "rental_uris": {"ios": "https://dc.lft.to/lastmile_qr_scan", "android": "https://dc.lft.to/lastmile_qr_scan"}, "is_reserved": 0, "fusion_lon": 0.0, "fusion_lat": 0.0, "lon": -77.0604905, "name": "cf0ece3e404af1f4e9ba967871443749"}, {"bike_id": "bfe7939d80776f35148a9ebabdb09167", "type": "electric_scooter", "is_disabled": 0, "lat": 38.914833333333334, "rental_uris": {"ios": "https://dc.lft.to/lastmile_qr_scan", "android": "https://dc.lft.to/lastmile_qr_scan"}, "is_reserved": 0, "fusion_lon": 0.0, "fusion_lat": 0.0, "lon": -77.02526733333333, "name": "bfe7939d80776f35148a9ebabdb09167"}, {"bike_id": "3736cbf325e063f597dcd60b85bb7d7e", "type": "electric_scooter", "is_disabled": 0, "lat": 38.86625466666667, "rental_uris": {"ios": "https://dc.lft.to/lastmile_qr_scan", "android": "https://dc.lft.to/lastmile_qr_scan"}, "is_reserved": 0, "fusion_lon": 0.0, "fusion_lat": 0.0, "lon": -76.987169, "name": "3736cbf325e063f597dcd60b85bb7d7e"}, {"bike_id": "4906b30be30beda967461754571ea109", "type": "electric_scooter", "is_disabled": 0, "lat": 38.870744333333334, "rental_uris": {"ios": "https://dc.lft.to/lastmile_qr_scan", "android": "https://dc.lft.to/lastmile_qr_scan"}, "is_reserved": 0, "fusion_lon": 0.0, "fusion_lat": 0.0, "lon": -76.9812795, "name": "4906b30be30beda967461754571ea109"}, {"bike_id": "8e2935f4ef5fa71bb2f54fdc83f2406b", "type": "electric_scooter", "is_disabled": 0, "lat": 38.858124833333335, "rental_uris": {"ios": "https://dc.lft.to/lastmile_qr_scan", "android": "https://dc.lft.to/lastmile_qr_scan"}, "is_reserved": 0, "fusion_lon": 0.0, "fusion_lat": 0.0, "lon": -76.989378, "name": "8e2935f4ef5fa71bb2f54fdc83f2406b"}, {"bike_id": "2fed5841ddbfa620f6715307af26b127", "type": "electric_bike", "is_disabled": 0, "lat": 38.864802833333336, "rental_uris": {"ios": "https://dc.lft.to/lastmile_qr_scan", "android": "https://dc.lft.to/lastmile_qr_scan"}, "is_reserved": 0, "fusion_lon": 0.0, "fusion_lat": 0.0, "lon": -76.97754083333334, "name": "2fed5841ddbfa620f6715307af26b127"}, {"bike_id": "1f352f55a12f404eae3778d2082e3e69", "type": "electric_scooter", "is_disabled": 0, "lat": 38.912660333333335, "rental_uris": {"ios": "https://dc.lft.to/lastmile_qr_scan", "android": "https://dc.lft.to/lastmile_qr_scan"}, "is_reserved": 0, "fusion_lon": 0.0, "fusion_lat": 0.0, "lon": -77.00227266666667, "name": "1f352f55a12f404eae3778d2082e3e69"}, {"bike_id": "bebf6777f4a090b90468416ab22e6182", "type": "electric_scooter", "is_disabled": 0, "lat": 38.91695416666666, "rental_uris": {"ios": "https://dc.lft.to/lastmile_qr_scan", "android": "https://dc.lft.to/lastmile_qr_scan"}, "is_reserved": 0, "fusion_lon": 0.0, "fusion_lat": 0.0, "lon": -77.02904166666667, "name": "bebf6777f4a090b90468416ab22e6182"}, {"bike_id": "ee3adf840b9b16f786184c42aba14737", "type": "electric_scooter", "is_disabled": 0, "lat": 38.92856166666667, "rental_uris": {"ios": "https://dc.lft.to/lastmile_qr_scan", "android": "https://dc.lft.to/lastmile_qr_scan"}, "is_reserved": 0, "fusion_lon": 0.0, "fusion_lat": 0.0, "lon": -77.032803, "name": "ee3adf840b9b16f786184c42aba14737"}, {"bike_id": "96d6e635e1671e6e059b9142e42a592d", "type": "electric_scooter", "is_disabled": 0, "lat": 38.92263783333333, "rental_uris": {"ios": "https://dc.lft.to/lastmile_qr_scan", "android": "https://dc.lft.to/lastmile_qr_scan"}, "is_reserved": 0, "fusion_lon": 0.0, "fusion_lat": 0.0, "lon": -77.04313666666667, "name": "96d6e635e1671e6e059b9142e42a592d"}, {"bike_id": "308585749f3c1319d6a8e473fadcded8", "type": "electric_scooter", "is_disabled": 0, "lat": 38.907869, "rental_uris": {"ios": "https://dc.lft.to/lastmile_qr_scan", "android": "https://dc.lft.to/lastmile_qr_scan"}, "is_reserved": 0, "fusion_lon": 0.0, "fusion_lat": 0.0, "lon": -76.99417783333334, "name": "308585749f3c1319d6a8e473fadcded8"}, {"bike_id": "9d8c9267680e630541571a37dd9cab97", "type": "electric_bike", "is_disabled": 0, "lat": 38.80756733333333, "rental_uris": {"ios": "https://dc.lft.to/lastmile_qr_scan", "android": "https://dc.lft.to/lastmile_qr_scan"}, "is_reserved": 0, "fusion_lon": 0.0, "fusion_lat": 0.0, "lon": -77.09460083333333, "name": "9d8c9267680e630541571a37dd9cab97"}, {"bike_id": "bfd8515dfaffdec6a4ea95957e22794a", "type": "electric_scooter", "is_disabled": 0, "lat": 38.938962833333335, "rental_uris": {"ios": "https://dc.lft.to/lastmile_qr_scan", "android": "https://dc.lft.to/lastmile_qr_scan"}, "is_reserved": 0, "fusion_lon": 0.0, "fusion_lat": 0.0, "lon": -77.03341816666666, "name": "bfd8515dfaffdec6a4ea95957e22794a"}, {"bike_id": "dfe72c40c9a028bd84adbb623a119b52", "type": "electric_scooter", "is_disabled": 0, "lat": 38.93983933333333, "rental_uris": {"ios": "https://dc.lft.to/lastmile_qr_scan", "android": "https://dc.lft.to/lastmile_qr_scan"}, "is_reserved": 0, "fusion_lon": 0.0, "fusion_lat": 0.0, "lon": -77.0288185, "name": "dfe72c40c9a028bd84adbb623a119b52"}, {"bike_id": "2ea75a2ea39e054cbef926df0f7e89db", "type": "electric_scooter", "is_disabled": 0, "lat": 38.893006, "rental_uris": {"ios": "https://dc.lft.to/lastmile_qr_scan", "android": "https://dc.lft.to/lastmile_qr_scan"}, "is_reserved": 0, "fusion_lon": 0.0, "fusion_lat": 0.0, "lon": -77.02021866666666, "name": "2ea75a2ea39e054cbef926df0f7e89db"}, {"bike_id": "5cf8a5948aac215d41e32497b5f8f016", "type": "electric_scooter", "is_disabled": 0, "lat": 38.9419465, "rental_uris": {"ios": "https://dc.lft.to/lastmile_qr_scan", "android": "https://dc.lft.to/lastmile_qr_scan"}, "is_reserved": 0, "fusion_lon": 0.0, "fusion_lat": 0.0, "lon": -77.02556433333334, "name": "5cf8a5948aac215d41e32497b5f8f016"}, {"bike_id": "f6bf9ddb2c385bd67bc7e1e07ada1ebb", "type": "electric_scooter", "is_disabled": 0, "lat": 38.89873516666667, "rental_uris": {"ios": "https://dc.lft.to/lastmile_qr_scan", "android": "https://dc.lft.to/lastmile_qr_scan"}, "is_reserved": 0, "fusion_lon": 0.0, "fusion_lat": 0.0, "lon": -76.93191333333333, "name": "f6bf9ddb2c385bd67bc7e1e07ada1ebb"}, {"bike_id": "a761ad443a1c018df7b43af40d7c2cb3", "type": "electric_bike", "is_disabled": 0, "lat": 38.939684, "rental_uris": {"ios": "https://dc.lft.to/lastmile_qr_scan", "android": "https://dc.lft.to/lastmile_qr_scan"}, "is_reserved": 0, "fusion_lon": 0.0, "fusion_lat": 0.0, "lon": -77.05261666666667, "name": "a761ad443a1c018df7b43af40d7c2cb3"}, {"bike_id": "d26b1957780597410a488b014f999bb8", "type": "electric_scooter", "is_disabled": 0, "lat": 38.9248165, "rental_uris": {"ios": "https://dc.lft.to/lastmile_qr_scan", "android": "https://dc.lft.to/lastmile_qr_scan"}, "is_reserved": 0, "fusion_lon": 0.0, "fusion_lat": 0.0, "lon": -77.0283485, "name": "d26b1957780597410a488b014f999bb8"}, {"bike_id": "e6640573d1f9653fb16958c78414165c", "type": "electric_scooter", "is_disabled": 0, "lat": 38.941868666666664, "rental_uris": {"ios": "https://dc.lft.to/lastmile_qr_scan", "android": "https://dc.lft.to/lastmile_qr_scan"}, "is_reserved": 0, "fusion_lon": 0.0, "fusion_lat": 0.0, "lon": -77.02890266666667, "name": "e6640573d1f9653fb16958c78414165c"}, {"bike_id": "0c58950e04db13c00ff5dd7a590c3d81", "type": "electric_scooter", "is_disabled": 0, "lat": 38.911220666666665, "rental_uris": {"ios": "https://dc.lft.to/lastmile_qr_scan", "android": "https://dc.lft.to/lastmile_qr_scan"}, "is_reserved": 0, "fusion_lon": 0.0, "fusion_lat": 0.0, "lon": -77.037347, "name": "0c58950e04db13c00ff5dd7a590c3d81"}, {"bike_id": "a7fcecb089bb023b436108d7138f60df", "type": "electric_scooter", "is_disabled": 0, "lat": 38.8820155, "rental_uris": {"ios": "https://dc.lft.to/lastmile_qr_scan", "android": "https://dc.lft.to/lastmile_qr_scan"}, "is_reserved": 0, "fusion_lon": 0.0, "fusion_lat": 0.0, "lon": -76.98934633333333, "name": "a7fcecb089bb023b436108d7138f60df"}, {"bike_id": "2731d4ca5bd1c230f1c6a217a076fa9a", "type": "electric_bike", "is_disabled": 0, "lat": 38.86196783333333, "rental_uris": {"ios": "https://dc.lft.to/lastmile_qr_scan", "android": "https://dc.lft.to/lastmile_qr_scan"}, "is_reserved": 0, "fusion_lon": 0.0, "fusion_lat": 0.0, "lon": -76.94812966666667, "name": "2731d4ca5bd1c230f1c6a217a076fa9a"}, {"bike_id": "1e7755ff68f597422d13c4a58b3672d3", "type": "electric_scooter", "is_disabled": 0, "lat": 38.92376766666667, "rental_uris": {"ios": "https://dc.lft.to/lastmile_qr_scan", "android": "https://dc.lft.to/lastmile_qr_scan"}, "is_reserved": 0, "fusion_lon": 0.0, "fusion_lat": 0.0, "lon": -77.029938, "name": "1e7755ff68f597422d13c4a58b3672d3"}, {"bike_id": "2d7ed38a062244f87a4b1a8bbf11e855", "type": "electric_scooter", "is_disabled": 0, "lat": 38.938487, "rental_uris": {"ios": "https://dc.lft.to/lastmile_qr_scan", "android": "https://dc.lft.to/lastmile_qr_scan"}, "is_reserved": 0, "fusion_lon": 0.0, "fusion_lat": 0.0, "lon": -77.03266933333333, "name": "2d7ed38a062244f87a4b1a8bbf11e855"}, {"bike_id": "004c870dd81960248bff34fbf34f5314", "type": "electric_scooter", "is_disabled": 0, "lat": 38.91335816666667, "rental_uris": {"ios": "https://dc.lft.to/lastmile_qr_scan", "android": "https://dc.lft.to/lastmile_qr_scan"}, "is_reserved": 0, "fusion_lon": 0.0, "fusion_lat": 0.0, "lon": -77.04235316666667, "name": "004c870dd81960248bff34fbf34f5314"}, {"bike_id": "7721dfca2aabbfee483ca50604b3d3af", "type": "electric_scooter", "is_disabled": 0, "lat": 38.906794166666664, "rental_uris": {"ios": "https://dc.lft.to/lastmile_qr_scan", "android": "https://dc.lft.to/lastmile_qr_scan"}, "is_reserved": 0, "fusion_lon": 0.0, "fusion_lat": 0.0, "lon": -77.07188083333334, "name": "7721dfca2aabbfee483ca50604b3d3af"}, {"bike_id": "969e0222496a7992fe781f0ec9c0aa9a", "type": "electric_scooter", "is_disabled": 0, "lat": 38.894960166666664, "rental_uris": {"ios": "https://dc.lft.to/lastmile_qr_scan", "android": "https://dc.lft.to/lastmile_qr_scan"}, "is_reserved": 0, "fusion_lon": 0.0, "fusion_lat": 0.0, "lon": -77.00217266666667, "name": "969e0222496a7992fe781f0ec9c0aa9a"}, {"bike_id": "21ff0e026fe17d4c2066d9e518894af5", "type": "electric_scooter", "is_disabled": 0, "lat": 38.91612283333333, "rental_uris": {"ios": "https://dc.lft.to/lastmile_qr_scan", "android": "https://dc.lft.to/lastmile_qr_scan"}, "is_reserved": 0, "fusion_lon": 0.0, "fusion_lat": 0.0, "lon": -77.02205583333334, "name": "21ff0e026fe17d4c2066d9e518894af5"}, {"bike_id": "a4eed382501909763bd724c2ae740bda", "type": "electric_scooter", "is_disabled": 0, "lat": 38.90741416666667, "rental_uris": {"ios": "https://dc.lft.to/lastmile_qr_scan", "android": "https://dc.lft.to/lastmile_qr_scan"}, "is_reserved": 0, "fusion_lon": 0.0, "fusion_lat": 0.0, "lon": -77.00941633333333, "name": "a4eed382501909763bd724c2ae740bda"}, {"bike_id": "2060fd8f4b825f75caa297acdb03674e", "type": "electric_scooter", "is_disabled": 0, "lat": 38.9233205, "rental_uris": {"ios": "https://dc.lft.to/lastmile_qr_scan", "android": "https://dc.lft.to/lastmile_qr_scan"}, "is_reserved": 0, "fusion_lon": 0.0, "fusion_lat": 0.0, "lon": -77.05369216666666, "name": "2060fd8f4b825f75caa297acdb03674e"}, {"bike_id": "563897d46096fc2c0262a36b5c1ae460", "type": "electric_scooter", "is_disabled": 0, "lat": 38.91835316666667, "rental_uris": {"ios": "https://dc.lft.to/lastmile_qr_scan", "android": "https://dc.lft.to/lastmile_qr_scan"}, "is_reserved": 0, "fusion_lon": 0.0, "fusion_lat": 0.0, "lon": -77.02456416666666, "name": "563897d46096fc2c0262a36b5c1ae460"}, {"bike_id": "190f621d0c7fbac7e3ee6c91d70b623d", "type": "electric_bike", "is_disabled": 0, "lat": 39.05632966666667, "rental_uris": {"ios": "https://dc.lft.to/lastmile_qr_scan", "android": "https://dc.lft.to/lastmile_qr_scan"}, "is_reserved": 0, "fusion_lon": 0.0, "fusion_lat": 0.0, "lon": -77.12526416666667, "name": "190f621d0c7fbac7e3ee6c91d70b623d"}, {"bike_id": "d7d3e818cc389a9c33959f92f1e3ba65", "type": "electric_scooter", "is_disabled": 0, "lat": 38.89736, "rental_uris": {"ios": "https://dc.lft.to/lastmile_qr_scan", "android": "https://dc.lft.to/lastmile_qr_scan"}, "is_reserved": 0, "fusion_lon": 0.0, "fusion_lat": 0.0, "lon": -77.0547845, "name": "d7d3e818cc389a9c33959f92f1e3ba65"}, {"bike_id": "14c058926498afa677e0801c737ff10c", "type": "electric_scooter", "is_disabled": 0, "lat": 38.947838833333336, "rental_uris": {"ios": "https://dc.lft.to/lastmile_qr_scan", "android": "https://dc.lft.to/lastmile_qr_scan"}, "is_reserved": 0, "fusion_lon": 0.0, "fusion_lat": 0.0, "lon": -77.07933916666667, "name": "14c058926498afa677e0801c737ff10c"}, {"bike_id": "1bb38446ce1866bfb91ef767027f3d45", "type": "electric_scooter", "is_disabled": 0, "lat": 38.923216, "rental_uris": {"ios": "https://dc.lft.to/lastmile_qr_scan", "android": "https://dc.lft.to/lastmile_qr_scan"}, "is_reserved": 0, "fusion_lon": 0.0, "fusion_lat": 0.0, "lon": -77.03802883333333, "name": "1bb38446ce1866bfb91ef767027f3d45"}, {"bike_id": "d10ea7e5bd1ec4f97356e1740249cab9", "type": "electric_scooter", "is_disabled": 0, "lat": 38.94212483333333, "rental_uris": {"ios": "https://dc.lft.to/lastmile_qr_scan", "android": "https://dc.lft.to/lastmile_qr_scan"}, "is_reserved": 0, "fusion_lon": 0.0, "fusion_lat": 0.0, "lon": -77.025881, "name": "d10ea7e5bd1ec4f97356e1740249cab9"}, {"bike_id": "d7014bee60a260f8d95d13fca938a5d1", "type": "electric_scooter", "is_disabled": 0, "lat": 38.936964333333336, "rental_uris": {"ios": "https://dc.lft.to/lastmile_qr_scan", "android": "https://dc.lft.to/lastmile_qr_scan"}, "is_reserved": 0, "fusion_lon": 0.0, "fusion_lat": 0.0, "lon": -77.056695, "name": "d7014bee60a260f8d95d13fca938a5d1"}, {"bike_id": "6d5b79faf58219c682b806d9299cc5cf", "type": "electric_scooter", "is_disabled": 0, "lat": 38.9299005, "rental_uris": {"ios": "https://dc.lft.to/lastmile_qr_scan", "android": "https://dc.lft.to/lastmile_qr_scan"}, "is_reserved": 0, "fusion_lon": 0.0, "fusion_lat": 0.0, "lon": -77.034779, "name": "6d5b79faf58219c682b806d9299cc5cf"}, {"bike_id": "5d9c3bcf40cd7cbb00a7432c0d5851c1", "type": "electric_scooter", "is_disabled": 0, "lat": 38.90567033333333, "rental_uris": {"ios": "https://dc.lft.to/lastmile_qr_scan", "android": "https://dc.lft.to/lastmile_qr_scan"}, "is_reserved": 0, "fusion_lon": 0.0, "fusion_lat": 0.0, "lon": -77.038362, "name": "5d9c3bcf40cd7cbb00a7432c0d5851c1"}, {"bike_id": "e963c64579e82ce0a7a513ea717c99d3", "type": "electric_bike", "is_disabled": 0, "lat": 38.8974115, "rental_uris": {"ios": "https://dc.lft.to/lastmile_qr_scan", "android": "https://dc.lft.to/lastmile_qr_scan"}, "is_reserved": 0, "fusion_lon": 0.0, "fusion_lat": 0.0, "lon": -76.920494, "name": "e963c64579e82ce0a7a513ea717c99d3"}, {"bike_id": "e06b2b1b610fc6883e24008eccb35ea5", "type": "electric_scooter", "is_disabled": 0, "lat": 38.922138833333335, "rental_uris": {"ios": "https://dc.lft.to/lastmile_qr_scan", "android": "https://dc.lft.to/lastmile_qr_scan"}, "is_reserved": 0, "fusion_lon": 0.0, "fusion_lat": 0.0, "lon": -77.03290433333333, "name": "e06b2b1b610fc6883e24008eccb35ea5"}, {"bike_id": "a3706de475af374ba64e8836c9dbb3d2", "type": "electric_scooter", "is_disabled": 0, "lat": 38.9181835, "rental_uris": {"ios": "https://dc.lft.to/lastmile_qr_scan", "android": "https://dc.lft.to/lastmile_qr_scan"}, "is_reserved": 0, "fusion_lon": 0.0, "fusion_lat": 0.0, "lon": -77.04958016666667, "name": "a3706de475af374ba64e8836c9dbb3d2"}, {"bike_id": "fa3c502af0436a5199f2535f19e87e0c", "type": "electric_scooter", "is_disabled": 0, "lat": 38.919206333333335, "rental_uris": {"ios": "https://dc.lft.to/lastmile_qr_scan", "android": "https://dc.lft.to/lastmile_qr_scan"}, "is_reserved": 0, "fusion_lon": 0.0, "fusion_lat": 0.0, "lon": -77.03377716666667, "name": "fa3c502af0436a5199f2535f19e87e0c"}, {"bike_id": "7da10aebef7f10db9f60fdf13a8a55b4", "type": "electric_scooter", "is_disabled": 0, "lat": 38.9278695, "rental_uris": {"ios": "https://dc.lft.to/lastmile_qr_scan", "android": "https://dc.lft.to/lastmile_qr_scan"}, "is_reserved": 0, "fusion_lon": 0.0, "fusion_lat": 0.0, "lon": -77.0432375, "name": "7da10aebef7f10db9f60fdf13a8a55b4"}, {"bike_id": "9bb0d57aeecf71917bfbc2c165021c8b", "type": "electric_scooter", "is_disabled": 0, "lat": 38.964177666666664, "rental_uris": {"ios": "https://dc.lft.to/lastmile_qr_scan", "android": "https://dc.lft.to/lastmile_qr_scan"}, "is_reserved": 0, "fusion_lon": 0.0, "fusion_lat": 0.0, "lon": -77.02429916666667, "name": "9bb0d57aeecf71917bfbc2c165021c8b"}, {"bike_id": "36c73d9f8572d96c32c095e03bfbee24", "type": "electric_scooter", "is_disabled": 0, "lat": 38.9209165, "rental_uris": {"ios": "https://dc.lft.to/lastmile_qr_scan", "android": "https://dc.lft.to/lastmile_qr_scan"}, "is_reserved": 0, "fusion_lon": 0.0, "fusion_lat": 0.0, "lon": -77.02386583333333, "name": "36c73d9f8572d96c32c095e03bfbee24"}, {"bike_id": "82945ec49b7dcdf591ae3539997ccda3", "type": "electric_scooter", "is_disabled": 0, "lat": 38.90708633333333, "rental_uris": {"ios": "https://dc.lft.to/lastmile_qr_scan", "android": "https://dc.lft.to/lastmile_qr_scan"}, "is_reserved": 0, "fusion_lon": 0.0, "fusion_lat": 0.0, "lon": -77.03670183333334, "name": "82945ec49b7dcdf591ae3539997ccda3"}, {"bike_id": "80ebe765421eb09daef96b925aff8f07", "type": "electric_scooter", "is_disabled": 0, "lat": 38.907884, "rental_uris": {"ios": "https://dc.lft.to/lastmile_qr_scan", "android": "https://dc.lft.to/lastmile_qr_scan"}, "is_reserved": 0, "fusion_lon": 0.0, "fusion_lat": 0.0, "lon": -77.046797, "name": "80ebe765421eb09daef96b925aff8f07"}, {"bike_id": "e4c0063b6649caf745b30b8902c86de9", "type": "electric_scooter", "is_disabled": 0, "lat": 38.92453416666667, "rental_uris": {"ios": "https://dc.lft.to/lastmile_qr_scan", "android": "https://dc.lft.to/lastmile_qr_scan"}, "is_reserved": 0, "fusion_lon": 0.0, "fusion_lat": 0.0, "lon": -77.04206866666667, "name": "e4c0063b6649caf745b30b8902c86de9"}, {"bike_id": "545db064b8090c901ad7a4541faf4745", "type": "electric_scooter", "is_disabled": 0, "lat": 38.907355833333334, "rental_uris": {"ios": "https://dc.lft.to/lastmile_qr_scan", "android": "https://dc.lft.to/lastmile_qr_scan"}, "is_reserved": 0, "fusion_lon": 0.0, "fusion_lat": 0.0, "lon": -77.0357105, "name": "545db064b8090c901ad7a4541faf4745"}, {"bike_id": "56a7b2cca253a7eea66556fde2a0905e", "type": "electric_scooter", "is_disabled": 0, "lat": 38.909882833333334, "rental_uris": {"ios": "https://dc.lft.to/lastmile_qr_scan", "android": "https://dc.lft.to/lastmile_qr_scan"}, "is_reserved": 0, "fusion_lon": 0.0, "fusion_lat": 0.0, "lon": -77.04266616666666, "name": "56a7b2cca253a7eea66556fde2a0905e"}, {"bike_id": "7b67906b32a613d6c5b3f70a6b5d7514", "type": "electric_scooter", "is_disabled": 0, "lat": 38.86504866666667, "rental_uris": {"ios": "https://dc.lft.to/lastmile_qr_scan", "android": "https://dc.lft.to/lastmile_qr_scan"}, "is_reserved": 0, "fusion_lon": 0.0, "fusion_lat": 0.0, "lon": -76.99003566666667, "name": "7b67906b32a613d6c5b3f70a6b5d7514"}, {"bike_id": "25a4584d470145dee2ed15bd4d5c317d", "type": "electric_scooter", "is_disabled": 0, "lat": 38.88085783333333, "rental_uris": {"ios": "https://dc.lft.to/lastmile_qr_scan", "android": "https://dc.lft.to/lastmile_qr_scan"}, "is_reserved": 0, "fusion_lon": 0.0, "fusion_lat": 0.0, "lon": -76.99508316666666, "name": "25a4584d470145dee2ed15bd4d5c317d"}, {"bike_id": "5e83ab9c74480e92b1e8313dedc22a69", "type": "electric_scooter", "is_disabled": 0, "lat": 38.91481, "rental_uris": {"ios": "https://dc.lft.to/lastmile_qr_scan", "android": "https://dc.lft.to/lastmile_qr_scan"}, "is_reserved": 0, "fusion_lon": 0.0, "fusion_lat": 0.0, "lon": -77.01323066666667, "name": "5e83ab9c74480e92b1e8313dedc22a69"}, {"bike_id": "b8e703257b999937e090165ca9ffd87d", "type": "electric_bike", "is_disabled": 0, "lat": 38.853554833333334, "rental_uris": {"ios": "https://dc.lft.to/lastmile_qr_scan", "android": "https://dc.lft.to/lastmile_qr_scan"}, "is_reserved": 0, "fusion_lon": 0.0, "fusion_lat": 0.0, "lon": -77.0869295, "name": "b8e703257b999937e090165ca9ffd87d"}, {"bike_id": "ab74a40d7e5bbb327d7995244f800963", "type": "electric_scooter", "is_disabled": 0, "lat": 38.90876383333333, "rental_uris": {"ios": "https://dc.lft.to/lastmile_qr_scan", "android": "https://dc.lft.to/lastmile_qr_scan"}, "is_reserved": 0, "fusion_lon": 0.0, "fusion_lat": 0.0, "lon": -77.02715466666666, "name": "ab74a40d7e5bbb327d7995244f800963"}, {"bike_id": "6e55f85717cf54bddef6f39d47f8958c", "type": "electric_scooter", "is_disabled": 0, "lat": 38.8986825, "rental_uris": {"ios": "https://dc.lft.to/lastmile_qr_scan", "android": "https://dc.lft.to/lastmile_qr_scan"}, "is_reserved": 0, "fusion_lon": 0.0, "fusion_lat": 0.0, "lon": -76.94664233333333, "name": "6e55f85717cf54bddef6f39d47f8958c"}, {"bike_id": "710368fa98b6fe54568b443245df9b92", "type": "electric_scooter", "is_disabled": 0, "lat": 38.930461, "rental_uris": {"ios": "https://dc.lft.to/lastmile_qr_scan", "android": "https://dc.lft.to/lastmile_qr_scan"}, "is_reserved": 0, "fusion_lon": 0.0, "fusion_lat": 0.0, "lon": -77.02364333333334, "name": "710368fa98b6fe54568b443245df9b92"}, {"bike_id": "22e6eb1f56c98b5c4b7fe87eccd67eda", "type": "electric_scooter", "is_disabled": 0, "lat": 38.8988815, "rental_uris": {"ios": "https://dc.lft.to/lastmile_qr_scan", "android": "https://dc.lft.to/lastmile_qr_scan"}, "is_reserved": 0, "fusion_lon": 0.0, "fusion_lat": 0.0, "lon": -76.93179333333333, "name": "22e6eb1f56c98b5c4b7fe87eccd67eda"}, {"bike_id": "d7140d49f2bbbf3465c30a4584476593", "type": "electric_scooter", "is_disabled": 0, "lat": 38.908080166666664, "rental_uris": {"ios": "https://dc.lft.to/lastmile_qr_scan", "android": "https://dc.lft.to/lastmile_qr_scan"}, "is_reserved": 0, "fusion_lon": 0.0, "fusion_lat": 0.0, "lon": -77.063837, "name": "d7140d49f2bbbf3465c30a4584476593"}, {"bike_id": "9cc9076a49541f2d6b9bee36db2083f6", "type": "electric_scooter", "is_disabled": 0, "lat": 38.93372883333333, "rental_uris": {"ios": "https://dc.lft.to/lastmile_qr_scan", "android": "https://dc.lft.to/lastmile_qr_scan"}, "is_reserved": 0, "fusion_lon": 0.0, "fusion_lat": 0.0, "lon": -77.05735033333333, "name": "9cc9076a49541f2d6b9bee36db2083f6"}, {"bike_id": "1ac12211fd0f1186aadca136c31c3b52", "type": "electric_scooter", "is_disabled": 0, "lat": 38.92578966666667, "rental_uris": {"ios": "https://dc.lft.to/lastmile_qr_scan", "android": "https://dc.lft.to/lastmile_qr_scan"}, "is_reserved": 0, "fusion_lon": 0.0, "fusion_lat": 0.0, "lon": -77.03056433333333, "name": "1ac12211fd0f1186aadca136c31c3b52"}, {"bike_id": "e7357a318b9d5be6313f2620c32dc9ac", "type": "electric_scooter", "is_disabled": 0, "lat": 38.9120895, "rental_uris": {"ios": "https://dc.lft.to/lastmile_qr_scan", "android": "https://dc.lft.to/lastmile_qr_scan"}, "is_reserved": 0, "fusion_lon": 0.0, "fusion_lat": 0.0, "lon": -77.038425, "name": "e7357a318b9d5be6313f2620c32dc9ac"}, {"bike_id": "89f2bab9fa1df60a30fc2eacf7f34285", "type": "electric_scooter", "is_disabled": 0, "lat": 38.90682983333333, "rental_uris": {"ios": "https://dc.lft.to/lastmile_qr_scan", "android": "https://dc.lft.to/lastmile_qr_scan"}, "is_reserved": 0, "fusion_lon": 0.0, "fusion_lat": 0.0, "lon": -77.0533865, "name": "89f2bab9fa1df60a30fc2eacf7f34285"}, {"bike_id": "16e5bd3317a405a5acc5a05a7ee0b402", "type": "electric_scooter", "is_disabled": 0, "lat": 38.920907166666666, "rental_uris": {"ios": "https://dc.lft.to/lastmile_qr_scan", "android": "https://dc.lft.to/lastmile_qr_scan"}, "is_reserved": 0, "fusion_lon": 0.0, "fusion_lat": 0.0, "lon": -77.02544816666666, "name": "16e5bd3317a405a5acc5a05a7ee0b402"}, {"bike_id": "99e963769ba2dccde138327093419dfb", "type": "electric_scooter", "is_disabled": 0, "lat": 38.9222525, "rental_uris": {"ios": "https://dc.lft.to/lastmile_qr_scan", "android": "https://dc.lft.to/lastmile_qr_scan"}, "is_reserved": 0, "fusion_lon": 0.0, "fusion_lat": 0.0, "lon": -77.02218366666666, "name": "99e963769ba2dccde138327093419dfb"}, {"bike_id": "996658cedf50eba50485ad60f389e666", "type": "electric_bike", "is_disabled": 0, "lat": 38.808996, "rental_uris": {"ios": "https://dc.lft.to/lastmile_qr_scan", "android": "https://dc.lft.to/lastmile_qr_scan"}, "is_reserved": 0, "fusion_lon": 0.0, "fusion_lat": 0.0, "lon": -77.08636816666667, "name": "996658cedf50eba50485ad60f389e666"}, {"bike_id": "bdacf1aead4b416f5123112d681ada91", "type": "electric_scooter", "is_disabled": 0, "lat": 38.92425633333333, "rental_uris": {"ios": "https://dc.lft.to/lastmile_qr_scan", "android": "https://dc.lft.to/lastmile_qr_scan"}, "is_reserved": 0, "fusion_lon": 0.0, "fusion_lat": 0.0, "lon": -77.029715, "name": "bdacf1aead4b416f5123112d681ada91"}, {"bike_id": "71e5abc8236bf535848b712b11f6e215", "type": "electric_scooter", "is_disabled": 0, "lat": 38.924686, "rental_uris": {"ios": "https://dc.lft.to/lastmile_qr_scan", "android": "https://dc.lft.to/lastmile_qr_scan"}, "is_reserved": 0, "fusion_lon": 0.0, "fusion_lat": 0.0, "lon": -77.0224885, "name": "71e5abc8236bf535848b712b11f6e215"}, {"bike_id": "c406a0468364b3c7d82dffe6d4601686", "type": "electric_scooter", "is_disabled": 0, "lat": 38.935488, "rental_uris": {"ios": "https://dc.lft.to/lastmile_qr_scan", "android": "https://dc.lft.to/lastmile_qr_scan"}, "is_reserved": 0, "fusion_lon": 0.0, "fusion_lat": 0.0, "lon": -77.05862983333333, "name": "c406a0468364b3c7d82dffe6d4601686"}, {"bike_id": "65d6b8485ccf5f8fad3dd0dfa4daf04f", "type": "electric_bike", "is_disabled": 0, "lat": 38.911938166666665, "rental_uris": {"ios": "https://dc.lft.to/lastmile_qr_scan", "android": "https://dc.lft.to/lastmile_qr_scan"}, "is_reserved": 0, "fusion_lon": 0.0, "fusion_lat": 0.0, "lon": -77.05948233333334, "name": "65d6b8485ccf5f8fad3dd0dfa4daf04f"}, {"bike_id": "342bc99b0db406b3c793f0fb1d3a46ed", "type": "electric_scooter", "is_disabled": 0, "lat": 38.90700483333333, "rental_uris": {"ios": "https://dc.lft.to/lastmile_qr_scan", "android": "https://dc.lft.to/lastmile_qr_scan"}, "is_reserved": 0, "fusion_lon": 0.0, "fusion_lat": 0.0, "lon": -76.98696433333333, "name": "342bc99b0db406b3c793f0fb1d3a46ed"}, {"bike_id": "e0eb76e1ad8b889deefd4e546c14ec63", "type": "electric_scooter", "is_disabled": 0, "lat": 38.88297216666667, "rental_uris": {"ios": "https://dc.lft.to/lastmile_qr_scan", "android": "https://dc.lft.to/lastmile_qr_scan"}, "is_reserved": 0, "fusion_lon": 0.0, "fusion_lat": 0.0, "lon": -76.94855083333333, "name": "e0eb76e1ad8b889deefd4e546c14ec63"}, {"bike_id": "48ee967293b9d01bfd7d0fcb7424ab88", "type": "electric_scooter", "is_disabled": 0, "lat": 38.92471616666667, "rental_uris": {"ios": "https://dc.lft.to/lastmile_qr_scan", "android": "https://dc.lft.to/lastmile_qr_scan"}, "is_reserved": 0, "fusion_lon": 0.0, "fusion_lat": 0.0, "lon": -77.02839933333334, "name": "48ee967293b9d01bfd7d0fcb7424ab88"}, {"bike_id": "62e3eb1a840e4627ecbf89037d18e46c", "type": "electric_bike", "is_disabled": 0, "lat": 38.96960383333333, "rental_uris": {"ios": "https://dc.lft.to/lastmile_qr_scan", "android": "https://dc.lft.to/lastmile_qr_scan"}, "is_reserved": 0, "fusion_lon": 0.0, "fusion_lat": 0.0, "lon": -76.95753966666666, "name": "62e3eb1a840e4627ecbf89037d18e46c"}, {"bike_id": "27f93645020fc546865b6e0cd722242d", "type": "electric_scooter", "is_disabled": 0, "lat": 38.92340466666667, "rental_uris": {"ios": "https://dc.lft.to/lastmile_qr_scan", "android": "https://dc.lft.to/lastmile_qr_scan"}, "is_reserved": 0, "fusion_lon": 0.0, "fusion_lat": 0.0, "lon": -77.05616533333334, "name": "27f93645020fc546865b6e0cd722242d"}, {"bike_id": "ab3ce8b49f5e59d9ab21a251ebf2a98f", "type": "electric_scooter", "is_disabled": 0, "lat": 38.864669166666665, "rental_uris": {"ios": "https://dc.lft.to/lastmile_qr_scan", "android": "https://dc.lft.to/lastmile_qr_scan"}, "is_reserved": 0, "fusion_lon": 0.0, "fusion_lat": 0.0, "lon": -76.97743233333334, "name": "ab3ce8b49f5e59d9ab21a251ebf2a98f"}, {"bike_id": "435cc669441b79aa2c9f334233815bbc", "type": "electric_scooter", "is_disabled": 0, "lat": 38.92153416666667, "rental_uris": {"ios": "https://dc.lft.to/lastmile_qr_scan", "android": "https://dc.lft.to/lastmile_qr_scan"}, "is_reserved": 0, "fusion_lon": 0.0, "fusion_lat": 0.0, "lon": -77.04243166666667, "name": "435cc669441b79aa2c9f334233815bbc"}, {"bike_id": "fd4cec39769bd8d5c90f0af3daf73c41", "type": "electric_scooter", "is_disabled": 0, "lat": 38.918104, "rental_uris": {"ios": "https://dc.lft.to/lastmile_qr_scan", "android": "https://dc.lft.to/lastmile_qr_scan"}, "is_reserved": 0, "fusion_lon": 0.0, "fusion_lat": 0.0, "lon": -77.0400345, "name": "fd4cec39769bd8d5c90f0af3daf73c41"}, {"bike_id": "1a073fe91bf059c8852ddf535a639e1a", "type": "electric_scooter", "is_disabled": 0, "lat": 38.90819783333333, "rental_uris": {"ios": "https://dc.lft.to/lastmile_qr_scan", "android": "https://dc.lft.to/lastmile_qr_scan"}, "is_reserved": 0, "fusion_lon": 0.0, "fusion_lat": 0.0, "lon": -77.03669733333334, "name": "1a073fe91bf059c8852ddf535a639e1a"}, {"bike_id": "4c4911170e6d644d3c014731e1cf917d", "type": "electric_scooter", "is_disabled": 0, "lat": 38.914806166666665, "rental_uris": {"ios": "https://dc.lft.to/lastmile_qr_scan", "android": "https://dc.lft.to/lastmile_qr_scan"}, "is_reserved": 0, "fusion_lon": 0.0, "fusion_lat": 0.0, "lon": -77.039149, "name": "4c4911170e6d644d3c014731e1cf917d"}, {"bike_id": "b2429db28e4f0d726f6a1cb000798eb0", "type": "electric_scooter", "is_disabled": 0, "lat": 38.8975315, "rental_uris": {"ios": "https://dc.lft.to/lastmile_qr_scan", "android": "https://dc.lft.to/lastmile_qr_scan"}, "is_reserved": 0, "fusion_lon": 0.0, "fusion_lat": 0.0, "lon": -77.00786733333334, "name": "b2429db28e4f0d726f6a1cb000798eb0"}, {"bike_id": "79c99f2a4dc8fcd809be050d2de646b9", "type": "electric_scooter", "is_disabled": 0, "lat": 38.90683416666667, "rental_uris": {"ios": "https://dc.lft.to/lastmile_qr_scan", "android": "https://dc.lft.to/lastmile_qr_scan"}, "is_reserved": 0, "fusion_lon": 0.0, "fusion_lat": 0.0, "lon": -77.07176466666667, "name": "79c99f2a4dc8fcd809be050d2de646b9"}, {"bike_id": "003252bc03e10411a07bcba19581c5df", "type": "electric_scooter", "is_disabled": 0, "lat": 38.910255666666664, "rental_uris": {"ios": "https://dc.lft.to/lastmile_qr_scan", "android": "https://dc.lft.to/lastmile_qr_scan"}, "is_reserved": 0, "fusion_lon": 0.0, "fusion_lat": 0.0, "lon": -76.99730483333333, "name": "003252bc03e10411a07bcba19581c5df"}, {"bike_id": "706a30f88a444aef8fbd381976353bb8", "type": "electric_bike", "is_disabled": 0, "lat": 38.956883166666664, "rental_uris": {"ios": "https://dc.lft.to/lastmile_qr_scan", "android": "https://dc.lft.to/lastmile_qr_scan"}, "is_reserved": 0, "fusion_lon": 0.0, "fusion_lat": 0.0, "lon": -77.0223815, "name": "706a30f88a444aef8fbd381976353bb8"}, {"bike_id": "75e2848cd28841a47945c15d19c7e488", "type": "electric_scooter", "is_disabled": 0, "lat": 38.92046883333333, "rental_uris": {"ios": "https://dc.lft.to/lastmile_qr_scan", "android": "https://dc.lft.to/lastmile_qr_scan"}, "is_reserved": 0, "fusion_lon": 0.0, "fusion_lat": 0.0, "lon": -77.03464583333333, "name": "75e2848cd28841a47945c15d19c7e488"}, {"bike_id": "44d4864d35c4589e1c46b9b92f3f5d4b", "type": "electric_scooter", "is_disabled": 0, "lat": 38.89199166666667, "rental_uris": {"ios": "https://dc.lft.to/lastmile_qr_scan", "android": "https://dc.lft.to/lastmile_qr_scan"}, "is_reserved": 0, "fusion_lon": 0.0, "fusion_lat": 0.0, "lon": -77.00237066666666, "name": "44d4864d35c4589e1c46b9b92f3f5d4b"}, {"bike_id": "7e1a2b03a0f0cbade499f1f38a3788ee", "type": "electric_scooter", "is_disabled": 0, "lat": 38.928449666666666, "rental_uris": {"ios": "https://dc.lft.to/lastmile_qr_scan", "android": "https://dc.lft.to/lastmile_qr_scan"}, "is_reserved": 0, "fusion_lon": 0.0, "fusion_lat": 0.0, "lon": -77.03254566666666, "name": "7e1a2b03a0f0cbade499f1f38a3788ee"}, {"bike_id": "cc19de9e6cc673ad5f73ce09fa6b4dbe", "type": "electric_scooter", "is_disabled": 0, "lat": 38.92364716666667, "rental_uris": {"ios": "https://dc.lft.to/lastmile_qr_scan", "android": "https://dc.lft.to/lastmile_qr_scan"}, "is_reserved": 0, "fusion_lon": 0.0, "fusion_lat": 0.0, "lon": -77.0513615, "name": "cc19de9e6cc673ad5f73ce09fa6b4dbe"}, {"bike_id": "29707c827b9310adda95b597aa232d8c", "type": "electric_scooter", "is_disabled": 0, "lat": 38.895269166666665, "rental_uris": {"ios": "https://dc.lft.to/lastmile_qr_scan", "android": "https://dc.lft.to/lastmile_qr_scan"}, "is_reserved": 0, "fusion_lon": 0.0, "fusion_lat": 0.0, "lon": -77.0111995, "name": "29707c827b9310adda95b597aa232d8c"}, {"bike_id": "2d995e8c0e10a41569580b83871de6ab", "type": "electric_scooter", "is_disabled": 0, "lat": 38.95657, "rental_uris": {"ios": "https://dc.lft.to/lastmile_qr_scan", "android": "https://dc.lft.to/lastmile_qr_scan"}, "is_reserved": 0, "fusion_lon": 0.0, "fusion_lat": 0.0, "lon": -77.01318716666667, "name": "2d995e8c0e10a41569580b83871de6ab"}, {"bike_id": "bfd21ad881823d9d49ff030cae91faf1", "type": "electric_scooter", "is_disabled": 0, "lat": 38.93806133333333, "rental_uris": {"ios": "https://dc.lft.to/lastmile_qr_scan", "android": "https://dc.lft.to/lastmile_qr_scan"}, "is_reserved": 0, "fusion_lon": 0.0, "fusion_lat": 0.0, "lon": -77.02460833333333, "name": "bfd21ad881823d9d49ff030cae91faf1"}, {"bike_id": "5643e37faecd44cb03ba9c0ce46c5aa1", "type": "electric_scooter", "is_disabled": 0, "lat": 38.883764666666664, "rental_uris": {"ios": "https://dc.lft.to/lastmile_qr_scan", "android": "https://dc.lft.to/lastmile_qr_scan"}, "is_reserved": 0, "fusion_lon": 0.0, "fusion_lat": 0.0, "lon": -77.01961216666666, "name": "5643e37faecd44cb03ba9c0ce46c5aa1"}, {"bike_id": "cb0d04e3691a3217c7a635d2d8516fee", "type": "electric_scooter", "is_disabled": 0, "lat": 38.8966975, "rental_uris": {"ios": "https://dc.lft.to/lastmile_qr_scan", "android": "https://dc.lft.to/lastmile_qr_scan"}, "is_reserved": 0, "fusion_lon": 0.0, "fusion_lat": 0.0, "lon": -76.988178, "name": "cb0d04e3691a3217c7a635d2d8516fee"}, {"bike_id": "1f8f064bdd235bccb86e85a320fde27d", "type": "electric_scooter", "is_disabled": 0, "lat": 38.863777, "rental_uris": {"ios": "https://dc.lft.to/lastmile_qr_scan", "android": "https://dc.lft.to/lastmile_qr_scan"}, "is_reserved": 0, "fusion_lon": 0.0, "fusion_lat": 0.0, "lon": -76.99065716666667, "name": "1f8f064bdd235bccb86e85a320fde27d"}, {"bike_id": "8b9389d87e93fb35f04ee55f06010f20", "type": "electric_scooter", "is_disabled": 0, "lat": 38.8788425, "rental_uris": {"ios": "https://dc.lft.to/lastmile_qr_scan", "android": "https://dc.lft.to/lastmile_qr_scan"}, "is_reserved": 0, "fusion_lon": 0.0, "fusion_lat": 0.0, "lon": -77.00600533333333, "name": "8b9389d87e93fb35f04ee55f06010f20"}, {"bike_id": "b5cc2862217e3ea9161b1391ba9b914a", "type": "electric_scooter", "is_disabled": 0, "lat": 38.86682366666667, "rental_uris": {"ios": "https://dc.lft.to/lastmile_qr_scan", "android": "https://dc.lft.to/lastmile_qr_scan"}, "is_reserved": 0, "fusion_lon": 0.0, "fusion_lat": 0.0, "lon": -76.98560916666666, "name": "b5cc2862217e3ea9161b1391ba9b914a"}, {"bike_id": "7d60871e21f7c026355b3aa3e52a0772", "type": "electric_scooter", "is_disabled": 0, "lat": 38.898437333333334, "rental_uris": {"ios": "https://dc.lft.to/lastmile_qr_scan", "android": "https://dc.lft.to/lastmile_qr_scan"}, "is_reserved": 0, "fusion_lon": 0.0, "fusion_lat": 0.0, "lon": -76.9464295, "name": "7d60871e21f7c026355b3aa3e52a0772"}, {"bike_id": "5986a02f043a4f7e72bf109b70768c7c", "type": "electric_scooter", "is_disabled": 0, "lat": 38.92487716666667, "rental_uris": {"ios": "https://dc.lft.to/lastmile_qr_scan", "android": "https://dc.lft.to/lastmile_qr_scan"}, "is_reserved": 0, "fusion_lon": 0.0, "fusion_lat": 0.0, "lon": -77.02840166666667, "name": "5986a02f043a4f7e72bf109b70768c7c"}, {"bike_id": "33c3bc2192c01351c7e5bc4ba63321e0", "type": "electric_scooter", "is_disabled": 0, "lat": 38.919237833333334, "rental_uris": {"ios": "https://dc.lft.to/lastmile_qr_scan", "android": "https://dc.lft.to/lastmile_qr_scan"}, "is_reserved": 0, "fusion_lon": 0.0, "fusion_lat": 0.0, "lon": -77.042598, "name": "33c3bc2192c01351c7e5bc4ba63321e0"}, {"bike_id": "3c9e59fa4245f647287db10b5f8dd422", "type": "electric_scooter", "is_disabled": 0, "lat": 38.9144815, "rental_uris": {"ios": "https://dc.lft.to/lastmile_qr_scan", "android": "https://dc.lft.to/lastmile_qr_scan"}, "is_reserved": 0, "fusion_lon": 0.0, "fusion_lat": 0.0, "lon": -77.02173383333333, "name": "3c9e59fa4245f647287db10b5f8dd422"}, {"bike_id": "ce0462e54b798836d3e49b6489bd8207", "type": "electric_scooter", "is_disabled": 0, "lat": 38.90353016666667, "rental_uris": {"ios": "https://dc.lft.to/lastmile_qr_scan", "android": "https://dc.lft.to/lastmile_qr_scan"}, "is_reserved": 0, "fusion_lon": 0.0, "fusion_lat": 0.0, "lon": -77.0602155, "name": "ce0462e54b798836d3e49b6489bd8207"}, {"bike_id": "4e701d7f3da2b5d27b73bf58e0c6c7fc", "type": "electric_scooter", "is_disabled": 0, "lat": 38.895292833333336, "rental_uris": {"ios": "https://dc.lft.to/lastmile_qr_scan", "android": "https://dc.lft.to/lastmile_qr_scan"}, "is_reserved": 0, "fusion_lon": 0.0, "fusion_lat": 0.0, "lon": -77.0110865, "name": "4e701d7f3da2b5d27b73bf58e0c6c7fc"}, {"bike_id": "b52a623e3a3db754b84b770bf30a0546", "type": "electric_scooter", "is_disabled": 0, "lat": 38.912145333333335, "rental_uris": {"ios": "https://dc.lft.to/lastmile_qr_scan", "android": "https://dc.lft.to/lastmile_qr_scan"}, "is_reserved": 0, "fusion_lon": 0.0, "fusion_lat": 0.0, "lon": -77.043568, "name": "b52a623e3a3db754b84b770bf30a0546"}, {"bike_id": "f9a6ad432dae5c238abd50516a7505a2", "type": "electric_scooter", "is_disabled": 0, "lat": 38.9656985, "rental_uris": {"ios": "https://dc.lft.to/lastmile_qr_scan", "android": "https://dc.lft.to/lastmile_qr_scan"}, "is_reserved": 0, "fusion_lon": 0.0, "fusion_lat": 0.0, "lon": -77.0278375, "name": "f9a6ad432dae5c238abd50516a7505a2"}, {"bike_id": "232a323d3a4e95fb2ef14d9ce5f7d21f", "type": "electric_scooter", "is_disabled": 0, "lat": 38.90333116666667, "rental_uris": {"ios": "https://dc.lft.to/lastmile_qr_scan", "android": "https://dc.lft.to/lastmile_qr_scan"}, "is_reserved": 0, "fusion_lon": 0.0, "fusion_lat": 0.0, "lon": -77.069284, "name": "232a323d3a4e95fb2ef14d9ce5f7d21f"}, {"bike_id": "39a3e859f16b1a59f0e8bb09ef0c55e4", "type": "electric_scooter", "is_disabled": 0, "lat": 38.8624425, "rental_uris": {"ios": "https://dc.lft.to/lastmile_qr_scan", "android": "https://dc.lft.to/lastmile_qr_scan"}, "is_reserved": 0, "fusion_lon": 0.0, "fusion_lat": 0.0, "lon": -76.99507933333334, "name": "39a3e859f16b1a59f0e8bb09ef0c55e4"}, {"bike_id": "6a11ab27efa00e950a835b7e3ce8ebaa", "type": "electric_scooter", "is_disabled": 0, "lat": 38.876489166666666, "rental_uris": {"ios": "https://dc.lft.to/lastmile_qr_scan", "android": "https://dc.lft.to/lastmile_qr_scan"}, "is_reserved": 0, "fusion_lon": 0.0, "fusion_lat": 0.0, "lon": -76.96500816666666, "name": "6a11ab27efa00e950a835b7e3ce8ebaa"}, {"bike_id": "c1d78c4607d4d3ec5a7ecd1dbb0d1302", "type": "electric_scooter", "is_disabled": 0, "lat": 38.92749033333333, "rental_uris": {"ios": "https://dc.lft.to/lastmile_qr_scan", "android": "https://dc.lft.to/lastmile_qr_scan"}, "is_reserved": 0, "fusion_lon": 0.0, "fusion_lat": 0.0, "lon": -77.00605433333334, "name": "c1d78c4607d4d3ec5a7ecd1dbb0d1302"}, {"bike_id": "39e14866f6307f6bfddfb874d1c0f089", "type": "electric_scooter", "is_disabled": 0, "lat": 38.98436216666666, "rental_uris": {"ios": "https://dc.lft.to/lastmile_qr_scan", "android": "https://dc.lft.to/lastmile_qr_scan"}, "is_reserved": 0, "fusion_lon": 0.0, "fusion_lat": 0.0, "lon": -77.02677616666666, "name": "39e14866f6307f6bfddfb874d1c0f089"}, {"bike_id": "6b0cc8527c5636e268a8211a56430c60", "type": "electric_scooter", "is_disabled": 0, "lat": 38.90646983333333, "rental_uris": {"ios": "https://dc.lft.to/lastmile_qr_scan", "android": "https://dc.lft.to/lastmile_qr_scan"}, "is_reserved": 0, "fusion_lon": 0.0, "fusion_lat": 0.0, "lon": -77.01456033333334, "name": "6b0cc8527c5636e268a8211a56430c60"}, {"bike_id": "5b67011aacab3c2f86363f9ffeb6c656", "type": "electric_scooter", "is_disabled": 0, "lat": 38.92589533333334, "rental_uris": {"ios": "https://dc.lft.to/lastmile_qr_scan", "android": "https://dc.lft.to/lastmile_qr_scan"}, "is_reserved": 0, "fusion_lon": 0.0, "fusion_lat": 0.0, "lon": -77.03760666666666, "name": "5b67011aacab3c2f86363f9ffeb6c656"}, {"bike_id": "bf2a46e60e7cf52439f703e0cd4e8498", "type": "electric_scooter", "is_disabled": 0, "lat": 38.907622, "rental_uris": {"ios": "https://dc.lft.to/lastmile_qr_scan", "android": "https://dc.lft.to/lastmile_qr_scan"}, "is_reserved": 0, "fusion_lon": 0.0, "fusion_lat": 0.0, "lon": -77.0717825, "name": "bf2a46e60e7cf52439f703e0cd4e8498"}, {"bike_id": "e115938094f3b4ac9276a0ba9b59d5cd", "type": "electric_scooter", "is_disabled": 0, "lat": 38.933816, "rental_uris": {"ios": "https://dc.lft.to/lastmile_qr_scan", "android": "https://dc.lft.to/lastmile_qr_scan"}, "is_reserved": 0, "fusion_lon": 0.0, "fusion_lat": 0.0, "lon": -77.07238516666666, "name": "e115938094f3b4ac9276a0ba9b59d5cd"}, {"bike_id": "771376596b7337d5b63a57060467065c", "type": "electric_scooter", "is_disabled": 0, "lat": 38.91029233333333, "rental_uris": {"ios": "https://dc.lft.to/lastmile_qr_scan", "android": "https://dc.lft.to/lastmile_qr_scan"}, "is_reserved": 0, "fusion_lon": 0.0, "fusion_lat": 0.0, "lon": -76.98666716666666, "name": "771376596b7337d5b63a57060467065c"},