{"data": {"bikes": [{"lat": 38.89223583333333, "is_disabled": 0, "type": "electric_scooter", "lon": -76.93297133333333, "bike_id": "fe15f9132369615d3b686da16fa83933", "fusion_lat": 0.0, "name": "fe15f9132369615d3b686da16fa83933", "is_reserved": 0, "rental_uris": {"android": "https://dc.lft.to/lastmile_qr_scan", "ios": "https://dc.lft.to/lastmile_qr_scan"}, "fusion_lon": 0.0}, {"lat": 38.884363666666665, "is_disabled": 0, "type": "electric_scooter", "lon": -76.95749016666667, "bike_id": "557424e1fef793992f02e56d92eebad9", "fusion_lat": 0.0, "name": "557424e1fef793992f02e56d92eebad9", "is_reserved": 0, "rental_uris": {"android": "https://dc.lft.to/lastmile_qr_scan", "ios": "https://dc.lft.to/lastmile_qr_scan"}, "fusion_lon": 0.0}, {"lat": 38.8661775, "is_disabled": 0, "type": "electric_bike", "lon": -76.94567716666667, "bike_id": "66c899bc193f8557d569950477e935e2", "fusion_lat": 0.0, "name": "66c899bc193f8557d569950477e935e2", "is_reserved": 0, "rental_uris": {"android": "https://dc.lft.to/lastmile_qr_scan", "ios": "https://dc.lft.to/lastmile_qr_scan"}, "fusion_lon": 0.0}, {"lat": 38.87464383333333, "is_disabled": 0, "type": "electric_scooter", "lon": -77.00488966666667, "bike_id": "89fed9e9644f03ac030e69fd0d40551a", "fusion_lat": 0.0, "name": "89fed9e9644f03ac030e69fd0d40551a", "is_reserved": 0, "rental_uris": {"android": "https://dc.lft.to/lastmile_qr_scan", "ios": "https://dc.lft.to/lastmile_qr_scan"}, "fusion_lon": 0.0}, {"lat": 38.899634, "is_disabled": 0, "type": "electric_scooter", "lon": -77.05519416666667, "bike_id": "4e2f44d1a379840d6c9646bbba8c1411", "fusion_lat": 0.0, "name": "4e2f44d1a379840d6c9646bbba8c1411", "is_reserved": 0, "rental_uris": {"android": "https://dc.lft.to/lastmile_qr_scan", "ios": "https://dc.lft.to/lastmile_qr_scan"}, "fusion_lon": 0.0}, {"lat": 38.903787333333334, "is_disabled": 0, "type": "electric_scooter", "lon": -77.0438735, "bike_id": "71ce59a5ad774e7b49fac309df36aa04", "fusion_lat": 0.0, "name": "71ce59a5ad774e7b49fac309df36aa04", "is_reserved": 0, "rental_uris": {"android": "https://dc.lft.to/lastmile_qr_scan", "ios": "https://dc.lft.to/lastmile_qr_scan"}, "fusion_lon": 0.0}, {"lat": 38.932206666666666, "is_disabled": 0, "type": "electric_scooter", "lon": -77.02731766666666, "bike_id": "798c9663c1e7a30feb8e2592695ff9fc", "fusion_lat": 0.0, "name": "798c9663c1e7a30feb8e2592695ff9fc", "is_reserved": 0, "rental_uris": {"android": "https://dc.lft.to/lastmile_qr_scan", "ios": "https://dc.lft.to/lastmile_qr_scan"}, "fusion_lon": 0.0}, {"lat": 38.94089833333334, "is_disabled": 0, "type": "electric_scooter", "lon": -77.0229965, "bike_id": "f644f8b3496bc62468b032e33848bcd1", "fusion_lat": 0.0, "name": "f644f8b3496bc62468b032e33848bcd1", "is_reserved": 0, "rental_uris": {"android": "https://dc.lft.to/lastmile_qr_scan", "ios": "https://dc.lft.to/lastmile_qr_scan"}, "fusion_lon": 0.0}, {"lat": 38.90732, "is_disabled": 0, "type": "electric_scooter", "lon": -77.025355, "bike_id": "cb6ed4651bdc09b261fe886e040e9bd8", "fusion_lat": 0.0, "name": "cb6ed4651bdc09b261fe886e040e9bd8", "is_reserved": 0, "rental_uris": {"android": "https://dc.lft.to/lastmile_qr_scan", "ios": "https://dc.lft.to/lastmile_qr_scan"}, "fusion_lon": 0.0}, {"lat": 38.866614, "is_disabled": 0, "type": "electric_scooter", "lon": -76.988983, "bike_id": "c734da558da4d1e817f2040b029148fc", "fusion_lat": 0.0, "name": "c734da558da4d1e817f2040b029148fc", "is_reserved": 0, "rental_uris": {"android": "https://dc.lft.to/lastmile_qr_scan", "ios": "https://dc.lft.to/lastmile_qr_scan"}, "fusion_lon": 0.0}, {"lat": 38.9649905, "is_disabled": 0, "type": "electric_bike", "lon": -77.0648715, "bike_id": "d2d7790d338f73de49dd239debf40522", "fusion_lat": 0.0, "name": "d2d7790d338f73de49dd239debf40522", "is_reserved": 0, "rental_uris": {"android": "https://dc.lft.to/lastmile_qr_scan", "ios": "https://dc.lft.to/lastmile_qr_scan"}, "fusion_lon": 0.0}, {"lat": 38.889719166666666, "is_disabled": 0, "type": "electric_scooter", "lon": -76.93739133333334, "bike_id": "afe2bba153dc2e781885e9d5ba93d21b", "fusion_lat": 0.0, "name": "afe2bba153dc2e781885e9d5ba93d21b", "is_reserved": 0, "rental_uris": {"android": "https://dc.lft.to/lastmile_qr_scan", "ios": "https://dc.lft.to/lastmile_qr_scan"}, "fusion_lon": 0.0}, {"lat": 38.915674, "is_disabled": 0, "type": "electric_scooter", "lon": -77.01193333333333, "bike_id": "a694eae0b5e380ac8d17850da991c2fc", "fusion_lat": 0.0, "name": "a694eae0b5e380ac8d17850da991c2fc", "is_reserved": 0, "rental_uris": {"android": "https://dc.lft.to/lastmile_qr_scan", "ios": "https://dc.lft.to/lastmile_qr_scan"}, "fusion_lon": 0.0}, {"lat": 38.912473, "is_disabled": 0, "type": "electric_scooter", "lon": -77.00427716666667, "bike_id": "4eb3bc4cb6ad5a5f2397126e53aedace", "fusion_lat": 0.0, "name": "4eb3bc4cb6ad5a5f2397126e53aedace", "is_reserved": 0, "rental_uris": {"android": "https://dc.lft.to/lastmile_qr_scan", "ios": "https://dc.lft.to/lastmile_qr_scan"}, "fusion_lon": 0.0}, {"lat": 38.91680866666667, "is_disabled": 0, "type": "electric_scooter", "lon": -77.04146733333333, "bike_id": "5a34f6ec3df00ec0558286e6cdde7b60", "fusion_lat": 0.0, "name": "5a34f6ec3df00ec0558286e6cdde7b60", "is_reserved": 0, "rental_uris": {"android": "https://dc.lft.to/lastmile_qr_scan", "ios": "https://dc.lft.to/lastmile_qr_scan"}, "fusion_lon": 0.0}, {"lat": 38.9288725, "is_disabled": 0, "type": "electric_scooter", "lon": -77.03326016666666, "bike_id": "c30cb19e42b00d0bbe8a3c59e335641c", "fusion_lat": 0.0, "name": "c30cb19e42b00d0bbe8a3c59e335641c", "is_reserved": 0, "rental_uris": {"android": "https://dc.lft.to/lastmile_qr_scan", "ios": "https://dc.lft.to/lastmile_qr_scan"}, "fusion_lon": 0.0}, {"lat": 38.892194833333335, "is_disabled": 0, "type": "electric_bike", "lon": -77.107806, "bike_id": "4543af5f528c2749ce7ce31478338795", "fusion_lat": 0.0, "name": "4543af5f528c2749ce7ce31478338795", "is_reserved": 0, "rental_uris": {"android": "https://dc.lft.to/lastmile_qr_scan", "ios": "https://dc.lft.to/lastmile_qr_scan"}, "fusion_lon": 0.0}, {"lat": 38.88444283333333, "is_disabled": 0, "type": "electric_scooter", "lon": -77.01527066666667, "bike_id": "4de18e6717ce5c34fd751f788a4def4f", "fusion_lat": 0.0, "name": "4de18e6717ce5c34fd751f788a4def4f", "is_reserved": 0, "rental_uris": {"android": "https://dc.lft.to/lastmile_qr_scan", "ios": "https://dc.lft.to/lastmile_qr_scan"}, "fusion_lon": 0.0}, {"lat": 38.92680283333333, "is_disabled": 0, "type": "electric_scooter", "lon": -77.0073985, "bike_id": "4c91f4653a968019b97e4b2887bbfbc2", "fusion_lat": 0.0, "name": "4c91f4653a968019b97e4b2887bbfbc2", "is_reserved": 0, "rental_uris": {"android": "https://dc.lft.to/lastmile_qr_scan", "ios": "https://dc.lft.to/lastmile_qr_scan"}, "fusion_lon": 0.0}, {"lat": 38.891386833333335, "is_disabled": 0, "type": "electric_bike", "lon": -77.113052, "bike_id": "1564d96c7af1df84c4503073c60cc895", "fusion_lat": 0.0, "name": "1564d96c7af1df84c4503073c60cc895", "is_reserved": 0, "rental_uris": {"android": "https://dc.lft.to/lastmile_qr_scan", "ios": "https://dc.lft.to/lastmile_qr_scan"}, "fusion_lon": 0.0}, {"lat": 38.90955233333333, "is_disabled": 0, "type": "electric_scooter", "lon": -77.040693, "bike_id": "30e43b08e3d94b6369952dd490b4d27c", "fusion_lat": 0.0, "name": "30e43b08e3d94b6369952dd490b4d27c", "is_reserved": 0, "rental_uris": {"android": "https://dc.lft.to/lastmile_qr_scan", "ios": "https://dc.lft.to/lastmile_qr_scan"}, "fusion_lon": 0.0}, {"lat": 38.924845, "is_disabled": 0, "type": "electric_scooter", "lon": -77.0254555, "bike_id": "ca1dc20d2519b0ac02cd6ca1568bca0f", "fusion_lat": 0.0, "name": "ca1dc20d2519b0ac02cd6ca1568bca0f", "is_reserved": 0, "rental_uris": {"android": "https://dc.lft.to/lastmile_qr_scan", "ios": "https://dc.lft.to/lastmile_qr_scan"}, "fusion_lon": 0.0}, {"lat": 38.900417166666664, "is_disabled": 0, "type": "electric_scooter", "lon": -77.00536566666666, "bike_id": "b99136db65d3d697fa8311aadacb01b6", "fusion_lat": 0.0, "name": "b99136db65d3d697fa8311aadacb01b6", "is_reserved": 0, "rental_uris": {"android": "https://dc.lft.to/lastmile_qr_scan", "ios": "https://dc.lft.to/lastmile_qr_scan"}, "fusion_lon": 0.0}, {"lat": 38.90259833333333, "is_disabled": 0, "type": "electric_scooter", "lon": -77.0192545, "bike_id": "d64d02554327a467e817ea929cdf570d", "fusion_lat": 0.0, "name": "d64d02554327a467e817ea929cdf570d", "is_reserved": 0, "rental_uris": {"android": "https://dc.lft.to/lastmile_qr_scan", "ios": "https://dc.lft.to/lastmile_qr_scan"}, "fusion_lon": 0.0}, {"lat": 38.950685666666665, "is_disabled": 0, "type": "electric_scooter", "lon": -77.066486, "bike_id": "4e2811de25a86e4021c8ddc6364346ba", "fusion_lat": 0.0, "name": "4e2811de25a86e4021c8ddc6364346ba", "is_reserved": 0, "rental_uris": {"android": "https://dc.lft.to/lastmile_qr_scan", "ios": "https://dc.lft.to/lastmile_qr_scan"}, "fusion_lon": 0.0}, {"lat": 38.901538, "is_disabled": 0, "type": "electric_scooter", "lon": -77.0180835, "bike_id": "726d3d81f99e25c81da69f4ee1cecf15", "fusion_lat": 0.0, "name": "726d3d81f99e25c81da69f4ee1cecf15", "is_reserved": 0, "rental_uris": {"android": "https://dc.lft.to/lastmile_qr_scan", "ios": "https://dc.lft.to/lastmile_qr_scan"}, "fusion_lon": 0.0}, {"lat": 38.89819933333333, "is_disabled": 0, "type": "electric_scooter", "lon": -77.02419466666667, "bike_id": "84a97100d724656bc6daf0dcc1343728", "fusion_lat": 0.0, "name": "84a97100d724656bc6daf0dcc1343728", "is_reserved": 0, "rental_uris": {"android": "https://dc.lft.to/lastmile_qr_scan", "ios": "https://dc.lft.to/lastmile_qr_scan"}, "fusion_lon": 0.0}, {"lat": 38.905733833333336, "is_disabled": 0, "type": "electric_scooter", "lon": -77.02209183333333, "bike_id": "f70a541bdd11c766333773e8d0a14ee0", "fusion_lat": 0.0, "name": "f70a541bdd11c766333773e8d0a14ee0", "is_reserved": 0, "rental_uris": {"android": "https://dc.lft.to/lastmile_qr_scan", "ios": "https://dc.lft.to/lastmile_qr_scan"}, "fusion_lon": 0.0}, {"lat": 38.940955333333335, "is_disabled": 0, "type": "electric_scooter", "lon": -77.03277066666666, "bike_id": "8f9e7d9ba7acadc055f69eecfc64e7a9", "fusion_lat": 0.0, "name": "8f9e7d9ba7acadc055f69eecfc64e7a9", "is_reserved": 0, "rental_uris": {"android": "https://dc.lft.to/lastmile_qr_scan", "ios": "https://dc.lft.to/lastmile_qr_scan"}, "fusion_lon": 0.0}, {"lat": 38.8762855, "is_disabled": 0, "type": "electric_scooter", "lon": -76.9652495, "bike_id": "7019101aa5ef206e3f11db4d00eeec8f", "fusion_lat": 0.0, "name": "7019101aa5ef206e3f11db4d00eeec8f", "is_reserved": 0, "rental_uris": {"android": "https://dc.lft.to/lastmile_qr_scan", "ios": "https://dc.lft.to/lastmile_qr_scan"}, "fusion_lon": 0.0}, {"lat": 38.9079535, "is_disabled": 0, "type": "electric_scooter", "lon": -77.034736, "bike_id": "5cc5de4f930f049939b1c24303b052c3", "fusion_lat": 0.0, "name": "5cc5de4f930f049939b1c24303b052c3", "is_reserved": 0, "rental_uris": {"android": "https://dc.lft.to/lastmile_qr_scan", "ios": "https://dc.lft.to/lastmile_qr_scan"}, "fusion_lon": 0.0}, {"lat": 38.93767866666666, "is_disabled": 0, "type": "electric_scooter", "lon": -77.02376783333334, "bike_id": "3a2164a946fb872b9661b2120da88c04", "fusion_lat": 0.0, "name": "3a2164a946fb872b9661b2120da88c04", "is_reserved": 0, "rental_uris": {"android": "https://dc.lft.to/lastmile_qr_scan", "ios": "https://dc.lft.to/lastmile_qr_scan"}, "fusion_lon": 0.0}, {"lat": 38.90729316666667, "is_disabled": 0, "type": "electric_scooter", "lon": -77.04783433333333, "bike_id": "2caafa7fd3aeece2b8e776512a53d9bf", "fusion_lat": 0.0, "name": "2caafa7fd3aeece2b8e776512a53d9bf", "is_reserved": 0, "rental_uris": {"android": "https://dc.lft.to/lastmile_qr_scan", "ios": "https://dc.lft.to/lastmile_qr_scan"}, "fusion_lon": 0.0}, {"lat": 38.925899666666666, "is_disabled": 0, "type": "electric_scooter", "lon": -77.03433816666667, "bike_id": "ec7fcb13104dcf08ab4351ddc23b3459", "fusion_lat": 0.0, "name": "ec7fcb13104dcf08ab4351ddc23b3459", "is_reserved": 0, "rental_uris": {"android": "https://dc.lft.to/lastmile_qr_scan", "ios": "https://dc.lft.to/lastmile_qr_scan"}, "fusion_lon": 0.0}, {"lat": 38.901974, "is_disabled": 0, "type": "electric_scooter", "lon": -77.02166766666667, "bike_id": "5ad5d0501892e3d4051db6ef3fa57c3b", "fusion_lat": 0.0, "name": "5ad5d0501892e3d4051db6ef3fa57c3b", "is_reserved": 0, "rental_uris": {"android": "https://dc.lft.to/lastmile_qr_scan", "ios": "https://dc.lft.to/lastmile_qr_scan"}, "fusion_lon": 0.0}, {"lat": 38.912244, "is_disabled": 0, "type": "electric_scooter", "lon": -77.03441016666666, "bike_id": "db431f6f067c685cb813f4ed0f6453c3", "fusion_lat": 0.0, "name": "db431f6f067c685cb813f4ed0f6453c3", "is_reserved": 0, "rental_uris": {"android": "https://dc.lft.to/lastmile_qr_scan", "ios": "https://dc.lft.to/lastmile_qr_scan"}, "fusion_lon": 0.0}, {"lat": 38.859978, "is_disabled": 0, "type": "electric_scooter", "lon": -76.98536433333334, "bike_id": "616d95ee2707a9592bb635f5834a30ac", "fusion_lat": 0.0, "name": "616d95ee2707a9592bb635f5834a30ac", "is_reserved": 0, "rental_uris": {"android": "https://dc.lft.to/lastmile_qr_scan", "ios": "https://dc.lft.to/lastmile_qr_scan"}, "fusion_lon": 0.0}, {"lat": 38.896256666666666, "is_disabled": 0, "type": "electric_scooter", "lon": -77.04506916666666, "bike_id": "a47965d4e7205aae8e3e3735d2f91502", "fusion_lat": 0.0, "name": "a47965d4e7205aae8e3e3735d2f91502", "is_reserved": 0, "rental_uris": {"android": "https://dc.lft.to/lastmile_qr_scan", "ios": "https://dc.lft.to/lastmile_qr_scan"}, "fusion_lon": 0.0}, {"lat": 38.84292966666667, "is_disabled": 0, "type": "electric_scooter", "lon": -76.99950516666667, "bike_id": "ef06664b152c5e90e0391c95c741e193", "fusion_lat": 0.0, "name": "ef06664b152c5e90e0391c95c741e193", "is_reserved": 0, "rental_uris": {"android": "https://dc.lft.to/lastmile_qr_scan", "ios": "https://dc.lft.to/lastmile_qr_scan"}, "fusion_lon": 0.0}, {"lat": 38.926843833333336, "is_disabled": 0, "type": "electric_scooter", "lon": -77.03795583333333, "bike_id": "561f09c42ff8ae56010c9737716f6c94", "fusion_lat": 0.0, "name": "561f09c42ff8ae56010c9737716f6c94", "is_reserved": 0, "rental_uris": {"android": "https://dc.lft.to/lastmile_qr_scan", "ios": "https://dc.lft.to/lastmile_qr_scan"}, "fusion_lon": 0.0}, {"lat": 38.90029, "is_disabled": 0, "type": "electric_scooter", "lon": -77.0020445, "bike_id": "d3eeb6b0afab02e62cabe52f5510da9a", "fusion_lat": 0.0, "name": "d3eeb6b0afab02e62cabe52f5510da9a", "is_reserved": 0, "rental_uris": {"android": "https://dc.lft.to/lastmile_qr_scan", "ios": "https://dc.lft.to/lastmile_qr_scan"}, "fusion_lon": 0.0}, {"lat": 38.92605533333333, "is_disabled": 0, "type": "electric_scooter", "lon": -77.05695283333333, "bike_id": "acf2c07a2e5963a4a0b91aab29db1399", "fusion_lat": 0.0, "name": "acf2c07a2e5963a4a0b91aab29db1399", "is_reserved": 0, "rental_uris": {"android": "https://dc.lft.to/lastmile_qr_scan", "ios": "https://dc.lft.to/lastmile_qr_scan"}, "fusion_lon": 0.0}, {"lat": 38.945963, "is_disabled": 0, "type": "electric_scooter", "lon": -77.07037483333333, "bike_id": "3c9bd57a80b2eaa26266d10da8526fa0", "fusion_lat": 0.0, "name": "3c9bd57a80b2eaa26266d10da8526fa0", "is_reserved": 0, "rental_uris": {"android": "https://dc.lft.to/lastmile_qr_scan", "ios": "https://dc.lft.to/lastmile_qr_scan"}, "fusion_lon": 0.0}, {"lat": 38.903965, "is_disabled": 0, "type": "electric_scooter", "lon": -77.05323816666667, "bike_id": "e2110d873685fb4e83ca2dfeb3e34c91", "fusion_lat": 0.0, "name": "e2110d873685fb4e83ca2dfeb3e34c91", "is_reserved": 0, "rental_uris": {"android": "https://dc.lft.to/lastmile_qr_scan", "ios": "https://dc.lft.to/lastmile_qr_scan"}, "fusion_lon": 0.0}, {"lat": 38.8936095, "is_disabled": 0, "type": "electric_scooter", "lon": -76.99106816666666, "bike_id": "576bf03ded97e4437865d1eaeeede925", "fusion_lat": 0.0, "name": "576bf03ded97e4437865d1eaeeede925", "is_reserved": 0, "rental_uris": {"android": "https://dc.lft.to/lastmile_qr_scan", "ios": "https://dc.lft.to/lastmile_qr_scan"}, "fusion_lon": 0.0}, {"lat": 38.921063833333335, "is_disabled": 0, "type": "electric_scooter", "lon": -77.04218616666667, "bike_id": "83d35f2ba1aa9a04de7b1b8359d437c4", "fusion_lat": 0.0, "name": "83d35f2ba1aa9a04de7b1b8359d437c4", "is_reserved": 0, "rental_uris": {"android": "https://dc.lft.to/lastmile_qr_scan", "ios": "https://dc.lft.to/lastmile_qr_scan"}, "fusion_lon": 0.0}, {"lat": 38.915539333333335, "is_disabled": 0, "type": "electric_scooter", "lon": -77.009754, "bike_id": "201672e73644ecc4322fc58d6f26f266", "fusion_lat": 0.0, "name": "201672e73644ecc4322fc58d6f26f266", "is_reserved": 0, "rental_uris": {"android": "https://dc.lft.to/lastmile_qr_scan", "ios": "https://dc.lft.to/lastmile_qr_scan"}, "fusion_lon": 0.0}, {"lat": 38.854346, "is_disabled": 0, "type": "electric_bike", "lon": -76.90972933333333, "bike_id": "7b861e7bdc981f4ff8964904aaa0e6eb", "fusion_lat": 0.0, "name": "7b861e7bdc981f4ff8964904aaa0e6eb", "is_reserved": 0, "rental_uris": {"android": "https://dc.lft.to/lastmile_qr_scan", "ios": "https://dc.lft.to/lastmile_qr_scan"}, "fusion_lon": 0.0}, {"lat": 38.90489216666667, "is_disabled": 0, "type": "electric_scooter", "lon": -76.99542466666666, "bike_id": "cff366c2562819d699e0870626479804", "fusion_lat": 0.0, "name": "cff366c2562819d699e0870626479804", "is_reserved": 0, "rental_uris": {"android": "https://dc.lft.to/lastmile_qr_scan", "ios": "https://dc.lft.to/lastmile_qr_scan"}, "fusion_lon": 0.0}, {"lat": 38.92386716666667, "is_disabled": 0, "type": "electric_scooter", "lon": -77.02762966666667, "bike_id": "6c5b884ba2480587240b65a368ca9d61", "fusion_lat": 0.0, "name": "6c5b884ba2480587240b65a368ca9d61", "is_reserved": 0, "rental_uris": {"android": "https://dc.lft.to/lastmile_qr_scan", "ios": "https://dc.lft.to/lastmile_qr_scan"}, "fusion_lon": 0.0}, {"lat": 38.918776666666666, "is_disabled": 0, "type": "electric_scooter", "lon": -77.03504083333333, "bike_id": "7e28edcace8af00bfac35e634d45be13", "fusion_lat": 0.0, "name": "7e28edcace8af00bfac35e634d45be13", "is_reserved": 0, "rental_uris": {"android": "https://dc.lft.to/lastmile_qr_scan", "ios": "https://dc.lft.to/lastmile_qr_scan"}, "fusion_lon": 0.0}, {"lat": 38.877456, "is_disabled": 0, "type": "electric_bike", "lon": -76.995195, "bike_id": "8322c9b1e904aebe19034a500eb0e233", "fusion_lat": 0.0, "name": "8322c9b1e904aebe19034a500eb0e233", "is_reserved": 0, "rental_uris": {"android": "https://dc.lft.to/lastmile_qr_scan", "ios": "https://dc.lft.to/lastmile_qr_scan"}, "fusion_lon": 0.0}, {"lat": 38.84425, "is_disabled": 0, "type": "electric_scooter", "lon": -76.99778166666667, "bike_id": "eb2973c24abe51808f7a9838a461dbd7", "fusion_lat": 0.0, "name": "eb2973c24abe51808f7a9838a461dbd7", "is_reserved": 0, "rental_uris": {"android": "https://dc.lft.to/lastmile_qr_scan", "ios": "https://dc.lft.to/lastmile_qr_scan"}, "fusion_lon": 0.0}, {"lat": 38.81043483333333, "is_disabled": 0, "type": "electric_bike", "lon": -77.08503833333333, "bike_id": "2a03c0f7a402ecdea768c8bd0831471e", "fusion_lat": 0.0, "name": "2a03c0f7a402ecdea768c8bd0831471e", "is_reserved": 0, "rental_uris": {"android": "https://dc.lft.to/lastmile_qr_scan", "ios": "https://dc.lft.to/lastmile_qr_scan"}, "fusion_lon": 0.0}, {"lat": 38.856464833333334, "is_disabled": 0, "type": "electric_bike", "lon": -77.11249416666666, "bike_id": "0be6bf7b96177e9b092ae57894c20776", "fusion_lat": 0.0, "name": "0be6bf7b96177e9b092ae57894c20776", "is_reserved": 0, "rental_uris": {"android": "https://dc.lft.to/lastmile_qr_scan", "ios": "https://dc.lft.to/lastmile_qr_scan"}, "fusion_lon": 0.0}, {"lat": 38.87691433333333, "is_disabled": 0, "type": "electric_scooter", "lon": -77.01677816666667, "bike_id": "b297d4c9e7d8441b0f826b376b1d5dd7", "fusion_lat": 0.0, "name": "b297d4c9e7d8441b0f826b376b1d5dd7", "is_reserved": 0, "rental_uris": {"android": "https://dc.lft.to/lastmile_qr_scan", "ios": "https://dc.lft.to/lastmile_qr_scan"}, "fusion_lon": 0.0}, {"lat": 38.884198166666664, "is_disabled": 0, "type": "electric_scooter", "lon": -77.0240485, "bike_id": "17fc3adb79aa9ca61337c3a18f8f8c0e", "fusion_lat": 0.0, "name": "17fc3adb79aa9ca61337c3a18f8f8c0e", "is_reserved": 0, "rental_uris": {"android": "https://dc.lft.to/lastmile_qr_scan", "ios": "https://dc.lft.to/lastmile_qr_scan"}, "fusion_lon": 0.0}, {"lat": 38.929779333333336, "is_disabled": 0, "type": "electric_scooter", "lon": -77.0383335, "bike_id": "4546f7c67c5e7d5ecbb772bf1aad3b81", "fusion_lat": 0.0, "name": "4546f7c67c5e7d5ecbb772bf1aad3b81", "is_reserved": 0, "rental_uris": {"android": "https://dc.lft.to/lastmile_qr_scan", "ios": "https://dc.lft.to/lastmile_qr_scan"}, "fusion_lon": 0.0}, {"lat": 38.910356666666665, "is_disabled": 0, "type": "electric_scooter", "lon": -77.04119383333334, "bike_id": "aa42f622967aa4f606eed0482c076d9f", "fusion_lat": 0.0, "name": "aa42f622967aa4f606eed0482c076d9f", "is_reserved": 0, "rental_uris": {"android": "https://dc.lft.to/lastmile_qr_scan", "ios": "https://dc.lft.to/lastmile_qr_scan"}, "fusion_lon": 0.0}, {"lat": 38.882665, "is_disabled": 0, "type": "electric_scooter", "lon": -76.98823483333334, "bike_id": "3ab3067183f348666b61de206a3fc2ae", "fusion_lat": 0.0, "name": "3ab3067183f348666b61de206a3fc2ae", "is_reserved": 0, "rental_uris": {"android": "https://dc.lft.to/lastmile_qr_scan", "ios": "https://dc.lft.to/lastmile_qr_scan"}, "fusion_lon": 0.0}, {"lat": 38.91062766666667, "is_disabled": 0, "type": "electric_scooter", "lon": -77.029143, "bike_id": "2acfc0483682a515f7d477c53b241dff", "fusion_lat": 0.0, "name": "2acfc0483682a515f7d477c53b241dff", "is_reserved": 0, "rental_uris": {"android": "https://dc.lft.to/lastmile_qr_scan", "ios": "https://dc.lft.to/lastmile_qr_scan"}, "fusion_lon": 0.0}, {"lat": 38.93598183333334, "is_disabled": 0, "type": "electric_scooter", "lon": -77.056345, "bike_id": "9afac8997b727c0a8dee7d988de9e881", "fusion_lat": 0.0, "name": "9afac8997b727c0a8dee7d988de9e881", "is_reserved": 0, "rental_uris": {"android": "https://dc.lft.to/lastmile_qr_scan", "ios": "https://dc.lft.to/lastmile_qr_scan"}, "fusion_lon": 0.0}, {"lat": 38.905128500000004, "is_disabled": 0, "type": "electric_scooter", "lon": -77.0447575, "bike_id": "ff8e4401bc358d8eb1a1b5ab50a2feb0", "fusion_lat": 0.0, "name": "ff8e4401bc358d8eb1a1b5ab50a2feb0", "is_reserved": 0, "rental_uris": {"android": "https://dc.lft.to/lastmile_qr_scan", "ios": "https://dc.lft.to/lastmile_qr_scan"}, "fusion_lon": 0.0}, {"lat": 38.90369966666667, "is_disabled": 0, "type": "electric_scooter", "lon": -77.0409095, "bike_id": "a999be4a6a36432c18c23331d5659d63", "fusion_lat": 0.0, "name": "a999be4a6a36432c18c23331d5659d63", "is_reserved": 0, "rental_uris": {"android": "https://dc.lft.to/lastmile_qr_scan", "ios": "https://dc.lft.to/lastmile_qr_scan"}, "fusion_lon": 0.0}, {"lat": 38.91709383333333, "is_disabled": 0, "type": "electric_scooter", "lon": -77.04029816666667, "bike_id": "ddb65da88869581560aad4558393b7ab", "fusion_lat": 0.0, "name": "ddb65da88869581560aad4558393b7ab", "is_reserved": 0, "rental_uris": {"android": "https://dc.lft.to/lastmile_qr_scan", "ios": "https://dc.lft.to/lastmile_qr_scan"}, "fusion_lon": 0.0}, {"lat": 38.91916666666667, "is_disabled": 0, "type": "electric_scooter", "lon": -77.03199666666667, "bike_id": "e1502124abf3e68d0f52945d2bd3ce81", "fusion_lat": 0.0, "name": "e1502124abf3e68d0f52945d2bd3ce81", "is_reserved": 0, "rental_uris": {"android": "https://dc.lft.to/lastmile_qr_scan", "ios": "https://dc.lft.to/lastmile_qr_scan"}, "fusion_lon": 0.0}, {"lat": 38.90734466666667, "is_disabled": 0, "type": "electric_scooter", "lon": -77.02375033333334, "bike_id": "c84a0ca6ce55c712cc99386225d10eee", "fusion_lat": 0.0, "name": "c84a0ca6ce55c712cc99386225d10eee", "is_reserved": 0, "rental_uris": {"android": "https://dc.lft.to/lastmile_qr_scan", "ios": "https://dc.lft.to/lastmile_qr_scan"}, "fusion_lon": 0.0}, {"lat": 38.9333545, "is_disabled": 0, "type": "electric_scooter", "lon": -77.05707233333334, "bike_id": "65b15dd1b6e7fea629b26014ddad260b", "fusion_lat": 0.0, "name": "65b15dd1b6e7fea629b26014ddad260b", "is_reserved": 0, "rental_uris": {"android": "https://dc.lft.to/lastmile_qr_scan", "ios": "https://dc.lft.to/lastmile_qr_scan"}, "fusion_lon": 0.0}, {"lat": 38.91171833333333, "is_disabled": 0, "type": "electric_scooter", "lon": -77.0386605, "bike_id": "8ce4e8c3011ca8cbd2ea28a2f0e0458f", "fusion_lat": 0.0, "name": "8ce4e8c3011ca8cbd2ea28a2f0e0458f", "is_reserved": 0, "rental_uris": {"android": "https://dc.lft.to/lastmile_qr_scan", "ios": "https://dc.lft.to/lastmile_qr_scan"}, "fusion_lon": 0.0}, {"lat": 38.921256666666665, "is_disabled": 0, "type": "electric_scooter", "lon": -77.04007866666667, "bike_id": "53384440f880c1217ee96be96ba2ca65", "fusion_lat": 0.0, "name": "53384440f880c1217ee96be96ba2ca65", "is_reserved": 0, "rental_uris": {"android": "https://dc.lft.to/lastmile_qr_scan", "ios": "https://dc.lft.to/lastmile_qr_scan"}, "fusion_lon": 0.0}, {"lat": 38.845726666666664, "is_disabled": 0, "type": "electric_bike", "lon": -77.09621883333334, "bike_id": "d6a2eaa22c10a8694ae5f49bb90b254e", "fusion_lat": 0.0, "name": "d6a2eaa22c10a8694ae5f49bb90b254e", "is_reserved": 0, "rental_uris": {"android": "https://dc.lft.to/lastmile_qr_scan", "ios": "https://dc.lft.to/lastmile_qr_scan"}, "fusion_lon": 0.0}, {"lat": 38.93442533333333, "is_disabled": 0, "type": "electric_scooter", "lon": -77.0386865, "bike_id": "35f05a5552937ea067af1f392bbba43d", "fusion_lat": 0.0, "name": "35f05a5552937ea067af1f392bbba43d", "is_reserved": 0, "rental_uris": {"android": "https://dc.lft.to/lastmile_qr_scan", "ios": "https://dc.lft.to/lastmile_qr_scan"}, "fusion_lon": 0.0}, {"lat": 38.836808166666664, "is_disabled": 0, "type": "electric_scooter", "lon": -77.1030485, "bike_id": "b76ea1a0872c21c14d9614f8d0c3f1b1", "fusion_lat": 0.0, "name": "b76ea1a0872c21c14d9614f8d0c3f1b1", "is_reserved": 0, "rental_uris": {"android": "https://dc.lft.to/lastmile_qr_scan", "ios": "https://dc.lft.to/lastmile_qr_scan"}, "fusion_lon": 0.0}, {"lat": 38.902361, "is_disabled": 0, "type": "electric_scooter", "lon": -77.05328566666667, "bike_id": "f5b2b4b806fb9f84bc590483b71ff420", "fusion_lat": 0.0, "name": "f5b2b4b806fb9f84bc590483b71ff420", "is_reserved": 0, "rental_uris": {"android": "https://dc.lft.to/lastmile_qr_scan", "ios": "https://dc.lft.to/lastmile_qr_scan"}, "fusion_lon": 0.0}, {"lat": 38.9207125, "is_disabled": 0, "type": "electric_scooter", "lon": -77.024239, "bike_id": "321dd8e52bf379e82d40eed48d6dbf5b", "fusion_lat": 0.0, "name": "321dd8e52bf379e82d40eed48d6dbf5b", "is_reserved": 0, "rental_uris": {"android": "https://dc.lft.to/lastmile_qr_scan", "ios": "https://dc.lft.to/lastmile_qr_scan"}, "fusion_lon": 0.0}, {"lat": 38.867113333333336, "is_disabled": 0, "type": "electric_scooter", "lon": -76.98725616666667, "bike_id": "4ca2625129c36ba252aaa7f56f8c9cb3", "fusion_lat": 0.0, "name": "4ca2625129c36ba252aaa7f56f8c9cb3", "is_reserved": 0, "rental_uris": {"android": "https://dc.lft.to/lastmile_qr_scan", "ios": "https://dc.lft.to/lastmile_qr_scan"}, "fusion_lon": 0.0}, {"lat": 38.904704833333334, "is_disabled": 0, "type": "electric_scooter", "lon": -77.00720983333333, "bike_id": "ab3260e06a9ac64585e9a6f3d2d3f2fd", "fusion_lat": 0.0, "name": "ab3260e06a9ac64585e9a6f3d2d3f2fd", "is_reserved": 0, "rental_uris": {"android": "https://dc.lft.to/lastmile_qr_scan", "ios": "https://dc.lft.to/lastmile_qr_scan"}, "fusion_lon": 0.0}, {"lat": 38.88430283333334, "is_disabled": 0, "type": "electric_bike", "lon": -76.95753833333333, "bike_id": "20fdd9043020541adc01d10afbb07d4f", "fusion_lat": 0.0, "name": "20fdd9043020541adc01d10afbb07d4f", "is_reserved": 0, "rental_uris": {"android": "https://dc.lft.to/lastmile_qr_scan", "ios": "https://dc.lft.to/lastmile_qr_scan"}, "fusion_lon": 0.0}, {"lat": 38.90006233333333, "is_disabled": 0, "type": "electric_scooter", "lon": -76.988094, "bike_id": "6db8fced4aff59d60d4ffc4d74e46c39", "fusion_lat": 0.0, "name": "6db8fced4aff59d60d4ffc4d74e46c39", "is_reserved": 0, "rental_uris": {"android": "https://dc.lft.to/lastmile_qr_scan", "ios": "https://dc.lft.to/lastmile_qr_scan"}, "fusion_lon": 0.0}, {"lat": 38.87149133333333, "is_disabled": 0, "type": "electric_bike", "lon": -76.936976, "bike_id": "d26364f904801862aa9cc602f18bfe30", "fusion_lat": 0.0, "name": "d26364f904801862aa9cc602f18bfe30", "is_reserved": 0, "rental_uris": {"android": "https://dc.lft.to/lastmile_qr_scan", "ios": "https://dc.lft.to/lastmile_qr_scan"}, "fusion_lon": 0.0}, {"lat": 38.91169933333333, "is_disabled": 0, "type": "electric_bike", "lon": -77.00273416666667, "bike_id": "4b1f9f1ff8668307dbd2a9de3645aed9", "fusion_lat": 0.0, "name": "4b1f9f1ff8668307dbd2a9de3645aed9", "is_reserved": 0, "rental_uris": {"android": "https://dc.lft.to/lastmile_qr_scan", "ios": "https://dc.lft.to/lastmile_qr_scan"}, "fusion_lon": 0.0}, {"lat": 38.91631783333333, "is_disabled": 0, "type": "electric_scooter", "lon": -77.03271533333333, "bike_id": "7c0ac3ef23c70bb398b541c5f92844d9", "fusion_lat": 0.0, "name": "7c0ac3ef23c70bb398b541c5f92844d9", "is_reserved": 0, "rental_uris": {"android": "https://dc.lft.to/lastmile_qr_scan", "ios": "https://dc.lft.to/lastmile_qr_scan"}, "fusion_lon": 0.0}, {"lat": 38.930905, "is_disabled": 0, "type": "electric_scooter", "lon": -77.034779, "bike_id": "beccd3b0fd43c20c5a81f6cc1fe52ffa", "fusion_lat": 0.0, "name": "beccd3b0fd43c20c5a81f6cc1fe52ffa", "is_reserved": 0, "rental_uris": {"android": "https://dc.lft.to/lastmile_qr_scan", "ios": "https://dc.lft.to/lastmile_qr_scan"}, "fusion_lon": 0.0}, {"lat": 38.9309525, "is_disabled": 0, "type": "electric_scooter", "lon": -77.02506966666667, "bike_id": "6dd44c2cfbae1dd99a5392172596991f", "fusion_lat": 0.0, "name": "6dd44c2cfbae1dd99a5392172596991f", "is_reserved": 0, "rental_uris": {"android": "https://dc.lft.to/lastmile_qr_scan", "ios": "https://dc.lft.to/lastmile_qr_scan"}, "fusion_lon": 0.0}, {"lat": 38.9016615, "is_disabled": 0, "type": "electric_scooter", "lon": -76.9808605, "bike_id": "f89490db81aa4501f7f22119662b796f", "fusion_lat": 0.0, "name": "f89490db81aa4501f7f22119662b796f", "is_reserved": 0, "rental_uris": {"android": "https://dc.lft.to/lastmile_qr_scan", "ios": "https://dc.lft.to/lastmile_qr_scan"}, "fusion_lon": 0.0}, {"lat": 38.87152066666667, "is_disabled": 0, "type": "electric_scooter", "lon": -77.01315416666667, "bike_id": "8155eae9f96c18f404daf16784380d6f", "fusion_lat": 0.0, "name": "8155eae9f96c18f404daf16784380d6f", "is_reserved": 0, "rental_uris": {"android": "https://dc.lft.to/lastmile_qr_scan", "ios": "https://dc.lft.to/lastmile_qr_scan"}, "fusion_lon": 0.0}, {"lat": 38.883646666666664, "is_disabled": 0, "type": "electric_scooter", "lon": -76.9950555, "bike_id": "9b5408fa4bca2d3493a8c059b1287d7e", "fusion_lat": 0.0, "name": "9b5408fa4bca2d3493a8c059b1287d7e", "is_reserved": 0, "rental_uris": {"android": "https://dc.lft.to/lastmile_qr_scan", "ios": "https://dc.lft.to/lastmile_qr_scan"}, "fusion_lon": 0.0}, {"lat": 38.88798966666667, "is_disabled": 0, "type": "electric_scooter", "lon": -76.93360683333333, "bike_id": "05bf8a4c4d9f9f99cbb86bb3c4234493", "fusion_lat": 0.0, "name": "05bf8a4c4d9f9f99cbb86bb3c4234493", "is_reserved": 0, "rental_uris": {"android": "https://dc.lft.to/lastmile_qr_scan", "ios": "https://dc.lft.to/lastmile_qr_scan"}, "fusion_lon": 0.0}, {"lat": 38.827855666666665, "is_disabled": 0, "type": "electric_bike", "lon": -77.00916966666666, "bike_id": "24fb59a2d5c3dc050c51c6105c20ba3e", "fusion_lat": 0.0, "name": "24fb59a2d5c3dc050c51c6105c20ba3e", "is_reserved": 0, "rental_uris": {"android": "https://dc.lft.to/lastmile_qr_scan", "ios": "https://dc.lft.to/lastmile_qr_scan"}, "fusion_lon": 0.0}, {"lat": 38.9660795, "is_disabled": 0, "type": "electric_scooter", "lon": -77.0231955, "bike_id": "44c21e361ea9f4f88b445fcb7b398eca", "fusion_lat": 0.0, "name": "44c21e361ea9f4f88b445fcb7b398eca", "is_reserved": 0, "rental_uris": {"android": "https://dc.lft.to/lastmile_qr_scan", "ios": "https://dc.lft.to/lastmile_qr_scan"}, "fusion_lon": 0.0}, {"lat": 38.8809125, "is_disabled": 0, "type": "electric_scooter", "lon": -76.99265983333333, "bike_id": "9652c74544bf2a6a7a30489b77f9ab7d", "fusion_lat": 0.0, "name": "9652c74544bf2a6a7a30489b77f9ab7d", "is_reserved": 0, "rental_uris": {"android": "https://dc.lft.to/lastmile_qr_scan", "ios": "https://dc.lft.to/lastmile_qr_scan"}, "fusion_lon": 0.0}, {"lat": 38.92248516666667, "is_disabled": 0, "type": "electric_scooter", "lon": -77.01974216666666, "bike_id": "1c746917f233a53ea295c8ac9f3c4970", "fusion_lat": 0.0, "name": "1c746917f233a53ea295c8ac9f3c4970", "is_reserved": 0, "rental_uris": {"android": "https://dc.lft.to/lastmile_qr_scan", "ios": "https://dc.lft.to/lastmile_qr_scan"}, "fusion_lon": 0.0}, {"lat": 38.93893083333333, "is_disabled": 0, "type": "electric_scooter", "lon": -77.03326416666667, "bike_id": "1f82c818a702735506101a76a3a9e500", "fusion_lat": 0.0, "name": "1f82c818a702735506101a76a3a9e500", "is_reserved": 0, "rental_uris": {"android": "https://dc.lft.to/lastmile_qr_scan", "ios": "https://dc.lft.to/lastmile_qr_scan"}, "fusion_lon": 0.0}, {"lat": 38.9006055, "is_disabled": 0, "type": "electric_scooter", "lon": -77.00758583333334, "bike_id": "0c84e649e92ebb6390b5af78238d536b", "fusion_lat": 0.0, "name": "0c84e649e92ebb6390b5af78238d536b", "is_reserved": 0, "rental_uris": {"android": "https://dc.lft.to/lastmile_qr_scan", "ios": "https://dc.lft.to/lastmile_qr_scan"}, "fusion_lon": 0.0}, {"lat": 38.92714183333333, "is_disabled": 0, "type": "electric_bike", "lon": -77.0134165, "bike_id": "7aae1b81308a6200241799cc8599c1fa", "fusion_lat": 0.0, "name": "7aae1b81308a6200241799cc8599c1fa", "is_reserved": 0, "rental_uris": {"android": "https://dc.lft.to/lastmile_qr_scan", "ios": "https://dc.lft.to/lastmile_qr_scan"}, "fusion_lon": 0.0}, {"lat": 38.984312833333334, "is_disabled": 0, "type": "electric_scooter", "lon": -77.02672166666666, "bike_id": "0f7700bf5116e3387dd3250d1c322397", "fusion_lat": 0.0, "name": "0f7700bf5116e3387dd3250d1c322397", "is_reserved": 0, "rental_uris": {"android": "https://dc.lft.to/lastmile_qr_scan", "ios": "https://dc.lft.to/lastmile_qr_scan"}, "fusion_lon": 0.0}, {"lat": 38.909536833333334, "is_disabled": 0, "type": "electric_scooter", "lon": -77.04801, "bike_id": "cbeae226bdfb29d1b0147fff51e53d44", "fusion_lat": 0.0, "name": "cbeae226bdfb29d1b0147fff51e53d44", "is_reserved": 0, "rental_uris": {"android": "https://dc.lft.to/lastmile_qr_scan", "ios": "https://dc.lft.to/lastmile_qr_scan"}, "fusion_lon": 0.0}, {"lat": 38.9566675, "is_disabled": 0, "type": "electric_bike", "lon": -77.01158233333334, "bike_id": "c462595b3236721391e1a36c8402a911", "fusion_lat": 0.0, "name": "c462595b3236721391e1a36c8402a911", "is_reserved": 0, "rental_uris": {"android": "https://dc.lft.to/lastmile_qr_scan", "ios": "https://dc.lft.to/lastmile_qr_scan"}, "fusion_lon": 0.0}, {"lat": 38.931944666666666, "is_disabled": 0, "type": "electric_scooter", "lon": -77.02570466666667, "bike_id": "7fcd9b03826055b6012fa8d889cfe4a3", "fusion_lat": 0.0, "name": "7fcd9b03826055b6012fa8d889cfe4a3", "is_reserved": 0, "rental_uris": {"android": "https://dc.lft.to/lastmile_qr_scan", "ios": "https://dc.lft.to/lastmile_qr_scan"}, "fusion_lon": 0.0}, {"lat": 38.89625483333333, "is_disabled": 0, "type": "electric_scooter", "lon": -77.033035, "bike_id": "613f425a86a6ce7efb9e6f7006b17a88", "fusion_lat": 0.0, "name": "613f425a86a6ce7efb9e6f7006b17a88", "is_reserved": 0, "rental_uris": {"android": "https://dc.lft.to/lastmile_qr_scan", "ios": "https://dc.lft.to/lastmile_qr_scan"}, "fusion_lon": 0.0}, {"lat": 38.8972205, "is_disabled": 0, "type": "electric_scooter", "lon": -77.02795133333333, "bike_id": "3cca8690789c3fcccddc6008ce6e8a86", "fusion_lat": 0.0, "name": "3cca8690789c3fcccddc6008ce6e8a86", "is_reserved": 0, "rental_uris": {"android": "https://dc.lft.to/lastmile_qr_scan", "ios": "https://dc.lft.to/lastmile_qr_scan"}, "fusion_lon": 0.0}, {"lat": 38.90947333333333, "is_disabled": 0, "type": "electric_scooter", "lon": -77.04644916666666, "bike_id": "c8ac5fe8f8446a05cf00ea60ba64fe4d", "fusion_lat": 0.0, "name": "c8ac5fe8f8446a05cf00ea60ba64fe4d", "is_reserved": 0, "rental_uris": {"android": "https://dc.lft.to/lastmile_qr_scan", "ios": "https://dc.lft.to/lastmile_qr_scan"}, "fusion_lon": 0.0}, {"lat": 38.939468166666664, "is_disabled": 0, "type": "electric_scooter", "lon": -77.021783, "bike_id": "bc499d617d7d33bffb105734a426be18", "fusion_lat": 0.0, "name": "bc499d617d7d33bffb105734a426be18", "is_reserved": 0, "rental_uris": {"android": "https://dc.lft.to/lastmile_qr_scan", "ios": "https://dc.lft.to/lastmile_qr_scan"}, "fusion_lon": 0.0}, {"lat": 38.86288966666667, "is_disabled": 0, "type": "electric_scooter", "lon": -76.99233066666666, "bike_id": "0c9137570a4cc80925c6655d5846b4fd", "fusion_lat": 0.0, "name": "0c9137570a4cc80925c6655d5846b4fd", "is_reserved": 0, "rental_uris": {"android": "https://dc.lft.to/lastmile_qr_scan", "ios": "https://dc.lft.to/lastmile_qr_scan"}, "fusion_lon": 0.0}, {"lat": 39.094385, "is_disabled": 0, "type": "electric_bike", "lon": -77.13460116666667, "bike_id": "93ea0e87e030106f1412ea92342fef6d", "fusion_lat": 0.0, "name": "93ea0e87e030106f1412ea92342fef6d", "is_reserved": 0, "rental_uris": {"android": "https://dc.lft.to/lastmile_qr_scan", "ios": "https://dc.lft.to/lastmile_qr_scan"}, "fusion_lon": 0.0}, {"lat": 38.898452166666665, "is_disabled": 0, "type": "electric_scooter", "lon": -76.944694, "bike_id": "44b3dfe0b4c50db0f633cc238fc424ea", "fusion_lat": 0.0, "name": "44b3dfe0b4c50db0f633cc238fc424ea", "is_reserved": 0, "rental_uris": {"android": "https://dc.lft.to/lastmile_qr_scan", "ios": "https://dc.lft.to/lastmile_qr_scan"}, "fusion_lon": 0.0}, {"lat": 38.923285166666666, "is_disabled": 0, "type": "electric_scooter", "lon": -77.044532, "bike_id": "487f37baca6e3d53a24e4f42eff48605", "fusion_lat": 0.0, "name": "487f37baca6e3d53a24e4f42eff48605", "is_reserved": 0, "rental_uris": {"android": "https://dc.lft.to/lastmile_qr_scan", "ios": "https://dc.lft.to/lastmile_qr_scan"}, "fusion_lon": 0.0}, {"lat": 38.924402, "is_disabled": 0, "type": "electric_scooter", "lon": -77.03375316666667, "bike_id": "36ea664acdd0e5c253c3c8837986326f", "fusion_lat": 0.0, "name": "36ea664acdd0e5c253c3c8837986326f", "is_reserved": 0, "rental_uris": {"android": "https://dc.lft.to/lastmile_qr_scan", "ios": "https://dc.lft.to/lastmile_qr_scan"}, "fusion_lon": 0.0}, {"lat": 38.919868666666666, "is_disabled": 0, "type": "electric_scooter", "lon": -77.041065, "bike_id": "64e822be904913072dffbe76c66e1a5a", "fusion_lat": 0.0, "name": "64e822be904913072dffbe76c66e1a5a", "is_reserved": 0, "rental_uris": {"android": "https://dc.lft.to/lastmile_qr_scan", "ios": "https://dc.lft.to/lastmile_qr_scan"}, "fusion_lon": 0.0}, {"lat": 38.941287, "is_disabled": 0, "type": "electric_bike", "lon": -76.9962865, "bike_id": "a85247ca4632f87c566731b99a154360", "fusion_lat": 0.0, "name": "a85247ca4632f87c566731b99a154360", "is_reserved": 0, "rental_uris": {"android": "https://dc.lft.to/lastmile_qr_scan", "ios": "https://dc.lft.to/lastmile_qr_scan"}, "fusion_lon": 0.0}, {"lat": 38.90686, "is_disabled": 0, "type": "electric_scooter", "lon": -77.03633233333333, "bike_id": "7220cf09bfd3d286c3ca1a9a161dc273", "fusion_lat": 0.0, "name": "7220cf09bfd3d286c3ca1a9a161dc273", "is_reserved": 0, "rental_uris": {"android": "https://dc.lft.to/lastmile_qr_scan", "ios": "https://dc.lft.to/lastmile_qr_scan"}, "fusion_lon": 0.0}, {"lat": 38.8952405, "is_disabled": 0, "type": "electric_scooter", "lon": -77.0435435, "bike_id": "eb65811160d9b3fa88ddee623514650c", "fusion_lat": 0.0, "name": "eb65811160d9b3fa88ddee623514650c", "is_reserved": 0, "rental_uris": {"android": "https://dc.lft.to/lastmile_qr_scan", "ios": "https://dc.lft.to/lastmile_qr_scan"}, "fusion_lon": 0.0}, {"lat": 38.86559883333334, "is_disabled": 0, "type": "electric_scooter", "lon": -76.98949066666667, "bike_id": "6af1c9105737cdb0bb3aee21e40721d0", "fusion_lat": 0.0, "name": "6af1c9105737cdb0bb3aee21e40721d0", "is_reserved": 0, "rental_uris": {"android": "https://dc.lft.to/lastmile_qr_scan", "ios": "https://dc.lft.to/lastmile_qr_scan"}, "fusion_lon": 0.0}, {"lat": 38.88734516666667, "is_disabled": 0, "type": "electric_scooter", "lon": -77.03217516666666, "bike_id": "ea69a2a3e5c703db3e7c613e9871c228", "fusion_lat": 0.0, "name": "ea69a2a3e5c703db3e7c613e9871c228", "is_reserved": 0, "rental_uris": {"android": "https://dc.lft.to/lastmile_qr_scan", "ios": "https://dc.lft.to/lastmile_qr_scan"}, "fusion_lon": 0.0}, {"lat": 38.955699, "is_disabled": 0, "type": "electric_scooter", "lon": -77.0223175, "bike_id": "bfd0217470cc7aefc27594af96430145", "fusion_lat": 0.0, "name": "bfd0217470cc7aefc27594af96430145", "is_reserved": 0, "rental_uris": {"android": "https://dc.lft.to/lastmile_qr_scan", "ios": "https://dc.lft.to/lastmile_qr_scan"}, "fusion_lon": 0.0}, {"lat": 38.909171, "is_disabled": 0, "type": "electric_scooter", "lon": -77.03642333333333, "bike_id": "a326e4cd1ecacbbe562d966687e26973", "fusion_lat": 0.0, "name": "a326e4cd1ecacbbe562d966687e26973", "is_reserved": 0, "rental_uris": {"android": "https://dc.lft.to/lastmile_qr_scan", "ios": "https://dc.lft.to/lastmile_qr_scan"}, "fusion_lon": 0.0}, {"lat": 38.9387925, "is_disabled": 0, "type": "electric_scooter", "lon": -77.02441483333334, "bike_id": "610510cd49b982bbd28d1983a98c4946", "fusion_lat": 0.0, "name": "610510cd49b982bbd28d1983a98c4946", "is_reserved": 0, "rental_uris": {"android": "https://dc.lft.to/lastmile_qr_scan", "ios": "https://dc.lft.to/lastmile_qr_scan"}, "fusion_lon": 0.0}, {"lat": 38.89043366666667, "is_disabled": 0, "type": "electric_scooter", "lon": -76.98988716666666, "bike_id": "c0f10fbd13c91c278fbbe1ebdd32bf0d", "fusion_lat": 0.0, "name": "c0f10fbd13c91c278fbbe1ebdd32bf0d", "is_reserved": 0, "rental_uris": {"android": "https://dc.lft.to/lastmile_qr_scan", "ios": "https://dc.lft.to/lastmile_qr_scan"}, "fusion_lon": 0.0}, {"lat": 38.872452, "is_disabled": 0, "type": "electric_scooter", "lon": -76.977268, "bike_id": "a180357792a93626d5d25223e8f77d10", "fusion_lat": 0.0, "name": "a180357792a93626d5d25223e8f77d10", "is_reserved": 0, "rental_uris": {"android": "https://dc.lft.to/lastmile_qr_scan", "ios": "https://dc.lft.to/lastmile_qr_scan"}, "fusion_lon": 0.0}, {"lat": 38.92247316666667, "is_disabled": 0, "type": "electric_scooter", "lon": -77.01936233333333, "bike_id": "da66ad8c2b32c74a5172f684e0bef002", "fusion_lat": 0.0, "name": "da66ad8c2b32c74a5172f684e0bef002", "is_reserved": 0, "rental_uris": {"android": "https://dc.lft.to/lastmile_qr_scan", "ios": "https://dc.lft.to/lastmile_qr_scan"}, "fusion_lon": 0.0}, {"lat": 38.90957066666667, "is_disabled": 0, "type": "electric_scooter", "lon": -77.026829, "bike_id": "e3bc6dba93890744aa8dcc5cfae776c6", "fusion_lat": 0.0, "name": "e3bc6dba93890744aa8dcc5cfae776c6", "is_reserved": 0, "rental_uris": {"android": "https://dc.lft.to/lastmile_qr_scan", "ios": "https://dc.lft.to/lastmile_qr_scan"}, "fusion_lon": 0.0}, {"lat": 38.928381, "is_disabled": 0, "type": "electric_scooter", "lon": -77.05420533333333, "bike_id": "dde7797b701fd5a4a81c9645497a13f6", "fusion_lat": 0.0, "name": "dde7797b701fd5a4a81c9645497a13f6", "is_reserved": 0, "rental_uris": {"android": "https://dc.lft.to/lastmile_qr_scan", "ios": "https://dc.lft.to/lastmile_qr_scan"}, "fusion_lon": 0.0}, {"lat": 38.88634666666667, "is_disabled": 0, "type": "electric_scooter", "lon": -76.95469666666666, "bike_id": "546fab8138c883c214124a3d217015d5", "fusion_lat": 0.0, "name": "546fab8138c883c214124a3d217015d5", "is_reserved": 0, "rental_uris": {"android": "https://dc.lft.to/lastmile_qr_scan", "ios": "https://dc.lft.to/lastmile_qr_scan"}, "fusion_lon": 0.0}, {"lat": 38.94324566666667, "is_disabled": 0, "type": "electric_scooter", "lon": -77.06128833333334, "bike_id": "8b262ab4a3ebbec6ed0a018ee11e038d", "fusion_lat": 0.0, "name": "8b262ab4a3ebbec6ed0a018ee11e038d", "is_reserved": 0, "rental_uris": {"android": "https://dc.lft.to/lastmile_qr_scan", "ios": "https://dc.lft.to/lastmile_qr_scan"}, "fusion_lon": 0.0}, {"lat": 38.932232666666664, "is_disabled": 0, "type": "electric_scooter", "lon": -77.033897, "bike_id": "e00d4bd07f28139784a79c1ea137c4bc", "fusion_lat": 0.0, "name": "e00d4bd07f28139784a79c1ea137c4bc", "is_reserved": 0, "rental_uris": {"android": "https://dc.lft.to/lastmile_qr_scan", "ios": "https://dc.lft.to/lastmile_qr_scan"}, "fusion_lon": 0.0}, {"lat": 38.90649116666667, "is_disabled": 0, "type": "electric_scooter", "lon": -77.01416433333333, "bike_id": "621ef5e863813e462548f4a4a4b8ac6a", "fusion_lat": 0.0, "name": "621ef5e863813e462548f4a4a4b8ac6a", "is_reserved": 0, "rental_uris": {"android": "https://dc.lft.to/lastmile_qr_scan", "ios": "https://dc.lft.to/lastmile_qr_scan"}, "fusion_lon": 0.0}, {"lat": 38.91580416666667, "is_disabled": 0, "type": "electric_scooter", "lon": -77.05018216666667, "bike_id": "7cd1ac6422738899a46dc400041236be", "fusion_lat": 0.0, "name": "7cd1ac6422738899a46dc400041236be", "is_reserved": 0, "rental_uris": {"android": "https://dc.lft.to/lastmile_qr_scan", "ios": "https://dc.lft.to/lastmile_qr_scan"}, "fusion_lon": 0.0}, {"lat": 38.921082, "is_disabled": 0, "type": "electric_scooter", "lon": -77.04690733333334, "bike_id": "88551c3e182f914ccf6e21b9e780f161", "fusion_lat": 0.0, "name": "88551c3e182f914ccf6e21b9e780f161", "is_reserved": 0, "rental_uris": {"android": "https://dc.lft.to/lastmile_qr_scan", "ios": "https://dc.lft.to/lastmile_qr_scan"}, "fusion_lon": 0.0}, {"lat": 38.884907166666665, "is_disabled": 0, "type": "electric_scooter", "lon": -77.00712766666666, "bike_id": "ba2e340e037051ecfa928f01fbb5bea6", "fusion_lat": 0.0, "name": "ba2e340e037051ecfa928f01fbb5bea6", "is_reserved": 0, "rental_uris": {"android": "https://dc.lft.to/lastmile_qr_scan", "ios": "https://dc.lft.to/lastmile_qr_scan"}, "fusion_lon": 0.0}, {"lat": 38.9282745, "is_disabled": 0, "type": "electric_scooter", "lon": -77.02259566666666, "bike_id": "9c40dd2b99be86c1080327e534f69834", "fusion_lat": 0.0, "name": "9c40dd2b99be86c1080327e534f69834", "is_reserved": 0, "rental_uris": {"android": "https://dc.lft.to/lastmile_qr_scan", "ios": "https://dc.lft.to/lastmile_qr_scan"}, "fusion_lon": 0.0}, {"lat": 38.905221833333336, "is_disabled": 0, "type": "electric_scooter", "lon": -77.0344845, "bike_id": "893c78bbcc51c698d221509638c7bd69", "fusion_lat": 0.0, "name": "893c78bbcc51c698d221509638c7bd69", "is_reserved": 0, "rental_uris": {"android": "https://dc.lft.to/lastmile_qr_scan", "ios": "https://dc.lft.to/lastmile_qr_scan"}, "fusion_lon": 0.0}, {"lat": 38.9662395, "is_disabled": 0, "type": "electric_bike", "lon": -76.97668316666666, "bike_id": "15cfe319ee28faa4fedc79b2d7456553", "fusion_lat": 0.0, "name": "15cfe319ee28faa4fedc79b2d7456553", "is_reserved": 0, "rental_uris": {"android": "https://dc.lft.to/lastmile_qr_scan", "ios": "https://dc.lft.to/lastmile_qr_scan"}, "fusion_lon": 0.0}, {"lat": 38.883158333333334, "is_disabled": 0, "type": "electric_scooter", "lon": -77.0093205, "bike_id": "bffd13b78c83cc7bee23f739fb5a5a9f", "fusion_lat": 0.0, "name": "bffd13b78c83cc7bee23f739fb5a5a9f", "is_reserved": 0, "rental_uris": {"android": "https://dc.lft.to/lastmile_qr_scan", "ios": "https://dc.lft.to/lastmile_qr_scan"}, "fusion_lon": 0.0}, {"lat": 38.935813, "is_disabled": 0, "type": "electric_bike", "lon": -77.10684983333333, "bike_id": "9d3f189cbc48968728ac769f73f3d71d", "fusion_lat": 0.0, "name": "9d3f189cbc48968728ac769f73f3d71d", "is_reserved": 0, "rental_uris": {"android": "https://dc.lft.to/lastmile_qr_scan", "ios": "https://dc.lft.to/lastmile_qr_scan"}, "fusion_lon": 0.0}, {"lat": 38.90697683333333, "is_disabled": 0, "type": "electric_scooter", "lon": -77.04346883333334, "bike_id": "682bf4712b9161add9b7e5ba71e73013", "fusion_lat": 0.0, "name": "682bf4712b9161add9b7e5ba71e73013", "is_reserved": 0, "rental_uris": {"android": "https://dc.lft.to/lastmile_qr_scan", "ios": "https://dc.lft.to/lastmile_qr_scan"}, "fusion_lon": 0.0}, {"lat": 38.950788, "is_disabled": 0, "type": "electric_bike", "lon": -77.01199733333333, "bike_id": "65ff24deda33a608496b3388262eeab5", "fusion_lat": 0.0, "name": "65ff24deda33a608496b3388262eeab5", "is_reserved": 0, "rental_uris": {"android": "https://dc.lft.to/lastmile_qr_scan", "ios": "https://dc.lft.to/lastmile_qr_scan"}, "fusion_lon": 0.0}, {"lat": 38.91980383333333, "is_disabled": 0, "type": "electric_scooter", "lon": -77.012079, "bike_id": "25846ce9d0dc0875ffdabc85558fccd0", "fusion_lat": 0.0, "name": "25846ce9d0dc0875ffdabc85558fccd0", "is_reserved": 0, "rental_uris": {"android": "https://dc.lft.to/lastmile_qr_scan", "ios": "https://dc.lft.to/lastmile_qr_scan"}, "fusion_lon": 0.0}, {"lat": 38.902411, "is_disabled": 0, "type": "electric_scooter", "lon": -77.0205745, "bike_id": "ad34bb37043482f9cb6859e305ff80ee", "fusion_lat": 0.0, "name": "ad34bb37043482f9cb6859e305ff80ee", "is_reserved": 0, "rental_uris": {"android": "https://dc.lft.to/lastmile_qr_scan", "ios": "https://dc.lft.to/lastmile_qr_scan"}, "fusion_lon": 0.0}, {"lat": 38.923604833333336, "is_disabled": 0, "type": "electric_scooter", "lon": -77.050947, "bike_id": "2442cd3c6bc86c4655216f59bfd02d1d", "fusion_lat": 0.0, "name": "2442cd3c6bc86c4655216f59bfd02d1d", "is_reserved": 0, "rental_uris": {"android": "https://dc.lft.to/lastmile_qr_scan", "ios": "https://dc.lft.to/lastmile_qr_scan"}, "fusion_lon": 0.0}, {"lat": 38.95216666666666, "is_disabled": 0, "type": "electric_scooter", "lon": -77.0689195, "bike_id": "c3f583fbefeff2abd74d171dcb78f211", "fusion_lat": 0.0, "name": "c3f583fbefeff2abd74d171dcb78f211", "is_reserved": 0, "rental_uris": {"android": "https://dc.lft.to/lastmile_qr_scan", "ios": "https://dc.lft.to/lastmile_qr_scan"}, "fusion_lon": 0.0}, {"lat": 38.9340755, "is_disabled": 0, "type": "electric_scooter", "lon": -77.02036233333334, "bike_id": "ef736f5e6743802629ea9f34e3e567ef", "fusion_lat": 0.0, "name": "ef736f5e6743802629ea9f34e3e567ef", "is_reserved": 0, "rental_uris": {"android": "https://dc.lft.to/lastmile_qr_scan", "ios": "https://dc.lft.to/lastmile_qr_scan"}, "fusion_lon": 0.0}, {"lat": 38.93172233333333, "is_disabled": 0, "type": "electric_scooter", "lon": -77.02816283333334, "bike_id": "0940bcefc4297b0619b78d69f9a43d2d", "fusion_lat": 0.0, "name": "0940bcefc4297b0619b78d69f9a43d2d", "is_reserved": 0, "rental_uris": {"android": "https://dc.lft.to/lastmile_qr_scan", "ios": "https://dc.lft.to/lastmile_qr_scan"}, "fusion_lon": 0.0}, {"lat": 38.905218166666664, "is_disabled": 0, "type": "electric_scooter", "lon": -77.06448416666667, "bike_id": "fd5e485cdf4189c9a5fe8069a83005ed", "fusion_lat": 0.0, "name": "fd5e485cdf4189c9a5fe8069a83005ed", "is_reserved": 0, "rental_uris": {"android": "https://dc.lft.to/lastmile_qr_scan", "ios": "https://dc.lft.to/lastmile_qr_scan"}, "fusion_lon": 0.0}, {"lat": 38.9081425, "is_disabled": 0, "type": "electric_scooter", "lon": -76.997111, "bike_id": "a64c365558f5a4f798974ec569f07ac5", "fusion_lat": 0.0, "name": "a64c365558f5a4f798974ec569f07ac5", "is_reserved": 0, "rental_uris": {"android": "https://dc.lft.to/lastmile_qr_scan", "ios": "https://dc.lft.to/lastmile_qr_scan"}, "fusion_lon": 0.0}, {"lat": 38.900120333333334, "is_disabled": 0, "type": "electric_scooter", "lon": -77.00603433333333, "bike_id": "ca1d9522b9a2208343a2959fabc3c6cf", "fusion_lat": 0.0, "name": "ca1d9522b9a2208343a2959fabc3c6cf", "is_reserved": 0, "rental_uris": {"android": "https://dc.lft.to/lastmile_qr_scan", "ios": "https://dc.lft.to/lastmile_qr_scan"}, "fusion_lon": 0.0}, {"lat": 38.9055705, "is_disabled": 0, "type": "electric_scooter", "lon": -76.9837395, "bike_id": "dae4d8b7fb7988cf081d7c9dbe6a8988", "fusion_lat": 0.0, "name": "dae4d8b7fb7988cf081d7c9dbe6a8988", "is_reserved": 0, "rental_uris": {"android": "https://dc.lft.to/lastmile_qr_scan", "ios": "https://dc.lft.to/lastmile_qr_scan"}, "fusion_lon": 0.0}, {"lat": 38.923549, "is_disabled": 0, "type": "electric_scooter", "lon": -77.041501, "bike_id": "f5a2aa5441382a73136760c25fcd8e54", "fusion_lat": 0.0, "name": "f5a2aa5441382a73136760c25fcd8e54", "is_reserved": 0, "rental_uris": {"android": "https://dc.lft.to/lastmile_qr_scan", "ios": "https://dc.lft.to/lastmile_qr_scan"}, "fusion_lon": 0.0}, {"lat": 38.922433166666664, "is_disabled": 0, "type": "electric_scooter", "lon": -77.01964983333333, "bike_id": "e9c4a8139d49b0b70beefa523aa2964e", "fusion_lat": 0.0, "name": "e9c4a8139d49b0b70beefa523aa2964e", "is_reserved": 0, "rental_uris": {"android": "https://dc.lft.to/lastmile_qr_scan", "ios": "https://dc.lft.to/lastmile_qr_scan"}, "fusion_lon": 0.0}, {"lat": 38.8888415, "is_disabled": 0, "type": "electric_scooter", "lon": -76.93154183333333, "bike_id": "2c5b4a6ed9af806faf189a05e3dfb37a", "fusion_lat": 0.0, "name": "2c5b4a6ed9af806faf189a05e3dfb37a", "is_reserved": 0, "rental_uris": {"android": "https://dc.lft.to/lastmile_qr_scan", "ios": "https://dc.lft.to/lastmile_qr_scan"}, "fusion_lon": 0.0}, {"lat": 38.9443125, "is_disabled": 0, "type": "electric_scooter", "lon": -77.06307466666667, "bike_id": "bb93eb224ba58dc4846aa07ebc4d8e61", "fusion_lat": 0.0, "name": "bb93eb224ba58dc4846aa07ebc4d8e61", "is_reserved": 0, "rental_uris": {"android": "https://dc.lft.to/lastmile_qr_scan", "ios": "https://dc.lft.to/lastmile_qr_scan"}, "fusion_lon": 0.0}, {"lat": 38.87146516666667, "is_disabled": 0, "type": "electric_bike", "lon": -76.93666816666666, "bike_id": "c32876bda9b3732f4400ef9a5acb4d86", "fusion_lat": 0.0, "name": "c32876bda9b3732f4400ef9a5acb4d86", "is_reserved": 0, "rental_uris": {"android": "https://dc.lft.to/lastmile_qr_scan", "ios": "https://dc.lft.to/lastmile_qr_scan"}, "fusion_lon": 0.0}, {"lat": 38.907203333333335, "is_disabled": 0, "type": "electric_scooter", "lon": -76.98928066666667, "bike_id": "0b70e1c4be6e14f9ca0dee90c2aebcf1", "fusion_lat": 0.0, "name": "0b70e1c4be6e14f9ca0dee90c2aebcf1", "is_reserved": 0, "rental_uris": {"android": "https://dc.lft.to/lastmile_qr_scan", "ios": "https://dc.lft.to/lastmile_qr_scan"}, "fusion_lon": 0.0}, {"lat": 38.89615166666667, "is_disabled": 0, "type": "electric_scooter", "lon": -76.9929685, "bike_id": "9565734081d30da8bb4f0a108882ff6f", "fusion_lat": 0.0, "name": "9565734081d30da8bb4f0a108882ff6f", "is_reserved": 0, "rental_uris": {"android": "https://dc.lft.to/lastmile_qr_scan", "ios": "https://dc.lft.to/lastmile_qr_scan"}, "fusion_lon": 0.0}, {"lat": 38.935356666666664, "is_disabled": 0, "type": "electric_scooter", "lon": -77.0340645, "bike_id": "2e9750030bdaf73a4bed42d917d60d3d", "fusion_lat": 0.0, "name": "2e9750030bdaf73a4bed42d917d60d3d", "is_reserved": 0, "rental_uris": {"android": "https://dc.lft.to/lastmile_qr_scan", "ios": "https://dc.lft.to/lastmile_qr_scan"}, "fusion_lon": 0.0}, {"lat": 38.86113316666667, "is_disabled": 0, "type": "electric_scooter", "lon": -76.9837755, "bike_id": "eb9f1097fc463c2fa1b13559711e6b58", "fusion_lat": 0.0, "name": "eb9f1097fc463c2fa1b13559711e6b58", "is_reserved": 0, "rental_uris": {"android": "https://dc.lft.to/lastmile_qr_scan", "ios": "https://dc.lft.to/lastmile_qr_scan"}, "fusion_lon": 0.0}, {"lat": 38.900229833333334, "is_disabled": 0, "type": "electric_scooter", "lon": -77.04021216666666, "bike_id": "6eb3f988331c87de0329f0c68bfa6431", "fusion_lat": 0.0, "name": "6eb3f988331c87de0329f0c68bfa6431", "is_reserved": 0, "rental_uris": {"android": "https://dc.lft.to/lastmile_qr_scan", "ios": "https://dc.lft.to/lastmile_qr_scan"}, "fusion_lon": 0.0}, {"lat": 38.90270733333333, "is_disabled": 0, "type": "electric_scooter", "lon": -77.02905266666667, "bike_id": "25ec578c678318d010c709e71f236d14", "fusion_lat": 0.0, "name": "25ec578c678318d010c709e71f236d14", "is_reserved": 0, "rental_uris": {"android": "https://dc.lft.to/lastmile_qr_scan", "ios": "https://dc.lft.to/lastmile_qr_scan"}, "fusion_lon": 0.0}, {"lat": 38.92540183333333, "is_disabled": 0, "type": "electric_scooter", "lon": -77.0345215, "bike_id": "702b4b034b07940b33d322085d0836cf", "fusion_lat": 0.0, "name": "702b4b034b07940b33d322085d0836cf", "is_reserved": 0, "rental_uris": {"android": "https://dc.lft.to/lastmile_qr_scan", "ios": "https://dc.lft.to/lastmile_qr_scan"}, "fusion_lon": 0.0}, {"lat": 38.93089366666667, "is_disabled": 0, "type": "electric_scooter", "lon": -77.077536, "bike_id": "0f2a04445e25469a466a9cb4c7e8981f", "fusion_lat": 0.0, "name": "0f2a04445e25469a466a9cb4c7e8981f", "is_reserved": 0, "rental_uris": {"android": "https://dc.lft.to/lastmile_qr_scan", "ios": "https://dc.lft.to/lastmile_qr_scan"}, "fusion_lon": 0.0}, {"lat": 38.89185633333334, "is_disabled": 0, "type": "electric_scooter", "lon": -76.996234, "bike_id": "c7c13d9da95aaa109128c4705bc5e882", "fusion_lat": 0.0, "name": "c7c13d9da95aaa109128c4705bc5e882", "is_reserved": 0, "rental_uris": {"android": "https://dc.lft.to/lastmile_qr_scan", "ios": "https://dc.lft.to/lastmile_qr_scan"}, "fusion_lon": 0.0}, {"lat": 38.840300666666664, "is_disabled": 0, "type": "electric_bike", "lon": -76.97584433333333, "bike_id": "97185dedcf7c21053a33e9692e729b99", "fusion_lat": 0.0, "name": "97185dedcf7c21053a33e9692e729b99", "is_reserved": 0, "rental_uris": {"android": "https://dc.lft.to/lastmile_qr_scan", "ios": "https://dc.lft.to/lastmile_qr_scan"}, "fusion_lon": 0.0}, {"lat": 39.058123333333334, "is_disabled": 0, "type": "electric_bike", "lon": -77.12626233333333, "bike_id": "3b3954af3801ba82f43d628bebbee910", "fusion_lat": 0.0, "name": "3b3954af3801ba82f43d628bebbee910", "is_reserved": 0, "rental_uris": {"android": "https://dc.lft.to/lastmile_qr_scan", "ios": "https://dc.lft.to/lastmile_qr_scan"}, "fusion_lon": 0.0}, {"lat": 38.874574, "is_disabled": 0, "type": "electric_scooter", "lon": -77.00928333333333, "bike_id": "06f4f73940b905791e495dcfcdba6ecd", "fusion_lat": 0.0, "name": "06f4f73940b905791e495dcfcdba6ecd", "is_reserved": 0, "rental_uris": {"android": "https://dc.lft.to/lastmile_qr_scan", "ios": "https://dc.lft.to/lastmile_qr_scan"}, "fusion_lon": 0.0}, {"lat": 38.917184166666665, "is_disabled": 0, "type": "electric_scooter", "lon": -77.0311345, "bike_id": "a19f94eac50eed5d6c1f4f1e3a0315cf", "fusion_lat": 0.0, "name": "a19f94eac50eed5d6c1f4f1e3a0315cf", "is_reserved": 0, "rental_uris": {"android": "https://dc.lft.to/lastmile_qr_scan", "ios": "https://dc.lft.to/lastmile_qr_scan"}, "fusion_lon": 0.0}, {"lat": 38.90282716666667, "is_disabled": 0, "type": "electric_scooter", "lon": -76.97393383333333, "bike_id": "bf556e58960beb54c0e4f8ab52209565", "fusion_lat": 0.0, "name": "bf556e58960beb54c0e4f8ab52209565", "is_reserved": 0, "rental_uris": {"android": "https://dc.lft.to/lastmile_qr_scan", "ios": "https://dc.lft.to/lastmile_qr_scan"}, "fusion_lon": 0.0}, {"lat": 38.90980833333333, "is_disabled": 0, "type": "electric_scooter", "lon": -77.022685, "bike_id": "69b77788849944b43d8413e23a10d524", "fusion_lat": 0.0, "name": "69b77788849944b43d8413e23a10d524", "is_reserved": 0, "rental_uris": {"android": "https://dc.lft.to/lastmile_qr_scan", "ios": "https://dc.lft.to/lastmile_qr_scan"}, "fusion_lon": 0.0}, {"lat": 38.911804000000004, "is_disabled": 0, "type": "electric_scooter", "lon": -77.0064655, "bike_id": "5daa44c311d1c47a03303841953c9d74", "fusion_lat": 0.0, "name": "5daa44c311d1c47a03303841953c9d74", "is_reserved": 0, "rental_uris": {"android": "https://dc.lft.to/lastmile_qr_scan", "ios": "https://dc.lft.to/lastmile_qr_scan"}, "fusion_lon": 0.0}, {"lat": 38.8706495, "is_disabled": 0, "type": "electric_scooter", "lon": -77.00843333333333, "bike_id": "b4e4539192c9b5eeab4eaf24fce3ef62", "fusion_lat": 0.0, "name": "b4e4539192c9b5eeab4eaf24fce3ef62", "is_reserved": 0, "rental_uris": {"android": "https://dc.lft.to/lastmile_qr_scan", "ios": "https://dc.lft.to/lastmile_qr_scan"}, "fusion_lon": 0.0}, {"lat": 38.918177666666665, "is_disabled": 0, "type": "electric_scooter", "lon": -77.012733, "bike_id": "1b6e2465c8b68a0e828619bbcb7a797f", "fusion_lat": 0.0, "name": "1b6e2465c8b68a0e828619bbcb7a797f", "is_reserved": 0, "rental_uris": {"android": "https://dc.lft.to/lastmile_qr_scan", "ios": "https://dc.lft.to/lastmile_qr_scan"}, "fusion_lon": 0.0}, {"lat": 38.903754666666664, "is_disabled": 0, "type": "electric_scooter", "lon": -77.03923983333334, "bike_id": "6cb11c6c59e0627920dd763ec65daffb", "fusion_lat": 0.0, "name": "6cb11c6c59e0627920dd763ec65daffb", "is_reserved": 0, "rental_uris": {"android": "https://dc.lft.to/lastmile_qr_scan", "ios": "https://dc.lft.to/lastmile_qr_scan"}, "fusion_lon": 0.0}, {"lat": 38.855265333333335, "is_disabled": 0, "type": "electric_bike", "lon": -77.12020166666667, "bike_id": "63bbdd664e618f97a05bd19ea3b868f5", "fusion_lat": 0.0, "name": "63bbdd664e618f97a05bd19ea3b868f5", "is_reserved": 0, "rental_uris": {"android": "https://dc.lft.to/lastmile_qr_scan", "ios": "https://dc.lft.to/lastmile_qr_scan"}, "fusion_lon": 0.0}, {"lat": 38.89650266666666, "is_disabled": 0, "type": "electric_scooter", "lon": -77.02320033333334, "bike_id": "6ac7df9535c1a671230f307988ebdc6a", "fusion_lat": 0.0, "name": "6ac7df9535c1a671230f307988ebdc6a", "is_reserved": 0, "rental_uris": {"android": "https://dc.lft.to/lastmile_qr_scan", "ios": "https://dc.lft.to/lastmile_qr_scan"}, "fusion_lon": 0.0}, {"lat": 38.90194483333333, "is_disabled": 0, "type": "electric_scooter", "lon": -77.02166616666666, "bike_id": "fc2f7e018180ced0962a6bf98f81a5e2", "fusion_lat": 0.0, "name": "fc2f7e018180ced0962a6bf98f81a5e2", "is_reserved": 0, "rental_uris": {"android": "https://dc.lft.to/lastmile_qr_scan", "ios": "https://dc.lft.to/lastmile_qr_scan"}, "fusion_lon": 0.0}, {"lat": 38.916040333333335, "is_disabled": 0, "type": "electric_scooter", "lon": -77.04873383333333, "bike_id": "6c69675c28ea6fbf8b55846620677fbc", "fusion_lat": 0.0, "name": "6c69675c28ea6fbf8b55846620677fbc", "is_reserved": 0, "rental_uris": {"android": "https://dc.lft.to/lastmile_qr_scan", "ios": "https://dc.lft.to/lastmile_qr_scan"}, "fusion_lon": 0.0}, {"lat": 39.003810333333334, "is_disabled": 0, "type": "electric_bike", "lon": -77.01285383333334, "bike_id": "b2e21683d959e3c0984b6e90c0491582", "fusion_lat": 0.0, "name": "b2e21683d959e3c0984b6e90c0491582", "is_reserved": 0, "rental_uris": {"android": "https://dc.lft.to/lastmile_qr_scan", "ios": "https://dc.lft.to/lastmile_qr_scan"}, "fusion_lon": 0.0}, {"lat": 39.000021833333335, "is_disabled": 0, "type": "electric_bike", "lon": -76.9107365, "bike_id": "840432812821b1dd3d7435108bd46e8c", "fusion_lat": 0.0, "name": "840432812821b1dd3d7435108bd46e8c", "is_reserved": 0, "rental_uris": {"android": "https://dc.lft.to/lastmile_qr_scan", "ios": "https://dc.lft.to/lastmile_qr_scan"}, "fusion_lon": 0.0}, {"lat": 38.8287465, "is_disabled": 0, "type": "electric_bike", "lon": -77.112229, "bike_id": "531c7982a1e863aeaf835d0fef8da0ed", "fusion_lat": 0.0, "name": "531c7982a1e863aeaf835d0fef8da0ed", "is_reserved": 0, "rental_uris": {"android": "https://dc.lft.to/lastmile_qr_scan", "ios": "https://dc.lft.to/lastmile_qr_scan"}, "fusion_lon": 0.0}, {"lat": 38.90974933333333, "is_disabled": 0, "type": "electric_scooter", "lon": -76.99726466666667, "bike_id": "43fcf2591b82095802b750c06235d25e", "fusion_lat": 0.0, "name": "43fcf2591b82095802b750c06235d25e", "is_reserved": 0, "rental_uris": {"android": "https://dc.lft.to/lastmile_qr_scan", "ios": "https://dc.lft.to/lastmile_qr_scan"}, "fusion_lon": 0.0}, {"lat": 38.9561545, "is_disabled": 0, "type": "electric_scooter", "lon": -77.0278555, "bike_id": "515093d2f83f967b4316413052424686", "fusion_lat": 0.0, "name": "515093d2f83f967b4316413052424686", "is_reserved": 0, "rental_uris": {"android": "https://dc.lft.to/lastmile_qr_scan", "ios": "https://dc.lft.to/lastmile_qr_scan"}, "fusion_lon": 0.0}, {"lat": 38.90176616666667, "is_disabled": 0, "type": "electric_scooter", "lon": -77.02429816666667, "bike_id": "2c56bb0fc1e42213c05b5d7e560dff3f", "fusion_lat": 0.0, "name": "2c56bb0fc1e42213c05b5d7e560dff3f", "is_reserved": 0, "rental_uris": {"android": "https://dc.lft.to/lastmile_qr_scan", "ios": "https://dc.lft.to/lastmile_qr_scan"}, "fusion_lon": 0.0}, {"lat": 38.915509166666666, "is_disabled": 0, "type": "electric_scooter", "lon": -77.0385845, "bike_id": "22beb95318652ee578ff4030c2b2a982", "fusion_lat": 0.0, "name": "22beb95318652ee578ff4030c2b2a982", "is_reserved": 0, "rental_uris": {"android": "https://dc.lft.to/lastmile_qr_scan", "ios": "https://dc.lft.to/lastmile_qr_scan"}, "fusion_lon": 0.0}, {"lat": 38.9058115, "is_disabled": 0, "type": "electric_scooter", "lon": -77.00579983333333, "bike_id": "f4f8308c44623b7cd268311d43536181", "fusion_lat": 0.0, "name": "f4f8308c44623b7cd268311d43536181", "is_reserved": 0, "rental_uris": {"android": "https://dc.lft.to/lastmile_qr_scan", "ios": "https://dc.lft.to/lastmile_qr_scan"}, "fusion_lon": 0.0}, {"lat": 38.866528833333334, "is_disabled": 0, "type": "electric_scooter", "lon": -76.98885916666667, "bike_id": "f543163c4b9e1435cd12e982e122a31e", "fusion_lat": 0.0, "name": "f543163c4b9e1435cd12e982e122a31e", "is_reserved": 0, "rental_uris": {"android": "https://dc.lft.to/lastmile_qr_scan", "ios": "https://dc.lft.to/lastmile_qr_scan"}, "fusion_lon": 0.0}, {"lat": 38.90385916666666, "is_disabled": 0, "type": "electric_scooter", "lon": -77.0215545, "bike_id": "817161668e362cc1283884ea79dd8654", "fusion_lat": 0.0, "name": "817161668e362cc1283884ea79dd8654", "is_reserved": 0, "rental_uris": {"android": "https://dc.lft.to/lastmile_qr_scan", "ios": "https://dc.lft.to/lastmile_qr_scan"}, "fusion_lon": 0.0}, {"lat": 38.871335333333334, "is_disabled": 0, "type": "electric_scooter", "lon": -77.00781583333334, "bike_id": "cf8bfc33530254f8a63768333342dac2", "fusion_lat": 0.0, "name": "cf8bfc33530254f8a63768333342dac2", "is_reserved": 0, "rental_uris": {"android": "https://dc.lft.to/lastmile_qr_scan", "ios": "https://dc.lft.to/lastmile_qr_scan"}, "fusion_lon": 0.0}, {"lat": 39.05633, "is_disabled": 0, "type": "electric_bike", "lon": -77.12527383333334, "bike_id": "68ff7d49c34c225dc31b5321423ee8f2", "fusion_lat": 0.0, "name": "68ff7d49c34c225dc31b5321423ee8f2", "is_reserved": 0, "rental_uris": {"android": "https://dc.lft.to/lastmile_qr_scan", "ios": "https://dc.lft.to/lastmile_qr_scan"}, "fusion_lon": 0.0}, {"lat": 38.89819766666667, "is_disabled": 0, "type": "electric_scooter", "lon": -76.99696166666666, "bike_id": "8c9546fa3226c9ce6b1aa33d78aa94fe", "fusion_lat": 0.0, "name": "8c9546fa3226c9ce6b1aa33d78aa94fe", "is_reserved": 0, "rental_uris": {"android": "https://dc.lft.to/lastmile_qr_scan", "ios": "https://dc.lft.to/lastmile_qr_scan"}, "fusion_lon": 0.0}, {"lat": 38.90183366666667, "is_disabled": 0, "type": "electric_scooter", "lon": -77.02407933333333, "bike_id": "b6ec338c7396bb3b79c08d70cc6de47c", "fusion_lat": 0.0, "name": "b6ec338c7396bb3b79c08d70cc6de47c", "is_reserved": 0, "rental_uris": {"android": "https://dc.lft.to/lastmile_qr_scan", "ios": "https://dc.lft.to/lastmile_qr_scan"}, "fusion_lon": 0.0}, {"lat": 38.9276135, "is_disabled": 0, "type": "electric_scooter", "lon": -77.03214133333333, "bike_id": "c8120b7c90028dff1733cf9e61dcf88c", "fusion_lat": 0.0, "name": "c8120b7c90028dff1733cf9e61dcf88c", "is_reserved": 0, "rental_uris": {"android": "https://dc.lft.to/lastmile_qr_scan", "ios": "https://dc.lft.to/lastmile_qr_scan"}, "fusion_lon": 0.0}, {"lat": 38.9111745, "is_disabled": 0, "type": "electric_scooter", "lon": -77.03771066666667, "bike_id": "ecda02f1f5a0f2139ad5c83a7e3b5715", "fusion_lat": 0.0, "name": "ecda02f1f5a0f2139ad5c83a7e3b5715", "is_reserved": 0, "rental_uris": {"android": "https://dc.lft.to/lastmile_qr_scan", "ios": "https://dc.lft.to/lastmile_qr_scan"}, "fusion_lon": 0.0}, {"lat": 38.88577766666667, "is_disabled": 0, "type": "electric_scooter", "lon": -76.91911016666667, "bike_id": "ff1989b2fb68010396945a311fbfc5aa", "fusion_lat": 0.0, "name": "ff1989b2fb68010396945a311fbfc5aa", "is_reserved": 0, "rental_uris": {"android": "https://dc.lft.to/lastmile_qr_scan", "ios": "https://dc.lft.to/lastmile_qr_scan"}, "fusion_lon": 0.0}, {"lat": 38.924806, "is_disabled": 0, "type": "electric_scooter", "lon": -77.0284015, "bike_id": "1e03b89d17bc2c67d667922e44046332", "fusion_lat": 0.0, "name": "1e03b89d17bc2c67d667922e44046332", "is_reserved": 0, "rental_uris": {"android": "https://dc.lft.to/lastmile_qr_scan", "ios": "https://dc.lft.to/lastmile_qr_scan"}, "fusion_lon": 0.0}, {"lat": 38.95612083333333, "is_disabled": 0, "type": "electric_scooter", "lon": -77.0275905, "bike_id": "8c1701745e878cbfb93fd64a69e00f41", "fusion_lat": 0.0, "name": "8c1701745e878cbfb93fd64a69e00f41", "is_reserved": 0, "rental_uris": {"android": "https://dc.lft.to/lastmile_qr_scan", "ios": "https://dc.lft.to/lastmile_qr_scan"}, "fusion_lon": 0.0}, {"lat": 38.9118065, "is_disabled": 0, "type": "electric_scooter", "lon": -77.0609705, "bike_id": "84a866a225c89aa3c28fd3d1d2bcef9d", "fusion_lat": 0.0, "name": "84a866a225c89aa3c28fd3d1d2bcef9d", "is_reserved": 0, "rental_uris": {"android": "https://dc.lft.to/lastmile_qr_scan", "ios": "https://dc.lft.to/lastmile_qr_scan"}, "fusion_lon": 0.0}, {"lat": 38.9289435, "is_disabled": 0, "type": "electric_scooter", "lon": -77.02215966666667, "bike_id": "30d28369efb29f14d9ca61a9f640cde1", "fusion_lat": 0.0, "name": "30d28369efb29f14d9ca61a9f640cde1", "is_reserved": 0, "rental_uris": {"android": "https://dc.lft.to/lastmile_qr_scan", "ios": "https://dc.lft.to/lastmile_qr_scan"}, "fusion_lon": 0.0}, {"lat": 38.8863595, "is_disabled": 0, "type": "electric_bike", "lon": -76.9547215, "bike_id": "ab5060c637d458dbf8cfe5ab2ceed0c5", "fusion_lat": 0.0, "name": "ab5060c637d458dbf8cfe5ab2ceed0c5", "is_reserved": 0, "rental_uris": {"android": "https://dc.lft.to/lastmile_qr_scan", "ios": "https://dc.lft.to/lastmile_qr_scan"}, "fusion_lon": 0.0}, {"lat": 38.927349166666666, "is_disabled": 0, "type": "electric_scooter", "lon": -77.03443733333333, "bike_id": "ea2934e6ad279c7f42f7adcf7c960a32", "fusion_lat": 0.0, "name": "ea2934e6ad279c7f42f7adcf7c960a32", "is_reserved": 0, "rental_uris": {"android": "https://dc.lft.to/lastmile_qr_scan", "ios": "https://dc.lft.to/lastmile_qr_scan"}, "fusion_lon": 0.0}, {"lat": 38.904058166666665, "is_disabled": 0, "type": "electric_scooter", "lon": -77.0487285, "bike_id": "4f681e5ab63caed42c4142d9a56ca6bd", "fusion_lat": 0.0, "name": "4f681e5ab63caed42c4142d9a56ca6bd", "is_reserved": 0, "rental_uris": {"android": "https://dc.lft.to/lastmile_qr_scan", "ios": "https://dc.lft.to/lastmile_qr_scan"}, "fusion_lon": 0.0}, {"lat": 38.88089166666666, "is_disabled": 0, "type": "electric_scooter", "lon": -76.9926545, "bike_id": "81ba3815a2f497414f48cd7e507f074c", "fusion_lat": 0.0, "name": "81ba3815a2f497414f48cd7e507f074c", "is_reserved": 0, "rental_uris": {"android": "https://dc.lft.to/lastmile_qr_scan", "ios": "https://dc.lft.to/lastmile_qr_scan"}, "fusion_lon": 0.0}, {"lat": 38.936585666666666, "is_disabled": 0, "type": "electric_bike", "lon": -76.95216333333333, "bike_id": "1d8558015933d3f05fe065c3f97f3962", "fusion_lat": 0.0, "name": "1d8558015933d3f05fe065c3f97f3962", "is_reserved": 0, "rental_uris": {"android": "https://dc.lft.to/lastmile_qr_scan", "ios": "https://dc.lft.to/lastmile_qr_scan"}, "fusion_lon": 0.0}, {"lat": 38.90941383333333, "is_disabled": 0, "type": "electric_scooter", "lon": -77.0448545, "bike_id": "4684fa8c086cc4a26719b204b72fa948", "fusion_lat": 0.0, "name": "4684fa8c086cc4a26719b204b72fa948", "is_reserved": 0, "rental_uris": {"android": "https://dc.lft.to/lastmile_qr_scan", "ios": "https://dc.lft.to/lastmile_qr_scan"}, "fusion_lon": 0.0}, {"lat": 38.88741366666667, "is_disabled": 0, "type": "electric_scooter", "lon": -77.028329, "bike_id": "8312187e4bb40a3bd5d4ccc3f8361473", "fusion_lat": 0.0, "name": "8312187e4bb40a3bd5d4ccc3f8361473", "is_reserved": 0, "rental_uris": {"android": "https://dc.lft.to/lastmile_qr_scan", "ios": "https://dc.lft.to/lastmile_qr_scan"}, "fusion_lon": 0.0}, {"lat": 38.914268, "is_disabled": 0, "type": "electric_scooter", "lon": -77.0170235, "bike_id": "10ff4016b91b83bac9378da35f8d428a", "fusion_lat": 0.0, "name": "10ff4016b91b83bac9378da35f8d428a", "is_reserved": 0, "rental_uris": {"android": "https://dc.lft.to/lastmile_qr_scan", "ios": "https://dc.lft.to/lastmile_qr_scan"}, "fusion_lon": 0.0}, {"lat": 38.88124066666666, "is_disabled": 0, "type": "electric_scooter", "lon": -77.00100083333334, "bike_id": "ca81a79d0ecdbf7f5cef02fc525195fb", "fusion_lat": 0.0, "name": "ca81a79d0ecdbf7f5cef02fc525195fb", "is_reserved": 0, "rental_uris": {"android": "https://dc.lft.to/lastmile_qr_scan", "ios": "https://dc.lft.to/lastmile_qr_scan"}, "fusion_lon": 0.0}, {"lat": 38.9064375, "is_disabled": 0, "type": "electric_scooter", "lon": -77.0345355, "bike_id": "4dfe23a5c123c037c68e31dfbf5b4f45", "fusion_lat": 0.0, "name": "4dfe23a5c123c037c68e31dfbf5b4f45", "is_reserved": 0, "rental_uris": {"android": "https://dc.lft.to/lastmile_qr_scan", "ios": "https://dc.lft.to/lastmile_qr_scan"}, "fusion_lon": 0.0}, {"lat": 39.03437183333333, "is_disabled": 0, "type": "electric_bike", "lon": -77.043169, "bike_id": "e6505b39e370c8064d95ce9f377e2ef2", "fusion_lat": 0.0, "name": "e6505b39e370c8064d95ce9f377e2ef2", "is_reserved": 0, "rental_uris": {"android": "https://dc.lft.to/lastmile_qr_scan", "ios": "https://dc.lft.to/lastmile_qr_scan"}, "fusion_lon": 0.0}, {"lat": 38.927965, "is_disabled": 0, "type": "electric_scooter", "lon": -77.02599683333334, "bike_id": "252112c24c4a8dd857741bf3df7001bc", "fusion_lat": 0.0, "name": "252112c24c4a8dd857741bf3df7001bc", "is_reserved": 0, "rental_uris": {"android": "https://dc.lft.to/lastmile_qr_scan", "ios": "https://dc.lft.to/lastmile_qr_scan"}, "fusion_lon": 0.0}, {"lat": 38.9243855, "is_disabled": 0, "type": "electric_scooter", "lon": -77.03401183333334, "bike_id": "0a2433b03704aa2661e79928f300197e", "fusion_lat": 0.0, "name": "0a2433b03704aa2661e79928f300197e", "is_reserved": 0, "rental_uris": {"android": "https://dc.lft.to/lastmile_qr_scan", "ios": "https://dc.lft.to/lastmile_qr_scan"}, "fusion_lon": 0.0}, {"lat": 38.906886, "is_disabled": 0, "type": "electric_scooter", "lon": -76.99947483333334, "bike_id": "72cce9bb574bd2e0c37e33432c7acdad", "fusion_lat": 0.0, "name": "72cce9bb574bd2e0c37e33432c7acdad", "is_reserved": 0, "rental_uris": {"android": "https://dc.lft.to/lastmile_qr_scan", "ios": "https://dc.lft.to/lastmile_qr_scan"}, "fusion_lon": 0.0}, {"lat": 38.911865, "is_disabled": 0, "type": "electric_scooter", "lon": -77.03834, "bike_id": "b4d2107b9f87cb9515781fd0a9b1c364", "fusion_lat": 0.0, "name": "b4d2107b9f87cb9515781fd0a9b1c364", "is_reserved": 0, "rental_uris": {"android": "https://dc.lft.to/lastmile_qr_scan", "ios": "https://dc.lft.to/lastmile_qr_scan"}, "fusion_lon": 0.0}, {"lat": 38.91330516666667, "is_disabled": 0, "type": "electric_scooter", "lon": -77.039915, "bike_id": "995e175682e10aa3bd018bde5c8a715a", "fusion_lat": 0.0, "name": "995e175682e10aa3bd018bde5c8a715a", "is_reserved": 0, "rental_uris": {"android": "https://dc.lft.to/lastmile_qr_scan", "ios": "https://dc.lft.to/lastmile_qr_scan"}, "fusion_lon": 0.0}, {"lat": 38.8977475, "is_disabled": 0, "type": "electric_scooter", "lon": -77.0321955, "bike_id": "acc81cb7b8ce13a082d376ece5b9edb7", "fusion_lat": 0.0, "name": "acc81cb7b8ce13a082d376ece5b9edb7", "is_reserved": 0, "rental_uris": {"android": "https://dc.lft.to/lastmile_qr_scan", "ios": "https://dc.lft.to/lastmile_qr_scan"}, "fusion_lon": 0.0}, {"lat": 38.844227333333336, "is_disabled": 0, "type": "electric_scooter", "lon": -76.99777866666666, "bike_id": "9c74a28b848f4a66875348b1d856f94e", "fusion_lat": 0.0, "name": "9c74a28b848f4a66875348b1d856f94e", "is_reserved": 0, "rental_uris": {"android": "https://dc.lft.to/lastmile_qr_scan", "ios": "https://dc.lft.to/lastmile_qr_scan"}, "fusion_lon": 0.0}, {"lat": 38.93485316666667, "is_disabled": 0, "type": "electric_scooter", "lon": -77.03605816666666, "bike_id": "da44815939b8318fbe949f015850fe53", "fusion_lat": 0.0, "name": "da44815939b8318fbe949f015850fe53", "is_reserved": 0, "rental_uris": {"android": "https://dc.lft.to/lastmile_qr_scan", "ios": "https://dc.lft.to/lastmile_qr_scan"}, "fusion_lon": 0.0}, {"lat": 38.97328016666667, "is_disabled": 0, "type": "electric_bike", "lon": -77.02148816666667, "bike_id": "2451fee725c58f113dd5e96fbe540966", "fusion_lat": 0.0, "name": "2451fee725c58f113dd5e96fbe540966", "is_reserved": 0, "rental_uris": {"android": "https://dc.lft.to/lastmile_qr_scan", "ios": "https://dc.lft.to/lastmile_qr_scan"}, "fusion_lon": 0.0}, {"lat": 38.93076, "is_disabled": 0, "type": "electric_scooter", "lon": -77.02793883333334, "bike_id": "43dca17ad8a9a82cc4e4bd35987e043f", "fusion_lat": 0.0, "name": "43dca17ad8a9a82cc4e4bd35987e043f", "is_reserved": 0, "rental_uris": {"android": "https://dc.lft.to/lastmile_qr_scan", "ios": "https://dc.lft.to/lastmile_qr_scan"}, "fusion_lon": 0.0}, {"lat": 38.853175666666665, "is_disabled": 0, "type": "electric_bike", "lon": -76.97994166666666, "bike_id": "2f275cd145bb69c7e7ffc9754cabf3c2", "fusion_lat": 0.0, "name": "2f275cd145bb69c7e7ffc9754cabf3c2", "is_reserved": 0, "rental_uris": {"android": "https://dc.lft.to/lastmile_qr_scan", "ios": "https://dc.lft.to/lastmile_qr_scan"}, "fusion_lon": 0.0}, {"lat": 38.91748166666667, "is_disabled": 0, "type": "electric_scooter", "lon": -77.03664583333334, "bike_id": "cb91eca5013ea1230ef51262bfc8d97a", "fusion_lat": 0.0, "name": "cb91eca5013ea1230ef51262bfc8d97a", "is_reserved": 0, "rental_uris": {"android": "https://dc.lft.to/lastmile_qr_scan", "ios": "https://dc.lft.to/lastmile_qr_scan"}, "fusion_lon": 0.0}, {"lat": 39.00006116666667, "is_disabled": 0, "type": "electric_bike", "lon": -76.91072583333333, "bike_id": "ef6491de35513c4ee7dbcb6ab6469834", "fusion_lat": 0.0, "name": "ef6491de35513c4ee7dbcb6ab6469834", "is_reserved": 0, "rental_uris": {"android": "https://dc.lft.to/lastmile_qr_scan", "ios": "https://dc.lft.to/lastmile_qr_scan"}, "fusion_lon": 0.0}, {"lat": 38.86389116666667, "is_disabled": 0, "type": "electric_bike", "lon": -76.98992433333333, "bike_id": "9a794b232446701c459e8792d10962fe", "fusion_lat": 0.0, "name": "9a794b232446701c459e8792d10962fe", "is_reserved": 0, "rental_uris": {"android": "https://dc.lft.to/lastmile_qr_scan", "ios": "https://dc.lft.to/lastmile_qr_scan"}, "fusion_lon": 0.0}, {"lat": 38.9519635, "is_disabled": 0, "type": "electric_bike", "lon": -76.967257, "bike_id": "0946c1a3af38e9045ad06f2437ce1518", "fusion_lat": 0.0, "name": "0946c1a3af38e9045ad06f2437ce1518", "is_reserved": 0, "rental_uris": {"android": "https://dc.lft.to/lastmile_qr_scan", "ios": "https://dc.lft.to/lastmile_qr_scan"}, "fusion_lon": 0.0}, {"lat": 38.901014333333336, "is_disabled": 0, "type": "electric_scooter", "lon": -76.98483566666667, "bike_id": "a6e9575f1614b06449b28083a357d9d9", "fusion_lat": 0.0, "name": "a6e9575f1614b06449b28083a357d9d9", "is_reserved": 0, "rental_uris": {"android": "https://dc.lft.to/lastmile_qr_scan", "ios": "https://dc.lft.to/lastmile_qr_scan"}, "fusion_lon": 0.0}, {"lat": 38.9279365, "is_disabled": 0, "type": "electric_scooter", "lon": -77.05525733333333, "bike_id": "e4e3bf7e038dac281252a9ead467b026", "fusion_lat": 0.0, "name": "e4e3bf7e038dac281252a9ead467b026", "is_reserved": 0, "rental_uris": {"android": "https://dc.lft.to/lastmile_qr_scan", "ios": "https://dc.lft.to/lastmile_qr_scan"}, "fusion_lon": 0.0}, {"lat": 38.933205, "is_disabled": 0, "type": "electric_scooter", "lon": -77.032749, "bike_id": "b5e5a6bf7fdb48b9a85594a517422097", "fusion_lat": 0.0, "name": "b5e5a6bf7fdb48b9a85594a517422097", "is_reserved": 0, "rental_uris": {"android": "https://dc.lft.to/lastmile_qr_scan", "ios": "https://dc.lft.to/lastmile_qr_scan"}, "fusion_lon": 0.0}, {"lat": 38.903580166666664, "is_disabled": 0, "type": "electric_scooter", "lon": -77.01091766666667, "bike_id": "bd48b72a00ee0900d02ef5698b59eae5", "fusion_lat": 0.0, "name": "bd48b72a00ee0900d02ef5698b59eae5", "is_reserved": 0, "rental_uris": {"android": "https://dc.lft.to/lastmile_qr_scan", "ios": "https://dc.lft.to/lastmile_qr_scan"}, "fusion_lon": 0.0}, {"lat": 38.9015125, "is_disabled": 0, "type": "electric_scooter", "lon": -77.0416675, "bike_id": "2359dcb014f060f69b66711ab2781cc2", "fusion_lat": 0.0, "name": "2359dcb014f060f69b66711ab2781cc2", "is_reserved": 0, "rental_uris": {"android": "https://dc.lft.to/lastmile_qr_scan", "ios": "https://dc.lft.to/lastmile_qr_scan"}, "fusion_lon": 0.0}, {"lat": 38.906929833333336, "is_disabled": 0, "type": "electric_scooter", "lon": -77.06351633333334, "bike_id": "4c702a6297029dfa239b73c915ce0b5a", "fusion_lat": 0.0, "name": "4c702a6297029dfa239b73c915ce0b5a", "is_reserved": 0, "rental_uris": {"android": "https://dc.lft.to/lastmile_qr_scan", "ios": "https://dc.lft.to/lastmile_qr_scan"}, "fusion_lon": 0.0}, {"lat": 38.89886, "is_disabled": 0, "type": "electric_scooter", "lon": -77.0298075, "bike_id": "05d09ba91102165256fd3993cf55cd46", "fusion_lat": 0.0, "name": "05d09ba91102165256fd3993cf55cd46", "is_reserved": 0, "rental_uris": {"android": "https://dc.lft.to/lastmile_qr_scan", "ios": "https://dc.lft.to/lastmile_qr_scan"}, "fusion_lon": 0.0}, {"lat": 38.91260916666667, "is_disabled": 0, "type": "electric_scooter", "lon": -77.03493333333333, "bike_id": "4f4765ce2838d546fad000703d2d8780", "fusion_lat": 0.0, "name": "4f4765ce2838d546fad000703d2d8780", "is_reserved": 0, "rental_uris": {"android": "https://dc.lft.to/lastmile_qr_scan", "ios": "https://dc.lft.to/lastmile_qr_scan"}, "fusion_lon": 0.0}, {"lat": 38.9614835, "is_disabled": 0, "type": "electric_bike", "lon": -77.03239816666667, "bike_id": "e4e1d58606367218f76c872bf6b09df6", "fusion_lat": 0.0, "name": "e4e1d58606367218f76c872bf6b09df6", "is_reserved": 0, "rental_uris": {"android": "https://dc.lft.to/lastmile_qr_scan", "ios": "https://dc.lft.to/lastmile_qr_scan"}, "fusion_lon": 0.0}, {"lat": 38.90887683333333, "is_disabled": 0, "type": "electric_scooter", "lon": -77.03658316666667, "bike_id": "10d11a7785e5a1918a0b6172e8dec9c7", "fusion_lat": 0.0, "name": "10d11a7785e5a1918a0b6172e8dec9c7", "is_reserved": 0, "rental_uris": {"android": "https://dc.lft.to/lastmile_qr_scan", "ios": "https://dc.lft.to/lastmile_qr_scan"}, "fusion_lon": 0.0}, {"lat": 38.92242733333333, "is_disabled": 0, "type": "electric_scooter", "lon": -77.0291445, "bike_id": "03623ac3c8ba596cdc1327a4d4dcc906", "fusion_lat": 0.0, "name": "03623ac3c8ba596cdc1327a4d4dcc906", "is_reserved": 0, "rental_uris": {"android": "https://dc.lft.to/lastmile_qr_scan", "ios": "https://dc.lft.to/lastmile_qr_scan"}, "fusion_lon": 0.0}, {"lat": 38.90559283333333, "is_disabled": 0, "type": "electric_scooter", "lon": -77.05700483333334, "bike_id": "7d45eca6e13c0bb92f260931b5c0136e", "fusion_lat": 0.0, "name": "7d45eca6e13c0bb92f260931b5c0136e", "is_reserved": 0, "rental_uris": {"android": "https://dc.lft.to/lastmile_qr_scan", "ios": "https://dc.lft.to/lastmile_qr_scan"}, "fusion_lon": 0.0}, {"lat": 38.96157683333333, "is_disabled": 0, "type": "electric_scooter", "lon": -77.02789083333333, "bike_id": "942323e06819d46ae463643c26129ea6", "fusion_lat": 0.0, "name": "942323e06819d46ae463643c26129ea6", "is_reserved": 0, "rental_uris": {"android": "https://dc.lft.to/lastmile_qr_scan", "ios": "https://dc.lft.to/lastmile_qr_scan"}, "fusion_lon": 0.0}, {"lat": 38.862246, "is_disabled": 0, "type": "electric_scooter", "lon": -76.983733, "bike_id": "3505e3f2eb6cd8fa701107c5fc404f26", "fusion_lat": 0.0, "name": "3505e3f2eb6cd8fa701107c5fc404f26", "is_reserved": 0, "rental_uris": {"android": "https://dc.lft.to/lastmile_qr_scan", "ios": "https://dc.lft.to/lastmile_qr_scan"}, "fusion_lon": 0.0}, {"lat": 38.93567916666667, "is_disabled": 0, "type": "electric_scooter", "lon": -77.03726566666667, "bike_id": "2226f182381db62acfddcb50e214e6a4", "fusion_lat": 0.0, "name": "2226f182381db62acfddcb50e214e6a4", "is_reserved": 0, "rental_uris": {"android": "https://dc.lft.to/lastmile_qr_scan", "ios": "https://dc.lft.to/lastmile_qr_scan"}, "fusion_lon": 0.0}, {"lat": 38.89482683333333, "is_disabled": 0, "type": "electric_scooter", "lon": -76.94954333333334, "bike_id": "c8c37e31ec1838c7d0326d56770ae0c0", "fusion_lat": 0.0, "name": "c8c37e31ec1838c7d0326d56770ae0c0", "is_reserved": 0, "rental_uris": {"android": "https://dc.lft.to/lastmile_qr_scan", "ios": "https://dc.lft.to/lastmile_qr_scan"}, "fusion_lon": 0.0}, {"lat": 38.9101065, "is_disabled": 0, "type": "electric_scooter", "lon": -76.99388066666667, "bike_id": "315169d87ef0781ac68a1e940d994b3e", "fusion_lat": 0.0, "name": "315169d87ef0781ac68a1e940d994b3e", "is_reserved": 0, "rental_uris": {"android": "https://dc.lft.to/lastmile_qr_scan", "ios": "https://dc.lft.to/lastmile_qr_scan"}, "fusion_lon": 0.0}, {"lat": 38.916976, "is_disabled": 0, "type": "electric_scooter", "lon": -77.02980083333334, "bike_id": "8412b5b80c03ba023dca855eecea56d5", "fusion_lat": 0.0, "name": "8412b5b80c03ba023dca855eecea56d5", "is_reserved": 0, "rental_uris": {"android": "https://dc.lft.to/lastmile_qr_scan", "ios": "https://dc.lft.to/lastmile_qr_scan"}, "fusion_lon": 0.0}, {"lat": 38.882852, "is_disabled": 0, "type": "electric_bike", "lon": -76.93233766666667, "bike_id": "ebea07251dc170d2ea50b7e3900d2a03", "fusion_lat": 0.0, "name": "ebea07251dc170d2ea50b7e3900d2a03", "is_reserved": 0, "rental_uris": {"android": "https://dc.lft.to/lastmile_qr_scan", "ios": "https://dc.lft.to/lastmile_qr_scan"}, "fusion_lon": 0.0}, {"lat": 38.866174, "is_disabled": 0, "type": "electric_scooter", "lon": -76.98662566666667, "bike_id": "2f12e5e466be3b5dfe4bfabc9d90aba1", "fusion_lat": 0.0, "name": "2f12e5e466be3b5dfe4bfabc9d90aba1", "is_reserved": 0, "rental_uris": {"android": "https://dc.lft.to/lastmile_qr_scan", "ios": "https://dc.lft.to/lastmile_qr_scan"}, "fusion_lon": 0.0}, {"lat": 38.903392, "is_disabled": 0, "type": "electric_scooter", "lon": -76.9705555, "bike_id": "72f2b0f060f65058d1de00e9cd0493d5", "fusion_lat": 0.0, "name": "72f2b0f060f65058d1de00e9cd0493d5", "is_reserved": 0, "rental_uris": {"android": "https://dc.lft.to/lastmile_qr_scan", "ios": "https://dc.lft.to/lastmile_qr_scan"}, "fusion_lon": 0.0}, {"lat": 38.892174, "is_disabled": 0, "type": "electric_scooter", "lon": -77.04867, "bike_id": "e875ac477e502c90ded75ad7fa9c81b4", "fusion_lat": 0.0, "name": "e875ac477e502c90ded75ad7fa9c81b4", "is_reserved": 0, "rental_uris": {"android": "https://dc.lft.to/lastmile_qr_scan", "ios": "https://dc.lft.to/lastmile_qr_scan"}, "fusion_lon": 0.0}, {"lat": 38.91989233333334, "is_disabled": 0, "type": "electric_scooter", "lon": -77.02401516666667, "bike_id": "2cb7a8a69c765604c44b8803a83c5f97", "fusion_lat": 0.0, "name": "2cb7a8a69c765604c44b8803a83c5f97", "is_reserved": 0, "rental_uris": {"android": "https://dc.lft.to/lastmile_qr_scan", "ios": "https://dc.lft.to/lastmile_qr_scan"}, "fusion_lon": 0.0}, {"lat": 38.879293, "is_disabled": 0, "type": "electric_scooter", "lon": -77.00699383333334, "bike_id": "e1174dd4012b9c5095209c848b1bb026", "fusion_lat": 0.0, "name": "e1174dd4012b9c5095209c848b1bb026", "is_reserved": 0, "rental_uris": {"android": "https://dc.lft.to/lastmile_qr_scan", "ios": "https://dc.lft.to/lastmile_qr_scan"}, "fusion_lon": 0.0}, {"lat": 38.91561216666667, "is_disabled": 0, "type": "electric_scooter", "lon": -77.0098, "bike_id": "f29ea7329e54238a4ab25ff557189c37", "fusion_lat": 0.0, "name": "f29ea7329e54238a4ab25ff557189c37", "is_reserved": 0, "rental_uris": {"android": "https://dc.lft.to/lastmile_qr_scan", "ios": "https://dc.lft.to/lastmile_qr_scan"}, "fusion_lon": 0.0}, {"lat": 38.8641605, "is_disabled": 0, "type": "electric_bike", "lon": -76.97436316666666, "bike_id": "bd72bc727b7b7c4676af8e1224d2e62c", "fusion_lat": 0.0, "name": "bd72bc727b7b7c4676af8e1224d2e62c", "is_reserved": 0, "rental_uris": {"android": "https://dc.lft.to/lastmile_qr_scan", "ios": "https://dc.lft.to/lastmile_qr_scan"}, "fusion_lon": 0.0}, {"lat": 38.89409916666666, "is_disabled": 0, "type": "electric_scooter", "lon": -76.95666216666666, "bike_id": "5dff1f763aa420efcc99f36f6b8045e5", "fusion_lat": 0.0, "name": "5dff1f763aa420efcc99f36f6b8045e5", "is_reserved": 0, "rental_uris": {"android": "https://dc.lft.to/lastmile_qr_scan", "ios": "https://dc.lft.to/lastmile_qr_scan"}, "fusion_lon": 0.0}, {"lat": 38.91332633333333, "is_disabled": 0, "type": "electric_scooter", "lon": -77.04815833333333, "bike_id": "d9ed3f46e64318c55429197e33283981", "fusion_lat": 0.0, "name": "d9ed3f46e64318c55429197e33283981", "is_reserved": 0, "rental_uris": {"android": "https://dc.lft.to/lastmile_qr_scan", "ios": "https://dc.lft.to/lastmile_qr_scan"}, "fusion_lon": 0.0}, {"lat": 38.908275, "is_disabled": 0, "type": "electric_scooter", "lon": -76.99958983333333, "bike_id": "583146e045269e4dce7444f70e9d593e", "fusion_lat": 0.0, "name": "583146e045269e4dce7444f70e9d593e", "is_reserved": 0, "rental_uris": {"android": "https://dc.lft.to/lastmile_qr_scan", "ios": "https://dc.lft.to/lastmile_qr_scan"}, "fusion_lon": 0.0}, {"lat": 38.90262, "is_disabled": 0, "type": "electric_scooter", "lon": -77.04596533333333, "bike_id": "3e1a41d42431015222d5a1f49850129e", "fusion_lat": 0.0, "name": "3e1a41d42431015222d5a1f49850129e", "is_reserved": 0, "rental_uris": {"android": "https://dc.lft.to/lastmile_qr_scan", "ios": "https://dc.lft.to/lastmile_qr_scan"}, "fusion_lon": 0.0}, {"lat": 38.90970166666666, "is_disabled": 0, "type": "electric_scooter", "lon": -77.04519516666667, "bike_id": "1034a5f235c631410688c6b026f95496", "fusion_lat": 0.0, "name": "1034a5f235c631410688c6b026f95496", "is_reserved": 0, "rental_uris": {"android": "https://dc.lft.to/lastmile_qr_scan", "ios": "https://dc.lft.to/lastmile_qr_scan"}, "fusion_lon": 0.0}, {"lat": 38.90722616666667, "is_disabled": 0, "type": "electric_scooter", "lon": -76.9981305, "bike_id": "54dd8262686ee47552c72f86722b6ca2", "fusion_lat": 0.0, "name": "54dd8262686ee47552c72f86722b6ca2", "is_reserved": 0, "rental_uris": {"android": "https://dc.lft.to/lastmile_qr_scan", "ios": "https://dc.lft.to/lastmile_qr_scan"}, "fusion_lon": 0.0}, {"lat": 38.99616416666667, "is_disabled": 0, "type": "electric_scooter", "lon": -77.03224216666666, "bike_id": "8bc40ecc3d31e09db4d06f8f6a63770f", "fusion_lat": 0.0, "name": "8bc40ecc3d31e09db4d06f8f6a63770f", "is_reserved": 0, "rental_uris": {"android": "https://dc.lft.to/lastmile_qr_scan", "ios": "https://dc.lft.to/lastmile_qr_scan"}, "fusion_lon": 0.0}, {"lat": 38.933160666666666, "is_disabled": 0, "type": "electric_scooter", "lon": -77.03440716666667, "bike_id": "8ef57f847171f1f699df469e85a4f9a8", "fusion_lat": 0.0, "name": "8ef57f847171f1f699df469e85a4f9a8", "is_reserved": 0, "rental_uris": {"android": "https://dc.lft.to/lastmile_qr_scan", "ios": "https://dc.lft.to/lastmile_qr_scan"}, "fusion_lon": 0.0}, {"lat": 38.906906, "is_disabled": 0, "type": "electric_scooter", "lon": -77.057896, "bike_id": "1d07d5ea859bc573938fdea31e61df41", "fusion_lat": 0.0, "name": "1d07d5ea859bc573938fdea31e61df41", "is_reserved": 0, "rental_uris": {"android": "https://dc.lft.to/lastmile_qr_scan", "ios": "https://dc.lft.to/lastmile_qr_scan"}, "fusion_lon": 0.0}, {"lat": 38.91393166666667, "is_disabled": 0, "type": "electric_scooter", "lon": -77.01504366666667, "bike_id": "1277d3046a23a969d0e0c51a31caf41b", "fusion_lat": 0.0, "name": "1277d3046a23a969d0e0c51a31caf41b", "is_reserved": 0, "rental_uris": {"android": "https://dc.lft.to/lastmile_qr_scan", "ios": "https://dc.lft.to/lastmile_qr_scan"}, "fusion_lon": 0.0}, {"lat": 38.886374833333335, "is_disabled": 0, "type": "electric_scooter", "lon": -77.021757, "bike_id": "b55a5953e77e7a93a3dd9253a7de03b4", "fusion_lat": 0.0, "name": "b55a5953e77e7a93a3dd9253a7de03b4", "is_reserved": 0, "rental_uris": {"android": "https://dc.lft.to/lastmile_qr_scan", "ios": "https://dc.lft.to/lastmile_qr_scan"}, "fusion_lon": 0.0}, {"lat": 38.92059166666667, "is_disabled": 0, "type": "electric_scooter", "lon": -77.04277216666667, "bike_id": "607f3d0fbdcd393b694af3ae3033d554", "fusion_lat": 0.0, "name": "607f3d0fbdcd393b694af3ae3033d554", "is_reserved": 0, "rental_uris": {"android": "https://dc.lft.to/lastmile_qr_scan", "ios": "https://dc.lft.to/lastmile_qr_scan"}, "fusion_lon": 0.0}, {"lat": 38.900210666666666, "is_disabled": 0, "type": "electric_scooter", "lon": -77.04012766666666, "bike_id": "6f835f1ea9a768d8a5f4e2235e04eaef", "fusion_lat": 0.0, "name": "6f835f1ea9a768d8a5f4e2235e04eaef", "is_reserved": 0, "rental_uris": {"android": "https://dc.lft.to/lastmile_qr_scan", "ios": "https://dc.lft.to/lastmile_qr_scan"}, "fusion_lon": 0.0}, {"lat": 38.94630316666667, "is_disabled": 0, "type": "electric_scooter", "lon": -77.025223, "bike_id": "a3860c196bb9c00bf1ca2e6b652590be", "fusion_lat": 0.0, "name": "a3860c196bb9c00bf1ca2e6b652590be", "is_reserved": 0, "rental_uris": {"android": "https://dc.lft.to/lastmile_qr_scan", "ios": "https://dc.lft.to/lastmile_qr_scan"}, "fusion_lon": 0.0}, {"lat": 38.92155966666667, "is_disabled": 0, "type": "electric_scooter", "lon": -77.04237083333334, "bike_id": "a9e34fc178239d8f1c8f21503aaf8b46", "fusion_lat": 0.0, "name": "a9e34fc178239d8f1c8f21503aaf8b46", "is_reserved": 0, "rental_uris": {"android": "https://dc.lft.to/lastmile_qr_scan", "ios": "https://dc.lft.to/lastmile_qr_scan"}, "fusion_lon": 0.0}, {"lat": 38.93462183333333, "is_disabled": 0, "type": "electric_scooter", "lon": -77.0370155, "bike_id": "a4220d44836bedd69ff0190ba2f9749a", "fusion_lat": 0.0, "name": "a4220d44836bedd69ff0190ba2f9749a", "is_reserved": 0, "rental_uris": {"android": "https://dc.lft.to/lastmile_qr_scan", "ios": "https://dc.lft.to/lastmile_qr_scan"}, "fusion_lon": 0.0}, {"lat": 38.93647033333333, "is_disabled": 0, "type": "electric_scooter", "lon": -77.02088433333333, "bike_id": "8b75b865cabec2f4312aa5edeb9e1b16", "fusion_lat": 0.0, "name": "8b75b865cabec2f4312aa5edeb9e1b16", "is_reserved": 0, "rental_uris": {"android": "https://dc.lft.to/lastmile_qr_scan", "ios": "https://dc.lft.to/lastmile_qr_scan"}, "fusion_lon": 0.0}, {"lat": 38.90395, "is_disabled": 0, "type": "electric_scooter", "lon": -77.04348083333333, "bike_id": "e8c050cef3000f8d7edc099849196f19", "fusion_lat": 0.0, "name": "e8c050cef3000f8d7edc099849196f19", "is_reserved": 0, "rental_uris": {"android": "https://dc.lft.to/lastmile_qr_scan", "ios": "https://dc.lft.to/lastmile_qr_scan"}, "fusion_lon": 0.0}, {"lat": 38.892544, "is_disabled": 0, "type": "electric_bike", "lon": -76.99496233333333, "bike_id": "fe1c8b17a0652c1bfdc5aedd828daa70", "fusion_lat": 0.0, "name": "fe1c8b17a0652c1bfdc5aedd828daa70", "is_reserved": 0, "rental_uris": {"android": "https://dc.lft.to/lastmile_qr_scan", "ios": "https://dc.lft.to/lastmile_qr_scan"}, "fusion_lon": 0.0}, {"lat": 38.91992916666667, "is_disabled": 0, "type": "electric_scooter", "lon": -77.03233666666667, "bike_id": "4232bf9385dd7d544bfcdc1308e606ff", "fusion_lat": 0.0, "name": "4232bf9385dd7d544bfcdc1308e606ff", "is_reserved": 0, "rental_uris": {"android": "https://dc.lft.to/lastmile_qr_scan", "ios": "https://dc.lft.to/lastmile_qr_scan"}, "fusion_lon": 0.0}, {"lat": 38.934780833333335, "is_disabled": 0, "type": "electric_scooter", "lon": -77.02404466666667, "bike_id": "0e438ce63f7672924674cfda0a7c777a", "fusion_lat": 0.0, "name": "0e438ce63f7672924674cfda0a7c777a", "is_reserved": 0, "rental_uris": {"android": "https://dc.lft.to/lastmile_qr_scan", "ios": "https://dc.lft.to/lastmile_qr_scan"}, "fusion_lon": 0.0}, {"lat": 38.9573265, "is_disabled": 0, "type": "electric_scooter", "lon": -77.02399133333333, "bike_id": "de9d7fe2c02627cdfdf4e499167fc08b", "fusion_lat": 0.0, "name": "de9d7fe2c02627cdfdf4e499167fc08b", "is_reserved": 0, "rental_uris": {"android": "https://dc.lft.to/lastmile_qr_scan", "ios": "https://dc.lft.to/lastmile_qr_scan"}, "fusion_lon": 0.0}, {"lat": 38.88014016666666, "is_disabled": 0, "type": "electric_bike", "lon": -77.0056825, "bike_id": "0748bed9a89debf981d80c05514d245a", "fusion_lat": 0.0, "name": "0748bed9a89debf981d80c05514d245a", "is_reserved": 0, "rental_uris": {"android": "https://dc.lft.to/lastmile_qr_scan", "ios": "https://dc.lft.to/lastmile_qr_scan"}, "fusion_lon": 0.0}, {"lat": 38.925744, "is_disabled": 0, "type": "electric_scooter", "lon": -77.03789483333334, "bike_id": "5dac703d504d53f826d890e192d6f975", "fusion_lat": 0.0, "name": "5dac703d504d53f826d890e192d6f975", "is_reserved": 0, "rental_uris": {"android": "https://dc.lft.to/lastmile_qr_scan", "ios": "https://dc.lft.to/lastmile_qr_scan"}, "fusion_lon": 0.0}, {"lat": 38.92738466666667, "is_disabled": 0, "type": "electric_scooter", "lon": -77.022654, "bike_id": "7101350d8f552ae5aeacbd39f5c8eb06", "fusion_lat": 0.0, "name": "7101350d8f552ae5aeacbd39f5c8eb06", "is_reserved": 0, "rental_uris": {"android": "https://dc.lft.to/lastmile_qr_scan", "ios": "https://dc.lft.to/lastmile_qr_scan"}, "fusion_lon": 0.0}, {"lat": 38.8708045, "is_disabled": 0, "type": "electric_scooter", "lon": -77.01213983333334, "bike_id": "6c6e3fd69f1501ebe4a4f349c5668d71", "fusion_lat": 0.0, "name": "6c6e3fd69f1501ebe4a4f349c5668d71", "is_reserved": 0, "rental_uris": {"android": "https://dc.lft.to/lastmile_qr_scan", "ios": "https://dc.lft.to/lastmile_qr_scan"}, "fusion_lon": 0.0}, {"lat": 38.903654333333336, "is_disabled": 0, "type": "electric_scooter", "lon": -77.06035133333333, "bike_id": "5fdff6767c91d036d91dcb46e617d305", "fusion_lat": 0.0, "name": "5fdff6767c91d036d91dcb46e617d305", "is_reserved": 0, "rental_uris": {"android": "https://dc.lft.to/lastmile_qr_scan", "ios": "https://dc.lft.to/lastmile_qr_scan"}, "fusion_lon": 0.0}, {"lat": 38.89865666666667, "is_disabled": 0, "type": "electric_scooter", "lon": -77.0188025, "bike_id": "5d7d8f588228aa892f9cfa5c1b4c2339", "fusion_lat": 0.0, "name": "5d7d8f588228aa892f9cfa5c1b4c2339", "is_reserved": 0, "rental_uris": {"android": "https://dc.lft.to/lastmile_qr_scan", "ios": "https://dc.lft.to/lastmile_qr_scan"}, "fusion_lon": 0.0}, {"lat": 38.920675333333335, "is_disabled": 0, "type": "electric_scooter", "lon": -76.97598916666666, "bike_id": "57ebb2937e6f96cd9998dfe4a562f5f0", "fusion_lat": 0.0, "name": "57ebb2937e6f96cd9998dfe4a562f5f0", "is_reserved": 0, "rental_uris": {"android": "https://dc.lft.to/lastmile_qr_scan", "ios": "https://dc.lft.to/lastmile_qr_scan"}, "fusion_lon": 0.0}, {"lat": 38.90552983333333, "is_disabled": 0, "type": "electric_scooter", "lon": -77.05691633333333, "bike_id": "b84beb283b4fe19dbd1c3c31fc13d460", "fusion_lat": 0.0, "name": "b84beb283b4fe19dbd1c3c31fc13d460", "is_reserved": 0, "rental_uris": {"android": "https://dc.lft.to/lastmile_qr_scan", "ios": "https://dc.lft.to/lastmile_qr_scan"}, "fusion_lon": 0.0}, {"lat": 38.903180666666664, "is_disabled": 0, "type": "electric_scooter", "lon": -77.06520866666666, "bike_id": "6caea9e381796bd1ade171f83f5274c4", "fusion_lat": 0.0, "name": "6caea9e381796bd1ade171f83f5274c4", "is_reserved": 0, "rental_uris": {"android": "https://dc.lft.to/lastmile_qr_scan", "ios": "https://dc.lft.to/lastmile_qr_scan"}, "fusion_lon": 0.0}, {"lat": 38.879145666666666, "is_disabled": 0, "type": "electric_scooter", "lon": -76.9914825, "bike_id": "943129b88cb38370e84a57ff00054727", "fusion_lat": 0.0, "name": "943129b88cb38370e84a57ff00054727", "is_reserved": 0, "rental_uris": {"android": "https://dc.lft.to/lastmile_qr_scan", "ios": "https://dc.lft.to/lastmile_qr_scan"}, "fusion_lon": 0.0}, {"lat": 38.9615555, "is_disabled": 0, "type": "electric_scooter", "lon": -77.0282255, "bike_id": "35664a5a7da80f75b7fef552ee93a401", "fusion_lat": 0.0, "name": "35664a5a7da80f75b7fef552ee93a401", "is_reserved": 0, "rental_uris": {"android": "https://dc.lft.to/lastmile_qr_scan", "ios": "https://dc.lft.to/lastmile_qr_scan"}, "fusion_lon": 0.0}, {"lat": 38.896801833333335, "is_disabled": 0, "type": "electric_scooter", "lon": -76.93535483333334, "bike_id": "05e55544c19ff33fad44545365f268bb", "fusion_lat": 0.0, "name": "05e55544c19ff33fad44545365f268bb", "is_reserved": 0, "rental_uris": {"android": "https://dc.lft.to/lastmile_qr_scan", "ios": "https://dc.lft.to/lastmile_qr_scan"}, "fusion_lon": 0.0}, {"lat": 38.9314705, "is_disabled": 0, "type": "electric_scooter", "lon": -77.038322, "bike_id": "18d43debc862d933d4b6a1c3568066d1", "fusion_lat": 0.0, "name": "18d43debc862d933d4b6a1c3568066d1", "is_reserved": 0, "rental_uris": {"android": "https://dc.lft.to/lastmile_qr_scan", "ios": "https://dc.lft.to/lastmile_qr_scan"}, "fusion_lon": 0.0}, {"lat": 38.91715533333333, "is_disabled": 0, "type": "electric_scooter", "lon": -77.0386025, "bike_id": "8cdcfb611946c2a08b58df516381dc1b", "fusion_lat": 0.0, "name": "8cdcfb611946c2a08b58df516381dc1b", "is_reserved": 0, "rental_uris": {"android": "https://dc.lft.to/lastmile_qr_scan", "ios": "https://dc.lft.to/lastmile_qr_scan"},