{"data": {"bikes": [{"name": "37e0cf1594383da62e0ff1e96652e646", "type": "electric_bike", "lat": 38.99230383333333, "is_reserved": 0, "lon": -76.87822066666666, "fusion_lon": 0.0, "is_disabled": 0, "fusion_lat": 0.0, "bike_id": "37e0cf1594383da62e0ff1e96652e646", "rental_uris": {"ios": "https://dc.lft.to/lastmile_qr_scan", "android": "https://dc.lft.to/lastmile_qr_scan"}}, {"name": "d3f7ea20639708947e0e5d0df8959dee", "type": "electric_scooter", "lat": 38.84293316666667, "is_reserved": 0, "lon": -76.999506, "fusion_lon": 0.0, "is_disabled": 0, "fusion_lat": 0.0, "bike_id": "d3f7ea20639708947e0e5d0df8959dee", "rental_uris": {"ios": "https://dc.lft.to/lastmile_qr_scan", "android": "https://dc.lft.to/lastmile_qr_scan"}}, {"name": "13912e8d9a12f36027628b62ca023ca8", "type": "electric_scooter", "lat": 38.90038, "is_reserved": 0, "lon": -77.02594583333334, "fusion_lon": 0.0, "is_disabled": 0, "fusion_lat": 0.0, "bike_id": "13912e8d9a12f36027628b62ca023ca8", "rental_uris": {"ios": "https://dc.lft.to/lastmile_qr_scan", "android": "https://dc.lft.to/lastmile_qr_scan"}}, {"name": "6077b36359880fd7c5a7b936e2443e7f", "type": "electric_scooter", "lat": 38.901432166666666, "is_reserved": 0, "lon": -77.01196133333333, "fusion_lon": 0.0, "is_disabled": 0, "fusion_lat": 0.0, "bike_id": "6077b36359880fd7c5a7b936e2443e7f", "rental_uris": {"ios": "https://dc.lft.to/lastmile_qr_scan", "android": "https://dc.lft.to/lastmile_qr_scan"}}, {"name": "793b2368bf13fca573a619d7405b5714", "type": "electric_scooter", "lat": 38.902747166666664, "is_reserved": 0, "lon": -77.06115283333334, "fusion_lon": 0.0, "is_disabled": 0, "fusion_lat": 0.0, "bike_id": "793b2368bf13fca573a619d7405b5714", "rental_uris": {"ios": "https://dc.lft.to/lastmile_qr_scan", "android": "https://dc.lft.to/lastmile_qr_scan"}}, {"name": "df9cb6979a11bff5a998343f290f6464", "type": "electric_scooter", "lat": 38.911233333333335, "is_reserved": 0, "lon": -77.03734216666666, "fusion_lon": 0.0, "is_disabled": 0, "fusion_lat": 0.0, "bike_id": "df9cb6979a11bff5a998343f290f6464", "rental_uris": {"ios": "https://dc.lft.to/lastmile_qr_scan", "android": "https://dc.lft.to/lastmile_qr_scan"}}, {"name": "26647c886ed00894114431587c411fd1", "type": "electric_bike", "lat": 38.922126166666665, "is_reserved": 0, "lon": -76.98836116666666, "fusion_lon": 0.0, "is_disabled": 0, "fusion_lat": 0.0, "bike_id": "26647c886ed00894114431587c411fd1", "rental_uris": {"ios": "https://dc.lft.to/lastmile_qr_scan", "android": "https://dc.lft.to/lastmile_qr_scan"}}, {"name": "f79e7c74de8d6a14b60f10f0fcf21d13", "type": "electric_bike", "lat": 38.969210333333336, "is_reserved": 0, "lon": -76.95645716666667, "fusion_lon": 0.0, "is_disabled": 0, "fusion_lat": 0.0, "bike_id": "f79e7c74de8d6a14b60f10f0fcf21d13", "rental_uris": {"ios": "https://dc.lft.to/lastmile_qr_scan", "android": "https://dc.lft.to/lastmile_qr_scan"}}, {"name": "457c1cab52248ffbd206567c4d384b65", "type": "electric_scooter", "lat": 38.922859333333335, "is_reserved": 0, "lon": -77.0366075, "fusion_lon": 0.0, "is_disabled": 0, "fusion_lat": 0.0, "bike_id": "457c1cab52248ffbd206567c4d384b65", "rental_uris": {"ios": "https://dc.lft.to/lastmile_qr_scan", "android": "https://dc.lft.to/lastmile_qr_scan"}}, {"name": "c08db9746343b5581c8c41e5ce6d78b8", "type": "electric_scooter", "lat": 38.893307666666665, "is_reserved": 0, "lon": -76.9299655, "fusion_lon": 0.0, "is_disabled": 0, "fusion_lat": 0.0, "bike_id": "c08db9746343b5581c8c41e5ce6d78b8", "rental_uris": {"ios": "https://dc.lft.to/lastmile_qr_scan", "android": "https://dc.lft.to/lastmile_qr_scan"}}, {"name": "b277fdef5bf1e3c565b1e38b04221dbc", "type": "electric_scooter", "lat": 38.907553166666666, "is_reserved": 0, "lon": -77.03068533333334, "fusion_lon": 0.0, "is_disabled": 0, "fusion_lat": 0.0, "bike_id": "b277fdef5bf1e3c565b1e38b04221dbc", "rental_uris": {"ios": "https://dc.lft.to/lastmile_qr_scan", "android": "https://dc.lft.to/lastmile_qr_scan"}}, {"name": "0399f6d9b36ed5f4c0be2626e0d4aa95", "type": "electric_scooter", "lat": 38.88610233333333, "is_reserved": 0, "lon": -76.99515616666666, "fusion_lon": 0.0, "is_disabled": 0, "fusion_lat": 0.0, "bike_id": "0399f6d9b36ed5f4c0be2626e0d4aa95", "rental_uris": {"ios": "https://dc.lft.to/lastmile_qr_scan", "android": "https://dc.lft.to/lastmile_qr_scan"}}, {"name": "1b16e5d72744c1ab21566ba0df04019d", "type": "electric_scooter", "lat": 38.921580666666664, "is_reserved": 0, "lon": -77.03855516666667, "fusion_lon": 0.0, "is_disabled": 0, "fusion_lat": 0.0, "bike_id": "1b16e5d72744c1ab21566ba0df04019d", "rental_uris": {"ios": "https://dc.lft.to/lastmile_qr_scan", "android": "https://dc.lft.to/lastmile_qr_scan"}}, {"name": "21f86a97d037f393468411bbe15d5511", "type": "electric_scooter", "lat": 38.9365885, "is_reserved": 0, "lon": -77.03680016666667, "fusion_lon": 0.0, "is_disabled": 0, "fusion_lat": 0.0, "bike_id": "21f86a97d037f393468411bbe15d5511", "rental_uris": {"ios": "https://dc.lft.to/lastmile_qr_scan", "android": "https://dc.lft.to/lastmile_qr_scan"}}, {"name": "ed0c14bfd07f333b9c5dd9b33fe04347", "type": "electric_scooter", "lat": 38.89980383333334, "is_reserved": 0, "lon": -76.99147383333333, "fusion_lon": 0.0, "is_disabled": 0, "fusion_lat": 0.0, "bike_id": "ed0c14bfd07f333b9c5dd9b33fe04347", "rental_uris": {"ios": "https://dc.lft.to/lastmile_qr_scan", "android": "https://dc.lft.to/lastmile_qr_scan"}}, {"name": "e9819f3ee89140033a522d7a8a8f590a", "type": "electric_scooter", "lat": 38.90482383333333, "is_reserved": 0, "lon": -77.0271805, "fusion_lon": 0.0, "is_disabled": 0, "fusion_lat": 0.0, "bike_id": "e9819f3ee89140033a522d7a8a8f590a", "rental_uris": {"ios": "https://dc.lft.to/lastmile_qr_scan", "android": "https://dc.lft.to/lastmile_qr_scan"}}, {"name": "095fc915090d32bce8701c6d47ad38f7", "type": "electric_scooter", "lat": 38.87632166666667, "is_reserved": 0, "lon": -76.9652885, "fusion_lon": 0.0, "is_disabled": 0, "fusion_lat": 0.0, "bike_id": "095fc915090d32bce8701c6d47ad38f7", "rental_uris": {"ios": "https://dc.lft.to/lastmile_qr_scan", "android": "https://dc.lft.to/lastmile_qr_scan"}}, {"name": "f2d77bfe9be18628eeb8b2253cdf944f", "type": "electric_bike", "lat": 38.941553, "is_reserved": 0, "lon": -77.001971, "fusion_lon": 0.0, "is_disabled": 0, "fusion_lat": 0.0, "bike_id": "f2d77bfe9be18628eeb8b2253cdf944f", "rental_uris": {"ios": "https://dc.lft.to/lastmile_qr_scan", "android": "https://dc.lft.to/lastmile_qr_scan"}}, {"name": "647de77439bb04df456eafed6128aaf1", "type": "electric_bike", "lat": 38.8798155, "is_reserved": 0, "lon": -76.91602283333333, "fusion_lon": 0.0, "is_disabled": 0, "fusion_lat": 0.0, "bike_id": "647de77439bb04df456eafed6128aaf1", "rental_uris": {"ios": "https://dc.lft.to/lastmile_qr_scan", "android": "https://dc.lft.to/lastmile_qr_scan"}}, {"name": "984a1ff23de872acb79617328cb6508a", "type": "electric_scooter", "lat": 38.93540516666667, "is_reserved": 0, "lon": -77.0370125, "fusion_lon": 0.0, "is_disabled": 0, "fusion_lat": 0.0, "bike_id": "984a1ff23de872acb79617328cb6508a", "rental_uris": {"ios": "https://dc.lft.to/lastmile_qr_scan", "android": "https://dc.lft.to/lastmile_qr_scan"}}, {"name": "c786bbd1d8ae1422f6375dc1a5eac049", "type": "electric_scooter", "lat": 38.92694183333333, "is_reserved": 0, "lon": -77.09564316666666, "fusion_lon": 0.0, "is_disabled": 0, "fusion_lat": 0.0, "bike_id": "c786bbd1d8ae1422f6375dc1a5eac049", "rental_uris": {"ios": "https://dc.lft.to/lastmile_qr_scan", "android": "https://dc.lft.to/lastmile_qr_scan"}}, {"name": "1acdb6d3f6ff7aad54a64b13d669a534", "type": "electric_scooter", "lat": 38.91591, "is_reserved": 0, "lon": -77.04474383333333, "fusion_lon": 0.0, "is_disabled": 0, "fusion_lat": 0.0, "bike_id": "1acdb6d3f6ff7aad54a64b13d669a534", "rental_uris": {"ios": "https://dc.lft.to/lastmile_qr_scan", "android": "https://dc.lft.to/lastmile_qr_scan"}}, {"name": "834623a77f9807f91c7c35afb5b8afdc", "type": "electric_scooter", "lat": 38.935818833333336, "is_reserved": 0, "lon": -76.99103466666666, "fusion_lon": 0.0, "is_disabled": 0, "fusion_lat": 0.0, "bike_id": "834623a77f9807f91c7c35afb5b8afdc", "rental_uris": {"ios": "https://dc.lft.to/lastmile_qr_scan", "android": "https://dc.lft.to/lastmile_qr_scan"}}, {"name": "2a3b197ac45506b1230b81756439b384", "type": "electric_scooter", "lat": 38.92532883333333, "is_reserved": 0, "lon": -77.0555055, "fusion_lon": 0.0, "is_disabled": 0, "fusion_lat": 0.0, "bike_id": "2a3b197ac45506b1230b81756439b384", "rental_uris": {"ios": "https://dc.lft.to/lastmile_qr_scan", "android": "https://dc.lft.to/lastmile_qr_scan"}}, {"name": "2a8e84d23e32c2bba4669fc2f4b2a4d2", "type": "electric_scooter", "lat": 38.922357166666664, "is_reserved": 0, "lon": -77.03355316666666, "fusion_lon": 0.0, "is_disabled": 0, "fusion_lat": 0.0, "bike_id": "2a8e84d23e32c2bba4669fc2f4b2a4d2", "rental_uris": {"ios": "https://dc.lft.to/lastmile_qr_scan", "android": "https://dc.lft.to/lastmile_qr_scan"}}, {"name": "8cdf8277a6dc5ebc1c3ee723fd422e26", "type": "electric_scooter", "lat": 38.918722, "is_reserved": 0, "lon": -77.043808, "fusion_lon": 0.0, "is_disabled": 0, "fusion_lat": 0.0, "bike_id": "8cdf8277a6dc5ebc1c3ee723fd422e26", "rental_uris": {"ios": "https://dc.lft.to/lastmile_qr_scan", "android": "https://dc.lft.to/lastmile_qr_scan"}}, {"name": "a57bf57f1680a8406665a5e83c30f30a", "type": "electric_scooter", "lat": 38.90152783333333, "is_reserved": 0, "lon": -76.9306625, "fusion_lon": 0.0, "is_disabled": 0, "fusion_lat": 0.0, "bike_id": "a57bf57f1680a8406665a5e83c30f30a", "rental_uris": {"ios": "https://dc.lft.to/lastmile_qr_scan", "android": "https://dc.lft.to/lastmile_qr_scan"}}, {"name": "e462cfc0800968390a68e643351b84ff", "type": "electric_scooter", "lat": 38.924707166666664, "is_reserved": 0, "lon": -77.02833366666667, "fusion_lon": 0.0, "is_disabled": 0, "fusion_lat": 0.0, "bike_id": "e462cfc0800968390a68e643351b84ff", "rental_uris": {"ios": "https://dc.lft.to/lastmile_qr_scan", "android": "https://dc.lft.to/lastmile_qr_scan"}}, {"name": "7b3ff7ab7c2d149f17751aa70bbbe7a7", "type": "electric_scooter", "lat": 38.924650166666666, "is_reserved": 0, "lon": -77.037582, "fusion_lon": 0.0, "is_disabled": 0, "fusion_lat": 0.0, "bike_id": "7b3ff7ab7c2d149f17751aa70bbbe7a7", "rental_uris": {"ios": "https://dc.lft.to/lastmile_qr_scan", "android": "https://dc.lft.to/lastmile_qr_scan"}}, {"name": "0f27ab0e1db74a931bc36251519d6441", "type": "electric_scooter", "lat": 38.91089866666667, "is_reserved": 0, "lon": -77.038475, "fusion_lon": 0.0, "is_disabled": 0, "fusion_lat": 0.0, "bike_id": "0f27ab0e1db74a931bc36251519d6441", "rental_uris": {"ios": "https://dc.lft.to/lastmile_qr_scan", "android": "https://dc.lft.to/lastmile_qr_scan"}}, {"name": "bd1fdd2717304f7b3f09613bf5ffa5e6", "type": "electric_scooter", "lat": 38.9084055, "is_reserved": 0, "lon": -77.02695333333334, "fusion_lon": 0.0, "is_disabled": 0, "fusion_lat": 0.0, "bike_id": "bd1fdd2717304f7b3f09613bf5ffa5e6", "rental_uris": {"ios": "https://dc.lft.to/lastmile_qr_scan", "android": "https://dc.lft.to/lastmile_qr_scan"}}, {"name": "5fb25e9c15a6bf879542b484c28e010b", "type": "electric_scooter", "lat": 38.923133, "is_reserved": 0, "lon": -77.039174, "fusion_lon": 0.0, "is_disabled": 0, "fusion_lat": 0.0, "bike_id": "5fb25e9c15a6bf879542b484c28e010b", "rental_uris": {"ios": "https://dc.lft.to/lastmile_qr_scan", "android": "https://dc.lft.to/lastmile_qr_scan"}}, {"name": "a78570c5955be0eba6f94803ad1bfe14", "type": "electric_scooter", "lat": 38.89405633333333, "is_reserved": 0, "lon": -76.94804016666667, "fusion_lon": 0.0, "is_disabled": 0, "fusion_lat": 0.0, "bike_id": "a78570c5955be0eba6f94803ad1bfe14", "rental_uris": {"ios": "https://dc.lft.to/lastmile_qr_scan", "android": "https://dc.lft.to/lastmile_qr_scan"}}, {"name": "319f7ac59dfc901cbf7cfda50329986e", "type": "electric_scooter", "lat": 38.85715016666666, "is_reserved": 0, "lon": -76.98130933333333, "fusion_lon": 0.0, "is_disabled": 0, "fusion_lat": 0.0, "bike_id": "319f7ac59dfc901cbf7cfda50329986e", "rental_uris": {"ios": "https://dc.lft.to/lastmile_qr_scan", "android": "https://dc.lft.to/lastmile_qr_scan"}}, {"name": "0a2b7983bdc0d05334dd38ee4727b5e4", "type": "electric_scooter", "lat": 38.90552133333333, "is_reserved": 0, "lon": -77.00608833333334, "fusion_lon": 0.0, "is_disabled": 0, "fusion_lat": 0.0, "bike_id": "0a2b7983bdc0d05334dd38ee4727b5e4", "rental_uris": {"ios": "https://dc.lft.to/lastmile_qr_scan", "android": "https://dc.lft.to/lastmile_qr_scan"}}, {"name": "7464d8a3d7b03c8f9d643a19cda683d1", "type": "electric_scooter", "lat": 38.85616183333333, "is_reserved": 0, "lon": -76.98022883333333, "fusion_lon": 0.0, "is_disabled": 0, "fusion_lat": 0.0, "bike_id": "7464d8a3d7b03c8f9d643a19cda683d1", "rental_uris": {"ios": "https://dc.lft.to/lastmile_qr_scan", "android": "https://dc.lft.to/lastmile_qr_scan"}}, {"name": "0e53a4927eaecd363cf82b5318146d04", "type": "electric_scooter", "lat": 38.919156666666666, "is_reserved": 0, "lon": -77.01343966666667, "fusion_lon": 0.0, "is_disabled": 0, "fusion_lat": 0.0, "bike_id": "0e53a4927eaecd363cf82b5318146d04", "rental_uris": {"ios": "https://dc.lft.to/lastmile_qr_scan", "android": "https://dc.lft.to/lastmile_qr_scan"}}, {"name": "e1c21d398b66c8986a67c28ba666ce74", "type": "electric_scooter", "lat": 38.895843666666664, "is_reserved": 0, "lon": -76.93720733333333, "fusion_lon": 0.0, "is_disabled": 0, "fusion_lat": 0.0, "bike_id": "e1c21d398b66c8986a67c28ba666ce74", "rental_uris": {"ios": "https://dc.lft.to/lastmile_qr_scan", "android": "https://dc.lft.to/lastmile_qr_scan"}}, {"name": "6cb37fc7749d40e3d04d35efd11b7629", "type": "electric_scooter", "lat": 38.912694, "is_reserved": 0, "lon": -77.060895, "fusion_lon": 0.0, "is_disabled": 0, "fusion_lat": 0.0, "bike_id": "6cb37fc7749d40e3d04d35efd11b7629", "rental_uris": {"ios": "https://dc.lft.to/lastmile_qr_scan", "android": "https://dc.lft.to/lastmile_qr_scan"}}, {"name": "e6b78afe8effec2f57fe5e8ab6fecd34", "type": "electric_scooter", "lat": 38.84294, "is_reserved": 0, "lon": -76.99948716666667, "fusion_lon": 0.0, "is_disabled": 0, "fusion_lat": 0.0, "bike_id": "e6b78afe8effec2f57fe5e8ab6fecd34", "rental_uris": {"ios": "https://dc.lft.to/lastmile_qr_scan", "android": "https://dc.lft.to/lastmile_qr_scan"}}, {"name": "9bef47ec35c965f43a5af95c645bd4c6", "type": "electric_scooter", "lat": 38.90451433333333, "is_reserved": 0, "lon": -76.99627066666666, "fusion_lon": 0.0, "is_disabled": 0, "fusion_lat": 0.0, "bike_id": "9bef47ec35c965f43a5af95c645bd4c6", "rental_uris": {"ios": "https://dc.lft.to/lastmile_qr_scan", "android": "https://dc.lft.to/lastmile_qr_scan"}}, {"name": "bb95a8dd5698cc6e415c588fd68933f2", "type": "electric_scooter", "lat": 38.910188166666664, "is_reserved": 0, "lon": -77.009205, "fusion_lon": 0.0, "is_disabled": 0, "fusion_lat": 0.0, "bike_id": "bb95a8dd5698cc6e415c588fd68933f2", "rental_uris": {"ios": "https://dc.lft.to/lastmile_qr_scan", "android": "https://dc.lft.to/lastmile_qr_scan"}}, {"name": "7b3e35f9fe7df51737b83df428894f75", "type": "electric_scooter", "lat": 38.90294516666667, "is_reserved": 0, "lon": -76.99855616666666, "fusion_lon": 0.0, "is_disabled": 0, "fusion_lat": 0.0, "bike_id": "7b3e35f9fe7df51737b83df428894f75", "rental_uris": {"ios": "https://dc.lft.to/lastmile_qr_scan", "android": "https://dc.lft.to/lastmile_qr_scan"}}, {"name": "19f401482fd194ef55ac23c69ec18d1a", "type": "electric_scooter", "lat": 38.878373333333336, "is_reserved": 0, "lon": -76.9904075, "fusion_lon": 0.0, "is_disabled": 0, "fusion_lat": 0.0, "bike_id": "19f401482fd194ef55ac23c69ec18d1a", "rental_uris": {"ios": "https://dc.lft.to/lastmile_qr_scan", "android": "https://dc.lft.to/lastmile_qr_scan"}}, {"name": "88200edc26af7bc48f71889eb5d736e8", "type": "electric_scooter", "lat": 38.934931666666664, "is_reserved": 0, "lon": -77.03286633333333, "fusion_lon": 0.0, "is_disabled": 0, "fusion_lat": 0.0, "bike_id": "88200edc26af7bc48f71889eb5d736e8", "rental_uris": {"ios": "https://dc.lft.to/lastmile_qr_scan", "android": "https://dc.lft.to/lastmile_qr_scan"}}, {"name": "0ef691903cf52d071a3ababb2d386856", "type": "electric_scooter", "lat": 38.91733383333333, "is_reserved": 0, "lon": -77.0684835, "fusion_lon": 0.0, "is_disabled": 0, "fusion_lat": 0.0, "bike_id": "0ef691903cf52d071a3ababb2d386856", "rental_uris": {"ios": "https://dc.lft.to/lastmile_qr_scan", "android": "https://dc.lft.to/lastmile_qr_scan"}}, {"name": "702c4009dbb15266dd560176e204abe7", "type": "electric_scooter", "lat": 38.876301, "is_reserved": 0, "lon": -76.9652925, "fusion_lon": 0.0, "is_disabled": 0, "fusion_lat": 0.0, "bike_id": "702c4009dbb15266dd560176e204abe7", "rental_uris": {"ios": "https://dc.lft.to/lastmile_qr_scan", "android": "https://dc.lft.to/lastmile_qr_scan"}}, {"name": "45c85ea2150b170f911a56c8391b1bfa", "type": "electric_scooter", "lat": 38.90268866666667, "is_reserved": 0, "lon": -77.03171966666666, "fusion_lon": 0.0, "is_disabled": 0, "fusion_lat": 0.0, "bike_id": "45c85ea2150b170f911a56c8391b1bfa", "rental_uris": {"ios": "https://dc.lft.to/lastmile_qr_scan", "android": "https://dc.lft.to/lastmile_qr_scan"}}, {"name": "f6ce706c63abbc2bbc9f81e0cd33737d", "type": "electric_scooter", "lat": 38.8922115, "is_reserved": 0, "lon": -77.04263183333333, "fusion_lon": 0.0, "is_disabled": 0, "fusion_lat": 0.0, "bike_id": "f6ce706c63abbc2bbc9f81e0cd33737d", "rental_uris": {"ios": "https://dc.lft.to/lastmile_qr_scan", "android": "https://dc.lft.to/lastmile_qr_scan"}}, {"name": "83e25b21735dda9acbeeba5f41d2e995", "type": "electric_bike", "lat": 38.86908733333333, "is_reserved": 0, "lon": -77.13185066666667, "fusion_lon": 0.0, "is_disabled": 0, "fusion_lat": 0.0, "bike_id": "83e25b21735dda9acbeeba5f41d2e995", "rental_uris": {"ios": "https://dc.lft.to/lastmile_qr_scan", "android": "https://dc.lft.to/lastmile_qr_scan"}}, {"name": "561763835285ddfc0def756fc18e034d", "type": "electric_scooter", "lat": 38.90684683333333, "is_reserved": 0, "lon": -77.0134795, "fusion_lon": 0.0, "is_disabled": 0, "fusion_lat": 0.0, "bike_id": "561763835285ddfc0def756fc18e034d", "rental_uris": {"ios": "https://dc.lft.to/lastmile_qr_scan", "android": "https://dc.lft.to/lastmile_qr_scan"}}, {"name": "532d761a159d380d3003d53982978622", "type": "electric_scooter", "lat": 38.906524833333336, "is_reserved": 0, "lon": -77.03851316666666, "fusion_lon": 0.0, "is_disabled": 0, "fusion_lat": 0.0, "bike_id": "532d761a159d380d3003d53982978622", "rental_uris": {"ios": "https://dc.lft.to/lastmile_qr_scan", "android": "https://dc.lft.to/lastmile_qr_scan"}}, {"name": "d5407a467d1d453d8c4ef567e3a47e4b", "type": "electric_scooter", "lat": 38.922469, "is_reserved": 0, "lon": -77.01019, "fusion_lon": 0.0, "is_disabled": 0, "fusion_lat": 0.0, "bike_id": "d5407a467d1d453d8c4ef567e3a47e4b", "rental_uris": {"ios": "https://dc.lft.to/lastmile_qr_scan", "android": "https://dc.lft.to/lastmile_qr_scan"}}, {"name": "54f13b6562f5bec852cfcbf8766a8b4c", "type": "electric_scooter", "lat": 38.9064405, "is_reserved": 0, "lon": -76.98574566666667, "fusion_lon": 0.0, "is_disabled": 0, "fusion_lat": 0.0, "bike_id": "54f13b6562f5bec852cfcbf8766a8b4c", "rental_uris": {"ios": "https://dc.lft.to/lastmile_qr_scan", "android": "https://dc.lft.to/lastmile_qr_scan"}}, {"name": "abd4c77224b6de170ce31b08f46f54a3", "type": "electric_scooter", "lat": 38.92721983333333, "is_reserved": 0, "lon": -77.03078516666666, "fusion_lon": 0.0, "is_disabled": 0, "fusion_lat": 0.0, "bike_id": "abd4c77224b6de170ce31b08f46f54a3", "rental_uris": {"ios": "https://dc.lft.to/lastmile_qr_scan", "android": "https://dc.lft.to/lastmile_qr_scan"}}, {"name": "5c71392e5f6e40a73f95debc4b8476b8", "type": "electric_scooter", "lat": 38.932518333333334, "is_reserved": 0, "lon": -77.03277033333333, "fusion_lon": 0.0, "is_disabled": 0, "fusion_lat": 0.0, "bike_id": "5c71392e5f6e40a73f95debc4b8476b8", "rental_uris": {"ios": "https://dc.lft.to/lastmile_qr_scan", "android": "https://dc.lft.to/lastmile_qr_scan"}}, {"name": "6b48629b5cbe17fc8f5b33ac8660f37e", "type": "electric_scooter", "lat": 38.921812333333335, "is_reserved": 0, "lon": -77.04024316666667, "fusion_lon": 0.0, "is_disabled": 0, "fusion_lat": 0.0, "bike_id": "6b48629b5cbe17fc8f5b33ac8660f37e", "rental_uris": {"ios": "https://dc.lft.to/lastmile_qr_scan", "android": "https://dc.lft.to/lastmile_qr_scan"}}, {"name": "dedaffaf5d4dfa3410db3059791306e5", "type": "electric_scooter", "lat": 38.918188, "is_reserved": 0, "lon": -77.03435266666666, "fusion_lon": 0.0, "is_disabled": 0, "fusion_lat": 0.0, "bike_id": "dedaffaf5d4dfa3410db3059791306e5", "rental_uris": {"ios": "https://dc.lft.to/lastmile_qr_scan", "android": "https://dc.lft.to/lastmile_qr_scan"}}, {"name": "b574363ca3f418ad9089a8a8d6408b54", "type": "electric_scooter", "lat": 38.9111245, "is_reserved": 0, "lon": -77.03625783333334, "fusion_lon": 0.0, "is_disabled": 0, "fusion_lat": 0.0, "bike_id": "b574363ca3f418ad9089a8a8d6408b54", "rental_uris": {"ios": "https://dc.lft.to/lastmile_qr_scan", "android": "https://dc.lft.to/lastmile_qr_scan"}}, {"name": "590e90c35d50dcbf10576493142ae6a9", "type": "electric_scooter", "lat": 38.9154625, "is_reserved": 0, "lon": -77.03857466666666, "fusion_lon": 0.0, "is_disabled": 0, "fusion_lat": 0.0, "bike_id": "590e90c35d50dcbf10576493142ae6a9", "rental_uris": {"ios": "https://dc.lft.to/lastmile_qr_scan", "android": "https://dc.lft.to/lastmile_qr_scan"}}, {"name": "48184b6a4e8b3dd611c48bfcf841d126", "type": "electric_scooter", "lat": 38.90269083333333, "is_reserved": 0, "lon": -77.0590805, "fusion_lon": 0.0, "is_disabled": 0, "fusion_lat": 0.0, "bike_id": "48184b6a4e8b3dd611c48bfcf841d126", "rental_uris": {"ios": "https://dc.lft.to/lastmile_qr_scan", "android": "https://dc.lft.to/lastmile_qr_scan"}}, {"name": "a3e6e12a59ab47c54041c09dfc1116d6", "type": "electric_scooter", "lat": 38.91643933333334, "is_reserved": 0, "lon": -77.03180933333333, "fusion_lon": 0.0, "is_disabled": 0, "fusion_lat": 0.0, "bike_id": "a3e6e12a59ab47c54041c09dfc1116d6", "rental_uris": {"ios": "https://dc.lft.to/lastmile_qr_scan", "android": "https://dc.lft.to/lastmile_qr_scan"}}, {"name": "2b7f6bd7a60269f688d407e4dd0e9ce4", "type": "electric_scooter", "lat": 38.932527, "is_reserved": 0, "lon": -77.03272966666667, "fusion_lon": 0.0, "is_disabled": 0, "fusion_lat": 0.0, "bike_id": "2b7f6bd7a60269f688d407e4dd0e9ce4", "rental_uris": {"ios": "https://dc.lft.to/lastmile_qr_scan", "android": "https://dc.lft.to/lastmile_qr_scan"}}, {"name": "3a8155b09baf61401e57404fb57319fe", "type": "electric_scooter", "lat": 38.9085045, "is_reserved": 0, "lon": -77.04412116666667, "fusion_lon": 0.0, "is_disabled": 0, "fusion_lat": 0.0, "bike_id": "3a8155b09baf61401e57404fb57319fe", "rental_uris": {"ios": "https://dc.lft.to/lastmile_qr_scan", "android": "https://dc.lft.to/lastmile_qr_scan"}}, {"name": "511349bb5933e582a18f914257b84e26", "type": "electric_scooter", "lat": 38.89618166666666, "is_reserved": 0, "lon": -77.02837366666667, "fusion_lon": 0.0, "is_disabled": 0, "fusion_lat": 0.0, "bike_id": "511349bb5933e582a18f914257b84e26", "rental_uris": {"ios": "https://dc.lft.to/lastmile_qr_scan", "android": "https://dc.lft.to/lastmile_qr_scan"}}, {"name": "be2bfd994fd007863e3bfc81bf72e397", "type": "electric_scooter", "lat": 38.912418833333334, "is_reserved": 0, "lon": -77.00105, "fusion_lon": 0.0, "is_disabled": 0, "fusion_lat": 0.0, "bike_id": "be2bfd994fd007863e3bfc81bf72e397", "rental_uris": {"ios": "https://dc.lft.to/lastmile_qr_scan", "android": "https://dc.lft.to/lastmile_qr_scan"}}, {"name": "9ae89fc5e044c940680881cf23b39f75", "type": "electric_bike", "lat": 38.863715166666665, "is_reserved": 0, "lon": -76.97011483333333, "fusion_lon": 0.0, "is_disabled": 0, "fusion_lat": 0.0, "bike_id": "9ae89fc5e044c940680881cf23b39f75", "rental_uris": {"ios": "https://dc.lft.to/lastmile_qr_scan", "android": "https://dc.lft.to/lastmile_qr_scan"}}, {"name": "37d5d318e772096e05d54fe9900ed6fa", "type": "electric_scooter", "lat": 38.9064425, "is_reserved": 0, "lon": -77.01141083333333, "fusion_lon": 0.0, "is_disabled": 0, "fusion_lat": 0.0, "bike_id": "37d5d318e772096e05d54fe9900ed6fa", "rental_uris": {"ios": "https://dc.lft.to/lastmile_qr_scan", "android": "https://dc.lft.to/lastmile_qr_scan"}}, {"name": "1603bfb8247cae4badc7c8a8cf64246d", "type": "electric_scooter", "lat": 38.90835633333333, "is_reserved": 0, "lon": -76.997045, "fusion_lon": 0.0, "is_disabled": 0, "fusion_lat": 0.0, "bike_id": "1603bfb8247cae4badc7c8a8cf64246d", "rental_uris": {"ios": "https://dc.lft.to/lastmile_qr_scan", "android": "https://dc.lft.to/lastmile_qr_scan"}}, {"name": "8fa0e18589a824118ddcef107face025", "type": "electric_scooter", "lat": 38.928469, "is_reserved": 0, "lon": -77.0543355, "fusion_lon": 0.0, "is_disabled": 0, "fusion_lat": 0.0, "bike_id": "8fa0e18589a824118ddcef107face025", "rental_uris": {"ios": "https://dc.lft.to/lastmile_qr_scan", "android": "https://dc.lft.to/lastmile_qr_scan"}}, {"name": "30b313076fd7bc445abf1b9c6870d5ea", "type": "electric_scooter", "lat": 38.9035895, "is_reserved": 0, "lon": -77.00748516666667, "fusion_lon": 0.0, "is_disabled": 0, "fusion_lat": 0.0, "bike_id": "30b313076fd7bc445abf1b9c6870d5ea", "rental_uris": {"ios": "https://dc.lft.to/lastmile_qr_scan", "android": "https://dc.lft.to/lastmile_qr_scan"}}, {"name": "b4cc389fb8c5a3649d0c2805c5479c34", "type": "electric_scooter", "lat": 38.8797665, "is_reserved": 0, "lon": -76.985458, "fusion_lon": 0.0, "is_disabled": 0, "fusion_lat": 0.0, "bike_id": "b4cc389fb8c5a3649d0c2805c5479c34", "rental_uris": {"ios": "https://dc.lft.to/lastmile_qr_scan", "android": "https://dc.lft.to/lastmile_qr_scan"}}, {"name": "87a6ab06ab7b4c55bc461597c1a73729", "type": "electric_scooter", "lat": 38.87679933333333, "is_reserved": 0, "lon": -77.00075183333334, "fusion_lon": 0.0, "is_disabled": 0, "fusion_lat": 0.0, "bike_id": "87a6ab06ab7b4c55bc461597c1a73729", "rental_uris": {"ios": "https://dc.lft.to/lastmile_qr_scan", "android": "https://dc.lft.to/lastmile_qr_scan"}}, {"name": "31d6e9912e6815b5ea2e1f4aa4d7f996", "type": "electric_scooter", "lat": 38.895867333333335, "is_reserved": 0, "lon": -77.025845, "fusion_lon": 0.0, "is_disabled": 0, "fusion_lat": 0.0, "bike_id": "31d6e9912e6815b5ea2e1f4aa4d7f996", "rental_uris": {"ios": "https://dc.lft.to/lastmile_qr_scan", "android": "https://dc.lft.to/lastmile_qr_scan"}}, {"name": "4642539ce6f6e0b989119c64c997f29f", "type": "electric_scooter", "lat": 38.891338, "is_reserved": 0, "lon": -77.00341116666667, "fusion_lon": 0.0, "is_disabled": 0, "fusion_lat": 0.0, "bike_id": "4642539ce6f6e0b989119c64c997f29f", "rental_uris": {"ios": "https://dc.lft.to/lastmile_qr_scan", "android": "https://dc.lft.to/lastmile_qr_scan"}}, {"name": "0c4e2d0e885344687854d314a1a66e8a", "type": "electric_scooter", "lat": 38.8919795, "is_reserved": 0, "lon": -77.01551816666667, "fusion_lon": 0.0, "is_disabled": 0, "fusion_lat": 0.0, "bike_id": "0c4e2d0e885344687854d314a1a66e8a", "rental_uris": {"ios": "https://dc.lft.to/lastmile_qr_scan", "android": "https://dc.lft.to/lastmile_qr_scan"}}, {"name": "3e425c189975836e33624da64b1faaf6", "type": "electric_scooter", "lat": 38.938008333333336, "is_reserved": 0, "lon": -77.02445416666667, "fusion_lon": 0.0, "is_disabled": 0, "fusion_lat": 0.0, "bike_id": "3e425c189975836e33624da64b1faaf6", "rental_uris": {"ios": "https://dc.lft.to/lastmile_qr_scan", "android": "https://dc.lft.to/lastmile_qr_scan"}}, {"name": "6b455b97c521ffbb746eb64b8f31a74d", "type": "electric_scooter", "lat": 38.905099, "is_reserved": 0, "lon": -77.05127533333334, "fusion_lon": 0.0, "is_disabled": 0, "fusion_lat": 0.0, "bike_id": "6b455b97c521ffbb746eb64b8f31a74d", "rental_uris": {"ios": "https://dc.lft.to/lastmile_qr_scan", "android": "https://dc.lft.to/lastmile_qr_scan"}}, {"name": "b37de1626d3812bdd3156a158a42e189", "type": "electric_scooter", "lat": 38.902588, "is_reserved": 0, "lon": -77.0182055, "fusion_lon": 0.0, "is_disabled": 0, "fusion_lat": 0.0, "bike_id": "b37de1626d3812bdd3156a158a42e189", "rental_uris": {"ios": "https://dc.lft.to/lastmile_qr_scan", "android": "https://dc.lft.to/lastmile_qr_scan"}}, {"name": "c3bc516dfb25cea46af67324ae155d15", "type": "electric_scooter", "lat": 38.918066, "is_reserved": 0, "lon": -77.00169216666667, "fusion_lon": 0.0, "is_disabled": 0, "fusion_lat": 0.0, "bike_id": "c3bc516dfb25cea46af67324ae155d15", "rental_uris": {"ios": "https://dc.lft.to/lastmile_qr_scan", "android": "https://dc.lft.to/lastmile_qr_scan"}}, {"name": "87c0880ec2e9fce465111ac0e9731db1", "type": "electric_bike", "lat": 38.965067833333336, "is_reserved": 0, "lon": -77.02821166666666, "fusion_lon": 0.0, "is_disabled": 0, "fusion_lat": 0.0, "bike_id": "87c0880ec2e9fce465111ac0e9731db1", "rental_uris": {"ios": "https://dc.lft.to/lastmile_qr_scan", "android": "https://dc.lft.to/lastmile_qr_scan"}}, {"name": "6cfdd2e8482289ab4e27b6fd4693fc3f", "type": "electric_scooter", "lat": 38.90399766666667, "is_reserved": 0, "lon": -77.0179235, "fusion_lon": 0.0, "is_disabled": 0, "fusion_lat": 0.0, "bike_id": "6cfdd2e8482289ab4e27b6fd4693fc3f", "rental_uris": {"ios": "https://dc.lft.to/lastmile_qr_scan", "android": "https://dc.lft.to/lastmile_qr_scan"}}, {"name": "606553d98c7e1d472851b52cf59d10b8", "type": "electric_scooter", "lat": 38.912645833333336, "is_reserved": 0, "lon": -77.00636716666666, "fusion_lon": 0.0, "is_disabled": 0, "fusion_lat": 0.0, "bike_id": "606553d98c7e1d472851b52cf59d10b8", "rental_uris": {"ios": "https://dc.lft.to/lastmile_qr_scan", "android": "https://dc.lft.to/lastmile_qr_scan"}}, {"name": "2cdc87e822d66591410a9b62f863ca41", "type": "electric_bike", "lat": 39.03048316666667, "is_reserved": 0, "lon": -77.09488116666667, "fusion_lon": 0.0, "is_disabled": 0, "fusion_lat": 0.0, "bike_id": "2cdc87e822d66591410a9b62f863ca41", "rental_uris": {"ios": "https://dc.lft.to/lastmile_qr_scan", "android": "https://dc.lft.to/lastmile_qr_scan"}}, {"name": "72acc413ccc891aafec6f5edbdd2a5a6", "type": "electric_scooter", "lat": 38.892239833333335, "is_reserved": 0, "lon": -77.0214525, "fusion_lon": 0.0, "is_disabled": 0, "fusion_lat": 0.0, "bike_id": "72acc413ccc891aafec6f5edbdd2a5a6", "rental_uris": {"ios": "https://dc.lft.to/lastmile_qr_scan", "android": "https://dc.lft.to/lastmile_qr_scan"}}, {"name": "84fb35fc28a2d2ac567c06166fa026cf", "type": "electric_bike", "lat": 38.959123, "is_reserved": 0, "lon": -77.00154083333334, "fusion_lon": 0.0, "is_disabled": 0, "fusion_lat": 0.0, "bike_id": "84fb35fc28a2d2ac567c06166fa026cf", "rental_uris": {"ios": "https://dc.lft.to/lastmile_qr_scan", "android": "https://dc.lft.to/lastmile_qr_scan"}}, {"name": "4ed25fb11a50f49bb25e0daf3eae8f0d", "type": "electric_scooter", "lat": 38.899329, "is_reserved": 0, "lon": -77.0310865, "fusion_lon": 0.0, "is_disabled": 0, "fusion_lat": 0.0, "bike_id": "4ed25fb11a50f49bb25e0daf3eae8f0d", "rental_uris": {"ios": "https://dc.lft.to/lastmile_qr_scan", "android": "https://dc.lft.to/lastmile_qr_scan"}}, {"name": "9b6f43a896ab93cbe03c2624c12f762c", "type": "electric_scooter", "lat": 38.8723425, "is_reserved": 0, "lon": -77.01161933333333, "fusion_lon": 0.0, "is_disabled": 0, "fusion_lat": 0.0, "bike_id": "9b6f43a896ab93cbe03c2624c12f762c", "rental_uris": {"ios": "https://dc.lft.to/lastmile_qr_scan", "android": "https://dc.lft.to/lastmile_qr_scan"}}, {"name": "1a962948d000d0016c9b80bce23ba86b", "type": "electric_scooter", "lat": 38.94108416666667, "is_reserved": 0, "lon": -77.02110983333333, "fusion_lon": 0.0, "is_disabled": 0, "fusion_lat": 0.0, "bike_id": "1a962948d000d0016c9b80bce23ba86b", "rental_uris": {"ios": "https://dc.lft.to/lastmile_qr_scan", "android": "https://dc.lft.to/lastmile_qr_scan"}}, {"name": "79438f2d9e95711161d8df4140bc7820", "type": "electric_scooter", "lat": 38.92244483333333, "is_reserved": 0, "lon": -77.03665116666667, "fusion_lon": 0.0, "is_disabled": 0, "fusion_lat": 0.0, "bike_id": "79438f2d9e95711161d8df4140bc7820", "rental_uris": {"ios": "https://dc.lft.to/lastmile_qr_scan", "android": "https://dc.lft.to/lastmile_qr_scan"}}, {"name": "a1c2726c639bb93639b6a1c579b3af8b", "type": "electric_scooter", "lat": 38.915680333333334, "is_reserved": 0, "lon": -77.022048, "fusion_lon": 0.0, "is_disabled": 0, "fusion_lat": 0.0, "bike_id": "a1c2726c639bb93639b6a1c579b3af8b", "rental_uris": {"ios": "https://dc.lft.to/lastmile_qr_scan", "android": "https://dc.lft.to/lastmile_qr_scan"}}, {"name": "3e7bc74575c4ed51bf14b8ae3d08261e", "type": "electric_scooter", "lat": 38.9187175, "is_reserved": 0, "lon": -77.04352916666667, "fusion_lon": 0.0, "is_disabled": 0, "fusion_lat": 0.0, "bike_id": "3e7bc74575c4ed51bf14b8ae3d08261e", "rental_uris": {"ios": "https://dc.lft.to/lastmile_qr_scan", "android": "https://dc.lft.to/lastmile_qr_scan"}}, {"name": "60a0efd4c0b3be4dec35a84723a94cb2", "type": "electric_scooter", "lat": 38.85449633333333, "is_reserved": 0, "lon": -76.98582433333333, "fusion_lon": 0.0, "is_disabled": 0, "fusion_lat": 0.0, "bike_id": "60a0efd4c0b3be4dec35a84723a94cb2", "rental_uris": {"ios": "https://dc.lft.to/lastmile_qr_scan", "android": "https://dc.lft.to/lastmile_qr_scan"}}, {"name": "398510767cb0f1092c31466fa3078eaa", "type": "electric_scooter", "lat": 38.89735833333334, "is_reserved": 0, "lon": -77.05226866666666, "fusion_lon": 0.0, "is_disabled": 0, "fusion_lat": 0.0, "bike_id": "398510767cb0f1092c31466fa3078eaa", "rental_uris": {"ios": "https://dc.lft.to/lastmile_qr_scan", "android": "https://dc.lft.to/lastmile_qr_scan"}}, {"name": "d9ab41aca445e05d56f20d1b29c7165c", "type": "electric_scooter", "lat": 38.92879716666667, "is_reserved": 0, "lon": -77.0375675, "fusion_lon": 0.0, "is_disabled": 0, "fusion_lat": 0.0, "bike_id": "d9ab41aca445e05d56f20d1b29c7165c", "rental_uris": {"ios": "https://dc.lft.to/lastmile_qr_scan", "android": "https://dc.lft.to/lastmile_qr_scan"}}, {"name": "15c90478a16923dde7434d31071d49d3", "type": "electric_scooter", "lat": 38.9248645, "is_reserved": 0, "lon": -77.0283855, "fusion_lon": 0.0, "is_disabled": 0, "fusion_lat": 0.0, "bike_id": "15c90478a16923dde7434d31071d49d3", "rental_uris": {"ios": "https://dc.lft.to/lastmile_qr_scan", "android": "https://dc.lft.to/lastmile_qr_scan"}}, {"name": "e19ef10a353943cdbd61a37a01d0c9a6", "type": "electric_scooter", "lat": 38.87846183333333, "is_reserved": 0, "lon": -77.01976533333334, "fusion_lon": 0.0, "is_disabled": 0, "fusion_lat": 0.0, "bike_id": "e19ef10a353943cdbd61a37a01d0c9a6", "rental_uris": {"ios": "https://dc.lft.to/lastmile_qr_scan", "android": "https://dc.lft.to/lastmile_qr_scan"}}, {"name": "4bdfda8f98380f8609b8df4b584ee2b6", "type": "electric_scooter", "lat": 38.91405316666667, "is_reserved": 0, "lon": -77.03908416666667, "fusion_lon": 0.0, "is_disabled": 0, "fusion_lat": 0.0, "bike_id": "4bdfda8f98380f8609b8df4b584ee2b6", "rental_uris": {"ios": "https://dc.lft.to/lastmile_qr_scan", "android": "https://dc.lft.to/lastmile_qr_scan"}}, {"name": "e09d952496c431ae25d5f3ea4bbc6749", "type": "electric_scooter", "lat": 38.923764, "is_reserved": 0, "lon": -77.03185383333333, "fusion_lon": 0.0, "is_disabled": 0, "fusion_lat": 0.0, "bike_id": "e09d952496c431ae25d5f3ea4bbc6749", "rental_uris": {"ios": "https://dc.lft.to/lastmile_qr_scan", "android": "https://dc.lft.to/lastmile_qr_scan"}}, {"name": "dd198ee2bfc03dcc64a27fbf78a8cf31", "type": "electric_scooter", "lat": 38.91586316666667, "is_reserved": 0, "lon": -76.98377283333333, "fusion_lon": 0.0, "is_disabled": 0, "fusion_lat": 0.0, "bike_id": "dd198ee2bfc03dcc64a27fbf78a8cf31", "rental_uris": {"ios": "https://dc.lft.to/lastmile_qr_scan", "android": "https://dc.lft.to/lastmile_qr_scan"}}, {"name": "4df400bf1dc64dc1be4a0c8b41682801", "type": "electric_scooter", "lat": 38.93532, "is_reserved": 0, "lon": -77.05816283333333, "fusion_lon": 0.0, "is_disabled": 0, "fusion_lat": 0.0, "bike_id": "4df400bf1dc64dc1be4a0c8b41682801", "rental_uris": {"ios": "https://dc.lft.to/lastmile_qr_scan", "android": "https://dc.lft.to/lastmile_qr_scan"}}, {"name": "b92a580cc4541f0d3c531cb60ae93b24", "type": "electric_bike", "lat": 38.8551455, "is_reserved": 0, "lon": -77.11160616666666, "fusion_lon": 0.0, "is_disabled": 0, "fusion_lat": 0.0, "bike_id": "b92a580cc4541f0d3c531cb60ae93b24", "rental_uris": {"ios": "https://dc.lft.to/lastmile_qr_scan", "android": "https://dc.lft.to/lastmile_qr_scan"}}, {"name": "04eee10725ffd17b99b04f2c11a7d202", "type": "electric_scooter", "lat": 38.8950955, "is_reserved": 0, "lon": -77.0033765, "fusion_lon": 0.0, "is_disabled": 0, "fusion_lat": 0.0, "bike_id": "04eee10725ffd17b99b04f2c11a7d202", "rental_uris": {"ios": "https://dc.lft.to/lastmile_qr_scan", "android": "https://dc.lft.to/lastmile_qr_scan"}}, {"name": "dd49d79eb363060007a123f3c0c602f6", "type": "electric_scooter", "lat": 38.89887266666667, "is_reserved": 0, "lon": -76.93179266666667, "fusion_lon": 0.0, "is_disabled": 0, "fusion_lat": 0.0, "bike_id": "dd49d79eb363060007a123f3c0c602f6", "rental_uris": {"ios": "https://dc.lft.to/lastmile_qr_scan", "android": "https://dc.lft.to/lastmile_qr_scan"}}, {"name": "380c1a59f32c1962ab2f5266552a4260", "type": "electric_scooter", "lat": 38.90036166666667, "is_reserved": 0, "lon": -76.98836283333333, "fusion_lon": 0.0, "is_disabled": 0, "fusion_lat": 0.0, "bike_id": "380c1a59f32c1962ab2f5266552a4260", "rental_uris": {"ios": "https://dc.lft.to/lastmile_qr_scan", "android": "https://dc.lft.to/lastmile_qr_scan"}}, {"name": "59580d328395c131b7cf3cfefd45c7a7", "type": "electric_scooter", "lat": 38.93367466666667, "is_reserved": 0, "lon": -77.02742316666667, "fusion_lon": 0.0, "is_disabled": 0, "fusion_lat": 0.0, "bike_id": "59580d328395c131b7cf3cfefd45c7a7", "rental_uris": {"ios": "https://dc.lft.to/lastmile_qr_scan", "android": "https://dc.lft.to/lastmile_qr_scan"}}, {"name": "b26a5a9900b40ed73318eb540b6f62c3", "type": "electric_scooter", "lat": 38.9157065, "is_reserved": 0, "lon": -77.021803, "fusion_lon": 0.0, "is_disabled": 0, "fusion_lat": 0.0, "bike_id": "b26a5a9900b40ed73318eb540b6f62c3", "rental_uris": {"ios": "https://dc.lft.to/lastmile_qr_scan", "android": "https://dc.lft.to/lastmile_qr_scan"}}, {"name": "feed229de4adc486c540d572a75e017d", "type": "electric_scooter", "lat": 38.87196866666667, "is_reserved": 0, "lon": -77.00579833333333, "fusion_lon": 0.0, "is_disabled": 0, "fusion_lat": 0.0, "bike_id": "feed229de4adc486c540d572a75e017d", "rental_uris": {"ios": "https://dc.lft.to/lastmile_qr_scan", "android": "https://dc.lft.to/lastmile_qr_scan"}}, {"name": "67bc59c106122557056fe5ff12ca80cb", "type": "electric_scooter", "lat": 38.84427, "is_reserved": 0, "lon": -76.99779716666667, "fusion_lon": 0.0, "is_disabled": 0, "fusion_lat": 0.0, "bike_id": "67bc59c106122557056fe5ff12ca80cb", "rental_uris": {"ios": "https://dc.lft.to/lastmile_qr_scan", "android": "https://dc.lft.to/lastmile_qr_scan"}}, {"name": "e3cb3d826cc3026a7cafe349c5861319", "type": "electric_bike", "lat": 38.96183583333333, "is_reserved": 0, "lon": -77.07366683333333, "fusion_lon": 0.0, "is_disabled": 0, "fusion_lat": 0.0, "bike_id": "e3cb3d826cc3026a7cafe349c5861319", "rental_uris": {"ios": "https://dc.lft.to/lastmile_qr_scan", "android": "https://dc.lft.to/lastmile_qr_scan"}}, {"name": "53122849dd3900796e12571ad7e7c892", "type": "electric_scooter", "lat": 38.86244716666667, "is_reserved": 0, "lon": -76.99499583333333, "fusion_lon": 0.0, "is_disabled": 0, "fusion_lat": 0.0, "bike_id": "53122849dd3900796e12571ad7e7c892", "rental_uris": {"ios": "https://dc.lft.to/lastmile_qr_scan", "android": "https://dc.lft.to/lastmile_qr_scan"}}, {"name": "a7369996f86d60c22911cf3c89a587cf", "type": "electric_scooter", "lat": 38.90583483333333, "is_reserved": 0, "lon": -77.06284566666666, "fusion_lon": 0.0, "is_disabled": 0, "fusion_lat": 0.0, "bike_id": "a7369996f86d60c22911cf3c89a587cf", "rental_uris": {"ios": "https://dc.lft.to/lastmile_qr_scan", "android": "https://dc.lft.to/lastmile_qr_scan"}}, {"name": "7edd38a4b59b1d53e0e7f3aad213fc0d", "type": "electric_scooter", "lat": 38.9248515, "is_reserved": 0, "lon": -77.02711333333333, "fusion_lon": 0.0, "is_disabled": 0, "fusion_lat": 0.0, "bike_id": "7edd38a4b59b1d53e0e7f3aad213fc0d", "rental_uris": {"ios": "https://dc.lft.to/lastmile_qr_scan", "android": "https://dc.lft.to/lastmile_qr_scan"}}, {"name": "b5e8eea22ab1f9d4ba8e780019bcb565", "type": "electric_scooter", "lat": 38.88307433333333, "is_reserved": 0, "lon": -77.01739983333333, "fusion_lon": 0.0, "is_disabled": 0, "fusion_lat": 0.0, "bike_id": "b5e8eea22ab1f9d4ba8e780019bcb565", "rental_uris": {"ios": "https://dc.lft.to/lastmile_qr_scan", "android": "https://dc.lft.to/lastmile_qr_scan"}}, {"name": "a3153a74443232fe8a9e919209120868", "type": "electric_scooter", "lat": 38.939518166666666, "is_reserved": 0, "lon": -77.03267766666667, "fusion_lon": 0.0, "is_disabled": 0, "fusion_lat": 0.0, "bike_id": "a3153a74443232fe8a9e919209120868", "rental_uris": {"ios": "https://dc.lft.to/lastmile_qr_scan", "android": "https://dc.lft.to/lastmile_qr_scan"}}, {"name": "d856c7d59c5420e3189c006f941cbb60", "type": "electric_bike", "lat": 38.865965, "is_reserved": 0, "lon": -76.93228616666667, "fusion_lon": 0.0, "is_disabled": 0, "fusion_lat": 0.0, "bike_id": "d856c7d59c5420e3189c006f941cbb60", "rental_uris": {"ios": "https://dc.lft.to/lastmile_qr_scan", "android": "https://dc.lft.to/lastmile_qr_scan"}}, {"name": "f71c7414893128bcea5499837e128211", "type": "electric_bike", "lat": 38.832389666666664, "is_reserved": 0, "lon": -77.00721166666666, "fusion_lon": 0.0, "is_disabled": 0, "fusion_lat": 0.0, "bike_id": "f71c7414893128bcea5499837e128211", "rental_uris": {"ios": "https://dc.lft.to/lastmile_qr_scan", "android": "https://dc.lft.to/lastmile_qr_scan"}}, {"name": "16b54b2e07a851beb3ba4efde9dd8911", "type": "electric_scooter", "lat": 38.883606, "is_reserved": 0, "lon": -76.9855765, "fusion_lon": 0.0, "is_disabled": 0, "fusion_lat": 0.0, "bike_id": "16b54b2e07a851beb3ba4efde9dd8911", "rental_uris": {"ios": "https://dc.lft.to/lastmile_qr_scan", "android": "https://dc.lft.to/lastmile_qr_scan"}}, {"name": "263d4f8090947c4cb53983bf950c61d6", "type": "electric_scooter", "lat": 38.88598, "is_reserved": 0, "lon": -76.95273083333333, "fusion_lon": 0.0, "is_disabled": 0, "fusion_lat": 0.0, "bike_id": "263d4f8090947c4cb53983bf950c61d6", "rental_uris": {"ios": "https://dc.lft.to/lastmile_qr_scan", "android": "https://dc.lft.to/lastmile_qr_scan"}}, {"name": "8b5eebc3508db96e5bb5eff8e75242c6", "type": "electric_scooter", "lat": 38.902879166666665, "is_reserved": 0, "lon": -77.0407005, "fusion_lon": 0.0, "is_disabled": 0, "fusion_lat": 0.0, "bike_id": "8b5eebc3508db96e5bb5eff8e75242c6", "rental_uris": {"ios": "https://dc.lft.to/lastmile_qr_scan", "android": "https://dc.lft.to/lastmile_qr_scan"}}, {"name": "bbe0a8b08f7820f93dc084c49037bd04", "type": "electric_scooter", "lat": 38.927514, "is_reserved": 0, "lon": -77.053711, "fusion_lon": 0.0, "is_disabled": 0, "fusion_lat": 0.0, "bike_id": "bbe0a8b08f7820f93dc084c49037bd04", "rental_uris": {"ios": "https://dc.lft.to/lastmile_qr_scan", "android": "https://dc.lft.to/lastmile_qr_scan"}}, {"name": "07384d837ed69b7e75ded54520cfbb2f", "type": "electric_bike", "lat": 38.806921, "is_reserved": 0, "lon": -77.05974016666667, "fusion_lon": 0.0, "is_disabled": 0, "fusion_lat": 0.0, "bike_id": "07384d837ed69b7e75ded54520cfbb2f", "rental_uris": {"ios": "https://dc.lft.to/lastmile_qr_scan", "android": "https://dc.lft.to/lastmile_qr_scan"}}, {"name": "3848f396ebbd0961fa6ea0ead20848bc", "type": "electric_scooter", "lat": 38.93952616666667, "is_reserved": 0, "lon": -77.032653, "fusion_lon": 0.0, "is_disabled": 0, "fusion_lat": 0.0, "bike_id": "3848f396ebbd0961fa6ea0ead20848bc", "rental_uris": {"ios": "https://dc.lft.to/lastmile_qr_scan", "android": "https://dc.lft.to/lastmile_qr_scan"}}, {"name": "d9dacdfd1098a2e181522533fa9fae87", "type": "electric_bike", "lat": 38.85223916666666, "is_reserved": 0, "lon": -77.12962266666666, "fusion_lon": 0.0, "is_disabled": 0, "fusion_lat": 0.0, "bike_id": "d9dacdfd1098a2e181522533fa9fae87", "rental_uris": {"ios": "https://dc.lft.to/lastmile_qr_scan", "android": "https://dc.lft.to/lastmile_qr_scan"}}, {"name": "02551ead1295ef9e0874dab9beb623d0", "type": "electric_scooter", "lat": 38.92237883333333, "is_reserved": 0, "lon": -77.03514716666666, "fusion_lon": 0.0, "is_disabled": 0, "fusion_lat": 0.0, "bike_id": "02551ead1295ef9e0874dab9beb623d0", "rental_uris": {"ios": "https://dc.lft.to/lastmile_qr_scan", "android": "https://dc.lft.to/lastmile_qr_scan"}}, {"name": "c3fd0ea330ed4ff7544e6dcf9f95e6ac", "type": "electric_bike", "lat": 38.9845805, "is_reserved": 0, "lon": -76.95520283333333, "fusion_lon": 0.0, "is_disabled": 0, "fusion_lat": 0.0, "bike_id": "c3fd0ea330ed4ff7544e6dcf9f95e6ac", "rental_uris": {"ios": "https://dc.lft.to/lastmile_qr_scan", "android": "https://dc.lft.to/lastmile_qr_scan"}}, {"name": "1131eade8a9e4407196a1e8f4fdf1ea6", "type": "electric_scooter", "lat": 38.9287525, "is_reserved": 0, "lon": -77.03484266666666, "fusion_lon": 0.0, "is_disabled": 0, "fusion_lat": 0.0, "bike_id": "1131eade8a9e4407196a1e8f4fdf1ea6", "rental_uris": {"ios": "https://dc.lft.to/lastmile_qr_scan", "android": "https://dc.lft.to/lastmile_qr_scan"}}, {"name": "b1f62fc984cb62dcb4e3b9e827dcafae", "type": "electric_scooter", "lat": 38.922747666666666, "is_reserved": 0, "lon": -77.03665783333334, "fusion_lon": 0.0, "is_disabled": 0, "fusion_lat": 0.0, "bike_id": "b1f62fc984cb62dcb4e3b9e827dcafae", "rental_uris": {"ios": "https://dc.lft.to/lastmile_qr_scan", "android": "https://dc.lft.to/lastmile_qr_scan"}}, {"name": "9fe5ff3e03d7513098a7d2341d5ad481", "type": "electric_scooter", "lat": 38.90261116666667, "is_reserved": 0, "lon": -77.05404383333334, "fusion_lon": 0.0, "is_disabled": 0, "fusion_lat": 0.0, "bike_id": "9fe5ff3e03d7513098a7d2341d5ad481", "rental_uris": {"ios": "https://dc.lft.to/lastmile_qr_scan", "android": "https://dc.lft.to/lastmile_qr_scan"}}, {"name": "64673a87f4f5f29fec77258a7fe170db", "type": "electric_scooter", "lat": 38.879187333333334, "is_reserved": 0, "lon": -77.017361, "fusion_lon": 0.0, "is_disabled": 0, "fusion_lat": 0.0, "bike_id": "64673a87f4f5f29fec77258a7fe170db", "rental_uris": {"ios": "https://dc.lft.to/lastmile_qr_scan", "android": "https://dc.lft.to/lastmile_qr_scan"}}, {"name": "4c034780bd278053c9c425f3d9e22276", "type": "electric_scooter", "lat": 38.8858805, "is_reserved": 0, "lon": -77.01979833333333, "fusion_lon": 0.0, "is_disabled": 0, "fusion_lat": 0.0, "bike_id": "4c034780bd278053c9c425f3d9e22276", "rental_uris": {"ios": "https://dc.lft.to/lastmile_qr_scan", "android": "https://dc.lft.to/lastmile_qr_scan"}}, {"name": "08c2e5b886e63127927fc1eb6f1d080f", "type": "electric_scooter", "lat": 38.89478783333333, "is_reserved": 0, "lon": -76.99541283333333, "fusion_lon": 0.0, "is_disabled": 0, "fusion_lat": 0.0, "bike_id": "08c2e5b886e63127927fc1eb6f1d080f", "rental_uris": {"ios": "https://dc.lft.to/lastmile_qr_scan", "android": "https://dc.lft.to/lastmile_qr_scan"}}, {"name": "db1585392122e26dcde06e36b7fe0224", "type": "electric_scooter", "lat": 38.91732316666667, "is_reserved": 0, "lon": -77.02291833333334, "fusion_lon": 0.0, "is_disabled": 0, "fusion_lat": 0.0, "bike_id": "db1585392122e26dcde06e36b7fe0224", "rental_uris": {"ios": "https://dc.lft.to/lastmile_qr_scan", "android": "https://dc.lft.to/lastmile_qr_scan"}}, {"name": "bdcc682e87d9585b435dc1122dcd5a8e", "type": "electric_scooter", "lat": 38.9229035, "is_reserved": 0, "lon": -77.042581, "fusion_lon": 0.0, "is_disabled": 0, "fusion_lat": 0.0, "bike_id": "bdcc682e87d9585b435dc1122dcd5a8e", "rental_uris": {"ios": "https://dc.lft.to/lastmile_qr_scan", "android": "https://dc.lft.to/lastmile_qr_scan"}}, {"name": "78c2f3bafd2350463960ab6fb5a962e8", "type": "electric_scooter", "lat": 38.893448666666664, "is_reserved": 0, "lon": -76.99147333333333, "fusion_lon": 0.0, "is_disabled": 0, "fusion_lat": 0.0, "bike_id": "78c2f3bafd2350463960ab6fb5a962e8", "rental_uris": {"ios": "https://dc.lft.to/lastmile_qr_scan", "android": "https://dc.lft.to/lastmile_qr_scan"}}, {"name": "e7c391cf5c9e2af2eac377b9085631dd", "type": "electric_scooter", "lat": 38.9036335, "is_reserved": 0, "lon": -77.03867766666667, "fusion_lon": 0.0, "is_disabled": 0, "fusion_lat": 0.0, "bike_id": "e7c391cf5c9e2af2eac377b9085631dd", "rental_uris": {"ios": "https://dc.lft.to/lastmile_qr_scan", "android": "https://dc.lft.to/lastmile_qr_scan"}}, {"name": "8262268d1d747ce7d32d0e661e2f8ce0", "type": "electric_scooter", "lat": 38.92472883333333, "is_reserved": 0, "lon": -77.0283435, "fusion_lon": 0.0, "is_disabled": 0, "fusion_lat": 0.0, "bike_id": "8262268d1d747ce7d32d0e661e2f8ce0", "rental_uris": {"ios": "https://dc.lft.to/lastmile_qr_scan", "android": "https://dc.lft.to/lastmile_qr_scan"}}, {"name": "d97654b2d8b3cb553c9912a2fee25cee", "type": "electric_bike", "lat": 38.83862516666667, "is_reserved": 0, "lon": -77.08870216666666, "fusion_lon": 0.0, "is_disabled": 0, "fusion_lat": 0.0, "bike_id": "d97654b2d8b3cb553c9912a2fee25cee", "rental_uris": {"ios": "https://dc.lft.to/lastmile_qr_scan", "android": "https://dc.lft.to/lastmile_qr_scan"}}, {"name": "b9bada11ef662236115a3987253ae89b", "type": "electric_bike", "lat": 38.9588605, "is_reserved": 0, "lon": -76.924888, "fusion_lon": 0.0, "is_disabled": 0, "fusion_lat": 0.0, "bike_id": "b9bada11ef662236115a3987253ae89b", "rental_uris": {"ios": "https://dc.lft.to/lastmile_qr_scan", "android": "https://dc.lft.to/lastmile_qr_scan"}}, {"name": "2adc1ae70d3f7eb5a1643445f7560d9f", "type": "electric_scooter", "lat": 38.903625, "is_reserved": 0, "lon": -77.03986833333333, "fusion_lon": 0.0, "is_disabled": 0, "fusion_lat": 0.0, "bike_id": "2adc1ae70d3f7eb5a1643445f7560d9f", "rental_uris": {"ios": "https://dc.lft.to/lastmile_qr_scan", "android": "https://dc.lft.to/lastmile_qr_scan"}}, {"name": "d7f4ea96564a66b529c215243824d811", "type": "electric_bike", "lat": 38.9013125, "is_reserved": 0, "lon": -76.98017683333333, "fusion_lon": 0.0, "is_disabled": 0, "fusion_lat": 0.0, "bike_id": "d7f4ea96564a66b529c215243824d811", "rental_uris": {"ios": "https://dc.lft.to/lastmile_qr_scan", "android": "https://dc.lft.to/lastmile_qr_scan"}}, {"name": "de4f21ec47f3dc35a57fbe4546af07ec", "type": "electric_bike", "lat": 38.97331166666667, "is_reserved": 0, "lon": -77.02153416666667, "fusion_lon": 0.0, "is_disabled": 0, "fusion_lat": 0.0, "bike_id": "de4f21ec47f3dc35a57fbe4546af07ec", "rental_uris": {"ios": "https://dc.lft.to/lastmile_qr_scan", "android": "https://dc.lft.to/lastmile_qr_scan"}}, {"name": "ff9cc67b43cb938c9927e0098f545f00", "type": "electric_scooter", "lat": 38.93224516666667, "is_reserved": 0, "lon": -77.03547433333334, "fusion_lon": 0.0, "is_disabled": 0, "fusion_lat": 0.0, "bike_id": "ff9cc67b43cb938c9927e0098f545f00", "rental_uris": {"ios": "https://dc.lft.to/lastmile_qr_scan", "android": "https://dc.lft.to/lastmile_qr_scan"}}, {"name": "735c843991b7b66ff66a020f470068db", "type": "electric_scooter", "lat": 38.889452666666664, "is_reserved": 0, "lon": -76.94824066666666, "fusion_lon": 0.0, "is_disabled": 0, "fusion_lat": 0.0, "bike_id": "735c843991b7b66ff66a020f470068db", "rental_uris": {"ios": "https://dc.lft.to/lastmile_qr_scan", "android": "https://dc.lft.to/lastmile_qr_scan"}}, {"name": "2882e106f22459aed28a87d6bdcb730b", "type": "electric_scooter", "lat": 38.90322033333333, "is_reserved": 0, "lon": -77.03825933333333, "fusion_lon": 0.0, "is_disabled": 0, "fusion_lat": 0.0, "bike_id": "2882e106f22459aed28a87d6bdcb730b", "rental_uris": {"ios": "https://dc.lft.to/lastmile_qr_scan", "android": "https://dc.lft.to/lastmile_qr_scan"}}, {"name": "bdf00ac7eccc22c16e65c1691eb90717", "type": "electric_scooter", "lat": 38.929144, "is_reserved": 0, "lon": -77.02195383333333, "fusion_lon": 0.0, "is_disabled": 0, "fusion_lat": 0.0, "bike_id": "bdf00ac7eccc22c16e65c1691eb90717", "rental_uris": {"ios": "https://dc.lft.to/lastmile_qr_scan", "android": "https://dc.lft.to/lastmile_qr_scan"}}, {"name": "9de18622840a4868b21e0d153f32f87c", "type": "electric_scooter", "lat": 38.900281166666666, "is_reserved": 0, "lon": -76.99447666666667, "fusion_lon": 0.0, "is_disabled": 0, "fusion_lat": 0.0, "bike_id": "9de18622840a4868b21e0d153f32f87c", "rental_uris": {"ios": "https://dc.lft.to/lastmile_qr_scan", "android": "https://dc.lft.to/lastmile_qr_scan"}}, {"name": "4f429dbac377945bbc011c57a9ebce61", "type": "electric_scooter", "lat": 38.883166333333335, "is_reserved": 0, "lon": -77.00937433333333, "fusion_lon": 0.0, "is_disabled": 0, "fusion_lat": 0.0, "bike_id": "4f429dbac377945bbc011c57a9ebce61", "rental_uris": {"ios": "https://dc.lft.to/lastmile_qr_scan", "android": "https://dc.lft.to/lastmile_qr_scan"}}, {"name": "f478f8695f67fc2840c3c4c40d892b7d", "type": "electric_scooter", "lat": 38.9345415, "is_reserved": 0, "lon": -77.07234033333333, "fusion_lon": 0.0, "is_disabled": 0, "fusion_lat": 0.0, "bike_id": "f478f8695f67fc2840c3c4c40d892b7d", "rental_uris": {"ios": "https://dc.lft.to/lastmile_qr_scan", "android": "https://dc.lft.to/lastmile_qr_scan"}}, {"name": "adaf914c725559b6aeb86408c6f8b403", "type": "electric_scooter", "lat": 38.8845045, "is_reserved": 0, "lon": -77.0057875, "fusion_lon": 0.0, "is_disabled": 0, "fusion_lat": 0.0, "bike_id": "adaf914c725559b6aeb86408c6f8b403", "rental_uris": {"ios": "https://dc.lft.to/lastmile_qr_scan", "android": "https://dc.lft.to/lastmile_qr_scan"}}, {"name": "21e9ccf0202b3674788c5d65f197863a", "type": "electric_scooter", "lat": 38.920208, "is_reserved": 0, "lon": -77.0440455, "fusion_lon": 0.0, "is_disabled": 0, "fusion_lat": 0.0, "bike_id": "21e9ccf0202b3674788c5d65f197863a", "rental_uris": {"ios": "https://dc.lft.to/lastmile_qr_scan", "android": "https://dc.lft.to/lastmile_qr_scan"}}, {"name": "333fd63a2a4cebd163de0441809628a0", "type": "electric_scooter", "lat": 38.89630016666667, "is_reserved": 0, "lon": -77.01022433333333, "fusion_lon": 0.0, "is_disabled": 0, "fusion_lat": 0.0, "bike_id": "333fd63a2a4cebd163de0441809628a0", "rental_uris": {"ios": "https://dc.lft.to/lastmile_qr_scan", "android": "https://dc.lft.to/lastmile_qr_scan"}}, {"name": "1341931a320094e9b1756174f9d2994c", "type": "electric_bike", "lat": 38.942752, "is_reserved": 0, "lon": -76.98077516666666, "fusion_lon": 0.0, "is_disabled": 0, "fusion_lat": 0.0, "bike_id": "1341931a320094e9b1756174f9d2994c", "rental_uris": {"ios": "https://dc.lft.to/lastmile_qr_scan", "android": "https://dc.lft.to/lastmile_qr_scan"}}, {"name": "628adda552c2ca4f57460f010f394c5f", "type": "electric_scooter", "lat": 38.898868, "is_reserved": 0, "lon": -76.931744, "fusion_lon": 0.0, "is_disabled": 0, "fusion_lat": 0.0, "bike_id": "628adda552c2ca4f57460f010f394c5f", "rental_uris": {"ios": "https://dc.lft.to/lastmile_qr_scan", "android": "https://dc.lft.to/lastmile_qr_scan"}}, {"name": "868962f839e13846a6e7bb8a0c2f3348", "type": "electric_scooter", "lat": 38.928809333333334, "is_reserved": 0, "lon": -77.0373915, "fusion_lon": 0.0, "is_disabled": 0, "fusion_lat": 0.0, "bike_id": "868962f839e13846a6e7bb8a0c2f3348", "rental_uris": {"ios": "https://dc.lft.to/lastmile_qr_scan", "android": "https://dc.lft.to/lastmile_qr_scan"}}, {"name": "0526aa99a5661444a22652cd6a040a46", "type": "electric_scooter", "lat": 38.92758716666667, "is_reserved": 0, "lon": -77.02421883333334, "fusion_lon": 0.0, "is_disabled": 0, "fusion_lat": 0.0, "bike_id": "0526aa99a5661444a22652cd6a040a46", "rental_uris": {"ios": "https://dc.lft.to/lastmile_qr_scan", "android": "https://dc.lft.to/lastmile_qr_scan"}}, {"name": "05d40dce39a802ec2840191c2fd22803", "type": "electric_scooter", "lat": 38.894002, "is_reserved": 0, "lon": -76.993666, "fusion_lon": 0.0, "is_disabled": 0, "fusion_lat": 0.0, "bike_id": "05d40dce39a802ec2840191c2fd22803", "rental_uris": {"ios": "https://dc.lft.to/lastmile_qr_scan", "android": "https://dc.lft.to/lastmile_qr_scan"}}, {"name": "efa366b19ac4bbbb93b4df9617152500", "type": "electric_bike", "lat": 38.8989, "is_reserved": 0, "lon": -76.983918, "fusion_lon": 0.0, "is_disabled": 0, "fusion_lat": 0.0, "bike_id": "efa366b19ac4bbbb93b4df9617152500", "rental_uris": {"ios": "https://dc.lft.to/lastmile_qr_scan", "android": "https://dc.lft.to/lastmile_qr_scan"}}, {"name": "58ac871116b19eddf9bc603e5c2407c8", "type": "electric_scooter", "lat": 38.9051645, "is_reserved": 0, "lon": -77.0662815, "fusion_lon": 0.0, "is_disabled": 0, "fusion_lat": 0.0, "bike_id": "58ac871116b19eddf9bc603e5c2407c8", "rental_uris": {"ios": "https://dc.lft.to/lastmile_qr_scan", "android": "https://dc.lft.to/lastmile_qr_scan"}}, {"name": "eaee36a9327f1dbb039272007a0eee49", "type": "electric_bike", "lat": 38.8748095, "is_reserved": 0, "lon": -76.96535466666667, "fusion_lon": 0.0, "is_disabled": 0, "fusion_lat": 0.0, "bike_id": "eaee36a9327f1dbb039272007a0eee49", "rental_uris": {"ios": "https://dc.lft.to/lastmile_qr_scan", "android": "https://dc.lft.to/lastmile_qr_scan"}}, {"name": "1f7afdc8f8fd250205d334dfee3f0e03", "type": "electric_scooter", "lat": 38.94639316666667, "is_reserved": 0, "lon": -77.0192685, "fusion_lon": 0.0, "is_disabled": 0, "fusion_lat": 0.0, "bike_id": "1f7afdc8f8fd250205d334dfee3f0e03", "rental_uris": {"ios": "https://dc.lft.to/lastmile_qr_scan", "android": "https://dc.lft.to/lastmile_qr_scan"}}, {"name": "5d7bde75e659703af0a5a400415d6c35", "type": "electric_scooter", "lat": 38.8666535, "is_reserved": 0, "lon": -76.98883983333333, "fusion_lon": 0.0, "is_disabled": 0, "fusion_lat": 0.0, "bike_id": "5d7bde75e659703af0a5a400415d6c35", "rental_uris": {"ios": "https://dc.lft.to/lastmile_qr_scan", "android": "https://dc.lft.to/lastmile_qr_scan"}}, {"name": "b83672d76f1cad8e71561d842c5da4e4", "type": "electric_scooter", "lat": 38.9273585, "is_reserved": 0, "lon": -77.02993516666666, "fusion_lon": 0.0, "is_disabled": 0, "fusion_lat": 0.0, "bike_id": "b83672d76f1cad8e71561d842c5da4e4", "rental_uris": {"ios": "https://dc.lft.to/lastmile_qr_scan", "android": "https://dc.lft.to/lastmile_qr_scan"}}, {"name": "f5f1d780537af28c8a5c7f2f43e8da68", "type": "electric_bike", "lat": 38.967514, "is_reserved": 0, "lon": -77.027926, "fusion_lon": 0.0, "is_disabled": 0, "fusion_lat": 0.0, "bike_id": "f5f1d780537af28c8a5c7f2f43e8da68", "rental_uris": {"ios": "https://dc.lft.to/lastmile_qr_scan", "android": "https://dc.lft.to/lastmile_qr_scan"}}, {"name": "bb041a2871435528da3eb93e137a874f", "type": "electric_scooter", "lat": 38.915723666666665, "is_reserved": 0, "lon": -77.046167, "fusion_lon": 0.0, "is_disabled": 0, "fusion_lat": 0.0, "bike_id": "bb041a2871435528da3eb93e137a874f", "rental_uris": {"ios": "https://dc.lft.to/lastmile_qr_scan", "android": "https://dc.lft.to/lastmile_qr_scan"}}, {"name": "29feca2ddd7cd515916af43179991be1", "type": "electric_scooter", "lat": 38.91013233333334, "is_reserved": 0, "lon": -76.993903, "fusion_lon": 0.0, "is_disabled": 0, "fusion_lat": 0.0, "bike_id": "29feca2ddd7cd515916af43179991be1", "rental_uris": {"ios": "https://dc.lft.to/lastmile_qr_scan", "android": "https://dc.lft.to/lastmile_qr_scan"}}, {"name": "9e0f3cfc943a2b46b368d39f683b5a98", "type": "electric_scooter", "lat": 38.93942633333333, "is_reserved": 0, "lon": -77.017091, "fusion_lon": 0.0, "is_disabled": 0, "fusion_lat": 0.0, "bike_id": "9e0f3cfc943a2b46b368d39f683b5a98", "rental_uris": {"ios": "https://dc.lft.to/lastmile_qr_scan", "android": "https://dc.lft.to/lastmile_qr_scan"}}, {"name": "05b28919a7f698a6959c5c05fa4feca8", "type": "electric_scooter", "lat": 38.900802, "is_reserved": 0, "lon": -77.01287116666667, "fusion_lon": 0.0, "is_disabled": 0, "fusion_lat": 0.0, "bike_id": "05b28919a7f698a6959c5c05fa4feca8", "rental_uris": {"ios": "https://dc.lft.to/lastmile_qr_scan", "android": "https://dc.lft.to/lastmile_qr_scan"}}, {"name": "d39393617699caa4d644275fb1b2d35e", "type": "electric_scooter", "lat": 38.924201, "is_reserved": 0, "lon": -77.05625566666667, "fusion_lon": 0.0, "is_disabled": 0, "fusion_lat": 0.0, "bike_id": "d39393617699caa4d644275fb1b2d35e", "rental_uris": {"ios": "https://dc.lft.to/lastmile_qr_scan", "android": "https://dc.lft.to/lastmile_qr_scan"}}, {"name": "f2e7fb66577ce37f1d850a5f78b6401a", "type": "electric_scooter", "lat": 38.90198183333333, "is_reserved": 0, "lon": -77.0219255, "fusion_lon": 0.0, "is_disabled": 0, "fusion_lat": 0.0, "bike_id": "f2e7fb66577ce37f1d850a5f78b6401a", "rental_uris": {"ios": "https://dc.lft.to/lastmile_qr_scan", "android": "https://dc.lft.to/lastmile_qr_scan"}}, {"name": "f302254ecc4e52123a1323ae3395c384", "type": "electric_scooter", "lat": 38.9248715, "is_reserved": 0, "lon": -77.02715833333333, "fusion_lon": 0.0, "is_disabled": 0, "fusion_lat": 0.0, "bike_id": "f302254ecc4e52123a1323ae3395c384", "rental_uris": {"ios": "https://dc.lft.to/lastmile_qr_scan", "android": "https://dc.lft.to/lastmile_qr_scan"}}, {"name": "ec0e2c29e3e12dffad843ff39a0e7113", "type": "electric_scooter", "lat": 38.883526, "is_reserved": 0, "lon": -76.94940216666667, "fusion_lon": 0.0, "is_disabled": 0, "fusion_lat": 0.0, "bike_id": "ec0e2c29e3e12dffad843ff39a0e7113", "rental_uris": {"ios": "https://dc.lft.to/lastmile_qr_scan", "android": "https://dc.lft.to/lastmile_qr_scan"}}, {"name": "e4af0a178ba5c11477bcac07275ec96a", "type": "electric_scooter", "lat": 38.921729666666664, "is_reserved": 0, "lon": -77.04019633333333, "fusion_lon": 0.0, "is_disabled": 0, "fusion_lat": 0.0, "bike_id": "e4af0a178ba5c11477bcac07275ec96a", "rental_uris": {"ios": "https://dc.lft.to/lastmile_qr_scan", "android": "https://dc.lft.to/lastmile_qr_scan"}}, {"name": "fd2cab71e59764938441412b382097fc", "type": "electric_scooter", "lat": 38.89222783333334, "is_reserved": 0, "lon": -77.04641466666666, "fusion_lon": 0.0, "is_disabled": 0, "fusion_lat": 0.0, "bike_id": "fd2cab71e59764938441412b382097fc", "rental_uris": {"ios": "https://dc.lft.to/lastmile_qr_scan", "android": "https://dc.lft.to/lastmile_qr_scan"}}, {"name": "b6765b03a18186ccd603bc3cd6a9f06f", "type": "electric_bike", "lat": 38.92854766666667, "is_reserved": 0, "lon": -77.10679416666666, "fusion_lon": 0.0, "is_disabled": 0, "fusion_lat": 0.0, "bike_id": "b6765b03a18186ccd603bc3cd6a9f06f", "rental_uris": {"ios": "https://dc.lft.to/lastmile_qr_scan", "android": "https://dc.lft.to/lastmile_qr_scan"}}, {"name": "7eb67e4d64d30a849de34a29a4d405de", "type": "electric_scooter", "lat": 38.91259633333333, "is_reserved": 0, "lon": -77.03551066666667, "fusion_lon": 0.0, "is_disabled": 0, "fusion_lat": 0.0, "bike_id": "7eb67e4d64d30a849de34a29a4d405de", "rental_uris": {"ios": "https://dc.lft.to/lastmile_qr_scan", "android": "https://dc.lft.to/lastmile_qr_scan"}}, {"name": "36e865740b93beb10f058c3b7b6f9d75", "type": "electric_scooter", "lat": 38.93546083333333, "is_reserved": 0, "lon": -77.034619, "fusion_lon": 0.0, "is_disabled": 0, "fusion_lat": 0.0, "bike_id": "36e865740b93beb10f058c3b7b6f9d75", "rental_uris": {"ios": "https://dc.lft.to/lastmile_qr_scan", "android": "https://dc.lft.to/lastmile_qr_scan"}}, {"name": "f56f6df2111d9cbfa58c8e389e5fb3ba", "type": "electric_scooter", "lat": 38.9256185, "is_reserved": 0, "lon": -77.06287816666666, "fusion_lon": 0.0, "is_disabled": 0, "fusion_lat": 0.0, "bike_id": "f56f6df2111d9cbfa58c8e389e5fb3ba", "rental_uris": {"ios": "https://dc.lft.to/lastmile_qr_scan", "android": "https://dc.lft.to/lastmile_qr_scan"}}, {"name": "b51b9adc313cd2d5686eb807dd21d87e", "type": "electric_scooter", "lat": 38.892224166666665, "is_reserved": 0, "lon": -77.0426415, "fusion_lon": 0.0, "is_disabled": 0, "fusion_lat": 0.0, "bike_id": "b51b9adc313cd2d5686eb807dd21d87e", "rental_uris": {"ios": "https://dc.lft.to/lastmile_qr_scan", "android": "https://dc.lft.to/lastmile_qr_scan"}}, {"name": "b41945a5afe1663afd8281926c3c4eb4", "type": "electric_scooter", "lat": 38.89485716666667, "is_reserved": 0, "lon": -77.01100266666667, "fusion_lon": 0.0, "is_disabled": 0, "fusion_lat": 0.0, "bike_id": "b41945a5afe1663afd8281926c3c4eb4", "rental_uris": {"ios": "https://dc.lft.to/lastmile_qr_scan", "android": "https://dc.lft.to/lastmile_qr_scan"}}, {"name": "26b821d022959cf6a0ac73499d3327ea", "type": "electric_scooter", "lat": 38.86370216666667, "is_reserved": 0, "lon": -77.01371783333333, "fusion_lon": 0.0, "is_disabled": 0, "fusion_lat": 0.0, "bike_id": "26b821d022959cf6a0ac73499d3327ea", "rental_uris": {"ios": "https://dc.lft.to/lastmile_qr_scan", "android": "https://dc.lft.to/lastmile_qr_scan"}}, {"name": "373eccb65510d24e20c9380a455049a8", "type": "electric_scooter", "lat": 38.93059783333333, "is_reserved": 0, "lon": -77.02319416666667, "fusion_lon": 0.0, "is_disabled": 0, "fusion_lat": 0.0, "bike_id": "373eccb65510d24e20c9380a455049a8", "rental_uris": {"ios": "https://dc.lft.to/lastmile_qr_scan", "android": "https://dc.lft.to/lastmile_qr_scan"}}, {"name": "e623809a8bad6a16373b6a6dde220b4c", "type": "electric_scooter", "lat": 38.892391, "is_reserved": 0, "lon": -77.02798566666667, "fusion_lon": 0.0, "is_disabled": 0, "fusion_lat": 0.0, "bike_id": "e623809a8bad6a16373b6a6dde220b4c", "rental_uris": {"ios": "https://dc.lft.to/lastmile_qr_scan", "android": "https://dc.lft.to/lastmile_qr_scan"}}, {"name": "f08ac4c10bec7070ab78f9532739eace", "type": "electric_scooter", "lat": 38.91257133333333, "is_reserved": 0, "lon": -77.00953816666667, "fusion_lon": 0.0, "is_disabled": 0, "fusion_lat": 0.0, "bike_id": "f08ac4c10bec7070ab78f9532739eace", "rental_uris": {"ios": "https://dc.lft.to/lastmile_qr_scan", "android": "https://dc.lft.to/lastmile_qr_scan"}}, {"name": "a4a6b3061ec66927bf1709a9c9b5cc08", "type": "electric_scooter", "lat": 38.935316, "is_reserved": 0, "lon": -77.02854766666667, "fusion_lon": 0.0, "is_disabled": 0, "fusion_lat": 0.0, "bike_id": "a4a6b3061ec66927bf1709a9c9b5cc08", "rental_uris": {"ios": "https://dc.lft.to/lastmile_qr_scan", "android": "https://dc.lft.to/lastmile_qr_scan"}}, {"name": "029be20be92b7f2f3eb11114d9bda191", "type": "electric_scooter", "lat": 38.883685666666665, "is_reserved": 0, "lon": -77.031883, "fusion_lon": 0.0, "is_disabled": 0, "fusion_lat": 0.0, "bike_id": "029be20be92b7f2f3eb11114d9bda191", "rental_uris": {"ios": "https://dc.lft.to/lastmile_qr_scan", "android": "https://dc.lft.to/lastmile_qr_scan"}}, {"name": "338cf2e5dfae1c0a85302febb2233188", "type": "electric_scooter", "lat": 38.925920833333336, "is_reserved": 0, "lon": -77.0048265, "fusion_lon": 0.0, "is_disabled": 0, "fusion_lat": 0.0, "bike_id": "338cf2e5dfae1c0a85302febb2233188", "rental_uris": {"ios": "https://dc.lft.to/lastmile_qr_scan", "android": "https://dc.lft.to/lastmile_qr_scan"}}, {"name": "5551059e7d166545453394de43c1d1dc", "type": "electric_scooter", "lat": 38.8923385, "is_reserved": 0, "lon": -77.05006533333334, "fusion_lon": 0.0, "is_disabled": 0, "fusion_lat": 0.0, "bike_id": "5551059e7d166545453394de43c1d1dc", "rental_uris": {"ios": "https://dc.lft.to/lastmile_qr_scan", "android": "https://dc.lft.to/lastmile_qr_scan"}}, {"name": "e60e844c15abcab28f64f586d7dbdfa3", "type": "electric_scooter", "lat": 38.90762766666667, "is_reserved": 0, "lon": -77.00095866666666, "fusion_lon": 0.0, "is_disabled": 0, "fusion_lat": 0.0, "bike_id": "e60e844c15abcab28f64f586d7dbdfa3", "rental_uris": {"ios": "https://dc.lft.to/lastmile_qr_scan", "android": "https://dc.lft.to/lastmile_qr_scan"}}, {"name": "17d32c10a94c6ee3fc7e283e9381f552", "type": "electric_scooter", "lat": 38.93153816666667, "is_reserved": 0, "lon": -77.038846, "fusion_lon": 0.0, "is_disabled": 0, "fusion_lat": 0.0, "bike_id": "17d32c10a94c6ee3fc7e283e9381f552", "rental_uris": {"ios": "https://dc.lft.to/lastmile_qr_scan", "android": "https://dc.lft.to/lastmile_qr_scan"}}, {"name": "297ee3acb1439207ea09a887e144cb7b", "type": "electric_bike", "lat": 38.89065033333333, "is_reserved": 0, "lon": -77.0791575, "fusion_lon": 0.0, "is_disabled": 0, "fusion_lat": 0.0, "bike_id": "297ee3acb1439207ea09a887e144cb7b", "rental_uris": {"ios": "https://dc.lft.to/lastmile_qr_scan", "android": "https://dc.lft.to/lastmile_qr_scan"}}, {"name": "d6f2486d9aaaa52906fd577e18a6b642", "type": "electric_scooter", "lat": 38.9066935, "is_reserved": 0, "lon": -77.0755785, "fusion_lon": 0.0, "is_disabled": 0, "fusion_lat": 0.0, "bike_id": "d6f2486d9aaaa52906fd577e18a6b642", "rental_uris": {"ios": "https://dc.lft.to/lastmile_qr_scan", "android": "https://dc.lft.to/lastmile_qr_scan"}}, {"name": "f443171e61871e5d2aa23eea362b1c29", "type": "electric_scooter", "lat": 38.892240666666666, "is_reserved": 0, "lon": -77.04332266666667, "fusion_lon": 0.0, "is_disabled": 0, "fusion_lat": 0.0, "bike_id": "f443171e61871e5d2aa23eea362b1c29", "rental_uris": {"ios": "https://dc.lft.to/lastmile_qr_scan", "android": "https://dc.lft.to/lastmile_qr_scan"}}, {"name": "7405b0e740d91e376efdc13763e73100", "type": "electric_scooter", "lat": 38.89833633333333, "is_reserved": 0, "lon": -76.94633216666666, "fusion_lon": 0.0, "is_disabled": 0, "fusion_lat": 0.0, "bike_id": "7405b0e740d91e376efdc13763e73100", "rental_uris": {"ios": "https://dc.lft.to/lastmile_qr_scan", "android": "https://dc.lft.to/lastmile_qr_scan"}}, {"name": "3ae61bab4429a8c550b62bb6c5480e2f", "type": "electric_scooter", "lat": 38.90722383333333, "is_reserved": 0, "lon": -77.04349633333334, "fusion_lon": 0.0, "is_disabled": 0, "fusion_lat": 0.0, "bike_id": "3ae61bab4429a8c550b62bb6c5480e2f", "rental_uris": {"ios": "https://dc.lft.to/lastmile_qr_scan", "android": "https://dc.lft.to/lastmile_qr_scan"}}, {"name": "2ee31644cfa31e3979c3084c4d65f8c0", "type": "electric_scooter", "lat": 38.9079925, "is_reserved": 0, "lon": -77.0318805, "fusion_lon": 0.0, "is_disabled": 0, "fusion_lat": 0.0, "bike_id": "2ee31644cfa31e3979c3084c4d65f8c0", "rental_uris": {"ios": "https://dc.lft.to/lastmile_qr_scan", "android": "https://dc.lft.to/lastmile_qr_scan"}}, {"name": "e3846dcd846458b721e0cb49c35af216", "type": "electric_scooter", "lat": 38.8621055, "is_reserved": 0, "lon": -76.99471866666667, "fusion_lon": 0.0, "is_disabled": 0, "fusion_lat": 0.0, "bike_id": "e3846dcd846458b721e0cb49c35af216", "rental_uris": {"ios": "https://dc.lft.to/lastmile_qr_scan", "android": "https://dc.lft.to/lastmile_qr_scan"}}, {"name": "f16082b68bb7df6d5fc4ba2f5b165b46", "type": "electric_scooter", "lat": 38.924551666666666, "is_reserved": 0, "lon": -77.03282166666666, "fusion_lon": 0.0, "is_disabled": 0, "fusion_lat": 0.0, "bike_id": "f16082b68bb7df6d5fc4ba2f5b165b46", "rental_uris": {"ios": "https://dc.lft.to/lastmile_qr_scan", "android": "https://dc.lft.to/lastmile_qr_scan"}}, {"name": "659661e583c9a13a920c7fe7321aade6", "type": "electric_bike", "lat": 38.813070833333335, "is_reserved": 0, "lon": -77.05098716666667, "fusion_lon": 0.0, "is_disabled": 0, "fusion_lat": 0.0, "bike_id": "659661e583c9a13a920c7fe7321aade6", "rental_uris": {"ios": "https://dc.lft.to/lastmile_qr_scan", "android": "https://dc.lft.to/lastmile_qr_scan"}}, {"name": "cc4096eb8f2c94c908a2c1a80461c39d", "type": "electric_scooter", "lat": 38.87676166666667, "is_reserved": 0, "lon": -77.0177975, "fusion_lon": 0.0, "is_disabled": 0, "fusion_lat": 0.0, "bike_id": "cc4096eb8f2c94c908a2c1a80461c39d", "rental_uris": {"ios": "https://dc.lft.to/lastmile_qr_scan", "android": "https://dc.lft.to/lastmile_qr_scan"}}, {"name": "27d58db37e1fbba95d6c841fd1d6d113", "type": "electric_scooter", "lat": 38.9317155, "is_reserved": 0, "lon": -77.0363955, "fusion_lon": 0.0, "is_disabled": 0, "fusion_lat": 0.0, "bike_id": "27d58db37e1fbba95d6c841fd1d6d113", "rental_uris": {"ios": "https://dc.lft.to/lastmile_qr_scan", "android": "https://dc.lft.to/lastmile_qr_scan"}}, {"name": "12401b78c9cf1e8af2a9ba843b8aadb3", "type": "electric_scooter", "lat": 38.8998045, "is_reserved": 0, "lon": -77.02162316666667, "fusion_lon": 0.0, "is_disabled": 0, "fusion_lat": 0.0, "bike_id": "12401b78c9cf1e8af2a9ba843b8aadb3", "rental_uris": {"ios": "https://dc.lft.to/lastmile_qr_scan", "android": "https://dc.lft.to/lastmile_qr_scan"}}, {"name": "095b89b7092035165a4c72c66ee71749", "type": "electric_scooter", "lat": 38.93251883333333, "is_reserved": 0, "lon": -77.03276033333333, "fusion_lon": 0.0, "is_disabled": 0, "fusion_lat": 0.0, "bike_id": "095b89b7092035165a4c72c66ee71749", "rental_uris": {"ios": "https://dc.lft.to/lastmile_qr_scan", "android": "https://dc.lft.to/lastmile_qr_scan"}}, {"name": "eb4ddc885b31c26332336f57a13516b6", "type": "electric_scooter", "lat": 38.895605833333335, "is_reserved": 0, "lon": -76.95031433333334, "fusion_lon": 0.0, "is_disabled": 0, "fusion_lat": 0.0, "bike_id": "eb4ddc885b31c26332336f57a13516b6", "rental_uris": {"ios": "https://dc.lft.to/lastmile_qr_scan", "android": "https://dc.lft.to/lastmile_qr_scan"}}, {"name": "b76a11424a23c94ec19e3451a14424a9", "type": "electric_scooter", "lat": 38.92156666666666, "is_reserved": 0, "lon": -77.03357, "fusion_lon": 0.0, "is_disabled": 0, "fusion_lat": 0.0, "bike_id": "b76a11424a23c94ec19e3451a14424a9", "rental_uris": {"ios": "https://dc.lft.to/lastmile_qr_scan", "android": "https://dc.lft.to/lastmile_qr_scan"}}, {"name": "e7a26b439949b8345546ecabbc1db896", "type": "electric_scooter", "lat": 38.921688833333334, "is_reserved": 0, "lon": -77.03860316666666, "fusion_lon": 0.0, "is_disabled": 0, "fusion_lat": 0.0, "bike_id": "e7a26b439949b8345546ecabbc1db896", "rental_uris": {"ios": "https://dc.lft.to/lastmile_qr_scan", "android": "https://dc.lft.to/lastmile_qr_scan"}}, {"name": "7d10a167b60dc001234701073f11e140", "type": "electric_scooter", "lat": 38.914068666666665, "is_reserved": 0, "lon": -77.00844, "fusion_lon": 0.0, "is_disabled": 0, "fusion_lat": 0.0, "bike_id": "7d10a167b60dc001234701073f11e140", "rental_uris": {"ios": "https://dc.lft.to/lastmile_qr_scan", "android": "https://dc.lft.to/lastmile_qr_scan"}}, {"name": "6f60f98f7cb07fbc4f415ec94bae6791", "type": "electric_scooter", "lat": 38.898185, "is_reserved": 0, "lon": -77.03136216666667, "fusion_lon": 0.0, "is_disabled": 0, "fusion_lat": 0.0, "bike_id": "6f60f98f7cb07fbc4f415ec94bae6791", "rental_uris": {"ios": "https://dc.lft.to/lastmile_qr_scan", "android": "https://dc.lft.to/lastmile_qr_scan"}}, {"name": "67d806446a5ef6bcb6e6844f3a68fa7e", "type": "electric_scooter", "lat": 38.89515766666667, "is_reserved": 0, "lon": -77.010955, "fusion_lon": 0.0, "is_disabled": 0, "fusion_lat": 0.0, "bike_id": "67d806446a5ef6bcb6e6844f3a68fa7e", "rental_uris": {"ios": "https://dc.lft.to/lastmile_qr_scan", "android": "https://dc.lft.to/lastmile_qr_scan"}}, {"name": "3b42116f02c3c8fb37a2696a0620758c", "type": "electric_scooter", "lat": 38.9037785, "is_reserved": 0, "lon": -77.01745766666667, "fusion_lon": 0.0, "is_disabled": 0, "fusion_lat": 0.0, "bike_id": "3b42116f02c3c8fb37a2696a0620758c", "rental_uris": {"ios": "https://dc.lft.to/lastmile_qr_scan", "android": "https://dc.lft.to/lastmile_qr_scan"}}, {"name": "287de3582dbb4340eb55f477594ff372", "type": "electric_scooter", "lat": 38.9024185, "is_reserved": 0, "lon": -77.002057, "fusion_lon": 0.0, "is_disabled": 0, "fusion_lat": 0.0, "bike_id": "287de3582dbb4340eb55f477594ff372", "rental_uris": {"ios": "https://dc.lft.to/lastmile_qr_scan", "android": "https://dc.lft.to/lastmile_qr_scan"}}, {"name": "2430f83668051410de653d58704cfdf1", "type": "electric_scooter", "lat": 38.903683666666666, "is_reserved": 0, "lon": -77.04480683333334, "fusion_lon": 0.0, "is_disabled": 0, "fusion_lat": 0.0, "bike_id": "2430f83668051410de653d58704cfdf1", "rental_uris": {"ios": "https://dc.lft.to/lastmile_qr_scan", "android": "https://dc.lft.to/lastmile_qr_scan"}}, {"name": "d59881fa7f747ae614b169e64decc199", "type": "electric_scooter", "lat": 38.908656, "is_reserved": 0, "lon": -77.02499816666666, "fusion_lon": 0.0, "is_disabled": 0, "fusion_lat": 0.0, "bike_id": "d59881fa7f747ae614b169e64decc199", "rental_uris": {"ios": "https://dc.lft.to/lastmile_qr_scan", "android": "https://dc.lft.to/lastmile_qr_scan"}}, {"name": "39989bbd6ec39d0c5459a3328c0b4dab", "type": "electric_scooter", "lat": 38.917678, "is_reserved": 0, "lon": -77.02709616666667, "fusion_lon": 0.0, "is_disabled": 0, "fusion_lat": 0.0, "bike_id": "39989bbd6ec39d0c5459a3328c0b4dab", "rental_uris": {"ios": "https://dc.lft.to/lastmile_qr_scan", "android": "https://dc.lft.to/lastmile_qr_scan"}}, {"name": "9e5d974c19663910a926b740b7076b1a", "type": "electric_bike", "lat": 38.88081783333333, "is_reserved": 0, "lon": -76.985335, "fusion_lon": 0.0, "is_disabled": 0, "fusion_lat": 0.0, "bike_id": "9e5d974c19663910a926b740b7076b1a", "rental_uris": {"ios": "https://dc.lft.to/lastmile_qr_scan", "android": "https://dc.lft.to/lastmile_qr_scan"}}, {"name": "4a4c516a560d7e57cea634277fb4e659", "type": "electric_scooter", "lat": 38.91572383333333, "is_reserved": 0, "lon": -77.04625566666667, "fusion_lon": 0.0, "is_disabled": 0, "fusion_lat": 0.0, "bike_id": "4a4c516a560d7e57cea634277fb4e659", "rental_uris": {"ios": "https://dc.lft.to/lastmile_qr_scan", "android": "https://dc.lft.to/lastmile_qr_scan"}}, {"name": "406ff6ca49d2358af51c550a5de11826", "type": "electric_scooter", "lat": 38.917123333333336, "is_reserved": 0, "lon": -77.03124233333334, "fusion_lon": 0.0, "is_disabled": 0, "fusion_lat": 0.0, "bike_id": "406ff6ca49d2358af51c550a5de11826", "rental_uris": {"ios": "https://dc.lft.to/lastmile_qr_scan", "android": "https://dc.lft.to/lastmile_qr_scan"}}, {"name": "7170740f0ccceb19c8e9a6bc0ae762c1", "type": "electric_scooter", "lat": 38.885121833333336, "is_reserved": 0, "lon": -77.00572016666666, "fusion_lon": 0.0, "is_disabled": 0, "fusion_lat": 0.0, "bike_id": "7170740f0ccceb19c8e9a6bc0ae762c1", "rental_uris": {"ios": "https://dc.lft.to/lastmile_qr_scan", "android": "https://dc.lft.to/lastmile_qr_scan"}}, {"name": "4f92a6c0893d19bf65e01dce826f95dc", "type": "electric_scooter", "lat": 38.922451333333335, "is_reserved": 0, "lon": -77.03088566666666, "fusion_lon": 0.0, "is_disabled": 0, "fusion_lat": 0.0, "bike_id": "4f92a6c0893d19bf65e01dce826f95dc", "rental_uris": {"ios": "https://dc.lft.to/lastmile_qr_scan", "android": "https://dc.lft.to/lastmile_qr_scan"}}, {"name": "b4fc047f2698a22a3ae4da8e2308320d", "type": "electric_scooter", "lat": 38.9117285, "is_reserved": 0, "lon": -77.01997233333333, "fusion_lon": 0.0, "is_disabled": 0, "fusion_lat": 0.0, "bike_id": "b4fc047f2698a22a3ae4da8e2308320d", "rental_uris": {"ios": "https://dc.lft.to/lastmile_qr_scan", "android": "https://dc.lft.to/lastmile_qr_scan"}}, {"name": "3cf23ec0f2c5d90e27f3ebc165a05097", "type": "electric_scooter", "lat": 38.88497733333333, "is_reserved": 0, "lon": -77.00725733333333, "fusion_lon": 0.0, "is_disabled": 0, "fusion_lat": 0.0, "bike_id": "3cf23ec0f2c5d90e27f3ebc165a05097", "rental_uris": {"ios": "https://dc.lft.to/lastmile_qr_scan", "android": "https://dc.lft.to/lastmile_qr_scan"}}, {"name": "337cd8a8b630f7b84c1cd9ce8e3b9e7e", "type": "electric_scooter", "lat": 38.8960655, "is_reserved": 0, "lon": -76.99976033333333, "fusion_lon": 0.0, "is_disabled": 0, "fusion_lat": 0.0, "bike_id": "337cd8a8b630f7b84c1cd9ce8e3b9e7e", "rental_uris": {"ios": "https://dc.lft.to/lastmile_qr_scan", "android": "https://dc.lft.to/lastmile_qr_scan"}}, {"name": "70e3eb9c8a4cb54b80eea4a92bb70582", "type": "electric_scooter", "lat": 38.863718, "is_reserved": 0, "lon": -77.0136395, "fusion_lon": 0.0, "is_disabled": 0, "fusion_lat": 0.0, "bike_id": "70e3eb9c8a4cb54b80eea4a92bb70582", "rental_uris": {"ios": "https://dc.lft.to/lastmile_qr_scan", "android": "https://dc.lft.to/lastmile_qr_scan"}}, {"name": "8425feed34583c1378a6094e97cfcc22", "type": "electric_bike", "lat": 38.945874333333336, "is_reserved": 0, "lon": -77.0027335, "fusion_lon": 0.0, "is_disabled": 0, "fusion_lat": 0.0, "bike_id": "8425feed34583c1378a6094e97cfcc22", "rental_uris": {"ios": "https://dc.lft.to/lastmile_qr_scan", "android": "https://dc.lft.to/lastmile_qr_scan"}}, {"name": "d0af29f14ae9d35c26371d27af572d22", "type": "electric_scooter", "lat": 38.942072833333334, "is_reserved": 0, "lon": -77.025153, "fusion_lon": 0.0, "is_disabled": 0, "fusion_lat": 0.0, "bike_id": "d0af29f14ae9d35c26371d27af572d22", "rental_uris": {"ios": "https://dc.lft.to/lastmile_qr_scan", "android": "https://dc.lft.to/lastmile_qr_scan"}}, {"name": "8b9c90df5c0a12d69d3486465f4c60aa", "type": "electric_scooter", "lat": 38.887445166666666, "is_reserved": 0, "lon": -77.02024216666666, "fusion_lon": 0.0, "is_disabled": 0, "fusion_lat": 0.0, "bike_id": "8b9c90df5c0a12d69d3486465f4c60aa", "rental_uris": {"ios": "https://dc.lft.to/lastmile_qr_scan", "android": "https://dc.lft.to/lastmile_qr_scan"}}, {"name": "e0fd2bb3ee7af2a7c2c1d4e9d31f1f11", "type": "electric_scooter", "lat": 38.9357205, "is_reserved": 0, "lon": -77.03733416666667, "fusion_lon": 0.0, "is_disabled": 0, "fusion_lat": 0.0, "bike_id": "e0fd2bb3ee7af2a7c2c1d4e9d31f1f11", "rental_uris": {"ios": "https://dc.lft.to/lastmile_qr_scan", "android": "https://dc.lft.to/lastmile_qr_scan"}}, {"name": "3ece24f6ab03702cca756cbb7e2df235", "type": "electric_scooter", "lat": 38.884044833333334, "is_reserved": 0, "lon": -76.995296, "fusion_lon": 0.0, "is_disabled": 0, "fusion_lat": 0.0, "bike_id": "3ece24f6ab03702cca756cbb7e2df235", "rental_uris": {"ios": "https://dc.lft.to/lastmile_qr_scan", "android": "https://dc.lft.to/lastmile_qr_scan"}}, {"name": "93d6a362d0836da4f0b45fc193518b58", "type": "electric_scooter", "lat": 38.928735, "is_reserved": 0, "lon": -77.03754016666667, "fusion_lon": 0.0, "is_disabled": 0, "fusion_lat": 0.0, "bike_id": "93d6a362d0836da4f0b45fc193518b58", "rental_uris": {"ios": "https://dc.lft.to/lastmile_qr_scan", "android": "https://dc.lft.to/lastmile_qr_scan"}}, {"name": "6a951c2ddb524a801218ea96313a28fc", "type": "electric_bike", "lat": 38.912689666666665, "is_reserved": 0, "lon": -77.012481, "fusion_lon": 0.0, "is_disabled": 0, "fusion_lat": 0.0, "bike_id": "6a951c2ddb524a801218ea96313a28fc", "rental_uris": {"ios": "https://dc.lft.to/lastmile_qr_scan", "android": "https://dc.lft.to/lastmile_qr_scan"}}, {"name": "57bed5cec5f8c77ae7e3009d092642d2", "type": "electric_bike", "lat": 38.9432225, "is_reserved": 0, "lon": -76.961757, "fusion_lon": 0.0, "is_disabled": 0, "fusion_lat": 0.0, "bike_id": "57bed5cec5f8c77ae7e3009d092642d2", "rental_uris": {"ios": "https://dc.lft.to/lastmile_qr_scan", "android": "https://dc.lft.to/lastmile_qr_scan"}}, {"name": "20600892c0cc4d973747667cc2afeea5", "type": "electric_scooter", "lat": 38.9031845, "is_reserved": 0, "lon": -77.0333905, "fusion_lon": 0.0, "is_disabled": 0, "fusion_lat": 0.0, "bike_id": "20600892c0cc4d973747667cc2afeea5", "rental_uris": {"ios": "https://dc.lft.to/lastmile_qr_scan", "android": "https://dc.lft.to/lastmile_qr_scan"}}, {"name": "6f1c8b83b84a19331532683094d93472", "type": "electric_scooter", "lat": 38.9322955, "is_reserved": 0, "lon": -77.0381355, "fusion_lon": 0.0, "is_disabled": 0, "fusion_lat": 0.0, "bike_id": "6f1c8b83b84a19331532683094d93472", "rental_uris": {"ios": "https://dc.lft.to/lastmile_qr_scan", "android": "https://dc.lft.to/lastmile_qr_scan"}}, {"name": "11e42e730fe0d0ffa2503d426ef20301", "type": "electric_bike", "lat": 38.84272933333333, "is_reserved": 0, "lon": -76.988447, "fusion_lon": 0.0, "is_disabled": 0, "fusion_lat": 0.0, "bike_id": "11e42e730fe0d0ffa2503d426ef20301", "rental_uris": {"ios": "https://dc.lft.to/lastmile_qr_scan", "android": "https://dc.lft.to/lastmile_qr_scan"}}, {"name": "654956ed0ee02ec059253cb00e956038", "type": "electric_scooter", "lat": 38.939862166666664, "is_reserved": 0, "lon": -77.02596433333333, "fusion_lon": 0.0, "is_disabled": 0, "fusion_lat": 0.0, "bike_id": "654956ed0ee02ec059253cb00e956038", "rental_uris": {"ios": "https://dc.lft.to/lastmile_qr_scan", "android": "https://dc.lft.to/lastmile_qr_scan"}}, {"name": "752eaa17fbbd585c790d66bb914e7ac8", "type": "electric_scooter", "lat": 38.91113633333333, "is_reserved": 0, "lon": -77.03479883333333, "fusion_lon": 0.0, "is_disabled": 0, "fusion_lat": 0.0, "bike_id": "752eaa17fbbd585c790d66bb914e7ac8", "rental_uris": {"ios": "https://dc.lft.to/lastmile_qr_scan", "android": "https://dc.lft.to/lastmile_qr_scan"}}, {"name": "c82bfb19f481db29a8e696397ed5c0d1", "type": "electric_scooter", "lat": 38.91487433333333, "is_reserved": 0, "lon": -77.0392745, "fusion_lon": 0.0, "is_disabled": 0, "fusion_lat": 0.0, "bike_id": "c82bfb19f481db29a8e696397ed5c0d1", "rental_uris": {"ios": "https://dc.lft.to/lastmile_qr_scan", "android": "https://dc.lft.to/lastmile_qr_scan"}}, {"name": "dc89130de9657892c60463a25ea54380", "type": "electric_scooter", "lat": 38.915754166666666, "is_reserved": 0, "lon": -77.021913, "fusion_lon": 0.0, "is_disabled": 0, "fusion_lat": 0.0, "bike_id": "dc89130de9657892c60463a25ea54380", "rental_uris": {"ios": "https://dc.lft.to/lastmile_qr_scan", "android": "https://dc.lft.to/lastmile_qr_scan"}}, {"name": "0b4ff6b324b8e89de8ef9aad4da96209", "type": "electric_scooter", "lat": 38.90590366666667, "is_reserved": 0, "lon": -77.01617066666667, "fusion_lon": 0.0, "is_disabled": 0, "fusion_lat": 0.0, "bike_id": "0b4ff6b324b8e89de8ef9aad4da96209", "rental_uris": {"ios": "https://dc.lft.to/lastmile_qr_scan", "android": "https://dc.lft.to/lastmile_qr_scan"}}, {"name": "e3929ffe431323c7ea421bdc34b020bb", "type": "electric_scooter", "lat": 38.900267166666666, "is_reserved": 0, "lon": -77.01165666666667, "fusion_lon": 0.0, "is_disabled": 0, "fusion_lat": 0.0, "bike_id": "e3929ffe431323c7ea421bdc34b020bb", "rental_uris": {"ios": "https://dc.lft.to/lastmile_qr_scan", "android": "https://dc.lft.to/lastmile_qr_scan"}}, {"name": "0447b5c2a18641a9d29980efe4e10cc4", "type": "electric_bike", "lat": 38.880415666666664, "is_reserved": 0, "lon": -77.01323666666667, "fusion_lon": 0.0, "is_disabled": 0, "fusion_lat": 0.0, "bike_id": "0447b5c2a18641a9d29980efe4e10cc4", "rental_uris": {"ios": "https://dc.lft.to/lastmile_qr_scan", "android": "https://dc.lft.to/lastmile_qr_scan"}}, {"name": "8feba7e62f799b30c480a8a383acdf44", "type": "electric_scooter", "lat": 38.914626166666665, "is_reserved": 0, "lon": -77.03821916666666, "fusion_lon": 0.0, "is_disabled": 0, "fusion_lat": 0.0, "bike_id": "8feba7e62f799b30c480a8a383acdf44", "rental_uris": {"ios": "https://dc.lft.to/lastmile_qr_scan", "android": "https://dc.lft.to/lastmile_qr_scan"}}, {"name": "a5e0f83776dbd73f8fd24a452c6becca", "type": "electric_bike", "lat": 38.839365666666666, "is_reserved": 0, "lon": -77.0790865, "fusion_lon": 0.0, "is_disabled": 0, "fusion_lat": 0.0, "bike_id": "a5e0f83776dbd73f8fd24a452c6becca", "rental_uris": {"ios": "https://dc.lft.to/lastmile_qr_scan", "android": "https://dc.lft.to/lastmile_qr_scan"}}, {"name": "7b871505951631d529d53649c11006d8", "type": "electric_scooter", "lat": 38.90017483333333, "is_reserved": 0, "lon": -77.04024583333333, "fusion_lon": 0.0, "is_disabled": 0, "fusion_lat": 0.0, "bike_id": "7b871505951631d529d53649c11006d8", "rental_uris": {"ios": "https://dc.lft.to/lastmile_qr_scan", "android": "https://dc.lft.to/lastmile_qr_scan"}}, {"name": "847f0fa957738f331ae1220a9eab9aa1", "type": "electric_scooter", "lat": 38.92328783333333, "is_reserved": 0, "lon": -77.03512666666667, "fusion_lon": 0.0, "is_disabled": 0, "fusion_lat": 0.0, "bike_id": "847f0fa957738f331ae1220a9eab9aa1", "rental_uris": {"ios": "https://dc.lft.to/lastmile_qr_scan", "android": "https://dc.lft.to/lastmile_qr_scan"}}, {"name": "13dfbb18d075a3994294b953edb16d95", "type": "electric_scooter", "lat": 38.89728916666667, "is_reserved": 0, "lon": -77.04338833333334, "fusion_lon": 0.0, "is_disabled": 0, "fusion_lat": 0.0, "bike_id": "13dfbb18d075a3994294b953edb16d95", "rental_uris": {"ios": "https://dc.lft.to/lastmile_qr_scan", "android": "https://dc.lft.to/lastmile_qr_scan"}}, {"name": "2b43fa086c36b1de9e177b3ec80dcaa1", "type": "electric_scooter", "lat": 38.930139833333335, "is_reserved": 0, "lon": -77.02323416666667, "fusion_lon": 0.0, "is_disabled": 0, "fusion_lat": 0.0, "bike_id": "2b43fa086c36b1de9e177b3ec80dcaa1", "rental_uris": {"ios": "https://dc.lft.to/lastmile_qr_scan", "android": "https://dc.lft.to/lastmile_qr_scan"}}, {"name": "a1716c105564cd5eb0e28178154806b8", "type": "electric_scooter", "lat": 38.91095683333333, "is_reserved": 0, "lon": -77.00499116666667, "fusion_lon": 0.0, "is_disabled": 0, "fusion_lat": 0.0, "bike_id": "a1716c105564cd5eb0e28178154806b8", "rental_uris": {"ios": "https://dc.lft.to/lastmile_qr_scan", "android": "https://dc.lft.to/lastmile_qr_scan"}}, {"name": "63c92a20739e219cc120bfaf6f369aee", "type": "electric_scooter", "lat": 38.9235835, "is_reserved": 0, "lon": -77.04152133333334, "fusion_lon": 0.0, "is_disabled": 0, "fusion_lat": 0.0, "bike_id": "63c92a20739e219cc120bfaf6f369aee", "rental_uris": {"ios": "https://dc.lft.to/lastmile_qr_scan", "android": "https://dc.lft.to/lastmile_qr_scan"}}, {"name": "7fb187b03929921021ee79da6d996c7f", "type": "electric_scooter", "lat": 38.90632683333333, "is_reserved": 0, "lon": -77.05138866666667, "fusion_lon": 0.0, "is_disabled": 0, "fusion_lat": 0.0, "bike_id": "7fb187b03929921021ee79da6d996c7f", "rental_uris": {"ios": "https://dc.lft.to/lastmile_qr_scan", "android": "https://dc.lft.to/lastmile_qr_scan"}}, {"name": "cd57db6a1db4d6cfeb5321bf51cb3d1b", "type": "electric_scooter", "lat": 38.9065925, "is_reserved": 0, "lon": -77.051345, "fusion_lon": 0.0, "is_disabled": 0, "fusion_lat": 0.0, "bike_id": "cd57db6a1db4d6cfeb5321bf51cb3d1b", "rental_uris": {"ios": "https://dc.lft.to/lastmile_qr_scan", "android": "https://dc.lft.to/lastmile_qr_scan"}}, {"name": "995f2cf9b557b335c0b217fad05d8bf8", "type": "electric_scooter", "lat": 38.93762516666666, "is_reserved": 0, "lon": -77.022692, "fusion_lon": 0.0, "is_disabled": 0, "fusion_lat": 0.0, "bike_id": "995f2cf9b557b335c0b217fad05d8bf8", "rental_uris": {"ios": "https://dc.lft.to/lastmile_qr_scan", "android": "https://dc.lft.to/lastmile_qr_scan"}}, {"name": "dc25fcc491dda9f4017c212be499054b", "type": "electric_bike", "lat": 38.839855, "is_reserved": 0, "lon": -77.005704, "fusion_lon": 0.0, "is_disabled": 0, "fusion_lat": 0.0, "bike_id": "dc25fcc491dda9f4017c212be499054b", "rental_uris": {"ios": "https://dc.lft.to/lastmile_qr_scan", "android": "https://dc.lft.to/lastmile_qr_scan"}}, {"name": "1072bc9a417c825c4c3ae403359682b4", "type": "electric_scooter", "lat": 38.898255166666665, "is_reserved": 0, "lon": -76.94654416666667, "fusion_lon": 0.0, "is_disabled": 0, "fusion_lat": 0.0, "bike_id": "1072bc9a417c825c4c3ae403359682b4", "rental_uris": {"ios": "https://dc.lft.to/lastmile_qr_scan", "android": "https://dc.lft.to/lastmile_qr_scan"}}, {"name": "eba61ce11e0c1da902efcb47fef60e28", "type": "electric_scooter", "lat": 38.92483416666666, "is_reserved": 0, "lon": -77.02889033333334, "fusion_lon": 0.0, "is_disabled": 0, "fusion_lat": 0.0, "bike_id": "eba61ce11e0c1da902efcb47fef60e28", "rental_uris": {"ios": "https://dc.lft.to/lastmile_qr_scan", "android": "https://dc.lft.to/lastmile_qr_scan"}}, {"name": "c98f03d17101259e7c754a0fec86470c", "type": "electric_scooter", "lat": 38.90560283333333, "is_reserved": 0, "lon": -77.021755, "fusion_lon": 0.0, "is_disabled": 0, "fusion_lat": 0.0, "bike_id": "c98f03d17101259e7c754a0fec86470c", "rental_uris": {"ios": "https://dc.lft.to/lastmile_qr_scan", "android": "https://dc.lft.to/lastmile_qr_scan"}}, {"name": "22900e62365121298ffaca959d94619c", "type": "electric_scooter", "lat": 38.900640833333334, "is_reserved": 0, "lon": -77.0508355, "fusion_lon": 0.0, "is_disabled": 0, "fusion_lat": 0.0, "bike_id": "22900e62365121298ffaca959d94619c", "rental_uris": {"ios": "https://dc.lft.to/lastmile_qr_scan", "android": "https://dc.lft.to/lastmile_qr_scan"}}, {"name": "4e1790dce94322a5f77266abbf9ad4e4", "type": "electric_bike", "lat": 38.92214466666667, "is_reserved": 0, "lon": -77.0818715, "fusion_lon": 0.0, "is_disabled": 0, "fusion_lat": 0.0, "bike_id": "4e1790dce94322a5f77266abbf9ad4e4", "rental_uris": {"ios": "https://dc.lft.to/lastmile_qr_scan", "android": "https://dc.lft.to/lastmile_qr_scan"}}, {"name": "558d93ef1f63601a4dc9034e3da89e67", "type": "electric_scooter", "lat": 38.86660283333333, "is_reserved": 0, "lon": -76.9901685, "fusion_lon": 0.0, "is_disabled": 0, "fusion_lat": 0.0, "bike_id": "558d93ef1f63601a4dc9034e3da89e67", "rental_uris": {"ios": "https://dc.lft.to/lastmile_qr_scan", "android": "https://dc.lft.to/lastmile_qr_scan"}}, {"name": "c144d84d70f7b1fb32ef7e66b71235cc", "type": "electric_scooter", "lat": 38.914194, "is_reserved": 0, "lon": -77.0228155, "fusion_lon": 0.0, "is_disabled": 0, "fusion_lat": 0.0, "bike_id": "c144d84d70f7b1fb32ef7e66b71235cc", "rental_uris": {"ios": "https://dc.lft.to/lastmile_qr_scan", "android": "https://dc.lft.to/lastmile_qr_scan"}}, {"name": "fbe0aebbd869974bb55dff9796285073", "type": "electric_scooter", "lat": 38.899566666666665, "is_reserved": 0, "lon": -76.98571433333333, "fusion_lon": 0.0, "is_disabled": 0, "fusion_lat": 0.0, "bike_id": "fbe0aebbd869974bb55dff9796285073", "rental_uris": {"ios": "https://dc.lft.to/lastmile_qr_scan", "android": "https://dc.lft.to/lastmile_qr_scan"}}, {"name": "ea9c84ee5fcb692fc66e14fe290546d3", "type": "electric_scooter", "lat": 38.930672, "is_reserved": 0, "lon": -77.02983633333334, "fusion_lon": 0.0, "is_disabled": 0, "fusion_lat": 0.0, "bike_id": "ea9c84ee5fcb692fc66e14fe290546d3", "rental_uris": {"ios": "https://dc.lft.to/lastmile_qr_scan", "android": "https://dc.lft.to/lastmile_qr_scan"}}, {"name": "254c858a319133618255f6af6a7e6cdf", "type": "electric_scooter", "lat": 38.913541, "is_reserved": 0, "lon": -77.03177133333334, "fusion_lon": 0.0, "is_disabled": 0, "fusion_lat": 0.0, "bike_id": "254c858a319133618255f6af6a7e6cdf", "rental_uris": {"ios": "https://dc.lft.to/lastmile_qr_scan", "android": "https://dc.lft.to/lastmile_qr_scan"}}, {"name": "a3d1ab4365f1525b4013aba41e65d652", "type": "electric_scooter", "lat": 38.9191565, "is_reserved": 0, "lon": -77.0341865, "fusion_lon": 0.0, "is_disabled": 0, "fusion_lat": 0.0, "bike_id": "a3d1ab4365f1525b4013aba41e65d652", "rental_uris": {"ios": "https://dc.lft.to/lastmile_qr_scan", "android": "https://dc.lft.to/lastmile_qr_scan"}}, {"name": "5dc003b649ead2c91460c3ac96b4ff50", "type": "electric_scooter", "lat": 38.93071466666667, "is_reserved": 0, "lon": -77.02916083333334, "fusion_lon": 0.0, "is_disabled": 0, "fusion_lat": 0.0, "bike_id": "5dc003b649ead2c91460c3ac96b4ff50", "rental_uris": {"ios": "https://dc.lft.to/lastmile_qr_scan", "android": "https://dc.lft.to/lastmile_qr_scan"}}, {"name": "f4c7dd6b869d43aa37a13aa3238cd8b3", "type": "electric_scooter", "lat": 38.949309, "is_reserved": 0, "lon": -77.01938466666667, "fusion_lon": 0.0, "is_disabled": 0, "fusion_lat": 0.0, "bike_id": "f4c7dd6b869d43aa37a13aa3238cd8b3", "rental_uris": {"ios": "https://dc.lft.to/lastmile_qr_scan", "android": "https://dc.lft.to/lastmile_qr_scan"}}, {"name": "3fa258abd48585851506bde6eef37270", "type": "electric_scooter", "lat": 38.90977433333333, "is_reserved": 0, "lon": -77.06714183333334, "fusion_lon": 0.0, "is_disabled": 0, "fusion_lat": 0.0, "bike_id": "3fa258abd48585851506bde6eef37270", "rental_uris": {"ios": "https://dc.lft.to/lastmile_qr_scan", "android": "https://dc.lft.to/lastmile_qr_scan"}}, {"name": "a12bc04f52460d189f59858bc665821a", "type": "electric_scooter", "lat": 38.9178965, "is_reserved": 0, "lon": -77.0230315, "fusion_lon": 0.0, "is_disabled": 0, "fusion_lat": 0.0, "bike_id": "a12bc04f52460d189f59858bc665821a", "rental_uris": {"ios": "https://dc.lft.to/lastmile_qr_scan", "android": "https://dc.lft.to/lastmile_qr_scan"}}, {"name": "82672238a6cdcc9fa49098392d2341e1", "type": "electric_scooter", "lat": 38.934905666666666, "is_reserved": 0, "lon": -77.07250216666667, "fusion_lon": 0.0, "is_disabled": 0, "fusion_lat": 0.0, "bike_id": "82672238a6cdcc9fa49098392d2341e1", "rental_uris": {"ios": "https://dc.lft.to/lastmile_qr_scan", "android": "https://dc.lft.to/lastmile_qr_scan"}}, {"name": "61e31fd78a120a57a1b65ea8a9c42770", "type": "electric_scooter", "lat": 38.91709633333333, "is_reserved": 0, "lon": -77.0347225, "fusion_lon": 0.0, "is_disabled": 0, "fusion_lat": 0.0, "bike_id": "61e31fd78a120a57a1b65ea8a9c42770", "rental_uris": {"ios": "https://dc.lft.to/lastmile_qr_scan", "android": "https://dc.lft.to/lastmile_qr_scan"}}, {"name": "dda0130a05d8963c6afaa756af3b4865", "type": "electric_scooter", "lat": 38.90813583333333, "is_reserved": 0, "lon": -77.00049, "fusion_lon": 0.0, "is_disabled": 0, "fusion_lat": 0.0, "bike_id": "dda0130a05d8963c6afaa756af3b4865", "rental_uris": {"ios": "https://dc.lft.to/lastmile_qr_scan", "android": "https://dc.lft.to/lastmile_qr_scan"}}, {"name": "5ae7a6851fcc38f0169f005c45fbf98b", "type": "electric_scooter", "lat": 38.9245765, "is_reserved": 0, "lon": -76.99900666666667, "fusion_lon": 0.0, "is_disabled": 0, "fusion_lat": 0.0, "bike_id": "5ae7a6851fcc38f0169f005c45fbf98b", "rental_uris": {"ios": "https://dc.lft.to/lastmile_qr_scan", "android": "https://dc.lft.to/lastmile_qr_scan"}}, {"name": "3df7036f43586719a0bd401e2f72af54", "type": "electric_scooter", "lat": 38.9085215, "is_reserved": 0, "lon": -77.02065283333333, "fusion_lon": 0.0, "is_disabled": 0, "fusion_lat": 0.0, "bike_id": "3df7036f43586719a0bd401e2f72af54", "rental_uris": {"ios": "https://dc.lft.to/lastmile_qr_scan", "android": "https://dc.lft.to/lastmile_qr_scan"}}, {"name": "c44a78b1593d8d40b835d5fe4eba62b1", "type": "electric_scooter", "lat": 38.900733333333335, "is_reserved": 0, "lon": -77.02158216666666, "fusion_lon": 0.0, "is_disabled": 0, "fusion_lat": 0.0, "bike_id": "c44a78b1593d8d40b835d5fe4eba62b1", "rental_uris": {"ios": "https://dc.lft.to/lastmile_qr_scan", "android": "https://dc.lft.to/lastmile_qr_scan"}}, {"name": "3d0992a0507969a8ae54cdc71fb53687", "type": "electric_scooter", "lat": 38.93118483333333, "is_reserved": 0, "lon": -77.02105166666666, "fusion_lon": 0.0, "is_disabled": 0, "fusion_lat": 0.0, "bike_id": "3d0992a0507969a8ae54cdc71fb53687", "rental_uris": {"ios": "https://dc.lft.to/lastmile_qr_scan", "android": "https://dc.lft.to/lastmile_qr_scan"}}, {"name": "fd044b838ee1a4d79ac51a3296ff218b", "type": "electric_scooter", "lat": 38.91884016666667, "is_reserved": 0, "lon": -77.02328883333334, "fusion_lon": 0.0, "is_disabled": 0, "fusion_lat": 0.0, "bike_id": "fd044b838ee1a4d79ac51a3296ff218b", "rental_uris": {"ios": "https://dc.lft.to/lastmile_qr_scan", "android": "https://dc.lft.to/lastmile_qr_scan"}}, {"name": "1839f81d7c7e6849f3da36c43941433b", "type": "electric_scooter", "lat": 38.883287833333334, "is_reserved": 0, "lon": -77.017677, "fusion_lon": 0.0, "is_disabled": 0, "fusion_lat": 0.0, "bike_id": "1839f81d7c7e6849f3da36c43941433b", "rental_uris": {"ios": "https://dc.lft.to/lastmile_qr_scan", "android": "https://dc.lft.to/lastmile_qr_scan"}}, {"name": "d01af53b32c5f00af92faba8dfadbf43", "type": "electric_scooter", "lat": 38.89526083333333, "is_reserved": 0, "lon": -77.048473, "fusion_lon": 0.0, "is_disabled": 0, "fusion_lat": 0.0, "bike_id": "d01af53b32c5f00af92faba8dfadbf43", "rental_uris": {"ios": "https://dc.lft.to/lastmile_qr_scan", "android": "https://dc.lft.to/lastmile_qr_scan"}}, {"name": "9a6d4e52ab70df6ad4db07e59ba1c4d2", "type": "electric_scooter", "lat": 38.9000575, "is_reserved": 0, "lon": -77.05252933333334, "fusion_lon": 0.0, "is_disabled": 0, "fusion_lat": 0.0, "bike_id": "9a6d4e52ab70df6ad4db07e59ba1c4d2", "rental_uris": {"ios": "https://dc.lft.to/lastmile_qr_scan", "android": "https://dc.lft.to/lastmile_qr_scan"}}, {"name": "4b33193e67c5bca16e6cd7a427e5d525", "type": "electric_scooter", "lat": 38.90359766666667, "is_reserved": 0, "lon": -77.03380633333333, "fusion_lon": 0.0, "is_disabled": 0, "fusion_lat": 0.0, "bike_id": "4b33193e67c5bca16e6cd7a427e5d525", "rental_uris": {"ios": "https://dc.lft.to/lastmile_qr_scan", "android": "https://dc.lft.to/lastmile_qr_scan"}}, {"name": "1938871e950168bd62912578706a0de4", "type": "electric_scooter", "lat": 38.8755195, "is_reserved": 0, "lon": -76.964916, "fusion_lon": 0.0, "is_disabled": 0, "fusion_lat": 0.0, "bike_id": "1938871e950168bd62912578706a0de4", "rental_uris": {"ios": "https://dc.lft.to/lastmile_qr_scan", "android": "https://dc.lft.to/lastmile_qr_scan"}}, {"name": "1a137b9032f2b90fa5fc06ecffe3ebd6", "type": "electric_scooter", "lat": 38.915368666666666, "is_reserved": 0, "lon": -77.04616616666667, "fusion_lon": 0.0, "is_disabled": 0, "fusion_lat": 0.0, "bike_id": "1a137b9032f2b90fa5fc06ecffe3ebd6", "rental_uris": {"ios": "https://dc.lft.to/lastmile_qr_scan", "android": "https://dc.lft.to/lastmile_qr_scan"}},