{"data": {"bikes": [{"name": "ccc70f573b1c4e8b49a6965dec40421f", "type": "electric_scooter", "lat": 38.853162166666664, "is_reserved": 0, "lon": -76.98003116666666, "fusion_lon": 0.0, "is_disabled": 0, "fusion_lat": 0.0, "bike_id": "ccc70f573b1c4e8b49a6965dec40421f", "rental_uris": {"ios": "https://dc.lft.to/lastmile_qr_scan", "android": "https://dc.lft.to/lastmile_qr_scan"}}, {"name": "05697319ef41325cc8d5e9305fd20bba", "type": "electric_scooter", "lat": 38.94044483333333, "is_reserved": 0, "lon": -77.029778, "fusion_lon": 0.0, "is_disabled": 0, "fusion_lat": 0.0, "bike_id": "05697319ef41325cc8d5e9305fd20bba", "rental_uris": {"ios": "https://dc.lft.to/lastmile_qr_scan", "android": "https://dc.lft.to/lastmile_qr_scan"}}, {"name": "f971355a28c6a9e813bfc79b81d4634b", "type": "electric_scooter", "lat": 38.90173333333333, "is_reserved": 0, "lon": -77.04650466666666, "fusion_lon": 0.0, "is_disabled": 0, "fusion_lat": 0.0, "bike_id": "f971355a28c6a9e813bfc79b81d4634b", "rental_uris": {"ios": "https://dc.lft.to/lastmile_qr_scan", "android": "https://dc.lft.to/lastmile_qr_scan"}}, {"name": "687fe521592ab05c5cee7a47b1cd797b", "type": "electric_scooter", "lat": 38.9528245, "is_reserved": 0, "lon": -77.00791666666667, "fusion_lon": 0.0, "is_disabled": 0, "fusion_lat": 0.0, "bike_id": "687fe521592ab05c5cee7a47b1cd797b", "rental_uris": {"ios": "https://dc.lft.to/lastmile_qr_scan", "android": "https://dc.lft.to/lastmile_qr_scan"}}, {"name": "9dbbc8c0c3085bb4a8533c69b6087a16", "type": "electric_scooter", "lat": 38.89552033333333, "is_reserved": 0, "lon": -77.04163583333333, "fusion_lon": 0.0, "is_disabled": 0, "fusion_lat": 0.0, "bike_id": "9dbbc8c0c3085bb4a8533c69b6087a16", "rental_uris": {"ios": "https://dc.lft.to/lastmile_qr_scan", "android": "https://dc.lft.to/lastmile_qr_scan"}}, {"name": "0a7e22a9b25cb38e06bb89fcc9361055", "type": "electric_scooter", "lat": 38.922533, "is_reserved": 0, "lon": -77.04136183333334, "fusion_lon": 0.0, "is_disabled": 0, "fusion_lat": 0.0, "bike_id": "0a7e22a9b25cb38e06bb89fcc9361055", "rental_uris": {"ios": "https://dc.lft.to/lastmile_qr_scan", "android": "https://dc.lft.to/lastmile_qr_scan"}}, {"name": "1226428227b8479c46b45da19307957c", "type": "electric_bike", "lat": 38.87238983333334, "is_reserved": 0, "lon": -77.01165283333333, "fusion_lon": 0.0, "is_disabled": 0, "fusion_lat": 0.0, "bike_id": "1226428227b8479c46b45da19307957c", "rental_uris": {"ios": "https://dc.lft.to/lastmile_qr_scan", "android": "https://dc.lft.to/lastmile_qr_scan"}}, {"name": "646a6e6e441d75ccf319fcddac95035d", "type": "electric_scooter", "lat": 38.92081616666667, "is_reserved": 0, "lon": -76.99917016666667, "fusion_lon": 0.0, "is_disabled": 0, "fusion_lat": 0.0, "bike_id": "646a6e6e441d75ccf319fcddac95035d", "rental_uris": {"ios": "https://dc.lft.to/lastmile_qr_scan", "android": "https://dc.lft.to/lastmile_qr_scan"}}, {"name": "ac4ee8e0fa86fec1d9a919905dc0a6e0", "type": "electric_scooter", "lat": 38.88986416666667, "is_reserved": 0, "lon": -77.00332, "fusion_lon": 0.0, "is_disabled": 0, "fusion_lat": 0.0, "bike_id": "ac4ee8e0fa86fec1d9a919905dc0a6e0", "rental_uris": {"ios": "https://dc.lft.to/lastmile_qr_scan", "android": "https://dc.lft.to/lastmile_qr_scan"}}, {"name": "3352ecece629570b2965ca961cecd458", "type": "electric_scooter", "lat": 38.92049383333333, "is_reserved": 0, "lon": -76.99818233333333, "fusion_lon": 0.0, "is_disabled": 0, "fusion_lat": 0.0, "bike_id": "3352ecece629570b2965ca961cecd458", "rental_uris": {"ios": "https://dc.lft.to/lastmile_qr_scan", "android": "https://dc.lft.to/lastmile_qr_scan"}}, {"name": "757979aee605700d289ba40b8ef2d518", "type": "electric_scooter", "lat": 38.918063333333336, "is_reserved": 0, "lon": -77.03439633333333, "fusion_lon": 0.0, "is_disabled": 0, "fusion_lat": 0.0, "bike_id": "757979aee605700d289ba40b8ef2d518", "rental_uris": {"ios": "https://dc.lft.to/lastmile_qr_scan", "android": "https://dc.lft.to/lastmile_qr_scan"}}, {"name": "18dda137cf1d2c1fcb7dc75910098321", "type": "electric_bike", "lat": 38.8731145, "is_reserved": 0, "lon": -77.01095433333333, "fusion_lon": 0.0, "is_disabled": 0, "fusion_lat": 0.0, "bike_id": "18dda137cf1d2c1fcb7dc75910098321", "rental_uris": {"ios": "https://dc.lft.to/lastmile_qr_scan", "android": "https://dc.lft.to/lastmile_qr_scan"}}, {"name": "e4c12631cbdd1da8fe5106eeec697ee5", "type": "electric_scooter", "lat": 38.929492, "is_reserved": 0, "lon": -77.03465383333334, "fusion_lon": 0.0, "is_disabled": 0, "fusion_lat": 0.0, "bike_id": "e4c12631cbdd1da8fe5106eeec697ee5", "rental_uris": {"ios": "https://dc.lft.to/lastmile_qr_scan", "android": "https://dc.lft.to/lastmile_qr_scan"}}, {"name": "a766f592c7ccf7f923f6d14dcb93c172", "type": "electric_scooter", "lat": 38.939457, "is_reserved": 0, "lon": -77.03268716666666, "fusion_lon": 0.0, "is_disabled": 0, "fusion_lat": 0.0, "bike_id": "a766f592c7ccf7f923f6d14dcb93c172", "rental_uris": {"ios": "https://dc.lft.to/lastmile_qr_scan", "android": "https://dc.lft.to/lastmile_qr_scan"}}, {"name": "b0e8fd5a017724fc045fb9ff513468f0", "type": "electric_bike", "lat": 38.9906925, "is_reserved": 0, "lon": -77.10028116666666, "fusion_lon": 0.0, "is_disabled": 0, "fusion_lat": 0.0, "bike_id": "b0e8fd5a017724fc045fb9ff513468f0", "rental_uris": {"ios": "https://dc.lft.to/lastmile_qr_scan", "android": "https://dc.lft.to/lastmile_qr_scan"}}, {"name": "ff7bbfab90eab46b54ca8e34853f5da1", "type": "electric_scooter", "lat": 38.90607716666667, "is_reserved": 0, "lon": -77.0398525, "fusion_lon": 0.0, "is_disabled": 0, "fusion_lat": 0.0, "bike_id": "ff7bbfab90eab46b54ca8e34853f5da1", "rental_uris": {"ios": "https://dc.lft.to/lastmile_qr_scan", "android": "https://dc.lft.to/lastmile_qr_scan"}}, {"name": "2eeeb64ab14f581bbe78f00934c83daa", "type": "electric_scooter", "lat": 38.9037555, "is_reserved": 0, "lon": -77.04477383333334, "fusion_lon": 0.0, "is_disabled": 0, "fusion_lat": 0.0, "bike_id": "2eeeb64ab14f581bbe78f00934c83daa", "rental_uris": {"ios": "https://dc.lft.to/lastmile_qr_scan", "android": "https://dc.lft.to/lastmile_qr_scan"}}, {"name": "95a433620960d4966916e6ba61871b36", "type": "electric_scooter", "lat": 38.95104833333333, "is_reserved": 0, "lon": -77.0157875, "fusion_lon": 0.0, "is_disabled": 0, "fusion_lat": 0.0, "bike_id": "95a433620960d4966916e6ba61871b36", "rental_uris": {"ios": "https://dc.lft.to/lastmile_qr_scan", "android": "https://dc.lft.to/lastmile_qr_scan"}}, {"name": "3d51b1a617468eeda9212cb87c7af5e7", "type": "electric_scooter", "lat": 38.93098233333333, "is_reserved": 0, "lon": -77.025041, "fusion_lon": 0.0, "is_disabled": 0, "fusion_lat": 0.0, "bike_id": "3d51b1a617468eeda9212cb87c7af5e7", "rental_uris": {"ios": "https://dc.lft.to/lastmile_qr_scan", "android": "https://dc.lft.to/lastmile_qr_scan"}}, {"name": "4606ad941609d49de048c2d40f8318a9", "type": "electric_scooter", "lat": 38.94013266666666, "is_reserved": 0, "lon": -77.071713, "fusion_lon": 0.0, "is_disabled": 0, "fusion_lat": 0.0, "bike_id": "4606ad941609d49de048c2d40f8318a9", "rental_uris": {"ios": "https://dc.lft.to/lastmile_qr_scan", "android": "https://dc.lft.to/lastmile_qr_scan"}}, {"name": "41089c06fab865780de0679ba60318bb", "type": "electric_scooter", "lat": 38.903647, "is_reserved": 0, "lon": -77.0404345, "fusion_lon": 0.0, "is_disabled": 0, "fusion_lat": 0.0, "bike_id": "41089c06fab865780de0679ba60318bb", "rental_uris": {"ios": "https://dc.lft.to/lastmile_qr_scan", "android": "https://dc.lft.to/lastmile_qr_scan"}}, {"name": "73237792aef7dc73a3b1e761b6daf6d3", "type": "electric_scooter", "lat": 38.944941666666665, "is_reserved": 0, "lon": -77.063774, "fusion_lon": 0.0, "is_disabled": 0, "fusion_lat": 0.0, "bike_id": "73237792aef7dc73a3b1e761b6daf6d3", "rental_uris": {"ios": "https://dc.lft.to/lastmile_qr_scan", "android": "https://dc.lft.to/lastmile_qr_scan"}}, {"name": "34722b2276b06d2562574718c0c85c33", "type": "electric_scooter", "lat": 38.91566983333333, "is_reserved": 0, "lon": -77.037663, "fusion_lon": 0.0, "is_disabled": 0, "fusion_lat": 0.0, "bike_id": "34722b2276b06d2562574718c0c85c33", "rental_uris": {"ios": "https://dc.lft.to/lastmile_qr_scan", "android": "https://dc.lft.to/lastmile_qr_scan"}}, {"name": "b78331da15969d9bd90af21847941325", "type": "electric_scooter", "lat": 38.90726933333333, "is_reserved": 0, "lon": -76.98601333333333, "fusion_lon": 0.0, "is_disabled": 0, "fusion_lat": 0.0, "bike_id": "b78331da15969d9bd90af21847941325", "rental_uris": {"ios": "https://dc.lft.to/lastmile_qr_scan", "android": "https://dc.lft.to/lastmile_qr_scan"}}, {"name": "913d2e3beeb0afec430f86f29656e327", "type": "electric_scooter", "lat": 38.917009666666665, "is_reserved": 0, "lon": -77.00808266666667, "fusion_lon": 0.0, "is_disabled": 0, "fusion_lat": 0.0, "bike_id": "913d2e3beeb0afec430f86f29656e327", "rental_uris": {"ios": "https://dc.lft.to/lastmile_qr_scan", "android": "https://dc.lft.to/lastmile_qr_scan"}}, {"name": "182e2d3adb39fa87b1b393bb88690e37", "type": "electric_scooter", "lat": 38.9223385, "is_reserved": 0, "lon": -77.042469, "fusion_lon": 0.0, "is_disabled": 0, "fusion_lat": 0.0, "bike_id": "182e2d3adb39fa87b1b393bb88690e37", "rental_uris": {"ios": "https://dc.lft.to/lastmile_qr_scan", "android": "https://dc.lft.to/lastmile_qr_scan"}}, {"name": "231813a9ca2c122318670896005776e9", "type": "electric_bike", "lat": 38.89802683333333, "is_reserved": 0, "lon": -77.00600166666666, "fusion_lon": 0.0, "is_disabled": 0, "fusion_lat": 0.0, "bike_id": "231813a9ca2c122318670896005776e9", "rental_uris": {"ios": "https://dc.lft.to/lastmile_qr_scan", "android": "https://dc.lft.to/lastmile_qr_scan"}}, {"name": "be975e61d4df4866e1ef03c51cd88532", "type": "electric_scooter", "lat": 38.915941833333335, "is_reserved": 0, "lon": -77.04359333333333, "fusion_lon": 0.0, "is_disabled": 0, "fusion_lat": 0.0, "bike_id": "be975e61d4df4866e1ef03c51cd88532", "rental_uris": {"ios": "https://dc.lft.to/lastmile_qr_scan", "android": "https://dc.lft.to/lastmile_qr_scan"}}, {"name": "dc0e3176b9766e913ea4c24aab5f76a3", "type": "electric_scooter", "lat": 38.906232333333335, "is_reserved": 0, "lon": -77.03960966666666, "fusion_lon": 0.0, "is_disabled": 0, "fusion_lat": 0.0, "bike_id": "dc0e3176b9766e913ea4c24aab5f76a3", "rental_uris": {"ios": "https://dc.lft.to/lastmile_qr_scan", "android": "https://dc.lft.to/lastmile_qr_scan"}}, {"name": "222e5207c8eaf4e375cd51317fbeb84c", "type": "electric_scooter", "lat": 38.89936616666667, "is_reserved": 0, "lon": -77.031112, "fusion_lon": 0.0, "is_disabled": 0, "fusion_lat": 0.0, "bike_id": "222e5207c8eaf4e375cd51317fbeb84c", "rental_uris": {"ios": "https://dc.lft.to/lastmile_qr_scan", "android": "https://dc.lft.to/lastmile_qr_scan"}}, {"name": "5148dbb4b5def853831da1af7113bf84", "type": "electric_scooter", "lat": 38.887391, "is_reserved": 0, "lon": -77.015325, "fusion_lon": 0.0, "is_disabled": 0, "fusion_lat": 0.0, "bike_id": "5148dbb4b5def853831da1af7113bf84", "rental_uris": {"ios": "https://dc.lft.to/lastmile_qr_scan", "android": "https://dc.lft.to/lastmile_qr_scan"}}, {"name": "cdfb51f25fd36fe4ad6b43ad7f986742", "type": "electric_scooter", "lat": 38.9288165, "is_reserved": 0, "lon": -77.03759433333333, "fusion_lon": 0.0, "is_disabled": 0, "fusion_lat": 0.0, "bike_id": "cdfb51f25fd36fe4ad6b43ad7f986742", "rental_uris": {"ios": "https://dc.lft.to/lastmile_qr_scan", "android": "https://dc.lft.to/lastmile_qr_scan"}}, {"name": "22baad0ee5b55997475d5de81842856c", "type": "electric_scooter", "lat": 38.92150516666667, "is_reserved": 0, "lon": -77.03452133333333, "fusion_lon": 0.0, "is_disabled": 0, "fusion_lat": 0.0, "bike_id": "22baad0ee5b55997475d5de81842856c", "rental_uris": {"ios": "https://dc.lft.to/lastmile_qr_scan", "android": "https://dc.lft.to/lastmile_qr_scan"}}, {"name": "07049e2b1331a60f5c8df1032f1caf90", "type": "electric_scooter", "lat": 38.87458783333334, "is_reserved": 0, "lon": -77.00540233333334, "fusion_lon": 0.0, "is_disabled": 0, "fusion_lat": 0.0, "bike_id": "07049e2b1331a60f5c8df1032f1caf90", "rental_uris": {"ios": "https://dc.lft.to/lastmile_qr_scan", "android": "https://dc.lft.to/lastmile_qr_scan"}}, {"name": "30a3bbc9350aa6dd699743b81042e149", "type": "electric_scooter", "lat": 38.903769833333335, "is_reserved": 0, "lon": -77.03986083333334, "fusion_lon": 0.0, "is_disabled": 0, "fusion_lat": 0.0, "bike_id": "30a3bbc9350aa6dd699743b81042e149", "rental_uris": {"ios": "https://dc.lft.to/lastmile_qr_scan", "android": "https://dc.lft.to/lastmile_qr_scan"}}, {"name": "87b5f744f6e14b5723e3eba680e4224f", "type": "electric_scooter", "lat": 38.8850085, "is_reserved": 0, "lon": -77.005627, "fusion_lon": 0.0, "is_disabled": 0, "fusion_lat": 0.0, "bike_id": "87b5f744f6e14b5723e3eba680e4224f", "rental_uris": {"ios": "https://dc.lft.to/lastmile_qr_scan", "android": "https://dc.lft.to/lastmile_qr_scan"}}, {"name": "6491359ba2987b7d5f4494f9b2b1a48b", "type": "electric_scooter", "lat": 38.9389055, "is_reserved": 0, "lon": -77.033418, "fusion_lon": 0.0, "is_disabled": 0, "fusion_lat": 0.0, "bike_id": "6491359ba2987b7d5f4494f9b2b1a48b", "rental_uris": {"ios": "https://dc.lft.to/lastmile_qr_scan", "android": "https://dc.lft.to/lastmile_qr_scan"}}, {"name": "72f65587554023cf056401c8bb6b5991", "type": "electric_scooter", "lat": 38.921496, "is_reserved": 0, "lon": -77.0352695, "fusion_lon": 0.0, "is_disabled": 0, "fusion_lat": 0.0, "bike_id": "72f65587554023cf056401c8bb6b5991", "rental_uris": {"ios": "https://dc.lft.to/lastmile_qr_scan", "android": "https://dc.lft.to/lastmile_qr_scan"}}, {"name": "f278bdf6b8773b78d442e977f4c0bcf6", "type": "electric_scooter", "lat": 38.903139333333336, "is_reserved": 0, "lon": -77.03785283333333, "fusion_lon": 0.0, "is_disabled": 0, "fusion_lat": 0.0, "bike_id": "f278bdf6b8773b78d442e977f4c0bcf6", "rental_uris": {"ios": "https://dc.lft.to/lastmile_qr_scan", "android": "https://dc.lft.to/lastmile_qr_scan"}}, {"name": "77ae4e3c860928b24b7f8fc5e4925a5d", "type": "electric_scooter", "lat": 38.917427333333336, "is_reserved": 0, "lon": -77.02301333333334, "fusion_lon": 0.0, "is_disabled": 0, "fusion_lat": 0.0, "bike_id": "77ae4e3c860928b24b7f8fc5e4925a5d", "rental_uris": {"ios": "https://dc.lft.to/lastmile_qr_scan", "android": "https://dc.lft.to/lastmile_qr_scan"}}, {"name": "2702e924484cce9dd7e343fdcb5c7500", "type": "electric_bike", "lat": 38.959081, "is_reserved": 0, "lon": -77.00153866666666, "fusion_lon": 0.0, "is_disabled": 0, "fusion_lat": 0.0, "bike_id": "2702e924484cce9dd7e343fdcb5c7500", "rental_uris": {"ios": "https://dc.lft.to/lastmile_qr_scan", "android": "https://dc.lft.to/lastmile_qr_scan"}}, {"name": "cf76a7de6f7905e8bdcd697eb39337ef", "type": "electric_scooter", "lat": 38.943669166666666, "is_reserved": 0, "lon": -77.02179283333334, "fusion_lon": 0.0, "is_disabled": 0, "fusion_lat": 0.0, "bike_id": "cf76a7de6f7905e8bdcd697eb39337ef", "rental_uris": {"ios": "https://dc.lft.to/lastmile_qr_scan", "android": "https://dc.lft.to/lastmile_qr_scan"}}, {"name": "6de951b189f68bd2fb114576933d44f8", "type": "electric_bike", "lat": 38.922120166666666, "is_reserved": 0, "lon": -76.987989, "fusion_lon": 0.0, "is_disabled": 0, "fusion_lat": 0.0, "bike_id": "6de951b189f68bd2fb114576933d44f8", "rental_uris": {"ios": "https://dc.lft.to/lastmile_qr_scan", "android": "https://dc.lft.to/lastmile_qr_scan"}}, {"name": "7bed98ec2f6fb0feca49bea0310e8536", "type": "electric_scooter", "lat": 38.89485833333333, "is_reserved": 0, "lon": -77.01009533333334, "fusion_lon": 0.0, "is_disabled": 0, "fusion_lat": 0.0, "bike_id": "7bed98ec2f6fb0feca49bea0310e8536", "rental_uris": {"ios": "https://dc.lft.to/lastmile_qr_scan", "android": "https://dc.lft.to/lastmile_qr_scan"}}, {"name": "49532ff53d0e284a94c58060480b4073", "type": "electric_scooter", "lat": 38.935096333333334, "is_reserved": 0, "lon": -77.01999316666667, "fusion_lon": 0.0, "is_disabled": 0, "fusion_lat": 0.0, "bike_id": "49532ff53d0e284a94c58060480b4073", "rental_uris": {"ios": "https://dc.lft.to/lastmile_qr_scan", "android": "https://dc.lft.to/lastmile_qr_scan"}}, {"name": "63126eb6b030e8aad23e97f2eacedbfa", "type": "electric_scooter", "lat": 38.88353166666667, "is_reserved": 0, "lon": -76.92797383333334, "fusion_lon": 0.0, "is_disabled": 0, "fusion_lat": 0.0, "bike_id": "63126eb6b030e8aad23e97f2eacedbfa", "rental_uris": {"ios": "https://dc.lft.to/lastmile_qr_scan", "android": "https://dc.lft.to/lastmile_qr_scan"}}, {"name": "a36f98d6e7dd8bfd6407a5973b7247ce", "type": "electric_scooter", "lat": 38.8875255, "is_reserved": 0, "lon": -76.9798405, "fusion_lon": 0.0, "is_disabled": 0, "fusion_lat": 0.0, "bike_id": "a36f98d6e7dd8bfd6407a5973b7247ce", "rental_uris": {"ios": "https://dc.lft.to/lastmile_qr_scan", "android": "https://dc.lft.to/lastmile_qr_scan"}}, {"name": "afb3f87cba9a928014e5381b52c7cd0e", "type": "electric_scooter", "lat": 38.905811, "is_reserved": 0, "lon": -77.04693266666666, "fusion_lon": 0.0, "is_disabled": 0, "fusion_lat": 0.0, "bike_id": "afb3f87cba9a928014e5381b52c7cd0e", "rental_uris": {"ios": "https://dc.lft.to/lastmile_qr_scan", "android": "https://dc.lft.to/lastmile_qr_scan"}}, {"name": "d87d2ee2497bdd996dc87d502c46086e", "type": "electric_scooter", "lat": 38.89904883333333, "is_reserved": 0, "lon": -77.03335033333333, "fusion_lon": 0.0, "is_disabled": 0, "fusion_lat": 0.0, "bike_id": "d87d2ee2497bdd996dc87d502c46086e", "rental_uris": {"ios": "https://dc.lft.to/lastmile_qr_scan", "android": "https://dc.lft.to/lastmile_qr_scan"}}, {"name": "18bc857fb9c06837da340e4a884ebdf3", "type": "electric_scooter", "lat": 38.94035516666667, "is_reserved": 0, "lon": -77.0291205, "fusion_lon": 0.0, "is_disabled": 0, "fusion_lat": 0.0, "bike_id": "18bc857fb9c06837da340e4a884ebdf3", "rental_uris": {"ios": "https://dc.lft.to/lastmile_qr_scan", "android": "https://dc.lft.to/lastmile_qr_scan"}}, {"name": "0e03ec15fdc1d98cdf89e8c5037bf6d9", "type": "electric_scooter", "lat": 38.9219215, "is_reserved": 0, "lon": -77.04246283333333, "fusion_lon": 0.0, "is_disabled": 0, "fusion_lat": 0.0, "bike_id": "0e03ec15fdc1d98cdf89e8c5037bf6d9", "rental_uris": {"ios": "https://dc.lft.to/lastmile_qr_scan", "android": "https://dc.lft.to/lastmile_qr_scan"}}, {"name": "db27a23adb2aab24bd9c947d8fc01d4f", "type": "electric_scooter", "lat": 38.9495925, "is_reserved": 0, "lon": -77.02722616666667, "fusion_lon": 0.0, "is_disabled": 0, "fusion_lat": 0.0, "bike_id": "db27a23adb2aab24bd9c947d8fc01d4f", "rental_uris": {"ios": "https://dc.lft.to/lastmile_qr_scan", "android": "https://dc.lft.to/lastmile_qr_scan"}}, {"name": "542b7b144de4456dfe07cbcfd57e4b41", "type": "electric_scooter", "lat": 38.89899283333333, "is_reserved": 0, "lon": -77.04485883333334, "fusion_lon": 0.0, "is_disabled": 0, "fusion_lat": 0.0, "bike_id": "542b7b144de4456dfe07cbcfd57e4b41", "rental_uris": {"ios": "https://dc.lft.to/lastmile_qr_scan", "android": "https://dc.lft.to/lastmile_qr_scan"}}, {"name": "167cf4221966e3955e1c2f92bdefb58e", "type": "electric_scooter", "lat": 38.910410666666664, "is_reserved": 0, "lon": -77.0281195, "fusion_lon": 0.0, "is_disabled": 0, "fusion_lat": 0.0, "bike_id": "167cf4221966e3955e1c2f92bdefb58e", "rental_uris": {"ios": "https://dc.lft.to/lastmile_qr_scan", "android": "https://dc.lft.to/lastmile_qr_scan"}}, {"name": "951a8b0939929de0e57b66a561f8cda4", "type": "electric_scooter", "lat": 38.9055755, "is_reserved": 0, "lon": -77.04349083333334, "fusion_lon": 0.0, "is_disabled": 0, "fusion_lat": 0.0, "bike_id": "951a8b0939929de0e57b66a561f8cda4", "rental_uris": {"ios": "https://dc.lft.to/lastmile_qr_scan", "android": "https://dc.lft.to/lastmile_qr_scan"}}, {"name": "af9cbe3963fbe4a7418cb8966b1560dd", "type": "electric_scooter", "lat": 38.92876433333333, "is_reserved": 0, "lon": -77.03246, "fusion_lon": 0.0, "is_disabled": 0, "fusion_lat": 0.0, "bike_id": "af9cbe3963fbe4a7418cb8966b1560dd", "rental_uris": {"ios": "https://dc.lft.to/lastmile_qr_scan", "android": "https://dc.lft.to/lastmile_qr_scan"}}, {"name": "9b849f49b60984dedcfed1e3d774da68", "type": "electric_scooter", "lat": 38.90569883333333, "is_reserved": 0, "lon": -77.02179233333334, "fusion_lon": 0.0, "is_disabled": 0, "fusion_lat": 0.0, "bike_id": "9b849f49b60984dedcfed1e3d774da68", "rental_uris": {"ios": "https://dc.lft.to/lastmile_qr_scan", "android": "https://dc.lft.to/lastmile_qr_scan"}}, {"name": "980b8bb10ff6d4cd1da36d44de14a701", "type": "electric_scooter", "lat": 38.962519666666665, "is_reserved": 0, "lon": -77.033548, "fusion_lon": 0.0, "is_disabled": 0, "fusion_lat": 0.0, "bike_id": "980b8bb10ff6d4cd1da36d44de14a701", "rental_uris": {"ios": "https://dc.lft.to/lastmile_qr_scan", "android": "https://dc.lft.to/lastmile_qr_scan"}}, {"name": "60ee446dab7f58f3f6b0d53a026d7eda", "type": "electric_scooter", "lat": 38.9257705, "is_reserved": 0, "lon": -77.07310433333333, "fusion_lon": 0.0, "is_disabled": 0, "fusion_lat": 0.0, "bike_id": "60ee446dab7f58f3f6b0d53a026d7eda", "rental_uris": {"ios": "https://dc.lft.to/lastmile_qr_scan", "android": "https://dc.lft.to/lastmile_qr_scan"}}, {"name": "90da534627641a897d65c26229c2f409", "type": "electric_scooter", "lat": 38.921464, "is_reserved": 0, "lon": -77.03641216666666, "fusion_lon": 0.0, "is_disabled": 0, "fusion_lat": 0.0, "bike_id": "90da534627641a897d65c26229c2f409", "rental_uris": {"ios": "https://dc.lft.to/lastmile_qr_scan", "android": "https://dc.lft.to/lastmile_qr_scan"}}, {"name": "fecf9f32fdaa5cef33589fe4e8d63711", "type": "electric_scooter", "lat": 38.921797833333336, "is_reserved": 0, "lon": -77.04272966666667, "fusion_lon": 0.0, "is_disabled": 0, "fusion_lat": 0.0, "bike_id": "fecf9f32fdaa5cef33589fe4e8d63711", "rental_uris": {"ios": "https://dc.lft.to/lastmile_qr_scan", "android": "https://dc.lft.to/lastmile_qr_scan"}}, {"name": "1a8d72dc262a1306b27b0db35d8028f8", "type": "electric_scooter", "lat": 38.9072125, "is_reserved": 0, "lon": -77.0265475, "fusion_lon": 0.0, "is_disabled": 0, "fusion_lat": 0.0, "bike_id": "1a8d72dc262a1306b27b0db35d8028f8", "rental_uris": {"ios": "https://dc.lft.to/lastmile_qr_scan", "android": "https://dc.lft.to/lastmile_qr_scan"}}, {"name": "de672749c85c81634b4031063adbbb0d", "type": "electric_scooter", "lat": 38.922745166666665, "is_reserved": 0, "lon": -77.03667, "fusion_lon": 0.0, "is_disabled": 0, "fusion_lat": 0.0, "bike_id": "de672749c85c81634b4031063adbbb0d", "rental_uris": {"ios": "https://dc.lft.to/lastmile_qr_scan", "android": "https://dc.lft.to/lastmile_qr_scan"}}, {"name": "8892dd4e5e3c2d6c5e5f4ccd53fdeac1", "type": "electric_scooter", "lat": 38.90563233333334, "is_reserved": 0, "lon": -77.04007966666667, "fusion_lon": 0.0, "is_disabled": 0, "fusion_lat": 0.0, "bike_id": "8892dd4e5e3c2d6c5e5f4ccd53fdeac1", "rental_uris": {"ios": "https://dc.lft.to/lastmile_qr_scan", "android": "https://dc.lft.to/lastmile_qr_scan"}}, {"name": "405432732f9493c50ece740dd01a0c46", "type": "electric_scooter", "lat": 38.89727766666667, "is_reserved": 0, "lon": -77.04333683333333, "fusion_lon": 0.0, "is_disabled": 0, "fusion_lat": 0.0, "bike_id": "405432732f9493c50ece740dd01a0c46", "rental_uris": {"ios": "https://dc.lft.to/lastmile_qr_scan", "android": "https://dc.lft.to/lastmile_qr_scan"}}, {"name": "d5eadb66505e1927d3597bfd58161d52", "type": "electric_scooter", "lat": 38.90650633333333, "is_reserved": 0, "lon": -77.05122383333334, "fusion_lon": 0.0, "is_disabled": 0, "fusion_lat": 0.0, "bike_id": "d5eadb66505e1927d3597bfd58161d52", "rental_uris": {"ios": "https://dc.lft.to/lastmile_qr_scan", "android": "https://dc.lft.to/lastmile_qr_scan"}}, {"name": "079af0ea39b023154cd1f0936db9f989", "type": "electric_scooter", "lat": 38.9127205, "is_reserved": 0, "lon": -77.01356916666667, "fusion_lon": 0.0, "is_disabled": 0, "fusion_lat": 0.0, "bike_id": "079af0ea39b023154cd1f0936db9f989", "rental_uris": {"ios": "https://dc.lft.to/lastmile_qr_scan", "android": "https://dc.lft.to/lastmile_qr_scan"}}, {"name": "741b0c1a3af03053ed03a5d6da52d19c", "type": "electric_scooter", "lat": 38.9002795, "is_reserved": 0, "lon": -77.0402685, "fusion_lon": 0.0, "is_disabled": 0, "fusion_lat": 0.0, "bike_id": "741b0c1a3af03053ed03a5d6da52d19c", "rental_uris": {"ios": "https://dc.lft.to/lastmile_qr_scan", "android": "https://dc.lft.to/lastmile_qr_scan"}}, {"name": "a748e8a67d2da4cbb72c55affa3ac80d", "type": "electric_scooter", "lat": 38.91923, "is_reserved": 0, "lon": -77.03149216666667, "fusion_lon": 0.0, "is_disabled": 0, "fusion_lat": 0.0, "bike_id": "a748e8a67d2da4cbb72c55affa3ac80d", "rental_uris": {"ios": "https://dc.lft.to/lastmile_qr_scan", "android": "https://dc.lft.to/lastmile_qr_scan"}}, {"name": "28299bc2c243f157bc0054c6e5f18acb", "type": "electric_scooter", "lat": 38.92151466666667, "is_reserved": 0, "lon": -77.0421425, "fusion_lon": 0.0, "is_disabled": 0, "fusion_lat": 0.0, "bike_id": "28299bc2c243f157bc0054c6e5f18acb", "rental_uris": {"ios": "https://dc.lft.to/lastmile_qr_scan", "android": "https://dc.lft.to/lastmile_qr_scan"}}, {"name": "7304a5768764d68dbd7ab8974aa09615", "type": "electric_scooter", "lat": 38.90611833333333, "is_reserved": 0, "lon": -77.03984966666667, "fusion_lon": 0.0, "is_disabled": 0, "fusion_lat": 0.0, "bike_id": "7304a5768764d68dbd7ab8974aa09615", "rental_uris": {"ios": "https://dc.lft.to/lastmile_qr_scan", "android": "https://dc.lft.to/lastmile_qr_scan"}}, {"name": "e91a1175273a8bbfbd98b4d2a64273cb", "type": "electric_scooter", "lat": 38.897495, "is_reserved": 0, "lon": -77.02164466666666, "fusion_lon": 0.0, "is_disabled": 0, "fusion_lat": 0.0, "bike_id": "e91a1175273a8bbfbd98b4d2a64273cb", "rental_uris": {"ios": "https://dc.lft.to/lastmile_qr_scan", "android": "https://dc.lft.to/lastmile_qr_scan"}}, {"name": "441c4d0d161738567646d308636f893b", "type": "electric_scooter", "lat": 38.905590833333335, "is_reserved": 0, "lon": -77.0344445, "fusion_lon": 0.0, "is_disabled": 0, "fusion_lat": 0.0, "bike_id": "441c4d0d161738567646d308636f893b", "rental_uris": {"ios": "https://dc.lft.to/lastmile_qr_scan", "android": "https://dc.lft.to/lastmile_qr_scan"}}, {"name": "06e0acbb6bdcb57e787cefe378b78b41", "type": "electric_scooter", "lat": 38.9231815, "is_reserved": 0, "lon": -77.0448675, "fusion_lon": 0.0, "is_disabled": 0, "fusion_lat": 0.0, "bike_id": "06e0acbb6bdcb57e787cefe378b78b41", "rental_uris": {"ios": "https://dc.lft.to/lastmile_qr_scan", "android": "https://dc.lft.to/lastmile_qr_scan"}}, {"name": "f6aedcfcce647d2de311d5862743223d", "type": "electric_bike", "lat": 38.824486, "is_reserved": 0, "lon": -77.07041966666667, "fusion_lon": 0.0, "is_disabled": 0, "fusion_lat": 0.0, "bike_id": "f6aedcfcce647d2de311d5862743223d", "rental_uris": {"ios": "https://dc.lft.to/lastmile_qr_scan", "android": "https://dc.lft.to/lastmile_qr_scan"}}, {"name": "66fd26a3cbcbd30f06dbe1cd79e410c6", "type": "electric_scooter", "lat": 38.908952666666664, "is_reserved": 0, "lon": -77.08622783333334, "fusion_lon": 0.0, "is_disabled": 0, "fusion_lat": 0.0, "bike_id": "66fd26a3cbcbd30f06dbe1cd79e410c6", "rental_uris": {"ios": "https://dc.lft.to/lastmile_qr_scan", "android": "https://dc.lft.to/lastmile_qr_scan"}}, {"name": "0acf0b9f090295777217d8459bc2f1c2", "type": "electric_scooter", "lat": 38.890258, "is_reserved": 0, "lon": -76.93687133333333, "fusion_lon": 0.0, "is_disabled": 0, "fusion_lat": 0.0, "bike_id": "0acf0b9f090295777217d8459bc2f1c2", "rental_uris": {"ios": "https://dc.lft.to/lastmile_qr_scan", "android": "https://dc.lft.to/lastmile_qr_scan"}}, {"name": "a1b117bc1c551af34c370a2c0d6a82a8", "type": "electric_bike", "lat": 38.906670166666665, "is_reserved": 0, "lon": -76.99958866666667, "fusion_lon": 0.0, "is_disabled": 0, "fusion_lat": 0.0, "bike_id": "a1b117bc1c551af34c370a2c0d6a82a8", "rental_uris": {"ios": "https://dc.lft.to/lastmile_qr_scan", "android": "https://dc.lft.to/lastmile_qr_scan"}}, {"name": "381c65e5c5fcad0b1babfed1faf1e0ff", "type": "electric_scooter", "lat": 38.89241216666667, "is_reserved": 0, "lon": -77.03196633333333, "fusion_lon": 0.0, "is_disabled": 0, "fusion_lat": 0.0, "bike_id": "381c65e5c5fcad0b1babfed1faf1e0ff", "rental_uris": {"ios": "https://dc.lft.to/lastmile_qr_scan", "android": "https://dc.lft.to/lastmile_qr_scan"}}, {"name": "f7bd395a8296bb32eca6f45016df637b", "type": "electric_scooter", "lat": 38.90356533333333, "is_reserved": 0, "lon": -77.03904166666666, "fusion_lon": 0.0, "is_disabled": 0, "fusion_lat": 0.0, "bike_id": "f7bd395a8296bb32eca6f45016df637b", "rental_uris": {"ios": "https://dc.lft.to/lastmile_qr_scan", "android": "https://dc.lft.to/lastmile_qr_scan"}}, {"name": "9da45a305014c5b7811c141fc49037a4", "type": "electric_scooter", "lat": 38.90858866666667, "is_reserved": 0, "lon": -77.027329, "fusion_lon": 0.0, "is_disabled": 0, "fusion_lat": 0.0, "bike_id": "9da45a305014c5b7811c141fc49037a4", "rental_uris": {"ios": "https://dc.lft.to/lastmile_qr_scan", "android": "https://dc.lft.to/lastmile_qr_scan"}}, {"name": "3e418d1341de7a7ce0908c266c39c236", "type": "electric_bike", "lat": 38.965774833333334, "is_reserved": 0, "lon": -76.9548385, "fusion_lon": 0.0, "is_disabled": 0, "fusion_lat": 0.0, "bike_id": "3e418d1341de7a7ce0908c266c39c236", "rental_uris": {"ios": "https://dc.lft.to/lastmile_qr_scan", "android": "https://dc.lft.to/lastmile_qr_scan"}}, {"name": "4af12e2018d86df4e9cc947943129225", "type": "electric_bike", "lat": 38.898076333333336, "is_reserved": 0, "lon": -76.99052766666667, "fusion_lon": 0.0, "is_disabled": 0, "fusion_lat": 0.0, "bike_id": "4af12e2018d86df4e9cc947943129225", "rental_uris": {"ios": "https://dc.lft.to/lastmile_qr_scan", "android": "https://dc.lft.to/lastmile_qr_scan"}}, {"name": "4e98d436223a215097fa3b88cb8977f8", "type": "electric_bike", "lat": 38.8800305, "is_reserved": 0, "lon": -76.91596033333333, "fusion_lon": 0.0, "is_disabled": 0, "fusion_lat": 0.0, "bike_id": "4e98d436223a215097fa3b88cb8977f8", "rental_uris": {"ios": "https://dc.lft.to/lastmile_qr_scan", "android": "https://dc.lft.to/lastmile_qr_scan"}}, {"name": "57ace1486808657be492fd132415cd5c", "type": "electric_scooter", "lat": 38.9223215, "is_reserved": 0, "lon": -77.04110866666667, "fusion_lon": 0.0, "is_disabled": 0, "fusion_lat": 0.0, "bike_id": "57ace1486808657be492fd132415cd5c", "rental_uris": {"ios": "https://dc.lft.to/lastmile_qr_scan", "android": "https://dc.lft.to/lastmile_qr_scan"}}, {"name": "b905a7d4ca0706caaf38e379bd43dc51", "type": "electric_scooter", "lat": 38.9028185, "is_reserved": 0, "lon": -77.03638033333333, "fusion_lon": 0.0, "is_disabled": 0, "fusion_lat": 0.0, "bike_id": "b905a7d4ca0706caaf38e379bd43dc51", "rental_uris": {"ios": "https://dc.lft.to/lastmile_qr_scan", "android": "https://dc.lft.to/lastmile_qr_scan"}}, {"name": "9b9f8b0d9d877955427cb436b20d2bb5", "type": "electric_scooter", "lat": 38.91992783333333, "is_reserved": 0, "lon": -77.04182766666666, "fusion_lon": 0.0, "is_disabled": 0, "fusion_lat": 0.0, "bike_id": "9b9f8b0d9d877955427cb436b20d2bb5", "rental_uris": {"ios": "https://dc.lft.to/lastmile_qr_scan", "android": "https://dc.lft.to/lastmile_qr_scan"}}, {"name": "ebb262dc4eaf54b79306e8fc31dd6d65", "type": "electric_bike", "lat": 38.918605666666664, "is_reserved": 0, "lon": -76.9609155, "fusion_lon": 0.0, "is_disabled": 0, "fusion_lat": 0.0, "bike_id": "ebb262dc4eaf54b79306e8fc31dd6d65", "rental_uris": {"ios": "https://dc.lft.to/lastmile_qr_scan", "android": "https://dc.lft.to/lastmile_qr_scan"}}, {"name": "ad1dbbd497ac111cecfbcb4dde709185", "type": "electric_scooter", "lat": 38.8922155, "is_reserved": 0, "lon": -77.02625416666666, "fusion_lon": 0.0, "is_disabled": 0, "fusion_lat": 0.0, "bike_id": "ad1dbbd497ac111cecfbcb4dde709185", "rental_uris": {"ios": "https://dc.lft.to/lastmile_qr_scan", "android": "https://dc.lft.to/lastmile_qr_scan"}}, {"name": "ad58220bca2e720a58d9a0a089f3b027", "type": "electric_scooter", "lat": 38.904397, "is_reserved": 0, "lon": -77.03655916666666, "fusion_lon": 0.0, "is_disabled": 0, "fusion_lat": 0.0, "bike_id": "ad58220bca2e720a58d9a0a089f3b027", "rental_uris": {"ios": "https://dc.lft.to/lastmile_qr_scan", "android": "https://dc.lft.to/lastmile_qr_scan"}}, {"name": "4450cfb4edf46b8c77d18cfbe167931a", "type": "electric_scooter", "lat": 38.90567133333333, "is_reserved": 0, "lon": -77.04532166666667, "fusion_lon": 0.0, "is_disabled": 0, "fusion_lat": 0.0, "bike_id": "4450cfb4edf46b8c77d18cfbe167931a", "rental_uris": {"ios": "https://dc.lft.to/lastmile_qr_scan", "android": "https://dc.lft.to/lastmile_qr_scan"}}, {"name": "d08838ead280200529bb5c4b48f6dc46", "type": "electric_scooter", "lat": 38.90385216666667, "is_reserved": 0, "lon": -77.04473, "fusion_lon": 0.0, "is_disabled": 0, "fusion_lat": 0.0, "bike_id": "d08838ead280200529bb5c4b48f6dc46", "rental_uris": {"ios": "https://dc.lft.to/lastmile_qr_scan", "android": "https://dc.lft.to/lastmile_qr_scan"}}, {"name": "8b6bc2ef67ca1a2c6d33e05c963eabfd", "type": "electric_scooter", "lat": 38.92244933333333, "is_reserved": 0, "lon": -77.030865, "fusion_lon": 0.0, "is_disabled": 0, "fusion_lat": 0.0, "bike_id": "8b6bc2ef67ca1a2c6d33e05c963eabfd", "rental_uris": {"ios": "https://dc.lft.to/lastmile_qr_scan", "android": "https://dc.lft.to/lastmile_qr_scan"}}, {"name": "cec9c90a41ac3cbc8c1c07410fca74d6", "type": "electric_bike", "lat": 38.918317, "is_reserved": 0, "lon": -77.072897, "fusion_lon": 0.0, "is_disabled": 0, "fusion_lat": 0.0, "bike_id": "cec9c90a41ac3cbc8c1c07410fca74d6", "rental_uris": {"ios": "https://dc.lft.to/lastmile_qr_scan", "android": "https://dc.lft.to/lastmile_qr_scan"}}, {"name": "3776a33d249f1486b6048ea2e159e2c2", "type": "electric_scooter", "lat": 38.91406716666667, "is_reserved": 0, "lon": -77.00833916666667, "fusion_lon": 0.0, "is_disabled": 0, "fusion_lat": 0.0, "bike_id": "3776a33d249f1486b6048ea2e159e2c2", "rental_uris": {"ios": "https://dc.lft.to/lastmile_qr_scan", "android": "https://dc.lft.to/lastmile_qr_scan"}}, {"name": "159dbec0acd6423ef051cc137ac90ab5", "type": "electric_scooter", "lat": 38.913575333333334, "is_reserved": 0, "lon": -77.0175745, "fusion_lon": 0.0, "is_disabled": 0, "fusion_lat": 0.0, "bike_id": "159dbec0acd6423ef051cc137ac90ab5", "rental_uris": {"ios": "https://dc.lft.to/lastmile_qr_scan", "android": "https://dc.lft.to/lastmile_qr_scan"}}, {"name": "8ef15ed806f49abe2fdede79139eeedd", "type": "electric_scooter", "lat": 38.95930366666666, "is_reserved": 0, "lon": -77.031195, "fusion_lon": 0.0, "is_disabled": 0, "fusion_lat": 0.0, "bike_id": "8ef15ed806f49abe2fdede79139eeedd", "rental_uris": {"ios": "https://dc.lft.to/lastmile_qr_scan", "android": "https://dc.lft.to/lastmile_qr_scan"}}, {"name": "cd345d2c96969486ff406642d36911d8", "type": "electric_scooter", "lat": 38.885061666666665, "is_reserved": 0, "lon": -77.0056755, "fusion_lon": 0.0, "is_disabled": 0, "fusion_lat": 0.0, "bike_id": "cd345d2c96969486ff406642d36911d8", "rental_uris": {"ios": "https://dc.lft.to/lastmile_qr_scan", "android": "https://dc.lft.to/lastmile_qr_scan"}}, {"name": "255233a14e2a45ec31d17ca380bc784c", "type": "electric_scooter", "lat": 38.90507216666666, "is_reserved": 0, "lon": -76.9901875, "fusion_lon": 0.0, "is_disabled": 0, "fusion_lat": 0.0, "bike_id": "255233a14e2a45ec31d17ca380bc784c", "rental_uris": {"ios": "https://dc.lft.to/lastmile_qr_scan", "android": "https://dc.lft.to/lastmile_qr_scan"}}, {"name": "81daf746d7fa40c59a97fd3f2cb71c4f", "type": "electric_bike", "lat": 38.9203795, "is_reserved": 0, "lon": -77.01215066666667, "fusion_lon": 0.0, "is_disabled": 0, "fusion_lat": 0.0, "bike_id": "81daf746d7fa40c59a97fd3f2cb71c4f", "rental_uris": {"ios": "https://dc.lft.to/lastmile_qr_scan", "android": "https://dc.lft.to/lastmile_qr_scan"}}, {"name": "ff992eb231fecf8a900c668d2736e500", "type": "electric_scooter", "lat": 38.90414333333333, "is_reserved": 0, "lon": -77.03254416666667, "fusion_lon": 0.0, "is_disabled": 0, "fusion_lat": 0.0, "bike_id": "ff992eb231fecf8a900c668d2736e500", "rental_uris": {"ios": "https://dc.lft.to/lastmile_qr_scan", "android": "https://dc.lft.to/lastmile_qr_scan"}}, {"name": "18ff7baa170cf96ab073a2a47aff812a", "type": "electric_scooter", "lat": 38.86659233333334, "is_reserved": 0, "lon": -76.98890733333333, "fusion_lon": 0.0, "is_disabled": 0, "fusion_lat": 0.0, "bike_id": "18ff7baa170cf96ab073a2a47aff812a", "rental_uris": {"ios": "https://dc.lft.to/lastmile_qr_scan", "android": "https://dc.lft.to/lastmile_qr_scan"}}, {"name": "7455854569c7d28fd700020207ead621", "type": "electric_scooter", "lat": 38.908827, "is_reserved": 0, "lon": -77.03832566666667, "fusion_lon": 0.0, "is_disabled": 0, "fusion_lat": 0.0, "bike_id": "7455854569c7d28fd700020207ead621", "rental_uris": {"ios": "https://dc.lft.to/lastmile_qr_scan", "android": "https://dc.lft.to/lastmile_qr_scan"}}, {"name": "553801ab5a4a5cb8f94aacc3ef634cb7", "type": "electric_scooter", "lat": 38.92510633333333, "is_reserved": 0, "lon": -77.01936416666666, "fusion_lon": 0.0, "is_disabled": 0, "fusion_lat": 0.0, "bike_id": "553801ab5a4a5cb8f94aacc3ef634cb7", "rental_uris": {"ios": "https://dc.lft.to/lastmile_qr_scan", "android": "https://dc.lft.to/lastmile_qr_scan"}}, {"name": "3d82fa3997dcf0e82f9b7ebc282fb7e5", "type": "electric_bike", "lat": 38.86282683333334, "is_reserved": 0, "lon": -77.063623, "fusion_lon": 0.0, "is_disabled": 0, "fusion_lat": 0.0, "bike_id": "3d82fa3997dcf0e82f9b7ebc282fb7e5", "rental_uris": {"ios": "https://dc.lft.to/lastmile_qr_scan", "android": "https://dc.lft.to/lastmile_qr_scan"}}, {"name": "d228e7023a1aee61aa0040320a30c596", "type": "electric_scooter", "lat": 38.863776666666666, "is_reserved": 0, "lon": -76.99060933333334, "fusion_lon": 0.0, "is_disabled": 0, "fusion_lat": 0.0, "bike_id": "d228e7023a1aee61aa0040320a30c596", "rental_uris": {"ios": "https://dc.lft.to/lastmile_qr_scan", "android": "https://dc.lft.to/lastmile_qr_scan"}}, {"name": "f45c5213111493e9de6dbb40826a0126", "type": "electric_scooter", "lat": 38.91998783333333, "is_reserved": 0, "lon": -77.038754, "fusion_lon": 0.0, "is_disabled": 0, "fusion_lat": 0.0, "bike_id": "f45c5213111493e9de6dbb40826a0126", "rental_uris": {"ios": "https://dc.lft.to/lastmile_qr_scan", "android": "https://dc.lft.to/lastmile_qr_scan"}}, {"name": "c93c1bdc6a78d39190c23ac04a259ee7", "type": "electric_scooter", "lat": 38.893897833333334, "is_reserved": 0, "lon": -77.0299265, "fusion_lon": 0.0, "is_disabled": 0, "fusion_lat": 0.0, "bike_id": "c93c1bdc6a78d39190c23ac04a259ee7", "rental_uris": {"ios": "https://dc.lft.to/lastmile_qr_scan", "android": "https://dc.lft.to/lastmile_qr_scan"}}, {"name": "43f916babffa96f2c3c35b010922670c", "type": "electric_scooter", "lat": 38.887259666666665, "is_reserved": 0, "lon": -77.02579066666667, "fusion_lon": 0.0, "is_disabled": 0, "fusion_lat": 0.0, "bike_id": "43f916babffa96f2c3c35b010922670c", "rental_uris": {"ios": "https://dc.lft.to/lastmile_qr_scan", "android": "https://dc.lft.to/lastmile_qr_scan"}}, {"name": "538dbf3037807b27db41ff139c34c6d2", "type": "electric_scooter", "lat": 38.88430483333333, "is_reserved": 0, "lon": -76.99599666666667, "fusion_lon": 0.0, "is_disabled": 0, "fusion_lat": 0.0, "bike_id": "538dbf3037807b27db41ff139c34c6d2", "rental_uris": {"ios": "https://dc.lft.to/lastmile_qr_scan", "android": "https://dc.lft.to/lastmile_qr_scan"}}, {"name": "ba0e912de240ca86185f32cc247ec06a", "type": "electric_scooter", "lat": 38.865236, "is_reserved": 0, "lon": -76.9903435, "fusion_lon": 0.0, "is_disabled": 0, "fusion_lat": 0.0, "bike_id": "ba0e912de240ca86185f32cc247ec06a", "rental_uris": {"ios": "https://dc.lft.to/lastmile_qr_scan", "android": "https://dc.lft.to/lastmile_qr_scan"}}, {"name": "aed0231c49eeeaad84e9416bc0fa53e5", "type": "electric_scooter", "lat": 38.93430983333333, "is_reserved": 0, "lon": -77.04007, "fusion_lon": 0.0, "is_disabled": 0, "fusion_lat": 0.0, "bike_id": "aed0231c49eeeaad84e9416bc0fa53e5", "rental_uris": {"ios": "https://dc.lft.to/lastmile_qr_scan", "android": "https://dc.lft.to/lastmile_qr_scan"}}, {"name": "c1781f29317810b7d3b4c6fa71720855", "type": "electric_scooter", "lat": 38.901122666666666, "is_reserved": 0, "lon": -77.031859, "fusion_lon": 0.0, "is_disabled": 0, "fusion_lat": 0.0, "bike_id": "c1781f29317810b7d3b4c6fa71720855", "rental_uris": {"ios": "https://dc.lft.to/lastmile_qr_scan", "android": "https://dc.lft.to/lastmile_qr_scan"}}, {"name": "2b04a1885ffb97f94f3ea4e431f048e2", "type": "electric_bike", "lat": 38.88723616666667, "is_reserved": 0, "lon": -77.09749816666667, "fusion_lon": 0.0, "is_disabled": 0, "fusion_lat": 0.0, "bike_id": "2b04a1885ffb97f94f3ea4e431f048e2", "rental_uris": {"ios": "https://dc.lft.to/lastmile_qr_scan", "android": "https://dc.lft.to/lastmile_qr_scan"}}, {"name": "4c21b65ec010f204ae09c93a2d7df453", "type": "electric_scooter", "lat": 38.93502566666667, "is_reserved": 0, "lon": -77.02857666666667, "fusion_lon": 0.0, "is_disabled": 0, "fusion_lat": 0.0, "bike_id": "4c21b65ec010f204ae09c93a2d7df453", "rental_uris": {"ios": "https://dc.lft.to/lastmile_qr_scan", "android": "https://dc.lft.to/lastmile_qr_scan"}}, {"name": "29ea9a657cb5984beea4a98080d5a08e", "type": "electric_scooter", "lat": 38.90968683333333, "is_reserved": 0, "lon": -77.01715983333334, "fusion_lon": 0.0, "is_disabled": 0, "fusion_lat": 0.0, "bike_id": "29ea9a657cb5984beea4a98080d5a08e", "rental_uris": {"ios": "https://dc.lft.to/lastmile_qr_scan", "android": "https://dc.lft.to/lastmile_qr_scan"}}, {"name": "1e2e1b264e241abf777a76c702ff7ab8", "type": "electric_scooter", "lat": 38.921251166666664, "is_reserved": 0, "lon": -77.01020033333333, "fusion_lon": 0.0, "is_disabled": 0, "fusion_lat": 0.0, "bike_id": "1e2e1b264e241abf777a76c702ff7ab8", "rental_uris": {"ios": "https://dc.lft.to/lastmile_qr_scan", "android": "https://dc.lft.to/lastmile_qr_scan"}}, {"name": "120dc99c04b2dd9bb1a9f9baee972817", "type": "electric_scooter", "lat": 38.885104, "is_reserved": 0, "lon": -77.02108733333333, "fusion_lon": 0.0, "is_disabled": 0, "fusion_lat": 0.0, "bike_id": "120dc99c04b2dd9bb1a9f9baee972817", "rental_uris": {"ios": "https://dc.lft.to/lastmile_qr_scan", "android": "https://dc.lft.to/lastmile_qr_scan"}}, {"name": "3d63fb8a96ddbc5714ec1604d80a9505", "type": "electric_scooter", "lat": 38.89730566666667, "is_reserved": 0, "lon": -77.0269525, "fusion_lon": 0.0, "is_disabled": 0, "fusion_lat": 0.0, "bike_id": "3d63fb8a96ddbc5714ec1604d80a9505", "rental_uris": {"ios": "https://dc.lft.to/lastmile_qr_scan", "android": "https://dc.lft.to/lastmile_qr_scan"}}, {"name": "6f35b7dfc85e86d77b3ff30012ec0d84", "type": "electric_bike", "lat": 38.928465, "is_reserved": 0, "lon": -77.02056716666667, "fusion_lon": 0.0, "is_disabled": 0, "fusion_lat": 0.0, "bike_id": "6f35b7dfc85e86d77b3ff30012ec0d84", "rental_uris": {"ios": "https://dc.lft.to/lastmile_qr_scan", "android": "https://dc.lft.to/lastmile_qr_scan"}}, {"name": "37894b34530b35af1e4701f2c4c29075", "type": "electric_scooter", "lat": 38.92320316666667, "is_reserved": 0, "lon": -77.040186, "fusion_lon": 0.0, "is_disabled": 0, "fusion_lat": 0.0, "bike_id": "37894b34530b35af1e4701f2c4c29075", "rental_uris": {"ios": "https://dc.lft.to/lastmile_qr_scan", "android": "https://dc.lft.to/lastmile_qr_scan"}}, {"name": "90ea7d693f2eadec3816b190e54d7a11", "type": "electric_scooter", "lat": 38.907964, "is_reserved": 0, "lon": -76.997003, "fusion_lon": 0.0, "is_disabled": 0, "fusion_lat": 0.0, "bike_id": "90ea7d693f2eadec3816b190e54d7a11", "rental_uris": {"ios": "https://dc.lft.to/lastmile_qr_scan", "android": "https://dc.lft.to/lastmile_qr_scan"}}, {"name": "73a8bd80944455d17c59b2e7061180cd", "type": "electric_scooter", "lat": 38.92102933333334, "is_reserved": 0, "lon": -76.993804, "fusion_lon": 0.0, "is_disabled": 0, "fusion_lat": 0.0, "bike_id": "73a8bd80944455d17c59b2e7061180cd", "rental_uris": {"ios": "https://dc.lft.to/lastmile_qr_scan", "android": "https://dc.lft.to/lastmile_qr_scan"}}, {"name": "2f492a5ade81a9058b41ceb941b3e0eb", "type": "electric_bike", "lat": 38.854387333333335, "is_reserved": 0, "lon": -77.11707466666667, "fusion_lon": 0.0, "is_disabled": 0, "fusion_lat": 0.0, "bike_id": "2f492a5ade81a9058b41ceb941b3e0eb", "rental_uris": {"ios": "https://dc.lft.to/lastmile_qr_scan", "android": "https://dc.lft.to/lastmile_qr_scan"}}, {"name": "9b68d9d552a596a76a3e9e22e42bae46", "type": "electric_scooter", "lat": 38.9418195, "is_reserved": 0, "lon": -77.03093133333333, "fusion_lon": 0.0, "is_disabled": 0, "fusion_lat": 0.0, "bike_id": "9b68d9d552a596a76a3e9e22e42bae46", "rental_uris": {"ios": "https://dc.lft.to/lastmile_qr_scan", "android": "https://dc.lft.to/lastmile_qr_scan"}}, {"name": "ab4e58ac398c349753cc59c11ea3a637", "type": "electric_bike", "lat": 38.90961933333333, "is_reserved": 0, "lon": -77.02383383333333, "fusion_lon": 0.0, "is_disabled": 0, "fusion_lat": 0.0, "bike_id": "ab4e58ac398c349753cc59c11ea3a637", "rental_uris": {"ios": "https://dc.lft.to/lastmile_qr_scan", "android": "https://dc.lft.to/lastmile_qr_scan"}}, {"name": "e0548370a314e91c022b4bd60f036e90", "type": "electric_scooter", "lat": 38.89523883333333, "is_reserved": 0, "lon": -77.016171, "fusion_lon": 0.0, "is_disabled": 0, "fusion_lat": 0.0, "bike_id": "e0548370a314e91c022b4bd60f036e90", "rental_uris": {"ios": "https://dc.lft.to/lastmile_qr_scan", "android": "https://dc.lft.to/lastmile_qr_scan"}}, {"name": "9bf1d118ee24486a2e7a32f42b5e3a61", "type": "electric_scooter", "lat": 38.8996425, "is_reserved": 0, "lon": -77.0505395, "fusion_lon": 0.0, "is_disabled": 0, "fusion_lat": 0.0, "bike_id": "9bf1d118ee24486a2e7a32f42b5e3a61", "rental_uris": {"ios": "https://dc.lft.to/lastmile_qr_scan", "android": "https://dc.lft.to/lastmile_qr_scan"}}, {"name": "b0f92e51a0803ec7eeac3abf83dc99bd", "type": "electric_scooter", "lat": 38.898770166666665, "is_reserved": 0, "lon": -76.93161016666667, "fusion_lon": 0.0, "is_disabled": 0, "fusion_lat": 0.0, "bike_id": "b0f92e51a0803ec7eeac3abf83dc99bd", "rental_uris": {"ios": "https://dc.lft.to/lastmile_qr_scan", "android": "https://dc.lft.to/lastmile_qr_scan"}}, {"name": "59dab656553b8153ede46759be7eac0f", "type": "electric_scooter", "lat": 38.89777433333333, "is_reserved": 0, "lon": -76.97729816666667, "fusion_lon": 0.0, "is_disabled": 0, "fusion_lat": 0.0, "bike_id": "59dab656553b8153ede46759be7eac0f", "rental_uris": {"ios": "https://dc.lft.to/lastmile_qr_scan", "android": "https://dc.lft.to/lastmile_qr_scan"}}, {"name": "e0f807bae75d046a5763d9493aa24582", "type": "electric_scooter", "lat": 38.93330983333333, "is_reserved": 0, "lon": -77.03272116666666, "fusion_lon": 0.0, "is_disabled": 0, "fusion_lat": 0.0, "bike_id": "e0f807bae75d046a5763d9493aa24582", "rental_uris": {"ios": "https://dc.lft.to/lastmile_qr_scan", "android": "https://dc.lft.to/lastmile_qr_scan"}}, {"name": "4d67e3c48e978b47e4a92a73fdde0226", "type": "electric_bike", "lat": 38.888751166666665, "is_reserved": 0, "lon": -76.97842533333333, "fusion_lon": 0.0, "is_disabled": 0, "fusion_lat": 0.0, "bike_id": "4d67e3c48e978b47e4a92a73fdde0226", "rental_uris": {"ios": "https://dc.lft.to/lastmile_qr_scan", "android": "https://dc.lft.to/lastmile_qr_scan"}}, {"name": "e4474f48253f8bc6abbb4b34a0000b8a", "type": "electric_scooter", "lat": 38.92037633333333, "is_reserved": 0, "lon": -77.03127216666667, "fusion_lon": 0.0, "is_disabled": 0, "fusion_lat": 0.0, "bike_id": "e4474f48253f8bc6abbb4b34a0000b8a", "rental_uris": {"ios": "https://dc.lft.to/lastmile_qr_scan", "android": "https://dc.lft.to/lastmile_qr_scan"}}, {"name": "4de1aef14730fc17c1ee9a809ebf0b18", "type": "electric_scooter", "lat": 38.86376333333333, "is_reserved": 0, "lon": -76.99059966666667, "fusion_lon": 0.0, "is_disabled": 0, "fusion_lat": 0.0, "bike_id": "4de1aef14730fc17c1ee9a809ebf0b18", "rental_uris": {"ios": "https://dc.lft.to/lastmile_qr_scan", "android": "https://dc.lft.to/lastmile_qr_scan"}}, {"name": "76e5a112088386e756d9be6b7b8404e0", "type": "electric_scooter", "lat": 38.899492333333335, "is_reserved": 0, "lon": -77.0334595, "fusion_lon": 0.0, "is_disabled": 0, "fusion_lat": 0.0, "bike_id": "76e5a112088386e756d9be6b7b8404e0", "rental_uris": {"ios": "https://dc.lft.to/lastmile_qr_scan", "android": "https://dc.lft.to/lastmile_qr_scan"}}, {"name": "4f5e31e1c060b09a680cf943689d4a0b", "type": "electric_scooter", "lat": 38.9035815, "is_reserved": 0, "lon": -77.01105633333333, "fusion_lon": 0.0, "is_disabled": 0, "fusion_lat": 0.0, "bike_id": "4f5e31e1c060b09a680cf943689d4a0b", "rental_uris": {"ios": "https://dc.lft.to/lastmile_qr_scan", "android": "https://dc.lft.to/lastmile_qr_scan"}}, {"name": "772bb603c309f7cf94d284d01b18b452", "type": "electric_scooter", "lat": 38.903337, "is_reserved": 0, "lon": -77.066517, "fusion_lon": 0.0, "is_disabled": 0, "fusion_lat": 0.0, "bike_id": "772bb603c309f7cf94d284d01b18b452", "rental_uris": {"ios": "https://dc.lft.to/lastmile_qr_scan", "android": "https://dc.lft.to/lastmile_qr_scan"}}, {"name": "82d1c1e4191d5a345619038957ca6c0e", "type": "electric_scooter", "lat": 38.910337, "is_reserved": 0, "lon": -77.04815133333334, "fusion_lon": 0.0, "is_disabled": 0, "fusion_lat": 0.0, "bike_id": "82d1c1e4191d5a345619038957ca6c0e", "rental_uris": {"ios": "https://dc.lft.to/lastmile_qr_scan", "android": "https://dc.lft.to/lastmile_qr_scan"}}, {"name": "767b0a6be042d69754cb9d575dca7697", "type": "electric_scooter", "lat": 38.89876566666667, "is_reserved": 0, "lon": -76.931593, "fusion_lon": 0.0, "is_disabled": 0, "fusion_lat": 0.0, "bike_id": "767b0a6be042d69754cb9d575dca7697", "rental_uris": {"ios": "https://dc.lft.to/lastmile_qr_scan", "android": "https://dc.lft.to/lastmile_qr_scan"}}, {"name": "7e52c374102b395685e3289073fd593a", "type": "electric_scooter", "lat": 38.921452, "is_reserved": 0, "lon": -77.0349145, "fusion_lon": 0.0, "is_disabled": 0, "fusion_lat": 0.0, "bike_id": "7e52c374102b395685e3289073fd593a", "rental_uris": {"ios": "https://dc.lft.to/lastmile_qr_scan", "android": "https://dc.lft.to/lastmile_qr_scan"}}, {"name": "46f84ae5b24f4b0ed3f0f3866f6d93ab", "type": "electric_scooter", "lat": 38.85633283333333, "is_reserved": 0, "lon": -76.97455216666667, "fusion_lon": 0.0, "is_disabled": 0, "fusion_lat": 0.0, "bike_id": "46f84ae5b24f4b0ed3f0f3866f6d93ab", "rental_uris": {"ios": "https://dc.lft.to/lastmile_qr_scan", "android": "https://dc.lft.to/lastmile_qr_scan"}}, {"name": "1adb5f4cabbce150fe5cd877e674955a", "type": "electric_scooter", "lat": 38.929033, "is_reserved": 0, "lon": -77.05457, "fusion_lon": 0.0, "is_disabled": 0, "fusion_lat": 0.0, "bike_id": "1adb5f4cabbce150fe5cd877e674955a", "rental_uris": {"ios": "https://dc.lft.to/lastmile_qr_scan", "android": "https://dc.lft.to/lastmile_qr_scan"}}, {"name": "4e629800ff5c2911a3bab746a7079a0d", "type": "electric_bike", "lat": 38.9562585, "is_reserved": 0, "lon": -76.96658583333334, "fusion_lon": 0.0, "is_disabled": 0, "fusion_lat": 0.0, "bike_id": "4e629800ff5c2911a3bab746a7079a0d", "rental_uris": {"ios": "https://dc.lft.to/lastmile_qr_scan", "android": "https://dc.lft.to/lastmile_qr_scan"}}, {"name": "121af5d271b832758e5575999c8945c6", "type": "electric_bike", "lat": 39.00075116666667, "is_reserved": 0, "lon": -76.887669, "fusion_lon": 0.0, "is_disabled": 0, "fusion_lat": 0.0, "bike_id": "121af5d271b832758e5575999c8945c6", "rental_uris": {"ios": "https://dc.lft.to/lastmile_qr_scan", "android": "https://dc.lft.to/lastmile_qr_scan"}}, {"name": "b50e2c745f9b0fa60093da412869018d", "type": "electric_scooter", "lat": 38.9417155, "is_reserved": 0, "lon": -77.04132683333333, "fusion_lon": 0.0, "is_disabled": 0, "fusion_lat": 0.0, "bike_id": "b50e2c745f9b0fa60093da412869018d", "rental_uris": {"ios": "https://dc.lft.to/lastmile_qr_scan", "android": "https://dc.lft.to/lastmile_qr_scan"}}, {"name": "39ec8de216905d0109ef31e83c38aa6d", "type": "electric_scooter", "lat": 38.927531333333334, "is_reserved": 0, "lon": -77.02484683333333, "fusion_lon": 0.0, "is_disabled": 0, "fusion_lat": 0.0, "bike_id": "39ec8de216905d0109ef31e83c38aa6d", "rental_uris": {"ios": "https://dc.lft.to/lastmile_qr_scan", "android": "https://dc.lft.to/lastmile_qr_scan"}}, {"name": "a36840f8a0231158ba8640263adc4e5f", "type": "electric_scooter", "lat": 38.9093735, "is_reserved": 0, "lon": -77.02188233333334, "fusion_lon": 0.0, "is_disabled": 0, "fusion_lat": 0.0, "bike_id": "a36840f8a0231158ba8640263adc4e5f", "rental_uris": {"ios": "https://dc.lft.to/lastmile_qr_scan", "android": "https://dc.lft.to/lastmile_qr_scan"}}, {"name": "ce3d0ac9b18a2992bd52cd75819871c4", "type": "electric_scooter", "lat": 38.902474833333336, "is_reserved": 0, "lon": -77.03634983333333, "fusion_lon": 0.0, "is_disabled": 0, "fusion_lat": 0.0, "bike_id": "ce3d0ac9b18a2992bd52cd75819871c4", "rental_uris": {"ios": "https://dc.lft.to/lastmile_qr_scan", "android": "https://dc.lft.to/lastmile_qr_scan"}}, {"name": "cf4115f7cab345d6ab59139a66c92fde", "type": "electric_scooter", "lat": 38.90792883333334, "is_reserved": 0, "lon": -77.04826433333334, "fusion_lon": 0.0, "is_disabled": 0, "fusion_lat": 0.0, "bike_id": "cf4115f7cab345d6ab59139a66c92fde", "rental_uris": {"ios": "https://dc.lft.to/lastmile_qr_scan", "android": "https://dc.lft.to/lastmile_qr_scan"}}, {"name": "77ea0b8060cff2908f1c65359eda0f42", "type": "electric_scooter", "lat": 38.916777, "is_reserved": 0, "lon": -77.0369075, "fusion_lon": 0.0, "is_disabled": 0, "fusion_lat": 0.0, "bike_id": "77ea0b8060cff2908f1c65359eda0f42", "rental_uris": {"ios": "https://dc.lft.to/lastmile_qr_scan", "android": "https://dc.lft.to/lastmile_qr_scan"}}, {"name": "075800636db1c85bf459bb50da971010", "type": "electric_scooter", "lat": 38.90247566666667, "is_reserved": 0, "lon": -77.03971966666667, "fusion_lon": 0.0, "is_disabled": 0, "fusion_lat": 0.0, "bike_id": "075800636db1c85bf459bb50da971010", "rental_uris": {"ios": "https://dc.lft.to/lastmile_qr_scan", "android": "https://dc.lft.to/lastmile_qr_scan"}}, {"name": "0ce6c6c2102837c1be55dc5046582ad4", "type": "electric_scooter", "lat": 38.89873633333333, "is_reserved": 0, "lon": -77.04064233333334, "fusion_lon": 0.0, "is_disabled": 0, "fusion_lat": 0.0, "bike_id": "0ce6c6c2102837c1be55dc5046582ad4", "rental_uris": {"ios": "https://dc.lft.to/lastmile_qr_scan", "android": "https://dc.lft.to/lastmile_qr_scan"}}, {"name": "160bb3b40c6a763f230504dfa35b81a8", "type": "electric_scooter", "lat": 38.8985055, "is_reserved": 0, "lon": -77.04370833333333, "fusion_lon": 0.0, "is_disabled": 0, "fusion_lat": 0.0, "bike_id": "160bb3b40c6a763f230504dfa35b81a8", "rental_uris": {"ios": "https://dc.lft.to/lastmile_qr_scan", "android": "https://dc.lft.to/lastmile_qr_scan"}}, {"name": "550f82cdb1cd3ae31b9784f50b03b948", "type": "electric_scooter", "lat": 38.901221666666665, "is_reserved": 0, "lon": -77.043074, "fusion_lon": 0.0, "is_disabled": 0, "fusion_lat": 0.0, "bike_id": "550f82cdb1cd3ae31b9784f50b03b948", "rental_uris": {"ios": "https://dc.lft.to/lastmile_qr_scan", "android": "https://dc.lft.to/lastmile_qr_scan"}}, {"name": "fa0ff8b0d6b071e0377feb22b1f42194", "type": "electric_bike", "lat": 38.895608333333335, "is_reserved": 0, "lon": -77.12733316666667, "fusion_lon": 0.0, "is_disabled": 0, "fusion_lat": 0.0, "bike_id": "fa0ff8b0d6b071e0377feb22b1f42194", "rental_uris": {"ios": "https://dc.lft.to/lastmile_qr_scan", "android": "https://dc.lft.to/lastmile_qr_scan"}}, {"name": "36179d8fb22025ae53ce0d62b40605c3", "type": "electric_scooter", "lat": 38.906786333333336, "is_reserved": 0, "lon": -76.97802166666666, "fusion_lon": 0.0, "is_disabled": 0, "fusion_lat": 0.0, "bike_id": "36179d8fb22025ae53ce0d62b40605c3", "rental_uris": {"ios": "https://dc.lft.to/lastmile_qr_scan", "android": "https://dc.lft.to/lastmile_qr_scan"}}, {"name": "fa71860df1e1781ed494264822219032", "type": "electric_scooter", "lat": 38.906122, "is_reserved": 0, "lon": -77.065149, "fusion_lon": 0.0, "is_disabled": 0, "fusion_lat": 0.0, "bike_id": "fa71860df1e1781ed494264822219032", "rental_uris": {"ios": "https://dc.lft.to/lastmile_qr_scan", "android": "https://dc.lft.to/lastmile_qr_scan"}}, {"name": "6245234d37790d2ffdd9d6bd3fb120c9", "type": "electric_scooter", "lat": 38.94272733333333, "is_reserved": 0, "lon": -77.02501916666667, "fusion_lon": 0.0, "is_disabled": 0, "fusion_lat": 0.0, "bike_id": "6245234d37790d2ffdd9d6bd3fb120c9", "rental_uris": {"ios": "https://dc.lft.to/lastmile_qr_scan", "android": "https://dc.lft.to/lastmile_qr_scan"}}, {"name": "7d4407965f0b4ba1424c7641c00fd8aa", "type": "electric_scooter", "lat": 38.911119, "is_reserved": 0, "lon": -77.04929883333334, "fusion_lon": 0.0, "is_disabled": 0, "fusion_lat": 0.0, "bike_id": "7d4407965f0b4ba1424c7641c00fd8aa", "rental_uris": {"ios": "https://dc.lft.to/lastmile_qr_scan", "android": "https://dc.lft.to/lastmile_qr_scan"}}, {"name": "5ad0720aeec5137ae90b08da2b56ceaf", "type": "electric_bike", "lat": 38.92464183333333, "is_reserved": 0, "lon": -77.2084015, "fusion_lon": 0.0, "is_disabled": 0, "fusion_lat": 0.0, "bike_id": "5ad0720aeec5137ae90b08da2b56ceaf", "rental_uris": {"ios": "https://dc.lft.to/lastmile_qr_scan", "android": "https://dc.lft.to/lastmile_qr_scan"}}, {"name": "e16a897ff34784ebf2bbd0de52889767", "type": "electric_scooter", "lat": 38.9110325, "is_reserved": 0, "lon": -77.046685, "fusion_lon": 0.0, "is_disabled": 0, "fusion_lat": 0.0, "bike_id": "e16a897ff34784ebf2bbd0de52889767", "rental_uris": {"ios": "https://dc.lft.to/lastmile_qr_scan", "android": "https://dc.lft.to/lastmile_qr_scan"}}, {"name": "372c631b5d106e381bc4926277861ffc", "type": "electric_scooter", "lat": 38.93426566666667, "is_reserved": 0, "lon": -77.03404583333334, "fusion_lon": 0.0, "is_disabled": 0, "fusion_lat": 0.0, "bike_id": "372c631b5d106e381bc4926277861ffc", "rental_uris": {"ios": "https://dc.lft.to/lastmile_qr_scan", "android": "https://dc.lft.to/lastmile_qr_scan"}}, {"name": "83ba3ef95a42055bc8e22490b0500a0c", "type": "electric_scooter", "lat": 38.908308166666664, "is_reserved": 0, "lon": -76.9970105, "fusion_lon": 0.0, "is_disabled": 0, "fusion_lat": 0.0, "bike_id": "83ba3ef95a42055bc8e22490b0500a0c", "rental_uris": {"ios": "https://dc.lft.to/lastmile_qr_scan", "android": "https://dc.lft.to/lastmile_qr_scan"}}, {"name": "9abd0ddd198fd78ea7fb6541f42f7145", "type": "electric_scooter", "lat": 38.91568616666667, "is_reserved": 0, "lon": -77.031874, "fusion_lon": 0.0, "is_disabled": 0, "fusion_lat": 0.0, "bike_id": "9abd0ddd198fd78ea7fb6541f42f7145", "rental_uris": {"ios": "https://dc.lft.to/lastmile_qr_scan", "android": "https://dc.lft.to/lastmile_qr_scan"}}, {"name": "ce8076168b00d88259e441b8844f7b9f", "type": "electric_bike", "lat": 38.891910333333335, "is_reserved": 0, "lon": -77.12261933333333, "fusion_lon": 0.0, "is_disabled": 0, "fusion_lat": 0.0, "bike_id": "ce8076168b00d88259e441b8844f7b9f", "rental_uris": {"ios": "https://dc.lft.to/lastmile_qr_scan", "android": "https://dc.lft.to/lastmile_qr_scan"}}, {"name": "f1295758c6d11739ec1b0f815cc9e1a7", "type": "electric_bike", "lat": 38.95544683333333, "is_reserved": 0, "lon": -76.93550883333333, "fusion_lon": 0.0, "is_disabled": 0, "fusion_lat": 0.0, "bike_id": "f1295758c6d11739ec1b0f815cc9e1a7", "rental_uris": {"ios": "https://dc.lft.to/lastmile_qr_scan", "android": "https://dc.lft.to/lastmile_qr_scan"}}, {"name": "2baa7509f9ce635b93a8d1b8f86ace16", "type": "electric_scooter", "lat": 38.89810266666667, "is_reserved": 0, "lon": -77.03324516666666, "fusion_lon": 0.0, "is_disabled": 0, "fusion_lat": 0.0, "bike_id": "2baa7509f9ce635b93a8d1b8f86ace16", "rental_uris": {"ios": "https://dc.lft.to/lastmile_qr_scan", "android": "https://dc.lft.to/lastmile_qr_scan"}}, {"name": "2bb6b230144d186cd03d8d008ebaf52e", "type": "electric_scooter", "lat": 38.92439233333333, "is_reserved": 0, "lon": -77.03407416666667, "fusion_lon": 0.0, "is_disabled": 0, "fusion_lat": 0.0, "bike_id": "2bb6b230144d186cd03d8d008ebaf52e", "rental_uris": {"ios": "https://dc.lft.to/lastmile_qr_scan", "android": "https://dc.lft.to/lastmile_qr_scan"}}, {"name": "1cd00f8fe617ff20365f7c8de68377ec", "type": "electric_scooter", "lat": 38.916665, "is_reserved": 0, "lon": -77.03701883333333, "fusion_lon": 0.0, "is_disabled": 0, "fusion_lat": 0.0, "bike_id": "1cd00f8fe617ff20365f7c8de68377ec", "rental_uris": {"ios": "https://dc.lft.to/lastmile_qr_scan", "android": "https://dc.lft.to/lastmile_qr_scan"}}, {"name": "82ebded1e0adc9c6f3239a434386cfb9", "type": "electric_scooter", "lat": 38.88035216666667, "is_reserved": 0, "lon": -76.927241, "fusion_lon": 0.0, "is_disabled": 0, "fusion_lat": 0.0, "bike_id": "82ebded1e0adc9c6f3239a434386cfb9", "rental_uris": {"ios": "https://dc.lft.to/lastmile_qr_scan", "android": "https://dc.lft.to/lastmile_qr_scan"}}, {"name": "3a66735df10b5458051a718d357847ac", "type": "electric_scooter", "lat": 38.90035133333333, "is_reserved": 0, "lon": -77.00194316666666, "fusion_lon": 0.0, "is_disabled": 0, "fusion_lat": 0.0, "bike_id": "3a66735df10b5458051a718d357847ac", "rental_uris": {"ios": "https://dc.lft.to/lastmile_qr_scan", "android": "https://dc.lft.to/lastmile_qr_scan"}}, {"name": "65a49d0899278ed743904adec908955c", "type": "electric_scooter", "lat": 38.8665755, "is_reserved": 0, "lon": -76.98889783333334, "fusion_lon": 0.0, "is_disabled": 0, "fusion_lat": 0.0, "bike_id": "65a49d0899278ed743904adec908955c", "rental_uris": {"ios": "https://dc.lft.to/lastmile_qr_scan", "android": "https://dc.lft.to/lastmile_qr_scan"}}, {"name": "a6afc1b425e4d9d2a055c79e74aaad27", "type": "electric_scooter", "lat": 38.92163566666667, "is_reserved": 0, "lon": -76.99396583333333, "fusion_lon": 0.0, "is_disabled": 0, "fusion_lat": 0.0, "bike_id": "a6afc1b425e4d9d2a055c79e74aaad27", "rental_uris": {"ios": "https://dc.lft.to/lastmile_qr_scan", "android": "https://dc.lft.to/lastmile_qr_scan"}}, {"name": "61bd0b7d13d80ebdb715f1a2f82485a8", "type": "electric_scooter", "lat": 38.9067905, "is_reserved": 0, "lon": -77.000294, "fusion_lon": 0.0, "is_disabled": 0, "fusion_lat": 0.0, "bike_id": "61bd0b7d13d80ebdb715f1a2f82485a8", "rental_uris": {"ios": "https://dc.lft.to/lastmile_qr_scan", "android": "https://dc.lft.to/lastmile_qr_scan"}}, {"name": "15163945db064f649af895ce9a59e471", "type": "electric_scooter", "lat": 38.886379166666664, "is_reserved": 0, "lon": -77.021387, "fusion_lon": 0.0, "is_disabled": 0, "fusion_lat": 0.0, "bike_id": "15163945db064f649af895ce9a59e471", "rental_uris": {"ios": "https://dc.lft.to/lastmile_qr_scan", "android": "https://dc.lft.to/lastmile_qr_scan"}}, {"name": "80db151d039617e9a544f0e2bc56a351", "type": "electric_bike", "lat": 38.990894, "is_reserved": 0, "lon": -76.87497, "fusion_lon": 0.0, "is_disabled": 0, "fusion_lat": 0.0, "bike_id": "80db151d039617e9a544f0e2bc56a351", "rental_uris": {"ios": "https://dc.lft.to/lastmile_qr_scan", "android": "https://dc.lft.to/lastmile_qr_scan"}}, {"name": "768b10a3e8dfa4e4bc246f6bc3928c14", "type": "electric_scooter", "lat": 38.900219666666665, "is_reserved": 0, "lon": -77.0400425, "fusion_lon": 0.0, "is_disabled": 0, "fusion_lat": 0.0, "bike_id": "768b10a3e8dfa4e4bc246f6bc3928c14", "rental_uris": {"ios": "https://dc.lft.to/lastmile_qr_scan", "android": "https://dc.lft.to/lastmile_qr_scan"}}, {"name": "b5d73d1e5d6cb0db5d0f502e7e3f40bf", "type": "electric_scooter", "lat": 38.87848983333333, "is_reserved": 0, "lon": -77.02278083333333, "fusion_lon": 0.0, "is_disabled": 0, "fusion_lat": 0.0, "bike_id": "b5d73d1e5d6cb0db5d0f502e7e3f40bf", "rental_uris": {"ios": "https://dc.lft.to/lastmile_qr_scan", "android": "https://dc.lft.to/lastmile_qr_scan"}}, {"name": "410471ed5d1724e82173fa6bc21e982e", "type": "electric_scooter", "lat": 38.90523266666667, "is_reserved": 0, "lon": -77.06159183333334, "fusion_lon": 0.0, "is_disabled": 0, "fusion_lat": 0.0, "bike_id": "410471ed5d1724e82173fa6bc21e982e", "rental_uris": {"ios": "https://dc.lft.to/lastmile_qr_scan", "android": "https://dc.lft.to/lastmile_qr_scan"}}, {"name": "b5b5ce4e1ee5a54e9579db5afcc0e2dc", "type": "electric_bike", "lat": 38.82871183333334, "is_reserved": 0, "lon": -77.112202, "fusion_lon": 0.0, "is_disabled": 0, "fusion_lat": 0.0, "bike_id": "b5b5ce4e1ee5a54e9579db5afcc0e2dc", "rental_uris": {"ios": "https://dc.lft.to/lastmile_qr_scan", "android": "https://dc.lft.to/lastmile_qr_scan"}}, {"name": "82f6caf40c61a1615c9c7918f6709896", "type": "electric_scooter", "lat": 38.90774566666666, "is_reserved": 0, "lon": -77.04335733333333, "fusion_lon": 0.0, "is_disabled": 0, "fusion_lat": 0.0, "bike_id": "82f6caf40c61a1615c9c7918f6709896", "rental_uris": {"ios": "https://dc.lft.to/lastmile_qr_scan", "android": "https://dc.lft.to/lastmile_qr_scan"}}, {"name": "819cb2b2ee0df2186e3de682391bdb92", "type": "electric_scooter", "lat": 38.916818, "is_reserved": 0, "lon": -77.036433, "fusion_lon": 0.0, "is_disabled": 0, "fusion_lat": 0.0, "bike_id": "819cb2b2ee0df2186e3de682391bdb92", "rental_uris": {"ios": "https://dc.lft.to/lastmile_qr_scan", "android": "https://dc.lft.to/lastmile_qr_scan"}}, {"name": "2c9ef7d08524f9af9c52a655fbd0ad68", "type": "electric_scooter", "lat": 38.936069, "is_reserved": 0, "lon": -77.05861166666666, "fusion_lon": 0.0, "is_disabled": 0, "fusion_lat": 0.0, "bike_id": "2c9ef7d08524f9af9c52a655fbd0ad68", "rental_uris": {"ios": "https://dc.lft.to/lastmile_qr_scan", "android": "https://dc.lft.to/lastmile_qr_scan"}}, {"name": "9f9774bb3f8606a801dae8b36367b9a5", "type": "electric_scooter", "lat": 38.884101333333334, "is_reserved": 0, "lon": -77.01535733333333, "fusion_lon": 0.0, "is_disabled": 0, "fusion_lat": 0.0, "bike_id": "9f9774bb3f8606a801dae8b36367b9a5", "rental_uris": {"ios": "https://dc.lft.to/lastmile_qr_scan", "android": "https://dc.lft.to/lastmile_qr_scan"}}, {"name": "4576953958aba41205e7b22f8da90919", "type": "electric_scooter", "lat": 38.88738683333333, "is_reserved": 0, "lon": -77.01534416666667, "fusion_lon": 0.0, "is_disabled": 0, "fusion_lat": 0.0, "bike_id": "4576953958aba41205e7b22f8da90919", "rental_uris": {"ios": "https://dc.lft.to/lastmile_qr_scan", "android": "https://dc.lft.to/lastmile_qr_scan"}}, {"name": "b7937e67675872972ae1bde509748987", "type": "electric_scooter", "lat": 38.917998833333336, "is_reserved": 0, "lon": -77.03441483333333, "fusion_lon": 0.0, "is_disabled": 0, "fusion_lat": 0.0, "bike_id": "b7937e67675872972ae1bde509748987", "rental_uris": {"ios": "https://dc.lft.to/lastmile_qr_scan", "android": "https://dc.lft.to/lastmile_qr_scan"}}, {"name": "ea396fc8f0c4f02ba88f8fb6dab496d1", "type": "electric_scooter", "lat": 38.901480666666664, "is_reserved": 0, "lon": -77.04397816666666, "fusion_lon": 0.0, "is_disabled": 0, "fusion_lat": 0.0, "bike_id": "ea396fc8f0c4f02ba88f8fb6dab496d1", "rental_uris": {"ios": "https://dc.lft.to/lastmile_qr_scan", "android": "https://dc.lft.to/lastmile_qr_scan"}}, {"name": "cfc4c28e15dc387582556b085f6f721b", "type": "electric_scooter", "lat": 38.92407633333333, "is_reserved": 0, "lon": -77.0254195, "fusion_lon": 0.0, "is_disabled": 0, "fusion_lat": 0.0, "bike_id": "cfc4c28e15dc387582556b085f6f721b", "rental_uris": {"ios": "https://dc.lft.to/lastmile_qr_scan", "android": "https://dc.lft.to/lastmile_qr_scan"}}, {"name": "5adf44bf46dfcc104eb2009f1612bc2b", "type": "electric_scooter", "lat": 38.8669585, "is_reserved": 0, "lon": -76.98709616666666, "fusion_lon": 0.0, "is_disabled": 0, "fusion_lat": 0.0, "bike_id": "5adf44bf46dfcc104eb2009f1612bc2b", "rental_uris": {"ios": "https://dc.lft.to/lastmile_qr_scan", "android": "https://dc.lft.to/lastmile_qr_scan"}}, {"name": "461c703af78972e71eeefb85b932d5d4", "type": "electric_scooter", "lat": 38.922871666666666, "is_reserved": 0, "lon": -77.03197383333334, "fusion_lon": 0.0, "is_disabled": 0, "fusion_lat": 0.0, "bike_id": "461c703af78972e71eeefb85b932d5d4", "rental_uris": {"ios": "https://dc.lft.to/lastmile_qr_scan", "android": "https://dc.lft.to/lastmile_qr_scan"}}, {"name": "a35b40b023484118fb3670b834c2f6a4", "type": "electric_bike", "lat": 38.905316666666664, "is_reserved": 0, "lon": -76.99803283333334, "fusion_lon": 0.0, "is_disabled": 0, "fusion_lat": 0.0, "bike_id": "a35b40b023484118fb3670b834c2f6a4", "rental_uris": {"ios": "https://dc.lft.to/lastmile_qr_scan", "android": "https://dc.lft.to/lastmile_qr_scan"}}, {"name": "940f34b1d5e85ed5c53d4c921a5cd14d", "type": "electric_scooter", "lat": 38.884312666666666, "is_reserved": 0, "lon": -76.95756133333333, "fusion_lon": 0.0, "is_disabled": 0, "fusion_lat": 0.0, "bike_id": "940f34b1d5e85ed5c53d4c921a5cd14d", "rental_uris": {"ios": "https://dc.lft.to/lastmile_qr_scan", "android": "https://dc.lft.to/lastmile_qr_scan"}}, {"name": "b36ed8c46b697b6e02a0d0a1b814d547", "type": "electric_scooter", "lat": 38.91332416666667, "is_reserved": 0, "lon": -77.030377, "fusion_lon": 0.0, "is_disabled": 0, "fusion_lat": 0.0, "bike_id": "b36ed8c46b697b6e02a0d0a1b814d547", "rental_uris": {"ios": "https://dc.lft.to/lastmile_qr_scan", "android": "https://dc.lft.to/lastmile_qr_scan"}}, {"name": "48cd8e46805e6c2d5d6dbf02f42499ec", "type": "electric_bike", "lat": 38.99090133333333, "is_reserved": 0, "lon": -76.87496816666666, "fusion_lon": 0.0, "is_disabled": 0, "fusion_lat": 0.0, "bike_id": "48cd8e46805e6c2d5d6dbf02f42499ec", "rental_uris": {"ios": "https://dc.lft.to/lastmile_qr_scan", "android": "https://dc.lft.to/lastmile_qr_scan"}}, {"name": "d51ff074186abd8e986117851176d225", "type": "electric_scooter", "lat": 38.922906833333336, "is_reserved": 0, "lon": -77.0207545, "fusion_lon": 0.0, "is_disabled": 0, "fusion_lat": 0.0, "bike_id": "d51ff074186abd8e986117851176d225", "rental_uris": {"ios": "https://dc.lft.to/lastmile_qr_scan", "android": "https://dc.lft.to/lastmile_qr_scan"}}, {"name": "f69e448eddb498dd4b0f488a70efbc6a", "type": "electric_scooter", "lat": 38.941551, "is_reserved": 0, "lon": -77.03652883333334, "fusion_lon": 0.0, "is_disabled": 0, "fusion_lat": 0.0, "bike_id": "f69e448eddb498dd4b0f488a70efbc6a", "rental_uris": {"ios": "https://dc.lft.to/lastmile_qr_scan", "android": "https://dc.lft.to/lastmile_qr_scan"}}, {"name": "3d8ed52c6d5a33e1009c64db69c0d856", "type": "electric_scooter", "lat": 38.8967425, "is_reserved": 0, "lon": -77.053997, "fusion_lon": 0.0, "is_disabled": 0, "fusion_lat": 0.0, "bike_id": "3d8ed52c6d5a33e1009c64db69c0d856", "rental_uris": {"ios": "https://dc.lft.to/lastmile_qr_scan", "android": "https://dc.lft.to/lastmile_qr_scan"}}, {"name": "cf3c0e72e8f52566afd81ba3862bf5f4", "type": "electric_scooter", "lat": 38.8982205, "is_reserved": 0, "lon": -76.92641933333333, "fusion_lon": 0.0, "is_disabled": 0, "fusion_lat": 0.0, "bike_id": "cf3c0e72e8f52566afd81ba3862bf5f4", "rental_uris": {"ios": "https://dc.lft.to/lastmile_qr_scan", "android": "https://dc.lft.to/lastmile_qr_scan"}}, {"name": "6968155e5f013d2da1632f5233ebd880", "type": "electric_scooter", "lat": 38.917276666666666, "is_reserved": 0, "lon": -77.02898366666666, "fusion_lon": 0.0, "is_disabled": 0, "fusion_lat": 0.0, "bike_id": "6968155e5f013d2da1632f5233ebd880", "rental_uris": {"ios": "https://dc.lft.to/lastmile_qr_scan", "android": "https://dc.lft.to/lastmile_qr_scan"}}, {"name": "33261ff60637b0cd317c073a917b6ed9", "type": "electric_scooter", "lat": 38.91707666666667, "is_reserved": 0, "lon": -77.00113, "fusion_lon": 0.0, "is_disabled": 0, "fusion_lat": 0.0, "bike_id": "33261ff60637b0cd317c073a917b6ed9", "rental_uris": {"ios": "https://dc.lft.to/lastmile_qr_scan", "android": "https://dc.lft.to/lastmile_qr_scan"}}, {"name": "84722a7161908ac8593b673485e431e1", "type": "electric_scooter", "lat": 38.927161, "is_reserved": 0, "lon": -77.0385485, "fusion_lon": 0.0, "is_disabled": 0, "fusion_lat": 0.0, "bike_id": "84722a7161908ac8593b673485e431e1", "rental_uris": {"ios": "https://dc.lft.to/lastmile_qr_scan", "android": "https://dc.lft.to/lastmile_qr_scan"}}, {"name": "317614da30ba2368d7834db69c227e9c", "type": "electric_scooter", "lat": 38.904256833333335, "is_reserved": 0, "lon": -77.0533025, "fusion_lon": 0.0, "is_disabled": 0, "fusion_lat": 0.0, "bike_id": "317614da30ba2368d7834db69c227e9c", "rental_uris": {"ios": "https://dc.lft.to/lastmile_qr_scan", "android": "https://dc.lft.to/lastmile_qr_scan"}}, {"name": "9177aee59cedb8e3f714f6d6076cffab", "type": "electric_scooter", "lat": 38.8832235, "is_reserved": 0, "lon": -77.01752933333333, "fusion_lon": 0.0, "is_disabled": 0, "fusion_lat": 0.0, "bike_id": "9177aee59cedb8e3f714f6d6076cffab", "rental_uris": {"ios": "https://dc.lft.to/lastmile_qr_scan", "android": "https://dc.lft.to/lastmile_qr_scan"}}, {"name": "77fd03618d26e92e5074f4d509c8d0c7", "type": "electric_bike", "lat": 38.87399, "is_reserved": 0, "lon": -77.00033416666666, "fusion_lon": 0.0, "is_disabled": 0, "fusion_lat": 0.0, "bike_id": "77fd03618d26e92e5074f4d509c8d0c7", "rental_uris": {"ios": "https://dc.lft.to/lastmile_qr_scan", "android": "https://dc.lft.to/lastmile_qr_scan"}}, {"name": "6605ed4769c9c8634c5fe7ed1ed00d6c", "type": "electric_bike", "lat": 38.951865, "is_reserved": 0, "lon": -76.9354815, "fusion_lon": 0.0, "is_disabled": 0, "fusion_lat": 0.0, "bike_id": "6605ed4769c9c8634c5fe7ed1ed00d6c", "rental_uris": {"ios": "https://dc.lft.to/lastmile_qr_scan", "android": "https://dc.lft.to/lastmile_qr_scan"}}, {"name": "bc3f7f50089360f35de127b1784784d5", "type": "electric_scooter", "lat": 38.8970865, "is_reserved": 0, "lon": -77.02257483333334, "fusion_lon": 0.0, "is_disabled": 0, "fusion_lat": 0.0, "bike_id": "bc3f7f50089360f35de127b1784784d5", "rental_uris": {"ios": "https://dc.lft.to/lastmile_qr_scan", "android": "https://dc.lft.to/lastmile_qr_scan"}}, {"name": "eba5c896629334f844bf38aaf7a6e1e4", "type": "electric_bike", "lat": 38.95649316666667, "is_reserved": 0, "lon": -76.99742033333334, "fusion_lon": 0.0, "is_disabled": 0, "fusion_lat": 0.0, "bike_id": "eba5c896629334f844bf38aaf7a6e1e4", "rental_uris": {"ios": "https://dc.lft.to/lastmile_qr_scan", "android": "https://dc.lft.to/lastmile_qr_scan"}}, {"name": "c41f81d17f48746a44300f6281714176", "type": "electric_bike", "lat": 38.9650155, "is_reserved": 0, "lon": -77.10333916666667, "fusion_lon": 0.0, "is_disabled": 0, "fusion_lat": 0.0, "bike_id": "c41f81d17f48746a44300f6281714176", "rental_uris": {"ios": "https://dc.lft.to/lastmile_qr_scan", "android": "https://dc.lft.to/lastmile_qr_scan"}}, {"name": "95dd2eadc0669d341b215f56ff01632f", "type": "electric_scooter", "lat": 38.90025333333333, "is_reserved": 0, "lon": -77.046891, "fusion_lon": 0.0, "is_disabled": 0, "fusion_lat": 0.0, "bike_id": "95dd2eadc0669d341b215f56ff01632f", "rental_uris": {"ios": "https://dc.lft.to/lastmile_qr_scan", "android": "https://dc.lft.to/lastmile_qr_scan"}}, {"name": "52acae88b4afb1bad79c30c922cd981d", "type": "electric_scooter", "lat": 38.905683833333335, "is_reserved": 0, "lon": -77.0385145, "fusion_lon": 0.0, "is_disabled": 0, "fusion_lat": 0.0, "bike_id": "52acae88b4afb1bad79c30c922cd981d", "rental_uris": {"ios": "https://dc.lft.to/lastmile_qr_scan", "android": "https://dc.lft.to/lastmile_qr_scan"}}, {"name": "c8f4f45f3e25c0368098837fe84483a4", "type": "electric_scooter", "lat": 38.90398866666666, "is_reserved": 0, "lon": -77.04330616666667, "fusion_lon": 0.0, "is_disabled": 0, "fusion_lat": 0.0, "bike_id": "c8f4f45f3e25c0368098837fe84483a4", "rental_uris": {"ios": "https://dc.lft.to/lastmile_qr_scan", "android": "https://dc.lft.to/lastmile_qr_scan"}}, {"name": "fe45c9df690cc2a54d2f180654f8d967", "type": "electric_scooter", "lat": 38.91106533333333, "is_reserved": 0, "lon": -77.00363, "fusion_lon": 0.0, "is_disabled": 0, "fusion_lat": 0.0, "bike_id": "fe45c9df690cc2a54d2f180654f8d967", "rental_uris": {"ios": "https://dc.lft.to/lastmile_qr_scan", "android": "https://dc.lft.to/lastmile_qr_scan"}}, {"name": "6437a62ab42f77c3b9cf858acc2805ba", "type": "electric_scooter", "lat": 38.866578833333335, "is_reserved": 0, "lon": -76.98893216666667, "fusion_lon": 0.0, "is_disabled": 0, "fusion_lat": 0.0, "bike_id": "6437a62ab42f77c3b9cf858acc2805ba", "rental_uris": {"ios": "https://dc.lft.to/lastmile_qr_scan", "android": "https://dc.lft.to/lastmile_qr_scan"}}, {"name": "a9ae842205456627ac2b2971ad8479c8", "type": "electric_scooter", "lat": 38.94277133333333, "is_reserved": 0, "lon": -77.0250345, "fusion_lon": 0.0, "is_disabled": 0, "fusion_lat": 0.0, "bike_id": "a9ae842205456627ac2b2971ad8479c8", "rental_uris": {"ios": "https://dc.lft.to/lastmile_qr_scan", "android": "https://dc.lft.to/lastmile_qr_scan"}}, {"name": "90a25e6b359f6e0b9b5f279ad79565e1", "type": "electric_scooter", "lat": 38.90376833333333, "is_reserved": 0, "lon": -77.04172366666667, "fusion_lon": 0.0, "is_disabled": 0, "fusion_lat": 0.0, "bike_id": "90a25e6b359f6e0b9b5f279ad79565e1", "rental_uris": {"ios": "https://dc.lft.to/lastmile_qr_scan", "android": "https://dc.lft.to/lastmile_qr_scan"}}, {"name": "bc0dadb73c7e04d1ea040ded2b6f5324", "type": "electric_scooter", "lat": 38.92717, "is_reserved": 0, "lon": -77.02100616666667, "fusion_lon": 0.0, "is_disabled": 0, "fusion_lat": 0.0, "bike_id": "bc0dadb73c7e04d1ea040ded2b6f5324", "rental_uris": {"ios": "https://dc.lft.to/lastmile_qr_scan", "android": "https://dc.lft.to/lastmile_qr_scan"}}, {"name": "89e1de9c7476f061f84cd279581a51b4", "type": "electric_scooter", "lat": 38.907942166666665, "is_reserved": 0, "lon": -77.04185333333334, "fusion_lon": 0.0, "is_disabled": 0, "fusion_lat": 0.0, "bike_id": "89e1de9c7476f061f84cd279581a51b4", "rental_uris": {"ios": "https://dc.lft.to/lastmile_qr_scan", "android": "https://dc.lft.to/lastmile_qr_scan"}}, {"name": "fcccddd9fcccfc7824d531daea6a9b3e", "type": "electric_scooter", "lat": 38.930961833333335, "is_reserved": 0, "lon": -77.02508166666667, "fusion_lon": 0.0, "is_disabled": 0, "fusion_lat": 0.0, "bike_id": "fcccddd9fcccfc7824d531daea6a9b3e", "rental_uris": {"ios": "https://dc.lft.to/lastmile_qr_scan", "android": "https://dc.lft.to/lastmile_qr_scan"}}, {"name": "fc6b69ed544cb61b2e22941cc08ab33b", "type": "electric_scooter", "lat": 38.90673733333333, "is_reserved": 0, "lon": -77.03454816666667, "fusion_lon": 0.0, "is_disabled": 0, "fusion_lat": 0.0, "bike_id": "fc6b69ed544cb61b2e22941cc08ab33b", "rental_uris": {"ios": "https://dc.lft.to/lastmile_qr_scan", "android": "https://dc.lft.to/lastmile_qr_scan"}}, {"name": "1cdadb0877bf49a5e8289587d890b847", "type": "electric_scooter", "lat": 38.901226, "is_reserved": 0, "lon": -77.04493333333333, "fusion_lon": 0.0, "is_disabled": 0, "fusion_lat": 0.0, "bike_id": "1cdadb0877bf49a5e8289587d890b847", "rental_uris": {"ios": "https://dc.lft.to/lastmile_qr_scan", "android": "https://dc.lft.to/lastmile_qr_scan"}}, {"name": "17e5298a793d975efe90b7e5c98cb02a", "type": "electric_scooter", "lat": 38.89917116666667, "is_reserved": 0, "lon": -76.9338385, "fusion_lon": 0.0, "is_disabled": 0, "fusion_lat": 0.0, "bike_id": "17e5298a793d975efe90b7e5c98cb02a", "rental_uris": {"ios": "https://dc.lft.to/lastmile_qr_scan", "android": "https://dc.lft.to/lastmile_qr_scan"}}, {"name": "f16fcd5e2e8802281772bcc0d6691889", "type": "electric_bike", "lat": 38.898395, "is_reserved": 0, "lon": -77.00586933333334, "fusion_lon": 0.0, "is_disabled": 0, "fusion_lat": 0.0, "bike_id": "f16fcd5e2e8802281772bcc0d6691889", "rental_uris": {"ios": "https://dc.lft.to/lastmile_qr_scan", "android": "https://dc.lft.to/lastmile_qr_scan"}}, {"name": "28f1c4dd6a9556af232957328f9454ee", "type": "electric_scooter", "lat": 38.88023833333333, "is_reserved": 0, "lon": -77.02472083333333, "fusion_lon": 0.0, "is_disabled": 0, "fusion_lat": 0.0, "bike_id": "28f1c4dd6a9556af232957328f9454ee", "rental_uris": {"ios": "https://dc.lft.to/lastmile_qr_scan", "android": "https://dc.lft.to/lastmile_qr_scan"}}, {"name": "98e905d495dad7ca3154091949b713c8", "type": "electric_bike", "lat": 38.851554666666665, "is_reserved": 0, "lon": -77.12877983333334, "fusion_lon": 0.0, "is_disabled": 0, "fusion_lat": 0.0, "bike_id": "98e905d495dad7ca3154091949b713c8", "rental_uris": {"ios": "https://dc.lft.to/lastmile_qr_scan", "android": "https://dc.lft.to/lastmile_qr_scan"}}, {"name": "3d128b4b71e0776690e8395bd2bd84c6", "type": "electric_scooter", "lat": 38.93067, "is_reserved": 0, "lon": -77.039489, "fusion_lon": 0.0, "is_disabled": 0, "fusion_lat": 0.0, "bike_id": "3d128b4b71e0776690e8395bd2bd84c6", "rental_uris": {"ios": "https://dc.lft.to/lastmile_qr_scan", "android": "https://dc.lft.to/lastmile_qr_scan"}}, {"name": "ee313f7832cc6f9f3d030903d7f33e83", "type": "electric_scooter", "lat": 38.90652983333333, "is_reserved": 0, "lon": -77.04282733333334, "fusion_lon": 0.0, "is_disabled": 0, "fusion_lat": 0.0, "bike_id": "ee313f7832cc6f9f3d030903d7f33e83", "rental_uris": {"ios": "https://dc.lft.to/lastmile_qr_scan", "android": "https://dc.lft.to/lastmile_qr_scan"}}, {"name": "31b904a6113f81b3f76ab7fa085b3ff0", "type": "electric_scooter", "lat": 38.894744333333335, "is_reserved": 0, "lon": -76.98405166666667, "fusion_lon": 0.0, "is_disabled": 0, "fusion_lat": 0.0, "bike_id": "31b904a6113f81b3f76ab7fa085b3ff0", "rental_uris": {"ios": "https://dc.lft.to/lastmile_qr_scan", "android": "https://dc.lft.to/lastmile_qr_scan"}}, {"name": "8a2b28ceb2bb6916ad71eee6b0472374", "type": "electric_bike", "lat": 38.90989316666667, "is_reserved": 0, "lon": -77.0460515, "fusion_lon": 0.0, "is_disabled": 0, "fusion_lat": 0.0, "bike_id": "8a2b28ceb2bb6916ad71eee6b0472374", "rental_uris": {"ios": "https://dc.lft.to/lastmile_qr_scan", "android": "https://dc.lft.to/lastmile_qr_scan"}}, {"name": "bd062d64b38f3f52fd8647845cc4bffc", "type": "electric_scooter", "lat": 38.917108, "is_reserved": 0, "lon": -77.0322985, "fusion_lon": 0.0, "is_disabled": 0, "fusion_lat": 0.0, "bike_id": "bd062d64b38f3f52fd8647845cc4bffc", "rental_uris": {"ios": "https://dc.lft.to/lastmile_qr_scan", "android": "https://dc.lft.to/lastmile_qr_scan"}}, {"name": "1453a2ab83ad71e81aaba475a018b98a", "type": "electric_scooter", "lat": 38.897969333333336, "is_reserved": 0, "lon": -77.028182, "fusion_lon": 0.0, "is_disabled": 0, "fusion_lat": 0.0, "bike_id": "1453a2ab83ad71e81aaba475a018b98a", "rental_uris": {"ios": "https://dc.lft.to/lastmile_qr_scan", "android": "https://dc.lft.to/lastmile_qr_scan"}}, {"name": "a4ee7bec6aeb89d0101c5f6bc10e6ce7", "type": "electric_scooter", "lat": 38.90021866666667, "is_reserved": 0, "lon": -76.98299366666667, "fusion_lon": 0.0, "is_disabled": 0, "fusion_lat": 0.0, "bike_id": "a4ee7bec6aeb89d0101c5f6bc10e6ce7", "rental_uris": {"ios": "https://dc.lft.to/lastmile_qr_scan", "android": "https://dc.lft.to/lastmile_qr_scan"}}, {"name": "80a654ff0efcdd6174204c2d1942eb8c", "type": "electric_scooter", "lat": 38.943058666666666, "is_reserved": 0, "lon": -77.05910133333333, "fusion_lon": 0.0, "is_disabled": 0, "fusion_lat": 0.0, "bike_id": "80a654ff0efcdd6174204c2d1942eb8c", "rental_uris": {"ios": "https://dc.lft.to/lastmile_qr_scan", "android": "https://dc.lft.to/lastmile_qr_scan"}}, {"name": "790c7417e605b6c003fe27016db6ef19", "type": "electric_scooter", "lat": 38.95731833333333, "is_reserved": 0, "lon": -77.02401533333334, "fusion_lon": 0.0, "is_disabled": 0, "fusion_lat": 0.0, "bike_id": "790c7417e605b6c003fe27016db6ef19", "rental_uris": {"ios": "https://dc.lft.to/lastmile_qr_scan", "android": "https://dc.lft.to/lastmile_qr_scan"}}, {"name": "963cd4ebe350e7ecead7f9c6f6f1b445", "type": "electric_scooter", "lat": 38.865702, "is_reserved": 0, "lon": -76.98951166666667, "fusion_lon": 0.0, "is_disabled": 0, "fusion_lat": 0.0, "bike_id": "963cd4ebe350e7ecead7f9c6f6f1b445", "rental_uris": {"ios": "https://dc.lft.to/lastmile_qr_scan", "android": "https://dc.lft.to/lastmile_qr_scan"}}, {"name": "8b9894f950647813a0e34121cea7f5fc", "type": "electric_scooter", "lat": 38.9032285, "is_reserved": 0, "lon": -77.03825216666667, "fusion_lon": 0.0, "is_disabled": 0, "fusion_lat": 0.0, "bike_id": "8b9894f950647813a0e34121cea7f5fc", "rental_uris": {"ios": "https://dc.lft.to/lastmile_qr_scan", "android": "https://dc.lft.to/lastmile_qr_scan"}}, {"name": "1e43c772bc4ff21f5631bf42b6e8c7d2", "type": "electric_scooter", "lat": 38.894004333333335, "is_reserved": 0, "lon": -77.02370583333334, "fusion_lon": 0.0, "is_disabled": 0, "fusion_lat": 0.0, "bike_id": "1e43c772bc4ff21f5631bf42b6e8c7d2", "rental_uris": {"ios": "https://dc.lft.to/lastmile_qr_scan", "android": "https://dc.lft.to/lastmile_qr_scan"}}, {"name": "dd3419baab6224fbc022dae6a8e51af2", "type": "electric_scooter", "lat": 38.91037733333334, "is_reserved": 0, "lon": -77.044115, "fusion_lon": 0.0, "is_disabled": 0, "fusion_lat": 0.0, "bike_id": "dd3419baab6224fbc022dae6a8e51af2", "rental_uris": {"ios": "https://dc.lft.to/lastmile_qr_scan", "android": "https://dc.lft.to/lastmile_qr_scan"}}, {"name": "44bbad78b425fd0f167303b6c3cde08b", "type": "electric_scooter", "lat": 38.91193916666667, "is_reserved": 0, "lon": -77.0609205, "fusion_lon": 0.0, "is_disabled": 0, "fusion_lat": 0.0, "bike_id": "44bbad78b425fd0f167303b6c3cde08b", "rental_uris": {"ios": "https://dc.lft.to/lastmile_qr_scan", "android": "https://dc.lft.to/lastmile_qr_scan"}}, {"name": "f9f51ee25380c9a5944b0a073466baaa", "type": "electric_scooter", "lat": 38.93490716666667, "is_reserved": 0, "lon": -77.02841066666667, "fusion_lon": 0.0, "is_disabled": 0, "fusion_lat": 0.0, "bike_id": "f9f51ee25380c9a5944b0a073466baaa", "rental_uris": {"ios": "https://dc.lft.to/lastmile_qr_scan", "android": "https://dc.lft.to/lastmile_qr_scan"}}, {"name": "82ab899a860c5e7be31c3ff3c7e87d32", "type": "electric_scooter", "lat": 38.88085066666667, "is_reserved": 0, "lon": -76.9853495, "fusion_lon": 0.0, "is_disabled": 0, "fusion_lat": 0.0, "bike_id": "82ab899a860c5e7be31c3ff3c7e87d32", "rental_uris": {"ios": "https://dc.lft.to/lastmile_qr_scan", "android": "https://dc.lft.to/lastmile_qr_scan"}}, {"name": "712ee94afdc9933c0f13dd0b236502ef", "type": "electric_scooter", "lat": 38.9001855, "is_reserved": 0, "lon": -76.98701633333333, "fusion_lon": 0.0, "is_disabled": 0, "fusion_lat": 0.0, "bike_id": "712ee94afdc9933c0f13dd0b236502ef", "rental_uris": {"ios": "https://dc.lft.to/lastmile_qr_scan", "android": "https://dc.lft.to/lastmile_qr_scan"}}, {"name": "55f428198b7be7a577d3b93e6c1de1b7", "type": "electric_scooter", "lat": 38.903098, "is_reserved": 0, "lon": -77.03315666666667, "fusion_lon": 0.0, "is_disabled": 0, "fusion_lat": 0.0, "bike_id": "55f428198b7be7a577d3b93e6c1de1b7", "rental_uris": {"ios": "https://dc.lft.to/lastmile_qr_scan", "android": "https://dc.lft.to/lastmile_qr_scan"}}, {"name": "fbfa93fcc6622bbe7d66b59c46eddfb5", "type": "electric_bike", "lat": 38.8543445, "is_reserved": 0, "lon": -76.90969083333333, "fusion_lon": 0.0, "is_disabled": 0, "fusion_lat": 0.0, "bike_id": "fbfa93fcc6622bbe7d66b59c46eddfb5", "rental_uris": {"ios": "https://dc.lft.to/lastmile_qr_scan", "android": "https://dc.lft.to/lastmile_qr_scan"}}, {"name": "cb4df3331ba4207ea796b35080ae69c3", "type": "electric_scooter", "lat": 38.911947833333336, "is_reserved": 0, "lon": -77.045413, "fusion_lon": 0.0, "is_disabled": 0, "fusion_lat": 0.0, "bike_id": "cb4df3331ba4207ea796b35080ae69c3", "rental_uris": {"ios": "https://dc.lft.to/lastmile_qr_scan", "android": "https://dc.lft.to/lastmile_qr_scan"}}, {"name": "6804b67342ef8aeb8fbfdc3ebe28c8fb", "type": "electric_bike", "lat": 38.8105315, "is_reserved": 0, "lon": -77.08508533333334, "fusion_lon": 0.0, "is_disabled": 0, "fusion_lat": 0.0, "bike_id": "6804b67342ef8aeb8fbfdc3ebe28c8fb", "rental_uris": {"ios": "https://dc.lft.to/lastmile_qr_scan", "android": "https://dc.lft.to/lastmile_qr_scan"}}, {"name": "d137ff43ca891e63caf04af6c5b449af", "type": "electric_scooter", "lat": 38.88599833333333, "is_reserved": 0, "lon": -77.005659, "fusion_lon": 0.0, "is_disabled": 0, "fusion_lat": 0.0, "bike_id": "d137ff43ca891e63caf04af6c5b449af", "rental_uris": {"ios": "https://dc.lft.to/lastmile_qr_scan", "android": "https://dc.lft.to/lastmile_qr_scan"}}, {"name": "42842c0accddde03a9dac11142d220b2", "type": "electric_scooter", "lat": 38.8442745, "is_reserved": 0, "lon": -76.99778933333333, "fusion_lon": 0.0, "is_disabled": 0, "fusion_lat": 0.0, "bike_id": "42842c0accddde03a9dac11142d220b2", "rental_uris": {"ios": "https://dc.lft.to/lastmile_qr_scan", "android": "https://dc.lft.to/lastmile_qr_scan"}}, {"name": "85b846a4da296fb0d4f74a2c6b248c55", "type": "electric_bike", "lat": 38.9118035, "is_reserved": 0, "lon": -77.00278766666666, "fusion_lon": 0.0, "is_disabled": 0, "fusion_lat": 0.0, "bike_id": "85b846a4da296fb0d4f74a2c6b248c55", "rental_uris": {"ios": "https://dc.lft.to/lastmile_qr_scan", "android": "https://dc.lft.to/lastmile_qr_scan"}}, {"name": "ddf3c929f0bac85c9e037fe8f6b9c7ed", "type": "electric_scooter", "lat": 38.92906116666666, "is_reserved": 0, "lon": -77.0216345, "fusion_lon": 0.0, "is_disabled": 0, "fusion_lat": 0.0, "bike_id": "ddf3c929f0bac85c9e037fe8f6b9c7ed", "rental_uris": {"ios": "https://dc.lft.to/lastmile_qr_scan", "android": "https://dc.lft.to/lastmile_qr_scan"}}, {"name": "913f001a52b2e4ef59666d6fd3aca54f", "type": "electric_scooter", "lat": 38.90032, "is_reserved": 0, "lon": -76.99528966666666, "fusion_lon": 0.0, "is_disabled": 0, "fusion_lat": 0.0, "bike_id": "913f001a52b2e4ef59666d6fd3aca54f", "rental_uris": {"ios": "https://dc.lft.to/lastmile_qr_scan", "android": "https://dc.lft.to/lastmile_qr_scan"}}, {"name": "4996f00376e28394f3335fa1f6a88653", "type": "electric_scooter", "lat": 38.892236, "is_reserved": 0, "lon": -77.0486285, "fusion_lon": 0.0, "is_disabled": 0, "fusion_lat": 0.0, "bike_id": "4996f00376e28394f3335fa1f6a88653", "rental_uris": {"ios": "https://dc.lft.to/lastmile_qr_scan", "android": "https://dc.lft.to/lastmile_qr_scan"}}, {"name": "f658d9ff97be1d1ab92e76726f268839", "type": "electric_scooter", "lat": 38.93153616666667, "is_reserved": 0, "lon": -77.043584, "fusion_lon": 0.0, "is_disabled": 0, "fusion_lat": 0.0, "bike_id": "f658d9ff97be1d1ab92e76726f268839", "rental_uris": {"ios": "https://dc.lft.to/lastmile_qr_scan", "android": "https://dc.lft.to/lastmile_qr_scan"}}, {"name": "4cfddddb5e36d98b0a4c71777430f398", "type": "electric_scooter", "lat": 38.9441185, "is_reserved": 0, "lon": -77.05520733333333, "fusion_lon": 0.0, "is_disabled": 0, "fusion_lat": 0.0, "bike_id": "4cfddddb5e36d98b0a4c71777430f398", "rental_uris": {"ios": "https://dc.lft.to/lastmile_qr_scan", "android": "https://dc.lft.to/lastmile_qr_scan"}}, {"name": "4fed96daa20a6fbae468587108469e79", "type": "electric_scooter", "lat": 38.90136666666667, "is_reserved": 0, "lon": -77.03323783333333, "fusion_lon": 0.0, "is_disabled": 0, "fusion_lat": 0.0, "bike_id": "4fed96daa20a6fbae468587108469e79", "rental_uris": {"ios": "https://dc.lft.to/lastmile_qr_scan", "android": "https://dc.lft.to/lastmile_qr_scan"}}, {"name": "51ae9a5d99302beae754cbf99aef088b", "type": "electric_scooter", "lat": 38.917131, "is_reserved": 0, "lon": -77.01216033333333, "fusion_lon": 0.0, "is_disabled": 0, "fusion_lat": 0.0, "bike_id": "51ae9a5d99302beae754cbf99aef088b", "rental_uris": {"ios": "https://dc.lft.to/lastmile_qr_scan", "android": "https://dc.lft.to/lastmile_qr_scan"}}, {"name": "4adae233566c1b8acd26f892290b8313", "type": "electric_scooter", "lat": 38.93201616666666, "is_reserved": 0, "lon": -77.03878083333333, "fusion_lon": 0.0, "is_disabled": 0, "fusion_lat": 0.0, "bike_id": "4adae233566c1b8acd26f892290b8313", "rental_uris": {"ios": "https://dc.lft.to/lastmile_qr_scan", "android": "https://dc.lft.to/lastmile_qr_scan"}}, {"name": "57eb720cd2b6c743a83d66aa1d3c821d", "type": "electric_scooter", "lat": 38.9295115, "is_reserved": 0, "lon": -77.04402533333334, "fusion_lon": 0.0, "is_disabled": 0, "fusion_lat": 0.0, "bike_id": "57eb720cd2b6c743a83d66aa1d3c821d", "rental_uris": {"ios": "https://dc.lft.to/lastmile_qr_scan", "android": "https://dc.lft.to/lastmile_qr_scan"}}, {"name": "99fd73b0c6ee076d9f56cf61e6989790", "type": "electric_bike", "lat": 38.80222116666667, "is_reserved": 0, "lon": -77.0791475, "fusion_lon": 0.0, "is_disabled": 0, "fusion_lat": 0.0, "bike_id": "99fd73b0c6ee076d9f56cf61e6989790", "rental_uris": {"ios": "https://dc.lft.to/lastmile_qr_scan", "android": "https://dc.lft.to/lastmile_qr_scan"}}, {"name": "5f543f12e124af8a70095a3aecbd8937", "type": "electric_scooter", "lat": 38.90624066666667, "is_reserved": 0, "lon": -77.038911, "fusion_lon": 0.0, "is_disabled": 0, "fusion_lat": 0.0, "bike_id": "5f543f12e124af8a70095a3aecbd8937", "rental_uris": {"ios": "https://dc.lft.to/lastmile_qr_scan", "android": "https://dc.lft.to/lastmile_qr_scan"}}, {"name": "113915e5961030fd343554df3d7e185b", "type": "electric_bike", "lat": 38.90689183333333, "is_reserved": 0, "lon": -76.9518775, "fusion_lon": 0.0, "is_disabled": 0, "fusion_lat": 0.0, "bike_id": "113915e5961030fd343554df3d7e185b", "rental_uris": {"ios": "https://dc.lft.to/lastmile_qr_scan", "android": "https://dc.lft.to/lastmile_qr_scan"}}, {"name": "b5d6102f0029c0e0da6f2ea0e78f6523", "type": "electric_scooter", "lat": 38.9011945, "is_reserved": 0, "lon": -77.04975516666667, "fusion_lon": 0.0, "is_disabled": 0, "fusion_lat": 0.0, "bike_id": "b5d6102f0029c0e0da6f2ea0e78f6523", "rental_uris": {"ios": "https://dc.lft.to/lastmile_qr_scan", "android": "https://dc.lft.to/lastmile_qr_scan"}}, {"name": "2cceef3ed1a5b8a604dddb4e494ef114", "type": "electric_scooter", "lat": 38.8973195, "is_reserved": 0, "lon": -77.05570483333334, "fusion_lon": 0.0, "is_disabled": 0, "fusion_lat": 0.0, "bike_id": "2cceef3ed1a5b8a604dddb4e494ef114", "rental_uris": {"ios": "https://dc.lft.to/lastmile_qr_scan", "android": "https://dc.lft.to/lastmile_qr_scan"}}, {"name": "3f2a42e94d08bdb86669f096de1a3d45", "type": "electric_scooter", "lat": 38.887524, "is_reserved": 0, "lon": -77.02972566666666, "fusion_lon": 0.0, "is_disabled": 0, "fusion_lat": 0.0, "bike_id": "3f2a42e94d08bdb86669f096de1a3d45", "rental_uris": {"ios": "https://dc.lft.to/lastmile_qr_scan", "android": "https://dc.lft.to/lastmile_qr_scan"}}, {"name": "161ef8b4e9445fb6990b6dea277c7313", "type": "electric_scooter", "lat": 38.90795133333334, "is_reserved": 0, "lon": -76.99695816666667, "fusion_lon": 0.0, "is_disabled": 0, "fusion_lat": 0.0, "bike_id": "161ef8b4e9445fb6990b6dea277c7313", "rental_uris": {"ios": "https://dc.lft.to/lastmile_qr_scan", "android": "https://dc.lft.to/lastmile_qr_scan"}}, {"name": "46ec8ee35284f55683430016f9e6d926", "type": "electric_scooter", "lat": 38.90382316666667, "is_reserved": 0, "lon": -77.04496516666667, "fusion_lon": 0.0, "is_disabled": 0, "fusion_lat": 0.0, "bike_id": "46ec8ee35284f55683430016f9e6d926", "rental_uris": {"ios": "https://dc.lft.to/lastmile_qr_scan", "android": "https://dc.lft.to/lastmile_qr_scan"}}, {"name": "9cd0cb9c69f3496899d4360135daef33", "type": "electric_scooter", "lat": 38.93437266666667, "is_reserved": 0, "lon": -77.0725585, "fusion_lon": 0.0, "is_disabled": 0, "fusion_lat": 0.0, "bike_id": "9cd0cb9c69f3496899d4360135daef33", "rental_uris": {"ios": "https://dc.lft.to/lastmile_qr_scan", "android": "https://dc.lft.to/lastmile_qr_scan"}}, {"name": "af1aa9e83bea59b2cb8b7d5426028479", "type": "electric_scooter", "lat": 38.919528, "is_reserved": 0, "lon": -77.0319645, "fusion_lon": 0.0, "is_disabled": 0, "fusion_lat": 0.0, "bike_id": "af1aa9e83bea59b2cb8b7d5426028479", "rental_uris": {"ios": "https://dc.lft.to/lastmile_qr_scan", "android": "https://dc.lft.to/lastmile_qr_scan"}}, {"name": "d0448283054ebeb9c64aa2ba81fb4e00", "type": "electric_scooter", "lat": 38.89013516666667, "is_reserved": 0, "lon": -76.93732116666666, "fusion_lon": 0.0, "is_disabled": 0, "fusion_lat": 0.0, "bike_id": "d0448283054ebeb9c64aa2ba81fb4e00", "rental_uris": {"ios": "https://dc.lft.to/lastmile_qr_scan", "android": "https://dc.lft.to/lastmile_qr_scan"}}, {"name": "9f185c45d5eddeb84dbbab97fb241f6c", "type": "electric_scooter", "lat": 38.896834, "is_reserved": 0, "lon": -76.996215, "fusion_lon": 0.0, "is_disabled": 0, "fusion_lat": 0.0, "bike_id": "9f185c45d5eddeb84dbbab97fb241f6c", "rental_uris": {"ios": "https://dc.lft.to/lastmile_qr_scan", "android": "https://dc.lft.to/lastmile_qr_scan"}}, {"name": "4945b9fb6bcdda03c910aad46ad58f3a", "type": "electric_scooter", "lat": 38.9007325, "is_reserved": 0, "lon": -76.93877133333334, "fusion_lon": 0.0, "is_disabled": 0, "fusion_lat": 0.0, "bike_id": "4945b9fb6bcdda03c910aad46ad58f3a", "rental_uris": {"ios": "https://dc.lft.to/lastmile_qr_scan", "android": "https://dc.lft.to/lastmile_qr_scan"}}, {"name": "905f54581adb184c3ddc866ec4d4f7c0", "type": "electric_bike", "lat": 38.860066333333336, "is_reserved": 0, "lon": -77.05775233333334, "fusion_lon": 0.0, "is_disabled": 0, "fusion_lat": 0.0, "bike_id": "905f54581adb184c3ddc866ec4d4f7c0", "rental_uris": {"ios": "https://dc.lft.to/lastmile_qr_scan", "android": "https://dc.lft.to/lastmile_qr_scan"}}, {"name": "6a4343e495725e6cd24da6357866ff15", "type": "electric_scooter", "lat": 38.84295083333333, "is_reserved": 0, "lon": -76.9994685, "fusion_lon": 0.0, "is_disabled": 0, "fusion_lat": 0.0, "bike_id": "6a4343e495725e6cd24da6357866ff15", "rental_uris": {"ios": "https://dc.lft.to/lastmile_qr_scan", "android": "https://dc.lft.to/lastmile_qr_scan"}}, {"name": "e11bc64f8a0cf44c243caf9e6c9576c2", "type": "electric_scooter", "lat": 38.9329905, "is_reserved": 0, "lon": -77.028007, "fusion_lon": 0.0, "is_disabled": 0, "fusion_lat": 0.0, "bike_id": "e11bc64f8a0cf44c243caf9e6c9576c2", "rental_uris": {"ios": "https://dc.lft.to/lastmile_qr_scan", "android": "https://dc.lft.to/lastmile_qr_scan"}}, {"name": "481ad6f13b67cbdccf3ef337fb996766", "type": "electric_scooter", "lat": 38.903919333333334, "is_reserved": 0, "lon": -77.0420455, "fusion_lon": 0.0, "is_disabled": 0, "fusion_lat": 0.0, "bike_id": "481ad6f13b67cbdccf3ef337fb996766", "rental_uris": {"ios": "https://dc.lft.to/lastmile_qr_scan", "android": "https://dc.lft.to/lastmile_qr_scan"}}, {"name": "44ec1de1cc9b77c55af771e479551646", "type": "electric_scooter", "lat": 38.917120833333335, "is_reserved": 0, "lon": -77.03218966666667, "fusion_lon": 0.0, "is_disabled": 0, "fusion_lat": 0.0, "bike_id": "44ec1de1cc9b77c55af771e479551646", "rental_uris": {"ios": "https://dc.lft.to/lastmile_qr_scan", "android": "https://dc.lft.to/lastmile_qr_scan"}}, {"name": "21809e0661a07e13a8bf2ecc0dd18d05", "type": "electric_scooter", "lat": 38.9203255, "is_reserved": 0, "lon": -77.01116416666666, "fusion_lon": 0.0, "is_disabled": 0, "fusion_lat": 0.0, "bike_id": "21809e0661a07e13a8bf2ecc0dd18d05", "rental_uris": {"ios": "https://dc.lft.to/lastmile_qr_scan", "android": "https://dc.lft.to/lastmile_qr_scan"}}, {"name": "cd82b7a4caff4b257a09730fd75f9565", "type": "electric_scooter", "lat": 38.961073666666664, "is_reserved": 0, "lon": -77.02801366666667, "fusion_lon": 0.0, "is_disabled": 0, "fusion_lat": 0.0, "bike_id": "cd82b7a4caff4b257a09730fd75f9565", "rental_uris": {"ios": "https://dc.lft.to/lastmile_qr_scan", "android": "https://dc.lft.to/lastmile_qr_scan"}}, {"name": "843138c810d5a15dc30f91e4a76d18d9", "type": "electric_bike", "lat": 38.858006833333334, "is_reserved": 0, "lon": -76.98755316666667, "fusion_lon": 0.0, "is_disabled": 0, "fusion_lat": 0.0, "bike_id": "843138c810d5a15dc30f91e4a76d18d9", "rental_uris": {"ios": "https://dc.lft.to/lastmile_qr_scan", "android": "https://dc.lft.to/lastmile_qr_scan"}}, {"name": "c337c9586e11220cfd47f1933c932d55", "type": "electric_scooter", "lat": 38.910544, "is_reserved": 0, "lon": -77.01684716666666, "fusion_lon": 0.0, "is_disabled": 0, "fusion_lat": 0.0, "bike_id": "c337c9586e11220cfd47f1933c932d55", "rental_uris": {"ios": "https://dc.lft.to/lastmile_qr_scan", "android": "https://dc.lft.to/lastmile_qr_scan"}}, {"name": "ac27e5dbcd9952130cafa56f763bb92e", "type": "electric_scooter", "lat": 38.91978, "is_reserved": 0, "lon": -77.041452, "fusion_lon": 0.0, "is_disabled": 0, "fusion_lat": 0.0, "bike_id": "ac27e5dbcd9952130cafa56f763bb92e", "rental_uris": {"ios": "https://dc.lft.to/lastmile_qr_scan", "android": "https://dc.lft.to/lastmile_qr_scan"}}, {"name": "767625eaca706dd8aa0063bc61f7b39a", "type": "electric_scooter", "lat": 38.931111, "is_reserved": 0, "lon": -77.03840483333333, "fusion_lon": 0.0, "is_disabled": 0, "fusion_lat": 0.0, "bike_id": "767625eaca706dd8aa0063bc61f7b39a", "rental_uris": {"ios": "https://dc.lft.to/lastmile_qr_scan", "android": "https://dc.lft.to/lastmile_qr_scan"}}, {"name": "6f0f1bf0c76a96b92b3e7194e6d238d3", "type": "electric_bike", "lat": 38.970639166666665, "is_reserved": 0, "lon": -76.93617133333333, "fusion_lon": 0.0, "is_disabled": 0, "fusion_lat": 0.0, "bike_id": "6f0f1bf0c76a96b92b3e7194e6d238d3", "rental_uris": {"ios": "https://dc.lft.to/lastmile_qr_scan", "android": "https://dc.lft.to/lastmile_qr_scan"}}, {"name": "81570492fe25cb6ea8fd034ca56cfc96", "type": "electric_scooter", "lat": 38.904741666666666, "is_reserved": 0, "lon": -77.06014766666667, "fusion_lon": 0.0, "is_disabled": 0, "fusion_lat": 0.0, "bike_id": "81570492fe25cb6ea8fd034ca56cfc96", "rental_uris": {"ios": "https://dc.lft.to/lastmile_qr_scan", "android": "https://dc.lft.to/lastmile_qr_scan"}},