{"data": {"bikes": [{"type": "electric_scooter", "name": "64b4c82ac9787e3f71e6062ed6bead8f", "lat": 38.955870166666664, "fusion_lat": 0.0, "bike_id": "64b4c82ac9787e3f71e6062ed6bead8f", "is_reserved": 0, "lon": -77.070127, "is_disabled": 0, "fusion_lon": 0.0, "rental_uris": {"android": "https://dc.lft.to/lastmile_qr_scan", "ios": "https://dc.lft.to/lastmile_qr_scan"}}, {"type": "electric_scooter", "name": "1b69cb081ee3a057c1d898ecb4997b38", "lat": 38.911336, "fusion_lat": 0.0, "bike_id": "1b69cb081ee3a057c1d898ecb4997b38", "is_reserved": 0, "lon": -77.021934, "is_disabled": 0, "fusion_lon": 0.0, "rental_uris": {"android": "https://dc.lft.to/lastmile_qr_scan", "ios": "https://dc.lft.to/lastmile_qr_scan"}}, {"type": "electric_scooter", "name": "83a6a837509e29a0589e481ba4d2b761", "lat": 38.89873633333333, "fusion_lat": 0.0, "bike_id": "83a6a837509e29a0589e481ba4d2b761", "is_reserved": 0, "lon": -77.00900983333334, "is_disabled": 0, "fusion_lon": 0.0, "rental_uris": {"android": "https://dc.lft.to/lastmile_qr_scan", "ios": "https://dc.lft.to/lastmile_qr_scan"}}, {"type": "electric_scooter", "name": "ee8c8eb5adeaf7e4843ef528b5673f64", "lat": 38.91416433333333, "fusion_lat": 0.0, "bike_id": "ee8c8eb5adeaf7e4843ef528b5673f64", "is_reserved": 0, "lon": -77.02234766666666, "is_disabled": 0, "fusion_lon": 0.0, "rental_uris": {"android": "https://dc.lft.to/lastmile_qr_scan", "ios": "https://dc.lft.to/lastmile_qr_scan"}}, {"type": "electric_scooter", "name": "7127a98525d7ef9228e28b360d1dad3c", "lat": 38.887316166666665, "fusion_lat": 0.0, "bike_id": "7127a98525d7ef9228e28b360d1dad3c", "is_reserved": 0, "lon": -77.02573833333334, "is_disabled": 0, "fusion_lon": 0.0, "rental_uris": {"android": "https://dc.lft.to/lastmile_qr_scan", "ios": "https://dc.lft.to/lastmile_qr_scan"}}, {"type": "electric_scooter", "name": "902ff5d0057a8a3aecff8ccdef269a16", "lat": 38.892370666666665, "fusion_lat": 0.0, "bike_id": "902ff5d0057a8a3aecff8ccdef269a16", "is_reserved": 0, "lon": -77.021772, "is_disabled": 0, "fusion_lon": 0.0, "rental_uris": {"android": "https://dc.lft.to/lastmile_qr_scan", "ios": "https://dc.lft.to/lastmile_qr_scan"}}, {"type": "electric_scooter", "name": "4deef0baeaa5e4358c57f920a2e3ef60", "lat": 38.9014385, "fusion_lat": 0.0, "bike_id": "4deef0baeaa5e4358c57f920a2e3ef60", "is_reserved": 0, "lon": -77.03567733333334, "is_disabled": 0, "fusion_lon": 0.0, "rental_uris": {"android": "https://dc.lft.to/lastmile_qr_scan", "ios": "https://dc.lft.to/lastmile_qr_scan"}}, {"type": "electric_scooter", "name": "8ec89d20d510dc9c9616f3c6a0c20bf7", "lat": 38.866812, "fusion_lat": 0.0, "bike_id": "8ec89d20d510dc9c9616f3c6a0c20bf7", "is_reserved": 0, "lon": -76.985641, "is_disabled": 0, "fusion_lon": 0.0, "rental_uris": {"android": "https://dc.lft.to/lastmile_qr_scan", "ios": "https://dc.lft.to/lastmile_qr_scan"}}, {"type": "electric_scooter", "name": "cc19fc298f441b2809bcbac89b05644f", "lat": 38.897436, "fusion_lat": 0.0, "bike_id": "cc19fc298f441b2809bcbac89b05644f", "is_reserved": 0, "lon": -76.97967733333333, "is_disabled": 0, "fusion_lon": 0.0, "rental_uris": {"android": "https://dc.lft.to/lastmile_qr_scan", "ios": "https://dc.lft.to/lastmile_qr_scan"}}, {"type": "electric_scooter", "name": "c4180b8846af4e570a71db249515bcd0", "lat": 38.897544, "fusion_lat": 0.0, "bike_id": "c4180b8846af4e570a71db249515bcd0", "is_reserved": 0, "lon": -77.05139516666667, "is_disabled": 0, "fusion_lon": 0.0, "rental_uris": {"android": "https://dc.lft.to/lastmile_qr_scan", "ios": "https://dc.lft.to/lastmile_qr_scan"}}, {"type": "electric_scooter", "name": "bfedfb1e14d516d6d6db2b061870856a", "lat": 38.910618666666664, "fusion_lat": 0.0, "bike_id": "bfedfb1e14d516d6d6db2b061870856a", "is_reserved": 0, "lon": -77.04234316666667, "is_disabled": 0, "fusion_lon": 0.0, "rental_uris": {"android": "https://dc.lft.to/lastmile_qr_scan", "ios": "https://dc.lft.to/lastmile_qr_scan"}}, {"type": "electric_scooter", "name": "a887aad46ee6484a30ef5af31793dd0c", "lat": 38.896436333333334, "fusion_lat": 0.0, "bike_id": "a887aad46ee6484a30ef5af31793dd0c", "is_reserved": 0, "lon": -77.00917833333334, "is_disabled": 0, "fusion_lon": 0.0, "rental_uris": {"android": "https://dc.lft.to/lastmile_qr_scan", "ios": "https://dc.lft.to/lastmile_qr_scan"}}, {"type": "electric_scooter", "name": "90adc62a71c1e730168ac20ce1693400", "lat": 38.916433, "fusion_lat": 0.0, "bike_id": "90adc62a71c1e730168ac20ce1693400", "is_reserved": 0, "lon": -77.032034, "is_disabled": 0, "fusion_lon": 0.0, "rental_uris": {"android": "https://dc.lft.to/lastmile_qr_scan", "ios": "https://dc.lft.to/lastmile_qr_scan"}}, {"type": "electric_scooter", "name": "798744d65cea5cfef7217f7191761420", "lat": 38.932639, "fusion_lat": 0.0, "bike_id": "798744d65cea5cfef7217f7191761420", "is_reserved": 0, "lon": -77.03270666666667, "is_disabled": 0, "fusion_lon": 0.0, "rental_uris": {"android": "https://dc.lft.to/lastmile_qr_scan", "ios": "https://dc.lft.to/lastmile_qr_scan"}}, {"type": "electric_scooter", "name": "7a176df56d899204c678e05f4f6230a5", "lat": 38.89219933333333, "fusion_lat": 0.0, "bike_id": "7a176df56d899204c678e05f4f6230a5", "is_reserved": 0, "lon": -77.04514583333334, "is_disabled": 0, "fusion_lon": 0.0, "rental_uris": {"android": "https://dc.lft.to/lastmile_qr_scan", "ios": "https://dc.lft.to/lastmile_qr_scan"}}, {"type": "electric_scooter", "name": "23c049e6e4cd3c6d3009b2fa6738eb5d", "lat": 38.92735883333334, "fusion_lat": 0.0, "bike_id": "23c049e6e4cd3c6d3009b2fa6738eb5d", "is_reserved": 0, "lon": -77.0343005, "is_disabled": 0, "fusion_lon": 0.0, "rental_uris": {"android": "https://dc.lft.to/lastmile_qr_scan", "ios": "https://dc.lft.to/lastmile_qr_scan"}}, {"type": "electric_scooter", "name": "dbe97b8f2e74c0fc55deedcb733b0a94", "lat": 38.907859, "fusion_lat": 0.0, "bike_id": "dbe97b8f2e74c0fc55deedcb733b0a94", "is_reserved": 0, "lon": -77.03802083333333, "is_disabled": 0, "fusion_lon": 0.0, "rental_uris": {"android": "https://dc.lft.to/lastmile_qr_scan", "ios": "https://dc.lft.to/lastmile_qr_scan"}}, {"type": "electric_scooter", "name": "aa85b86c2f675f1dc281a67a48b4eb68", "lat": 38.927708833333334, "fusion_lat": 0.0, "bike_id": "aa85b86c2f675f1dc281a67a48b4eb68", "is_reserved": 0, "lon": -77.02734766666667, "is_disabled": 0, "fusion_lon": 0.0, "rental_uris": {"android": "https://dc.lft.to/lastmile_qr_scan", "ios": "https://dc.lft.to/lastmile_qr_scan"}}, {"type": "electric_scooter", "name": "54576e75c709f85997c22e1e7afa62b9", "lat": 38.919891166666666, "fusion_lat": 0.0, "bike_id": "54576e75c709f85997c22e1e7afa62b9", "is_reserved": 0, "lon": -77.02463766666666, "is_disabled": 0, "fusion_lon": 0.0, "rental_uris": {"android": "https://dc.lft.to/lastmile_qr_scan", "ios": "https://dc.lft.to/lastmile_qr_scan"}}, {"type": "electric_scooter", "name": "190b614f6af88149648d0b85fff655b1", "lat": 38.90726166666666, "fusion_lat": 0.0, "bike_id": "190b614f6af88149648d0b85fff655b1", "is_reserved": 0, "lon": -77.02825316666667, "is_disabled": 0, "fusion_lon": 0.0, "rental_uris": {"android": "https://dc.lft.to/lastmile_qr_scan", "ios": "https://dc.lft.to/lastmile_qr_scan"}}, {"type": "electric_scooter", "name": "9d4ef2f547a20354dddbaaea6a7f97ce", "lat": 38.90527866666667, "fusion_lat": 0.0, "bike_id": "9d4ef2f547a20354dddbaaea6a7f97ce", "is_reserved": 0, "lon": -76.99634966666666, "is_disabled": 0, "fusion_lon": 0.0, "rental_uris": {"android": "https://dc.lft.to/lastmile_qr_scan", "ios": "https://dc.lft.to/lastmile_qr_scan"}}, {"type": "electric_scooter", "name": "87ffe65f8924ee474cc4818b6c93966b", "lat": 38.9101305, "fusion_lat": 0.0, "bike_id": "87ffe65f8924ee474cc4818b6c93966b", "is_reserved": 0, "lon": -77.02197633333333, "is_disabled": 0, "fusion_lon": 0.0, "rental_uris": {"android": "https://dc.lft.to/lastmile_qr_scan", "ios": "https://dc.lft.to/lastmile_qr_scan"}}, {"type": "electric_scooter", "name": "484427bc1189b6b043238f08b6366134", "lat": 38.924691833333334, "fusion_lat": 0.0, "bike_id": "484427bc1189b6b043238f08b6366134", "is_reserved": 0, "lon": -77.0226635, "is_disabled": 0, "fusion_lon": 0.0, "rental_uris": {"android": "https://dc.lft.to/lastmile_qr_scan", "ios": "https://dc.lft.to/lastmile_qr_scan"}}, {"type": "electric_scooter", "name": "f54e27f4017e92457ea506983488b4a8", "lat": 38.90984066666667, "fusion_lat": 0.0, "bike_id": "f54e27f4017e92457ea506983488b4a8", "is_reserved": 0, "lon": -77.03200266666667, "is_disabled": 0, "fusion_lon": 0.0, "rental_uris": {"android": "https://dc.lft.to/lastmile_qr_scan", "ios": "https://dc.lft.to/lastmile_qr_scan"}}, {"type": "electric_scooter", "name": "520a21c835f574efa6ff19b30a6875d4", "lat": 38.925701833333335, "fusion_lat": 0.0, "bike_id": "520a21c835f574efa6ff19b30a6875d4", "is_reserved": 0, "lon": -77.03637616666667, "is_disabled": 0, "fusion_lon": 0.0, "rental_uris": {"android": "https://dc.lft.to/lastmile_qr_scan", "ios": "https://dc.lft.to/lastmile_qr_scan"}}, {"type": "electric_scooter", "name": "4ae54a8d9a5e40e45e627fc701e0f9e3", "lat": 38.9040505, "fusion_lat": 0.0, "bike_id": "4ae54a8d9a5e40e45e627fc701e0f9e3", "is_reserved": 0, "lon": -77.053314, "is_disabled": 0, "fusion_lon": 0.0, "rental_uris": {"android": "https://dc.lft.to/lastmile_qr_scan", "ios": "https://dc.lft.to/lastmile_qr_scan"}}, {"type": "electric_scooter", "name": "7de4c90e562ae0596f33f001ceab6da7", "lat": 38.921422166666666, "fusion_lat": 0.0, "bike_id": "7de4c90e562ae0596f33f001ceab6da7", "is_reserved": 0, "lon": -77.03498833333333, "is_disabled": 0, "fusion_lon": 0.0, "rental_uris": {"android": "https://dc.lft.to/lastmile_qr_scan", "ios": "https://dc.lft.to/lastmile_qr_scan"}}, {"type": "electric_scooter", "name": "9e6669045b4812a3878696b1106803b3", "lat": 38.90146283333333, "fusion_lat": 0.0, "bike_id": "9e6669045b4812a3878696b1106803b3", "is_reserved": 0, "lon": -77.03568066666666, "is_disabled": 0, "fusion_lon": 0.0, "rental_uris": {"android": "https://dc.lft.to/lastmile_qr_scan", "ios": "https://dc.lft.to/lastmile_qr_scan"}}, {"type": "electric_scooter", "name": "5671840227f085a83be28272c63e1482", "lat": 38.908680833333335, "fusion_lat": 0.0, "bike_id": "5671840227f085a83be28272c63e1482", "is_reserved": 0, "lon": -76.933373, "is_disabled": 0, "fusion_lon": 0.0, "rental_uris": {"android": "https://dc.lft.to/lastmile_qr_scan", "ios": "https://dc.lft.to/lastmile_qr_scan"}}, {"type": "electric_scooter", "name": "494d1d2ef2f9ad02651e427255b96cad", "lat": 38.92358016666667, "fusion_lat": 0.0, "bike_id": "494d1d2ef2f9ad02651e427255b96cad", "is_reserved": 0, "lon": -77.05029216666667, "is_disabled": 0, "fusion_lon": 0.0, "rental_uris": {"android": "https://dc.lft.to/lastmile_qr_scan", "ios": "https://dc.lft.to/lastmile_qr_scan"}}, {"type": "electric_scooter", "name": "86f939a737cd1b6bfa2bce55fa37497b", "lat": 38.920623, "fusion_lat": 0.0, "bike_id": "86f939a737cd1b6bfa2bce55fa37497b", "is_reserved": 0, "lon": -76.9818825, "is_disabled": 0, "fusion_lon": 0.0, "rental_uris": {"android": "https://dc.lft.to/lastmile_qr_scan", "ios": "https://dc.lft.to/lastmile_qr_scan"}}, {"type": "electric_scooter", "name": "1db7c706c849cc26961756614b6c7c8b", "lat": 38.86682666666667, "fusion_lat": 0.0, "bike_id": "1db7c706c849cc26961756614b6c7c8b", "is_reserved": 0, "lon": -76.985625, "is_disabled": 0, "fusion_lon": 0.0, "rental_uris": {"android": "https://dc.lft.to/lastmile_qr_scan", "ios": "https://dc.lft.to/lastmile_qr_scan"}}, {"type": "electric_scooter", "name": "b9265eade73a2f0769f39cc41d0956ef", "lat": 38.92007266666667, "fusion_lat": 0.0, "bike_id": "b9265eade73a2f0769f39cc41d0956ef", "is_reserved": 0, "lon": -77.02465816666667, "is_disabled": 0, "fusion_lon": 0.0, "rental_uris": {"android": "https://dc.lft.to/lastmile_qr_scan", "ios": "https://dc.lft.to/lastmile_qr_scan"}}, {"type": "electric_scooter", "name": "ddb3d49fbbc125c5a6c30d0e00ab79e8", "lat": 38.89225966666667, "fusion_lat": 0.0, "bike_id": "ddb3d49fbbc125c5a6c30d0e00ab79e8", "is_reserved": 0, "lon": -77.0220625, "is_disabled": 0, "fusion_lon": 0.0, "rental_uris": {"android": "https://dc.lft.to/lastmile_qr_scan", "ios": "https://dc.lft.to/lastmile_qr_scan"}}, {"type": "electric_bike", "name": "157be0d3a99e48df8d70407406661bc0", "lat": 38.99100333333333, "fusion_lat": 0.0, "bike_id": "157be0d3a99e48df8d70407406661bc0", "is_reserved": 0, "lon": -76.9937285, "is_disabled": 0, "fusion_lon": 0.0, "rental_uris": {"android": "https://dc.lft.to/lastmile_qr_scan", "ios": "https://dc.lft.to/lastmile_qr_scan"}}, {"type": "electric_bike", "name": "904988e8330144085b7e2cd10f1e1105", "lat": 38.93692033333333, "fusion_lat": 0.0, "bike_id": "904988e8330144085b7e2cd10f1e1105", "is_reserved": 0, "lon": -76.99056283333333, "is_disabled": 0, "fusion_lon": 0.0, "rental_uris": {"android": "https://dc.lft.to/lastmile_qr_scan", "ios": "https://dc.lft.to/lastmile_qr_scan"}}, {"type": "electric_scooter", "name": "f918b642fd4af53ad01566d4761c7ef5", "lat": 38.8768235, "fusion_lat": 0.0, "bike_id": "f918b642fd4af53ad01566d4761c7ef5", "is_reserved": 0, "lon": -77.00404533333334, "is_disabled": 0, "fusion_lon": 0.0, "rental_uris": {"android": "https://dc.lft.to/lastmile_qr_scan", "ios": "https://dc.lft.to/lastmile_qr_scan"}}, {"type": "electric_scooter", "name": "f3b54f7e854fbf02a81ba65b066630f5", "lat": 38.892200833333334, "fusion_lat": 0.0, "bike_id": "f3b54f7e854fbf02a81ba65b066630f5", "is_reserved": 0, "lon": -77.025055, "is_disabled": 0, "fusion_lon": 0.0, "rental_uris": {"android": "https://dc.lft.to/lastmile_qr_scan", "ios": "https://dc.lft.to/lastmile_qr_scan"}}, {"type": "electric_bike", "name": "0af7e954059a04792fe8c3cc43722796", "lat": 38.9825445, "fusion_lat": 0.0, "bike_id": "0af7e954059a04792fe8c3cc43722796", "is_reserved": 0, "lon": -77.02588, "is_disabled": 0, "fusion_lon": 0.0, "rental_uris": {"android": "https://dc.lft.to/lastmile_qr_scan", "ios": "https://dc.lft.to/lastmile_qr_scan"}}, {"type": "electric_scooter", "name": "29555b255fb2468487d4dbd4b36381a4", "lat": 38.887236, "fusion_lat": 0.0, "bike_id": "29555b255fb2468487d4dbd4b36381a4", "is_reserved": 0, "lon": -76.99604633333334, "is_disabled": 0, "fusion_lon": 0.0, "rental_uris": {"android": "https://dc.lft.to/lastmile_qr_scan", "ios": "https://dc.lft.to/lastmile_qr_scan"}}, {"type": "electric_scooter", "name": "9ce84ffc04435e2bff0e3a668e28a612", "lat": 38.938785333333335, "fusion_lat": 0.0, "bike_id": "9ce84ffc04435e2bff0e3a668e28a612", "is_reserved": 0, "lon": -77.024789, "is_disabled": 0, "fusion_lon": 0.0, "rental_uris": {"android": "https://dc.lft.to/lastmile_qr_scan", "ios": "https://dc.lft.to/lastmile_qr_scan"}}, {"type": "electric_scooter", "name": "e2e6fbd99bd76f041371ca6c165d956b", "lat": 38.938601, "fusion_lat": 0.0, "bike_id": "e2e6fbd99bd76f041371ca6c165d956b", "is_reserved": 0, "lon": -77.027882, "is_disabled": 0, "fusion_lon": 0.0, "rental_uris": {"android": "https://dc.lft.to/lastmile_qr_scan", "ios": "https://dc.lft.to/lastmile_qr_scan"}}, {"type": "electric_scooter", "name": "ab31711855e4d7e3a275ad6dec619f51", "lat": 38.948139833333336, "fusion_lat": 0.0, "bike_id": "ab31711855e4d7e3a275ad6dec619f51", "is_reserved": 0, "lon": -77.0214185, "is_disabled": 0, "fusion_lon": 0.0, "rental_uris": {"android": "https://dc.lft.to/lastmile_qr_scan", "ios": "https://dc.lft.to/lastmile_qr_scan"}}, {"type": "electric_scooter", "name": "5fa47300df5ad1a9add5bbe2181f480f", "lat": 38.89936816666667, "fusion_lat": 0.0, "bike_id": "5fa47300df5ad1a9add5bbe2181f480f", "is_reserved": 0, "lon": -76.9972705, "is_disabled": 0, "fusion_lon": 0.0, "rental_uris": {"android": "https://dc.lft.to/lastmile_qr_scan", "ios": "https://dc.lft.to/lastmile_qr_scan"}}, {"type": "electric_scooter", "name": "087dbcde7b02e164d72f62a879246e55", "lat": 38.93427916666667, "fusion_lat": 0.0, "bike_id": "087dbcde7b02e164d72f62a879246e55", "is_reserved": 0, "lon": -77.04000266666667, "is_disabled": 0, "fusion_lon": 0.0, "rental_uris": {"android": "https://dc.lft.to/lastmile_qr_scan", "ios": "https://dc.lft.to/lastmile_qr_scan"}}, {"type": "electric_scooter", "name": "930e142a67cdc2afb89859514416179b", "lat": 38.8983625, "fusion_lat": 0.0, "bike_id": "930e142a67cdc2afb89859514416179b", "is_reserved": 0, "lon": -76.94633, "is_disabled": 0, "fusion_lon": 0.0, "rental_uris": {"android": "https://dc.lft.to/lastmile_qr_scan", "ios": "https://dc.lft.to/lastmile_qr_scan"}}, {"type": "electric_scooter", "name": "57232ede1e77fdde5255e4394e4a01af", "lat": 38.9353885, "fusion_lat": 0.0, "bike_id": "57232ede1e77fdde5255e4394e4a01af", "is_reserved": 0, "lon": -77.03092633333333, "is_disabled": 0, "fusion_lon": 0.0, "rental_uris": {"android": "https://dc.lft.to/lastmile_qr_scan", "ios": "https://dc.lft.to/lastmile_qr_scan"}}, {"type": "electric_scooter", "name": "aab710fb8fec820c10b6fac4b5814f14", "lat": 38.90718966666667, "fusion_lat": 0.0, "bike_id": "aab710fb8fec820c10b6fac4b5814f14", "is_reserved": 0, "lon": -77.01912833333333, "is_disabled": 0, "fusion_lon": 0.0, "rental_uris": {"android": "https://dc.lft.to/lastmile_qr_scan", "ios": "https://dc.lft.to/lastmile_qr_scan"}}, {"type": "electric_bike", "name": "9b631d5444a1f44407aa54f5536b7cec", "lat": 38.8525045, "fusion_lat": 0.0, "bike_id": "9b631d5444a1f44407aa54f5536b7cec", "is_reserved": 0, "lon": -77.10788683333334, "is_disabled": 0, "fusion_lon": 0.0, "rental_uris": {"android": "https://dc.lft.to/lastmile_qr_scan", "ios": "https://dc.lft.to/lastmile_qr_scan"}}, {"type": "electric_bike", "name": "fe7fc19bfadf68a62649b353b6fad519", "lat": 38.907724, "fusion_lat": 0.0, "bike_id": "fe7fc19bfadf68a62649b353b6fad519", "is_reserved": 0, "lon": -77.03763033333334, "is_disabled": 0, "fusion_lon": 0.0, "rental_uris": {"android": "https://dc.lft.to/lastmile_qr_scan", "ios": "https://dc.lft.to/lastmile_qr_scan"}}, {"type": "electric_bike", "name": "fccbb2d40cb9f947940be3c616506d12", "lat": 38.82176283333333, "fusion_lat": 0.0, "bike_id": "fccbb2d40cb9f947940be3c616506d12", "is_reserved": 0, "lon": -76.99512466666667, "is_disabled": 0, "fusion_lon": 0.0, "rental_uris": {"android": "https://dc.lft.to/lastmile_qr_scan", "ios": "https://dc.lft.to/lastmile_qr_scan"}}, {"type": "electric_scooter", "name": "53acef52b484cfb1da8179c818df9763", "lat": 38.8874505, "fusion_lat": 0.0, "bike_id": "53acef52b484cfb1da8179c818df9763", "is_reserved": 0, "lon": -77.02274416666667, "is_disabled": 0, "fusion_lon": 0.0, "rental_uris": {"android": "https://dc.lft.to/lastmile_qr_scan", "ios": "https://dc.lft.to/lastmile_qr_scan"}}, {"type": "electric_scooter", "name": "1183c8bc61b5c25a12a1c9c838912529", "lat": 38.918162833333334, "fusion_lat": 0.0, "bike_id": "1183c8bc61b5c25a12a1c9c838912529", "is_reserved": 0, "lon": -77.02478516666666, "is_disabled": 0, "fusion_lon": 0.0, "rental_uris": {"android": "https://dc.lft.to/lastmile_qr_scan", "ios": "https://dc.lft.to/lastmile_qr_scan"}}, {"type": "electric_scooter", "name": "b835a95c5234eb5cbcf6f79d1739019b", "lat": 38.90565733333333, "fusion_lat": 0.0, "bike_id": "b835a95c5234eb5cbcf6f79d1739019b", "is_reserved": 0, "lon": -77.0404125, "is_disabled": 0, "fusion_lon": 0.0, "rental_uris": {"android": "https://dc.lft.to/lastmile_qr_scan", "ios": "https://dc.lft.to/lastmile_qr_scan"}}, {"type": "electric_scooter", "name": "d91dab1768464eec4a6209906beb3b9c", "lat": 38.90734283333333, "fusion_lat": 0.0, "bike_id": "d91dab1768464eec4a6209906beb3b9c", "is_reserved": 0, "lon": -77.00926383333334, "is_disabled": 0, "fusion_lon": 0.0, "rental_uris": {"android": "https://dc.lft.to/lastmile_qr_scan", "ios": "https://dc.lft.to/lastmile_qr_scan"}}, {"type": "electric_scooter", "name": "36fb1d13b28ed2a99a46864f836d4af8", "lat": 38.881140333333335, "fusion_lat": 0.0, "bike_id": "36fb1d13b28ed2a99a46864f836d4af8", "is_reserved": 0, "lon": -77.02636116666666, "is_disabled": 0, "fusion_lon": 0.0, "rental_uris": {"android": "https://dc.lft.to/lastmile_qr_scan", "ios": "https://dc.lft.to/lastmile_qr_scan"}}, {"type": "electric_scooter", "name": "257e9006b358af64c3790a58b3215eec", "lat": 38.902839166666666, "fusion_lat": 0.0, "bike_id": "257e9006b358af64c3790a58b3215eec", "is_reserved": 0, "lon": -77.04467466666667, "is_disabled": 0, "fusion_lon": 0.0, "rental_uris": {"android": "https://dc.lft.to/lastmile_qr_scan", "ios": "https://dc.lft.to/lastmile_qr_scan"}}, {"type": "electric_scooter", "name": "1999f7b56f522ec5f7663968c5b926f6", "lat": 38.918128833333334, "fusion_lat": 0.0, "bike_id": "1999f7b56f522ec5f7663968c5b926f6", "is_reserved": 0, "lon": -77.03688316666667, "is_disabled": 0, "fusion_lon": 0.0, "rental_uris": {"android": "https://dc.lft.to/lastmile_qr_scan", "ios": "https://dc.lft.to/lastmile_qr_scan"}}, {"type": "electric_scooter", "name": "e73290e85f44513d80c3d4bd4c8a1f93", "lat": 38.866919833333334, "fusion_lat": 0.0, "bike_id": "e73290e85f44513d80c3d4bd4c8a1f93", "is_reserved": 0, "lon": -76.985409, "is_disabled": 0, "fusion_lon": 0.0, "rental_uris": {"android": "https://dc.lft.to/lastmile_qr_scan", "ios": "https://dc.lft.to/lastmile_qr_scan"}}, {"type": "electric_scooter", "name": "6d254b471d2c3a9a85c0cc6ef5927170", "lat": 38.924128333333336, "fusion_lat": 0.0, "bike_id": "6d254b471d2c3a9a85c0cc6ef5927170", "is_reserved": 0, "lon": -77.02001733333333, "is_disabled": 0, "fusion_lon": 0.0, "rental_uris": {"android": "https://dc.lft.to/lastmile_qr_scan", "ios": "https://dc.lft.to/lastmile_qr_scan"}}, {"type": "electric_scooter", "name": "3fac747ae781b465b2d68005ca02f5ac", "lat": 38.903760166666665, "fusion_lat": 0.0, "bike_id": "3fac747ae781b465b2d68005ca02f5ac", "is_reserved": 0, "lon": -77.044851, "is_disabled": 0, "fusion_lon": 0.0, "rental_uris": {"android": "https://dc.lft.to/lastmile_qr_scan", "ios": "https://dc.lft.to/lastmile_qr_scan"}}, {"type": "electric_scooter", "name": "79e1c90ce4e17ac6d2f29e355873d48e", "lat": 38.907272, "fusion_lat": 0.0, "bike_id": "79e1c90ce4e17ac6d2f29e355873d48e", "is_reserved": 0, "lon": -77.02493283333334, "is_disabled": 0, "fusion_lon": 0.0, "rental_uris": {"android": "https://dc.lft.to/lastmile_qr_scan", "ios": "https://dc.lft.to/lastmile_qr_scan"}}, {"type": "electric_scooter", "name": "3752662b2e9dbb821600c1299cd60496", "lat": 38.881253, "fusion_lat": 0.0, "bike_id": "3752662b2e9dbb821600c1299cd60496", "is_reserved": 0, "lon": -77.0164845, "is_disabled": 0, "fusion_lon": 0.0, "rental_uris": {"android": "https://dc.lft.to/lastmile_qr_scan", "ios": "https://dc.lft.to/lastmile_qr_scan"}}, {"type": "electric_scooter", "name": "d1b53011106bedb25b458150d5ac9da1", "lat": 38.94165683333333, "fusion_lat": 0.0, "bike_id": "d1b53011106bedb25b458150d5ac9da1", "is_reserved": 0, "lon": -77.02556066666666, "is_disabled": 0, "fusion_lon": 0.0, "rental_uris": {"android": "https://dc.lft.to/lastmile_qr_scan", "ios": "https://dc.lft.to/lastmile_qr_scan"}}, {"type": "electric_scooter", "name": "a4ecf36b82dd3714eb0342a3aadc4421", "lat": 38.934824666666664, "fusion_lat": 0.0, "bike_id": "a4ecf36b82dd3714eb0342a3aadc4421", "is_reserved": 0, "lon": -77.0814855, "is_disabled": 0, "fusion_lon": 0.0, "rental_uris": {"android": "https://dc.lft.to/lastmile_qr_scan", "ios": "https://dc.lft.to/lastmile_qr_scan"}}, {"type": "electric_scooter", "name": "8dd193f3c10c1929c35adcbb7930d77f", "lat": 38.899153, "fusion_lat": 0.0, "bike_id": "8dd193f3c10c1929c35adcbb7930d77f", "is_reserved": 0, "lon": -77.028276, "is_disabled": 0, "fusion_lon": 0.0, "rental_uris": {"android": "https://dc.lft.to/lastmile_qr_scan", "ios": "https://dc.lft.to/lastmile_qr_scan"}}, {"type": "electric_scooter", "name": "a1021eff06deeb9e27d9d70f32d4385e", "lat": 38.90704183333333, "fusion_lat": 0.0, "bike_id": "a1021eff06deeb9e27d9d70f32d4385e", "is_reserved": 0, "lon": -77.002136, "is_disabled": 0, "fusion_lon": 0.0, "rental_uris": {"android": "https://dc.lft.to/lastmile_qr_scan", "ios": "https://dc.lft.to/lastmile_qr_scan"}}, {"type": "electric_scooter", "name": "13fc8b9da7d007224081cfc164a698a0", "lat": 38.919250166666664, "fusion_lat": 0.0, "bike_id": "13fc8b9da7d007224081cfc164a698a0", "is_reserved": 0, "lon": -77.03416416666667, "is_disabled": 0, "fusion_lon": 0.0, "rental_uris": {"android": "https://dc.lft.to/lastmile_qr_scan", "ios": "https://dc.lft.to/lastmile_qr_scan"}}, {"type": "electric_scooter", "name": "c0dcb9e3e39fc384e7e57bb0f275742e", "lat": 38.90373616666667, "fusion_lat": 0.0, "bike_id": "c0dcb9e3e39fc384e7e57bb0f275742e", "is_reserved": 0, "lon": -77.0366255, "is_disabled": 0, "fusion_lon": 0.0, "rental_uris": {"android": "https://dc.lft.to/lastmile_qr_scan", "ios": "https://dc.lft.to/lastmile_qr_scan"}}, {"type": "electric_scooter", "name": "054b3294d999951088e682c12aa3cb3a", "lat": 38.904131, "fusion_lat": 0.0, "bike_id": "054b3294d999951088e682c12aa3cb3a", "is_reserved": 0, "lon": -76.97327266666667, "is_disabled": 0, "fusion_lon": 0.0, "rental_uris": {"android": "https://dc.lft.to/lastmile_qr_scan", "ios": "https://dc.lft.to/lastmile_qr_scan"}}, {"type": "electric_scooter", "name": "508f3df4183feed6c2e4dd56b250c4a3", "lat": 38.9183275, "fusion_lat": 0.0, "bike_id": "508f3df4183feed6c2e4dd56b250c4a3", "is_reserved": 0, "lon": -77.03508083333334, "is_disabled": 0, "fusion_lon": 0.0, "rental_uris": {"android": "https://dc.lft.to/lastmile_qr_scan", "ios": "https://dc.lft.to/lastmile_qr_scan"}}, {"type": "electric_scooter", "name": "a0d6ff602c9e7f7e3a329132bd85f3a6", "lat": 38.90267983333333, "fusion_lat": 0.0, "bike_id": "a0d6ff602c9e7f7e3a329132bd85f3a6", "is_reserved": 0, "lon": -77.0396045, "is_disabled": 0, "fusion_lon": 0.0, "rental_uris": {"android": "https://dc.lft.to/lastmile_qr_scan", "ios": "https://dc.lft.to/lastmile_qr_scan"}}, {"type": "electric_scooter", "name": "de0e439ae5b4d9952b6f40f37d4b9bea", "lat": 38.906587333333334, "fusion_lat": 0.0, "bike_id": "de0e439ae5b4d9952b6f40f37d4b9bea", "is_reserved": 0, "lon": -77.03871966666667, "is_disabled": 0, "fusion_lon": 0.0, "rental_uris": {"android": "https://dc.lft.to/lastmile_qr_scan", "ios": "https://dc.lft.to/lastmile_qr_scan"}}, {"type": "electric_scooter", "name": "f6cffe6c362baf243033807c727ffd51", "lat": 38.910603333333334, "fusion_lat": 0.0, "bike_id": "f6cffe6c362baf243033807c727ffd51", "is_reserved": 0, "lon": -77.00457, "is_disabled": 0, "fusion_lon": 0.0, "rental_uris": {"android": "https://dc.lft.to/lastmile_qr_scan", "ios": "https://dc.lft.to/lastmile_qr_scan"}}, {"type": "electric_scooter", "name": "bf716cb2e845a0ea6b9afb5f81065795", "lat": 38.9222635, "fusion_lat": 0.0, "bike_id": "bf716cb2e845a0ea6b9afb5f81065795", "is_reserved": 0, "lon": -77.01818583333333, "is_disabled": 0, "fusion_lon": 0.0, "rental_uris": {"android": "https://dc.lft.to/lastmile_qr_scan", "ios": "https://dc.lft.to/lastmile_qr_scan"}}, {"type": "electric_scooter", "name": "9889fdbc294af79627041a95681b5c93", "lat": 38.92350866666666, "fusion_lat": 0.0, "bike_id": "9889fdbc294af79627041a95681b5c93", "is_reserved": 0, "lon": -77.04146966666667, "is_disabled": 0, "fusion_lon": 0.0, "rental_uris": {"android": "https://dc.lft.to/lastmile_qr_scan", "ios": "https://dc.lft.to/lastmile_qr_scan"}}, {"type": "electric_scooter", "name": "ee9b215fa95bd5674d2e45ff25c7acae", "lat": 38.9085235, "fusion_lat": 0.0, "bike_id": "ee9b215fa95bd5674d2e45ff25c7acae", "is_reserved": 0, "lon": -77.019699, "is_disabled": 0, "fusion_lon": 0.0, "rental_uris": {"android": "https://dc.lft.to/lastmile_qr_scan", "ios": "https://dc.lft.to/lastmile_qr_scan"}}, {"type": "electric_scooter", "name": "61b382873091f0fd3ef3daf41c77ce12", "lat": 38.87781283333333, "fusion_lat": 0.0, "bike_id": "61b382873091f0fd3ef3daf41c77ce12", "is_reserved": 0, "lon": -76.99407233333334, "is_disabled": 0, "fusion_lon": 0.0, "rental_uris": {"android": "https://dc.lft.to/lastmile_qr_scan", "ios": "https://dc.lft.to/lastmile_qr_scan"}}, {"type": "electric_scooter", "name": "5bc1d0f4bcf89361e9aa75d838ec74c8", "lat": 38.920480166666664, "fusion_lat": 0.0, "bike_id": "5bc1d0f4bcf89361e9aa75d838ec74c8", "is_reserved": 0, "lon": -77.0344415, "is_disabled": 0, "fusion_lon": 0.0, "rental_uris": {"android": "https://dc.lft.to/lastmile_qr_scan", "ios": "https://dc.lft.to/lastmile_qr_scan"}}, {"type": "electric_scooter", "name": "1bbef067798de674cb4190fbab0a794a", "lat": 38.892321833333334, "fusion_lat": 0.0, "bike_id": "1bbef067798de674cb4190fbab0a794a", "is_reserved": 0, "lon": -77.03209233333334, "is_disabled": 0, "fusion_lon": 0.0, "rental_uris": {"android": "https://dc.lft.to/lastmile_qr_scan", "ios": "https://dc.lft.to/lastmile_qr_scan"}}, {"type": "electric_scooter", "name": "922187e1c7839e9dfb8d8fd0fc00876f", "lat": 38.919305666666666, "fusion_lat": 0.0, "bike_id": "922187e1c7839e9dfb8d8fd0fc00876f", "is_reserved": 0, "lon": -77.03220383333333, "is_disabled": 0, "fusion_lon": 0.0, "rental_uris": {"android": "https://dc.lft.to/lastmile_qr_scan", "ios": "https://dc.lft.to/lastmile_qr_scan"}}, {"type": "electric_scooter", "name": "fd7b02fb4a105483a6486b5814fa216e", "lat": 38.93187133333333, "fusion_lat": 0.0, "bike_id": "fd7b02fb4a105483a6486b5814fa216e", "is_reserved": 0, "lon": -77.03104416666666, "is_disabled": 0, "fusion_lon": 0.0, "rental_uris": {"android": "https://dc.lft.to/lastmile_qr_scan", "ios": "https://dc.lft.to/lastmile_qr_scan"}}, {"type": "electric_scooter", "name": "b04298192faf3092eb4d4549680cd475", "lat": 38.898461, "fusion_lat": 0.0, "bike_id": "b04298192faf3092eb4d4549680cd475", "is_reserved": 0, "lon": -77.03280466666666, "is_disabled": 0, "fusion_lon": 0.0, "rental_uris": {"android": "https://dc.lft.to/lastmile_qr_scan", "ios": "https://dc.lft.to/lastmile_qr_scan"}}, {"type": "electric_scooter", "name": "f40b7dd15b3ffeb599efbb9bc78d1a21", "lat": 38.89728816666667, "fusion_lat": 0.0, "bike_id": "f40b7dd15b3ffeb599efbb9bc78d1a21", "is_reserved": 0, "lon": -76.99472983333334, "is_disabled": 0, "fusion_lon": 0.0, "rental_uris": {"android": "https://dc.lft.to/lastmile_qr_scan", "ios": "https://dc.lft.to/lastmile_qr_scan"}}, {"type": "electric_scooter", "name": "e1365fbb35189a95bc21cfb49663e596", "lat": 38.914154833333335, "fusion_lat": 0.0, "bike_id": "e1365fbb35189a95bc21cfb49663e596", "is_reserved": 0, "lon": -77.02233066666666, "is_disabled": 0, "fusion_lon": 0.0, "rental_uris": {"android": "https://dc.lft.to/lastmile_qr_scan", "ios": "https://dc.lft.to/lastmile_qr_scan"}}, {"type": "electric_bike", "name": "7c6156e72ca04e5528f0fc94d03f9a28", "lat": 38.95311233333334, "fusion_lat": 0.0, "bike_id": "7c6156e72ca04e5528f0fc94d03f9a28", "is_reserved": 0, "lon": -76.997652, "is_disabled": 0, "fusion_lon": 0.0, "rental_uris": {"android": "https://dc.lft.to/lastmile_qr_scan", "ios": "https://dc.lft.to/lastmile_qr_scan"}}, {"type": "electric_scooter", "name": "7befe8305f82b428dd5aff2cb1a292b8", "lat": 38.9030685, "fusion_lat": 0.0, "bike_id": "7befe8305f82b428dd5aff2cb1a292b8", "is_reserved": 0, "lon": -77.04340833333333, "is_disabled": 0, "fusion_lon": 0.0, "rental_uris": {"android": "https://dc.lft.to/lastmile_qr_scan", "ios": "https://dc.lft.to/lastmile_qr_scan"}}, {"type": "electric_scooter", "name": "3777d8a5e2e3307ad1e71f9fecc24d64", "lat": 38.903634333333336, "fusion_lat": 0.0, "bike_id": "3777d8a5e2e3307ad1e71f9fecc24d64", "is_reserved": 0, "lon": -77.03476933333333, "is_disabled": 0, "fusion_lon": 0.0, "rental_uris": {"android": "https://dc.lft.to/lastmile_qr_scan", "ios": "https://dc.lft.to/lastmile_qr_scan"}}, {"type": "electric_scooter", "name": "c2f33dfd6d6b7c9865ef07bf9366ffe6", "lat": 38.91703583333334, "fusion_lat": 0.0, "bike_id": "c2f33dfd6d6b7c9865ef07bf9366ffe6", "is_reserved": 0, "lon": -77.02820183333333, "is_disabled": 0, "fusion_lon": 0.0, "rental_uris": {"android": "https://dc.lft.to/lastmile_qr_scan", "ios": "https://dc.lft.to/lastmile_qr_scan"}}, {"type": "electric_scooter", "name": "0c6f782355864162b76ebe5ef03da57d", "lat": 38.92086783333333, "fusion_lat": 0.0, "bike_id": "0c6f782355864162b76ebe5ef03da57d", "is_reserved": 0, "lon": -77.02326683333334, "is_disabled": 0, "fusion_lon": 0.0, "rental_uris": {"android": "https://dc.lft.to/lastmile_qr_scan", "ios": "https://dc.lft.to/lastmile_qr_scan"}}, {"type": "electric_scooter", "name": "ca08e01a5ba1cb30c2f56c423d8d4a1c", "lat": 38.89494916666666, "fusion_lat": 0.0, "bike_id": "ca08e01a5ba1cb30c2f56c423d8d4a1c", "is_reserved": 0, "lon": -77.02173266666667, "is_disabled": 0, "fusion_lon": 0.0, "rental_uris": {"android": "https://dc.lft.to/lastmile_qr_scan", "ios": "https://dc.lft.to/lastmile_qr_scan"}}, {"type": "electric_bike", "name": "c7c668ff27ec25b494e2113f96639280", "lat": 38.95985783333333, "fusion_lat": 0.0, "bike_id": "c7c668ff27ec25b494e2113f96639280", "is_reserved": 0, "lon": -76.96941616666666, "is_disabled": 0, "fusion_lon": 0.0, "rental_uris": {"android": "https://dc.lft.to/lastmile_qr_scan", "ios": "https://dc.lft.to/lastmile_qr_scan"}}, {"type": "electric_scooter", "name": "67483c66de9363e0c83e8594fa432910", "lat": 38.8960805, "fusion_lat": 0.0, "bike_id": "67483c66de9363e0c83e8594fa432910", "is_reserved": 0, "lon": -77.04515683333334, "is_disabled": 0, "fusion_lon": 0.0, "rental_uris": {"android": "https://dc.lft.to/lastmile_qr_scan", "ios": "https://dc.lft.to/lastmile_qr_scan"}}, {"type": "electric_scooter", "name": "ec5ece01d8e4866d444ca8924883a70f", "lat": 38.926755166666666, "fusion_lat": 0.0, "bike_id": "ec5ece01d8e4866d444ca8924883a70f", "is_reserved": 0, "lon": -77.02257533333334, "is_disabled": 0, "fusion_lon": 0.0, "rental_uris": {"android": "https://dc.lft.to/lastmile_qr_scan", "ios": "https://dc.lft.to/lastmile_qr_scan"}}, {"type": "electric_scooter", "name": "08b6586e612ea7baa80973643f7ff9d9", "lat": 38.8975445, "fusion_lat": 0.0, "bike_id": "08b6586e612ea7baa80973643f7ff9d9", "is_reserved": 0, "lon": -77.0188265, "is_disabled": 0, "fusion_lon": 0.0, "rental_uris": {"android": "https://dc.lft.to/lastmile_qr_scan", "ios": "https://dc.lft.to/lastmile_qr_scan"}}, {"type": "electric_scooter", "name": "3d2066261e1a2423c88f1bced1437340", "lat": 38.87683233333333, "fusion_lat": 0.0, "bike_id": "3d2066261e1a2423c88f1bced1437340", "is_reserved": 0, "lon": -77.0006065, "is_disabled": 0, "fusion_lon": 0.0, "rental_uris": {"android": "https://dc.lft.to/lastmile_qr_scan", "ios": "https://dc.lft.to/lastmile_qr_scan"}}, {"type": "electric_scooter", "name": "89bf62b04117ce17c1ce782ae283cf35", "lat": 38.924698666666664, "fusion_lat": 0.0, "bike_id": "89bf62b04117ce17c1ce782ae283cf35", "is_reserved": 0, "lon": -77.02208383333334, "is_disabled": 0, "fusion_lon": 0.0, "rental_uris": {"android": "https://dc.lft.to/lastmile_qr_scan", "ios": "https://dc.lft.to/lastmile_qr_scan"}}, {"type": "electric_scooter", "name": "7e307becd3fc27528c1f82d683b946e8", "lat": 38.88605116666667, "fusion_lat": 0.0, "bike_id": "7e307becd3fc27528c1f82d683b946e8", "is_reserved": 0, "lon": -77.0152815, "is_disabled": 0, "fusion_lon": 0.0, "rental_uris": {"android": "https://dc.lft.to/lastmile_qr_scan", "ios": "https://dc.lft.to/lastmile_qr_scan"}}, {"type": "electric_scooter", "name": "bbb6f631791e1213d0464ea573a1e15c", "lat": 38.957241, "fusion_lat": 0.0, "bike_id": "bbb6f631791e1213d0464ea573a1e15c", "is_reserved": 0, "lon": -77.028751, "is_disabled": 0, "fusion_lon": 0.0, "rental_uris": {"android": "https://dc.lft.to/lastmile_qr_scan", "ios": "https://dc.lft.to/lastmile_qr_scan"}}, {"type": "electric_scooter", "name": "cb5d23e9dbf92d3ca716002e3fb17f6b", "lat": 38.897278, "fusion_lat": 0.0, "bike_id": "cb5d23e9dbf92d3ca716002e3fb17f6b", "is_reserved": 0, "lon": -77.04712533333333, "is_disabled": 0, "fusion_lon": 0.0, "rental_uris": {"android": "https://dc.lft.to/lastmile_qr_scan", "ios": "https://dc.lft.to/lastmile_qr_scan"}}, {"type": "electric_scooter", "name": "8c01b731b07edeabf6f939e59dc93766", "lat": 38.90379033333333, "fusion_lat": 0.0, "bike_id": "8c01b731b07edeabf6f939e59dc93766", "is_reserved": 0, "lon": -77.03719433333333, "is_disabled": 0, "fusion_lon": 0.0, "rental_uris": {"android": "https://dc.lft.to/lastmile_qr_scan", "ios": "https://dc.lft.to/lastmile_qr_scan"}}, {"type": "electric_bike", "name": "09c340b3e309a0352c4b136722033d88", "lat": 38.88472266666667, "fusion_lat": 0.0, "bike_id": "09c340b3e309a0352c4b136722033d88", "is_reserved": 0, "lon": -76.956654, "is_disabled": 0, "fusion_lon": 0.0, "rental_uris": {"android": "https://dc.lft.to/lastmile_qr_scan", "ios": "https://dc.lft.to/lastmile_qr_scan"}}, {"type": "electric_scooter", "name": "8e97086cb2fa54a67008d9d9faebd4f0", "lat": 38.90238316666667, "fusion_lat": 0.0, "bike_id": "8e97086cb2fa54a67008d9d9faebd4f0", "is_reserved": 0, "lon": -77.03774883333334, "is_disabled": 0, "fusion_lon": 0.0, "rental_uris": {"android": "https://dc.lft.to/lastmile_qr_scan", "ios": "https://dc.lft.to/lastmile_qr_scan"}}, {"type": "electric_scooter", "name": "fcb1c36d3c4d4869fa47678e88a7c00d", "lat": 38.928121833333336, "fusion_lat": 0.0, "bike_id": "fcb1c36d3c4d4869fa47678e88a7c00d", "is_reserved": 0, "lon": -77.02668283333334, "is_disabled": 0, "fusion_lon": 0.0, "rental_uris": {"android": "https://dc.lft.to/lastmile_qr_scan", "ios": "https://dc.lft.to/lastmile_qr_scan"}}, {"type": "electric_scooter", "name": "df32e219d5cf6bfec2cc49c934cdfaac", "lat": 38.90650633333333, "fusion_lat": 0.0, "bike_id": "df32e219d5cf6bfec2cc49c934cdfaac", "is_reserved": 0, "lon": -77.025236, "is_disabled": 0, "fusion_lon": 0.0, "rental_uris": {"android": "https://dc.lft.to/lastmile_qr_scan", "ios": "https://dc.lft.to/lastmile_qr_scan"}}, {"type": "electric_scooter", "name": "e443733d7b1c2f54daad05d79dc26d14", "lat": 38.931016166666666, "fusion_lat": 0.0, "bike_id": "e443733d7b1c2f54daad05d79dc26d14", "is_reserved": 0, "lon": -77.0247445, "is_disabled": 0, "fusion_lon": 0.0, "rental_uris": {"android": "https://dc.lft.to/lastmile_qr_scan", "ios": "https://dc.lft.to/lastmile_qr_scan"}}, {"type": "electric_scooter", "name": "21f1021d571ae652c01f486a3d1eeb98", "lat": 38.92792983333333, "fusion_lat": 0.0, "bike_id": "21f1021d571ae652c01f486a3d1eeb98", "is_reserved": 0, "lon": -77.05540283333333, "is_disabled": 0, "fusion_lon": 0.0, "rental_uris": {"android": "https://dc.lft.to/lastmile_qr_scan", "ios": "https://dc.lft.to/lastmile_qr_scan"}}, {"type": "electric_scooter", "name": "e4f201e32bcc4afe55accaf607f34523", "lat": 38.92179466666666, "fusion_lat": 0.0, "bike_id": "e4f201e32bcc4afe55accaf607f34523", "is_reserved": 0, "lon": -77.04232633333334, "is_disabled": 0, "fusion_lon": 0.0, "rental_uris": {"android": "https://dc.lft.to/lastmile_qr_scan", "ios": "https://dc.lft.to/lastmile_qr_scan"}}, {"type": "electric_scooter", "name": "a6adad4793181c7e58d5f73822262e04", "lat": 38.918401, "fusion_lat": 0.0, "bike_id": "a6adad4793181c7e58d5f73822262e04", "is_reserved": 0, "lon": -77.03885766666667, "is_disabled": 0, "fusion_lon": 0.0, "rental_uris": {"android": "https://dc.lft.to/lastmile_qr_scan", "ios": "https://dc.lft.to/lastmile_qr_scan"}}, {"type": "electric_scooter", "name": "0add0adee6fe16f08264c636494430fd", "lat": 38.87923383333333, "fusion_lat": 0.0, "bike_id": "0add0adee6fe16f08264c636494430fd", "is_reserved": 0, "lon": -77.021499, "is_disabled": 0, "fusion_lon": 0.0, "rental_uris": {"android": "https://dc.lft.to/lastmile_qr_scan", "ios": "https://dc.lft.to/lastmile_qr_scan"}}, {"type": "electric_scooter", "name": "95975bd3044296c61fde654d579acbf7", "lat": 38.90684866666667, "fusion_lat": 0.0, "bike_id": "95975bd3044296c61fde654d579acbf7", "is_reserved": 0, "lon": -76.984978, "is_disabled": 0, "fusion_lon": 0.0, "rental_uris": {"android": "https://dc.lft.to/lastmile_qr_scan", "ios": "https://dc.lft.to/lastmile_qr_scan"}}, {"type": "electric_bike", "name": "ba161db31e8aa31245379f32941e2609", "lat": 39.03903, "fusion_lat": 0.0, "bike_id": "ba161db31e8aa31245379f32941e2609", "is_reserved": 0, "lon": -77.05034633333334, "is_disabled": 0, "fusion_lon": 0.0, "rental_uris": {"android": "https://dc.lft.to/lastmile_qr_scan", "ios": "https://dc.lft.to/lastmile_qr_scan"}}, {"type": "electric_scooter", "name": "9d50f59d5364dc8ddc71f5ab886e3c9e", "lat": 38.92248, "fusion_lat": 0.0, "bike_id": "9d50f59d5364dc8ddc71f5ab886e3c9e", "is_reserved": 0, "lon": -76.98087616666666, "is_disabled": 0, "fusion_lon": 0.0, "rental_uris": {"android": "https://dc.lft.to/lastmile_qr_scan", "ios": "https://dc.lft.to/lastmile_qr_scan"}}, {"type": "electric_scooter", "name": "d09a5527d8a096f5da8e3677ea1a8dd0", "lat": 38.892255666666664, "fusion_lat": 0.0, "bike_id": "d09a5527d8a096f5da8e3677ea1a8dd0", "is_reserved": 0, "lon": -77.02207716666666, "is_disabled": 0, "fusion_lon": 0.0, "rental_uris": {"android": "https://dc.lft.to/lastmile_qr_scan", "ios": "https://dc.lft.to/lastmile_qr_scan"}}, {"type": "electric_scooter", "name": "ebd025214a57f3168cf0eddf6230a54f", "lat": 38.857185, "fusion_lat": 0.0, "bike_id": "ebd025214a57f3168cf0eddf6230a54f", "is_reserved": 0, "lon": -76.9959285, "is_disabled": 0, "fusion_lon": 0.0, "rental_uris": {"android": "https://dc.lft.to/lastmile_qr_scan", "ios": "https://dc.lft.to/lastmile_qr_scan"}}, {"type": "electric_bike", "name": "9401a20c0b3fe3a8c9ae5cf3910584a5", "lat": 38.8412765, "fusion_lat": 0.0, "bike_id": "9401a20c0b3fe3a8c9ae5cf3910584a5", "is_reserved": 0, "lon": -77.00507833333333, "is_disabled": 0, "fusion_lon": 0.0, "rental_uris": {"android": "https://dc.lft.to/lastmile_qr_scan", "ios": "https://dc.lft.to/lastmile_qr_scan"}}, {"type": "electric_scooter", "name": "6d90dc5ece4cab1ec5a2c76f5802c1b4", "lat": 38.90985516666667, "fusion_lat": 0.0, "bike_id": "6d90dc5ece4cab1ec5a2c76f5802c1b4", "is_reserved": 0, "lon": -76.99495766666666, "is_disabled": 0, "fusion_lon": 0.0, "rental_uris": {"android": "https://dc.lft.to/lastmile_qr_scan", "ios": "https://dc.lft.to/lastmile_qr_scan"}}, {"type": "electric_scooter", "name": "f87a99ea9bdbc88efdd8112140df2f7e", "lat": 38.91268816666667, "fusion_lat": 0.0, "bike_id": "f87a99ea9bdbc88efdd8112140df2f7e", "is_reserved": 0, "lon": -77.02878516666667, "is_disabled": 0, "fusion_lon": 0.0, "rental_uris": {"android": "https://dc.lft.to/lastmile_qr_scan", "ios": "https://dc.lft.to/lastmile_qr_scan"}}, {"type": "electric_scooter", "name": "e86827f3336693e92eb7282359fe61e5", "lat": 38.9111155, "fusion_lat": 0.0, "bike_id": "e86827f3336693e92eb7282359fe61e5", "is_reserved": 0, "lon": -77.03824833333333, "is_disabled": 0, "fusion_lon": 0.0, "rental_uris": {"android": "https://dc.lft.to/lastmile_qr_scan", "ios": "https://dc.lft.to/lastmile_qr_scan"}}, {"type": "electric_scooter", "name": "006a8066d7cfc48dfd77178c4325508d", "lat": 38.908142, "fusion_lat": 0.0, "bike_id": "006a8066d7cfc48dfd77178c4325508d", "is_reserved": 0, "lon": -77.03945533333334, "is_disabled": 0, "fusion_lon": 0.0, "rental_uris": {"android": "https://dc.lft.to/lastmile_qr_scan", "ios": "https://dc.lft.to/lastmile_qr_scan"}}, {"type": "electric_bike", "name": "6c44c6b9412dfd41ce7ff64da5ed878d", "lat": 38.856498, "fusion_lat": 0.0, "bike_id": "6c44c6b9412dfd41ce7ff64da5ed878d", "is_reserved": 0, "lon": -77.08526233333333, "is_disabled": 0, "fusion_lon": 0.0, "rental_uris": {"android": "https://dc.lft.to/lastmile_qr_scan", "ios": "https://dc.lft.to/lastmile_qr_scan"}}, {"type": "electric_scooter", "name": "e7e13dcb1ff8682aede4f29b8078038d", "lat": 38.9033875, "fusion_lat": 0.0, "bike_id": "e7e13dcb1ff8682aede4f29b8078038d", "is_reserved": 0, "lon": -77.05903316666667, "is_disabled": 0, "fusion_lon": 0.0, "rental_uris": {"android": "https://dc.lft.to/lastmile_qr_scan", "ios": "https://dc.lft.to/lastmile_qr_scan"}}, {"type": "electric_scooter", "name": "1c311459f6c9c8b08613f54ea15d452a", "lat": 38.88433883333333, "fusion_lat": 0.0, "bike_id": "1c311459f6c9c8b08613f54ea15d452a", "is_reserved": 0, "lon": -77.0282105, "is_disabled": 0, "fusion_lon": 0.0, "rental_uris": {"android": "https://dc.lft.to/lastmile_qr_scan", "ios": "https://dc.lft.to/lastmile_qr_scan"}}, {"type": "electric_scooter", "name": "0d989bf0c09b9c649a9a0965f9a3a23e", "lat": 38.905580666666665, "fusion_lat": 0.0, "bike_id": "0d989bf0c09b9c649a9a0965f9a3a23e", "is_reserved": 0, "lon": -77.034709, "is_disabled": 0, "fusion_lon": 0.0, "rental_uris": {"android": "https://dc.lft.to/lastmile_qr_scan", "ios": "https://dc.lft.to/lastmile_qr_scan"}}, {"type": "electric_scooter", "name": "240029df309bfe79d839a009dfd4a533", "lat": 38.90764983333333, "fusion_lat": 0.0, "bike_id": "240029df309bfe79d839a009dfd4a533", "is_reserved": 0, "lon": -77.03856483333334, "is_disabled": 0, "fusion_lon": 0.0, "rental_uris": {"android": "https://dc.lft.to/lastmile_qr_scan", "ios": "https://dc.lft.to/lastmile_qr_scan"}}, {"type": "electric_scooter", "name": "8dd68b624f47f305b6e22b3309ef065a", "lat": 38.87690216666667, "fusion_lat": 0.0, "bike_id": "8dd68b624f47f305b6e22b3309ef065a", "is_reserved": 0, "lon": -77.00396866666667, "is_disabled": 0, "fusion_lon": 0.0, "rental_uris": {"android": "https://dc.lft.to/lastmile_qr_scan", "ios": "https://dc.lft.to/lastmile_qr_scan"}}, {"type": "electric_scooter", "name": "cb58590fb5f01fbcef5d45fda2ba1b0e", "lat": 38.92484433333333, "fusion_lat": 0.0, "bike_id": "cb58590fb5f01fbcef5d45fda2ba1b0e", "is_reserved": 0, "lon": -77.02139766666667, "is_disabled": 0, "fusion_lon": 0.0, "rental_uris": {"android": "https://dc.lft.to/lastmile_qr_scan", "ios": "https://dc.lft.to/lastmile_qr_scan"}}, {"type": "electric_scooter", "name": "32e8a449000f81f1ca95420e62222b55", "lat": 38.898317666666664, "fusion_lat": 0.0, "bike_id": "32e8a449000f81f1ca95420e62222b55", "is_reserved": 0, "lon": -77.029456, "is_disabled": 0, "fusion_lon": 0.0, "rental_uris": {"android": "https://dc.lft.to/lastmile_qr_scan", "ios": "https://dc.lft.to/lastmile_qr_scan"}}, {"type": "electric_scooter", "name": "fc7c35e36e02a9f90be91a7d94e7df9f", "lat": 38.92056683333333, "fusion_lat": 0.0, "bike_id": "fc7c35e36e02a9f90be91a7d94e7df9f", "is_reserved": 0, "lon": -77.01768733333333, "is_disabled": 0, "fusion_lon": 0.0, "rental_uris": {"android": "https://dc.lft.to/lastmile_qr_scan", "ios": "https://dc.lft.to/lastmile_qr_scan"}}, {"type": "electric_scooter", "name": "1696d3c61b440620afc2dcc15f9e89d1", "lat": 38.912135666666664, "fusion_lat": 0.0, "bike_id": "1696d3c61b440620afc2dcc15f9e89d1", "is_reserved": 0, "lon": -77.03203316666666, "is_disabled": 0, "fusion_lon": 0.0, "rental_uris": {"android": "https://dc.lft.to/lastmile_qr_scan", "ios": "https://dc.lft.to/lastmile_qr_scan"}}, {"type": "electric_scooter", "name": "62d2ed58fbe2089deebf8574b3dd0495", "lat": 38.922574833333336, "fusion_lat": 0.0, "bike_id": "62d2ed58fbe2089deebf8574b3dd0495", "is_reserved": 0, "lon": -77.00916683333334, "is_disabled": 0, "fusion_lon": 0.0, "rental_uris": {"android": "https://dc.lft.to/lastmile_qr_scan", "ios": "https://dc.lft.to/lastmile_qr_scan"}}, {"type": "electric_bike", "name": "d73c3c2c424baf73941f3aa0bd158869", "lat": 38.90034416666667, "fusion_lat": 0.0, "bike_id": "d73c3c2c424baf73941f3aa0bd158869", "is_reserved": 0, "lon": -76.97221133333333, "is_disabled": 0, "fusion_lon": 0.0, "rental_uris": {"android": "https://dc.lft.to/lastmile_qr_scan", "ios": "https://dc.lft.to/lastmile_qr_scan"}}, {"type": "electric_scooter", "name": "abb13f2f85d7e85c34d3052c46cba6e2", "lat": 38.89733666666667, "fusion_lat": 0.0, "bike_id": "abb13f2f85d7e85c34d3052c46cba6e2", "is_reserved": 0, "lon": -77.00372233333333, "is_disabled": 0, "fusion_lon": 0.0, "rental_uris": {"android": "https://dc.lft.to/lastmile_qr_scan", "ios": "https://dc.lft.to/lastmile_qr_scan"}}, {"type": "electric_bike", "name": "be4a0774ee5977aaccf52dda35a8cd62", "lat": 38.906750833333334, "fusion_lat": 0.0, "bike_id": "be4a0774ee5977aaccf52dda35a8cd62", "is_reserved": 0, "lon": -76.98508966666667, "is_disabled": 0, "fusion_lon": 0.0, "rental_uris": {"android": "https://dc.lft.to/lastmile_qr_scan", "ios": "https://dc.lft.to/lastmile_qr_scan"}}, {"type": "electric_scooter", "name": "bb31566fa78ef764142450c63a85cf51", "lat": 38.89223616666666, "fusion_lat": 0.0, "bike_id": "bb31566fa78ef764142450c63a85cf51", "is_reserved": 0, "lon": -77.03219483333334, "is_disabled": 0, "fusion_lon": 0.0, "rental_uris": {"android": "https://dc.lft.to/lastmile_qr_scan", "ios": "https://dc.lft.to/lastmile_qr_scan"}}, {"type": "electric_scooter", "name": "fdf71d4d6cafa9673ac33504644d4128", "lat": 38.915542, "fusion_lat": 0.0, "bike_id": "fdf71d4d6cafa9673ac33504644d4128", "is_reserved": 0, "lon": -77.0317615, "is_disabled": 0, "fusion_lon": 0.0, "rental_uris": {"android": "https://dc.lft.to/lastmile_qr_scan", "ios": "https://dc.lft.to/lastmile_qr_scan"}}, {"type": "electric_scooter", "name": "2ac027e90f9f7dd942253e7d130e03a0", "lat": 38.931012333333335, "fusion_lat": 0.0, "bike_id": "2ac027e90f9f7dd942253e7d130e03a0", "is_reserved": 0, "lon": -77.03065583333333, "is_disabled": 0, "fusion_lon": 0.0, "rental_uris": {"android": "https://dc.lft.to/lastmile_qr_scan", "ios": "https://dc.lft.to/lastmile_qr_scan"}}, {"type": "electric_scooter", "name": "2a1eaa948e07e6573921112f2999c11e", "lat": 38.89840866666667, "fusion_lat": 0.0, "bike_id": "2a1eaa948e07e6573921112f2999c11e", "is_reserved": 0, "lon": -77.0455595, "is_disabled": 0, "fusion_lon": 0.0, "rental_uris": {"android": "https://dc.lft.to/lastmile_qr_scan", "ios": "https://dc.lft.to/lastmile_qr_scan"}}, {"type": "electric_scooter", "name": "40395baa066eaafefb4ada3985e60ce1", "lat": 38.914761666666664, "fusion_lat": 0.0, "bike_id": "40395baa066eaafefb4ada3985e60ce1", "is_reserved": 0, "lon": -77.04607816666666, "is_disabled": 0, "fusion_lon": 0.0, "rental_uris": {"android": "https://dc.lft.to/lastmile_qr_scan", "ios": "https://dc.lft.to/lastmile_qr_scan"}}, {"type": "electric_scooter", "name": "64beca7f9e3b5b3f7f1787231ac49a55", "lat": 38.91700183333333, "fusion_lat": 0.0, "bike_id": "64beca7f9e3b5b3f7f1787231ac49a55", "is_reserved": 0, "lon": -77.02763, "is_disabled": 0, "fusion_lon": 0.0, "rental_uris": {"android": "https://dc.lft.to/lastmile_qr_scan", "ios": "https://dc.lft.to/lastmile_qr_scan"}}, {"type": "electric_bike", "name": "bbd9631d2e76e31325a76d3c8afb4f47", "lat": 38.996073333333335, "fusion_lat": 0.0, "bike_id": "bbd9631d2e76e31325a76d3c8afb4f47", "is_reserved": 0, "lon": -77.03982016666667, "is_disabled": 0, "fusion_lon": 0.0, "rental_uris": {"android": "https://dc.lft.to/lastmile_qr_scan", "ios": "https://dc.lft.to/lastmile_qr_scan"}}, {"type": "electric_scooter", "name": "b4f853218ccc7d58b3551dccddff425e", "lat": 38.89294533333333, "fusion_lat": 0.0, "bike_id": "b4f853218ccc7d58b3551dccddff425e", "is_reserved": 0, "lon": -76.99822333333333, "is_disabled": 0, "fusion_lon": 0.0, "rental_uris": {"android": "https://dc.lft.to/lastmile_qr_scan", "ios": "https://dc.lft.to/lastmile_qr_scan"}}, {"type": "electric_bike", "name": "7eb69d55d644e0d6cece7d1c17cf80dc", "lat": 38.90101416666667, "fusion_lat": 0.0, "bike_id": "7eb69d55d644e0d6cece7d1c17cf80dc", "is_reserved": 0, "lon": -77.048634, "is_disabled": 0, "fusion_lon": 0.0, "rental_uris": {"android": "https://dc.lft.to/lastmile_qr_scan", "ios": "https://dc.lft.to/lastmile_qr_scan"}}, {"type": "electric_scooter", "name": "d1266f601770be8c6476042647d01d31", "lat": 38.9003205, "fusion_lat": 0.0, "bike_id": "d1266f601770be8c6476042647d01d31", "is_reserved": 0, "lon": -76.99846616666666, "is_disabled": 0, "fusion_lon": 0.0, "rental_uris": {"android": "https://dc.lft.to/lastmile_qr_scan", "ios": "https://dc.lft.to/lastmile_qr_scan"}}, {"type": "electric_scooter", "name": "54a597a02ffc09ead76ef17abb3d7161", "lat": 38.91421283333333, "fusion_lat": 0.0, "bike_id": "54a597a02ffc09ead76ef17abb3d7161", "is_reserved": 0, "lon": -77.03182266666667, "is_disabled": 0, "fusion_lon": 0.0, "rental_uris": {"android": "https://dc.lft.to/lastmile_qr_scan", "ios": "https://dc.lft.to/lastmile_qr_scan"}}, {"type": "electric_scooter", "name": "d8fc29b7abe47f3ee83321985a1890e0", "lat": 38.918143, "fusion_lat": 0.0, "bike_id": "d8fc29b7abe47f3ee83321985a1890e0", "is_reserved": 0, "lon": -77.0247495, "is_disabled": 0, "fusion_lon": 0.0, "rental_uris": {"android": "https://dc.lft.to/lastmile_qr_scan", "ios": "https://dc.lft.to/lastmile_qr_scan"}}, {"type": "electric_scooter", "name": "9856530fca96c8abfe64634add12dd33", "lat": 38.8949485, "fusion_lat": 0.0, "bike_id": "9856530fca96c8abfe64634add12dd33", "is_reserved": 0, "lon": -77.0150915, "is_disabled": 0, "fusion_lon": 0.0, "rental_uris": {"android": "https://dc.lft.to/lastmile_qr_scan", "ios": "https://dc.lft.to/lastmile_qr_scan"}}, {"type": "electric_scooter", "name": "f6e177c78b8fba7afe58974bf371b02c", "lat": 38.924963166666664, "fusion_lat": 0.0, "bike_id": "f6e177c78b8fba7afe58974bf371b02c", "is_reserved": 0, "lon": -77.03551366666667, "is_disabled": 0, "fusion_lon": 0.0, "rental_uris": {"android": "https://dc.lft.to/lastmile_qr_scan", "ios": "https://dc.lft.to/lastmile_qr_scan"}}, {"type": "electric_scooter", "name": "d60a05e283c0d5c07ffa89658f996f4d", "lat": 38.9157085, "fusion_lat": 0.0, "bike_id": "d60a05e283c0d5c07ffa89658f996f4d", "is_reserved": 0, "lon": -77.01188083333334, "is_disabled": 0, "fusion_lon": 0.0, "rental_uris": {"android": "https://dc.lft.to/lastmile_qr_scan", "ios": "https://dc.lft.to/lastmile_qr_scan"}}, {"type": "electric_scooter", "name": "9258cb66c2255e5de3c281eae2a58838", "lat": 38.92052866666667, "fusion_lat": 0.0, "bike_id": "9258cb66c2255e5de3c281eae2a58838", "is_reserved": 0, "lon": -77.01680866666666, "is_disabled": 0, "fusion_lon": 0.0, "rental_uris": {"android": "https://dc.lft.to/lastmile_qr_scan", "ios": "https://dc.lft.to/lastmile_qr_scan"}}, {"type": "electric_scooter", "name": "3247511bdea8091be0d9937aee77e621", "lat": 38.892209333333334, "fusion_lat": 0.0, "bike_id": "3247511bdea8091be0d9937aee77e621", "is_reserved": 0, "lon": -76.97966216666667, "is_disabled": 0, "fusion_lon": 0.0, "rental_uris": {"android": "https://dc.lft.to/lastmile_qr_scan", "ios": "https://dc.lft.to/lastmile_qr_scan"}}, {"type": "electric_scooter", "name": "f439cb20c92ead78e40184f3c12d475a", "lat": 38.919211, "fusion_lat": 0.0, "bike_id": "f439cb20c92ead78e40184f3c12d475a", "is_reserved": 0, "lon": -77.0318425, "is_disabled": 0, "fusion_lon": 0.0, "rental_uris": {"android": "https://dc.lft.to/lastmile_qr_scan", "ios": "https://dc.lft.to/lastmile_qr_scan"}}, {"type": "electric_scooter", "name": "27f89cbff74e74c065f38dad6ad9157a", "lat": 38.901383333333335, "fusion_lat": 0.0, "bike_id": "27f89cbff74e74c065f38dad6ad9157a", "is_reserved": 0, "lon": -77.0321335, "is_disabled": 0, "fusion_lon": 0.0, "rental_uris": {"android": "https://dc.lft.to/lastmile_qr_scan", "ios": "https://dc.lft.to/lastmile_qr_scan"}}, {"type": "electric_scooter", "name": "a4da475bbfbb7d216d4d57f00a95a00d", "lat": 38.916510333333335, "fusion_lat": 0.0, "bike_id": "a4da475bbfbb7d216d4d57f00a95a00d", "is_reserved": 0, "lon": -77.0280735, "is_disabled": 0, "fusion_lon": 0.0, "rental_uris": {"android": "https://dc.lft.to/lastmile_qr_scan", "ios": "https://dc.lft.to/lastmile_qr_scan"}}, {"type": "electric_scooter", "name": "db62f2cd4028588c80535fe089ef8cf8", "lat": 38.928286166666666, "fusion_lat": 0.0, "bike_id": "db62f2cd4028588c80535fe089ef8cf8", "is_reserved": 0, "lon": -77.021985, "is_disabled": 0, "fusion_lon": 0.0, "rental_uris": {"android": "https://dc.lft.to/lastmile_qr_scan", "ios": "https://dc.lft.to/lastmile_qr_scan"}}, {"type": "electric_scooter", "name": "99779f19f57bd8f8d933067e013de9a2", "lat": 38.917326833333334, "fusion_lat": 0.0, "bike_id": "99779f19f57bd8f8d933067e013de9a2", "is_reserved": 0, "lon": -77.03443683333333, "is_disabled": 0, "fusion_lon": 0.0, "rental_uris": {"android": "https://dc.lft.to/lastmile_qr_scan", "ios": "https://dc.lft.to/lastmile_qr_scan"}}, {"type": "electric_scooter", "name": "ee096437970c7958902f8fbf24d398e7", "lat": 38.9077675, "fusion_lat": 0.0, "bike_id": "ee096437970c7958902f8fbf24d398e7", "is_reserved": 0, "lon": -77.0422745, "is_disabled": 0, "fusion_lon": 0.0, "rental_uris": {"android": "https://dc.lft.to/lastmile_qr_scan", "ios": "https://dc.lft.to/lastmile_qr_scan"}}, {"type": "electric_scooter", "name": "5f9c8a81839a612a2472f2974ac9ac62", "lat": 38.886163333333336, "fusion_lat": 0.0, "bike_id": "5f9c8a81839a612a2472f2974ac9ac62", "is_reserved": 0, "lon": -77.01534733333334, "is_disabled": 0, "fusion_lon": 0.0, "rental_uris": {"android": "https://dc.lft.to/lastmile_qr_scan", "ios": "https://dc.lft.to/lastmile_qr_scan"}}, {"type": "electric_scooter", "name": "f78b07316c702f9fa918330a4c39e886", "lat": 38.929608, "fusion_lat": 0.0, "bike_id": "f78b07316c702f9fa918330a4c39e886", "is_reserved": 0, "lon": -77.0114515, "is_disabled": 0, "fusion_lon": 0.0, "rental_uris": {"android": "https://dc.lft.to/lastmile_qr_scan", "ios": "https://dc.lft.to/lastmile_qr_scan"}}, {"type": "electric_scooter", "name": "b5f95d8bce02b20b941a9933c27d774f", "lat": 38.90914633333333, "fusion_lat": 0.0, "bike_id": "b5f95d8bce02b20b941a9933c27d774f", "is_reserved": 0, "lon": -77.04161916666666, "is_disabled": 0, "fusion_lon": 0.0, "rental_uris": {"android": "https://dc.lft.to/lastmile_qr_scan", "ios": "https://dc.lft.to/lastmile_qr_scan"}}, {"type": "electric_scooter", "name": "5a44a58e8bd7efff1165c2485cec277d", "lat": 38.87903983333333, "fusion_lat": 0.0, "bike_id": "5a44a58e8bd7efff1165c2485cec277d", "is_reserved": 0, "lon": -77.02192833333334, "is_disabled": 0, "fusion_lon": 0.0, "rental_uris": {"android": "https://dc.lft.to/lastmile_qr_scan", "ios": "https://dc.lft.to/lastmile_qr_scan"}}, {"type": "electric_scooter", "name": "44f75d119bc641b81562d20fbfb81c65", "lat": 38.90769516666667, "fusion_lat": 0.0, "bike_id": "44f75d119bc641b81562d20fbfb81c65", "is_reserved": 0, "lon": -77.03207616666667, "is_disabled": 0, "fusion_lon": 0.0, "rental_uris": {"android": "https://dc.lft.to/lastmile_qr_scan", "ios": "https://dc.lft.to/lastmile_qr_scan"}}, {"type": "electric_bike", "name": "68cadc446c43f5bea8d6559742dc2be1", "lat": 38.99056516666667, "fusion_lat": 0.0, "bike_id": "68cadc446c43f5bea8d6559742dc2be1", "is_reserved": 0, "lon": -77.03862316666667, "is_disabled": 0, "fusion_lon": 0.0, "rental_uris": {"android": "https://dc.lft.to/lastmile_qr_scan", "ios": "https://dc.lft.to/lastmile_qr_scan"}}, {"type": "electric_bike", "name": "affb6209ddb694cd3dbd8feb26815ba7", "lat": 38.83546716666667, "fusion_lat": 0.0, "bike_id": "affb6209ddb694cd3dbd8feb26815ba7", "is_reserved": 0, "lon": -76.987227, "is_disabled": 0, "fusion_lon": 0.0, "rental_uris": {"android": "https://dc.lft.to/lastmile_qr_scan", "ios": "https://dc.lft.to/lastmile_qr_scan"}}, {"type": "electric_scooter", "name": "88ce6e2996ebfa4ee0787d4d424230b2", "lat": 38.8449185, "fusion_lat": 0.0, "bike_id": "88ce6e2996ebfa4ee0787d4d424230b2", "is_reserved": 0, "lon": -76.98795433333333, "is_disabled": 0, "fusion_lon": 0.0, "rental_uris": {"android": "https://dc.lft.to/lastmile_qr_scan", "ios": "https://dc.lft.to/lastmile_qr_scan"}}, {"type": "electric_scooter", "name": "302b435b3fd2f736d4e14887a2ae77b4", "lat": 38.92321916666667, "fusion_lat": 0.0, "bike_id": "302b435b3fd2f736d4e14887a2ae77b4", "is_reserved": 0, "lon": -77.01950766666667, "is_disabled": 0, "fusion_lon": 0.0, "rental_uris": {"android": "https://dc.lft.to/lastmile_qr_scan", "ios": "https://dc.lft.to/lastmile_qr_scan"}}, {"type": "electric_scooter", "name": "90eee8bd2fe7e61b22c839a5655bec7f", "lat": 38.902872, "fusion_lat": 0.0, "bike_id": "90eee8bd2fe7e61b22c839a5655bec7f", "is_reserved": 0, "lon": -77.04237316666666, "is_disabled": 0, "fusion_lon": 0.0, "rental_uris": {"android": "https://dc.lft.to/lastmile_qr_scan", "ios": "https://dc.lft.to/lastmile_qr_scan"}}, {"type": "electric_scooter", "name": "217999968af430d88516881c7aad9e7a", "lat": 38.892244166666664, "fusion_lat": 0.0, "bike_id": "217999968af430d88516881c7aad9e7a", "is_reserved": 0, "lon": -77.0238615, "is_disabled": 0, "fusion_lon": 0.0, "rental_uris": {"android": "https://dc.lft.to/lastmile_qr_scan", "ios": "https://dc.lft.to/lastmile_qr_scan"}}, {"type": "electric_scooter", "name": "ed04db9376ee845757867553a376e632", "lat": 38.916011833333336, "fusion_lat": 0.0, "bike_id": "ed04db9376ee845757867553a376e632", "is_reserved": 0, "lon": -76.98374666666666, "is_disabled": 0, "fusion_lon": 0.0, "rental_uris": {"android": "https://dc.lft.to/lastmile_qr_scan", "ios": "https://dc.lft.to/lastmile_qr_scan"}}, {"type": "electric_scooter", "name": "76206d52ad2d36fe7a16248996dbfe8a", "lat": 38.898445, "fusion_lat": 0.0, "bike_id": "76206d52ad2d36fe7a16248996dbfe8a", "is_reserved": 0, "lon": -77.03928716666667, "is_disabled": 0, "fusion_lon": 0.0, "rental_uris": {"android": "https://dc.lft.to/lastmile_qr_scan", "ios": "https://dc.lft.to/lastmile_qr_scan"}}, {"type": "electric_scooter", "name": "e070bed6fa7b610b4e21e5df42cbf51e", "lat": 38.90033066666667, "fusion_lat": 0.0, "bike_id": "e070bed6fa7b610b4e21e5df42cbf51e", "is_reserved": 0, "lon": -77.00199033333334, "is_disabled": 0, "fusion_lon": 0.0, "rental_uris": {"android": "https://dc.lft.to/lastmile_qr_scan", "ios": "https://dc.lft.to/lastmile_qr_scan"}}, {"type": "electric_bike", "name": "038660e5048d35eb5c4100bf23b96b33", "lat": 38.94410533333333, "fusion_lat": 0.0, "bike_id": "038660e5048d35eb5c4100bf23b96b33", "is_reserved": 0, "lon": -77.0320125, "is_disabled": 0, "fusion_lon": 0.0, "rental_uris": {"android": "https://dc.lft.to/lastmile_qr_scan", "ios": "https://dc.lft.to/lastmile_qr_scan"}}, {"type": "electric_scooter", "name": "e38d56f1c7ced4305a39499a080e1a7c", "lat": 38.8995745, "fusion_lat": 0.0, "bike_id": "e38d56f1c7ced4305a39499a080e1a7c", "is_reserved": 0, "lon": -77.04580683333333, "is_disabled": 0, "fusion_lon": 0.0, "rental_uris": {"android": "https://dc.lft.to/lastmile_qr_scan", "ios": "https://dc.lft.to/lastmile_qr_scan"}}, {"type": "electric_scooter", "name": "90f01cb3d891a5bcfb07e2f5c70b2dc1", "lat": 38.93235933333333, "fusion_lat": 0.0, "bike_id": "90f01cb3d891a5bcfb07e2f5c70b2dc1", "is_reserved": 0, "lon": -76.99706483333334, "is_disabled": 0, "fusion_lon": 0.0, "rental_uris": {"android": "https://dc.lft.to/lastmile_qr_scan", "ios": "https://dc.lft.to/lastmile_qr_scan"}}, {"type": "electric_scooter", "name": "fb1cc415039fd38e044462f46aa050e1", "lat": 38.902636, "fusion_lat": 0.0, "bike_id": "fb1cc415039fd38e044462f46aa050e1", "is_reserved": 0, "lon": -76.97459433333333, "is_disabled": 0, "fusion_lon": 0.0, "rental_uris": {"android": "https://dc.lft.to/lastmile_qr_scan", "ios": "https://dc.lft.to/lastmile_qr_scan"}}, {"type": "electric_scooter", "name": "e9d73b2a185d12c7972abff22b9a895c", "lat": 38.895059, "fusion_lat": 0.0, "bike_id": "e9d73b2a185d12c7972abff22b9a895c", "is_reserved": 0, "lon": -77.003391, "is_disabled": 0, "fusion_lon": 0.0, "rental_uris": {"android": "https://dc.lft.to/lastmile_qr_scan", "ios": "https://dc.lft.to/lastmile_qr_scan"}}, {"type": "electric_scooter", "name": "7b6f98eb2244e18f8425b2ecadc0507c", "lat": 38.9170925, "fusion_lat": 0.0, "bike_id": "7b6f98eb2244e18f8425b2ecadc0507c", "is_reserved": 0, "lon": -77.04122116666667, "is_disabled": 0, "fusion_lon": 0.0, "rental_uris": {"android": "https://dc.lft.to/lastmile_qr_scan", "ios": "https://dc.lft.to/lastmile_qr_scan"}}, {"type": "electric_scooter", "name": "27c76bd9a29437459ffc69bad18d4fa8", "lat": 38.928818166666666, "fusion_lat": 0.0, "bike_id": "27c76bd9a29437459ffc69bad18d4fa8", "is_reserved": 0, "lon": -77.0270825, "is_disabled": 0, "fusion_lon": 0.0, "rental_uris": {"android": "https://dc.lft.to/lastmile_qr_scan", "ios": "https://dc.lft.to/lastmile_qr_scan"}}, {"type": "electric_scooter", "name": "8411703452e064a7c2b88edae2b10cfd", "lat": 38.926011, "fusion_lat": 0.0, "bike_id": "8411703452e064a7c2b88edae2b10cfd", "is_reserved": 0, "lon": -77.021555, "is_disabled": 0, "fusion_lon": 0.0, "rental_uris": {"android": "https://dc.lft.to/lastmile_qr_scan", "ios": "https://dc.lft.to/lastmile_qr_scan"}}, {"type": "electric_scooter", "name": "e49ffebca36e1a38703b622831ffdd7f", "lat": 38.919117166666666, "fusion_lat": 0.0, "bike_id": "e49ffebca36e1a38703b622831ffdd7f", "is_reserved": 0, "lon": -76.98694966666666, "is_disabled": 0, "fusion_lon": 0.0, "rental_uris": {"android": "https://dc.lft.to/lastmile_qr_scan", "ios": "https://dc.lft.to/lastmile_qr_scan"}}, {"type": "electric_scooter", "name": "20a4053d691de372b435ff63718b00e4", "lat": 38.9100725, "fusion_lat": 0.0, "bike_id": "20a4053d691de372b435ff63718b00e4", "is_reserved": 0, "lon": -77.0366065, "is_disabled": 0, "fusion_lon": 0.0, "rental_uris": {"android": "https://dc.lft.to/lastmile_qr_scan", "ios": "https://dc.lft.to/lastmile_qr_scan"}}, {"type": "electric_scooter", "name": "d9ce4af0e5e277b5ad74296098ce55ae", "lat": 38.90568566666666, "fusion_lat": 0.0, "bike_id": "d9ce4af0e5e277b5ad74296098ce55ae", "is_reserved": 0, "lon": -77.00392433333333, "is_disabled": 0, "fusion_lon": 0.0, "rental_uris": {"android": "https://dc.lft.to/lastmile_qr_scan", "ios": "https://dc.lft.to/lastmile_qr_scan"}}, {"type": "electric_bike", "name": "ad8286319ab482709e204cf148d0abff", "lat": 38.98462266666667, "fusion_lat": 0.0, "bike_id": "ad8286319ab482709e204cf148d0abff", "is_reserved": 0, "lon": -76.9705245, "is_disabled": 0, "fusion_lon": 0.0, "rental_uris": {"android": "https://dc.lft.to/lastmile_qr_scan", "ios": "https://dc.lft.to/lastmile_qr_scan"}}, {"type": "electric_scooter", "name": "6fbfd5683198f23200d89440752dfaed", "lat": 38.906727833333335, "fusion_lat": 0.0, "bike_id": "6fbfd5683198f23200d89440752dfaed", "is_reserved": 0, "lon": -77.043317, "is_disabled": 0, "fusion_lon": 0.0, "rental_uris": {"android": "https://dc.lft.to/lastmile_qr_scan", "ios": "https://dc.lft.to/lastmile_qr_scan"}}, {"type": "electric_scooter", "name": "0b208777c5387f79516e9212672ff909", "lat": 38.925159, "fusion_lat": 0.0, "bike_id": "0b208777c5387f79516e9212672ff909", "is_reserved": 0, "lon": -77.0214335, "is_disabled": 0, "fusion_lon": 0.0, "rental_uris": {"android": "https://dc.lft.to/lastmile_qr_scan", "ios": "https://dc.lft.to/lastmile_qr_scan"}}, {"type": "electric_scooter", "name": "54bd8b6cb166b0d829ca912a4e2a8184", "lat": 38.9105135, "fusion_lat": 0.0, "bike_id": "54bd8b6cb166b0d829ca912a4e2a8184", "is_reserved": 0, "lon": -77.03231416666667, "is_disabled": 0, "fusion_lon": 0.0, "rental_uris": {"android": "https://dc.lft.to/lastmile_qr_scan", "ios": "https://dc.lft.to/lastmile_qr_scan"}}, {"type": "electric_scooter", "name": "21523308c9c8a3c610843455797421b5", "lat": 38.929584166666665, "fusion_lat": 0.0, "bike_id": "21523308c9c8a3c610843455797421b5", "is_reserved": 0, "lon": -77.02785666666666, "is_disabled": 0, "fusion_lon": 0.0, "rental_uris": {"android": "https://dc.lft.to/lastmile_qr_scan", "ios": "https://dc.lft.to/lastmile_qr_scan"}}, {"type": "electric_scooter", "name": "c0dee03866d48ed6bd2a83305363d426", "lat": 38.8768435, "fusion_lat": 0.0, "bike_id": "c0dee03866d48ed6bd2a83305363d426", "is_reserved": 0, "lon": -77.0175585, "is_disabled": 0, "fusion_lon": 0.0, "rental_uris": {"android": "https://dc.lft.to/lastmile_qr_scan", "ios": "https://dc.lft.to/lastmile_qr_scan"}}, {"type": "electric_bike", "name": "e55cac762c0a623d71a45efbbd1bf115", "lat": 38.90954683333333, "fusion_lat": 0.0, "bike_id": "e55cac762c0a623d71a45efbbd1bf115", "is_reserved": 0, "lon": -76.99899766666667, "is_disabled": 0, "fusion_lon": 0.0, "rental_uris": {"android": "https://dc.lft.to/lastmile_qr_scan", "ios": "https://dc.lft.to/lastmile_qr_scan"}}, {"type": "electric_scooter", "name": "aea365b308f31842bb0fb06f15d195cd", "lat": 38.919687833333334, "fusion_lat": 0.0, "bike_id": "aea365b308f31842bb0fb06f15d195cd", "is_reserved": 0, "lon": -77.02377816666667, "is_disabled": 0, "fusion_lon": 0.0, "rental_uris": {"android": "https://dc.lft.to/lastmile_qr_scan", "ios": "https://dc.lft.to/lastmile_qr_scan"}}, {"type": "electric_scooter", "name": "6057a3550ce8a7f6e54f374c66a3ce0d", "lat": 38.90283316666667, "fusion_lat": 0.0, "bike_id": "6057a3550ce8a7f6e54f374c66a3ce0d", "is_reserved": 0, "lon": -77.01775166666667, "is_disabled": 0, "fusion_lon": 0.0, "rental_uris": {"android": "https://dc.lft.to/lastmile_qr_scan", "ios": "https://dc.lft.to/lastmile_qr_scan"}}, {"type": "electric_scooter", "name": "3f8d6a86358342d187ff14cad4cf16c0", "lat": 38.94177633333334, "fusion_lat": 0.0, "bike_id": "3f8d6a86358342d187ff14cad4cf16c0", "is_reserved": 0, "lon": -77.0314355, "is_disabled": 0, "fusion_lon": 0.0, "rental_uris": {"android": "https://dc.lft.to/lastmile_qr_scan", "ios": "https://dc.lft.to/lastmile_qr_scan"}}, {"type": "electric_scooter", "name": "b81f2e1bf336526b08269b62cd1eda4a", "lat": 38.922475666666664, "fusion_lat": 0.0, "bike_id": "b81f2e1bf336526b08269b62cd1eda4a", "is_reserved": 0, "lon": -77.0389575, "is_disabled": 0, "fusion_lon": 0.0, "rental_uris": {"android": "https://dc.lft.to/lastmile_qr_scan", "ios": "https://dc.lft.to/lastmile_qr_scan"}}, {"type": "electric_scooter", "name": "9d9fa92df51b9682449d024ef2bd622e", "lat": 38.90304, "fusion_lat": 0.0, "bike_id": "9d9fa92df51b9682449d024ef2bd622e", "is_reserved": 0, "lon": -77.0236535, "is_disabled": 0, "fusion_lon": 0.0, "rental_uris": {"android": "https://dc.lft.to/lastmile_qr_scan", "ios": "https://dc.lft.to/lastmile_qr_scan"}}, {"type": "electric_scooter", "name": "5141a7005bee0e1a7c7c6250c81804ff", "lat": 38.9155745, "fusion_lat": 0.0, "bike_id": "5141a7005bee0e1a7c7c6250c81804ff", "is_reserved": 0, "lon": -77.03176816666667, "is_disabled": 0, "fusion_lon": 0.0, "rental_uris": {"android": "https://dc.lft.to/lastmile_qr_scan", "ios": "https://dc.lft.to/lastmile_qr_scan"}}, {"type": "electric_scooter", "name": "40f616611cf9df49549218f69410f918", "lat": 38.93213166666666, "fusion_lat": 0.0, "bike_id": "40f616611cf9df49549218f69410f918", "is_reserved": 0, "lon": -77.03359283333333, "is_disabled": 0, "fusion_lon": 0.0, "rental_uris": {"android": "https://dc.lft.to/lastmile_qr_scan", "ios": "https://dc.lft.to/lastmile_qr_scan"}}, {"type": "electric_scooter", "name": "0b2f2f0568e61e1e9300e38bbd5402a3", "lat": 38.9050235, "fusion_lat": 0.0, "bike_id": "0b2f2f0568e61e1e9300e38bbd5402a3", "is_reserved": 0, "lon": -77.06878716666667, "is_disabled": 0, "fusion_lon": 0.0, "rental_uris": {"android": "https://dc.lft.to/lastmile_qr_scan", "ios": "https://dc.lft.to/lastmile_qr_scan"}}, {"type": "electric_scooter", "name": "b399c37816a5778e4cd6c4e672654e2c", "lat": 38.92110316666667, "fusion_lat": 0.0, "bike_id": "b399c37816a5778e4cd6c4e672654e2c", "is_reserved": 0, "lon": -77.063297, "is_disabled": 0, "fusion_lon": 0.0, "rental_uris": {"android": "https://dc.lft.to/lastmile_qr_scan", "ios": "https://dc.lft.to/lastmile_qr_scan"}}, {"type": "electric_scooter", "name": "8016109e7ace3caec65b6a33802c3aa2", "lat": 38.907175, "fusion_lat": 0.0, "bike_id": "8016109e7ace3caec65b6a33802c3aa2", "is_reserved": 0, "lon": -77.0441405, "is_disabled": 0, "fusion_lon": 0.0, "rental_uris": {"android": "https://dc.lft.to/lastmile_qr_scan", "ios": "https://dc.lft.to/lastmile_qr_scan"}}, {"type": "electric_scooter", "name": "9dc9fc4dc023c58f46f74ddc06188f67", "lat": 38.88745733333333, "fusion_lat": 0.0, "bike_id": "9dc9fc4dc023c58f46f74ddc06188f67", "is_reserved": 0, "lon": -77.02225033333333, "is_disabled": 0, "fusion_lon": 0.0, "rental_uris": {"android": "https://dc.lft.to/lastmile_qr_scan", "ios": "https://dc.lft.to/lastmile_qr_scan"}}, {"type": "electric_scooter", "name": "ef6897014b403c005e6c9f5d0a7ce9fe", "lat": 38.89507233333333, "fusion_lat": 0.0, "bike_id": "ef6897014b403c005e6c9f5d0a7ce9fe", "is_reserved": 0, "lon": -77.00337833333333, "is_disabled": 0, "fusion_lon": 0.0, "rental_uris": {"android": "https://dc.lft.to/lastmile_qr_scan", "ios": "https://dc.lft.to/lastmile_qr_scan"}}, {"type": "electric_scooter", "name": "bd3b870a1b378d4547b7c1d06d8a4df1", "lat": 38.908382, "fusion_lat": 0.0, "bike_id": "bd3b870a1b378d4547b7c1d06d8a4df1", "is_reserved": 0, "lon": -77.0394435, "is_disabled": 0, "fusion_lon": 0.0, "rental_uris": {"android": "https://dc.lft.to/lastmile_qr_scan", "ios": "https://dc.lft.to/lastmile_qr_scan"}}, {"type": "electric_scooter", "name": "3543b1dc8b520fe1fe7e2ad870137fee", "lat": 38.90266666666667, "fusion_lat": 0.0, "bike_id": "3543b1dc8b520fe1fe7e2ad870137fee", "is_reserved": 0, "lon": -77.03072483333334, "is_disabled": 0, "fusion_lon": 0.0, "rental_uris": {"android": "https://dc.lft.to/lastmile_qr_scan", "ios": "https://dc.lft.to/lastmile_qr_scan"}}, {"type": "electric_scooter", "name": "34b3a183be562decd31f8195fd2ba1c6", "lat": 38.957241833333335, "fusion_lat": 0.0, "bike_id": "34b3a183be562decd31f8195fd2ba1c6", "is_reserved": 0, "lon": -77.03254866666667, "is_disabled": 0, "fusion_lon": 0.0, "rental_uris": {"android": "https://dc.lft.to/lastmile_qr_scan", "ios": "https://dc.lft.to/lastmile_qr_scan"}}, {"type": "electric_scooter", "name": "844a6bf3a1abc4cd92709e9efcff4fe5", "lat": 38.9109085, "fusion_lat": 0.0, "bike_id": "844a6bf3a1abc4cd92709e9efcff4fe5", "is_reserved": 0, "lon": -77.01625066666666, "is_disabled": 0, "fusion_lon": 0.0, "rental_uris": {"android": "https://dc.lft.to/lastmile_qr_scan", "ios": "https://dc.lft.to/lastmile_qr_scan"}}, {"type": "electric_scooter", "name": "a3f9f503f81900c0ceade49ba641aace", "lat": 38.92177916666667, "fusion_lat": 0.0, "bike_id": "a3f9f503f81900c0ceade49ba641aace", "is_reserved": 0, "lon": -77.04699266666667, "is_disabled": 0, "fusion_lon": 0.0, "rental_uris": {"android": "https://dc.lft.to/lastmile_qr_scan", "ios": "https://dc.lft.to/lastmile_qr_scan"}}, {"type": "electric_scooter", "name": "a726204e3ab3faf2cb4d1125a327ccbf", "lat": 38.90597783333333, "fusion_lat": 0.0, "bike_id": "a726204e3ab3faf2cb4d1125a327ccbf", "is_reserved": 0, "lon": -77.04686716666667, "is_disabled": 0, "fusion_lon": 0.0, "rental_uris": {"android": "https://dc.lft.to/lastmile_qr_scan", "ios": "https://dc.lft.to/lastmile_qr_scan"}}, {"type": "electric_bike", "name": "bfb37856180736e99a3b97e269959c1d", "lat": 38.903762666666665, "fusion_lat": 0.0, "bike_id": "bfb37856180736e99a3b97e269959c1d", "is_reserved": 0, "lon": -77.04008683333333, "is_disabled": 0, "fusion_lon": 0.0, "rental_uris": {"android": "https://dc.lft.to/lastmile_qr_scan", "ios": "https://dc.lft.to/lastmile_qr_scan"}}, {"type": "electric_scooter", "name": "b7df17ecbca7174b6fc71c4a796fccd4", "lat": 38.90967283333333, "fusion_lat": 0.0, "bike_id": "b7df17ecbca7174b6fc71c4a796fccd4", "is_reserved": 0, "lon": -77.0477065, "is_disabled": 0, "fusion_lon": 0.0, "rental_uris": {"android": "https://dc.lft.to/lastmile_qr_scan", "ios": "https://dc.lft.to/lastmile_qr_scan"}}, {"type": "electric_scooter", "name": "32e3037756588500bdbf5bb85e9f50c4", "lat": 38.921481166666666, "fusion_lat": 0.0, "bike_id": "32e3037756588500bdbf5bb85e9f50c4", "is_reserved": 0, "lon": -76.993811, "is_disabled": 0, "fusion_lon": 0.0, "rental_uris": {"android": "https://dc.lft.to/lastmile_qr_scan", "ios": "https://dc.lft.to/lastmile_qr_scan"}}, {"type": "electric_scooter", "name": "d89b31ec09760839254dbb085de025be", "lat": 38.893476166666666, "fusion_lat": 0.0, "bike_id": "d89b31ec09760839254dbb085de025be", "is_reserved": 0, "lon": -77.016016, "is_disabled": 0, "fusion_lon": 0.0, "rental_uris": {"android": "https://dc.lft.to/lastmile_qr_scan", "ios": "https://dc.lft.to/lastmile_qr_scan"}}, {"type": "electric_scooter", "name": "c7fc68d5938242c31c706bb998b08038", "lat": 38.898287333333336, "fusion_lat": 0.0, "bike_id": "c7fc68d5938242c31c706bb998b08038", "is_reserved": 0, "lon": -76.94651966666666, "is_disabled": 0, "fusion_lon": 0.0, "rental_uris": {"android": "https://dc.lft.to/lastmile_qr_scan", "ios": "https://dc.lft.to/lastmile_qr_scan"}}, {"type": "electric_scooter", "name": "6203e0ec51f08632c5c7ef4ccb3a00c8", "lat": 38.92811366666667, "fusion_lat": 0.0, "bike_id": "6203e0ec51f08632c5c7ef4ccb3a00c8", "is_reserved": 0, "lon": -77.03266283333333, "is_disabled": 0, "fusion_lon": 0.0, "rental_uris": {"android": "https://dc.lft.to/lastmile_qr_scan", "ios": "https://dc.lft.to/lastmile_qr_scan"}}, {"type": "electric_scooter", "name": "5a2368615865e810ad59a9b4f4cb9176", "lat": 38.905916166666664, "fusion_lat": 0.0, "bike_id": "5a2368615865e810ad59a9b4f4cb9176", "is_reserved": 0, "lon": -77.04032033333333, "is_disabled": 0, "fusion_lon": 0.0, "rental_uris": {"android": "https://dc.lft.to/lastmile_qr_scan", "ios": "https://dc.lft.to/lastmile_qr_scan"}}, {"type": "electric_scooter", "name": "84d059e256d1b5407c5e5d1ba1e7cb0a", "lat": 38.92463166666667, "fusion_lat": 0.0, "bike_id": "84d059e256d1b5407c5e5d1ba1e7cb0a", "is_reserved": 0, "lon": -77.02150033333334, "is_disabled": 0, "fusion_lon": 0.0, "rental_uris": {"android": "https://dc.lft.to/lastmile_qr_scan", "ios": "https://dc.lft.to/lastmile_qr_scan"}}, {"type": "electric_scooter", "name": "51d258431ed567f0c8d7353d5bcc262e", "lat": 38.884271, "fusion_lat": 0.0, "bike_id": "51d258431ed567f0c8d7353d5bcc262e", "is_reserved": 0, "lon": -76.957528, "is_disabled": 0, "fusion_lon": 0.0, "rental_uris": {"android": "https://dc.lft.to/lastmile_qr_scan", "ios": "https://dc.lft.to/lastmile_qr_scan"}}, {"type": "electric_scooter", "name": "2d9bee3e4fe2bfc0854543a643cb9c6f", "lat": 38.9246475, "fusion_lat": 0.0, "bike_id": "2d9bee3e4fe2bfc0854543a643cb9c6f", "is_reserved": 0, "lon": -77.02150633333333, "is_disabled": 0, "fusion_lon": 0.0, "rental_uris": {"android": "https://dc.lft.to/lastmile_qr_scan", "ios": "https://dc.lft.to/lastmile_qr_scan"}}, {"type": "electric_scooter", "name": "eb853b06944962c6c74e2754edcea7d8", "lat": 38.92484833333334, "fusion_lat": 0.0, "bike_id": "eb853b06944962c6c74e2754edcea7d8", "is_reserved": 0, "lon": -77.022039, "is_disabled": 0, "fusion_lon": 0.0, "rental_uris": {"android": "https://dc.lft.to/lastmile_qr_scan", "ios": "https://dc.lft.to/lastmile_qr_scan"}}, {"type": "electric_scooter", "name": "5dc356b5a1e73fe86b229953c2afcb18", "lat": 38.92399433333333, "fusion_lat": 0.0, "bike_id": "5dc356b5a1e73fe86b229953c2afcb18", "is_reserved": 0, "lon": -77.02558783333333, "is_disabled": 0, "fusion_lon": 0.0, "rental_uris": {"android": "https://dc.lft.to/lastmile_qr_scan", "ios": "https://dc.lft.to/lastmile_qr_scan"}}, {"type": "electric_scooter", "name": "b11d93e62531c0f10128115e21119064", "lat": 38.946076833333336, "fusion_lat": 0.0, "bike_id": "b11d93e62531c0f10128115e21119064", "is_reserved": 0, "lon": -77.0962915, "is_disabled": 0, "fusion_lon": 0.0, "rental_uris": {"android": "https://dc.lft.to/lastmile_qr_scan", "ios": "https://dc.lft.to/lastmile_qr_scan"}}, {"type": "electric_bike", "name": "45a9fe06bc6a4597873aff8466c13624", "lat": 38.96462133333333, "fusion_lat": 0.0, "bike_id": "45a9fe06bc6a4597873aff8466c13624", "is_reserved": 0, "lon": -77.0086495, "is_disabled": 0, "fusion_lon": 0.0, "rental_uris": {"android": "https://dc.lft.to/lastmile_qr_scan", "ios": "https://dc.lft.to/lastmile_qr_scan"}}, {"type": "electric_scooter", "name": "27d2ba4c50f6e5fdfd5cd6308dc1e162", "lat": 38.916017, "fusion_lat": 0.0, "bike_id": "27d2ba4c50f6e5fdfd5cd6308dc1e162", "is_reserved": 0, "lon": -77.03849083333333, "is_disabled": 0, "fusion_lon": 0.0, "rental_uris": {"android": "https://dc.lft.to/lastmile_qr_scan", "ios": "https://dc.lft.to/lastmile_qr_scan"}}, {"type": "electric_scooter", "name": "742f734874531b2a9a2fa51d75287cac", "lat": 38.89845183333333, "fusion_lat": 0.0, "bike_id": "742f734874531b2a9a2fa51d75287cac", "is_reserved": 0, "lon": -77.04152566666667, "is_disabled": 0, "fusion_lon": 0.0, "rental_uris": {"android": "https://dc.lft.to/lastmile_qr_scan", "ios": "https://dc.lft.to/lastmile_qr_scan"}}, {"type": "electric_scooter", "name": "38a77508d56085bf8274e5063c7faaf1", "lat": 38.9031335, "fusion_lat": 0.0, "bike_id": "38a77508d56085bf8274e5063c7faaf1", "is_reserved": 0, "lon": -77.03448616666667, "is_disabled": 0, "fusion_lon": 0.0, "rental_uris": {"android": "https://dc.lft.to/lastmile_qr_scan", "ios": "https://dc.lft.to/lastmile_qr_scan"}}, {"type": "electric_scooter", "name": "f53085841bf299466b4793069c9257c7", "lat": 38.9170645, "fusion_lat": 0.0, "bike_id": "f53085841bf299466b4793069c9257c7", "is_reserved": 0, "lon": -77.03502883333333, "is_disabled": 0, "fusion_lon": 0.0, "rental_uris": {"android": "https://dc.lft.to/lastmile_qr_scan", "ios": "https://dc.lft.to/lastmile_qr_scan"}}, {"type": "electric_bike", "name": "bcc1e7b86c4b4f83f866c039ea5a1e69", "lat": 38.896174333333335, "fusion_lat": 0.0, "bike_id": "bcc1e7b86c4b4f83f866c039ea5a1e69", "is_reserved": 0, "lon": -76.90739683333334, "is_disabled": 0, "fusion_lon": 0.0, "rental_uris": {"android": "https://dc.lft.to/lastmile_qr_scan", "ios": "https://dc.lft.to/lastmile_qr_scan"}}, {"type": "electric_scooter", "name": "45441044c27f09bcf24723692d852c8a", "lat": 38.897692, "fusion_lat": 0.0, "bike_id": "45441044c27f09bcf24723692d852c8a", "is_reserved": 0, "lon": -77.03177833333334, "is_disabled": 0, "fusion_lon": 0.0, "rental_uris": {"android": "https://dc.lft.to/lastmile_qr_scan", "ios": "https://dc.lft.to/lastmile_qr_scan"}}, {"type": "electric_scooter", "name": "86e2e7eb5f8d28d232c064e491c2d382", "lat": 38.9083205, "fusion_lat": 0.0, "bike_id": "86e2e7eb5f8d28d232c064e491c2d382", "is_reserved": 0, "lon": -77.039418, "is_disabled": 0, "fusion_lon": 0.0, "rental_uris": {"android": "https://dc.lft.to/lastmile_qr_scan", "ios": "https://dc.lft.to/lastmile_qr_scan"}}, {"type": "electric_bike", "name": "2bfccc26ab29d8a6845472d7ce45de5d", "lat": 38.80450666666667, "fusion_lat": 0.0, "bike_id": "2bfccc26ab29d8a6845472d7ce45de5d", "is_reserved": 0, "lon": -77.05389233333334, "is_disabled": 0, "fusion_lon": 0.0, "rental_uris": {"android": "https://dc.lft.to/lastmile_qr_scan", "ios": "https://dc.lft.to/lastmile_qr_scan"}}, {"type": "electric_scooter", "name": "3980b808c40c1389661c555cf5c5d7b3", "lat": 38.91423066666667, "fusion_lat": 0.0, "bike_id": "3980b808c40c1389661c555cf5c5d7b3", "is_reserved": 0, "lon": -77.0317835, "is_disabled": 0, "fusion_lon": 0.0, "rental_uris": {"android": "https://dc.lft.to/lastmile_qr_scan", "ios": "https://dc.lft.to/lastmile_qr_scan"}}, {"type": "electric_scooter", "name": "4bebc0f012058aa78b05ba85bd5aadf8", "lat": 38.899390833333335, "fusion_lat": 0.0, "bike_id": "4bebc0f012058aa78b05ba85bd5aadf8", "is_reserved": 0, "lon": -77.04481333333334, "is_disabled": 0, "fusion_lon": 0.0, "rental_uris": {"android": "https://dc.lft.to/lastmile_qr_scan", "ios": "https://dc.lft.to/lastmile_qr_scan"}}, {"type": "electric_scooter", "name": "9b314bcf310dd98a4eddee261f978269", "lat": 38.91044566666667, "fusion_lat": 0.0, "bike_id": "9b314bcf310dd98a4eddee261f978269", "is_reserved": 0, "lon": -77.03127066666667, "is_disabled": 0, "fusion_lon": 0.0, "rental_uris": {"android": "https://dc.lft.to/lastmile_qr_scan", "ios": "https://dc.lft.to/lastmile_qr_scan"}}, {"type": "electric_scooter", "name": "9ac90017659c8e9c23b1c1e956d7ec76", "lat": 38.9268775, "fusion_lat": 0.0, "bike_id": "9ac90017659c8e9c23b1c1e956d7ec76", "is_reserved": 0, "lon": -77.01476466666666, "is_disabled": 0, "fusion_lon": 0.0, "rental_uris": {"android": "https://dc.lft.to/lastmile_qr_scan", "ios": "https://dc.lft.to/lastmile_qr_scan"}}, {"type": "electric_scooter", "name": "78d76977287afa30c7a0ba5e9d8747f2", "lat": 38.89733416666667, "fusion_lat": 0.0, "bike_id": "78d76977287afa30c7a0ba5e9d8747f2", "is_reserved": 0, "lon": -77.0552105, "is_disabled": 0, "fusion_lon": 0.0, "rental_uris": {"android": "https://dc.lft.to/lastmile_qr_scan", "ios": "https://dc.lft.to/lastmile_qr_scan"}}, {"type": "electric_scooter", "name": "27a784d72bb8e8df9dc60ab0e4bdad6a", "lat": 38.9054235, "fusion_lat": 0.0, "bike_id": "27a784d72bb8e8df9dc60ab0e4bdad6a", "is_reserved": 0, "lon": -77.0570585, "is_disabled": 0, "fusion_lon": 0.0, "rental_uris": {"android": "https://dc.lft.to/lastmile_qr_scan", "ios": "https://dc.lft.to/lastmile_qr_scan"}}, {"type": "electric_scooter", "name": "0ddd84ce9acd437f7aa64d0362132242", "lat": 38.899072833333335, "fusion_lat": 0.0, "bike_id": "0ddd84ce9acd437f7aa64d0362132242", "is_reserved": 0, "lon": -77.03286216666666, "is_disabled": 0, "fusion_lon": 0.0, "rental_uris": {"android": "https://dc.lft.to/lastmile_qr_scan", "ios": "https://dc.lft.to/lastmile_qr_scan"}}, {"type": "electric_scooter", "name": "47e1b6b9f07249c6f5ca2ecf57772c18", "lat": 38.909861, "fusion_lat": 0.0, "bike_id": "47e1b6b9f07249c6f5ca2ecf57772c18", "is_reserved": 0, "lon": -77.03372316666666, "is_disabled": 0, "fusion_lon": 0.0, "rental_uris": {"android": "https://dc.lft.to/lastmile_qr_scan", "ios": "https://dc.lft.to/lastmile_qr_scan"}}, {"type": "electric_bike", "name": "a03e7fc77f5268893037c1f8791e650d", "lat": 38.973804666666666, "fusion_lat": 0.0, "bike_id": "a03e7fc77f5268893037c1f8791e650d", "is_reserved": 0, "lon": -77.06470166666666, "is_disabled": 0, "fusion_lon": 0.0, "rental_uris": {"android": "https://dc.lft.to/lastmile_qr_scan", "ios": "https://dc.lft.to/lastmile_qr_scan"}}, {"type": "electric_scooter", "name": "3548aa0a7c0ce4a434f7e0c27012e602", "lat": 38.8983365, "fusion_lat": 0.0, "bike_id": "3548aa0a7c0ce4a434f7e0c27012e602", "is_reserved": 0, "lon": -77.04340283333333, "is_disabled": 0, "fusion_lon": 0.0, "rental_uris": {"android": "https://dc.lft.to/lastmile_qr_scan", "ios": "https://dc.lft.to/lastmile_qr_scan"}}, {"type": "electric_scooter", "name": "2a37eb645e6d27f74339c3cb7c7186e8", "lat": 38.89868166666667, "fusion_lat": 0.0, "bike_id": "2a37eb645e6d27f74339c3cb7c7186e8", "is_reserved": 0, "lon": -76.9463295, "is_disabled": 0, "fusion_lon": 0.0, "rental_uris": {"android": "https://dc.lft.to/lastmile_qr_scan", "ios": "https://dc.lft.to/lastmile_qr_scan"}}, {"type": "electric_scooter", "name": "5f037fad33cf72ec3367f13f95b44241", "lat": 38.9115335, "fusion_lat": 0.0, "bike_id": "5f037fad33cf72ec3367f13f95b44241", "is_reserved": 0, "lon": -77.02376583333333, "is_disabled": 0, "fusion_lon": 0.0, "rental_uris": {"android": "https://dc.lft.to/lastmile_qr_scan", "ios": "https://dc.lft.to/lastmile_qr_scan"}}, {"type": "electric_scooter", "name": "6fba1e22ecea89d28e0c0c52a7ebf191", "lat": 38.93396366666666, "fusion_lat": 0.0, "bike_id": "6fba1e22ecea89d28e0c0c52a7ebf191", "is_reserved": 0, "lon": -77.05743466666667, "is_disabled": 0, "fusion_lon": 0.0, "rental_uris": {"android": "https://dc.lft.to/lastmile_qr_scan", "ios": "https://dc.lft.to/lastmile_qr_scan"}}, {"type": "electric_scooter", "name": "3b43f432b6faeb58b83e82975710cb58", "lat": 38.91046516666667, "fusion_lat": 0.0, "bike_id": "3b43f432b6faeb58b83e82975710cb58", "is_reserved": 0, "lon": -77.043732, "is_disabled": 0, "fusion_lon": 0.0, "rental_uris": {"android": "https://dc.lft.to/lastmile_qr_scan", "ios": "https://dc.lft.to/lastmile_qr_scan"}}, {"type": "electric_scooter", "name": "a8c4b3bd1eccfcfbe4fff485b6889065", "lat": 38.911975166666664, "fusion_lat": 0.0, "bike_id": "a8c4b3bd1eccfcfbe4fff485b6889065", "is_reserved": 0, "lon": -77.03642783333333, "is_disabled": 0, "fusion_lon": 0.0, "rental_uris": {"android": "https://dc.lft.to/lastmile_qr_scan", "ios": "https://dc.lft.to/lastmile_qr_scan"}}, {"type": "electric_scooter", "name": "0d604ae7fc6c6fb7f4853d2760bc3bfc", "lat": 38.92410783333333, "fusion_lat": 0.0, "bike_id": "0d604ae7fc6c6fb7f4853d2760bc3bfc", "is_reserved": 0, "lon": -77.02008983333333, "is_disabled": 0, "fusion_lon": 0.0, "rental_uris": {"android": "https://dc.lft.to/lastmile_qr_scan", "ios": "https://dc.lft.to/lastmile_qr_scan"}}, {"type": "electric_scooter", "name": "b9fa11bcead72f1a267581ad4a96095c", "lat": 38.888189833333335, "fusion_lat": 0.0, "bike_id": "b9fa11bcead72f1a267581ad4a96095c", "is_reserved": 0, "lon": -76.98063366666666, "is_disabled": 0, "fusion_lon": 0.0, "rental_uris": {"android": "https://dc.lft.to/lastmile_qr_scan", "ios": "https://dc.lft.to/lastmile_qr_scan"}}, {"type": "electric_scooter", "name": "acf5cfb7d611a122c0ac08daed308d8d", "lat": 38.90859016666667, "fusion_lat": 0.0, "bike_id": "acf5cfb7d611a122c0ac08daed308d8d", "is_reserved": 0, "lon": -77.02983483333334, "is_disabled": 0, "fusion_lon": 0.0, "rental_uris": {"android": "https://dc.lft.to/lastmile_qr_scan", "ios": "https://dc.lft.to/lastmile_qr_scan"}}, {"type": "electric_scooter", "name": "5110af7dcc62b89d44cb75d2e156906a", "lat": 38.90040616666667, "fusion_lat": 0.0, "bike_id": "5110af7dcc62b89d44cb75d2e156906a", "is_reserved": 0, "lon": -77.0432525, "is_disabled": 0, "fusion_lon": 0.0, "rental_uris": {"android": "https://dc.lft.to/lastmile_qr_scan", "ios": "https://dc.lft.to/lastmile_qr_scan"}}, {"type": "electric_scooter", "name": "222194b38cf91297d36d38da803e4d2d", "lat": 38.917039333333335, "fusion_lat": 0.0, "bike_id": "222194b38cf91297d36d38da803e4d2d", "is_reserved": 0, "lon": -77.02911066666667, "is_disabled": 0, "fusion_lon": 0.0, "rental_uris": {"android": "https://dc.lft.to/lastmile_qr_scan", "ios": "https://dc.lft.to/lastmile_qr_scan"}}, {"type": "electric_scooter", "name": "dc1335fd5ea4092e7f54d358fe088866", "lat": 38.905296166666666, "fusion_lat": 0.0, "bike_id": "dc1335fd5ea4092e7f54d358fe088866", "is_reserved": 0, "lon": -77.06033333333333, "is_disabled": 0, "fusion_lon": 0.0, "rental_uris": {"android": "https://dc.lft.to/lastmile_qr_scan", "ios": "https://dc.lft.to/lastmile_qr_scan"}}, {"type": "electric_bike", "name": "9e524dba612fbc95b74e873025926048", "lat": 38.83358483333333, "fusion_lat": 0.0, "bike_id": "9e524dba612fbc95b74e873025926048", "is_reserved": 0, "lon": -77.0029755, "is_disabled": 0, "fusion_lon": 0.0, "rental_uris": {"android": "https://dc.lft.to/lastmile_qr_scan", "ios": "https://dc.lft.to/lastmile_qr_scan"}}, {"type": "electric_scooter", "name": "1923a2d9524ed492c7feef2c7b8959b8", "lat": 38.905316, "fusion_lat": 0.0, "bike_id": "1923a2d9524ed492c7feef2c7b8959b8", "is_reserved": 0, "lon": -77.055954, "is_disabled": 0, "fusion_lon": 0.0, "rental_uris": {"android": "https://dc.lft.to/lastmile_qr_scan", "ios": "https://dc.lft.to/lastmile_qr_scan"}}, {"type": "electric_scooter", "name": "675ba53176dc4e80cb3208fcce8cd921", "lat": 38.92264516666667, "fusion_lat": 0.0, "bike_id": "675ba53176dc4e80cb3208fcce8cd921", "is_reserved": 0, "lon": -77.02434383333333, "is_disabled": 0, "fusion_lon": 0.0, "rental_uris": {"android": "https://dc.lft.to/lastmile_qr_scan", "ios": "https://dc.lft.to/lastmile_qr_scan"}}, {"type": "electric_scooter", "name": "731f3a075a2b23af69ef251ea6d06705", "lat": 38.90367833333333, "fusion_lat": 0.0, "bike_id": "731f3a075a2b23af69ef251ea6d06705", "is_reserved": 0, "lon": -77.03714733333334, "is_disabled": 0, "fusion_lon": 0.0, "rental_uris": {"android": "https://dc.lft.to/lastmile_qr_scan", "ios": "https://dc.lft.to/lastmile_qr_scan"}}, {"type": "electric_scooter", "name": "8e019552388055d58f28cc0184dd7aa0", "lat": 38.903988, "fusion_lat": 0.0, "bike_id": "8e019552388055d58f28cc0184dd7aa0", "is_reserved": 0, "lon": -77.06327333333333, "is_disabled": 0, "fusion_lon": 0.0, "rental_uris": {"android": "https://dc.lft.to/lastmile_qr_scan", "ios": "https://dc.lft.to/lastmile_qr_scan"}}, {"type": "electric_scooter", "name": "f9b5c42be970452010abe58aaf54c315", "lat": 38.911105666666664, "fusion_lat": 0.0, "bike_id": "f9b5c42be970452010abe58aaf54c315", "is_reserved": 0, "lon": -77.04349166666667, "is_disabled": 0, "fusion_lon": 0.0, "rental_uris": {"android": "https://dc.lft.to/lastmile_qr_scan", "ios": "https://dc.lft.to/lastmile_qr_scan"}}, {"type": "electric_scooter", "name": "a08c06ddedb7b84fa2ad6fb6347dd316", "lat": 38.917797666666665, "fusion_lat": 0.0, "bike_id": "a08c06ddedb7b84fa2ad6fb6347dd316", "is_reserved": 0, "lon": -77.02299216666667, "is_disabled": 0, "fusion_lon": 0.0, "rental_uris": {"android": "https://dc.lft.to/lastmile_qr_scan", "ios": "https://dc.lft.to/lastmile_qr_scan"}}, {"type": "electric_scooter", "name": "ae4114207f6a1173f8961a28c42a8d1d", "lat": 38.9217275, "fusion_lat": 0.0, "bike_id": "ae4114207f6a1173f8961a28c42a8d1d", "is_reserved": 0, "lon": -77.046916, "is_disabled": 0, "fusion_lon": 0.0, "rental_uris": {"android": "https://dc.lft.to/lastmile_qr_scan", "ios": "https://dc.lft.to/lastmile_qr_scan"}}, {"type": "electric_scooter", "name": "a9f6f41d0c4ec7bcbdd6d707c42aa79d", "lat": 38.925368666666664, "fusion_lat": 0.0, "bike_id": "a9f6f41d0c4ec7bcbdd6d707c42aa79d", "is_reserved": 0, "lon": -77.0352675, "is_disabled": 0, "fusion_lon": 0.0, "rental_uris": {"android": "https://dc.lft.to/lastmile_qr_scan", "ios": "https://dc.lft.to/lastmile_qr_scan"}}, {"type": "electric_scooter", "name": "99e6f49aa1c67591dc69acee14661d79", "lat": 38.90773183333334, "fusion_lat": 0.0, "bike_id": "99e6f49aa1c67591dc69acee14661d79", "is_reserved": 0, "lon": -77.07162783333334, "is_disabled": 0, "fusion_lon": 0.0, "rental_uris": {"android": "https://dc.lft.to/lastmile_qr_scan", "ios": "https://dc.lft.to/lastmile_qr_scan"}}, {"type": "electric_scooter", "name": "78773ae383feae8c60486d1fd1da6310", "lat": 38.91599466666667, "fusion_lat": 0.0, "bike_id": "78773ae383feae8c60486d1fd1da6310", "is_reserved": 0, "lon": -76.98372133333334, "is_disabled": 0, "fusion_lon": 0.0, "rental_uris": {"android": "https://dc.lft.to/lastmile_qr_scan", "ios": "https://dc.lft.to/lastmile_qr_scan"}}, {"type": "electric_scooter", "name": "e6bb224c94f2e926b208bc9d57e4a855", "lat": 38.9063645, "fusion_lat": 0.0, "bike_id": "e6bb224c94f2e926b208bc9d57e4a855", "is_reserved": 0, "lon": -77.04255866666666, "is_disabled": 0, "fusion_lon": 0.0, "rental_uris": {"android": "https://dc.lft.to/lastmile_qr_scan", "ios": "https://dc.lft.to/lastmile_qr_scan"}}, {"type": "electric_scooter", "name": "42e8ebb279018509b12c9a5a3c2c9f5c", "lat": 38.87583133333333, "fusion_lat": 0.0, "bike_id": "42e8ebb279018509b12c9a5a3c2c9f5c", "is_reserved": 0, "lon": -77.004155, "is_disabled": 0, "fusion_lon": 0.0, "rental_uris": {"android": "https://dc.lft.to/lastmile_qr_scan", "ios": "https://dc.lft.to/lastmile_qr_scan"}}, {"type": "electric_scooter", "name": "3a31153fd89ac400eb685154f80f2a5a", "lat": 38.90336283333333, "fusion_lat": 0.0, "bike_id": "3a31153fd89ac400eb685154f80f2a5a", "is_reserved": 0, "lon": -77.02117816666667, "is_disabled": 0, "fusion_lon": 0.0, "rental_uris": {"android": "https://dc.lft.to/lastmile_qr_scan", "ios": "https://dc.lft.to/lastmile_qr_scan"}}, {"type": "electric_scooter", "name": "29d3390ca2c7ae95ffbb87ad2f08c8b7", "lat": 38.90284533333333, "fusion_lat": 0.0, "bike_id": "29d3390ca2c7ae95ffbb87ad2f08c8b7", "is_reserved": 0, "lon": -77.03829933333333, "is_disabled": 0, "fusion_lon": 0.0, "rental_uris": {"android": "https://dc.lft.to/lastmile_qr_scan", "ios": "https://dc.lft.to/lastmile_qr_scan"}}, {"type": "electric_scooter", "name": "beb3c4fd9ba6672c611552e26f9702eb", "lat": 38.923162833333336, "fusion_lat": 0.0, "bike_id": "beb3c4fd9ba6672c611552e26f9702eb", "is_reserved": 0, "lon": -77.0290425, "is_disabled": 0, "fusion_lon": 0.0, "rental_uris": {"android": "https://dc.lft.to/lastmile_qr_scan", "ios": "https://dc.lft.to/lastmile_qr_scan"}}, {"type": "electric_scooter", "name": "e4eed37ff4cee27e43975e8f89f9b603", "lat": 38.920817666666665, "fusion_lat": 0.0, "bike_id": "e4eed37ff4cee27e43975e8f89f9b603", "is_reserved": 0, "lon": -77.01821033333333, "is_disabled": 0, "fusion_lon": 0.0, "rental_uris": {"android": "https://dc.lft.to/lastmile_qr_scan", "ios": "https://dc.lft.to/lastmile_qr_scan"}}, {"type": "electric_scooter", "name": "bdc51c2906c9b0d3da1bce7f47ee0838", "lat": 38.85605833333334, "fusion_lat": 0.0, "bike_id": "bdc51c2906c9b0d3da1bce7f47ee0838", "is_reserved": 0, "lon": -76.97853383333333, "is_disabled": 0, "fusion_lon": 0.0, "rental_uris": {"android": "https://dc.lft.to/lastmile_qr_scan", "ios": "https://dc.lft.to/lastmile_qr_scan"}}, {"type": "electric_scooter", "name": "a4c1d6a54230e6e4ac1ceaad2b289b8a", "lat": 38.926105666666665, "fusion_lat": 0.0, "bike_id": "a4c1d6a54230e6e4ac1ceaad2b289b8a", "is_reserved": 0, "lon": -77.021584, "is_disabled": 0, "fusion_lon": 0.0, "rental_uris": {"android": "https://dc.lft.to/lastmile_qr_scan", "ios": "https://dc.lft.to/lastmile_qr_scan"}}, {"type": "electric_scooter", "name": "8fcc4ed6afeafdef945efe9ba45e2336", "lat": 38.92247666666667, "fusion_lat": 0.0, "bike_id": "8fcc4ed6afeafdef945efe9ba45e2336", "is_reserved": 0, "lon": -77.0425525, "is_disabled": 0, "fusion_lon": 0.0, "rental_uris": {"android": "https://dc.lft.to/lastmile_qr_scan", "ios": "https://dc.lft.to/lastmile_qr_scan"}}, {"type": "electric_scooter", "name": "56ba1780a3ad661d4d17d35fa65e9011", "lat": 38.923349, "fusion_lat": 0.0, "bike_id": "56ba1780a3ad661d4d17d35fa65e9011", "is_reserved": 0, "lon": -77.03885066666666, "is_disabled": 0, "fusion_lon": 0.0, "rental_uris": {"android": "https://dc.lft.to/lastmile_qr_scan", "ios": "https://dc.lft.to/lastmile_qr_scan"}}, {"type": "electric_scooter", "name": "45f7a6ea647d5f726b46ecbf6adc3d9f", "lat": 38.90679733333333, "fusion_lat": 0.0, "bike_id": "45f7a6ea647d5f726b46ecbf6adc3d9f", "is_reserved": 0, "lon": -77.03633883333333, "is_disabled": 0, "fusion_lon": 0.0, "rental_uris": {"android": "https://dc.lft.to/lastmile_qr_scan", "ios": "https://dc.lft.to/lastmile_qr_scan"}}, {"type": "electric_scooter", "name": "b47f3e2ab9844a5d565c62518eb47741", "lat": 38.928464166666664, "fusion_lat": 0.0, "bike_id": "b47f3e2ab9844a5d565c62518eb47741", "is_reserved": 0, "lon": -76.99600516666666, "is_disabled": 0, "fusion_lon": 0.0, "rental_uris": {"android": "https://dc.lft.to/lastmile_qr_scan", "ios": "https://dc.lft.to/lastmile_qr_scan"}}, {"type": "electric_scooter", "name": "f6ccbc35c0f45bb6a9d3274dd2f69714", "lat": 38.86430166666667, "fusion_lat": 0.0, "bike_id": "f6ccbc35c0f45bb6a9d3274dd2f69714", "is_reserved": 0, "lon": -76.97996383333333, "is_disabled": 0, "fusion_lon": 0.0, "rental_uris": {"android": "https://dc.lft.to/lastmile_qr_scan", "ios": "https://dc.lft.to/lastmile_qr_scan"}}, {"type": "electric_scooter", "name": "dee01aee1023cd9e4a8c8919bffd7bd3", "lat": 38.904053833333336, "fusion_lat": 0.0, "bike_id": "dee01aee1023cd9e4a8c8919bffd7bd3", "is_reserved": 0, "lon": -77.03433316666667, "is_disabled": 0, "fusion_lon": 0.0, "rental_uris": {"android": "https://dc.lft.to/lastmile_qr_scan", "ios": "https://dc.lft.to/lastmile_qr_scan"}}, {"type": "electric_scooter", "name": "4b81e29a0d53c9ab9967a760be5dae48", "lat": 38.896378166666665, "fusion_lat": 0.0, "bike_id": "4b81e29a0d53c9ab9967a760be5dae48", "is_reserved": 0, "lon": -77.04011366666667, "is_disabled": 0, "fusion_lon": 0.0, "rental_uris": {"android": "https://dc.lft.to/lastmile_qr_scan", "ios": "https://dc.lft.to/lastmile_qr_scan"}}, {"type": "electric_scooter", "name": "be01c2928ee80498e0e5889bf197e577", "lat": 38.911021, "fusion_lat": 0.0, "bike_id": "be01c2928ee80498e0e5889bf197e577", "is_reserved": 0, "lon": -77.02721166666667, "is_disabled": 0, "fusion_lon": 0.0, "rental_uris": {"android": "https://dc.lft.to/lastmile_qr_scan", "ios": "https://dc.lft.to/lastmile_qr_scan"}}, {"type": "electric_scooter", "name": "1597ef215e785352462c823d4ee3d1fd", "lat": 38.93268916666667, "fusion_lat": 0.0, "bike_id": "1597ef215e785352462c823d4ee3d1fd", "is_reserved": 0, "lon": -77.0236285, "is_disabled": 0, "fusion_lon": 0.0, "rental_uris": {"android": "https://dc.lft.to/lastmile_qr_scan", "ios": "https://dc.lft.to/lastmile_qr_scan"}}, {"type": "electric_scooter", "name": "dfc9d91714d03ec4433d4ed3eaf74ce5", "lat": 38.8998585, "fusion_lat": 0.0, "bike_id": "dfc9d91714d03ec4433d4ed3eaf74ce5", "is_reserved": 0, "lon": -77.02246883333333, "is_disabled": 0, "fusion_lon": 0.0, "rental_uris": {"android": "https://dc.lft.to/lastmile_qr_scan", "ios": "https://dc.lft.to/lastmile_qr_scan"}}, {"type": "electric_scooter", "name": "ad9568ac23dc8c5e9ec3a80a6af469fa", "lat": 38.89470566666667, "fusion_lat": 0.0, "bike_id": "ad9568ac23dc8c5e9ec3a80a6af469fa", "is_reserved": 0, "lon": -76.99499433333334, "is_disabled": 0, "fusion_lon": 0.0, "rental_uris": {"android": "https://dc.lft.to/lastmile_qr_scan", "ios": "https://dc.lft.to/lastmile_qr_scan"}}, {"type": "electric_scooter", "name": "832d97f620fec84de3a59e256149200d", "lat": 38.9169585, "fusion_lat": 0.0, "bike_id": "832d97f620fec84de3a59e256149200d", "is_reserved": 0, "lon": -77.03766033333333, "is_disabled": 0, "fusion_lon": 0.0, "rental_uris": {"android": "https://dc.lft.to/lastmile_qr_scan", "ios": "https://dc.lft.to/lastmile_qr_scan"}}, {"type": "electric_scooter", "name": "60417e474a3195d77078449bdccf0f5f", "lat": 38.895887, "fusion_lat": 0.0, "bike_id": "60417e474a3195d77078449bdccf0f5f", "is_reserved": 0, "lon": -77.02206783333334, "is_disabled": 0, "fusion_lon": 0.0, "rental_uris": {"android": "https://dc.lft.to/lastmile_qr_scan", "ios": "https://dc.lft.to/lastmile_qr_scan"}},