{"data": {"bikes": [{"rental_uris": {"ios": "https://dc.lft.to/lastmile_qr_scan", "android": "https://dc.lft.to/lastmile_qr_scan"}, "lon": -77.02725933333333, "type": "electric_scooter", "fusion_lat": 0.0, "lat": 38.924769166666664, "name": "088f3f8a9f4867560ead237a88d48a9e", "fusion_lon": 0.0, "bike_id": "088f3f8a9f4867560ead237a88d48a9e", "is_disabled": 0, "is_reserved": 0}, {"rental_uris": {"ios": "https://dc.lft.to/lastmile_qr_scan", "android": "https://dc.lft.to/lastmile_qr_scan"}, "lon": -77.047369, "type": "electric_scooter", "fusion_lat": 0.0, "lat": 38.907188, "name": "e178d0ebe78542bee1bdb2234758f9e0", "fusion_lon": 0.0, "bike_id": "e178d0ebe78542bee1bdb2234758f9e0", "is_disabled": 0, "is_reserved": 0}, {"rental_uris": {"ios": "https://dc.lft.to/lastmile_qr_scan", "android": "https://dc.lft.to/lastmile_qr_scan"}, "lon": -77.0077925, "type": "electric_scooter", "fusion_lat": 0.0, "lat": 38.90748633333333, "name": "4334ef3202d9646057bac059c6783c7f", "fusion_lon": 0.0, "bike_id": "4334ef3202d9646057bac059c6783c7f", "is_disabled": 0, "is_reserved": 0}, {"rental_uris": {"ios": "https://dc.lft.to/lastmile_qr_scan", "android": "https://dc.lft.to/lastmile_qr_scan"}, "lon": -77.00888, "type": "electric_scooter", "fusion_lat": 0.0, "lat": 38.9241035, "name": "3d87f1a5f5e528c121767537103ebb31", "fusion_lon": 0.0, "bike_id": "3d87f1a5f5e528c121767537103ebb31", "is_disabled": 0, "is_reserved": 0}, {"rental_uris": {"ios": "https://dc.lft.to/lastmile_qr_scan", "android": "https://dc.lft.to/lastmile_qr_scan"}, "lon": -77.03208166666667, "type": "electric_scooter", "fusion_lat": 0.0, "lat": 38.92005266666666, "name": "e499ceac018b120527cb40752a09d726", "fusion_lon": 0.0, "bike_id": "e499ceac018b120527cb40752a09d726", "is_disabled": 0, "is_reserved": 0}, {"rental_uris": {"ios": "https://dc.lft.to/lastmile_qr_scan", "android": "https://dc.lft.to/lastmile_qr_scan"}, "lon": -76.93535016666667, "type": "electric_scooter", "fusion_lat": 0.0, "lat": 38.89678166666667, "name": "03fc88fd738edb911bc07c2e9f829719", "fusion_lon": 0.0, "bike_id": "03fc88fd738edb911bc07c2e9f829719", "is_disabled": 0, "is_reserved": 0}, {"rental_uris": {"ios": "https://dc.lft.to/lastmile_qr_scan", "android": "https://dc.lft.to/lastmile_qr_scan"}, "lon": -77.06101466666667, "type": "electric_scooter", "fusion_lat": 0.0, "lat": 38.912215, "name": "32e5b95994629582bb4255cb6f461456", "fusion_lon": 0.0, "bike_id": "32e5b95994629582bb4255cb6f461456", "is_disabled": 0, "is_reserved": 0}, {"rental_uris": {"ios": "https://dc.lft.to/lastmile_qr_scan", "android": "https://dc.lft.to/lastmile_qr_scan"}, "lon": -77.0057265, "type": "electric_scooter", "fusion_lat": 0.0, "lat": 38.9056325, "name": "e6bbca79f1f94e464cdd11bc80354e3a", "fusion_lon": 0.0, "bike_id": "e6bbca79f1f94e464cdd11bc80354e3a", "is_disabled": 0, "is_reserved": 0}, {"rental_uris": {"ios": "https://dc.lft.to/lastmile_qr_scan", "android": "https://dc.lft.to/lastmile_qr_scan"}, "lon": -77.04542916666666, "type": "electric_scooter", "fusion_lat": 0.0, "lat": 38.91943083333334, "name": "07741c334cc92241c7bdf43040cefb1f", "fusion_lon": 0.0, "bike_id": "07741c334cc92241c7bdf43040cefb1f", "is_disabled": 0, "is_reserved": 0}, {"rental_uris": {"ios": "https://dc.lft.to/lastmile_qr_scan", "android": "https://dc.lft.to/lastmile_qr_scan"}, "lon": -77.025955, "type": "electric_scooter", "fusion_lat": 0.0, "lat": 38.88407383333333, "name": "fe93b628b27030ad63d4b576af60e0e3", "fusion_lon": 0.0, "bike_id": "fe93b628b27030ad63d4b576af60e0e3", "is_disabled": 0, "is_reserved": 0}, {"rental_uris": {"ios": "https://dc.lft.to/lastmile_qr_scan", "android": "https://dc.lft.to/lastmile_qr_scan"}, "lon": -77.05267616666667, "type": "electric_scooter", "fusion_lat": 0.0, "lat": 38.9100725, "name": "d680bd43c9a248a6c7e79f17ce210a86", "fusion_lon": 0.0, "bike_id": "d680bd43c9a248a6c7e79f17ce210a86", "is_disabled": 0, "is_reserved": 0}, {"rental_uris": {"ios": "https://dc.lft.to/lastmile_qr_scan", "android": "https://dc.lft.to/lastmile_qr_scan"}, "lon": -76.97332233333333, "type": "electric_bike", "fusion_lat": 0.0, "lat": 38.85065, "name": "bb25180b8cc4da0f9d9b53044211b275", "fusion_lon": 0.0, "bike_id": "bb25180b8cc4da0f9d9b53044211b275", "is_disabled": 0, "is_reserved": 0}, {"rental_uris": {"ios": "https://dc.lft.to/lastmile_qr_scan", "android": "https://dc.lft.to/lastmile_qr_scan"}, "lon": -77.03187333333334, "type": "electric_scooter", "fusion_lat": 0.0, "lat": 38.91735466666667, "name": "fab5be50b9e1e124fe4ad2a0d56ff8ed", "fusion_lon": 0.0, "bike_id": "fab5be50b9e1e124fe4ad2a0d56ff8ed", "is_disabled": 0, "is_reserved": 0}, {"rental_uris": {"ios": "https://dc.lft.to/lastmile_qr_scan", "android": "https://dc.lft.to/lastmile_qr_scan"}, "lon": -77.03970516666666, "type": "electric_scooter", "fusion_lat": 0.0, "lat": 38.902458, "name": "6e39a1ed2ec413693d2006ad029d71bc", "fusion_lon": 0.0, "bike_id": "6e39a1ed2ec413693d2006ad029d71bc", "is_disabled": 0, "is_reserved": 0}, {"rental_uris": {"ios": "https://dc.lft.to/lastmile_qr_scan", "android": "https://dc.lft.to/lastmile_qr_scan"}, "lon": -77.17841133333333, "type": "electric_bike", "fusion_lat": 0.0, "lat": 39.08896, "name": "4e658bc8d915e6810ecf423aa41c3449", "fusion_lon": 0.0, "bike_id": "4e658bc8d915e6810ecf423aa41c3449", "is_disabled": 0, "is_reserved": 0}, {"rental_uris": {"ios": "https://dc.lft.to/lastmile_qr_scan", "android": "https://dc.lft.to/lastmile_qr_scan"}, "lon": -77.0853605, "type": "electric_bike", "fusion_lat": 0.0, "lat": 38.85617, "name": "366863c10ec0b858bfe06680fa18730d", "fusion_lon": 0.0, "bike_id": "366863c10ec0b858bfe06680fa18730d", "is_disabled": 0, "is_reserved": 0}, {"rental_uris": {"ios": "https://dc.lft.to/lastmile_qr_scan", "android": "https://dc.lft.to/lastmile_qr_scan"}, "lon": -77.03349616666667, "type": "electric_scooter", "fusion_lat": 0.0, "lat": 38.88506983333333, "name": "3bd422ae4bc14d7dbc23fadf9b12fdc1", "fusion_lon": 0.0, "bike_id": "3bd422ae4bc14d7dbc23fadf9b12fdc1", "is_disabled": 0, "is_reserved": 0}, {"rental_uris": {"ios": "https://dc.lft.to/lastmile_qr_scan", "android": "https://dc.lft.to/lastmile_qr_scan"}, "lon": -77.02096416666667, "type": "electric_scooter", "fusion_lat": 0.0, "lat": 38.9311405, "name": "b42eae41d6c6902cea13588b4e354fe6", "fusion_lon": 0.0, "bike_id": "b42eae41d6c6902cea13588b4e354fe6", "is_disabled": 0, "is_reserved": 0}, {"rental_uris": {"ios": "https://dc.lft.to/lastmile_qr_scan", "android": "https://dc.lft.to/lastmile_qr_scan"}, "lon": -77.03828916666667, "type": "electric_scooter", "fusion_lat": 0.0, "lat": 38.91109816666667, "name": "95a0a8c51cf6286d8115099d737735fc", "fusion_lon": 0.0, "bike_id": "95a0a8c51cf6286d8115099d737735fc", "is_disabled": 0, "is_reserved": 0}, {"rental_uris": {"ios": "https://dc.lft.to/lastmile_qr_scan", "android": "https://dc.lft.to/lastmile_qr_scan"}, "lon": -77.02980716666667, "type": "electric_scooter", "fusion_lat": 0.0, "lat": 38.96230633333333, "name": "6c2e4eebc4a5073418e4f2640ec7e6c2", "fusion_lon": 0.0, "bike_id": "6c2e4eebc4a5073418e4f2640ec7e6c2", "is_disabled": 0, "is_reserved": 0}, {"rental_uris": {"ios": "https://dc.lft.to/lastmile_qr_scan", "android": "https://dc.lft.to/lastmile_qr_scan"}, "lon": -77.04103966666666, "type": "electric_scooter", "fusion_lat": 0.0, "lat": 38.9185335, "name": "42e5832d89a9a7348cef24747f66b2b9", "fusion_lon": 0.0, "bike_id": "42e5832d89a9a7348cef24747f66b2b9", "is_disabled": 0, "is_reserved": 0}, {"rental_uris": {"ios": "https://dc.lft.to/lastmile_qr_scan", "android": "https://dc.lft.to/lastmile_qr_scan"}, "lon": -77.044178, "type": "electric_scooter", "fusion_lat": 0.0, "lat": 38.89222733333333, "name": "7f2cdea86a9f598feb35cfd4bfbbf93f", "fusion_lon": 0.0, "bike_id": "7f2cdea86a9f598feb35cfd4bfbbf93f", "is_disabled": 0, "is_reserved": 0}, {"rental_uris": {"ios": "https://dc.lft.to/lastmile_qr_scan", "android": "https://dc.lft.to/lastmile_qr_scan"}, "lon": -77.026301, "type": "electric_bike", "fusion_lat": 0.0, "lat": 38.962130333333334, "name": "f19f32f9a92f0a8a294dd624c7d5c1f2", "fusion_lon": 0.0, "bike_id": "f19f32f9a92f0a8a294dd624c7d5c1f2", "is_disabled": 0, "is_reserved": 0}, {"rental_uris": {"ios": "https://dc.lft.to/lastmile_qr_scan", "android": "https://dc.lft.to/lastmile_qr_scan"}, "lon": -77.03460583333333, "type": "electric_scooter", "fusion_lat": 0.0, "lat": 38.934496, "name": "c50b96ca6a27a4bed53d79ac94268cc9", "fusion_lon": 0.0, "bike_id": "c50b96ca6a27a4bed53d79ac94268cc9", "is_disabled": 0, "is_reserved": 0}, {"rental_uris": {"ios": "https://dc.lft.to/lastmile_qr_scan", "android": "https://dc.lft.to/lastmile_qr_scan"}, "lon": -77.00723766666667, "type": "electric_scooter", "fusion_lat": 0.0, "lat": 38.884898166666666, "name": "e2bfb862a14a0831dee47d201217a2da", "fusion_lon": 0.0, "bike_id": "e2bfb862a14a0831dee47d201217a2da", "is_disabled": 0, "is_reserved": 0}, {"rental_uris": {"ios": "https://dc.lft.to/lastmile_qr_scan", "android": "https://dc.lft.to/lastmile_qr_scan"}, "lon": -77.0162715, "type": "electric_scooter", "fusion_lat": 0.0, "lat": 38.872284, "name": "7a4c4f92a37c738b0eb459d96b6f8a03", "fusion_lon": 0.0, "bike_id": "7a4c4f92a37c738b0eb459d96b6f8a03", "is_disabled": 0, "is_reserved": 0}, {"rental_uris": {"ios": "https://dc.lft.to/lastmile_qr_scan", "android": "https://dc.lft.to/lastmile_qr_scan"}, "lon": -77.0478525, "type": "electric_scooter", "fusion_lat": 0.0, "lat": 38.89225066666667, "name": "6070adabbde2581145f20f2bbe609329", "fusion_lon": 0.0, "bike_id": "6070adabbde2581145f20f2bbe609329", "is_disabled": 0, "is_reserved": 0}, {"rental_uris": {"ios": "https://dc.lft.to/lastmile_qr_scan", "android": "https://dc.lft.to/lastmile_qr_scan"}, "lon": -77.0019595, "type": "electric_scooter", "fusion_lat": 0.0, "lat": 38.900353, "name": "cedbfe7eefd0bd75a400c340476e90a8", "fusion_lon": 0.0, "bike_id": "cedbfe7eefd0bd75a400c340476e90a8", "is_disabled": 0, "is_reserved": 0}, {"rental_uris": {"ios": "https://dc.lft.to/lastmile_qr_scan", "android": "https://dc.lft.to/lastmile_qr_scan"}, "lon": -77.02341616666666, "type": "electric_scooter", "fusion_lat": 0.0, "lat": 38.92937383333334, "name": "fa2f379e35eb3c62951acaa61989f4b7", "fusion_lon": 0.0, "bike_id": "fa2f379e35eb3c62951acaa61989f4b7", "is_disabled": 0, "is_reserved": 0}, {"rental_uris": {"ios": "https://dc.lft.to/lastmile_qr_scan", "android": "https://dc.lft.to/lastmile_qr_scan"}, "lon": -76.98903883333334, "type": "electric_scooter", "fusion_lat": 0.0, "lat": 38.86697216666666, "name": "7a8bb64173c41242f26bd212eddfec34", "fusion_lon": 0.0, "bike_id": "7a8bb64173c41242f26bd212eddfec34", "is_disabled": 0, "is_reserved": 0}, {"rental_uris": {"ios": "https://dc.lft.to/lastmile_qr_scan", "android": "https://dc.lft.to/lastmile_qr_scan"}, "lon": -76.99521266666666, "type": "electric_scooter", "fusion_lat": 0.0, "lat": 38.883769666666666, "name": "87bb8b30a83a517c5f734cc205d4f914", "fusion_lon": 0.0, "bike_id": "87bb8b30a83a517c5f734cc205d4f914", "is_disabled": 0, "is_reserved": 0}, {"rental_uris": {"ios": "https://dc.lft.to/lastmile_qr_scan", "android": "https://dc.lft.to/lastmile_qr_scan"}, "lon": -76.92710033333333, "type": "electric_scooter", "fusion_lat": 0.0, "lat": 38.88767516666667, "name": "bc53c22acdfbd3d9ce5c61025265ad37", "fusion_lon": 0.0, "bike_id": "bc53c22acdfbd3d9ce5c61025265ad37", "is_disabled": 0, "is_reserved": 0}, {"rental_uris": {"ios": "https://dc.lft.to/lastmile_qr_scan", "android": "https://dc.lft.to/lastmile_qr_scan"}, "lon": -77.06652933333334, "type": "electric_scooter", "fusion_lat": 0.0, "lat": 38.92688283333333, "name": "15652defc0b94afd2c9a869d7a9438a9", "fusion_lon": 0.0, "bike_id": "15652defc0b94afd2c9a869d7a9438a9", "is_disabled": 0, "is_reserved": 0}, {"rental_uris": {"ios": "https://dc.lft.to/lastmile_qr_scan", "android": "https://dc.lft.to/lastmile_qr_scan"}, "lon": -77.066393, "type": "electric_scooter", "fusion_lat": 0.0, "lat": 38.9280455, "name": "d26dd264a8eb840f32c82a2c33ef74fd", "fusion_lon": 0.0, "bike_id": "d26dd264a8eb840f32c82a2c33ef74fd", "is_disabled": 0, "is_reserved": 0}, {"rental_uris": {"ios": "https://dc.lft.to/lastmile_qr_scan", "android": "https://dc.lft.to/lastmile_qr_scan"}, "lon": -77.01747016666667, "type": "electric_scooter", "fusion_lat": 0.0, "lat": 38.88202366666667, "name": "db72023db909e5649a7c42ed16326160", "fusion_lon": 0.0, "bike_id": "db72023db909e5649a7c42ed16326160", "is_disabled": 0, "is_reserved": 0}, {"rental_uris": {"ios": "https://dc.lft.to/lastmile_qr_scan", "android": "https://dc.lft.to/lastmile_qr_scan"}, "lon": -77.005587, "type": "electric_scooter", "fusion_lat": 0.0, "lat": 38.880603, "name": "07d69b965ce068c7470850f93c4b2d06", "fusion_lon": 0.0, "bike_id": "07d69b965ce068c7470850f93c4b2d06", "is_disabled": 0, "is_reserved": 0}, {"rental_uris": {"ios": "https://dc.lft.to/lastmile_qr_scan", "android": "https://dc.lft.to/lastmile_qr_scan"}, "lon": -77.05191783333333, "type": "electric_scooter", "fusion_lat": 0.0, "lat": 38.92431966666667, "name": "c173ae50d26aa33e281351f88c5ac8de", "fusion_lon": 0.0, "bike_id": "c173ae50d26aa33e281351f88c5ac8de", "is_disabled": 0, "is_reserved": 0}, {"rental_uris": {"ios": "https://dc.lft.to/lastmile_qr_scan", "android": "https://dc.lft.to/lastmile_qr_scan"}, "lon": -77.03209733333334, "type": "electric_scooter", "fusion_lat": 0.0, "lat": 38.887029166666665, "name": "220e953590fd1a0ebb1a72374a2ad19b", "fusion_lon": 0.0, "bike_id": "220e953590fd1a0ebb1a72374a2ad19b", "is_disabled": 0, "is_reserved": 0}, {"rental_uris": {"ios": "https://dc.lft.to/lastmile_qr_scan", "android": "https://dc.lft.to/lastmile_qr_scan"}, "lon": -77.02399016666666, "type": "electric_scooter", "fusion_lat": 0.0, "lat": 38.884487, "name": "bf9cb9029ad63b298753568a8a50a92a", "fusion_lon": 0.0, "bike_id": "bf9cb9029ad63b298753568a8a50a92a", "is_disabled": 0, "is_reserved": 0}, {"rental_uris": {"ios": "https://dc.lft.to/lastmile_qr_scan", "android": "https://dc.lft.to/lastmile_qr_scan"}, "lon": -77.03349616666667, "type": "electric_scooter", "fusion_lat": 0.0, "lat": 38.899574, "name": "3c1a9cedd2297a07682632d62b2c5474", "fusion_lon": 0.0, "bike_id": "3c1a9cedd2297a07682632d62b2c5474", "is_disabled": 0, "is_reserved": 0}, {"rental_uris": {"ios": "https://dc.lft.to/lastmile_qr_scan", "android": "https://dc.lft.to/lastmile_qr_scan"}, "lon": -77.03670983333333, "type": "electric_scooter", "fusion_lat": 0.0, "lat": 38.918152666666664, "name": "0a6eeb0eb57a80964c3d001764b02784", "fusion_lon": 0.0, "bike_id": "0a6eeb0eb57a80964c3d001764b02784", "is_disabled": 0, "is_reserved": 0}, {"rental_uris": {"ios": "https://dc.lft.to/lastmile_qr_scan", "android": "https://dc.lft.to/lastmile_qr_scan"}, "lon": -77.1131865, "type": "electric_bike", "fusion_lat": 0.0, "lat": 38.855652666666664, "name": "1271c2d3986d08878e948c8b8890334d", "fusion_lon": 0.0, "bike_id": "1271c2d3986d08878e948c8b8890334d", "is_disabled": 0, "is_reserved": 0}, {"rental_uris": {"ios": "https://dc.lft.to/lastmile_qr_scan", "android": "https://dc.lft.to/lastmile_qr_scan"}, "lon": -77.038587, "type": "electric_scooter", "fusion_lat": 0.0, "lat": 38.912062666666664, "name": "a8ed13074937cc9f4afe4d0b6f3411e0", "fusion_lon": 0.0, "bike_id": "a8ed13074937cc9f4afe4d0b6f3411e0", "is_disabled": 0, "is_reserved": 0}, {"rental_uris": {"ios": "https://dc.lft.to/lastmile_qr_scan", "android": "https://dc.lft.to/lastmile_qr_scan"}, "lon": -76.98688633333333, "type": "electric_scooter", "fusion_lat": 0.0, "lat": 38.9128495, "name": "a4b8bd17f947b22acabf42a096d8b735", "fusion_lon": 0.0, "bike_id": "a4b8bd17f947b22acabf42a096d8b735", "is_disabled": 0, "is_reserved": 0}, {"rental_uris": {"ios": "https://dc.lft.to/lastmile_qr_scan", "android": "https://dc.lft.to/lastmile_qr_scan"}, "lon": -77.03206033333333, "type": "electric_scooter", "fusion_lat": 0.0, "lat": 38.925816, "name": "dab371399c67f5157f9952e7ac2ff73e", "fusion_lon": 0.0, "bike_id": "dab371399c67f5157f9952e7ac2ff73e", "is_disabled": 0, "is_reserved": 0}, {"rental_uris": {"ios": "https://dc.lft.to/lastmile_qr_scan", "android": "https://dc.lft.to/lastmile_qr_scan"}, "lon": -77.06882633333333, "type": "electric_scooter", "fusion_lat": 0.0, "lat": 38.90513083333333, "name": "ea3a47396b56aab61b78b89f34f93a00", "fusion_lon": 0.0, "bike_id": "ea3a47396b56aab61b78b89f34f93a00", "is_disabled": 0, "is_reserved": 0}, {"rental_uris": {"ios": "https://dc.lft.to/lastmile_qr_scan", "android": "https://dc.lft.to/lastmile_qr_scan"}, "lon": -77.01088733333333, "type": "electric_scooter", "fusion_lat": 0.0, "lat": 38.893968666666666, "name": "c2f8437234ed9468ff401ad060566094", "fusion_lon": 0.0, "bike_id": "c2f8437234ed9468ff401ad060566094", "is_disabled": 0, "is_reserved": 0}, {"rental_uris": {"ios": "https://dc.lft.to/lastmile_qr_scan", "android": "https://dc.lft.to/lastmile_qr_scan"}, "lon": -77.04465166666667, "type": "electric_scooter", "fusion_lat": 0.0, "lat": 38.906507166666664, "name": "ea54a36bb968eb29e6e1fd30f5658e18", "fusion_lon": 0.0, "bike_id": "ea54a36bb968eb29e6e1fd30f5658e18", "is_disabled": 0, "is_reserved": 0}, {"rental_uris": {"ios": "https://dc.lft.to/lastmile_qr_scan", "android": "https://dc.lft.to/lastmile_qr_scan"}, "lon": -77.03254333333334, "type": "electric_scooter", "fusion_lat": 0.0, "lat": 38.92163583333333, "name": "e3a18de14d5c2167c3ddad6279e960ff", "fusion_lon": 0.0, "bike_id": "e3a18de14d5c2167c3ddad6279e960ff", "is_disabled": 0, "is_reserved": 0}, {"rental_uris": {"ios": "https://dc.lft.to/lastmile_qr_scan", "android": "https://dc.lft.to/lastmile_qr_scan"}, "lon": -76.98825733333334, "type": "electric_scooter", "fusion_lat": 0.0, "lat": 38.880235166666665, "name": "a95cd745901a320fc1229c61a44677b0", "fusion_lon": 0.0, "bike_id": "a95cd745901a320fc1229c61a44677b0", "is_disabled": 0, "is_reserved": 0}, {"rental_uris": {"ios": "https://dc.lft.to/lastmile_qr_scan", "android": "https://dc.lft.to/lastmile_qr_scan"}, "lon": -76.93832516666667, "type": "electric_scooter", "fusion_lat": 0.0, "lat": 38.897612, "name": "22cf0441f84d0fbd7359b9aea91a313a", "fusion_lon": 0.0, "bike_id": "22cf0441f84d0fbd7359b9aea91a313a", "is_disabled": 0, "is_reserved": 0}, {"rental_uris": {"ios": "https://dc.lft.to/lastmile_qr_scan", "android": "https://dc.lft.to/lastmile_qr_scan"}, "lon": -77.04998933333333, "type": "electric_scooter", "fusion_lat": 0.0, "lat": 38.89222616666667, "name": "09e7f65b29b7e375fa13421c644e6045", "fusion_lon": 0.0, "bike_id": "09e7f65b29b7e375fa13421c644e6045", "is_disabled": 0, "is_reserved": 0}, {"rental_uris": {"ios": "https://dc.lft.to/lastmile_qr_scan", "android": "https://dc.lft.to/lastmile_qr_scan"}, "lon": -77.034286, "type": "electric_scooter", "fusion_lat": 0.0, "lat": 38.9191475, "name": "cc7fe1fef493396292c5d4f3fecbf487", "fusion_lon": 0.0, "bike_id": "cc7fe1fef493396292c5d4f3fecbf487", "is_disabled": 0, "is_reserved": 0}, {"rental_uris": {"ios": "https://dc.lft.to/lastmile_qr_scan", "android": "https://dc.lft.to/lastmile_qr_scan"}, "lon": -77.00115616666666, "type": "electric_scooter", "fusion_lat": 0.0, "lat": 38.89435666666667, "name": "d26b44772f2fbddbf1355570b6e38bf1", "fusion_lon": 0.0, "bike_id": "d26b44772f2fbddbf1355570b6e38bf1", "is_disabled": 0, "is_reserved": 0}, {"rental_uris": {"ios": "https://dc.lft.to/lastmile_qr_scan", "android": "https://dc.lft.to/lastmile_qr_scan"}, "lon": -77.0353065, "type": "electric_scooter", "fusion_lat": 0.0, "lat": 38.924129666666666, "name": "67262f8d917bbb77a47257afd1842208", "fusion_lon": 0.0, "bike_id": "67262f8d917bbb77a47257afd1842208", "is_disabled": 0, "is_reserved": 0}, {"rental_uris": {"ios": "https://dc.lft.to/lastmile_qr_scan", "android": "https://dc.lft.to/lastmile_qr_scan"}, "lon": -77.04431016666666, "type": "electric_scooter", "fusion_lat": 0.0, "lat": 38.921237, "name": "838903070a3e56b06273ed07431adea2", "fusion_lon": 0.0, "bike_id": "838903070a3e56b06273ed07431adea2", "is_disabled": 0, "is_reserved": 0}, {"rental_uris": {"ios": "https://dc.lft.to/lastmile_qr_scan", "android": "https://dc.lft.to/lastmile_qr_scan"}, "lon": -77.03418766666667, "type": "electric_scooter", "fusion_lat": 0.0, "lat": 38.919244166666665, "name": "2f7b490c34445445b1f62204d41c8a3d", "fusion_lon": 0.0, "bike_id": "2f7b490c34445445b1f62204d41c8a3d", "is_disabled": 0, "is_reserved": 0}, {"rental_uris": {"ios": "https://dc.lft.to/lastmile_qr_scan", "android": "https://dc.lft.to/lastmile_qr_scan"}, "lon": -77.0272065, "type": "electric_scooter", "fusion_lat": 0.0, "lat": 38.8921975, "name": "3ba15b0556c82e1df2c4805511d678a2", "fusion_lon": 0.0, "bike_id": "3ba15b0556c82e1df2c4805511d678a2", "is_disabled": 0, "is_reserved": 0}, {"rental_uris": {"ios": "https://dc.lft.to/lastmile_qr_scan", "android": "https://dc.lft.to/lastmile_qr_scan"}, "lon": -76.994863, "type": "electric_scooter", "fusion_lat": 0.0, "lat": 38.93203883333334, "name": "144de53c94b691dc042d851ea206addd", "fusion_lon": 0.0, "bike_id": "144de53c94b691dc042d851ea206addd", "is_disabled": 0, "is_reserved": 0}, {"rental_uris": {"ios": "https://dc.lft.to/lastmile_qr_scan", "android": "https://dc.lft.to/lastmile_qr_scan"}, "lon": -77.02218083333334, "type": "electric_scooter", "fusion_lat": 0.0, "lat": 38.905756333333336, "name": "3e21018d7f5832fb27db02703fafe291", "fusion_lon": 0.0, "bike_id": "3e21018d7f5832fb27db02703fafe291", "is_disabled": 0, "is_reserved": 0}, {"rental_uris": {"ios": "https://dc.lft.to/lastmile_qr_scan", "android": "https://dc.lft.to/lastmile_qr_scan"}, "lon": -77.0241525, "type": "electric_scooter", "fusion_lat": 0.0, "lat": 38.91704683333333, "name": "ca104bec09fd537e1ef7ce702b3dbe61", "fusion_lon": 0.0, "bike_id": "ca104bec09fd537e1ef7ce702b3dbe61", "is_disabled": 0, "is_reserved": 0}, {"rental_uris": {"ios": "https://dc.lft.to/lastmile_qr_scan", "android": "https://dc.lft.to/lastmile_qr_scan"}, "lon": -77.0251705, "type": "electric_scooter", "fusion_lat": 0.0, "lat": 38.93090466666666, "name": "d99ab6e90c44acb3330f1e58ef00f21b", "fusion_lon": 0.0, "bike_id": "d99ab6e90c44acb3330f1e58ef00f21b", "is_disabled": 0, "is_reserved": 0}, {"rental_uris": {"ios": "https://dc.lft.to/lastmile_qr_scan", "android": "https://dc.lft.to/lastmile_qr_scan"}, "lon": -77.03132583333333, "type": "electric_scooter", "fusion_lat": 0.0, "lat": 38.92372266666667, "name": "ab1adeb79e89e1f1504708174a35be4a", "fusion_lon": 0.0, "bike_id": "ab1adeb79e89e1f1504708174a35be4a", "is_disabled": 0, "is_reserved": 0}, {"rental_uris": {"ios": "https://dc.lft.to/lastmile_qr_scan", "android": "https://dc.lft.to/lastmile_qr_scan"}, "lon": -76.9945825, "type": "electric_bike", "fusion_lat": 0.0, "lat": 38.94066616666667, "name": "dc7fae0bb038c9127dc0092b5c356236", "fusion_lon": 0.0, "bike_id": "dc7fae0bb038c9127dc0092b5c356236", "is_disabled": 0, "is_reserved": 0}, {"rental_uris": {"ios": "https://dc.lft.to/lastmile_qr_scan", "android": "https://dc.lft.to/lastmile_qr_scan"}, "lon": -77.12021616666667, "type": "electric_bike", "fusion_lat": 0.0, "lat": 38.85515816666667, "name": "3c46449f03c5f29a9a2f6ab0aa2d4d40", "fusion_lon": 0.0, "bike_id": "3c46449f03c5f29a9a2f6ab0aa2d4d40", "is_disabled": 0, "is_reserved": 0}, {"rental_uris": {"ios": "https://dc.lft.to/lastmile_qr_scan", "android": "https://dc.lft.to/lastmile_qr_scan"}, "lon": -76.93175816666667, "type": "electric_scooter", "fusion_lat": 0.0, "lat": 38.898822833333334, "name": "f17768f14d0e08e85added89a4113218", "fusion_lon": 0.0, "bike_id": "f17768f14d0e08e85added89a4113218", "is_disabled": 0, "is_reserved": 0}, {"rental_uris": {"ios": "https://dc.lft.to/lastmile_qr_scan", "android": "https://dc.lft.to/lastmile_qr_scan"}, "lon": -76.94973833333333, "type": "electric_scooter", "fusion_lat": 0.0, "lat": 38.893701666666665, "name": "e81f1b00cc09b204fdb3453571bddd51", "fusion_lon": 0.0, "bike_id": "e81f1b00cc09b204fdb3453571bddd51", "is_disabled": 0, "is_reserved": 0}, {"rental_uris": {"ios": "https://dc.lft.to/lastmile_qr_scan", "android": "https://dc.lft.to/lastmile_qr_scan"}, "lon": -77.018643, "type": "electric_scooter", "fusion_lat": 0.0, "lat": 38.90084, "name": "c77403f34318cd57872b943359ec0068", "fusion_lon": 0.0, "bike_id": "c77403f34318cd57872b943359ec0068", "is_disabled": 0, "is_reserved": 0}, {"rental_uris": {"ios": "https://dc.lft.to/lastmile_qr_scan", "android": "https://dc.lft.to/lastmile_qr_scan"}, "lon": -77.03179933333334, "type": "electric_scooter", "fusion_lat": 0.0, "lat": 38.8862665, "name": "acffe3359ebf966eef278b20e0afe021", "fusion_lon": 0.0, "bike_id": "acffe3359ebf966eef278b20e0afe021", "is_disabled": 0, "is_reserved": 0}, {"rental_uris": {"ios": "https://dc.lft.to/lastmile_qr_scan", "android": "https://dc.lft.to/lastmile_qr_scan"}, "lon": -77.00209616666666, "type": "electric_scooter", "fusion_lat": 0.0, "lat": 38.90224766666667, "name": "aff83ab55c73796385c40fd75aacefdc", "fusion_lon": 0.0, "bike_id": "aff83ab55c73796385c40fd75aacefdc", "is_disabled": 0, "is_reserved": 0}, {"rental_uris": {"ios": "https://dc.lft.to/lastmile_qr_scan", "android": "https://dc.lft.to/lastmile_qr_scan"}, "lon": -77.046579, "type": "electric_scooter", "fusion_lat": 0.0, "lat": 38.893333, "name": "4bd15def8acab211b506311fee7e3135", "fusion_lon": 0.0, "bike_id": "4bd15def8acab211b506311fee7e3135", "is_disabled": 0, "is_reserved": 0}, {"rental_uris": {"ios": "https://dc.lft.to/lastmile_qr_scan", "android": "https://dc.lft.to/lastmile_qr_scan"}, "lon": -77.05165866666667, "type": "electric_scooter", "fusion_lat": 0.0, "lat": 38.897687833333336, "name": "6af3e564e345256a0e889836e383afdf", "fusion_lon": 0.0, "bike_id": "6af3e564e345256a0e889836e383afdf", "is_disabled": 0, "is_reserved": 0}, {"rental_uris": {"ios": "https://dc.lft.to/lastmile_qr_scan", "android": "https://dc.lft.to/lastmile_qr_scan"}, "lon": -76.99515966666667, "type": "electric_scooter", "fusion_lat": 0.0, "lat": 38.89483033333333, "name": "913968d44c67d90e7e70c1c44d47a972", "fusion_lon": 0.0, "bike_id": "913968d44c67d90e7e70c1c44d47a972", "is_disabled": 0, "is_reserved": 0}, {"rental_uris": {"ios": "https://dc.lft.to/lastmile_qr_scan", "android": "https://dc.lft.to/lastmile_qr_scan"}, "lon": -76.99693633333334, "type": "electric_scooter", "fusion_lat": 0.0, "lat": 38.9008085, "name": "8b488608d78a909a68516f638bed87dd", "fusion_lon": 0.0, "bike_id": "8b488608d78a909a68516f638bed87dd", "is_disabled": 0, "is_reserved": 0}, {"rental_uris": {"ios": "https://dc.lft.to/lastmile_qr_scan", "android": "https://dc.lft.to/lastmile_qr_scan"}, "lon": -76.97295516666667, "type": "electric_scooter", "fusion_lat": 0.0, "lat": 38.90333783333333, "name": "e39dab568370d1d73aa78d58ba7804fd", "fusion_lon": 0.0, "bike_id": "e39dab568370d1d73aa78d58ba7804fd", "is_disabled": 0, "is_reserved": 0}, {"rental_uris": {"ios": "https://dc.lft.to/lastmile_qr_scan", "android": "https://dc.lft.to/lastmile_qr_scan"}, "lon": -77.04636516666666, "type": "electric_scooter", "fusion_lat": 0.0, "lat": 38.89221, "name": "9ceffe8dc8257e7d8702c1cb9ee0b693", "fusion_lon": 0.0, "bike_id": "9ceffe8dc8257e7d8702c1cb9ee0b693", "is_disabled": 0, "is_reserved": 0}, {"rental_uris": {"ios": "https://dc.lft.to/lastmile_qr_scan", "android": "https://dc.lft.to/lastmile_qr_scan"}, "lon": -76.94215766666667, "type": "electric_scooter", "fusion_lat": 0.0, "lat": 38.89676566666667, "name": "5f4272581ee786a2add2d1aebb8e9a7c", "fusion_lon": 0.0, "bike_id": "5f4272581ee786a2add2d1aebb8e9a7c", "is_disabled": 0, "is_reserved": 0}, {"rental_uris": {"ios": "https://dc.lft.to/lastmile_qr_scan", "android": "https://dc.lft.to/lastmile_qr_scan"}, "lon": -77.03421733333333, "type": "electric_scooter", "fusion_lat": 0.0, "lat": 38.91924383333333, "name": "fba2368918c74c61a24d0a31fb454794", "fusion_lon": 0.0, "bike_id": "fba2368918c74c61a24d0a31fb454794", "is_disabled": 0, "is_reserved": 0}, {"rental_uris": {"ios": "https://dc.lft.to/lastmile_qr_scan", "android": "https://dc.lft.to/lastmile_qr_scan"}, "lon": -77.09207283333333, "type": "electric_scooter", "fusion_lat": 0.0, "lat": 38.941342166666665, "name": "535931a4e9ae1ff34b14bb67113c3aca", "fusion_lon": 0.0, "bike_id": "535931a4e9ae1ff34b14bb67113c3aca", "is_disabled": 0, "is_reserved": 0}, {"rental_uris": {"ios": "https://dc.lft.to/lastmile_qr_scan", "android": "https://dc.lft.to/lastmile_qr_scan"}, "lon": -77.00338816666667, "type": "electric_scooter", "fusion_lat": 0.0, "lat": 38.8935665, "name": "5a31680a9968ca9f534191e0138abcd4", "fusion_lon": 0.0, "bike_id": "5a31680a9968ca9f534191e0138abcd4", "is_disabled": 0, "is_reserved": 0}, {"rental_uris": {"ios": "https://dc.lft.to/lastmile_qr_scan", "android": "https://dc.lft.to/lastmile_qr_scan"}, "lon": -77.05319483333334, "type": "electric_scooter", "fusion_lat": 0.0, "lat": 38.90642783333333, "name": "f346d453dc3ced9442b4006a0eb79453", "fusion_lon": 0.0, "bike_id": "f346d453dc3ced9442b4006a0eb79453", "is_disabled": 0, "is_reserved": 0}, {"rental_uris": {"ios": "https://dc.lft.to/lastmile_qr_scan", "android": "https://dc.lft.to/lastmile_qr_scan"}, "lon": -77.05474933333333, "type": "electric_scooter", "fusion_lat": 0.0, "lat": 38.89389666666667, "name": "a5d63a2ce3191889f9653afe6cf0ea36", "fusion_lon": 0.0, "bike_id": "a5d63a2ce3191889f9653afe6cf0ea36", "is_disabled": 0, "is_reserved": 0}, {"rental_uris": {"ios": "https://dc.lft.to/lastmile_qr_scan", "android": "https://dc.lft.to/lastmile_qr_scan"}, "lon": -77.1296185, "type": "electric_bike", "fusion_lat": 0.0, "lat": 38.8521895, "name": "459b5d2ff3640c0d1c621e670d0391ff", "fusion_lon": 0.0, "bike_id": "459b5d2ff3640c0d1c621e670d0391ff", "is_disabled": 0, "is_reserved": 0}, {"rental_uris": {"ios": "https://dc.lft.to/lastmile_qr_scan", "android": "https://dc.lft.to/lastmile_qr_scan"}, "lon": -76.93228266666667, "type": "electric_bike", "fusion_lat": 0.0, "lat": 38.86597583333333, "name": "fb9a207b0a8830e8fd1ef7d1fcf10084", "fusion_lon": 0.0, "bike_id": "fb9a207b0a8830e8fd1ef7d1fcf10084", "is_disabled": 0, "is_reserved": 0}, {"rental_uris": {"ios": "https://dc.lft.to/lastmile_qr_scan", "android": "https://dc.lft.to/lastmile_qr_scan"}, "lon": -77.00722266666666, "type": "electric_scooter", "fusion_lat": 0.0, "lat": 38.878961833333335, "name": "ea3b7361c967552dbd239e64bfb574eb", "fusion_lon": 0.0, "bike_id": "ea3b7361c967552dbd239e64bfb574eb", "is_disabled": 0, "is_reserved": 0}, {"rental_uris": {"ios": "https://dc.lft.to/lastmile_qr_scan", "android": "https://dc.lft.to/lastmile_qr_scan"}, "lon": -77.02889633333334, "type": "electric_scooter", "fusion_lat": 0.0, "lat": 38.90474533333333, "name": "f859349d6b6324a21640578321982ac0", "fusion_lon": 0.0, "bike_id": "f859349d6b6324a21640578321982ac0", "is_disabled": 0, "is_reserved": 0}, {"rental_uris": {"ios": "https://dc.lft.to/lastmile_qr_scan", "android": "https://dc.lft.to/lastmile_qr_scan"}, "lon": -76.96177516666667, "type": "electric_bike", "fusion_lat": 0.0, "lat": 38.9185925, "name": "10efac668b32291710ab4b056568c81a", "fusion_lon": 0.0, "bike_id": "10efac668b32291710ab4b056568c81a", "is_disabled": 0, "is_reserved": 0}, {"rental_uris": {"ios": "https://dc.lft.to/lastmile_qr_scan", "android": "https://dc.lft.to/lastmile_qr_scan"}, "lon": -77.01335616666667, "type": "electric_scooter", "fusion_lat": 0.0, "lat": 38.966133, "name": "5f96cc37fb6199612bb3599432bc825c", "fusion_lon": 0.0, "bike_id": "5f96cc37fb6199612bb3599432bc825c", "is_disabled": 0, "is_reserved": 0}, {"rental_uris": {"ios": "https://dc.lft.to/lastmile_qr_scan", "android": "https://dc.lft.to/lastmile_qr_scan"}, "lon": -77.09162633333334, "type": "electric_bike", "fusion_lat": 0.0, "lat": 38.967622666666664, "name": "4669e7985787542562cb54e7b4b45a87", "fusion_lon": 0.0, "bike_id": "4669e7985787542562cb54e7b4b45a87", "is_disabled": 0, "is_reserved": 0}, {"rental_uris": {"ios": "https://dc.lft.to/lastmile_qr_scan", "android": "https://dc.lft.to/lastmile_qr_scan"}, "lon": -77.0312595, "type": "electric_scooter", "fusion_lat": 0.0, "lat": 38.973785666666664, "name": "2aa8721de5e17125041b7fbd90d5998e", "fusion_lon": 0.0, "bike_id": "2aa8721de5e17125041b7fbd90d5998e", "is_disabled": 0, "is_reserved": 0}, {"rental_uris": {"ios": "https://dc.lft.to/lastmile_qr_scan", "android": "https://dc.lft.to/lastmile_qr_scan"}, "lon": -77.03787616666666, "type": "electric_scooter", "fusion_lat": 0.0, "lat": 38.936170833333335, "name": "ff115fccfc86006e7f451d08b7fa291e", "fusion_lon": 0.0, "bike_id": "ff115fccfc86006e7f451d08b7fa291e", "is_disabled": 0, "is_reserved": 0}, {"rental_uris": {"ios": "https://dc.lft.to/lastmile_qr_scan", "android": "https://dc.lft.to/lastmile_qr_scan"}, "lon": -77.04408266666667, "type": "electric_scooter", "fusion_lat": 0.0, "lat": 38.87432416666667, "name": "97b9be56174754759168ca00845caf1c", "fusion_lon": 0.0, "bike_id": "97b9be56174754759168ca00845caf1c", "is_disabled": 0, "is_reserved": 0}, {"rental_uris": {"ios": "https://dc.lft.to/lastmile_qr_scan", "android": "https://dc.lft.to/lastmile_qr_scan"}, "lon": -77.02326233333334, "type": "electric_scooter", "fusion_lat": 0.0, "lat": 38.88334483333333, "name": "6e24666024be5f49ea0d6aaa2b30deaf", "fusion_lon": 0.0, "bike_id": "6e24666024be5f49ea0d6aaa2b30deaf", "is_disabled": 0, "is_reserved": 0}, {"rental_uris": {"ios": "https://dc.lft.to/lastmile_qr_scan", "android": "https://dc.lft.to/lastmile_qr_scan"}, "lon": -77.0396795, "type": "electric_scooter", "fusion_lat": 0.0, "lat": 38.902548833333334, "name": "8550882e3ea3868d52051ef5b4f4f6c8", "fusion_lon": 0.0, "bike_id": "8550882e3ea3868d52051ef5b4f4f6c8", "is_disabled": 0, "is_reserved": 0}, {"rental_uris": {"ios": "https://dc.lft.to/lastmile_qr_scan", "android": "https://dc.lft.to/lastmile_qr_scan"}, "lon": -77.03460516666667, "type": "electric_scooter", "fusion_lat": 0.0, "lat": 38.921406166666664, "name": "b8606ffd9a5880d34ad1984b91c25cd6", "fusion_lon": 0.0, "bike_id": "b8606ffd9a5880d34ad1984b91c25cd6", "is_disabled": 0, "is_reserved": 0}, {"rental_uris": {"ios": "https://dc.lft.to/lastmile_qr_scan", "android": "https://dc.lft.to/lastmile_qr_scan"}, "lon": -77.041738, "type": "electric_scooter", "fusion_lat": 0.0, "lat": 38.91855066666667, "name": "ccab3e7ebe30e36c3e4d86b9a8cbac16", "fusion_lon": 0.0, "bike_id": "ccab3e7ebe30e36c3e4d86b9a8cbac16", "is_disabled": 0, "is_reserved": 0}, {"rental_uris": {"ios": "https://dc.lft.to/lastmile_qr_scan", "android": "https://dc.lft.to/lastmile_qr_scan"}, "lon": -77.039267, "type": "electric_scooter", "fusion_lat": 0.0, "lat": 38.9176055, "name": "f1c4f0645675070f75a99e9a4f7ca8cc", "fusion_lon": 0.0, "bike_id": "f1c4f0645675070f75a99e9a4f7ca8cc", "is_disabled": 0, "is_reserved": 0}, {"rental_uris": {"ios": "https://dc.lft.to/lastmile_qr_scan", "android": "https://dc.lft.to/lastmile_qr_scan"}, "lon": -77.04706266666666, "type": "electric_scooter", "fusion_lat": 0.0, "lat": 38.92103683333333, "name": "362ac5e20523bddab96f7a3c3ec9faf4", "fusion_lon": 0.0, "bike_id": "362ac5e20523bddab96f7a3c3ec9faf4", "is_disabled": 0, "is_reserved": 0}, {"rental_uris": {"ios": "https://dc.lft.to/lastmile_qr_scan", "android": "https://dc.lft.to/lastmile_qr_scan"}, "lon": -77.05602883333333, "type": "electric_scooter", "fusion_lat": 0.0, "lat": 38.9370325, "name": "9988deaf479671511a537844522e1a7e", "fusion_lon": 0.0, "bike_id": "9988deaf479671511a537844522e1a7e", "is_disabled": 0, "is_reserved": 0}, {"rental_uris": {"ios": "https://dc.lft.to/lastmile_qr_scan", "android": "https://dc.lft.to/lastmile_qr_scan"}, "lon": -77.03236716666666, "type": "electric_scooter", "fusion_lat": 0.0, "lat": 38.896488833333336, "name": "1e6d3e4cb895ba742c15251ea4cac7ce", "fusion_lon": 0.0, "bike_id": "1e6d3e4cb895ba742c15251ea4cac7ce", "is_disabled": 0, "is_reserved": 0}, {"rental_uris": {"ios": "https://dc.lft.to/lastmile_qr_scan", "android": "https://dc.lft.to/lastmile_qr_scan"}, "lon": -77.016278, "type": "electric_scooter", "fusion_lat": 0.0, "lat": 38.903308, "name": "9db4d2010a44cb8b1f11737b4c95398c", "fusion_lon": 0.0, "bike_id": "9db4d2010a44cb8b1f11737b4c95398c", "is_disabled": 0, "is_reserved": 0}, {"rental_uris": {"ios": "https://dc.lft.to/lastmile_qr_scan", "android": "https://dc.lft.to/lastmile_qr_scan"}, "lon": -77.05122766666666, "type": "electric_bike", "fusion_lat": 0.0, "lat": 38.99968666666667, "name": "ef5ff28b7915b492b091af019d77fa4c", "fusion_lon": 0.0, "bike_id": "ef5ff28b7915b492b091af019d77fa4c", "is_disabled": 0, "is_reserved": 0}, {"rental_uris": {"ios": "https://dc.lft.to/lastmile_qr_scan", "android": "https://dc.lft.to/lastmile_qr_scan"}, "lon": -77.02422316666667, "type": "electric_scooter", "fusion_lat": 0.0, "lat": 38.9182655, "name": "d7c8373c48d8ad82588eccdf057c5dab", "fusion_lon": 0.0, "bike_id": "d7c8373c48d8ad82588eccdf057c5dab", "is_disabled": 0, "is_reserved": 0}, {"rental_uris": {"ios": "https://dc.lft.to/lastmile_qr_scan", "android": "https://dc.lft.to/lastmile_qr_scan"}, "lon": -76.98609483333334, "type": "electric_bike", "fusion_lat": 0.0, "lat": 38.906193333333334, "name": "2e8d5fe70e51be1c75a22ce4ff1433d8", "fusion_lon": 0.0, "bike_id": "2e8d5fe70e51be1c75a22ce4ff1433d8", "is_disabled": 0, "is_reserved": 0}, {"rental_uris": {"ios": "https://dc.lft.to/lastmile_qr_scan", "android": "https://dc.lft.to/lastmile_qr_scan"}, "lon": -76.98888083333334, "type": "electric_scooter", "fusion_lat": 0.0, "lat": 38.8665465, "name": "6f48ef3202896351e4bf0a014bc7a0f7", "fusion_lon": 0.0, "bike_id": "6f48ef3202896351e4bf0a014bc7a0f7", "is_disabled": 0, "is_reserved": 0}, {"rental_uris": {"ios": "https://dc.lft.to/lastmile_qr_scan", "android": "https://dc.lft.to/lastmile_qr_scan"}, "lon": -77.02433033333334, "type": "electric_scooter", "fusion_lat": 0.0, "lat": 38.91851316666666, "name": "f5a765595f987593824e56ab7adb63d4", "fusion_lon": 0.0, "bike_id": "f5a765595f987593824e56ab7adb63d4", "is_disabled": 0, "is_reserved": 0}, {"rental_uris": {"ios": "https://dc.lft.to/lastmile_qr_scan", "android": "https://dc.lft.to/lastmile_qr_scan"}, "lon": -77.08832416666667, "type": "electric_bike", "fusion_lat": 0.0, "lat": 38.909797, "name": "440c69ddd7619805b17c04c156fe9aec", "fusion_lon": 0.0, "bike_id": "440c69ddd7619805b17c04c156fe9aec", "is_disabled": 0, "is_reserved": 0}, {"rental_uris": {"ios": "https://dc.lft.to/lastmile_qr_scan", "android": "https://dc.lft.to/lastmile_qr_scan"}, "lon": -77.02715283333333, "type": "electric_scooter", "fusion_lat": 0.0, "lat": 38.9182435, "name": "a1ff170fe45204d614fc492def0d977f", "fusion_lon": 0.0, "bike_id": "a1ff170fe45204d614fc492def0d977f", "is_disabled": 0, "is_reserved": 0}, {"rental_uris": {"ios": "https://dc.lft.to/lastmile_qr_scan", "android": "https://dc.lft.to/lastmile_qr_scan"}, "lon": -77.0326325, "type": "electric_scooter", "fusion_lat": 0.0, "lat": 38.934482333333335, "name": "4c7762b421b502f0b59931d1d7100e1c", "fusion_lon": 0.0, "bike_id": "4c7762b421b502f0b59931d1d7100e1c", "is_disabled": 0, "is_reserved": 0}, {"rental_uris": {"ios": "https://dc.lft.to/lastmile_qr_scan", "android": "https://dc.lft.to/lastmile_qr_scan"}, "lon": -76.9962935, "type": "electric_scooter", "fusion_lat": 0.0, "lat": 38.8468255, "name": "125c5cb51426e6fd83b53b38c755e825", "fusion_lon": 0.0, "bike_id": "125c5cb51426e6fd83b53b38c755e825", "is_disabled": 0, "is_reserved": 0}, {"rental_uris": {"ios": "https://dc.lft.to/lastmile_qr_scan", "android": "https://dc.lft.to/lastmile_qr_scan"}, "lon": -77.050224, "type": "electric_scooter", "fusion_lat": 0.0, "lat": 38.923546333333334, "name": "2bcffb038a8402e7d4698af72411e2ed", "fusion_lon": 0.0, "bike_id": "2bcffb038a8402e7d4698af72411e2ed", "is_disabled": 0, "is_reserved": 0}, {"rental_uris": {"ios": "https://dc.lft.to/lastmile_qr_scan", "android": "https://dc.lft.to/lastmile_qr_scan"}, "lon": -77.03502883333333, "type": "electric_scooter", "fusion_lat": 0.0, "lat": 38.923423, "name": "92b4e686ae24161aad42067c9f23ae04", "fusion_lon": 0.0, "bike_id": "92b4e686ae24161aad42067c9f23ae04", "is_disabled": 0, "is_reserved": 0}, {"rental_uris": {"ios": "https://dc.lft.to/lastmile_qr_scan", "android": "https://dc.lft.to/lastmile_qr_scan"}, "lon": -77.07166066666667, "type": "electric_scooter", "fusion_lat": 0.0, "lat": 38.914532, "name": "4e5b388c750b79bfd17953b5e43642bb", "fusion_lon": 0.0, "bike_id": "4e5b388c750b79bfd17953b5e43642bb", "is_disabled": 0, "is_reserved": 0}, {"rental_uris": {"ios": "https://dc.lft.to/lastmile_qr_scan", "android": "https://dc.lft.to/lastmile_qr_scan"}, "lon": -77.03867966666667, "type": "electric_scooter", "fusion_lat": 0.0, "lat": 38.91558933333334, "name": "6f29dd86ac788b96fc679c6868b0e5c9", "fusion_lon": 0.0, "bike_id": "6f29dd86ac788b96fc679c6868b0e5c9", "is_disabled": 0, "is_reserved": 0}, {"rental_uris": {"ios": "https://dc.lft.to/lastmile_qr_scan", "android": "https://dc.lft.to/lastmile_qr_scan"}, "lon": -77.025958, "type": "electric_scooter", "fusion_lat": 0.0, "lat": 38.90755033333333, "name": "db207ffb0305697b4870168237936ba2", "fusion_lon": 0.0, "bike_id": "db207ffb0305697b4870168237936ba2", "is_disabled": 0, "is_reserved": 0}, {"rental_uris": {"ios": "https://dc.lft.to/lastmile_qr_scan", "android": "https://dc.lft.to/lastmile_qr_scan"}, "lon": -76.9809195, "type": "electric_bike", "fusion_lat": 0.0, "lat": 38.963605333333334, "name": "58a8d9f8ad029e40adf9408f350b064c", "fusion_lon": 0.0, "bike_id": "58a8d9f8ad029e40adf9408f350b064c", "is_disabled": 0, "is_reserved": 0}, {"rental_uris": {"ios": "https://dc.lft.to/lastmile_qr_scan", "android": "https://dc.lft.to/lastmile_qr_scan"}, "lon": -77.0445305, "type": "electric_scooter", "fusion_lat": 0.0, "lat": 38.91882183333333, "name": "34c783963f37958f85606babb4dec679", "fusion_lon": 0.0, "bike_id": "34c783963f37958f85606babb4dec679", "is_disabled": 0, "is_reserved": 0}, {"rental_uris": {"ios": "https://dc.lft.to/lastmile_qr_scan", "android": "https://dc.lft.to/lastmile_qr_scan"}, "lon": -77.04392566666667, "type": "electric_scooter", "fusion_lat": 0.0, "lat": 38.905751333333335, "name": "5da254dd3c24c8db6aad2f46d055cc63", "fusion_lon": 0.0, "bike_id": "5da254dd3c24c8db6aad2f46d055cc63", "is_disabled": 0, "is_reserved": 0}, {"rental_uris": {"ios": "https://dc.lft.to/lastmile_qr_scan", "android": "https://dc.lft.to/lastmile_qr_scan"}, "lon": -77.03009633333333, "type": "electric_scooter", "fusion_lat": 0.0, "lat": 38.91928333333333, "name": "f1e2269d8df1e64f010b008ca40985e7", "fusion_lon": 0.0, "bike_id": "f1e2269d8df1e64f010b008ca40985e7", "is_disabled": 0, "is_reserved": 0}, {"rental_uris": {"ios": "https://dc.lft.to/lastmile_qr_scan", "android": "https://dc.lft.to/lastmile_qr_scan"}, "lon": -77.0137795, "type": "electric_scooter", "fusion_lat": 0.0, "lat": 38.928715333333336, "name": "ff2ba86aaec83cfc0b5dd5fd8c819678", "fusion_lon": 0.0, "bike_id": "ff2ba86aaec83cfc0b5dd5fd8c819678", "is_disabled": 0, "is_reserved": 0}, {"rental_uris": {"ios": "https://dc.lft.to/lastmile_qr_scan", "android": "https://dc.lft.to/lastmile_qr_scan"}, "lon": -77.02840966666666, "type": "electric_scooter", "fusion_lat": 0.0, "lat": 38.93412416666666, "name": "834b4ff06a55afec2e4f52397af05d20", "fusion_lon": 0.0, "bike_id": "834b4ff06a55afec2e4f52397af05d20", "is_disabled": 0, "is_reserved": 0}, {"rental_uris": {"ios": "https://dc.lft.to/lastmile_qr_scan", "android": "https://dc.lft.to/lastmile_qr_scan"}, "lon": -77.02005983333333, "type": "electric_scooter", "fusion_lat": 0.0, "lat": 38.91311733333333, "name": "e7c7a8a8848d4ca16c6cd81c09587cdc", "fusion_lon": 0.0, "bike_id": "e7c7a8a8848d4ca16c6cd81c09587cdc", "is_disabled": 0, "is_reserved": 0}, {"rental_uris": {"ios": "https://dc.lft.to/lastmile_qr_scan", "android": "https://dc.lft.to/lastmile_qr_scan"}, "lon": -77.04545133333333, "type": "electric_scooter", "fusion_lat": 0.0, "lat": 38.9341235, "name": "7f4dbac7b636edcd2c2e3cd61b37e3d4", "fusion_lon": 0.0, "bike_id": "7f4dbac7b636edcd2c2e3cd61b37e3d4", "is_disabled": 0, "is_reserved": 0}, {"rental_uris": {"ios": "https://dc.lft.to/lastmile_qr_scan", "android": "https://dc.lft.to/lastmile_qr_scan"}, "lon": -77.00630316666667, "type": "electric_scooter", "fusion_lat": 0.0, "lat": 38.9027775, "name": "7bf0c5b0f12922b7c0f38645d1104e52", "fusion_lon": 0.0, "bike_id": "7bf0c5b0f12922b7c0f38645d1104e52", "is_disabled": 0, "is_reserved": 0}, {"rental_uris": {"ios": "https://dc.lft.to/lastmile_qr_scan", "android": "https://dc.lft.to/lastmile_qr_scan"}, "lon": -77.02710166666667, "type": "electric_scooter", "fusion_lat": 0.0, "lat": 38.949993666666664, "name": "d34e42d341eac0d8cef30ec06ce6417c", "fusion_lon": 0.0, "bike_id": "d34e42d341eac0d8cef30ec06ce6417c", "is_disabled": 0, "is_reserved": 0}, {"rental_uris": {"ios": "https://dc.lft.to/lastmile_qr_scan", "android": "https://dc.lft.to/lastmile_qr_scan"}, "lon": -76.98968883333333, "type": "electric_scooter", "fusion_lat": 0.0, "lat": 38.902441, "name": "a5c372bb8b0cdaeaa64a696be703cab2", "fusion_lon": 0.0, "bike_id": "a5c372bb8b0cdaeaa64a696be703cab2", "is_disabled": 0, "is_reserved": 0}, {"rental_uris": {"ios": "https://dc.lft.to/lastmile_qr_scan", "android": "https://dc.lft.to/lastmile_qr_scan"}, "lon": -76.99925416666666, "type": "electric_scooter", "fusion_lat": 0.0, "lat": 38.90907633333333, "name": "ec909a53aecba1d5356c429e17b3c6b3", "fusion_lon": 0.0, "bike_id": "ec909a53aecba1d5356c429e17b3c6b3", "is_disabled": 0, "is_reserved": 0}, {"rental_uris": {"ios": "https://dc.lft.to/lastmile_qr_scan", "android": "https://dc.lft.to/lastmile_qr_scan"}, "lon": -77.03186933333333, "type": "electric_scooter", "fusion_lat": 0.0, "lat": 38.914628666666665, "name": "0ae43d4ba5688de0fbc8bfdc9622e251", "fusion_lon": 0.0, "bike_id": "0ae43d4ba5688de0fbc8bfdc9622e251", "is_disabled": 0, "is_reserved": 0}, {"rental_uris": {"ios": "https://dc.lft.to/lastmile_qr_scan", "android": "https://dc.lft.to/lastmile_qr_scan"}, "lon": -76.9463445, "type": "electric_scooter", "fusion_lat": 0.0, "lat": 38.89834183333333, "name": "f336aa0e0f5ab3aaa3c6075d36f30d80", "fusion_lon": 0.0, "bike_id": "f336aa0e0f5ab3aaa3c6075d36f30d80", "is_disabled": 0, "is_reserved": 0}, {"rental_uris": {"ios": "https://dc.lft.to/lastmile_qr_scan", "android": "https://dc.lft.to/lastmile_qr_scan"}, "lon": -77.03607183333334, "type": "electric_scooter", "fusion_lat": 0.0, "lat": 38.934803333333335, "name": "42f99979561b199c88a0e014249d6f62", "fusion_lon": 0.0, "bike_id": "42f99979561b199c88a0e014249d6f62", "is_disabled": 0, "is_reserved": 0}, {"rental_uris": {"ios": "https://dc.lft.to/lastmile_qr_scan", "android": "https://dc.lft.to/lastmile_qr_scan"}, "lon": -77.06362233333333, "type": "electric_scooter", "fusion_lat": 0.0, "lat": 38.94443866666667, "name": "39d9c4c9a41dc01f6adf399c86d15d28", "fusion_lon": 0.0, "bike_id": "39d9c4c9a41dc01f6adf399c86d15d28", "is_disabled": 0, "is_reserved": 0}, {"rental_uris": {"ios": "https://dc.lft.to/lastmile_qr_scan", "android": "https://dc.lft.to/lastmile_qr_scan"}, "lon": -77.04810816666667, "type": "electric_scooter", "fusion_lat": 0.0, "lat": 38.8974285, "name": "2c1d989cf14517df1015d6baa57f7a16", "fusion_lon": 0.0, "bike_id": "2c1d989cf14517df1015d6baa57f7a16", "is_disabled": 0, "is_reserved": 0}, {"rental_uris": {"ios": "https://dc.lft.to/lastmile_qr_scan", "android": "https://dc.lft.to/lastmile_qr_scan"}, "lon": -77.00519216666666, "type": "electric_scooter", "fusion_lat": 0.0, "lat": 38.92899966666667, "name": "6842162023abe9d6d597ae211fe62f90", "fusion_lon": 0.0, "bike_id": "6842162023abe9d6d597ae211fe62f90", "is_disabled": 0, "is_reserved": 0}, {"rental_uris": {"ios": "https://dc.lft.to/lastmile_qr_scan", "android": "https://dc.lft.to/lastmile_qr_scan"}, "lon": -77.03959866666666, "type": "electric_scooter", "fusion_lat": 0.0, "lat": 38.914818, "name": "4a3cdbfb97ff1083760a6bd1addc3859", "fusion_lon": 0.0, "bike_id": "4a3cdbfb97ff1083760a6bd1addc3859", "is_disabled": 0, "is_reserved": 0}, {"rental_uris": {"ios": "https://dc.lft.to/lastmile_qr_scan", "android": "https://dc.lft.to/lastmile_qr_scan"}, "lon": -77.03544866666667, "type": "electric_scooter", "fusion_lat": 0.0, "lat": 38.9259405, "name": "55b9efe1478c860f63104c01c335f8bc", "fusion_lon": 0.0, "bike_id": "55b9efe1478c860f63104c01c335f8bc", "is_disabled": 0, "is_reserved": 0}, {"rental_uris": {"ios": "https://dc.lft.to/lastmile_qr_scan", "android": "https://dc.lft.to/lastmile_qr_scan"}, "lon": -77.07273583333334, "type": "electric_scooter", "fusion_lat": 0.0, "lat": 38.9348485, "name": "7edfac8a5995bc8370a322b41d7be430", "fusion_lon": 0.0, "bike_id": "7edfac8a5995bc8370a322b41d7be430", "is_disabled": 0, "is_reserved": 0}, {"rental_uris": {"ios": "https://dc.lft.to/lastmile_qr_scan", "android": "https://dc.lft.to/lastmile_qr_scan"}, "lon": -77.05312983333333, "type": "electric_scooter", "fusion_lat": 0.0, "lat": 38.923472833333335, "name": "d30f6f5740cb81f9b92a1c9a29dec963", "fusion_lon": 0.0, "bike_id": "d30f6f5740cb81f9b92a1c9a29dec963", "is_disabled": 0, "is_reserved": 0}, {"rental_uris": {"ios": "https://dc.lft.to/lastmile_qr_scan", "android": "https://dc.lft.to/lastmile_qr_scan"}, "lon": -77.03029, "type": "electric_scooter", "fusion_lat": 0.0, "lat": 38.93113833333334, "name": "a24b926c088391bdc0deb8b24d8426d1", "fusion_lon": 0.0, "bike_id": "a24b926c088391bdc0deb8b24d8426d1", "is_disabled": 0, "is_reserved": 0}, {"rental_uris": {"ios": "https://dc.lft.to/lastmile_qr_scan", "android": "https://dc.lft.to/lastmile_qr_scan"}, "lon": -77.0139295, "type": "electric_scooter", "fusion_lat": 0.0, "lat": 38.91945716666667, "name": "0eaa5c372259e167d0c1242f2342486e", "fusion_lon": 0.0, "bike_id": "0eaa5c372259e167d0c1242f2342486e", "is_disabled": 0, "is_reserved": 0}, {"rental_uris": {"ios": "https://dc.lft.to/lastmile_qr_scan", "android": "https://dc.lft.to/lastmile_qr_scan"}, "lon": -77.022191, "type": "electric_scooter", "fusion_lat": 0.0, "lat": 38.89635633333333, "name": "e3dd4e5fea2bdb99aee8d4fc20dbba61", "fusion_lon": 0.0, "bike_id": "e3dd4e5fea2bdb99aee8d4fc20dbba61", "is_disabled": 0, "is_reserved": 0}, {"rental_uris": {"ios": "https://dc.lft.to/lastmile_qr_scan", "android": "https://dc.lft.to/lastmile_qr_scan"}, "lon": -77.01431016666666, "type": "electric_scooter", "fusion_lat": 0.0, "lat": 38.9423955, "name": "81a766932de6968adfd9e48b17d19d48", "fusion_lon": 0.0, "bike_id": "81a766932de6968adfd9e48b17d19d48", "is_disabled": 0, "is_reserved": 0}, {"rental_uris": {"ios": "https://dc.lft.to/lastmile_qr_scan", "android": "https://dc.lft.to/lastmile_qr_scan"}, "lon": -77.03904066666666, "type": "electric_scooter", "fusion_lat": 0.0, "lat": 38.90811133333333, "name": "45e8441f846d797f3f00f981dc1b401b", "fusion_lon": 0.0, "bike_id": "45e8441f846d797f3f00f981dc1b401b", "is_disabled": 0, "is_reserved": 0}, {"rental_uris": {"ios": "https://dc.lft.to/lastmile_qr_scan", "android": "https://dc.lft.to/lastmile_qr_scan"}, "lon": -77.01188633333334, "type": "electric_scooter", "fusion_lat": 0.0, "lat": 38.90025933333333, "name": "468304f5d3d398d546961c8e03cb54c3", "fusion_lon": 0.0, "bike_id": "468304f5d3d398d546961c8e03cb54c3", "is_disabled": 0, "is_reserved": 0}, {"rental_uris": {"ios": "https://dc.lft.to/lastmile_qr_scan", "android": "https://dc.lft.to/lastmile_qr_scan"}, "lon": -77.02342983333334, "type": "electric_scooter", "fusion_lat": 0.0, "lat": 38.9620675, "name": "a52784a7c4be37fc7d83712f6e110474", "fusion_lon": 0.0, "bike_id": "a52784a7c4be37fc7d83712f6e110474", "is_disabled": 0, "is_reserved": 0}, {"rental_uris": {"ios": "https://dc.lft.to/lastmile_qr_scan", "android": "https://dc.lft.to/lastmile_qr_scan"}, "lon": -77.0056725, "type": "electric_scooter", "fusion_lat": 0.0, "lat": 38.92723183333333, "name": "c6959ea68c40388897891c89e44bca6f", "fusion_lon": 0.0, "bike_id": "c6959ea68c40388897891c89e44bca6f", "is_disabled": 0, "is_reserved": 0}, {"rental_uris": {"ios": "https://dc.lft.to/lastmile_qr_scan", "android": "https://dc.lft.to/lastmile_qr_scan"}, "lon": -77.05729216666667, "type": "electric_scooter", "fusion_lat": 0.0, "lat": 38.933674, "name": "b47dc0bb8e03b416034c60418d5b9247", "fusion_lon": 0.0, "bike_id": "b47dc0bb8e03b416034c60418d5b9247", "is_disabled": 0, "is_reserved": 0}, {"rental_uris": {"ios": "https://dc.lft.to/lastmile_qr_scan", "android": "https://dc.lft.to/lastmile_qr_scan"}, "lon": -77.02697233333333, "type": "electric_scooter", "fusion_lat": 0.0, "lat": 38.909304666666664, "name": "a9465f3ae8caf83482d40b22e17255f8", "fusion_lon": 0.0, "bike_id": "a9465f3ae8caf83482d40b22e17255f8", "is_disabled": 0, "is_reserved": 0}, {"rental_uris": {"ios": "https://dc.lft.to/lastmile_qr_scan", "android": "https://dc.lft.to/lastmile_qr_scan"}, "lon": -76.94627033333333, "type": "electric_bike", "fusion_lat": 0.0, "lat": 38.9462385, "name": "624cfe1280cd88516abd7806188a344d", "fusion_lon": 0.0, "bike_id": "624cfe1280cd88516abd7806188a344d", "is_disabled": 0, "is_reserved": 0}, {"rental_uris": {"ios": "https://dc.lft.to/lastmile_qr_scan", "android": "https://dc.lft.to/lastmile_qr_scan"}, "lon": -77.042682, "type": "electric_scooter", "fusion_lat": 0.0, "lat": 38.93413016666667, "name": "355d0cd1db5abd0b0a3d7d9a5a0a1998", "fusion_lon": 0.0, "bike_id": "355d0cd1db5abd0b0a3d7d9a5a0a1998", "is_disabled": 0, "is_reserved": 0}, {"rental_uris": {"ios": "https://dc.lft.to/lastmile_qr_scan", "android": "https://dc.lft.to/lastmile_qr_scan"}, "lon": -77.03180116666667, "type": "electric_scooter", "fusion_lat": 0.0, "lat": 38.893907, "name": "3b4c1d6df8744702a19f2e7033b492b3", "fusion_lon": 0.0, "bike_id": "3b4c1d6df8744702a19f2e7033b492b3", "is_disabled": 0, "is_reserved": 0}, {"rental_uris": {"ios": "https://dc.lft.to/lastmile_qr_scan", "android": "https://dc.lft.to/lastmile_qr_scan"}, "lon": -77.02203783333333, "type": "electric_scooter", "fusion_lat": 0.0, "lat": 38.915408666666664, "name": "8fe3f16f10e88c1985a85a9b289d9031", "fusion_lon": 0.0, "bike_id": "8fe3f16f10e88c1985a85a9b289d9031", "is_disabled": 0, "is_reserved": 0}, {"rental_uris": {"ios": "https://dc.lft.to/lastmile_qr_scan", "android": "https://dc.lft.to/lastmile_qr_scan"}, "lon": -77.03957066666666, "type": "electric_scooter", "fusion_lat": 0.0, "lat": 38.892420333333334, "name": "b7a840284f40492e9e5434a4e4e77c75", "fusion_lon": 0.0, "bike_id": "b7a840284f40492e9e5434a4e4e77c75", "is_disabled": 0, "is_reserved": 0}, {"rental_uris": {"ios": "https://dc.lft.to/lastmile_qr_scan", "android": "https://dc.lft.to/lastmile_qr_scan"}, "lon": -76.9551845, "type": "electric_scooter", "fusion_lat": 0.0, "lat": 38.8905395, "name": "dcc3453e6aeeeb30be00f5a435b511f4", "fusion_lon": 0.0, "bike_id": "dcc3453e6aeeeb30be00f5a435b511f4", "is_disabled": 0, "is_reserved": 0}, {"rental_uris": {"ios": "https://dc.lft.to/lastmile_qr_scan", "android": "https://dc.lft.to/lastmile_qr_scan"}, "lon": -77.05161283333334, "type": "electric_scooter", "fusion_lat": 0.0, "lat": 38.905827333333335, "name": "e383d7db45c71f1772aa610c11e4e77d", "fusion_lon": 0.0, "bike_id": "e383d7db45c71f1772aa610c11e4e77d", "is_disabled": 0, "is_reserved": 0}, {"rental_uris": {"ios": "https://dc.lft.to/lastmile_qr_scan", "android": "https://dc.lft.to/lastmile_qr_scan"}, "lon": -77.05078533333334, "type": "electric_scooter", "fusion_lat": 0.0, "lat": 38.896071166666665, "name": "9d4df15110ffdc59083524ebce78a36c", "fusion_lon": 0.0, "bike_id": "9d4df15110ffdc59083524ebce78a36c", "is_disabled": 0, "is_reserved": 0}, {"rental_uris": {"ios": "https://dc.lft.to/lastmile_qr_scan", "android": "https://dc.lft.to/lastmile_qr_scan"}, "lon": -76.99890983333333, "type": "electric_scooter", "fusion_lat": 0.0, "lat": 38.90747483333333, "name": "127bd063b5d228d44c4883f53969e14a", "fusion_lon": 0.0, "bike_id": "127bd063b5d228d44c4883f53969e14a", "is_disabled": 0, "is_reserved": 0}, {"rental_uris": {"ios": "https://dc.lft.to/lastmile_qr_scan", "android": "https://dc.lft.to/lastmile_qr_scan"}, "lon": -76.97203116666667, "type": "electric_scooter", "fusion_lat": 0.0, "lat": 38.85492433333334, "name": "3c53f90f13137801912542fb975654c8", "fusion_lon": 0.0, "bike_id": "3c53f90f13137801912542fb975654c8", "is_disabled": 0, "is_reserved": 0}, {"rental_uris": {"ios": "https://dc.lft.to/lastmile_qr_scan", "android": "https://dc.lft.to/lastmile_qr_scan"}, "lon": -77.034674, "type": "electric_scooter", "fusion_lat": 0.0, "lat": 38.907535833333334, "name": "5c39df950e30dfeee464c292bd236aaf", "fusion_lon": 0.0, "bike_id": "5c39df950e30dfeee464c292bd236aaf", "is_disabled": 0, "is_reserved": 0}, {"rental_uris": {"ios": "https://dc.lft.to/lastmile_qr_scan", "android": "https://dc.lft.to/lastmile_qr_scan"}, "lon": -76.98559, "type": "electric_bike", "fusion_lat": 0.0, "lat": 38.86890833333333, "name": "5995807f2554e936fc99a5b9a1011e2a", "fusion_lon": 0.0, "bike_id": "5995807f2554e936fc99a5b9a1011e2a", "is_disabled": 0, "is_reserved": 0}, {"rental_uris": {"ios": "https://dc.lft.to/lastmile_qr_scan", "android": "https://dc.lft.to/lastmile_qr_scan"}, "lon": -77.03278583333334, "type": "electric_scooter", "fusion_lat": 0.0, "lat": 38.9320515, "name": "5dd4e199f8ccc688450bd366eb024706", "fusion_lon": 0.0, "bike_id": "5dd4e199f8ccc688450bd366eb024706", "is_disabled": 0, "is_reserved": 0}, {"rental_uris": {"ios": "https://dc.lft.to/lastmile_qr_scan", "android": "https://dc.lft.to/lastmile_qr_scan"}, "lon": -77.036349, "type": "electric_scooter", "fusion_lat": 0.0, "lat": 38.937188166666665, "name": "739b22fb288001953ef1c50ed35cc665", "fusion_lon": 0.0, "bike_id": "739b22fb288001953ef1c50ed35cc665", "is_disabled": 0, "is_reserved": 0}, {"rental_uris": {"ios": "https://dc.lft.to/lastmile_qr_scan", "android": "https://dc.lft.to/lastmile_qr_scan"}, "lon": -76.991512, "type": "electric_scooter", "fusion_lat": 0.0, "lat": 38.8859375, "name": "cffdb1e2482a11178f6bf67462c27693", "fusion_lon": 0.0, "bike_id": "cffdb1e2482a11178f6bf67462c27693", "is_disabled": 0, "is_reserved": 0}, {"rental_uris": {"ios": "https://dc.lft.to/lastmile_qr_scan", "android": "https://dc.lft.to/lastmile_qr_scan"}, "lon": -77.07160666666667, "type": "electric_scooter", "fusion_lat": 0.0, "lat": 38.9075125, "name": "37f66e49a13d034ef69f201c8d1ebc14", "fusion_lon": 0.0, "bike_id": "37f66e49a13d034ef69f201c8d1ebc14", "is_disabled": 0, "is_reserved": 0}, {"rental_uris": {"ios": "https://dc.lft.to/lastmile_qr_scan", "android": "https://dc.lft.to/lastmile_qr_scan"}, "lon": -77.0218705, "type": "electric_scooter", "fusion_lat": 0.0, "lat": 38.90776066666667, "name": "a31bb0ced6c942fc24cffae8e07b1fb2", "fusion_lon": 0.0, "bike_id": "a31bb0ced6c942fc24cffae8e07b1fb2", "is_disabled": 0, "is_reserved": 0}, {"rental_uris": {"ios": "https://dc.lft.to/lastmile_qr_scan", "android": "https://dc.lft.to/lastmile_qr_scan"}, "lon": -76.99535533333334, "type": "electric_scooter", "fusion_lat": 0.0, "lat": 38.92667933333333, "name": "dab52e6574affd046055386a9e51d6ad", "fusion_lon": 0.0, "bike_id": "dab52e6574affd046055386a9e51d6ad", "is_disabled": 0, "is_reserved": 0}, {"rental_uris": {"ios": "https://dc.lft.to/lastmile_qr_scan", "android": "https://dc.lft.to/lastmile_qr_scan"}, "lon": -76.99513016666667, "type": "electric_scooter", "fusion_lat": 0.0, "lat": 38.844681333333334, "name": "59cfe6a004a7bf6fbf0c84d8c162ea12", "fusion_lon": 0.0, "bike_id": "59cfe6a004a7bf6fbf0c84d8c162ea12", "is_disabled": 0, "is_reserved": 0}, {"rental_uris": {"ios": "https://dc.lft.to/lastmile_qr_scan", "android": "https://dc.lft.to/lastmile_qr_scan"}, "lon": -77.02942266666666, "type": "electric_scooter", "fusion_lat": 0.0, "lat": 38.89998333333333, "name": "b6c48d493b577717f40f769d07ae1140", "fusion_lon": 0.0, "bike_id": "b6c48d493b577717f40f769d07ae1140", "is_disabled": 0, "is_reserved": 0}, {"rental_uris": {"ios": "https://dc.lft.to/lastmile_qr_scan", "android": "https://dc.lft.to/lastmile_qr_scan"}, "lon": -77.03016066666666, "type": "electric_scooter", "fusion_lat": 0.0, "lat": 38.919224666666665, "name": "a3863b9d649966f9171e36eebcb21688", "fusion_lon": 0.0, "bike_id": "a3863b9d649966f9171e36eebcb21688", "is_disabled": 0, "is_reserved": 0}, {"rental_uris": {"ios": "https://dc.lft.to/lastmile_qr_scan", "android": "https://dc.lft.to/lastmile_qr_scan"}, "lon": -77.03313783333333, "type": "electric_scooter", "fusion_lat": 0.0, "lat": 38.90151633333333, "name": "823911c4b778269f1d1645c4c8e34650", "fusion_lon": 0.0, "bike_id": "823911c4b778269f1d1645c4c8e34650", "is_disabled": 0, "is_reserved": 0}, {"rental_uris": {"ios": "https://dc.lft.to/lastmile_qr_scan", "android": "https://dc.lft.to/lastmile_qr_scan"}, "lon": -77.0320505, "type": "electric_scooter", "fusion_lat": 0.0, "lat": 38.917423166666666, "name": "c8e6e181431c119e9e1ed8aea2dbefd6", "fusion_lon": 0.0, "bike_id": "c8e6e181431c119e9e1ed8aea2dbefd6", "is_disabled": 0, "is_reserved": 0}, {"rental_uris": {"ios": "https://dc.lft.to/lastmile_qr_scan", "android": "https://dc.lft.to/lastmile_qr_scan"}, "lon": -76.988395, "type": "electric_bike", "fusion_lat": 0.0, "lat": 38.842726666666664, "name": "f5331677b2680c5a7e51b74f3820515d", "fusion_lon": 0.0, "bike_id": "f5331677b2680c5a7e51b74f3820515d", "is_disabled": 0, "is_reserved": 0}, {"rental_uris": {"ios": "https://dc.lft.to/lastmile_qr_scan", "android": "https://dc.lft.to/lastmile_qr_scan"}, "lon": -76.97011433333333, "type": "electric_bike", "fusion_lat": 0.0, "lat": 38.86373583333334, "name": "83dbddabd4ce534f59dd4a3e5eced123", "fusion_lon": 0.0, "bike_id": "83dbddabd4ce534f59dd4a3e5eced123", "is_disabled": 0, "is_reserved": 0}, {"rental_uris": {"ios": "https://dc.lft.to/lastmile_qr_scan", "android": "https://dc.lft.to/lastmile_qr_scan"}, "lon": -76.97599266666667, "type": "electric_scooter", "fusion_lat": 0.0, "lat": 38.902078833333334, "name": "a3372c5497a133fda345ea81215f1b4c", "fusion_lon": 0.0, "bike_id": "a3372c5497a133fda345ea81215f1b4c", "is_disabled": 0, "is_reserved": 0}, {"rental_uris": {"ios": "https://dc.lft.to/lastmile_qr_scan", "android": "https://dc.lft.to/lastmile_qr_scan"}, "lon": -76.96879333333334, "type": "electric_bike", "fusion_lat": 0.0, "lat": 38.84594166666667, "name": "c1babb808b80167df71ba4974709af11", "fusion_lon": 0.0, "bike_id": "c1babb808b80167df71ba4974709af11", "is_disabled": 0, "is_reserved": 0}, {"rental_uris": {"ios": "https://dc.lft.to/lastmile_qr_scan", "android": "https://dc.lft.to/lastmile_qr_scan"}, "lon": -77.0242325, "type": "electric_scooter", "fusion_lat": 0.0, "lat": 38.91849666666667, "name": "ceedcd521d84acf7164922a85c6a3a95", "fusion_lon": 0.0, "bike_id": "ceedcd521d84acf7164922a85c6a3a95", "is_disabled": 0, "is_reserved": 0}, {"rental_uris": {"ios": "https://dc.lft.to/lastmile_qr_scan", "android": "https://dc.lft.to/lastmile_qr_scan"}, "lon": -76.99915816666666, "type": "electric_scooter", "fusion_lat": 0.0, "lat": 38.909452333333334, "name": "e8164a48cb50e22eadba721a338da819", "fusion_lon": 0.0, "bike_id": "e8164a48cb50e22eadba721a338da819", "is_disabled": 0, "is_reserved": 0}, {"rental_uris": {"ios": "https://dc.lft.to/lastmile_qr_scan", "android": "https://dc.lft.to/lastmile_qr_scan"}, "lon": -77.03637766666667, "type": "electric_scooter", "fusion_lat": 0.0, "lat": 38.90283133333333, "name": "74cf6c1fc9bc4c920dddd2b747632f15", "fusion_lon": 0.0, "bike_id": "74cf6c1fc9bc4c920dddd2b747632f15", "is_disabled": 0, "is_reserved": 0}, {"rental_uris": {"ios": "https://dc.lft.to/lastmile_qr_scan", "android": "https://dc.lft.to/lastmile_qr_scan"}, "lon": -77.0281765, "type": "electric_scooter", "fusion_lat": 0.0, "lat": 38.90932016666667, "name": "cabec6490871128515201945c0f814b7", "fusion_lon": 0.0, "bike_id": "cabec6490871128515201945c0f814b7", "is_disabled": 0, "is_reserved": 0}, {"rental_uris": {"ios": "https://dc.lft.to/lastmile_qr_scan", "android": "https://dc.lft.to/lastmile_qr_scan"}, "lon": -77.05178983333333, "type": "electric_scooter", "fusion_lat": 0.0, "lat": 38.92417483333333, "name": "f0b50aff8511517610ce80d52764598e", "fusion_lon": 0.0, "bike_id": "f0b50aff8511517610ce80d52764598e", "is_disabled": 0, "is_reserved": 0}, {"rental_uris": {"ios": "https://dc.lft.to/lastmile_qr_scan", "android": "https://dc.lft.to/lastmile_qr_scan"}, "lon": -77.02748766666667, "type": "electric_scooter", "fusion_lat": 0.0, "lat": 38.96624966666667, "name": "ec2e3f02e7f0019a77c2924713536814", "fusion_lon": 0.0, "bike_id": "ec2e3f02e7f0019a77c2924713536814", "is_disabled": 0, "is_reserved": 0}, {"rental_uris": {"ios": "https://dc.lft.to/lastmile_qr_scan", "android": "https://dc.lft.to/lastmile_qr_scan"}, "lon": -76.98498216666667, "type": "electric_scooter", "fusion_lat": 0.0, "lat": 38.860467166666666, "name": "6020050feb85b1b5b2725d3833f84df0", "fusion_lon": 0.0, "bike_id": "6020050feb85b1b5b2725d3833f84df0", "is_disabled": 0, "is_reserved": 0}, {"rental_uris": {"ios": "https://dc.lft.to/lastmile_qr_scan", "android": "https://dc.lft.to/lastmile_qr_scan"}, "lon": -77.031982, "type": "electric_scooter", "fusion_lat": 0.0, "lat": 38.893396333333335, "name": "7b9f0144b2fd7156913a5e8b8c580253", "fusion_lon": 0.0, "bike_id": "7b9f0144b2fd7156913a5e8b8c580253", "is_disabled": 0, "is_reserved": 0}, {"rental_uris": {"ios": "https://dc.lft.to/lastmile_qr_scan", "android": "https://dc.lft.to/lastmile_qr_scan"}, "lon": -77.00753166666667, "type": "electric_scooter", "fusion_lat": 0.0, "lat": 38.876468333333335, "name": "66d8e26007031e8fbacac199d15f0448", "fusion_lon": 0.0, "bike_id": "66d8e26007031e8fbacac199d15f0448", "is_disabled": 0, "is_reserved": 0}, {"rental_uris": {"ios": "https://dc.lft.to/lastmile_qr_scan", "android": "https://dc.lft.to/lastmile_qr_scan"}, "lon": -77.006576, "type": "electric_scooter", "fusion_lat": 0.0, "lat": 38.944645, "name": "bf1aa89cbbcb414bdd93a139d26e3352", "fusion_lon": 0.0, "bike_id": "bf1aa89cbbcb414bdd93a139d26e3352", "is_disabled": 0, "is_reserved": 0}, {"rental_uris": {"ios": "https://dc.lft.to/lastmile_qr_scan", "android": "https://dc.lft.to/lastmile_qr_scan"}, "lon": -77.08942133333333, "type": "electric_bike", "fusion_lat": 0.0, "lat": 38.84103833333333, "name": "6435d2872236ca6a024127e6c91655eb", "fusion_lon": 0.0, "bike_id": "6435d2872236ca6a024127e6c91655eb", "is_disabled": 0, "is_reserved": 0}, {"rental_uris": {"ios": "https://dc.lft.to/lastmile_qr_scan", "android": "https://dc.lft.to/lastmile_qr_scan"}, "lon": -77.03098066666666, "type": "electric_scooter", "fusion_lat": 0.0, "lat": 38.90030483333334, "name": "86ae5275e14f3371effeb1888a2d2aea", "fusion_lon": 0.0, "bike_id": "86ae5275e14f3371effeb1888a2d2aea", "is_disabled": 0, "is_reserved": 0}, {"rental_uris": {"ios": "https://dc.lft.to/lastmile_qr_scan", "android": "https://dc.lft.to/lastmile_qr_scan"}, "lon": -77.04485066666666, "type": "electric_scooter", "fusion_lat": 0.0, "lat": 38.915678666666665, "name": "ff2dbb685acbb4a2409e789e09ddd52f", "fusion_lon": 0.0, "bike_id": "ff2dbb685acbb4a2409e789e09ddd52f", "is_disabled": 0, "is_reserved": 0}, {"rental_uris": {"ios": "https://dc.lft.to/lastmile_qr_scan", "android": "https://dc.lft.to/lastmile_qr_scan"}, "lon": -77.00278516666667, "type": "electric_scooter", "fusion_lat": 0.0, "lat": 38.89744533333333, "name": "a3c781e31b7363fd699a5db49d896b82", "fusion_lon": 0.0, "bike_id": "a3c781e31b7363fd699a5db49d896b82", "is_disabled": 0, "is_reserved": 0}, {"rental_uris": {"ios": "https://dc.lft.to/lastmile_qr_scan", "android": "https://dc.lft.to/lastmile_qr_scan"}, "lon": -77.02211533333333, "type": "electric_scooter", "fusion_lat": 0.0, "lat": 38.8877105, "name": "47b1718ee222d045437c66a75b425ade", "fusion_lon": 0.0, "bike_id": "47b1718ee222d045437c66a75b425ade", "is_disabled": 0, "is_reserved": 0}, {"rental_uris": {"ios": "https://dc.lft.to/lastmile_qr_scan", "android": "https://dc.lft.to/lastmile_qr_scan"}, "lon": -77.10509616666667, "type": "electric_bike", "fusion_lat": 0.0, "lat": 38.92845783333333, "name": "5347a3530d3a7f2e939043325c95333c", "fusion_lon": 0.0, "bike_id": "5347a3530d3a7f2e939043325c95333c", "is_disabled": 0, "is_reserved": 0}, {"rental_uris": {"ios": "https://dc.lft.to/lastmile_qr_scan", "android": "https://dc.lft.to/lastmile_qr_scan"}, "lon": -77.05520366666667, "type": "electric_scooter", "fusion_lat": 0.0, "lat": 38.899239666666666, "name": "fb1a440641f3cc14830a7330b897cf53", "fusion_lon": 0.0, "bike_id": "fb1a440641f3cc14830a7330b897cf53", "is_disabled": 0, "is_reserved": 0}, {"rental_uris": {"ios": "https://dc.lft.to/lastmile_qr_scan", "android": "https://dc.lft.to/lastmile_qr_scan"}, "lon": -76.98425016666667, "type": "electric_scooter", "fusion_lat": 0.0, "lat": 38.85970183333333, "name": "3eb51b22c4f0cfcb9f1635e2c8e2634a", "fusion_lon": 0.0, "bike_id": "3eb51b22c4f0cfcb9f1635e2c8e2634a", "is_disabled": 0, "is_reserved": 0}, {"rental_uris": {"ios": "https://dc.lft.to/lastmile_qr_scan", "android": "https://dc.lft.to/lastmile_qr_scan"}, "lon": -77.02048866666667, "type": "electric_scooter", "fusion_lat": 0.0, "lat": 38.91555566666667, "name": "0beffd0ba256168656ce5ac46d6209e8", "fusion_lon": 0.0, "bike_id": "0beffd0ba256168656ce5ac46d6209e8", "is_disabled": 0, "is_reserved": 0}, {"rental_uris": {"ios": "https://dc.lft.to/lastmile_qr_scan", "android": "https://dc.lft.to/lastmile_qr_scan"}, "lon": -77.05222633333334, "type": "electric_scooter", "fusion_lat": 0.0, "lat": 38.92496966666667, "name": "ec1cf0c7b71faad501a9181bb1219d5e", "fusion_lon": 0.0, "bike_id": "ec1cf0c7b71faad501a9181bb1219d5e", "is_disabled": 0, "is_reserved": 0}, {"rental_uris": {"ios": "https://dc.lft.to/lastmile_qr_scan", "android": "https://dc.lft.to/lastmile_qr_scan"}, "lon": -77.0049845, "type": "electric_scooter", "fusion_lat": 0.0, "lat": 38.8789135, "name": "c3296d48a3c24730f213b30eb0a33e55", "fusion_lon": 0.0, "bike_id": "c3296d48a3c24730f213b30eb0a33e55", "is_disabled": 0, "is_reserved": 0}, {"rental_uris": {"ios": "https://dc.lft.to/lastmile_qr_scan", "android": "https://dc.lft.to/lastmile_qr_scan"}, "lon": -76.98641233333333, "type": "electric_scooter", "fusion_lat": 0.0, "lat": 38.900117, "name": "cda76f01a46b81d39013f3953c2c4a12", "fusion_lon": 0.0, "bike_id": "cda76f01a46b81d39013f3953c2c4a12", "is_disabled": 0, "is_reserved": 0}, {"rental_uris": {"ios": "https://dc.lft.to/lastmile_qr_scan", "android": "https://dc.lft.to/lastmile_qr_scan"}, "lon": -77.0034825, "type": "electric_scooter", "fusion_lat": 0.0, "lat": 38.89267566666667, "name": "5d751dcec0854c85f3e72d95023b043b", "fusion_lon": 0.0, "bike_id": "5d751dcec0854c85f3e72d95023b043b", "is_disabled": 0, "is_reserved": 0}, {"rental_uris": {"ios": "https://dc.lft.to/lastmile_qr_scan", "android": "https://dc.lft.to/lastmile_qr_scan"}, "lon": -77.04114716666666, "type": "electric_scooter", "fusion_lat": 0.0, "lat": 38.93399266666667, "name": "278a7d54ecb8b8836cb20cfd999d62a3", "fusion_lon": 0.0, "bike_id": "278a7d54ecb8b8836cb20cfd999d62a3", "is_disabled": 0, "is_reserved": 0}, {"rental_uris": {"ios": "https://dc.lft.to/lastmile_qr_scan", "android": "https://dc.lft.to/lastmile_qr_scan"}, "lon": -76.99004233333334, "type": "electric_scooter", "fusion_lat": 0.0, "lat": 38.865049666666664, "name": "bd094dbebf89fbbb6bb5121d8f5e456e", "fusion_lon": 0.0, "bike_id": "bd094dbebf89fbbb6bb5121d8f5e456e", "is_disabled": 0, "is_reserved": 0}, {"rental_uris": {"ios": "https://dc.lft.to/lastmile_qr_scan", "android": "https://dc.lft.to/lastmile_qr_scan"}, "lon": -77.0112175, "type": "electric_scooter", "fusion_lat": 0.0, "lat": 38.916162666666665, "name": "e922e84176629415d5cce759de592b81", "fusion_lon": 0.0, "bike_id": "e922e84176629415d5cce759de592b81", "is_disabled": 0, "is_reserved": 0}, {"rental_uris": {"ios": "https://dc.lft.to/lastmile_qr_scan", "android": "https://dc.lft.to/lastmile_qr_scan"}, "lon": -76.94891066666666, "type": "electric_scooter", "fusion_lat": 0.0, "lat": 38.895295, "name": "9b088a43e8e86bfcc909e23c4733660c", "fusion_lon": 0.0, "bike_id": "9b088a43e8e86bfcc909e23c4733660c", "is_disabled": 0, "is_reserved": 0}, {"rental_uris": {"ios": "https://dc.lft.to/lastmile_qr_scan", "android": "https://dc.lft.to/lastmile_qr_scan"}, "lon": -77.0419285, "type": "electric_scooter", "fusion_lat": 0.0, "lat": 38.912691333333335, "name": "4bc425a6d5ed031b6c1a2598ee9d71c0", "fusion_lon": 0.0, "bike_id": "4bc425a6d5ed031b6c1a2598ee9d71c0", "is_disabled": 0, "is_reserved": 0}, {"rental_uris": {"ios": "https://dc.lft.to/lastmile_qr_scan", "android": "https://dc.lft.to/lastmile_qr_scan"}, "lon": -77.01615083333333, "type": "electric_scooter", "fusion_lat": 0.0, "lat": 38.876866666666665, "name": "ce27f36d6e71063d10a4ead4bf6b3437", "fusion_lon": 0.0, "bike_id": "ce27f36d6e71063d10a4ead4bf6b3437", "is_disabled": 0, "is_reserved": 0}, {"rental_uris": {"ios": "https://dc.lft.to/lastmile_qr_scan", "android": "https://dc.lft.to/lastmile_qr_scan"}, "lon": -77.04491633333333, "type": "electric_scooter", "fusion_lat": 0.0, "lat": 38.91943333333333, "name": "27c7419173e54ae9d2ea208f0cc3ddae", "fusion_lon": 0.0, "bike_id": "27c7419173e54ae9d2ea208f0cc3ddae", "is_disabled": 0, "is_reserved": 0}, {"rental_uris": {"ios": "https://dc.lft.to/lastmile_qr_scan", "android": "https://dc.lft.to/lastmile_qr_scan"}, "lon": -77.07471583333333, "type": "electric_bike", "fusion_lat": 0.0, "lat": 38.9206285, "name": "5438717747f1776c3fc3b37acb017ebf", "fusion_lon": 0.0, "bike_id": "5438717747f1776c3fc3b37acb017ebf", "is_disabled": 0, "is_reserved": 0}, {"rental_uris": {"ios": "https://dc.lft.to/lastmile_qr_scan", "android": "https://dc.lft.to/lastmile_qr_scan"}, "lon": -77.00212, "type": "electric_scooter", "fusion_lat": 0.0, "lat": 38.90223816666666, "name": "333b6080693446cd5867247751ff56cc", "fusion_lon": 0.0, "bike_id": "333b6080693446cd5867247751ff56cc", "is_disabled": 0, "is_reserved": 0}, {"rental_uris": {"ios": "https://dc.lft.to/lastmile_qr_scan", "android": "https://dc.lft.to/lastmile_qr_scan"}, "lon": -77.00577683333333, "type": "electric_scooter", "fusion_lat": 0.0, "lat": 38.8722475, "name": "13c999a89ee7736081cd924850158de2", "fusion_lon": 0.0, "bike_id": "13c999a89ee7736081cd924850158de2", "is_disabled": 0, "is_reserved": 0}, {"rental_uris": {"ios": "https://dc.lft.to/lastmile_qr_scan", "android": "https://dc.lft.to/lastmile_qr_scan"}, "lon": -76.9165985, "type": "electric_bike", "fusion_lat": 0.0, "lat": 38.86860933333333, "name": "0816c8fd31fa1803be1692df79eff658", "fusion_lon": 0.0, "bike_id": "0816c8fd31fa1803be1692df79eff658", "is_disabled": 0, "is_reserved": 0}, {"rental_uris": {"ios": "https://dc.lft.to/lastmile_qr_scan", "android": "https://dc.lft.to/lastmile_qr_scan"}, "lon": -77.03462533333334, "type": "electric_scooter", "fusion_lat": 0.0, "lat": 38.9262935, "name": "f5ff9949a70aaab53e1a59a4ae6eb332", "fusion_lon": 0.0, "bike_id": "f5ff9949a70aaab53e1a59a4ae6eb332", "is_disabled": 0, "is_reserved": 0}, {"rental_uris": {"ios": "https://dc.lft.to/lastmile_qr_scan", "android": "https://dc.lft.to/lastmile_qr_scan"}, "lon": -77.02615166666666, "type": "electric_scooter", "fusion_lat": 0.0, "lat": 38.899916, "name": "42cfe0dec02e77f6998dd899f4209a4a", "fusion_lon": 0.0, "bike_id": "42cfe0dec02e77f6998dd899f4209a4a", "is_disabled": 0, "is_reserved": 0}, {"rental_uris": {"ios": "https://dc.lft.to/lastmile_qr_scan", "android": "https://dc.lft.to/lastmile_qr_scan"}, "lon": -77.1273255, "type": "electric_bike", "fusion_lat": 0.0, "lat": 38.89563866666667, "name": "e44a24c30923154f226a9278c4dc9f09", "fusion_lon": 0.0, "bike_id": "e44a24c30923154f226a9278c4dc9f09", "is_disabled": 0, "is_reserved": 0}, {"rental_uris": {"ios": "https://dc.lft.to/lastmile_qr_scan", "android": "https://dc.lft.to/lastmile_qr_scan"}, "lon": -77.04395333333333, "type": "electric_scooter", "fusion_lat": 0.0, "lat": 38.91086133333334, "name": "a37231ec137605f04c5f8183a0b6185f", "fusion_lon": 0.0, "bike_id": "a37231ec137605f04c5f8183a0b6185f", "is_disabled": 0, "is_reserved": 0}, {"rental_uris": {"ios": "https://dc.lft.to/lastmile_qr_scan", "android": "https://dc.lft.to/lastmile_qr_scan"}, "lon": -77.05269716666666, "type": "electric_scooter", "fusion_lat": 0.0, "lat": 38.8984035, "name": "52ddd490eee88f9be9e4f6bd95757409", "fusion_lon": 0.0, "bike_id": "52ddd490eee88f9be9e4f6bd95757409", "is_disabled": 0, "is_reserved": 0}, {"rental_uris": {"ios": "https://dc.lft.to/lastmile_qr_scan", "android": "https://dc.lft.to/lastmile_qr_scan"}, "lon": -77.00187783333334, "type": "electric_scooter", "fusion_lat": 0.0, "lat": 38.90037783333333, "name": "d7248d3f012cf5d824ccec71c13ecd97", "fusion_lon": 0.0, "bike_id": "d7248d3f012cf5d824ccec71c13ecd97", "is_disabled": 0, "is_reserved": 0}, {"rental_uris": {"ios": "https://dc.lft.to/lastmile_qr_scan", "android": "https://dc.lft.to/lastmile_qr_scan"}, "lon": -77.00338166666667, "type": "electric_bike", "fusion_lat": 0.0, "lat": 38.919818, "name": "dd80d6248203f56abacb663a5fe0e072", "fusion_lon": 0.0, "bike_id": "dd80d6248203f56abacb663a5fe0e072", "is_disabled": 0, "is_reserved": 0}, {"rental_uris": {"ios": "https://dc.lft.to/lastmile_qr_scan", "android": "https://dc.lft.to/lastmile_qr_scan"}, "lon": -77.03869466666667, "type": "electric_scooter", "fusion_lat": 0.0, "lat": 38.91257816666667, "name": "fbe02e7415cd48d9be877c35e8316822", "fusion_lon": 0.0, "bike_id": "fbe02e7415cd48d9be877c35e8316822", "is_disabled": 0, "is_reserved": 0}, {"rental_uris": {"ios": "https://dc.lft.to/lastmile_qr_scan", "android": "https://dc.lft.to/lastmile_qr_scan"}, "lon": -77.0667155, "type": "electric_scooter", "fusion_lat": 0.0, "lat": 38.914067333333335, "name": "1bc5b712c2107a435e78abefcdd9a0f2", "fusion_lon": 0.0, "bike_id": "1bc5b712c2107a435e78abefcdd9a0f2", "is_disabled": 0, "is_reserved": 0}, {"rental_uris": {"ios": "https://dc.lft.to/lastmile_qr_scan", "android": "https://dc.lft.to/lastmile_qr_scan"}, "lon": -77.06604766666666, "type": "electric_scooter", "fusion_lat": 0.0, "lat": 38.905211, "name": "8db6133f6d87a2b9244de73e999d80c6", "fusion_lon": 0.0, "bike_id": "8db6133f6d87a2b9244de73e999d80c6", "is_disabled": 0, "is_reserved": 0}, {"rental_uris": {"ios": "https://dc.lft.to/lastmile_qr_scan", "android": "https://dc.lft.to/lastmile_qr_scan"}, "lon": -76.946324, "type": "electric_scooter", "fusion_lat": 0.0, "lat": 38.89830933333333, "name": "acef9598c8b90d111b83ddc9416361dd", "fusion_lon": 0.0, "bike_id": "acef9598c8b90d111b83ddc9416361dd", "is_disabled": 0, "is_reserved": 0}, {"rental_uris": {"ios": "https://dc.lft.to/lastmile_qr_scan", "android": "https://dc.lft.to/lastmile_qr_scan"}, "lon": -76.95764866666667, "type": "electric_bike", "fusion_lat": 0.0, "lat": 38.884219333333334, "name": "87b6260bdc5f9542691d23e6c8e03e17", "fusion_lon": 0.0, "bike_id": "87b6260bdc5f9542691d23e6c8e03e17", "is_disabled": 0, "is_reserved": 0}, {"rental_uris": {"ios": "https://dc.lft.to/lastmile_qr_scan", "android": "https://dc.lft.to/lastmile_qr_scan"}, "lon": -77.02141816666666, "type": "electric_bike", "fusion_lat": 0.0, "lat": 38.94810566666666, "name": "622fc3e6c4761b2e39610ebce2b5e115", "fusion_lon": 0.0, "bike_id": "622fc3e6c4761b2e39610ebce2b5e115", "is_disabled": 0, "is_reserved": 0}, {"rental_uris": {"ios": "https://dc.lft.to/lastmile_qr_scan", "android": "https://dc.lft.to/lastmile_qr_scan"}, "lon": -76.87821366666667, "type": "electric_bike", "fusion_lat": 0.0, "lat": 38.99227616666667, "name": "908e35caba6924f3c329b43701d0cc54", "fusion_lon": 0.0, "bike_id": "908e35caba6924f3c329b43701d0cc54", "is_disabled": 0, "is_reserved": 0}, {"rental_uris": {"ios": "https://dc.lft.to/lastmile_qr_scan", "android": "https://dc.lft.to/lastmile_qr_scan"}, "lon": -76.97615516666667, "type": "electric_scooter", "fusion_lat": 0.0, "lat": 38.90384566666667, "name": "c1ad6879e375f6a6edf6903dd26923e6", "fusion_lon": 0.0, "bike_id": "c1ad6879e375f6a6edf6903dd26923e6", "is_disabled": 0, "is_reserved": 0}, {"rental_uris": {"ios": "https://dc.lft.to/lastmile_qr_scan", "android": "https://dc.lft.to/lastmile_qr_scan"}, "lon": -76.977467, "type": "electric_scooter", "fusion_lat": 0.0, "lat": 38.9001085, "name": "6af32cb910cca2dd6ae21481fbc27e9c", "fusion_lon": 0.0, "bike_id": "6af32cb910cca2dd6ae21481fbc27e9c", "is_disabled": 0, "is_reserved": 0}, {"rental_uris": {"ios": "https://dc.lft.to/lastmile_qr_scan", "android": "https://dc.lft.to/lastmile_qr_scan"}, "lon": -77.03836016666666, "type": "electric_scooter", "fusion_lat": 0.0, "lat": 38.92180116666667, "name": "5a7fa840a0da77e5dfc661defac049b3", "fusion_lon": 0.0, "bike_id": "5a7fa840a0da77e5dfc661defac049b3", "is_disabled": 0, "is_reserved": 0}, {"rental_uris": {"ios": "https://dc.lft.to/lastmile_qr_scan", "android": "https://dc.lft.to/lastmile_qr_scan"}, "lon": -77.02478366666666, "type": "electric_scooter", "fusion_lat": 0.0, "lat": 38.91816816666667, "name": "961c06136902d4f2ee37ef26b4d2f72b", "fusion_lon": 0.0, "bike_id": "961c06136902d4f2ee37ef26b4d2f72b", "is_disabled": 0, "is_reserved": 0}, {"rental_uris": {"ios": "https://dc.lft.to/lastmile_qr_scan", "android": "https://dc.lft.to/lastmile_qr_scan"}, "lon": -77.03778333333334, "type": "electric_scooter", "fusion_lat": 0.0, "lat": 38.926193166666664, "name": "0bfd88024c0eab9b1569145596b1672e", "fusion_lon": 0.0, "bike_id": "0bfd88024c0eab9b1569145596b1672e", "is_disabled": 0, "is_reserved": 0}, {"rental_uris": {"ios": "https://dc.lft.to/lastmile_qr_scan", "android": "https://dc.lft.to/lastmile_qr_scan"}, "lon": -76.977102, "type": "electric_scooter", "fusion_lat": 0.0, "lat": 38.8989405, "name": "daf458301a3845c0979b7c846a54c6b7", "fusion_lon": 0.0, "bike_id": "daf458301a3845c0979b7c846a54c6b7", "is_disabled": 0, "is_reserved": 0}, {"rental_uris": {"ios": "https://dc.lft.to/lastmile_qr_scan", "android": "https://dc.lft.to/lastmile_qr_scan"}, "lon": -77.023125, "type": "electric_scooter", "fusion_lat": 0.0, "lat": 38.92887983333333, "name": "7a1369d6e4eb1494d1c5cd31e27ae45c", "fusion_lon": 0.0, "bike_id": "7a1369d6e4eb1494d1c5cd31e27ae45c", "is_disabled": 0, "is_reserved": 0}, {"rental_uris": {"ios": "https://dc.lft.to/lastmile_qr_scan", "android": "https://dc.lft.to/lastmile_qr_scan"}, "lon": -76.97220083333333, "type": "electric_bike", "fusion_lat": 0.0, "lat": 38.84482, "name": "b9a11eae90ec4edb5b5b094fad01eb7b", "fusion_lon": 0.0, "bike_id": "b9a11eae90ec4edb5b5b094fad01eb7b", "is_disabled": 0, "is_reserved": 0}, {"rental_uris": {"ios": "https://dc.lft.to/lastmile_qr_scan", "android": "https://dc.lft.to/lastmile_qr_scan"}, "lon": -77.0057215, "type": "electric_scooter", "fusion_lat": 0.0, "lat": 38.89821233333333, "name": "c786703ce1e83e398fb2e38e45dcd4e2", "fusion_lon": 0.0, "bike_id": "c786703ce1e83e398fb2e38e45dcd4e2", "is_disabled": 0, "is_reserved": 0}, {"rental_uris": {"ios": "https://dc.lft.to/lastmile_qr_scan", "android": "https://dc.lft.to/lastmile_qr_scan"}, "lon": -77.00127233333333, "type": "electric_scooter", "fusion_lat": 0.0, "lat": 38.907635166666665, "name": "209056ffbc28469e4c7b594d34836520", "fusion_lon": 0.0, "bike_id": "209056ffbc28469e4c7b594d34836520", "is_disabled": 0, "is_reserved": 0}, {"rental_uris": {"ios": "https://dc.lft.to/lastmile_qr_scan", "android": "https://dc.lft.to/lastmile_qr_scan"}, "lon": -77.025867, "type": "electric_scooter", "fusion_lat": 0.0, "lat": 38.920354333333336, "name": "040e4eb93428dfcb098942a15b1c864f", "fusion_lon": 0.0, "bike_id": "040e4eb93428dfcb098942a15b1c864f", "is_disabled": 0, "is_reserved": 0}, {"rental_uris": {"ios": "https://dc.lft.to/lastmile_qr_scan", "android": "https://dc.lft.to/lastmile_qr_scan"}, "lon": -77.01726883333333, "type": "electric_scooter", "fusion_lat": 0.0, "lat": 38.8771665, "name": "6efaf5f793adc23b5b1693c476fb1632", "fusion_lon": 0.0, "bike_id": "6efaf5f793adc23b5b1693c476fb1632", "is_disabled": 0, "is_reserved": 0}, {"rental_uris": {"ios": "https://dc.lft.to/lastmile_qr_scan", "android": "https://dc.lft.to/lastmile_qr_scan"}, "lon": -77.036149, "type": "electric_scooter", "fusion_lat": 0.0, "lat": 38.93735733333333, "name": "2d7eb57ead5cc6bc7bc380faa59dfa37", "fusion_lon": 0.0, "bike_id": "2d7eb57ead5cc6bc7bc380faa59dfa37", "is_disabled": 0, "is_reserved": 0}, {"rental_uris": {"ios": "https://dc.lft.to/lastmile_qr_scan", "android": "https://dc.lft.to/lastmile_qr_scan"}, "lon": -77.01859616666667, "type": "electric_scooter", "fusion_lat": 0.0, "lat": 38.8926365, "name": "0e89060c0918670859836460b4e835c2", "fusion_lon": 0.0, "bike_id": "0e89060c0918670859836460b4e835c2", "is_disabled": 0, "is_reserved": 0}, {"rental_uris": {"ios": "https://dc.lft.to/lastmile_qr_scan", "android": "https://dc.lft.to/lastmile_qr_scan"}, "lon": -77.06346483333333, "type": "electric_scooter", "fusion_lat": 0.0, "lat": 38.944496, "name": "bba95f6351099779f25c534d4fd5bcc3", "fusion_lon": 0.0, "bike_id": "bba95f6351099779f25c534d4fd5bcc3", "is_disabled": 0, "is_reserved": 0}, {"rental_uris": {"ios": "https://dc.lft.to/lastmile_qr_scan", "android": "https://dc.lft.to/lastmile_qr_scan"}, "lon": -77.025408, "type": "electric_scooter", "fusion_lat": 0.0, "lat": 38.8923595, "name": "b9bd84ffb037642285049756924e82c9", "fusion_lon": 0.0, "bike_id": "b9bd84ffb037642285049756924e82c9", "is_disabled": 0, "is_reserved": 0}, {"rental_uris": {"ios": "https://dc.lft.to/lastmile_qr_scan", "android": "https://dc.lft.to/lastmile_qr_scan"}, "lon": -77.00463866666666, "type": "electric_scooter", "fusion_lat": 0.0, "lat": 38.91179133333333, "name": "ec27ba315e15ec4392c2b2572c234115", "fusion_lon": 0.0, "bike_id": "ec27ba315e15ec4392c2b2572c234115", "is_disabled": 0, "is_reserved": 0}, {"rental_uris": {"ios": "https://dc.lft.to/lastmile_qr_scan", "android": "https://dc.lft.to/lastmile_qr_scan"}, "lon": -77.06380233333333, "type": "electric_scooter", "fusion_lat": 0.0, "lat": 38.90500566666667, "name": "20db785984e285b4e44060de3faf4bc4", "fusion_lon": 0.0, "bike_id": "20db785984e285b4e44060de3faf4bc4", "is_disabled": 0, "is_reserved": 0}, {"rental_uris": {"ios": "https://dc.lft.to/lastmile_qr_scan", "android": "https://dc.lft.to/lastmile_qr_scan"}, "lon": -77.04850566666667, "type": "electric_scooter", "fusion_lat": 0.0, "lat": 38.919651333333334, "name": "c1c2897a994252419d499d9dcfb3a1b6", "fusion_lon": 0.0, "bike_id": "c1c2897a994252419d499d9dcfb3a1b6", "is_disabled": 0, "is_reserved": 0}, {"rental_uris": {"ios": "https://dc.lft.to/lastmile_qr_scan", "android": "https://dc.lft.to/lastmile_qr_scan"}, "lon": -77.00256, "type": "electric_bike", "fusion_lat": 0.0, "lat": 38.911724, "name": "ef78664e5fc505ce42c2b19a39cac7bf", "fusion_lon": 0.0, "bike_id": "ef78664e5fc505ce42c2b19a39cac7bf", "is_disabled": 0, "is_reserved": 0}, {"rental_uris": {"ios": "https://dc.lft.to/lastmile_qr_scan", "android": "https://dc.lft.to/lastmile_qr_scan"}, "lon": -77.0389145, "type": "electric_scooter", "fusion_lat": 0.0, "lat": 38.90800216666667, "name": "68edb1e74887d1db1ca681a8452edc8a", "fusion_lon": 0.0, "bike_id": "68edb1e74887d1db1ca681a8452edc8a", "is_disabled": 0, "is_reserved": 0}, {"rental_uris": {"ios": "https://dc.lft.to/lastmile_qr_scan", "android": "https://dc.lft.to/lastmile_qr_scan"}, "lon": -77.033032, "type": "electric_scooter", "fusion_lat": 0.0, "lat": 38.90152166666667, "name": "c2885ac95f346b4c575913d2628e8571", "fusion_lon": 0.0, "bike_id": "c2885ac95f346b4c575913d2628e8571", "is_disabled": 0, "is_reserved": 0}, {"rental_uris": {"ios": "https://dc.lft.to/lastmile_qr_scan", "android": "https://dc.lft.to/lastmile_qr_scan"}, "lon": -77.0401035, "type": "electric_scooter", "fusion_lat": 0.0, "lat": 38.900107166666665, "name": "7525443e5ea4e95f58c92c51800aef08", "fusion_lon": 0.0, "bike_id": "7525443e5ea4e95f58c92c51800aef08", "is_disabled": 0, "is_reserved": 0}, {"rental_uris": {"ios": "https://dc.lft.to/lastmile_qr_scan", "android": "https://dc.lft.to/lastmile_qr_scan"}, "lon": -76.978185, "type": "electric_scooter", "fusion_lat": 0.0, "lat": 38.895172333333335, "name": "ccf63c1b0a8e57993979a01e944f7e30", "fusion_lon": 0.0, "bike_id": "ccf63c1b0a8e57993979a01e944f7e30", "is_disabled": 0, "is_reserved": 0}, {"rental_uris": {"ios": "https://dc.lft.to/lastmile_qr_scan", "android": "https://dc.lft.to/lastmile_qr_scan"}, "lon": -76.99022733333334, "type": "electric_scooter", "fusion_lat": 0.0, "lat": 38.85872466666667, "name": "1f667ad6ca209f8d7d1bc453a70102df", "fusion_lon": 0.0, "bike_id": "1f667ad6ca209f8d7d1bc453a70102df", "is_disabled": 0, "is_reserved": 0}, {"rental_uris": {"ios": "https://dc.lft.to/lastmile_qr_scan", "android": "https://dc.lft.to/lastmile_qr_scan"}, "lon": -77.18294416666667, "type": "electric_bike", "fusion_lat": 0.0, "lat": 38.883439833333334, "name": "cbdcc56844a943f6de913c751485bf79", "fusion_lon": 0.0, "bike_id": "cbdcc56844a943f6de913c751485bf79", "is_disabled": 0, "is_reserved": 0}, {"rental_uris": {"ios": "https://dc.lft.to/lastmile_qr_scan", "android": "https://dc.lft.to/lastmile_qr_scan"}, "lon": -77.01750333333334, "type": "electric_scooter", "fusion_lat": 0.0, "lat": 38.90561483333333, "name": "8f430e91059d16a09e18de7206c71a50", "fusion_lon": 0.0, "bike_id": "8f430e91059d16a09e18de7206c71a50", "is_disabled": 0, "is_reserved": 0}, {"rental_uris": {"ios": "https://dc.lft.to/lastmile_qr_scan", "android": "https://dc.lft.to/lastmile_qr_scan"}, "lon": -77.0437165, "type": "electric_scooter", "fusion_lat": 0.0, "lat": 38.90264583333333, "name": "a440f42901a051ba0f214e00f22fb9d8", "fusion_lon": 0.0, "bike_id": "a440f42901a051ba0f214e00f22fb9d8", "is_disabled": 0, "is_reserved": 0}, {"rental_uris": {"ios": "https://dc.lft.to/lastmile_qr_scan", "android": "https://dc.lft.to/lastmile_qr_scan"}, "lon": -77.03819533333333, "type": "electric_scooter", "fusion_lat": 0.0, "lat": 38.92056, "name": "51fa6a7b45cb2d73dde9fb6cc5c0ffde", "fusion_lon": 0.0, "bike_id": "51fa6a7b45cb2d73dde9fb6cc5c0ffde", "is_disabled": 0, "is_reserved": 0}, {"rental_uris": {"ios": "https://dc.lft.to/lastmile_qr_scan", "android": "https://dc.lft.to/lastmile_qr_scan"}, "lon": -77.04000416666666, "type": "electric_scooter", "fusion_lat": 0.0, "lat": 38.888889, "name": "9195f5fa7d59a6cdb7b99e9b090787d0", "fusion_lon": 0.0, "bike_id": "9195f5fa7d59a6cdb7b99e9b090787d0", "is_disabled": 0, "is_reserved": 0}, {"rental_uris": {"ios": "https://dc.lft.to/lastmile_qr_scan", "android": "https://dc.lft.to/lastmile_qr_scan"}, "lon": -77.0357035, "type": "electric_scooter", "fusion_lat": 0.0, "lat": 38.91817133333333, "name": "35769e2031a58b1dd5a4289b588367c1", "fusion_lon": 0.0, "bike_id": "35769e2031a58b1dd5a4289b588367c1", "is_disabled": 0, "is_reserved": 0}, {"rental_uris": {"ios": "https://dc.lft.to/lastmile_qr_scan", "android": "https://dc.lft.to/lastmile_qr_scan"}, "lon": -77.0285525, "type": "electric_scooter", "fusion_lat": 0.0, "lat": 38.89477083333333, "name": "af425d04cec36bed5c260b53374397b1", "fusion_lon": 0.0, "bike_id": "af425d04cec36bed5c260b53374397b1", "is_disabled": 0, "is_reserved": 0}, {"rental_uris": {"ios": "https://dc.lft.to/lastmile_qr_scan", "android": "https://dc.lft.to/lastmile_qr_scan"}, "lon": -77.0321655, "type": "electric_scooter", "fusion_lat": 0.0, "lat": 38.916994333333335, "name": "363a148d0fca25afb1a560a7b4179e8f", "fusion_lon": 0.0, "bike_id": "363a148d0fca25afb1a560a7b4179e8f", "is_disabled": 0, "is_reserved": 0}, {"rental_uris": {"ios": "https://dc.lft.to/lastmile_qr_scan", "android": "https://dc.lft.to/lastmile_qr_scan"}, "lon": -77.03211633333333, "type": "electric_scooter", "fusion_lat": 0.0, "lat": 38.9174355, "name": "a67fd60415e6b339b85981907d37e652", "fusion_lon": 0.0, "bike_id": "a67fd60415e6b339b85981907d37e652", "is_disabled": 0, "is_reserved": 0}, {"rental_uris": {"ios": "https://dc.lft.to/lastmile_qr_scan", "android": "https://dc.lft.to/lastmile_qr_scan"}, "lon": -76.95817683333334, "type": "electric_scooter", "fusion_lat": 0.0, "lat": 38.89058683333333, "name": "483685a7e0711a7c4d6261e1e3da7bfb", "fusion_lon": 0.0, "bike_id": "483685a7e0711a7c4d6261e1e3da7bfb", "is_disabled": 0, "is_reserved": 0}, {"rental_uris": {"ios": "https://dc.lft.to/lastmile_qr_scan", "android": "https://dc.lft.to/lastmile_qr_scan"}, "lon": -77.032527, "type": "electric_scooter", "fusion_lat": 0.0, "lat": 38.9181565, "name": "97fba7bf250c410849ae6fc9448b2b7b", "fusion_lon": 0.0, "bike_id": "97fba7bf250c410849ae6fc9448b2b7b", "is_disabled": 0, "is_reserved": 0}, {"rental_uris": {"ios": "https://dc.lft.to/lastmile_qr_scan", "android": "https://dc.lft.to/lastmile_qr_scan"}, "lon": -77.05585233333333, "type": "electric_scooter", "fusion_lat": 0.0, "lat": 38.92774583333333, "name": "9a4ba5ca8a4a7513f0e3286ea55d4097", "fusion_lon": 0.0, "bike_id": "9a4ba5ca8a4a7513f0e3286ea55d4097", "is_disabled": 0, "is_reserved": 0}, {"rental_uris": {"ios": "https://dc.lft.to/lastmile_qr_scan", "android": "https://dc.lft.to/lastmile_qr_scan"}, "lon": -77.04519633333334, "type": "electric_scooter", "fusion_lat": 0.0, "lat": 38.9096555, "name": "a46adf9ac2658ec7e02104216d80870d", "fusion_lon": 0.0, "bike_id": "a46adf9ac2658ec7e02104216d80870d", "is_disabled": 0, "is_reserved": 0}, {"rental_uris": {"ios": "https://dc.lft.to/lastmile_qr_scan", "android": "https://dc.lft.to/lastmile_qr_scan"}, "lon": -77.0335325, "type": "electric_scooter", "fusion_lat": 0.0, "lat": 38.88507283333333, "name": "07506aebdf619a5a2f1185312f296c11", "fusion_lon": 0.0, "bike_id": "07506aebdf619a5a2f1185312f296c11", "is_disabled": 0, "is_reserved": 0}, {"rental_uris": {"ios": "https://dc.lft.to/lastmile_qr_scan", "android": "https://dc.lft.to/lastmile_qr_scan"}, "lon": -77.0319795, "type": "electric_scooter", "fusion_lat": 0.0, "lat": 38.913143833333336, "name": "4b6924b1059763de6505b263a1168a0b", "fusion_lon": 0.0, "bike_id": "4b6924b1059763de6505b263a1168a0b", "is_disabled": 0, "is_reserved": 0}, {"rental_uris": {"ios": "https://dc.lft.to/lastmile_qr_scan", "android": "https://dc.lft.to/lastmile_qr_scan"}, "lon": -77.04439833333333, "type": "electric_scooter", "fusion_lat": 0.0, "lat": 38.91872816666667, "name": "6b2f252b5d5e820c27eef9b6c5cb20bd", "fusion_lon": 0.0, "bike_id": "6b2f252b5d5e820c27eef9b6c5cb20bd", "is_disabled": 0, "is_reserved": 0}, {"rental_uris": {"ios": "https://dc.lft.to/lastmile_qr_scan", "android": "https://dc.lft.to/lastmile_qr_scan"}, "lon": -77.095242, "type": "electric_bike", "fusion_lat": 0.0, "lat": 38.83810483333333, "name": "88ee751e9c6dcd2aebe1e7bf584e1163", "fusion_lon": 0.0, "bike_id": "88ee751e9c6dcd2aebe1e7bf584e1163", "is_disabled": 0, "is_reserved": 0}, {"rental_uris": {"ios": "https://dc.lft.to/lastmile_qr_scan", "android": "https://dc.lft.to/lastmile_qr_scan"}, "lon": -76.9948255, "type": "electric_scooter", "fusion_lat": 0.0, "lat": 38.862337, "name": "4d0815dd594bb29f3b39a108e8d7313b", "fusion_lon": 0.0, "bike_id": "4d0815dd594bb29f3b39a108e8d7313b", "is_disabled": 0, "is_reserved": 0}, {"rental_uris": {"ios": "https://dc.lft.to/lastmile_qr_scan", "android": "https://dc.lft.to/lastmile_qr_scan"}, "lon": -77.00654483333334, "type": "electric_scooter", "fusion_lat": 0.0, "lat": 38.9086275, "name": "5b30f45d6e228654327652fc43300a6b", "fusion_lon": 0.0, "bike_id": "5b30f45d6e228654327652fc43300a6b", "is_disabled": 0, "is_reserved": 0}, {"rental_uris": {"ios": "https://dc.lft.to/lastmile_qr_scan", "android": "https://dc.lft.to/lastmile_qr_scan"}, "lon": -77.14984983333333, "type": "electric_bike", "fusion_lat": 0.0, "lat": 39.09460116666666, "name": "743a078f048ab6b9d5057765163b920b", "fusion_lon": 0.0, "bike_id": "743a078f048ab6b9d5057765163b920b", "is_disabled": 0, "is_reserved": 0}, {"rental_uris": {"ios": "https://dc.lft.to/lastmile_qr_scan", "android": "https://dc.lft.to/lastmile_qr_scan"}, "lon": -77.19911616666667, "type": "electric_bike", "fusion_lat": 0.0, "lat": 38.87528966666667, "name": "f51faa9fbb0b8ed98ef27111b7988d4a", "fusion_lon": 0.0, "bike_id": "f51faa9fbb0b8ed98ef27111b7988d4a", "is_disabled": 0, "is_reserved": 0}, {"rental_uris": {"ios": "https://dc.lft.to/lastmile_qr_scan", "android": "https://dc.lft.to/lastmile_qr_scan"}, "lon": -77.00346233333333, "type": "electric_scooter", "fusion_lat": 0.0, "lat": 38.891581333333335, "name": "08b36fefbe8b53678a33caf978b9e0a6", "fusion_lon": 0.0, "bike_id": "08b36fefbe8b53678a33caf978b9e0a6", "is_disabled": 0, "is_reserved": 0}, {"rental_uris": {"ios": "https://dc.lft.to/lastmile_qr_scan", "android": "https://dc.lft.to/lastmile_qr_scan"}, "lon": -77.02215816666667, "type": "electric_scooter", "fusion_lat": 0.0, "lat": 38.91270033333333, "name": "f18cb74ba5bb22521ae4c00b568de283", "fusion_lon": 0.0, "bike_id": "f18cb74ba5bb22521ae4c00b568de283", "is_disabled": 0, "is_reserved": 0}, {"rental_uris": {"ios": "https://dc.lft.to/lastmile_qr_scan", "android": "https://dc.lft.to/lastmile_qr_scan"}, "lon": -77.02479916666667, "type": "electric_scooter", "fusion_lat": 0.0, "lat": 38.93351966666667, "name": "271b6c0bc9429a32b5202dfe599b53d5", "fusion_lon": 0.0, "bike_id": "271b6c0bc9429a32b5202dfe599b53d5", "is_disabled": 0, "is_reserved": 0}, {"rental_uris": {"ios": "https://dc.lft.to/lastmile_qr_scan", "android": "https://dc.lft.to/lastmile_qr_scan"}, "lon": -77.0293975, "type": "electric_scooter", "fusion_lat": 0.0, "lat": 38.90364566666667, "name": "a96f93f10f97644da9c7527500434bf2", "fusion_lon": 0.0, "bike_id": "a96f93f10f97644da9c7527500434bf2", "is_disabled": 0, "is_reserved": 0}, {"rental_uris": {"ios": "https://dc.lft.to/lastmile_qr_scan", "android": "https://dc.lft.to/lastmile_qr_scan"}, "lon": -76.99815066666666, "type": "electric_scooter", "fusion_lat": 0.0, "lat": 38.90026366666667, "name": "f04c0e76234646c98913d553bdeb086d", "fusion_lon": 0.0, "bike_id": "f04c0e76234646c98913d553bdeb086d", "is_disabled": 0, "is_reserved": 0}, {"rental_uris": {"ios": "https://dc.lft.to/lastmile_qr_scan", "android": "https://dc.lft.to/lastmile_qr_scan"}, "lon": -77.3530395, "type": "electric_bike", "fusion_lat": 0.0, "lat": 38.9499905, "name": "043a22d2dc88ea261174164597b04e16", "fusion_lon": 0.0, "bike_id": "043a22d2dc88ea261174164597b04e16", "is_disabled": 0, "is_reserved": 0}, {"rental_uris": {"ios": "https://dc.lft.to/lastmile_qr_scan", "android": "https://dc.lft.to/lastmile_qr_scan"}, "lon": -77.02839666666667, "type": "electric_scooter", "fusion_lat": 0.0, "lat": 38.942637166666664, "name": "46916e72f2308baf51252ffb1d2106aa", "fusion_lon": 0.0, "bike_id": "46916e72f2308baf51252ffb1d2106aa", "is_disabled": 0, "is_reserved": 0}, {"rental_uris": {"ios": "https://dc.lft.to/lastmile_qr_scan", "android": "https://dc.lft.to/lastmile_qr_scan"}, "lon": -77.047385, "type": "electric_scooter", "fusion_lat": 0.0, "lat": 38.917730666666664, "name": "360b69f456115765d7788eb779cd72f0", "fusion_lon": 0.0, "bike_id": "360b69f456115765d7788eb779cd72f0", "is_disabled": 0, "is_reserved": 0}, {"rental_uris": {"ios": "https://dc.lft.to/lastmile_qr_scan", "android": "https://dc.lft.to/lastmile_qr_scan"}, "lon": -77.00724516666666, "type": "electric_scooter", "fusion_lat": 0.0, "lat": 38.8849335, "name": "504fabbb97ee809d85cc9e72d0acbdfb", "fusion_lon": 0.0, "bike_id": "504fabbb97ee809d85cc9e72d0acbdfb", "is_disabled": 0, "is_reserved": 0}, {"rental_uris": {"ios": "https://dc.lft.to/lastmile_qr_scan", "android": "https://dc.lft.to/lastmile_qr_scan"}, "lon": -77.03309366666667, "type": "electric_scooter", "fusion_lat": 0.0, "lat": 38.90152483333333, "name": "3d527de9e2760f5ce11e572e532adbef", "fusion_lon": 0.0, "bike_id": "3d527de9e2760f5ce11e572e532adbef", "is_disabled": 0, "is_reserved": 0}, {"rental_uris": {"ios": "https://dc.lft.to/lastmile_qr_scan", "android": "https://dc.lft.to/lastmile_qr_scan"}, "lon": -76.994847, "type": "electric_scooter", "fusion_lat": 0.0, "lat": 38.862359, "name": "b33f154259c88a230975ab116aa24f71", "fusion_lon": 0.0, "bike_id": "b33f154259c88a230975ab116aa24f71", "is_disabled": 0, "is_reserved": 0}, {"rental_uris": {"ios": "https://dc.lft.to/lastmile_qr_scan", "android": "https://dc.lft.to/lastmile_qr_scan"}, "lon": -77.03187433333333, "type": "electric_scooter", "fusion_lat": 0.0, "lat": 38.91925066666667, "name": "6fda1e6f5d0bf6bfed0240b1f9acfe4b", "fusion_lon": 0.0, "bike_id": "6fda1e6f5d0bf6bfed0240b1f9acfe4b", "is_disabled": 0, "is_reserved": 0}, {"rental_uris": {"ios": "https://dc.lft.to/lastmile_qr_scan", "android": "https://dc.lft.to/lastmile_qr_scan"}, "lon": -76.93176666666666, "type": "electric_scooter", "fusion_lat": 0.0, "lat": 38.898834, "name": "7dbf269075556b281ab0effe4059acd0", "fusion_lon": 0.0, "bike_id": "7dbf269075556b281ab0effe4059acd0", "is_disabled": 0, "is_reserved": 0}, {"rental_uris": {"ios": "https://dc.lft.to/lastmile_qr_scan", "android": "https://dc.lft.to/lastmile_qr_scan"}, "lon": -77.022092, "type": "electric_scooter", "fusion_lat": 0.0, "lat": 38.9083195, "name": "1514b21cac961151480472ada8e493c3", "fusion_lon": 0.0, "bike_id": "1514b21cac961151480472ada8e493c3", "is_disabled": 0, "is_reserved": 0}, {"rental_uris": {"ios": "https://dc.lft.to/lastmile_qr_scan", "android": "https://dc.lft.to/lastmile_qr_scan"},