{"data": {"bikes": [{"rental_uris": {"ios": "https://dc.lft.to/lastmile_qr_scan", "android": "https://dc.lft.to/lastmile_qr_scan"}, "lon": -76.97216316666666, "type": "electric_bike", "fusion_lat": 0.0, "lat": 38.844795166666664, "name": "f491da5e030e94e903a1ad88be342ccb", "fusion_lon": 0.0, "bike_id": "f491da5e030e94e903a1ad88be342ccb", "is_disabled": 0, "is_reserved": 0}, {"rental_uris": {"ios": "https://dc.lft.to/lastmile_qr_scan", "android": "https://dc.lft.to/lastmile_qr_scan"}, "lon": -76.94439583333333, "type": "electric_bike", "fusion_lat": 0.0, "lat": 38.902946166666666, "name": "8ed412dc72a17819efe15c4a7dab23b5", "fusion_lon": 0.0, "bike_id": "8ed412dc72a17819efe15c4a7dab23b5", "is_disabled": 0, "is_reserved": 0}, {"rental_uris": {"ios": "https://dc.lft.to/lastmile_qr_scan", "android": "https://dc.lft.to/lastmile_qr_scan"}, "lon": -77.03173866666667, "type": "electric_scooter", "fusion_lat": 0.0, "lat": 38.909690166666664, "name": "01aecaafac130b38f12188c88a990e5d", "fusion_lon": 0.0, "bike_id": "01aecaafac130b38f12188c88a990e5d", "is_disabled": 0, "is_reserved": 0}, {"rental_uris": {"ios": "https://dc.lft.to/lastmile_qr_scan", "android": "https://dc.lft.to/lastmile_qr_scan"}, "lon": -77.03213433333333, "type": "electric_scooter", "fusion_lat": 0.0, "lat": 38.933801333333335, "name": "4d7838e6df52623deb5a305bbadd8595", "fusion_lon": 0.0, "bike_id": "4d7838e6df52623deb5a305bbadd8595", "is_disabled": 0, "is_reserved": 0}, {"rental_uris": {"ios": "https://dc.lft.to/lastmile_qr_scan", "android": "https://dc.lft.to/lastmile_qr_scan"}, "lon": -77.0111625, "type": "electric_scooter", "fusion_lat": 0.0, "lat": 38.91267233333333, "name": "34ec6f71d2d035140cc4b52613f2deae", "fusion_lon": 0.0, "bike_id": "34ec6f71d2d035140cc4b52613f2deae", "is_disabled": 0, "is_reserved": 0}, {"rental_uris": {"ios": "https://dc.lft.to/lastmile_qr_scan", "android": "https://dc.lft.to/lastmile_qr_scan"}, "lon": -77.04199966666667, "type": "electric_scooter", "fusion_lat": 0.0, "lat": 38.91674866666666, "name": "f8b52d565605efcce6136a9b25f43265", "fusion_lon": 0.0, "bike_id": "f8b52d565605efcce6136a9b25f43265", "is_disabled": 0, "is_reserved": 0}, {"rental_uris": {"ios": "https://dc.lft.to/lastmile_qr_scan", "android": "https://dc.lft.to/lastmile_qr_scan"}, "lon": -77.03209, "type": "electric_scooter", "fusion_lat": 0.0, "lat": 38.90990466666667, "name": "232dd733c754a43ae9db5b39ac63f13f", "fusion_lon": 0.0, "bike_id": "232dd733c754a43ae9db5b39ac63f13f", "is_disabled": 0, "is_reserved": 0}, {"rental_uris": {"ios": "https://dc.lft.to/lastmile_qr_scan", "android": "https://dc.lft.to/lastmile_qr_scan"}, "lon": -77.055005, "type": "electric_scooter", "fusion_lat": 0.0, "lat": 38.92973966666667, "name": "1158881113bd3edcd72f588c8631c659", "fusion_lon": 0.0, "bike_id": "1158881113bd3edcd72f588c8631c659", "is_disabled": 0, "is_reserved": 0}, {"rental_uris": {"ios": "https://dc.lft.to/lastmile_qr_scan", "android": "https://dc.lft.to/lastmile_qr_scan"}, "lon": -76.9925545, "type": "electric_scooter", "fusion_lat": 0.0, "lat": 38.91967666666667, "name": "e4b7e5d19e7bc871b773b2773fcbf0db", "fusion_lon": 0.0, "bike_id": "e4b7e5d19e7bc871b773b2773fcbf0db", "is_disabled": 0, "is_reserved": 0}, {"rental_uris": {"ios": "https://dc.lft.to/lastmile_qr_scan", "android": "https://dc.lft.to/lastmile_qr_scan"}, "lon": -77.03184916666666, "type": "electric_scooter", "fusion_lat": 0.0, "lat": 38.8873555, "name": "365026b8c4d8d8f76f1a0ef200706aa0", "fusion_lon": 0.0, "bike_id": "365026b8c4d8d8f76f1a0ef200706aa0", "is_disabled": 0, "is_reserved": 0}, {"rental_uris": {"ios": "https://dc.lft.to/lastmile_qr_scan", "android": "https://dc.lft.to/lastmile_qr_scan"}, "lon": -77.115235, "type": "electric_bike", "fusion_lat": 0.0, "lat": 38.85491916666667, "name": "368dce3b8623e3abb467a16df0a9a5e4", "fusion_lon": 0.0, "bike_id": "368dce3b8623e3abb467a16df0a9a5e4", "is_disabled": 0, "is_reserved": 0}, {"rental_uris": {"ios": "https://dc.lft.to/lastmile_qr_scan", "android": "https://dc.lft.to/lastmile_qr_scan"}, "lon": -77.04473, "type": "electric_scooter", "fusion_lat": 0.0, "lat": 38.91118, "name": "5c7a299dca2e5032f84dd2d0e159b72a", "fusion_lon": 0.0, "bike_id": "5c7a299dca2e5032f84dd2d0e159b72a", "is_disabled": 0, "is_reserved": 0}, {"rental_uris": {"ios": "https://dc.lft.to/lastmile_qr_scan", "android": "https://dc.lft.to/lastmile_qr_scan"}, "lon": -76.982007, "type": "electric_scooter", "fusion_lat": 0.0, "lat": 38.9039105, "name": "e0816fa0b380fb9567c668abe87690c4", "fusion_lon": 0.0, "bike_id": "e0816fa0b380fb9567c668abe87690c4", "is_disabled": 0, "is_reserved": 0}, {"rental_uris": {"ios": "https://dc.lft.to/lastmile_qr_scan", "android": "https://dc.lft.to/lastmile_qr_scan"}, "lon": -77.0314095, "type": "electric_scooter", "fusion_lat": 0.0, "lat": 38.91128783333333, "name": "dbc3cf034b3acfe447c696147f8fd80c", "fusion_lon": 0.0, "bike_id": "dbc3cf034b3acfe447c696147f8fd80c", "is_disabled": 0, "is_reserved": 0}, {"rental_uris": {"ios": "https://dc.lft.to/lastmile_qr_scan", "android": "https://dc.lft.to/lastmile_qr_scan"}, "lon": -77.025973, "type": "electric_scooter", "fusion_lat": 0.0, "lat": 38.89654133333333, "name": "72f751bcec3acc7df3abcf605b88ea74", "fusion_lon": 0.0, "bike_id": "72f751bcec3acc7df3abcf605b88ea74", "is_disabled": 0, "is_reserved": 0}, {"rental_uris": {"ios": "https://dc.lft.to/lastmile_qr_scan", "android": "https://dc.lft.to/lastmile_qr_scan"}, "lon": -77.020014, "type": "electric_scooter", "fusion_lat": 0.0, "lat": 38.897556, "name": "dc9b41a892741f0a5fa866daa2a30237", "fusion_lon": 0.0, "bike_id": "dc9b41a892741f0a5fa866daa2a30237", "is_disabled": 0, "is_reserved": 0}, {"rental_uris": {"ios": "https://dc.lft.to/lastmile_qr_scan", "android": "https://dc.lft.to/lastmile_qr_scan"}, "lon": -77.00617966666667, "type": "electric_bike", "fusion_lat": 0.0, "lat": 38.8751225, "name": "4e251ae058365bc1395ab03b6577b0f8", "fusion_lon": 0.0, "bike_id": "4e251ae058365bc1395ab03b6577b0f8", "is_disabled": 0, "is_reserved": 0}, {"rental_uris": {"ios": "https://dc.lft.to/lastmile_qr_scan", "android": "https://dc.lft.to/lastmile_qr_scan"}, "lon": -76.99001216666667, "type": "electric_scooter", "fusion_lat": 0.0, "lat": 38.865028833333334, "name": "277f6748b7b66a5e088072f6b29251db", "fusion_lon": 0.0, "bike_id": "277f6748b7b66a5e088072f6b29251db", "is_disabled": 0, "is_reserved": 0}, {"rental_uris": {"ios": "https://dc.lft.to/lastmile_qr_scan", "android": "https://dc.lft.to/lastmile_qr_scan"}, "lon": -77.02368433333334, "type": "electric_scooter", "fusion_lat": 0.0, "lat": 38.9031175, "name": "844fa821fcac23f6d93c1ac199e270a7", "fusion_lon": 0.0, "bike_id": "844fa821fcac23f6d93c1ac199e270a7", "is_disabled": 0, "is_reserved": 0}, {"rental_uris": {"ios": "https://dc.lft.to/lastmile_qr_scan", "android": "https://dc.lft.to/lastmile_qr_scan"}, "lon": -77.03286266666667, "type": "electric_scooter", "fusion_lat": 0.0, "lat": 38.929288, "name": "557a2f9ba239052680f5156314f8b34b", "fusion_lon": 0.0, "bike_id": "557a2f9ba239052680f5156314f8b34b", "is_disabled": 0, "is_reserved": 0}, {"rental_uris": {"ios": "https://dc.lft.to/lastmile_qr_scan", "android": "https://dc.lft.to/lastmile_qr_scan"}, "lon": -76.98789883333333, "type": "electric_scooter", "fusion_lat": 0.0, "lat": 38.8446775, "name": "89bcf8c2b4699a5097bc7b7f1c897d3d", "fusion_lon": 0.0, "bike_id": "89bcf8c2b4699a5097bc7b7f1c897d3d", "is_disabled": 0, "is_reserved": 0}, {"rental_uris": {"ios": "https://dc.lft.to/lastmile_qr_scan", "android": "https://dc.lft.to/lastmile_qr_scan"}, "lon": -77.03074716666667, "type": "electric_scooter", "fusion_lat": 0.0, "lat": 38.8946395, "name": "7cc16adae173147ec32bca1484d58264", "fusion_lon": 0.0, "bike_id": "7cc16adae173147ec32bca1484d58264", "is_disabled": 0, "is_reserved": 0}, {"rental_uris": {"ios": "https://dc.lft.to/lastmile_qr_scan", "android": "https://dc.lft.to/lastmile_qr_scan"}, "lon": -77.0137555, "type": "electric_scooter", "fusion_lat": 0.0, "lat": 38.869614, "name": "34f00114cf48a19e1bfa9f3f64c2b664", "fusion_lon": 0.0, "bike_id": "34f00114cf48a19e1bfa9f3f64c2b664", "is_disabled": 0, "is_reserved": 0}, {"rental_uris": {"ios": "https://dc.lft.to/lastmile_qr_scan", "android": "https://dc.lft.to/lastmile_qr_scan"}, "lon": -77.03269883333333, "type": "electric_bike", "fusion_lat": 0.0, "lat": 38.92948166666667, "name": "656776ec68298c760fcc460afca2092c", "fusion_lon": 0.0, "bike_id": "656776ec68298c760fcc460afca2092c", "is_disabled": 0, "is_reserved": 0}, {"rental_uris": {"ios": "https://dc.lft.to/lastmile_qr_scan", "android": "https://dc.lft.to/lastmile_qr_scan"}, "lon": -77.02835566666667, "type": "electric_scooter", "fusion_lat": 0.0, "lat": 38.88651183333333, "name": "b5c92be6bc6e66d0ee3f361c4e490183", "fusion_lon": 0.0, "bike_id": "b5c92be6bc6e66d0ee3f361c4e490183", "is_disabled": 0, "is_reserved": 0}, {"rental_uris": {"ios": "https://dc.lft.to/lastmile_qr_scan", "android": "https://dc.lft.to/lastmile_qr_scan"}, "lon": -77.05501266666667, "type": "electric_scooter", "fusion_lat": 0.0, "lat": 38.92975066666666, "name": "22329179728755dd2bb3c1d889599b06", "fusion_lon": 0.0, "bike_id": "22329179728755dd2bb3c1d889599b06", "is_disabled": 0, "is_reserved": 0}, {"rental_uris": {"ios": "https://dc.lft.to/lastmile_qr_scan", "android": "https://dc.lft.to/lastmile_qr_scan"}, "lon": -76.94890033333333, "type": "electric_scooter", "fusion_lat": 0.0, "lat": 38.89525283333333, "name": "90396b7549bb7d61c4d3396ec3daf757", "fusion_lon": 0.0, "bike_id": "90396b7549bb7d61c4d3396ec3daf757", "is_disabled": 0, "is_reserved": 0}, {"rental_uris": {"ios": "https://dc.lft.to/lastmile_qr_scan", "android": "https://dc.lft.to/lastmile_qr_scan"}, "lon": -77.021553, "type": "electric_scooter", "fusion_lat": 0.0, "lat": 38.92605433333333, "name": "5a2566a67506eb932a744e5e65c6e385", "fusion_lon": 0.0, "bike_id": "5a2566a67506eb932a744e5e65c6e385", "is_disabled": 0, "is_reserved": 0}, {"rental_uris": {"ios": "https://dc.lft.to/lastmile_qr_scan", "android": "https://dc.lft.to/lastmile_qr_scan"}, "lon": -76.990013, "type": "electric_scooter", "fusion_lat": 0.0, "lat": 38.865030833333336, "name": "daf15591edcda31272952175b9de4871", "fusion_lon": 0.0, "bike_id": "daf15591edcda31272952175b9de4871", "is_disabled": 0, "is_reserved": 0}, {"rental_uris": {"ios": "https://dc.lft.to/lastmile_qr_scan", "android": "https://dc.lft.to/lastmile_qr_scan"}, "lon": -77.05288883333333, "type": "electric_scooter", "fusion_lat": 0.0, "lat": 38.91892883333333, "name": "39d771d7e64b4931d3d457ed33014b8c", "fusion_lon": 0.0, "bike_id": "39d771d7e64b4931d3d457ed33014b8c", "is_disabled": 0, "is_reserved": 0}, {"rental_uris": {"ios": "https://dc.lft.to/lastmile_qr_scan", "android": "https://dc.lft.to/lastmile_qr_scan"}, "lon": -77.07066533333334, "type": "electric_scooter", "fusion_lat": 0.0, "lat": 38.95221166666666, "name": "d5da01d4b8c2499d1a3b84f038bb4c1d", "fusion_lon": 0.0, "bike_id": "d5da01d4b8c2499d1a3b84f038bb4c1d", "is_disabled": 0, "is_reserved": 0}, {"rental_uris": {"ios": "https://dc.lft.to/lastmile_qr_scan", "android": "https://dc.lft.to/lastmile_qr_scan"}, "lon": -77.008641, "type": "electric_bike", "fusion_lat": 0.0, "lat": 38.8272595, "name": "6cc9c0f33dee5548cf37b0652822822a", "fusion_lon": 0.0, "bike_id": "6cc9c0f33dee5548cf37b0652822822a", "is_disabled": 0, "is_reserved": 0}, {"rental_uris": {"ios": "https://dc.lft.to/lastmile_qr_scan", "android": "https://dc.lft.to/lastmile_qr_scan"}, "lon": -77.05404716666666, "type": "electric_scooter", "fusion_lat": 0.0, "lat": 38.90273083333334, "name": "dd0a8b44136713818063120dfb329684", "fusion_lon": 0.0, "bike_id": "dd0a8b44136713818063120dfb329684", "is_disabled": 0, "is_reserved": 0}, {"rental_uris": {"ios": "https://dc.lft.to/lastmile_qr_scan", "android": "https://dc.lft.to/lastmile_qr_scan"}, "lon": -77.0419495, "type": "electric_scooter", "fusion_lat": 0.0, "lat": 38.9034585, "name": "c428290347765b0a90cf2ee70a346f00", "fusion_lon": 0.0, "bike_id": "c428290347765b0a90cf2ee70a346f00", "is_disabled": 0, "is_reserved": 0}, {"rental_uris": {"ios": "https://dc.lft.to/lastmile_qr_scan", "android": "https://dc.lft.to/lastmile_qr_scan"}, "lon": -77.04709533333333, "type": "electric_scooter", "fusion_lat": 0.0, "lat": 38.922312833333336, "name": "bea50a9642b6796d0d475bdd3ccccb1e", "fusion_lon": 0.0, "bike_id": "bea50a9642b6796d0d475bdd3ccccb1e", "is_disabled": 0, "is_reserved": 0}, {"rental_uris": {"ios": "https://dc.lft.to/lastmile_qr_scan", "android": "https://dc.lft.to/lastmile_qr_scan"}, "lon": -77.03408400000001, "type": "electric_scooter", "fusion_lat": 0.0, "lat": 38.92263116666667, "name": "cb5f0e58a604b6cb29fc817e0118e9f7", "fusion_lon": 0.0, "bike_id": "cb5f0e58a604b6cb29fc817e0118e9f7", "is_disabled": 0, "is_reserved": 0}, {"rental_uris": {"ios": "https://dc.lft.to/lastmile_qr_scan", "android": "https://dc.lft.to/lastmile_qr_scan"}, "lon": -77.0280445, "type": "electric_scooter", "fusion_lat": 0.0, "lat": 38.898297166666666, "name": "c0ed523cb191bd958ba3be2b6f760f93", "fusion_lon": 0.0, "bike_id": "c0ed523cb191bd958ba3be2b6f760f93", "is_disabled": 0, "is_reserved": 0}, {"rental_uris": {"ios": "https://dc.lft.to/lastmile_qr_scan", "android": "https://dc.lft.to/lastmile_qr_scan"}, "lon": -76.93169383333333, "type": "electric_scooter", "fusion_lat": 0.0, "lat": 38.898855, "name": "e5d87ef0858f69d6f1fb7f8d80b81a5b", "fusion_lon": 0.0, "bike_id": "e5d87ef0858f69d6f1fb7f8d80b81a5b", "is_disabled": 0, "is_reserved": 0}, {"rental_uris": {"ios": "https://dc.lft.to/lastmile_qr_scan", "android": "https://dc.lft.to/lastmile_qr_scan"}, "lon": -77.0220935, "type": "electric_scooter", "fusion_lat": 0.0, "lat": 38.92230566666667, "name": "a12b3a268dc6e7f8fbe15cab24e051e7", "fusion_lon": 0.0, "bike_id": "a12b3a268dc6e7f8fbe15cab24e051e7", "is_disabled": 0, "is_reserved": 0}, {"rental_uris": {"ios": "https://dc.lft.to/lastmile_qr_scan", "android": "https://dc.lft.to/lastmile_qr_scan"}, "lon": -76.91918483333333, "type": "electric_scooter", "fusion_lat": 0.0, "lat": 38.9004225, "name": "cf4cc8fbe3e33a4c0cc8d463ad819509", "fusion_lon": 0.0, "bike_id": "cf4cc8fbe3e33a4c0cc8d463ad819509", "is_disabled": 0, "is_reserved": 0}, {"rental_uris": {"ios": "https://dc.lft.to/lastmile_qr_scan", "android": "https://dc.lft.to/lastmile_qr_scan"}, "lon": -76.998585, "type": "electric_scooter", "fusion_lat": 0.0, "lat": 38.907809, "name": "412d436d979e120cce2b71dd173d97ad", "fusion_lon": 0.0, "bike_id": "412d436d979e120cce2b71dd173d97ad", "is_disabled": 0, "is_reserved": 0}, {"rental_uris": {"ios": "https://dc.lft.to/lastmile_qr_scan", "android": "https://dc.lft.to/lastmile_qr_scan"}, "lon": -76.98709733333334, "type": "electric_scooter", "fusion_lat": 0.0, "lat": 38.86697783333334, "name": "f4c5f4af24fb9139935b1a529721f8fd", "fusion_lon": 0.0, "bike_id": "f4c5f4af24fb9139935b1a529721f8fd", "is_disabled": 0, "is_reserved": 0}, {"rental_uris": {"ios": "https://dc.lft.to/lastmile_qr_scan", "android": "https://dc.lft.to/lastmile_qr_scan"}, "lon": -77.03200416666667, "type": "electric_scooter", "fusion_lat": 0.0, "lat": 38.916746333333336, "name": "250fcb3e599cc2e6a5ac05ea016e206d", "fusion_lon": 0.0, "bike_id": "250fcb3e599cc2e6a5ac05ea016e206d", "is_disabled": 0, "is_reserved": 0}, {"rental_uris": {"ios": "https://dc.lft.to/lastmile_qr_scan", "android": "https://dc.lft.to/lastmile_qr_scan"}, "lon": -77.01228883333333, "type": "electric_scooter", "fusion_lat": 0.0, "lat": 38.90027283333333, "name": "c4f376b0a33972abe1a833dbf118e436", "fusion_lon": 0.0, "bike_id": "c4f376b0a33972abe1a833dbf118e436", "is_disabled": 0, "is_reserved": 0}, {"rental_uris": {"ios": "https://dc.lft.to/lastmile_qr_scan", "android": "https://dc.lft.to/lastmile_qr_scan"}, "lon": -76.99824116666667, "type": "electric_scooter", "fusion_lat": 0.0, "lat": 38.88118683333333, "name": "86cd0dd51bf14be5fae8dca668bd9220", "fusion_lon": 0.0, "bike_id": "86cd0dd51bf14be5fae8dca668bd9220", "is_disabled": 0, "is_reserved": 0}, {"rental_uris": {"ios": "https://dc.lft.to/lastmile_qr_scan", "android": "https://dc.lft.to/lastmile_qr_scan"}, "lon": -77.07775233333334, "type": "electric_scooter", "fusion_lat": 0.0, "lat": 38.945596333333334, "name": "ef1c454cb3d8b96a1be850a7dce6a708", "fusion_lon": 0.0, "bike_id": "ef1c454cb3d8b96a1be850a7dce6a708", "is_disabled": 0, "is_reserved": 0}, {"rental_uris": {"ios": "https://dc.lft.to/lastmile_qr_scan", "android": "https://dc.lft.to/lastmile_qr_scan"}, "lon": -77.06237516666667, "type": "electric_scooter", "fusion_lat": 0.0, "lat": 38.906861666666664, "name": "ec359ecfa2e87af7e94c41970e1a9385", "fusion_lon": 0.0, "bike_id": "ec359ecfa2e87af7e94c41970e1a9385", "is_disabled": 0, "is_reserved": 0}, {"rental_uris": {"ios": "https://dc.lft.to/lastmile_qr_scan", "android": "https://dc.lft.to/lastmile_qr_scan"}, "lon": -77.00258583333333, "type": "electric_scooter", "fusion_lat": 0.0, "lat": 38.898942, "name": "a5de221d45a1afaedfe611a75beeae67", "fusion_lon": 0.0, "bike_id": "a5de221d45a1afaedfe611a75beeae67", "is_disabled": 0, "is_reserved": 0}, {"rental_uris": {"ios": "https://dc.lft.to/lastmile_qr_scan", "android": "https://dc.lft.to/lastmile_qr_scan"}, "lon": -76.989503, "type": "electric_scooter", "fusion_lat": 0.0, "lat": 38.90134666666667, "name": "1fe640bafe69325ec39d55b600ea2331", "fusion_lon": 0.0, "bike_id": "1fe640bafe69325ec39d55b600ea2331", "is_disabled": 0, "is_reserved": 0}, {"rental_uris": {"ios": "https://dc.lft.to/lastmile_qr_scan", "android": "https://dc.lft.to/lastmile_qr_scan"}, "lon": -77.03794383333333, "type": "electric_scooter", "fusion_lat": 0.0, "lat": 38.9263105, "name": "9e5ab3cc8e3521fd5d1dc345be2b3975", "fusion_lon": 0.0, "bike_id": "9e5ab3cc8e3521fd5d1dc345be2b3975", "is_disabled": 0, "is_reserved": 0}, {"rental_uris": {"ios": "https://dc.lft.to/lastmile_qr_scan", "android": "https://dc.lft.to/lastmile_qr_scan"}, "lon": -77.019735, "type": "electric_scooter", "fusion_lat": 0.0, "lat": 38.887422, "name": "db099d7f07f629003a72934afc0b25c3", "fusion_lon": 0.0, "bike_id": "db099d7f07f629003a72934afc0b25c3", "is_disabled": 0, "is_reserved": 0}, {"rental_uris": {"ios": "https://dc.lft.to/lastmile_qr_scan", "android": "https://dc.lft.to/lastmile_qr_scan"}, "lon": -77.0384585, "type": "electric_scooter", "fusion_lat": 0.0, "lat": 38.910525666666665, "name": "5d682a7243df1e0cb76580f8dd5e26b7", "fusion_lon": 0.0, "bike_id": "5d682a7243df1e0cb76580f8dd5e26b7", "is_disabled": 0, "is_reserved": 0}, {"rental_uris": {"ios": "https://dc.lft.to/lastmile_qr_scan", "android": "https://dc.lft.to/lastmile_qr_scan"}, "lon": -77.03333266666667, "type": "electric_scooter", "fusion_lat": 0.0, "lat": 38.928822333333336, "name": "604a6ac8b335884dd619984335f31057", "fusion_lon": 0.0, "bike_id": "604a6ac8b335884dd619984335f31057", "is_disabled": 0, "is_reserved": 0}, {"rental_uris": {"ios": "https://dc.lft.to/lastmile_qr_scan", "android": "https://dc.lft.to/lastmile_qr_scan"}, "lon": -77.02070733333333, "type": "electric_scooter", "fusion_lat": 0.0, "lat": 38.915491, "name": "5d2b07fe7cc20e01e0899fbbfeb8c6a7", "fusion_lon": 0.0, "bike_id": "5d2b07fe7cc20e01e0899fbbfeb8c6a7", "is_disabled": 0, "is_reserved": 0}, {"rental_uris": {"ios": "https://dc.lft.to/lastmile_qr_scan", "android": "https://dc.lft.to/lastmile_qr_scan"}, "lon": -76.99495616666667, "type": "electric_scooter", "fusion_lat": 0.0, "lat": 38.89950966666667, "name": "d6afb98d7ed4b9886ea1ec09ffe26117", "fusion_lon": 0.0, "bike_id": "d6afb98d7ed4b9886ea1ec09ffe26117", "is_disabled": 0, "is_reserved": 0}, {"rental_uris": {"ios": "https://dc.lft.to/lastmile_qr_scan", "android": "https://dc.lft.to/lastmile_qr_scan"}, "lon": -77.05304283333334, "type": "electric_scooter", "fusion_lat": 0.0, "lat": 38.926244833333335, "name": "6747d8ad5696e758ac4cebd574b5e3f8", "fusion_lon": 0.0, "bike_id": "6747d8ad5696e758ac4cebd574b5e3f8", "is_disabled": 0, "is_reserved": 0}, {"rental_uris": {"ios": "https://dc.lft.to/lastmile_qr_scan", "android": "https://dc.lft.to/lastmile_qr_scan"}, "lon": -76.93172133333333, "type": "electric_scooter", "fusion_lat": 0.0, "lat": 38.8988535, "name": "6c7f0c945a9684bf63c068ae7127dc12", "fusion_lon": 0.0, "bike_id": "6c7f0c945a9684bf63c068ae7127dc12", "is_disabled": 0, "is_reserved": 0}, {"rental_uris": {"ios": "https://dc.lft.to/lastmile_qr_scan", "android": "https://dc.lft.to/lastmile_qr_scan"}, "lon": -76.975052, "type": "electric_scooter", "fusion_lat": 0.0, "lat": 38.86921233333333, "name": "ccf1a05fda11685caa9efeb10789cc1f", "fusion_lon": 0.0, "bike_id": "ccf1a05fda11685caa9efeb10789cc1f", "is_disabled": 0, "is_reserved": 0}, {"rental_uris": {"ios": "https://dc.lft.to/lastmile_qr_scan", "android": "https://dc.lft.to/lastmile_qr_scan"}, "lon": -77.00777766666667, "type": "electric_scooter", "fusion_lat": 0.0, "lat": 38.897318, "name": "5dd2ae7e56f1cdd8960bd6260d0f356c", "fusion_lon": 0.0, "bike_id": "5dd2ae7e56f1cdd8960bd6260d0f356c", "is_disabled": 0, "is_reserved": 0}, {"rental_uris": {"ios": "https://dc.lft.to/lastmile_qr_scan", "android": "https://dc.lft.to/lastmile_qr_scan"}, "lon": -77.049975, "type": "electric_scooter", "fusion_lat": 0.0, "lat": 38.901220333333335, "name": "cc5b8ad5632b6f8f0a38dda23f6763bf", "fusion_lon": 0.0, "bike_id": "cc5b8ad5632b6f8f0a38dda23f6763bf", "is_disabled": 0, "is_reserved": 0}, {"rental_uris": {"ios": "https://dc.lft.to/lastmile_qr_scan", "android": "https://dc.lft.to/lastmile_qr_scan"}, "lon": -77.04365816666666, "type": "electric_scooter", "fusion_lat": 0.0, "lat": 38.92804683333333, "name": "cab50ed35d629b9db7cb0f530f838697", "fusion_lon": 0.0, "bike_id": "cab50ed35d629b9db7cb0f530f838697", "is_disabled": 0, "is_reserved": 0}, {"rental_uris": {"ios": "https://dc.lft.to/lastmile_qr_scan", "android": "https://dc.lft.to/lastmile_qr_scan"}, "lon": -76.9980025, "type": "electric_scooter", "fusion_lat": 0.0, "lat": 38.908508166666664, "name": "00e3d986f93d2e0c120de45448f0e141", "fusion_lon": 0.0, "bike_id": "00e3d986f93d2e0c120de45448f0e141", "is_disabled": 0, "is_reserved": 0}, {"rental_uris": {"ios": "https://dc.lft.to/lastmile_qr_scan", "android": "https://dc.lft.to/lastmile_qr_scan"}, "lon": -76.94651716666667, "type": "electric_scooter", "fusion_lat": 0.0, "lat": 38.89823416666667, "name": "431b6a9850e8f3ad95a1fe6cb03703e6", "fusion_lon": 0.0, "bike_id": "431b6a9850e8f3ad95a1fe6cb03703e6", "is_disabled": 0, "is_reserved": 0}, {"rental_uris": {"ios": "https://dc.lft.to/lastmile_qr_scan", "android": "https://dc.lft.to/lastmile_qr_scan"}, "lon": -77.003628, "type": "electric_scooter", "fusion_lat": 0.0, "lat": 38.8976505, "name": "aeed8fd2bd92a613ad67b21635f00555", "fusion_lon": 0.0, "bike_id": "aeed8fd2bd92a613ad67b21635f00555", "is_disabled": 0, "is_reserved": 0}, {"rental_uris": {"ios": "https://dc.lft.to/lastmile_qr_scan", "android": "https://dc.lft.to/lastmile_qr_scan"}, "lon": -77.03303983333333, "type": "electric_scooter", "fusion_lat": 0.0, "lat": 38.900074833333335, "name": "f74ac6197854e84c2d1792cf25fe54e4", "fusion_lon": 0.0, "bike_id": "f74ac6197854e84c2d1792cf25fe54e4", "is_disabled": 0, "is_reserved": 0}, {"rental_uris": {"ios": "https://dc.lft.to/lastmile_qr_scan", "android": "https://dc.lft.to/lastmile_qr_scan"}, "lon": -77.0463805, "type": "electric_scooter", "fusion_lat": 0.0, "lat": 38.89344233333333, "name": "1c939bc62b714085f21a3d64152c0226", "fusion_lon": 0.0, "bike_id": "1c939bc62b714085f21a3d64152c0226", "is_disabled": 0, "is_reserved": 0}, {"rental_uris": {"ios": "https://dc.lft.to/lastmile_qr_scan", "android": "https://dc.lft.to/lastmile_qr_scan"}, "lon": -76.98574, "type": "electric_scooter", "fusion_lat": 0.0, "lat": 38.89883316666667, "name": "fa302272677a227234121682c87cb634", "fusion_lon": 0.0, "bike_id": "fa302272677a227234121682c87cb634", "is_disabled": 0, "is_reserved": 0}, {"rental_uris": {"ios": "https://dc.lft.to/lastmile_qr_scan", "android": "https://dc.lft.to/lastmile_qr_scan"}, "lon": -77.025983, "type": "electric_scooter", "fusion_lat": 0.0, "lat": 38.896518666666665, "name": "3dda90bb5ccb35a544f036ece3cccbb7", "fusion_lon": 0.0, "bike_id": "3dda90bb5ccb35a544f036ece3cccbb7", "is_disabled": 0, "is_reserved": 0}, {"rental_uris": {"ios": "https://dc.lft.to/lastmile_qr_scan", "android": "https://dc.lft.to/lastmile_qr_scan"}, "lon": -77.10028283333334, "type": "electric_bike", "fusion_lat": 0.0, "lat": 38.99061316666667, "name": "449721d6bc104d1872004c7156229025", "fusion_lon": 0.0, "bike_id": "449721d6bc104d1872004c7156229025", "is_disabled": 0, "is_reserved": 0}, {"rental_uris": {"ios": "https://dc.lft.to/lastmile_qr_scan", "android": "https://dc.lft.to/lastmile_qr_scan"}, "lon": -77.03189766666667, "type": "electric_scooter", "fusion_lat": 0.0, "lat": 38.9098145, "name": "255ebc16c30f71a048a09bc394567b96", "fusion_lon": 0.0, "bike_id": "255ebc16c30f71a048a09bc394567b96", "is_disabled": 0, "is_reserved": 0}, {"rental_uris": {"ios": "https://dc.lft.to/lastmile_qr_scan", "android": "https://dc.lft.to/lastmile_qr_scan"}, "lon": -76.9865395, "type": "electric_scooter", "fusion_lat": 0.0, "lat": 38.8580385, "name": "dd9f211dc970eaa37d6b7d21baf6ea3f", "fusion_lon": 0.0, "bike_id": "dd9f211dc970eaa37d6b7d21baf6ea3f", "is_disabled": 0, "is_reserved": 0}, {"rental_uris": {"ios": "https://dc.lft.to/lastmile_qr_scan", "android": "https://dc.lft.to/lastmile_qr_scan"}, "lon": -76.992027, "type": "electric_scooter", "fusion_lat": 0.0, "lat": 38.846806, "name": "b131b6fe7c8a360fb8c90693c0983e28", "fusion_lon": 0.0, "bike_id": "b131b6fe7c8a360fb8c90693c0983e28", "is_disabled": 0, "is_reserved": 0}, {"rental_uris": {"ios": "https://dc.lft.to/lastmile_qr_scan", "android": "https://dc.lft.to/lastmile_qr_scan"}, "lon": -76.980912, "type": "electric_scooter", "fusion_lat": 0.0, "lat": 38.857152666666664, "name": "fac85748772cb22eb771991edf18c541", "fusion_lon": 0.0, "bike_id": "fac85748772cb22eb771991edf18c541", "is_disabled": 0, "is_reserved": 0}, {"rental_uris": {"ios": "https://dc.lft.to/lastmile_qr_scan", "android": "https://dc.lft.to/lastmile_qr_scan"}, "lon": -76.987576, "type": "electric_scooter", "fusion_lat": 0.0, "lat": 38.845001, "name": "3d9bc610fc3f174786776756cc1d856b", "fusion_lon": 0.0, "bike_id": "3d9bc610fc3f174786776756cc1d856b", "is_disabled": 0, "is_reserved": 0}, {"rental_uris": {"ios": "https://dc.lft.to/lastmile_qr_scan", "android": "https://dc.lft.to/lastmile_qr_scan"}, "lon": -77.0223715, "type": "electric_scooter", "fusion_lat": 0.0, "lat": 38.962150666666666, "name": "c5215816c5d392854a38209a47ed198d", "fusion_lon": 0.0, "bike_id": "c5215816c5d392854a38209a47ed198d", "is_disabled": 0, "is_reserved": 0}, {"rental_uris": {"ios": "https://dc.lft.to/lastmile_qr_scan", "android": "https://dc.lft.to/lastmile_qr_scan"}, "lon": -77.03340533333333, "type": "electric_scooter", "fusion_lat": 0.0, "lat": 38.89223416666667, "name": "3c963efd4b9857eae2318800438614f7", "fusion_lon": 0.0, "bike_id": "3c963efd4b9857eae2318800438614f7", "is_disabled": 0, "is_reserved": 0}, {"rental_uris": {"ios": "https://dc.lft.to/lastmile_qr_scan", "android": "https://dc.lft.to/lastmile_qr_scan"}, "lon": -76.993768, "type": "electric_scooter", "fusion_lat": 0.0, "lat": 38.897428, "name": "24cf171fc69a9c6975c829f283ba204a", "fusion_lon": 0.0, "bike_id": "24cf171fc69a9c6975c829f283ba204a", "is_disabled": 0, "is_reserved": 0}, {"rental_uris": {"ios": "https://dc.lft.to/lastmile_qr_scan", "android": "https://dc.lft.to/lastmile_qr_scan"}, "lon": -77.010955, "type": "electric_scooter", "fusion_lat": 0.0, "lat": 38.899959833333334, "name": "c339ec53f054a637c6aa5af07a35b031", "fusion_lon": 0.0, "bike_id": "c339ec53f054a637c6aa5af07a35b031", "is_disabled": 0, "is_reserved": 0}, {"rental_uris": {"ios": "https://dc.lft.to/lastmile_qr_scan", "android": "https://dc.lft.to/lastmile_qr_scan"}, "lon": -77.03249616666666, "type": "electric_bike", "fusion_lat": 0.0, "lat": 38.888540166666665, "name": "e1faf86dc5fa29d1b74ff60cc1ed95f1", "fusion_lon": 0.0, "bike_id": "e1faf86dc5fa29d1b74ff60cc1ed95f1", "is_disabled": 0, "is_reserved": 0}, {"rental_uris": {"ios": "https://dc.lft.to/lastmile_qr_scan", "android": "https://dc.lft.to/lastmile_qr_scan"}, "lon": -77.05439566666666, "type": "electric_scooter", "fusion_lat": 0.0, "lat": 38.89606116666667, "name": "7942827ed5da14f50d371e50797efbc2", "fusion_lon": 0.0, "bike_id": "7942827ed5da14f50d371e50797efbc2", "is_disabled": 0, "is_reserved": 0}, {"rental_uris": {"ios": "https://dc.lft.to/lastmile_qr_scan", "android": "https://dc.lft.to/lastmile_qr_scan"}, "lon": -77.04406266666666, "type": "electric_scooter", "fusion_lat": 0.0, "lat": 38.90569966666666, "name": "001be2f11d75a56e8a302054e21cba55", "fusion_lon": 0.0, "bike_id": "001be2f11d75a56e8a302054e21cba55", "is_disabled": 0, "is_reserved": 0}, {"rental_uris": {"ios": "https://dc.lft.to/lastmile_qr_scan", "android": "https://dc.lft.to/lastmile_qr_scan"}, "lon": -77.05004983333333, "type": "electric_scooter", "fusion_lat": 0.0, "lat": 38.907257333333334, "name": "21e3eaa80d49e503ab04737bed1caab4", "fusion_lon": 0.0, "bike_id": "21e3eaa80d49e503ab04737bed1caab4", "is_disabled": 0, "is_reserved": 0}, {"rental_uris": {"ios": "https://dc.lft.to/lastmile_qr_scan", "android": "https://dc.lft.to/lastmile_qr_scan"}, "lon": -77.04011316666667, "type": "electric_scooter", "fusion_lat": 0.0, "lat": 38.932525166666665, "name": "a095611b7ded34953d0f9aafea71b8ce", "fusion_lon": 0.0, "bike_id": "a095611b7ded34953d0f9aafea71b8ce", "is_disabled": 0, "is_reserved": 0}, {"rental_uris": {"ios": "https://dc.lft.to/lastmile_qr_scan", "android": "https://dc.lft.to/lastmile_qr_scan"}, "lon": -77.0487315, "type": "electric_scooter", "fusion_lat": 0.0, "lat": 38.910207, "name": "b599367455bcbb06efc82eedbc5d6d20", "fusion_lon": 0.0, "bike_id": "b599367455bcbb06efc82eedbc5d6d20", "is_disabled": 0, "is_reserved": 0}, {"rental_uris": {"ios": "https://dc.lft.to/lastmile_qr_scan", "android": "https://dc.lft.to/lastmile_qr_scan"}, "lon": -77.02021266666667, "type": "electric_scooter", "fusion_lat": 0.0, "lat": 38.916464166666664, "name": "eb7ab1946d95b12530bba81ec3a6b9b3", "fusion_lon": 0.0, "bike_id": "eb7ab1946d95b12530bba81ec3a6b9b3", "is_disabled": 0, "is_reserved": 0}, {"rental_uris": {"ios": "https://dc.lft.to/lastmile_qr_scan", "android": "https://dc.lft.to/lastmile_qr_scan"}, "lon": -76.96753883333334, "type": "electric_bike", "fusion_lat": 0.0, "lat": 38.875471166666664, "name": "aec5953ae80a17e1a01bae673a930407", "fusion_lon": 0.0, "bike_id": "aec5953ae80a17e1a01bae673a930407", "is_disabled": 0, "is_reserved": 0}, {"rental_uris": {"ios": "https://dc.lft.to/lastmile_qr_scan", "android": "https://dc.lft.to/lastmile_qr_scan"}, "lon": -77.03477316666667, "type": "electric_scooter", "fusion_lat": 0.0, "lat": 38.91990333333333, "name": "1878ccd07ffbdb45786fa2f25c14a144", "fusion_lon": 0.0, "bike_id": "1878ccd07ffbdb45786fa2f25c14a144", "is_disabled": 0, "is_reserved": 0}, {"rental_uris": {"ios": "https://dc.lft.to/lastmile_qr_scan", "android": "https://dc.lft.to/lastmile_qr_scan"}, "lon": -77.0320385, "type": "electric_scooter", "fusion_lat": 0.0, "lat": 38.917912666666666, "name": "8599a89e54158a63e4cd6fa2914bd2cb", "fusion_lon": 0.0, "bike_id": "8599a89e54158a63e4cd6fa2914bd2cb", "is_disabled": 0, "is_reserved": 0}, {"rental_uris": {"ios": "https://dc.lft.to/lastmile_qr_scan", "android": "https://dc.lft.to/lastmile_qr_scan"}, "lon": -77.00651566666667, "type": "electric_scooter", "fusion_lat": 0.0, "lat": 38.87178733333333, "name": "584f921bf0870db471d9d7da271cffe4", "fusion_lon": 0.0, "bike_id": "584f921bf0870db471d9d7da271cffe4", "is_disabled": 0, "is_reserved": 0}, {"rental_uris": {"ios": "https://dc.lft.to/lastmile_qr_scan", "android": "https://dc.lft.to/lastmile_qr_scan"}, "lon": -77.05533683333333, "type": "electric_scooter", "fusion_lat": 0.0, "lat": 38.92785716666667, "name": "7dc6c833d324aaf73dde0a4c288a4032", "fusion_lon": 0.0, "bike_id": "7dc6c833d324aaf73dde0a4c288a4032", "is_disabled": 0, "is_reserved": 0}, {"rental_uris": {"ios": "https://dc.lft.to/lastmile_qr_scan", "android": "https://dc.lft.to/lastmile_qr_scan"}, "lon": -77.02751566666667, "type": "electric_scooter", "fusion_lat": 0.0, "lat": 38.93961983333333, "name": "4f0dab6e7352a4a208a780bf0e23334a", "fusion_lon": 0.0, "bike_id": "4f0dab6e7352a4a208a780bf0e23334a", "is_disabled": 0, "is_reserved": 0}, {"rental_uris": {"ios": "https://dc.lft.to/lastmile_qr_scan", "android": "https://dc.lft.to/lastmile_qr_scan"}, "lon": -77.05706633333334, "type": "electric_scooter", "fusion_lat": 0.0, "lat": 38.90550616666667, "name": "124dc1ba0f79d7b2826264cf0d37e0a0", "fusion_lon": 0.0, "bike_id": "124dc1ba0f79d7b2826264cf0d37e0a0", "is_disabled": 0, "is_reserved": 0}, {"rental_uris": {"ios": "https://dc.lft.to/lastmile_qr_scan", "android": "https://dc.lft.to/lastmile_qr_scan"}, "lon": -77.02119966666666, "type": "electric_scooter", "fusion_lat": 0.0, "lat": 38.894906, "name": "7e9a82ad7708e1be8451c9b16922e1b3", "fusion_lon": 0.0, "bike_id": "7e9a82ad7708e1be8451c9b16922e1b3", "is_disabled": 0, "is_reserved": 0}, {"rental_uris": {"ios": "https://dc.lft.to/lastmile_qr_scan", "android": "https://dc.lft.to/lastmile_qr_scan"}, "lon": -77.01342516666666, "type": "electric_bike", "fusion_lat": 0.0, "lat": 38.999972666666665, "name": "e0d9998ba3d8a049f21e82d51db30089", "fusion_lon": 0.0, "bike_id": "e0d9998ba3d8a049f21e82d51db30089", "is_disabled": 0, "is_reserved": 0}, {"rental_uris": {"ios": "https://dc.lft.to/lastmile_qr_scan", "android": "https://dc.lft.to/lastmile_qr_scan"}, "lon": -77.06121283333333, "type": "electric_bike", "fusion_lat": 0.0, "lat": 38.90199283333333, "name": "fa5a280e10945d715e1038f3018da648", "fusion_lon": 0.0, "bike_id": "fa5a280e10945d715e1038f3018da648", "is_disabled": 0, "is_reserved": 0}, {"rental_uris": {"ios": "https://dc.lft.to/lastmile_qr_scan", "android": "https://dc.lft.to/lastmile_qr_scan"}, "lon": -77.01895816666666, "type": "electric_scooter", "fusion_lat": 0.0, "lat": 38.87659083333333, "name": "bd0198ba796d6bcffff72c9779b4b692", "fusion_lon": 0.0, "bike_id": "bd0198ba796d6bcffff72c9779b4b692", "is_disabled": 0, "is_reserved": 0}, {"rental_uris": {"ios": "https://dc.lft.to/lastmile_qr_scan", "android": "https://dc.lft.to/lastmile_qr_scan"}, "lon": -77.03179666666666, "type": "electric_scooter", "fusion_lat": 0.0, "lat": 38.90967966666667, "name": "653de1c167396c5e0c302491c039838a", "fusion_lon": 0.0, "bike_id": "653de1c167396c5e0c302491c039838a", "is_disabled": 0, "is_reserved": 0}, {"rental_uris": {"ios": "https://dc.lft.to/lastmile_qr_scan", "android": "https://dc.lft.to/lastmile_qr_scan"}, "lon": -77.0346265, "type": "electric_scooter", "fusion_lat": 0.0, "lat": 38.92152216666667, "name": "53bc2a5b3adebfccc23ebb7937f2d28a", "fusion_lon": 0.0, "bike_id": "53bc2a5b3adebfccc23ebb7937f2d28a", "is_disabled": 0, "is_reserved": 0}, {"rental_uris": {"ios": "https://dc.lft.to/lastmile_qr_scan", "android": "https://dc.lft.to/lastmile_qr_scan"}, "lon": -77.009208, "type": "electric_scooter", "fusion_lat": 0.0, "lat": 38.91093633333333, "name": "80b4871ab04ce8f7a7aa8d16e1972efe", "fusion_lon": 0.0, "bike_id": "80b4871ab04ce8f7a7aa8d16e1972efe", "is_disabled": 0, "is_reserved": 0}, {"rental_uris": {"ios": "https://dc.lft.to/lastmile_qr_scan", "android": "https://dc.lft.to/lastmile_qr_scan"}, "lon": -77.05353283333334, "type": "electric_scooter", "fusion_lat": 0.0, "lat": 38.90270816666666, "name": "8e14facdb7319934d626b829998e3d06", "fusion_lon": 0.0, "bike_id": "8e14facdb7319934d626b829998e3d06", "is_disabled": 0, "is_reserved": 0}, {"rental_uris": {"ios": "https://dc.lft.to/lastmile_qr_scan", "android": "https://dc.lft.to/lastmile_qr_scan"}, "lon": -77.03278366666666, "type": "electric_scooter", "fusion_lat": 0.0, "lat": 38.928590666666665, "name": "2f897d101191849d8b1b131fe9cd9fe8", "fusion_lon": 0.0, "bike_id": "2f897d101191849d8b1b131fe9cd9fe8", "is_disabled": 0, "is_reserved": 0}, {"rental_uris": {"ios": "https://dc.lft.to/lastmile_qr_scan", "android": "https://dc.lft.to/lastmile_qr_scan"}, "lon": -77.04700366666667, "type": "electric_scooter", "fusion_lat": 0.0, "lat": 38.909704, "name": "f71a3d3e66966d44047b142ee2c2fe57", "fusion_lon": 0.0, "bike_id": "f71a3d3e66966d44047b142ee2c2fe57", "is_disabled": 0, "is_reserved": 0}, {"rental_uris": {"ios": "https://dc.lft.to/lastmile_qr_scan", "android": "https://dc.lft.to/lastmile_qr_scan"}, "lon": -76.93099, "type": "electric_scooter", "fusion_lat": 0.0, "lat": 38.901389333333334, "name": "fdecd70bb8f301a7a635018a03ea869b", "fusion_lon": 0.0, "bike_id": "fdecd70bb8f301a7a635018a03ea869b", "is_disabled": 0, "is_reserved": 0}, {"rental_uris": {"ios": "https://dc.lft.to/lastmile_qr_scan", "android": "https://dc.lft.to/lastmile_qr_scan"}, "lon": -77.0316105, "type": "electric_scooter", "fusion_lat": 0.0, "lat": 38.912550333333336, "name": "06208165ff91cd90068fdcb8243dbb6f", "fusion_lon": 0.0, "bike_id": "06208165ff91cd90068fdcb8243dbb6f", "is_disabled": 0, "is_reserved": 0}, {"rental_uris": {"ios": "https://dc.lft.to/lastmile_qr_scan", "android": "https://dc.lft.to/lastmile_qr_scan"}, "lon": -77.05697966666666, "type": "electric_scooter", "fusion_lat": 0.0, "lat": 38.905397666666666, "name": "e797e8daaeea279ad3e8d8ce17416909", "fusion_lon": 0.0, "bike_id": "e797e8daaeea279ad3e8d8ce17416909", "is_disabled": 0, "is_reserved": 0}, {"rental_uris": {"ios": "https://dc.lft.to/lastmile_qr_scan", "android": "https://dc.lft.to/lastmile_qr_scan"}, "lon": -76.98904033333334, "type": "electric_scooter", "fusion_lat": 0.0, "lat": 38.86689966666667, "name": "87f418b41db59af89876f384bb5a3226", "fusion_lon": 0.0, "bike_id": "87f418b41db59af89876f384bb5a3226", "is_disabled": 0, "is_reserved": 0}, {"rental_uris": {"ios": "https://dc.lft.to/lastmile_qr_scan", "android": "https://dc.lft.to/lastmile_qr_scan"}, "lon": -76.95357566666667, "type": "electric_bike", "fusion_lat": 0.0, "lat": 38.93951033333333, "name": "9bd709fb952e158f9e966cb8ad02556f", "fusion_lon": 0.0, "bike_id": "9bd709fb952e158f9e966cb8ad02556f", "is_disabled": 0, "is_reserved": 0}, {"rental_uris": {"ios": "https://dc.lft.to/lastmile_qr_scan", "android": "https://dc.lft.to/lastmile_qr_scan"}, "lon": -77.04861733333334, "type": "electric_scooter", "fusion_lat": 0.0, "lat": 38.908509333333335, "name": "b9c0c402d160c719f92211f412222edf", "fusion_lon": 0.0, "bike_id": "b9c0c402d160c719f92211f412222edf", "is_disabled": 0, "is_reserved": 0}, {"rental_uris": {"ios": "https://dc.lft.to/lastmile_qr_scan", "android": "https://dc.lft.to/lastmile_qr_scan"}, "lon": -77.1784155, "type": "electric_bike", "fusion_lat": 0.0, "lat": 39.0885485, "name": "99e3c8d5ac9845d97c37ef8c5ab71f2c", "fusion_lon": 0.0, "bike_id": "99e3c8d5ac9845d97c37ef8c5ab71f2c", "is_disabled": 0, "is_reserved": 0}, {"rental_uris": {"ios": "https://dc.lft.to/lastmile_qr_scan", "android": "https://dc.lft.to/lastmile_qr_scan"}, "lon": -77.04335033333334, "type": "electric_scooter", "fusion_lat": 0.0, "lat": 38.892259, "name": "7107ea3517a7c73f0227b7fd1045e356", "fusion_lon": 0.0, "bike_id": "7107ea3517a7c73f0227b7fd1045e356", "is_disabled": 0, "is_reserved": 0}, {"rental_uris": {"ios": "https://dc.lft.to/lastmile_qr_scan", "android": "https://dc.lft.to/lastmile_qr_scan"}, "lon": -77.0212535, "type": "electric_scooter", "fusion_lat": 0.0, "lat": 38.916101833333336, "name": "5e99519f98f9ac908e12651631d26312", "fusion_lon": 0.0, "bike_id": "5e99519f98f9ac908e12651631d26312", "is_disabled": 0, "is_reserved": 0}, {"rental_uris": {"ios": "https://dc.lft.to/lastmile_qr_scan", "android": "https://dc.lft.to/lastmile_qr_scan"}, "lon": -77.04768033333333, "type": "electric_bike", "fusion_lat": 0.0, "lat": 39.05321166666667, "name": "a2b716c739711395740702be6254d330", "fusion_lon": 0.0, "bike_id": "a2b716c739711395740702be6254d330", "is_disabled": 0, "is_reserved": 0}, {"rental_uris": {"ios": "https://dc.lft.to/lastmile_qr_scan", "android": "https://dc.lft.to/lastmile_qr_scan"}, "lon": -77.00125633333333, "type": "electric_scooter", "fusion_lat": 0.0, "lat": 38.87792133333333, "name": "4016793ba8fa5e3792e9f439318888bc", "fusion_lon": 0.0, "bike_id": "4016793ba8fa5e3792e9f439318888bc", "is_disabled": 0, "is_reserved": 0}, {"rental_uris": {"ios": "https://dc.lft.to/lastmile_qr_scan", "android": "https://dc.lft.to/lastmile_qr_scan"}, "lon": -76.99501833333333, "type": "electric_scooter", "fusion_lat": 0.0, "lat": 38.862452, "name": "108f077302c2ad2335e5e67603e80620", "fusion_lon": 0.0, "bike_id": "108f077302c2ad2335e5e67603e80620", "is_disabled": 0, "is_reserved": 0}, {"rental_uris": {"ios": "https://dc.lft.to/lastmile_qr_scan", "android": "https://dc.lft.to/lastmile_qr_scan"}, "lon": -76.9834975, "type": "electric_scooter", "fusion_lat": 0.0, "lat": 38.915363666666664, "name": "aff43a2c69918c07d1dfa5b7ecdb6b74", "fusion_lon": 0.0, "bike_id": "aff43a2c69918c07d1dfa5b7ecdb6b74", "is_disabled": 0, "is_reserved": 0}, {"rental_uris": {"ios": "https://dc.lft.to/lastmile_qr_scan", "android": "https://dc.lft.to/lastmile_qr_scan"}, "lon": -77.04217716666666, "type": "electric_scooter", "fusion_lat": 0.0, "lat": 38.921040166666664, "name": "bd76cadcf1690f6d81f0e62efb33936e", "fusion_lon": 0.0, "bike_id": "bd76cadcf1690f6d81f0e62efb33936e", "is_disabled": 0, "is_reserved": 0}, {"rental_uris": {"ios": "https://dc.lft.to/lastmile_qr_scan", "android": "https://dc.lft.to/lastmile_qr_scan"}, "lon": -77.0162275, "type": "electric_scooter", "fusion_lat": 0.0, "lat": 38.905997666666664, "name": "a87bd0edf7586b8aec63f908fdb4828d", "fusion_lon": 0.0, "bike_id": "a87bd0edf7586b8aec63f908fdb4828d", "is_disabled": 0, "is_reserved": 0}, {"rental_uris": {"ios": "https://dc.lft.to/lastmile_qr_scan", "android": "https://dc.lft.to/lastmile_qr_scan"}, "lon": -77.06490733333334, "type": "electric_bike", "fusion_lat": 0.0, "lat": 38.9649055, "name": "ab827f72609a60ebb989f43645c1d8e9", "fusion_lon": 0.0, "bike_id": "ab827f72609a60ebb989f43645c1d8e9", "is_disabled": 0, "is_reserved": 0}, {"rental_uris": {"ios": "https://dc.lft.to/lastmile_qr_scan", "android": "https://dc.lft.to/lastmile_qr_scan"}, "lon": -77.04864183333333, "type": "electric_scooter", "fusion_lat": 0.0, "lat": 38.9085105, "name": "8ad61b98c5dc303626c2462cbd9594a6", "fusion_lon": 0.0, "bike_id": "8ad61b98c5dc303626c2462cbd9594a6", "is_disabled": 0, "is_reserved": 0}, {"rental_uris": {"ios": "https://dc.lft.to/lastmile_qr_scan", "android": "https://dc.lft.to/lastmile_qr_scan"}, "lon": -76.94417116666666, "type": "electric_scooter", "fusion_lat": 0.0, "lat": 38.8979235, "name": "999fd2e5dda5ed8f736c36c61ef63f98", "fusion_lon": 0.0, "bike_id": "999fd2e5dda5ed8f736c36c61ef63f98", "is_disabled": 0, "is_reserved": 0}, {"rental_uris": {"ios": "https://dc.lft.to/lastmile_qr_scan", "android": "https://dc.lft.to/lastmile_qr_scan"}, "lon": -76.99381566666666, "type": "electric_scooter", "fusion_lat": 0.0, "lat": 38.8874355, "name": "5e82574c7fb2224902504f1007eca7da", "fusion_lon": 0.0, "bike_id": "5e82574c7fb2224902504f1007eca7da", "is_disabled": 0, "is_reserved": 0}, {"rental_uris": {"ios": "https://dc.lft.to/lastmile_qr_scan", "android": "https://dc.lft.to/lastmile_qr_scan"}, "lon": -77.03224066666667, "type": "electric_scooter", "fusion_lat": 0.0, "lat": 38.92667633333333, "name": "aa78e182b6a1ec33d54e8cffdc9e4358", "fusion_lon": 0.0, "bike_id": "aa78e182b6a1ec33d54e8cffdc9e4358", "is_disabled": 0, "is_reserved": 0}, {"rental_uris": {"ios": "https://dc.lft.to/lastmile_qr_scan", "android": "https://dc.lft.to/lastmile_qr_scan"}, "lon": -77.02337466666667, "type": "electric_scooter", "fusion_lat": 0.0, "lat": 38.92938616666667, "name": "ac3799bd3009e9ed5cd643b5714e4395", "fusion_lon": 0.0, "bike_id": "ac3799bd3009e9ed5cd643b5714e4395", "is_disabled": 0, "is_reserved": 0}, {"rental_uris": {"ios": "https://dc.lft.to/lastmile_qr_scan", "android": "https://dc.lft.to/lastmile_qr_scan"}, "lon": -77.0501845, "type": "electric_scooter", "fusion_lat": 0.0, "lat": 38.91797416666667, "name": "611a878d16beb28e030cd842eea5c044", "fusion_lon": 0.0, "bike_id": "611a878d16beb28e030cd842eea5c044", "is_disabled": 0, "is_reserved": 0}, {"rental_uris": {"ios": "https://dc.lft.to/lastmile_qr_scan", "android": "https://dc.lft.to/lastmile_qr_scan"}, "lon": -77.0318265, "type": "electric_scooter", "fusion_lat": 0.0, "lat": 38.91823516666667, "name": "e5fbeb5385341b51244e28850f5c65f6", "fusion_lon": 0.0, "bike_id": "e5fbeb5385341b51244e28850f5c65f6", "is_disabled": 0, "is_reserved": 0}, {"rental_uris": {"ios": "https://dc.lft.to/lastmile_qr_scan", "android": "https://dc.lft.to/lastmile_qr_scan"}, "lon": -77.00268283333334, "type": "electric_scooter", "fusion_lat": 0.0, "lat": 38.8875045, "name": "5a8470b6a6c0cf6ed9171dd15faebcce", "fusion_lon": 0.0, "bike_id": "5a8470b6a6c0cf6ed9171dd15faebcce", "is_disabled": 0, "is_reserved": 0}, {"rental_uris": {"ios": "https://dc.lft.to/lastmile_qr_scan", "android": "https://dc.lft.to/lastmile_qr_scan"}, "lon": -77.02963566666666, "type": "electric_scooter", "fusion_lat": 0.0, "lat": 38.926862166666666, "name": "83602392134f3dcc0138dd34584c8bf5", "fusion_lon": 0.0, "bike_id": "83602392134f3dcc0138dd34584c8bf5", "is_disabled": 0, "is_reserved": 0}, {"rental_uris": {"ios": "https://dc.lft.to/lastmile_qr_scan", "android": "https://dc.lft.to/lastmile_qr_scan"}, "lon": -77.04815666666667, "type": "electric_scooter", "fusion_lat": 0.0, "lat": 38.920355, "name": "89dcb0a33eb14664297d4cdfbe6ed132", "fusion_lon": 0.0, "bike_id": "89dcb0a33eb14664297d4cdfbe6ed132", "is_disabled": 0, "is_reserved": 0}, {"rental_uris": {"ios": "https://dc.lft.to/lastmile_qr_scan", "android": "https://dc.lft.to/lastmile_qr_scan"}, "lon": -77.0371865, "type": "electric_scooter", "fusion_lat": 0.0, "lat": 38.9104235, "name": "d9f1708cd7cdfdef7f54e6d6474710b5", "fusion_lon": 0.0, "bike_id": "d9f1708cd7cdfdef7f54e6d6474710b5", "is_disabled": 0, "is_reserved": 0}, {"rental_uris": {"ios": "https://dc.lft.to/lastmile_qr_scan", "android": "https://dc.lft.to/lastmile_qr_scan"}, "lon": -77.02397666666667, "type": "electric_scooter", "fusion_lat": 0.0, "lat": 38.93700966666667, "name": "66f6fd76853d756797e082fd83c7dc9b", "fusion_lon": 0.0, "bike_id": "66f6fd76853d756797e082fd83c7dc9b", "is_disabled": 0, "is_reserved": 0}, {"rental_uris": {"ios": "https://dc.lft.to/lastmile_qr_scan", "android": "https://dc.lft.to/lastmile_qr_scan"}, "lon": -76.99817833333333, "type": "electric_bike", "fusion_lat": 0.0, "lat": 38.844292, "name": "b03c076c2fccb8634d84b616bbb8f552", "fusion_lon": 0.0, "bike_id": "b03c076c2fccb8634d84b616bbb8f552", "is_disabled": 0, "is_reserved": 0}, {"rental_uris": {"ios": "https://dc.lft.to/lastmile_qr_scan", "android": "https://dc.lft.to/lastmile_qr_scan"}, "lon": -77.04008566666667, "type": "electric_scooter", "fusion_lat": 0.0, "lat": 38.932490666666666, "name": "8d8202cf3e5acadfe18f779be57f09b9", "fusion_lon": 0.0, "bike_id": "8d8202cf3e5acadfe18f779be57f09b9", "is_disabled": 0, "is_reserved": 0}, {"rental_uris": {"ios": "https://dc.lft.to/lastmile_qr_scan", "android": "https://dc.lft.to/lastmile_qr_scan"}, "lon": -77.021171, "type": "electric_scooter", "fusion_lat": 0.0, "lat": 38.914169666666666, "name": "9f646d21032206b00efeb42679ee807b", "fusion_lon": 0.0, "bike_id": "9f646d21032206b00efeb42679ee807b", "is_disabled": 0, "is_reserved": 0}, {"rental_uris": {"ios": "https://dc.lft.to/lastmile_qr_scan", "android": "https://dc.lft.to/lastmile_qr_scan"}, "lon": -76.99669316666666, "type": "electric_scooter", "fusion_lat": 0.0, "lat": 38.900248833333336, "name": "fe271c392594132dc0c20024b291ac19", "fusion_lon": 0.0, "bike_id": "fe271c392594132dc0c20024b291ac19", "is_disabled": 0, "is_reserved": 0}, {"rental_uris": {"ios": "https://dc.lft.to/lastmile_qr_scan", "android": "https://dc.lft.to/lastmile_qr_scan"}, "lon": -77.01448983333333, "type": "electric_scooter", "fusion_lat": 0.0, "lat": 38.92978866666667, "name": "d2b7c925bb6a03e59a9bb71eb869a455", "fusion_lon": 0.0, "bike_id": "d2b7c925bb6a03e59a9bb71eb869a455", "is_disabled": 0, "is_reserved": 0}, {"rental_uris": {"ios": "https://dc.lft.to/lastmile_qr_scan", "android": "https://dc.lft.to/lastmile_qr_scan"}, "lon": -77.04644433333333, "type": "electric_bike", "fusion_lat": 0.0, "lat": 38.8521055, "name": "55d85881827f56c808667c3bf3c05265", "fusion_lon": 0.0, "bike_id": "55d85881827f56c808667c3bf3c05265", "is_disabled": 0, "is_reserved": 0}, {"rental_uris": {"ios": "https://dc.lft.to/lastmile_qr_scan", "android": "https://dc.lft.to/lastmile_qr_scan"}, "lon": -76.99035816666667, "type": "electric_scooter", "fusion_lat": 0.0, "lat": 38.856607833333335, "name": "4c7a87b1583e4db9bec18af2e6b6d8a1", "fusion_lon": 0.0, "bike_id": "4c7a87b1583e4db9bec18af2e6b6d8a1", "is_disabled": 0, "is_reserved": 0}, {"rental_uris": {"ios": "https://dc.lft.to/lastmile_qr_scan", "android": "https://dc.lft.to/lastmile_qr_scan"}, "lon": -76.93242466666666, "type": "electric_scooter", "fusion_lat": 0.0, "lat": 38.8940315, "name": "237b17c6c5275dad5571144db8f82d49", "fusion_lon": 0.0, "bike_id": "237b17c6c5275dad5571144db8f82d49", "is_disabled": 0, "is_reserved": 0}, {"rental_uris": {"ios": "https://dc.lft.to/lastmile_qr_scan", "android": "https://dc.lft.to/lastmile_qr_scan"}, "lon": -77.02850716666667, "type": "electric_scooter", "fusion_lat": 0.0, "lat": 38.888702, "name": "bef3e5234058c1f12fa7f23dfba6a05e", "fusion_lon": 0.0, "bike_id": "bef3e5234058c1f12fa7f23dfba6a05e", "is_disabled": 0, "is_reserved": 0}, {"rental_uris": {"ios": "https://dc.lft.to/lastmile_qr_scan", "android": "https://dc.lft.to/lastmile_qr_scan"}, "lon": -77.12965716666666, "type": "electric_bike", "fusion_lat": 0.0, "lat": 38.807889333333335, "name": "97f4af454e0b2c903f76d3cce5087f30", "fusion_lon": 0.0, "bike_id": "97f4af454e0b2c903f76d3cce5087f30", "is_disabled": 0, "is_reserved": 0}, {"rental_uris": {"ios": "https://dc.lft.to/lastmile_qr_scan", "android": "https://dc.lft.to/lastmile_qr_scan"}, "lon": -77.05526733333333, "type": "electric_scooter", "fusion_lat": 0.0, "lat": 38.927978333333336, "name": "28acb0f4d600590a3c6c57927d9904ca", "fusion_lon": 0.0, "bike_id": "28acb0f4d600590a3c6c57927d9904ca", "is_disabled": 0, "is_reserved": 0}, {"rental_uris": {"ios": "https://dc.lft.to/lastmile_qr_scan", "android": "https://dc.lft.to/lastmile_qr_scan"}, "lon": -77.01288216666667, "type": "electric_bike", "fusion_lat": 0.0, "lat": 39.0038465, "name": "0705597216589c38789dad91ea2a052d", "fusion_lon": 0.0, "bike_id": "0705597216589c38789dad91ea2a052d", "is_disabled": 0, "is_reserved": 0}, {"rental_uris": {"ios": "https://dc.lft.to/lastmile_qr_scan", "android": "https://dc.lft.to/lastmile_qr_scan"}, "lon": -77.08393633333333, "type": "electric_scooter", "fusion_lat": 0.0, "lat": 38.960888, "name": "6cdb40a89c7fc9e53210e452420c3d78", "fusion_lon": 0.0, "bike_id": "6cdb40a89c7fc9e53210e452420c3d78", "is_disabled": 0, "is_reserved": 0}, {"rental_uris": {"ios": "https://dc.lft.to/lastmile_qr_scan", "android": "https://dc.lft.to/lastmile_qr_scan"}, "lon": -77.03182866666667, "type": "electric_scooter", "fusion_lat": 0.0, "lat": 38.887365333333335, "name": "2f2943128b9912df64713eb0399a9fac", "fusion_lon": 0.0, "bike_id": "2f2943128b9912df64713eb0399a9fac", "is_disabled": 0, "is_reserved": 0}, {"rental_uris": {"ios": "https://dc.lft.to/lastmile_qr_scan", "android": "https://dc.lft.to/lastmile_qr_scan"}, "lon": -77.03207166666667, "type": "electric_scooter", "fusion_lat": 0.0, "lat": 38.91535416666667, "name": "a28539953ce1bc535e586f270ae55a68", "fusion_lon": 0.0, "bike_id": "a28539953ce1bc535e586f270ae55a68", "is_disabled": 0, "is_reserved": 0}, {"rental_uris": {"ios": "https://dc.lft.to/lastmile_qr_scan", "android": "https://dc.lft.to/lastmile_qr_scan"}, "lon": -77.01588383333333, "type": "electric_scooter", "fusion_lat": 0.0, "lat": 38.901914833333336, "name": "50bedbbfc49d3376609c7ee35b8f1b90", "fusion_lon": 0.0, "bike_id": "50bedbbfc49d3376609c7ee35b8f1b90", "is_disabled": 0, "is_reserved": 0}, {"rental_uris": {"ios": "https://dc.lft.to/lastmile_qr_scan", "android": "https://dc.lft.to/lastmile_qr_scan"}, "lon": -77.02229966666667, "type": "electric_scooter", "fusion_lat": 0.0, "lat": 38.891909166666665, "name": "0df640d32d3e229c40f94686d440d8ab", "fusion_lon": 0.0, "bike_id": "0df640d32d3e229c40f94686d440d8ab", "is_disabled": 0, "is_reserved": 0}, {"rental_uris": {"ios": "https://dc.lft.to/lastmile_qr_scan", "android": "https://dc.lft.to/lastmile_qr_scan"}, "lon": -77.09675533333333, "type": "electric_scooter", "fusion_lat": 0.0, "lat": 38.917692333333335, "name": "5ab30c9c127fdd7b2809f2bbc1ffd6ef", "fusion_lon": 0.0, "bike_id": "5ab30c9c127fdd7b2809f2bbc1ffd6ef", "is_disabled": 0, "is_reserved": 0}, {"rental_uris": {"ios": "https://dc.lft.to/lastmile_qr_scan", "android": "https://dc.lft.to/lastmile_qr_scan"}, "lon": -77.03220333333333, "type": "electric_scooter", "fusion_lat": 0.0, "lat": 38.90863933333333, "name": "87ddfabf9cc1853b82ac61ffa390cc2e", "fusion_lon": 0.0, "bike_id": "87ddfabf9cc1853b82ac61ffa390cc2e", "is_disabled": 0, "is_reserved": 0}, {"rental_uris": {"ios": "https://dc.lft.to/lastmile_qr_scan", "android": "https://dc.lft.to/lastmile_qr_scan"}, "lon": -76.98883733333334, "type": "electric_scooter", "fusion_lat": 0.0, "lat": 38.866571, "name": "748836bdd70321a2b0d340c0da922a4f", "fusion_lon": 0.0, "bike_id": "748836bdd70321a2b0d340c0da922a4f", "is_disabled": 0, "is_reserved": 0}, {"rental_uris": {"ios": "https://dc.lft.to/lastmile_qr_scan", "android": "https://dc.lft.to/lastmile_qr_scan"}, "lon": -77.03900283333333, "type": "electric_scooter", "fusion_lat": 0.0, "lat": 38.921854333333336, "name": "1f911ba1e1982673e8c2b63f3748e987", "fusion_lon": 0.0, "bike_id": "1f911ba1e1982673e8c2b63f3748e987", "is_disabled": 0, "is_reserved": 0}, {"rental_uris": {"ios": "https://dc.lft.to/lastmile_qr_scan", "android": "https://dc.lft.to/lastmile_qr_scan"}, "lon": -77.04688716666666, "type": "electric_scooter", "fusion_lat": 0.0, "lat": 38.896104333333334, "name": "32031d2820688e3d85b1432c83a7208b", "fusion_lon": 0.0, "bike_id": "32031d2820688e3d85b1432c83a7208b", "is_disabled": 0, "is_reserved": 0}, {"rental_uris": {"ios": "https://dc.lft.to/lastmile_qr_scan", "android": "https://dc.lft.to/lastmile_qr_scan"}, "lon": -76.99035, "type": "electric_bike", "fusion_lat": 0.0, "lat": 38.89882883333333, "name": "840ddce5a0cc7befbcb5e20bdebcb8d1", "fusion_lon": 0.0, "bike_id": "840ddce5a0cc7befbcb5e20bdebcb8d1", "is_disabled": 0, "is_reserved": 0}, {"rental_uris": {"ios": "https://dc.lft.to/lastmile_qr_scan", "android": "https://dc.lft.to/lastmile_qr_scan"}, "lon": -76.97705983333333, "type": "electric_scooter", "fusion_lat": 0.0, "lat": 38.902501, "name": "2eb07f4136b67bfb00a6a06fde9a4687", "fusion_lon": 0.0, "bike_id": "2eb07f4136b67bfb00a6a06fde9a4687", "is_disabled": 0, "is_reserved": 0}, {"rental_uris": {"ios": "https://dc.lft.to/lastmile_qr_scan", "android": "https://dc.lft.to/lastmile_qr_scan"}, "lon": -77.01058583333334, "type": "electric_scooter", "fusion_lat": 0.0, "lat": 38.87577233333333, "name": "ee6365c8775a85845a99689b6c86571b", "fusion_lon": 0.0, "bike_id": "ee6365c8775a85845a99689b6c86571b", "is_disabled": 0, "is_reserved": 0}, {"rental_uris": {"ios": "https://dc.lft.to/lastmile_qr_scan", "android": "https://dc.lft.to/lastmile_qr_scan"}, "lon": -77.03175933333333, "type": "electric_scooter", "fusion_lat": 0.0, "lat": 38.91804783333333, "name": "87a84daf6eefa3e7a5ea8e9ef4ac98c0", "fusion_lon": 0.0, "bike_id": "87a84daf6eefa3e7a5ea8e9ef4ac98c0", "is_disabled": 0, "is_reserved": 0}, {"rental_uris": {"ios": "https://dc.lft.to/lastmile_qr_scan", "android": "https://dc.lft.to/lastmile_qr_scan"}, "lon": -76.93745566666666, "type": "electric_scooter", "fusion_lat": 0.0, "lat": 38.912851, "name": "89999aa954aac14c7e8f5383329f8f2c", "fusion_lon": 0.0, "bike_id": "89999aa954aac14c7e8f5383329f8f2c", "is_disabled": 0, "is_reserved": 0}, {"rental_uris": {"ios": "https://dc.lft.to/lastmile_qr_scan", "android": "https://dc.lft.to/lastmile_qr_scan"}, "lon": -77.032302, "type": "electric_scooter", "fusion_lat": 0.0, "lat": 38.928990166666665, "name": "e6a4fe42e7821d22c7da1314a878b848", "fusion_lon": 0.0, "bike_id": "e6a4fe42e7821d22c7da1314a878b848", "is_disabled": 0, "is_reserved": 0}, {"rental_uris": {"ios": "https://dc.lft.to/lastmile_qr_scan", "android": "https://dc.lft.to/lastmile_qr_scan"}, "lon": -77.03364483333333, "type": "electric_scooter", "fusion_lat": 0.0, "lat": 38.91705733333333, "name": "90da5a8f1d721e74afa83fe922518f82", "fusion_lon": 0.0, "bike_id": "90da5a8f1d721e74afa83fe922518f82", "is_disabled": 0, "is_reserved": 0}, {"rental_uris": {"ios": "https://dc.lft.to/lastmile_qr_scan", "android": "https://dc.lft.to/lastmile_qr_scan"}, "lon": -77.04254583333334, "type": "electric_scooter", "fusion_lat": 0.0, "lat": 38.920585833333334, "name": "063d0290d696b4e347dbaeb710bc1b18", "fusion_lon": 0.0, "bike_id": "063d0290d696b4e347dbaeb710bc1b18", "is_disabled": 0, "is_reserved": 0}, {"rental_uris": {"ios": "https://dc.lft.to/lastmile_qr_scan", "android": "https://dc.lft.to/lastmile_qr_scan"}, "lon": -77.0284305, "type": "electric_scooter", "fusion_lat": 0.0, "lat": 38.92565783333333, "name": "21cca0ae96661d7e1e6ba681e34d69dc", "fusion_lon": 0.0, "bike_id": "21cca0ae96661d7e1e6ba681e34d69dc", "is_disabled": 0, "is_reserved": 0}, {"rental_uris": {"ios": "https://dc.lft.to/lastmile_qr_scan", "android": "https://dc.lft.to/lastmile_qr_scan"}, "lon": -76.93831616666667, "type": "electric_scooter", "fusion_lat": 0.0, "lat": 38.89757016666667, "name": "f1d229f547413a022519462ca23fbd95", "fusion_lon": 0.0, "bike_id": "f1d229f547413a022519462ca23fbd95", "is_disabled": 0, "is_reserved": 0}, {"rental_uris": {"ios": "https://dc.lft.to/lastmile_qr_scan", "android": "https://dc.lft.to/lastmile_qr_scan"}, "lon": -77.055932, "type": "electric_scooter", "fusion_lat": 0.0, "lat": 38.905145166666664, "name": "ae3659a3571435eb70a9ad42d657571a", "fusion_lon": 0.0, "bike_id": "ae3659a3571435eb70a9ad42d657571a", "is_disabled": 0, "is_reserved": 0}, {"rental_uris": {"ios": "https://dc.lft.to/lastmile_qr_scan", "android": "https://dc.lft.to/lastmile_qr_scan"}, "lon": -77.00432116666667, "type": "electric_scooter", "fusion_lat": 0.0, "lat": 38.9039515, "name": "c428769c96e62e313b51899b81d3af8e", "fusion_lon": 0.0, "bike_id": "c428769c96e62e313b51899b81d3af8e", "is_disabled": 0, "is_reserved": 0}, {"rental_uris": {"ios": "https://dc.lft.to/lastmile_qr_scan", "android": "https://dc.lft.to/lastmile_qr_scan"}, "lon": -77.0350895, "type": "electric_scooter", "fusion_lat": 0.0, "lat": 38.921458666666666, "name": "b3d6f95b68701f862a0fb2edf83fec70", "fusion_lon": 0.0, "bike_id": "b3d6f95b68701f862a0fb2edf83fec70", "is_disabled": 0, "is_reserved": 0}, {"rental_uris": {"ios": "https://dc.lft.to/lastmile_qr_scan", "android": "https://dc.lft.to/lastmile_qr_scan"}, "lon": -77.02416083333334, "type": "electric_scooter", "fusion_lat": 0.0, "lat": 38.892203, "name": "1a66ea9e75881cd5a765af0b26814df1", "fusion_lon": 0.0, "bike_id": "1a66ea9e75881cd5a765af0b26814df1", "is_disabled": 0, "is_reserved": 0}, {"rental_uris": {"ios": "https://dc.lft.to/lastmile_qr_scan", "android": "https://dc.lft.to/lastmile_qr_scan"}, "lon": -77.0261105, "type": "electric_scooter", "fusion_lat": 0.0, "lat": 38.89682833333333, "name": "bc3f065921e14ae3d28d7e98c9b6338c", "fusion_lon": 0.0, "bike_id": "bc3f065921e14ae3d28d7e98c9b6338c", "is_disabled": 0, "is_reserved": 0}, {"rental_uris": {"ios": "https://dc.lft.to/lastmile_qr_scan", "android": "https://dc.lft.to/lastmile_qr_scan"}, "lon": -77.0435135, "type": "electric_scooter", "fusion_lat": 0.0, "lat": 38.910523, "name": "2b55b6fde1182f554df25b01edfddb3f", "fusion_lon": 0.0, "bike_id": "2b55b6fde1182f554df25b01edfddb3f", "is_disabled": 0, "is_reserved": 0}, {"rental_uris": {"ios": "https://dc.lft.to/lastmile_qr_scan", "android": "https://dc.lft.to/lastmile_qr_scan"}, "lon": -77.041867, "type": "electric_scooter", "fusion_lat": 0.0, "lat": 38.92049183333334, "name": "aaf0855d166efaa42d83ccc5035ac134", "fusion_lon": 0.0, "bike_id": "aaf0855d166efaa42d83ccc5035ac134", "is_disabled": 0, "is_reserved": 0}, {"rental_uris": {"ios": "https://dc.lft.to/lastmile_qr_scan", "android": "https://dc.lft.to/lastmile_qr_scan"}, "lon": -76.96505416666666, "type": "electric_scooter", "fusion_lat": 0.0, "lat": 38.87645533333333, "name": "4f68862ae6a01bdffa1d55083f7960a4", "fusion_lon": 0.0, "bike_id": "4f68862ae6a01bdffa1d55083f7960a4", "is_disabled": 0, "is_reserved": 0}, {"rental_uris": {"ios": "https://dc.lft.to/lastmile_qr_scan", "android": "https://dc.lft.to/lastmile_qr_scan"}, "lon": -77.01967566666667, "type": "electric_scooter", "fusion_lat": 0.0, "lat": 38.942746166666666, "name": "0bbc65ba6a9f2ebd588ceef569643131", "fusion_lon": 0.0, "bike_id": "0bbc65ba6a9f2ebd588ceef569643131", "is_disabled": 0, "is_reserved": 0}, {"rental_uris": {"ios": "https://dc.lft.to/lastmile_qr_scan", "android": "https://dc.lft.to/lastmile_qr_scan"}, "lon": -77.04866, "type": "electric_scooter", "fusion_lat": 0.0, "lat": 38.900692166666666, "name": "0ac5529f767d0df40445568943d93bfb", "fusion_lon": 0.0, "bike_id": "0ac5529f767d0df40445568943d93bfb", "is_disabled": 0, "is_reserved": 0}, {"rental_uris": {"ios": "https://dc.lft.to/lastmile_qr_scan", "android": "https://dc.lft.to/lastmile_qr_scan"}, "lon": -77.04781733333333, "type": "electric_scooter", "fusion_lat": 0.0, "lat": 38.897653166666665, "name": "7dec11da77d48b0021f969b2326af333", "fusion_lon": 0.0, "bike_id": "7dec11da77d48b0021f969b2326af333", "is_disabled": 0, "is_reserved": 0}, {"rental_uris": {"ios": "https://dc.lft.to/lastmile_qr_scan", "android": "https://dc.lft.to/lastmile_qr_scan"}, "lon": -77.06607183333334, "type": "electric_scooter", "fusion_lat": 0.0, "lat": 38.90541533333333, "name": "eb11d1e66ff3ae05b08d47385f685916", "fusion_lon": 0.0, "bike_id": "eb11d1e66ff3ae05b08d47385f685916", "is_disabled": 0, "is_reserved": 0}, {"rental_uris": {"ios": "https://dc.lft.to/lastmile_qr_scan", "android": "https://dc.lft.to/lastmile_qr_scan"}, "lon": -77.02713983333334, "type": "electric_scooter", "fusion_lat": 0.0, "lat": 38.918343166666666, "name": "7746b63fa681554366f32d25d1867626", "fusion_lon": 0.0, "bike_id": "7746b63fa681554366f32d25d1867626", "is_disabled": 0, "is_reserved": 0}, {"rental_uris": {"ios": "https://dc.lft.to/lastmile_qr_scan", "android": "https://dc.lft.to/lastmile_qr_scan"}, "lon": -77.08825083333333, "type": "electric_bike", "fusion_lat": 0.0, "lat": 38.90973133333333, "name": "1960cc1fdaea378259bd259f9fd08728", "fusion_lon": 0.0, "bike_id": "1960cc1fdaea378259bd259f9fd08728", "is_disabled": 0, "is_reserved": 0}, {"rental_uris": {"ios": "https://dc.lft.to/lastmile_qr_scan", "android": "https://dc.lft.to/lastmile_qr_scan"}, "lon": -77.01988766666666, "type": "electric_scooter", "fusion_lat": 0.0, "lat": 38.897459, "name": "e8ccaa95082ddf29e6c25de40689a818", "fusion_lon": 0.0, "bike_id": "e8ccaa95082ddf29e6c25de40689a818", "is_disabled": 0, "is_reserved": 0}, {"rental_uris": {"ios": "https://dc.lft.to/lastmile_qr_scan", "android": "https://dc.lft.to/lastmile_qr_scan"}, "lon": -77.04033433333333, "type": "electric_scooter", "fusion_lat": 0.0, "lat": 38.9235685, "name": "b677d445577064e37b4b29832806b959", "fusion_lon": 0.0, "bike_id": "b677d445577064e37b4b29832806b959", "is_disabled": 0, "is_reserved": 0}, {"rental_uris": {"ios": "https://dc.lft.to/lastmile_qr_scan", "android": "https://dc.lft.to/lastmile_qr_scan"}, "lon": -77.03772883333333, "type": "electric_scooter", "fusion_lat": 0.0, "lat": 38.91691, "name": "f4fbffd8bb3e2d1983d455c99bc333c1", "fusion_lon": 0.0, "bike_id": "f4fbffd8bb3e2d1983d455c99bc333c1", "is_disabled": 0, "is_reserved": 0}, {"rental_uris": {"ios": "https://dc.lft.to/lastmile_qr_scan", "android": "https://dc.lft.to/lastmile_qr_scan"}, "lon": -77.01868216666666, "type": "electric_scooter", "fusion_lat": 0.0, "lat": 38.948921166666665, "name": "a6e265fce365f8255f45e7f6aa97100d", "fusion_lon": 0.0, "bike_id": "a6e265fce365f8255f45e7f6aa97100d", "is_disabled": 0, "is_reserved": 0}, {"rental_uris": {"ios": "https://dc.lft.to/lastmile_qr_scan", "android": "https://dc.lft.to/lastmile_qr_scan"}, "lon": -76.96525783333334, "type": "electric_scooter", "fusion_lat": 0.0, "lat": 38.876248333333336, "name": "2212c05238b40bd7dc252dced6699d69", "fusion_lon": 0.0, "bike_id": "2212c05238b40bd7dc252dced6699d69", "is_disabled": 0, "is_reserved": 0}, {"rental_uris": {"ios": "https://dc.lft.to/lastmile_qr_scan", "android": "https://dc.lft.to/lastmile_qr_scan"}, "lon": -77.05955266666666, "type": "electric_scooter", "fusion_lat": 0.0, "lat": 38.911919833333336, "name": "e5dbc9edc3eb97df3d0205423b0f851b", "fusion_lon": 0.0, "bike_id": "e5dbc9edc3eb97df3d0205423b0f851b", "is_disabled": 0, "is_reserved": 0}, {"rental_uris": {"ios": "https://dc.lft.to/lastmile_qr_scan", "android": "https://dc.lft.to/lastmile_qr_scan"}, "lon": -76.93957233333333, "type": "electric_scooter", "fusion_lat": 0.0, "lat": 38.89415666666667, "name": "c9e277cef6962399dab91301eae49b59", "fusion_lon": 0.0, "bike_id": "c9e277cef6962399dab91301eae49b59", "is_disabled": 0, "is_reserved": 0}, {"rental_uris": {"ios": "https://dc.lft.to/lastmile_qr_scan", "android": "https://dc.lft.to/lastmile_qr_scan"}, "lon": -77.01890833333333, "type": "electric_scooter", "fusion_lat": 0.0, "lat": 38.902159833333336, "name": "dfc2a774db89cb8910421adbcdad9571", "fusion_lon": 0.0, "bike_id": "dfc2a774db89cb8910421adbcdad9571", "is_disabled": 0, "is_reserved": 0}, {"rental_uris": {"ios": "https://dc.lft.to/lastmile_qr_scan", "android": "https://dc.lft.to/lastmile_qr_scan"}, "lon": -76.9299795, "type": "electric_bike", "fusion_lat": 0.0, "lat": 38.887960666666665, "name": "d2dd6c19416ec344627ef7f8726951fc", "fusion_lon": 0.0, "bike_id": "d2dd6c19416ec344627ef7f8726951fc", "is_disabled": 0, "is_reserved": 0}, {"rental_uris": {"ios": "https://dc.lft.to/lastmile_qr_scan", "android": "https://dc.lft.to/lastmile_qr_scan"}, "lon": -77.0329495, "type": "electric_bike", "fusion_lat": 0.0, "lat": 38.907357166666664, "name": "073279307fdc64c96945d835d68859e9", "fusion_lon": 0.0, "bike_id": "073279307fdc64c96945d835d68859e9", "is_disabled": 0, "is_reserved": 0}, {"rental_uris": {"ios": "https://dc.lft.to/lastmile_qr_scan", "android": "https://dc.lft.to/lastmile_qr_scan"}, "lon": -77.02201916666667, "type": "electric_scooter", "fusion_lat": 0.0, "lat": 38.905311166666664, "name": "16f9666ddcebac9a8a25a7358d2f52fe", "fusion_lon": 0.0, "bike_id": "16f9666ddcebac9a8a25a7358d2f52fe", "is_disabled": 0, "is_reserved": 0}, {"rental_uris": {"ios": "https://dc.lft.to/lastmile_qr_scan", "android": "https://dc.lft.to/lastmile_qr_scan"}, "lon": -77.07863883333333, "type": "electric_scooter", "fusion_lat": 0.0, "lat": 38.924611, "name": "990289fc9b0676ca979446eb6361433e", "fusion_lon": 0.0, "bike_id": "990289fc9b0676ca979446eb6361433e", "is_disabled": 0, "is_reserved": 0}, {"rental_uris": {"ios": "https://dc.lft.to/lastmile_qr_scan", "android": "https://dc.lft.to/lastmile_qr_scan"}, "lon": -77.05288016666667, "type": "electric_scooter", "fusion_lat": 0.0, "lat": 38.91016233333333, "name": "d1c76f687d6d9915629402c2476b80e3", "fusion_lon": 0.0, "bike_id": "d1c76f687d6d9915629402c2476b80e3", "is_disabled": 0, "is_reserved": 0}, {"rental_uris": {"ios": "https://dc.lft.to/lastmile_qr_scan", "android": "https://dc.lft.to/lastmile_qr_scan"}, "lon": -77.04924, "type": "electric_scooter", "fusion_lat": 0.0, "lat": 38.89607933333333, "name": "808e9584106233be486ec4367ec76e57", "fusion_lon": 0.0, "bike_id": "808e9584106233be486ec4367ec76e57", "is_disabled": 0, "is_reserved": 0}, {"rental_uris": {"ios": "https://dc.lft.to/lastmile_qr_scan", "android": "https://dc.lft.to/lastmile_qr_scan"}, "lon": -77.03179066666667, "type": "electric_scooter", "fusion_lat": 0.0, "lat": 38.917982, "name": "3584ed5cf7d28edbb1e98e0a737a3cd6", "fusion_lon": 0.0, "bike_id": "3584ed5cf7d28edbb1e98e0a737a3cd6", "is_disabled": 0, "is_reserved": 0}, {"rental_uris": {"ios": "https://dc.lft.to/lastmile_qr_scan", "android": "https://dc.lft.to/lastmile_qr_scan"}, "lon": -77.00718416666666, "type": "electric_scooter", "fusion_lat": 0.0, "lat": 38.91345666666667, "name": "699c6a999e88eca4c12337a90d31fe45", "fusion_lon": 0.0, "bike_id": "699c6a999e88eca4c12337a90d31fe45", "is_disabled": 0, "is_reserved": 0}, {"rental_uris": {"ios": "https://dc.lft.to/lastmile_qr_scan", "android": "https://dc.lft.to/lastmile_qr_scan"}, "lon": -77.026423, "type": "electric_scooter", "fusion_lat": 0.0, "lat": 38.908520833333334, "name": "cad5707b6833ddac161706eb51f91d5d", "fusion_lon": 0.0, "bike_id": "cad5707b6833ddac161706eb51f91d5d", "is_disabled": 0, "is_reserved": 0}, {"rental_uris": {"ios": "https://dc.lft.to/lastmile_qr_scan", "android": "https://dc.lft.to/lastmile_qr_scan"}, "lon": -77.00840133333334, "type": "electric_scooter", "fusion_lat": 0.0, "lat": 38.912664666666664, "name": "5dd69624bfc33d512f1fce9717021c59", "fusion_lon": 0.0, "bike_id": "5dd69624bfc33d512f1fce9717021c59", "is_disabled": 0, "is_reserved": 0}, {"rental_uris": {"ios": "https://dc.lft.to/lastmile_qr_scan", "android": "https://dc.lft.to/lastmile_qr_scan"}, "lon": -77.032553, "type": "electric_scooter", "fusion_lat": 0.0, "lat": 38.93875516666667, "name": "fb3aacb216a68b1423f259209efc97aa", "fusion_lon": 0.0, "bike_id": "fb3aacb216a68b1423f259209efc97aa", "is_disabled": 0, "is_reserved": 0}, {"rental_uris": {"ios": "https://dc.lft.to/lastmile_qr_scan", "android": "https://dc.lft.to/lastmile_qr_scan"}, "lon": -77.03262266666667, "type": "electric_scooter", "fusion_lat": 0.0, "lat": 38.93523166666667, "name": "3a5b7c6066c9f5ea716b758c71025ec5", "fusion_lon": 0.0, "bike_id": "3a5b7c6066c9f5ea716b758c71025ec5", "is_disabled": 0, "is_reserved": 0}, {"rental_uris": {"ios": "https://dc.lft.to/lastmile_qr_scan", "android": "https://dc.lft.to/lastmile_qr_scan"}, "lon": -76.976117, "type": "electric_bike", "fusion_lat": 0.0, "lat": 38.913061666666664, "name": "4bc01fee22b8bb8c9c491f280cb65eec", "fusion_lon": 0.0, "bike_id": "4bc01fee22b8bb8c9c491f280cb65eec", "is_disabled": 0, "is_reserved": 0}, {"rental_uris": {"ios": "https://dc.lft.to/lastmile_qr_scan", "android": "https://dc.lft.to/lastmile_qr_scan"}, "lon": -77.02183433333333, "type": "electric_bike", "fusion_lat": 0.0, "lat": 38.91313566666667, "name": "125d89ac516abdf68d7e81ff417253da", "fusion_lon": 0.0, "bike_id": "125d89ac516abdf68d7e81ff417253da", "is_disabled": 0, "is_reserved": 0}, {"rental_uris": {"ios": "https://dc.lft.to/lastmile_qr_scan", "android": "https://dc.lft.to/lastmile_qr_scan"}, "lon": -76.99033016666667, "type": "electric_scooter", "fusion_lat": 0.0, "lat": 38.85866016666667, "name": "46d2349a4b3fe80ff131346efdda83cc", "fusion_lon": 0.0, "bike_id": "46d2349a4b3fe80ff131346efdda83cc", "is_disabled": 0, "is_reserved": 0}, {"rental_uris": {"ios": "https://dc.lft.to/lastmile_qr_scan", "android": "https://dc.lft.to/lastmile_qr_scan"}, "lon": -77.04378983333334, "type": "electric_scooter", "fusion_lat": 0.0, "lat": 38.9104575, "name": "bc36709547a6ec68931e84773170cd23", "fusion_lon": 0.0, "bike_id": "bc36709547a6ec68931e84773170cd23", "is_disabled": 0, "is_reserved": 0}, {"rental_uris": {"ios": "https://dc.lft.to/lastmile_qr_scan", "android": "https://dc.lft.to/lastmile_qr_scan"}, "lon": -77.039597, "type": "electric_scooter", "fusion_lat": 0.0, "lat": 38.9163365, "name": "edab745c3074299860a4de3635a943d7", "fusion_lon": 0.0, "bike_id": "edab745c3074299860a4de3635a943d7", "is_disabled": 0, "is_reserved": 0}, {"rental_uris": {"ios": "https://dc.lft.to/lastmile_qr_scan", "android": "https://dc.lft.to/lastmile_qr_scan"}, "lon": -77.01989366666666, "type": "electric_scooter", "fusion_lat": 0.0, "lat": 38.897431166666664, "name": "9b69e9884c6f76c952de31f7859478be", "fusion_lon": 0.0, "bike_id": "9b69e9884c6f76c952de31f7859478be", "is_disabled": 0, "is_reserved": 0}, {"rental_uris": {"ios": "https://dc.lft.to/lastmile_qr_scan", "android": "https://dc.lft.to/lastmile_qr_scan"}, "lon": -77.041492, "type": "electric_scooter", "fusion_lat": 0.0, "lat": 38.907507833333334, "name": "733522f567a82b463daff6120ec23175", "fusion_lon": 0.0, "bike_id": "733522f567a82b463daff6120ec23175", "is_disabled": 0, "is_reserved": 0}, {"rental_uris": {"ios": "https://dc.lft.to/lastmile_qr_scan", "android": "https://dc.lft.to/lastmile_qr_scan"}, "lon": -77.06693183333333, "type": "electric_scooter", "fusion_lat": 0.0, "lat": 38.909764333333335, "name": "27959534d29c470bfed512e3a80036ca", "fusion_lon": 0.0, "bike_id": "27959534d29c470bfed512e3a80036ca", "is_disabled": 0, "is_reserved": 0}, {"rental_uris": {"ios": "https://dc.lft.to/lastmile_qr_scan", "android": "https://dc.lft.to/lastmile_qr_scan"}, "lon": -77.03522383333333, "type": "electric_bike", "fusion_lat": 0.0, "lat": 38.96539116666667, "name": "d120cbf5a9d13ee24787f1828672b7fd", "fusion_lon": 0.0, "bike_id": "d120cbf5a9d13ee24787f1828672b7fd", "is_disabled": 0, "is_reserved": 0}, {"rental_uris": {"ios": "https://dc.lft.to/lastmile_qr_scan", "android": "https://dc.lft.to/lastmile_qr_scan"}, "lon": -77.06521466666666, "type": "electric_bike", "fusion_lat": 0.0, "lat": 38.904507833333334, "name": "1afc821264f149dfd6bc9780fc6a3081", "fusion_lon": 0.0, "bike_id": "1afc821264f149dfd6bc9780fc6a3081", "is_disabled": 0, "is_reserved": 0}, {"rental_uris": {"ios": "https://dc.lft.to/lastmile_qr_scan", "android": "https://dc.lft.to/lastmile_qr_scan"}, "lon": -77.04053, "type": "electric_scooter", "fusion_lat": 0.0, "lat": 38.9026835, "name": "3fc693826f902fbe14bdd1499dec947e", "fusion_lon": 0.0, "bike_id": "3fc693826f902fbe14bdd1499dec947e", "is_disabled": 0, "is_reserved": 0}, {"rental_uris": {"ios": "https://dc.lft.to/lastmile_qr_scan", "android": "https://dc.lft.to/lastmile_qr_scan"}, "lon": -77.032644, "type": "electric_scooter", "fusion_lat": 0.0, "lat": 38.93898683333333, "name": "d4737d401d4211189db7a56d78d5f230", "fusion_lon": 0.0, "bike_id": "d4737d401d4211189db7a56d78d5f230", "is_disabled": 0, "is_reserved": 0}, {"rental_uris": {"ios": "https://dc.lft.to/lastmile_qr_scan", "android": "https://dc.lft.to/lastmile_qr_scan"}, "lon": -77.01825733333334, "type": "electric_scooter", "fusion_lat": 0.0, "lat": 38.90075133333333, "name": "23be294df040c8153f5ecf13a81e2b7a", "fusion_lon": 0.0, "bike_id": "23be294df040c8153f5ecf13a81e2b7a", "is_disabled": 0, "is_reserved": 0}, {"rental_uris": {"ios": "https://dc.lft.to/lastmile_qr_scan", "android": "https://dc.lft.to/lastmile_qr_scan"}, "lon": -77.038756, "type": "electric_scooter", "fusion_lat": 0.0, "lat": 38.92022016666667, "name": "0b0761731076bf7c8badf6c86453eea4", "fusion_lon": 0.0, "bike_id": "0b0761731076bf7c8badf6c86453eea4", "is_disabled": 0, "is_reserved": 0}, {"rental_uris": {"ios": "https://dc.lft.to/lastmile_qr_scan", "android": "https://dc.lft.to/lastmile_qr_scan"}, "lon": -76.97878966666667, "type": "electric_scooter", "fusion_lat": 0.0, "lat": 38.8850825, "name": "8c2089e904d784bd85ef6449edb1bb7e", "fusion_lon": 0.0, "bike_id": "8c2089e904d784bd85ef6449edb1bb7e", "is_disabled": 0, "is_reserved": 0}, {"rental_uris": {"ios": "https://dc.lft.to/lastmile_qr_scan", "android": "https://dc.lft.to/lastmile_qr_scan"}, "lon": -77.01092, "type": "electric_scooter", "fusion_lat": 0.0, "lat": 38.89441883333333, "name": "e87704b5cd0e61e5cbbbf86fccb65988", "fusion_lon": 0.0, "bike_id": "e87704b5cd0e61e5cbbbf86fccb65988", "is_disabled": 0, "is_reserved": 0}, {"rental_uris": {"ios": "https://dc.lft.to/lastmile_qr_scan", "android": "https://dc.lft.to/lastmile_qr_scan"}, "lon": -76.98697266666667, "type": "electric_scooter", "fusion_lat": 0.0, "lat": 38.9070265, "name": "16dd29d938198bd6364dd8055c639a05", "fusion_lon": 0.0, "bike_id": "16dd29d938198bd6364dd8055c639a05", "is_disabled": 0, "is_reserved": 0}, {"rental_uris": {"ios": "https://dc.lft.to/lastmile_qr_scan", "android": "https://dc.lft.to/lastmile_qr_scan"}, "lon": -77.002071, "type": "electric_bike", "fusion_lat": 0.0, "lat": 38.8193655, "name": "ced9924171a88819f38dbb52be4d17ce", "fusion_lon": 0.0, "bike_id": "ced9924171a88819f38dbb52be4d17ce", "is_disabled": 0, "is_reserved": 0}, {"rental_uris": {"ios": "https://dc.lft.to/lastmile_qr_scan", "android": "https://dc.lft.to/lastmile_qr_scan"}, "lon": -77.01170733333333, "type": "electric_scooter", "fusion_lat": 0.0, "lat": 38.9003565, "name": "aea31de41aa0cba582c27ea2564b3b88", "fusion_lon": 0.0, "bike_id": "aea31de41aa0cba582c27ea2564b3b88", "is_disabled": 0, "is_reserved": 0}, {"rental_uris": {"ios": "https://dc.lft.to/lastmile_qr_scan", "android": "https://dc.lft.to/lastmile_qr_scan"}, "lon": -77.03319166666667, "type": "electric_scooter", "fusion_lat": 0.0, "lat": 38.91988833333333, "name": "6906fb97176dd4c4b934130d4a4bb522", "fusion_lon": 0.0, "bike_id": "6906fb97176dd4c4b934130d4a4bb522", "is_disabled": 0, "is_reserved": 0}, {"rental_uris": {"ios": "https://dc.lft.to/lastmile_qr_scan", "android": "https://dc.lft.to/lastmile_qr_scan"}, "lon": -77.04173066666667, "type": "electric_scooter", "fusion_lat": 0.0, "lat": 38.9176555, "name": "8af4c5bb28882f2a0937486635bcb4bf", "fusion_lon": 0.0, "bike_id": "8af4c5bb28882f2a0937486635bcb4bf", "is_disabled": 0, "is_reserved": 0}, {"rental_uris": {"ios": "https://dc.lft.to/lastmile_qr_scan", "android": "https://dc.lft.to/lastmile_qr_scan"}, "lon": -77.0319685, "type": "electric_scooter", "fusion_lat": 0.0, "lat": 38.914259333333334, "name": "57e8edadd0eb3b2f2cb3b6b52842be54", "fusion_lon": 0.0, "bike_id": "57e8edadd0eb3b2f2cb3b6b52842be54", "is_disabled": 0, "is_reserved": 0}, {"rental_uris": {"ios": "https://dc.lft.to/lastmile_qr_scan", "android": "https://dc.lft.to/lastmile_qr_scan"}, "lon": -77.02743333333333, "type": "electric_scooter", "fusion_lat": 0.0, "lat": 38.92764966666667, "name": "a7ddda66529953249d73d47ee2388705", "fusion_lon": 0.0, "bike_id": "a7ddda66529953249d73d47ee2388705", "is_disabled": 0, "is_reserved": 0}, {"rental_uris": {"ios": "https://dc.lft.to/lastmile_qr_scan", "android": "https://dc.lft.to/lastmile_qr_scan"}, "lon": -77.02480266666667, "type": "electric_scooter", "fusion_lat": 0.0, "lat": 38.93099466666666, "name": "8b2dbdba2aa6f1a8f189bb753f5af120", "fusion_lon": 0.0, "bike_id": "8b2dbdba2aa6f1a8f189bb753f5af120", "is_disabled": 0, "is_reserved": 0}, {"rental_uris": {"ios": "https://dc.lft.to/lastmile_qr_scan", "android": "https://dc.lft.to/lastmile_qr_scan"}, "lon": -77.1051035, "type": "electric_bike", "fusion_lat": 0.0, "lat": 38.9284735, "name": "5757d81d2c358a576cfddd308c1255ed", "fusion_lon": 0.0, "bike_id": "5757d81d2c358a576cfddd308c1255ed", "is_disabled": 0, "is_reserved": 0}, {"rental_uris": {"ios": "https://dc.lft.to/lastmile_qr_scan", "android": "https://dc.lft.to/lastmile_qr_scan"}, "lon": -77.05456966666667, "type": "electric_scooter", "fusion_lat": 0.0, "lat": 38.92903466666667, "name": "a091018f347e0c9c85e37b2bc646f92f", "fusion_lon": 0.0, "bike_id": "a091018f347e0c9c85e37b2bc646f92f", "is_disabled": 0, "is_reserved": 0}, {"rental_uris": {"ios": "https://dc.lft.to/lastmile_qr_scan", "android": "https://dc.lft.to/lastmile_qr_scan"}, "lon": -77.0739225, "type": "electric_bike", "fusion_lat": 0.0, "lat": 38.961728, "name": "7b0f909bb75df2f90d4201c155c42118", "fusion_lon": 0.0, "bike_id": "7b0f909bb75df2f90d4201c155c42118", "is_disabled": 0, "is_reserved": 0}, {"rental_uris": {"ios": "https://dc.lft.to/lastmile_qr_scan", "android": "https://dc.lft.to/lastmile_qr_scan"}, "lon": -77.01532916666666, "type": "electric_scooter", "fusion_lat": 0.0, "lat": 38.887366, "name": "df4cb962d77e3e19d79fc6325c5baeb9", "fusion_lon": 0.0, "bike_id": "df4cb962d77e3e19d79fc6325c5baeb9", "is_disabled": 0, "is_reserved": 0}, {"rental_uris": {"ios": "https://dc.lft.to/lastmile_qr_scan", "android": "https://dc.lft.to/lastmile_qr_scan"}, "lon": -77.0308715, "type": "electric_scooter", "fusion_lat": 0.0, "lat": 38.894730333333335, "name": "bd434bc807151244ed28305b0cc40b40", "fusion_lon": 0.0, "bike_id": "bd434bc807151244ed28305b0cc40b40", "is_disabled": 0, "is_reserved": 0}, {"rental_uris": {"ios": "https://dc.lft.to/lastmile_qr_scan", "android": "https://dc.lft.to/lastmile_qr_scan"}, "lon": -77.025716, "type": "electric_scooter", "fusion_lat": 0.0, "lat": 38.89219216666667, "name": "05f4476696b22e530bfabf78135ed8aa", "fusion_lon": 0.0, "bike_id": "05f4476696b22e530bfabf78135ed8aa", "is_disabled": 0, "is_reserved": 0}, {"rental_uris": {"ios": "https://dc.lft.to/lastmile_qr_scan", "android": "https://dc.lft.to/lastmile_qr_scan"}, "lon": -77.04128733333333, "type": "electric_scooter", "fusion_lat": 0.0, "lat": 38.924315, "name": "ff2d1151e10e921c3126d0fe358707b0", "fusion_lon": 0.0, "bike_id": "ff2d1151e10e921c3126d0fe358707b0", "is_disabled": 0, "is_reserved": 0}, {"rental_uris": {"ios": "https://dc.lft.to/lastmile_qr_scan", "android": "https://dc.lft.to/lastmile_qr_scan"}, "lon": -76.97354983333334, "type": "electric_scooter", "fusion_lat": 0.0, "lat": 38.8620545, "name": "aa4ee76644e6842c8e0f7bfc2478b860", "fusion_lon": 0.0, "bike_id": "aa4ee76644e6842c8e0f7bfc2478b860", "is_disabled": 0, "is_reserved": 0}, {"rental_uris": {"ios": "https://dc.lft.to/lastmile_qr_scan", "android": "https://dc.lft.to/lastmile_qr_scan"}, "lon": -77.03321483333333, "type": "electric_scooter", "fusion_lat": 0.0, "lat": 38.91988666666666, "name": "ed85cdad10e2f6b593acbf9dbf7c5325", "fusion_lon": 0.0, "bike_id": "ed85cdad10e2f6b593acbf9dbf7c5325", "is_disabled": 0, "is_reserved": 0}, {"rental_uris": {"ios": "https://dc.lft.to/lastmile_qr_scan", "android": "https://dc.lft.to/lastmile_qr_scan"}, "lon": -77.04629133333333, "type": "electric_scooter", "fusion_lat": 0.0, "lat": 38.915687, "name": "f2c91c6409a0147138df3da1ac87aea7", "fusion_lon": 0.0, "bike_id": "f2c91c6409a0147138df3da1ac87aea7", "is_disabled": 0, "is_reserved": 0}, {"rental_uris": {"ios": "https://dc.lft.to/lastmile_qr_scan", "android": "https://dc.lft.to/lastmile_qr_scan"}, "lon": -77.027143, "type": "electric_scooter", "fusion_lat": 0.0, "lat": 38.9248255, "name": "fccea37b85465a556ba8d25c431c0b3b", "fusion_lon": 0.0, "bike_id": "fccea37b85465a556ba8d25c431c0b3b", "is_disabled": 0, "is_reserved": 0}, {"rental_uris": {"ios": "https://dc.lft.to/lastmile_qr_scan", "android": "https://dc.lft.to/lastmile_qr_scan"}, "lon": -77.03083016666666, "type": "electric_scooter", "fusion_lat": 0.0, "lat": 38.9347015, "name": "6d63d5cb797eee9eaf24d0c3c0db75b6", "fusion_lon": 0.0, "bike_id": "6d63d5cb797eee9eaf24d0c3c0db75b6", "is_disabled": 0, "is_reserved": 0}, {"rental_uris": {"ios": "https://dc.lft.to/lastmile_qr_scan", "android": "https://dc.lft.to/lastmile_qr_scan"}, "lon": -77.0261495, "type": "electric_scooter", "fusion_lat": 0.0, "lat": 38.916880166666665, "name": "51613e1e1da121e75be105d12e5265e8", "fusion_lon": 0.0, "bike_id": "51613e1e1da121e75be105d12e5265e8", "is_disabled": 0, "is_reserved": 0}, {"rental_uris": {"ios": "https://dc.lft.to/lastmile_qr_scan", "android": "https://dc.lft.to/lastmile_qr_scan"}, "lon": -77.00852766666667, "type": "electric_scooter", "fusion_lat": 0.0, "lat": 38.925957, "name": "9b20bd3cb2b8901e512cb0d3a1a44d0e", "fusion_lon": 0.0, "bike_id": "9b20bd3cb2b8901e512cb0d3a1a44d0e", "is_disabled": 0, "is_reserved": 0}, {"rental_uris": {"ios": "https://dc.lft.to/lastmile_qr_scan", "android": "https://dc.lft.to/lastmile_qr_scan"}, "lon": -76.93800266666666, "type": "electric_scooter", "fusion_lat": 0.0, "lat": 38.91280033333334, "name": "6e2188d52c44bcfafcbe3ce42152ee35", "fusion_lon": 0.0, "bike_id": "6e2188d52c44bcfafcbe3ce42152ee35", "is_disabled": 0, "is_reserved": 0}, {"rental_uris": {"ios": "https://dc.lft.to/lastmile_qr_scan", "android": "https://dc.lft.to/lastmile_qr_scan"}, "lon": -77.01755866666667, "type": "electric_scooter", "fusion_lat": 0.0, "lat": 38.93893416666667, "name": "483776dbe5092df265504336739927e4", "fusion_lon": 0.0, "bike_id": "483776dbe5092df265504336739927e4", "is_disabled": 0, "is_reserved": 0}, {"rental_uris": {"ios": "https://dc.lft.to/lastmile_qr_scan", "android": "https://dc.lft.to/lastmile_qr_scan"}, "lon": -77.03596733333333, "type": "electric_scooter", "fusion_lat": 0.0, "lat": 38.90686516666667, "name": "101ebe2b7a451f1b332e130d179664e0", "fusion_lon": 0.0, "bike_id": "101ebe2b7a451f1b332e130d179664e0", "is_disabled": 0, "is_reserved": 0}, {"rental_uris": {"ios": "https://dc.lft.to/lastmile_qr_scan", "android": "https://dc.lft.to/lastmile_qr_scan"}, "lon": -76.97888866666666, "type": "electric_scooter", "fusion_lat": 0.0, "lat": 38.916725166666666, "name": "f67ea8d6ab5d87c323de8e3d909bf24d", "fusion_lon": 0.0, "bike_id": "f67ea8d6ab5d87c323de8e3d909bf24d", "is_disabled": 0, "is_reserved": 0}, {"rental_uris": {"ios": "https://dc.lft.to/lastmile_qr_scan", "android": "https://dc.lft.to/lastmile_qr_scan"}, "lon": -76.98772483333333, "type": "electric_scooter", "fusion_lat": 0.0, "lat": 38.91172533333334, "name": "c73436a8146d13a52171aceb7dce4296", "fusion_lon": 0.0, "bike_id": "c73436a8146d13a52171aceb7dce4296", "is_disabled": 0, "is_reserved": 0}, {"rental_uris": {"ios": "https://dc.lft.to/lastmile_qr_scan", "android": "https://dc.lft.to/lastmile_qr_scan"}, "lon": -77.05148016666666, "type": "electric_scooter", "fusion_lat": 0.0, "lat": 38.902328, "name": "d9c635f6a41967c6b4f92642687d5f2b", "fusion_lon": 0.0, "bike_id": "d9c635f6a41967c6b4f92642687d5f2b", "is_disabled": 0, "is_reserved": 0}, {"rental_uris": {"ios": "https://dc.lft.to/lastmile_qr_scan", "android": "https://dc.lft.to/lastmile_qr_scan"}, "lon": -77.08367233333334, "type": "electric_scooter", "fusion_lat": 0.0, "lat": 38.9303175, "name": "fdf746b61dde1d2ba941561840d9fd3d", "fusion_lon": 0.0, "bike_id": "fdf746b61dde1d2ba941561840d9fd3d", "is_disabled": 0, "is_reserved": 0}, {"rental_uris": {"ios": "https://dc.lft.to/lastmile_qr_scan", "android": "https://dc.lft.to/lastmile_qr_scan"}, "lon": -76.9954195, "type": "electric_scooter", "fusion_lat": 0.0, "lat": 38.92668, "name": "c7487f5a0f9a7979095a5375b4d137ac", "fusion_lon": 0.0, "bike_id": "c7487f5a0f9a7979095a5375b4d137ac", "is_disabled": 0, "is_reserved": 0}, {"rental_uris": {"ios": "https://dc.lft.to/lastmile_qr_scan", "android": "https://dc.lft.to/lastmile_qr_scan"}, "lon": -77.0493835, "type": "electric_scooter", "fusion_lat": 0.0, "lat": 38.896711833333335, "name": "8d3b52d4231b4812d9df7b34555bd197", "fusion_lon": 0.0, "bike_id": "8d3b52d4231b4812d9df7b34555bd197", "is_disabled": 0, "is_reserved": 0}, {"rental_uris": {"ios": "https://dc.lft.to/lastmile_qr_scan", "android": "https://dc.lft.to/lastmile_qr_scan"}, "lon": -77.127405, "type": "electric_bike", "fusion_lat": 0.0, "lat": 38.888199166666666, "name": "4f1f751f531f72516eccf6e0cfaa3a0d", "fusion_lon": 0.0, "bike_id": "4f1f751f531f72516eccf6e0cfaa3a0d", "is_disabled": 0, "is_reserved": 0}, {"rental_uris": {"ios": "https://dc.lft.to/lastmile_qr_scan", "android": "https://dc.lft.to/lastmile_qr_scan"}, "lon": -77.000487, "type": "electric_scooter", "fusion_lat": 0.0, "lat": 38.92063316666667, "name": "36dfd652997a1fc7a8480b0285742ef7", "fusion_lon": 0.0, "bike_id": "36dfd652997a1fc7a8480b0285742ef7", "is_disabled": 0, "is_reserved": 0}, {"rental_uris": {"ios": "https://dc.lft.to/lastmile_qr_scan", "android": "https://dc.lft.to/lastmile_qr_scan"}, "lon": -77.0962225, "type": "electric_bike", "fusion_lat": 0.0, "lat": 38.845705333333335, "name": "1cd4d7640bbc69ff8618a9fc1c0424fc", "fusion_lon": 0.0, "bike_id": "1cd4d7640bbc69ff8618a9fc1c0424fc", "is_disabled": 0, "is_reserved": 0}, {"rental_uris": {"ios": "https://dc.lft.to/lastmile_qr_scan", "android": "https://dc.lft.to/lastmile_qr_scan"}, "lon": -77.0647235, "type": "electric_bike", "fusion_lat": 0.0, "lat": 38.97383116666666, "name": "bb878ee8559083645cd3c2793c3363ab", "fusion_lon": 0.0, "bike_id": "bb878ee8559083645cd3c2793c3363ab", "is_disabled": 0, "is_reserved": 0}, {"rental_uris": {"ios": "https://dc.lft.to/lastmile_qr_scan", "android": "https://dc.lft.to/lastmile_qr_scan"}, "lon": -77.03264083333333, "type": "electric_scooter", "fusion_lat": 0.0, "lat": 38.93522633333333, "name": "cd9c5a55a9aa02b7ae76ab38b5cb04c1", "fusion_lon": 0.0, "bike_id": "cd9c5a55a9aa02b7ae76ab38b5cb04c1", "is_disabled": 0, "is_reserved": 0}, {"rental_uris": {"ios": "https://dc.lft.to/lastmile_qr_scan", "android": "https://dc.lft.to/lastmile_qr_scan"}, "lon": -77.03812116666667, "type": "electric_scooter", "fusion_lat": 0.0, "lat": 38.931133833333334, "name": "034110bb5f351453513669c117f028fb", "fusion_lon": 0.0, "bike_id": "034110bb5f351453513669c117f028fb", "is_disabled": 0, "is_reserved": 0}, {"rental_uris": {"ios": "https://dc.lft.to/lastmile_qr_scan", "android": "https://dc.lft.to/lastmile_qr_scan"}, "lon": -77.04364516666666, "type": "electric_scooter", "fusion_lat": 0.0, "lat": 38.90113783333334, "name": "e6f321242e36756ac093fb3e8ac1149a", "fusion_lon": 0.0, "bike_id": "e6f321242e36756ac093fb3e8ac1149a", "is_disabled": 0, "is_reserved": 0}, {"rental_uris": {"ios": "https://dc.lft.to/lastmile_qr_scan", "android": "https://dc.lft.to/lastmile_qr_scan"}, "lon": -77.04624116666666, "type": "electric_bike", "fusion_lat": 0.0, "lat": 38.999108166666666, "name": "a96721c4a6d15a533de62a59d261b088", "fusion_lon": 0.0, "bike_id": "a96721c4a6d15a533de62a59d261b088", "is_disabled": 0, "is_reserved": 0}, {"rental_uris": {"ios": "https://dc.lft.to/lastmile_qr_scan", "android": "https://dc.lft.to/lastmile_qr_scan"}, "lon": -77.03580483333333, "type": "electric_scooter", "fusion_lat": 0.0, "lat": 38.933882833333335, "name": "618f55e44cdbcec3115b3c089f0ef69a", "fusion_lon": 0.0, "bike_id": "618f55e44cdbcec3115b3c089f0ef69a", "is_disabled": 0, "is_reserved": 0}, {"rental_uris": {"ios": "https://dc.lft.to/lastmile_qr_scan", "android": "https://dc.lft.to/lastmile_qr_scan"}, "lon": -77.06998716666666, "type": "electric_bike", "fusion_lat": 0.0, "lat": 38.95501766666667, "name": "676be84d6ab637574a3da35a06d2e8e7", "fusion_lon": 0.0, "bike_id": "676be84d6ab637574a3da35a06d2e8e7", "is_disabled": 0, "is_reserved": 0}, {"rental_uris": {"ios": "https://dc.lft.to/lastmile_qr_scan", "android": "https://dc.lft.to/lastmile_qr_scan"}, "lon": -77.107797, "type": "electric_bike", "fusion_lat": 0.0, "lat": 38.8921575, "name": "43f61a0941f7790168ac3fde8e8c6373", "fusion_lon": 0.0, "bike_id": "43f61a0941f7790168ac3fde8e8c6373", "is_disabled": 0, "is_reserved": 0}, {"rental_uris": {"ios": "https://dc.lft.to/lastmile_qr_scan", "android": "https://dc.lft.to/lastmile_qr_scan"}, "lon": -77.02936983333333, "type": "electric_scooter", "fusion_lat": 0.0, "lat": 38.904606333333334, "name": "914649516d5d620a2a99513d482b6ae3", "fusion_lon": 0.0, "bike_id": "914649516d5d620a2a99513d482b6ae3", "is_disabled": 0, "is_reserved": 0}, {"rental_uris": {"ios": "https://dc.lft.to/lastmile_qr_scan", "android": "https://dc.lft.to/lastmile_qr_scan"}, "lon": -77.03559966666667, "type": "electric_scooter", "fusion_lat": 0.0, "lat": 38.918022666666666, "name": "a33c5c0cb89a386e096873caf8638a14", "fusion_lon": 0.0, "bike_id": "a33c5c0cb89a386e096873caf8638a14", "is_disabled": 0, "is_reserved": 0}, {"rental_uris": {"ios": "https://dc.lft.to/lastmile_qr_scan", "android": "https://dc.lft.to/lastmile_qr_scan"}, "lon": -77.03183933333334, "type": "electric_scooter", "fusion_lat": 0.0, "lat": 38.895724666666666, "name": "a34dfd4a7d9b88b04da39521e118bf7c", "fusion_lon": 0.0, "bike_id": "a34dfd4a7d9b88b04da39521e118bf7c", "is_disabled": 0, "is_reserved": 0}, {"rental_uris": {"ios": "https://dc.lft.to/lastmile_qr_scan", "android": "https://dc.lft.to/lastmile_qr_scan"}, "lon": -77.0344205, "type": "electric_scooter", "fusion_lat": 0.0, "lat": 38.90735083333333, "name": "cda56957724dcbce0318d9ff60469898", "fusion_lon": 0.0, "bike_id": "cda56957724dcbce0318d9ff60469898", "is_disabled": 0, "is_reserved": 0}, {"rental_uris": {"ios": "https://dc.lft.to/lastmile_qr_scan", "android": "https://dc.lft.to/lastmile_qr_scan"}, "lon": -77.009847, "type": "electric_scooter", "fusion_lat": 0.0, "lat": 38.872890166666664, "name": "25bcadf8a50ff3b4a32cf5476f8e6a73", "fusion_lon": 0.0, "bike_id": "25bcadf8a50ff3b4a32cf5476f8e6a73", "is_disabled": 0, "is_reserved": 0}, {"rental_uris": {"ios": "https://dc.lft.to/lastmile_qr_scan", "android": "https://dc.lft.to/lastmile_qr_scan"}, "lon": -77.0616075, "type": "electric_scooter", "fusion_lat": 0.0, "lat": 38.912887833333336, "name": "317afca7cddabd80ccf4a0000adeb0ae", "fusion_lon": 0.0, "bike_id": "317afca7cddabd80ccf4a0000adeb0ae", "is_disabled": 0, "is_reserved": 0}, {"rental_uris": {"ios": "https://dc.lft.to/lastmile_qr_scan", "android": "https://dc.lft.to/lastmile_qr_scan"}, "lon": -77.02982433333334, "type": "electric_scooter", "fusion_lat": 0.0, "lat": 38.916814333333335, "name": "eab6ba77fe33c2c50836695376aab68a", "fusion_lon": 0.0, "bike_id": "eab6ba77fe33c2c50836695376aab68a", "is_disabled": 0, "is_reserved": 0}, {"rental_uris": {"ios": "https://dc.lft.to/lastmile_qr_scan", "android": "https://dc.lft.to/lastmile_qr_scan"}, "lon": -77.02172716666666, "type": "electric_scooter", "fusion_lat": 0.0, "lat": 38.9429175, "name": "40aafb38059a7edf71a9bf7011b0bd2b", "fusion_lon": 0.0, "bike_id": "40aafb38059a7edf71a9bf7011b0bd2b", "is_disabled": 0, "is_reserved": 0}, {"rental_uris": {"ios": "https://dc.lft.to/lastmile_qr_scan", "android": "https://dc.lft.to/lastmile_qr_scan"}, "lon": -76.989079, "type": "electric_scooter", "fusion_lat": 0.0, "lat": 38.8668965, "name": "93833b69f68fa5b5945e9d9446969a78", "fusion_lon": 0.0, "bike_id": "93833b69f68fa5b5945e9d9446969a78", "is_disabled": 0, "is_reserved": 0}, {"rental_uris": {"ios": "https://dc.lft.to/lastmile_qr_scan", "android": "https://dc.lft.to/lastmile_qr_scan"}, "lon": -77.02224933333333, "type": "electric_scooter", "fusion_lat": 0.0, "lat": 38.892177333333336, "name": "7b1f9d9a913e7b0349b22cf75fe5f280", "fusion_lon": 0.0, "bike_id": "7b1f9d9a913e7b0349b22cf75fe5f280", "is_disabled": 0, "is_reserved": 0}, {"rental_uris": {"ios": "https://dc.lft.to/lastmile_qr_scan", "android": "https://dc.lft.to/lastmile_qr_scan"}, "lon": -77.0397875, "type": "electric_scooter", "fusion_lat": 0.0, "lat": 38.8922385, "name": "93fe5dac565d9d99f9fedcc5990a25b6", "fusion_lon": 0.0, "bike_id": "93fe5dac565d9d99f9fedcc5990a25b6", "is_disabled": 0, "is_reserved": 0}, {"rental_uris": {"ios": "https://dc.lft.to/lastmile_qr_scan", "android": "https://dc.lft.to/lastmile_qr_scan"}, "lon": -77.05041166666666, "type": "electric_scooter", "fusion_lat": 0.0, "lat": 38.903616166666666, "name": "ab0ad1d6fe46edc523ffeb12c3af2285", "fusion_lon": 0.0, "bike_id": "ab0ad1d6fe46edc523ffeb12c3af2285", "is_disabled": 0, "is_reserved": 0}, {"rental_uris": {"ios": "https://dc.lft.to/lastmile_qr_scan", "android": "https://dc.lft.to/lastmile_qr_scan"}, "lon": -77.0401265, "type": "electric_scooter", "fusion_lat": 0.0, "lat": 38.921832, "name": "73aa544504f5f7e9dccad4def185c216", "fusion_lon": 0.0, "bike_id": "73aa544504f5f7e9dccad4def185c216", "is_disabled": 0, "is_reserved": 0}, {"rental_uris": {"ios": "https://dc.lft.to/lastmile_qr_scan", "android": "https://dc.lft.to/lastmile_qr_scan"}, "lon": -77.06365633333333, "type": "electric_scooter", "fusion_lat": 0.0, "lat": 38.909327166666664, "name": "b5b9b341c17a453a143b21c054969a08", "fusion_lon": 0.0, "bike_id": "b5b9b341c17a453a143b21c054969a08", "is_disabled": 0, "is_reserved": 0}, {"rental_uris": {"ios": "https://dc.lft.to/lastmile_qr_scan", "android": "https://dc.lft.to/lastmile_qr_scan"}, "lon": -77.04136566666666, "type": "electric_scooter", "fusion_lat": 0.0, "lat": 38.92203116666666, "name": "06afdedf5c075595dbc979cce03c6418", "fusion_lon": 0.0, "bike_id": "06afdedf5c075595dbc979cce03c6418", "is_disabled": 0, "is_reserved": 0}, {"rental_uris": {"ios": "https://dc.lft.to/lastmile_qr_scan", "android": "https://dc.lft.to/lastmile_qr_scan"}, "lon": -77.04351133333333, "type": "electric_scooter", "fusion_lat": 0.0, "lat": 38.91048033333333, "name": "c3c6a24e22a3958fbb64d168cbbb0d74", "fusion_lon": 0.0, "bike_id": "c3c6a24e22a3958fbb64d168cbbb0d74", "is_disabled": 0, "is_reserved": 0}, {"rental_uris": {"ios": "https://dc.lft.to/lastmile_qr_scan", "android": "https://dc.lft.to/lastmile_qr_scan"}, "lon": -77.07041166666667, "type": "electric_bike", "fusion_lat": 0.0, "lat": 38.824427166666666, "name": "fcd1efd554a01281b1782cef715dc32a", "fusion_lon": 0.0, "bike_id": "fcd1efd554a01281b1782cef715dc32a", "is_disabled": 0, "is_reserved": 0}, {"rental_uris": {"ios": "https://dc.lft.to/lastmile_qr_scan", "android": "https://dc.lft.to/lastmile_qr_scan"}, "lon": -76.99948, "type": "electric_scooter", "fusion_lat": 0.0, "lat": 38.84293533333334, "name": "cc594425f2c7dae72b1288a9a48a5b7d", "fusion_lon": 0.0, "bike_id": "cc594425f2c7dae72b1288a9a48a5b7d", "is_disabled": 0, "is_reserved": 0}, {"rental_uris": {"ios": "https://dc.lft.to/lastmile_qr_scan", "android": "https://dc.lft.to/lastmile_qr_scan"}, "lon": -77.06883016666667, "type": "electric_scooter", "fusion_lat": 0.0, "lat": 38.94024266666667, "name": "f5dcfe72ae948ace2c5e0df086e1a21c", "fusion_lon": 0.0, "bike_id": "f5dcfe72ae948ace2c5e0df086e1a21c", "is_disabled": 0, "is_reserved": 0}, {"rental_uris": {"ios": "https://dc.lft.to/lastmile_qr_scan", "android": "https://dc.lft.to/lastmile_qr_scan"}, "lon": -77.02183066666667, "type": "electric_bike", "fusion_lat": 0.0, "lat": 38.892497166666665, "name": "31cb526f44e150dfba559b219f0eb7f3", "fusion_lon": 0.0, "bike_id": "31cb526f44e150dfba559b219f0eb7f3", "is_disabled": 0, "is_reserved": 0}, {"rental_uris": {"ios": "https://dc.lft.to/lastmile_qr_scan", "android": "https://dc.lft.to/lastmile_qr_scan"}, "lon": -77.04054666666667, "type": "electric_scooter", "fusion_lat": 0.0, "lat": 38.9264245, "name": "5f7305beae1d218c272fbb1dfe44277e", "fusion_lon": 0.0, "bike_id": "5f7305beae1d218c272fbb1dfe44277e", "is_disabled": 0, "is_reserved": 0}, {"rental_uris": {"ios": "https://dc.lft.to/lastmile_qr_scan", "android": "https://dc.lft.to/lastmile_qr_scan"}, "lon": -77.0092975, "type": "electric_scooter", "fusion_lat": 0.0, "lat": 38.87194933333333, "name": "70db695a4352685b27a37df51bacf037", "fusion_lon": 0.0, "bike_id": "70db695a4352685b27a37df51bacf037", "is_disabled": 0, "is_reserved": 0}, {"rental_uris": {"ios": "https://dc.lft.to/lastmile_qr_scan", "android": "https://dc.lft.to/lastmile_qr_scan"}, "lon": -77.0433345, "type": "electric_scooter", "fusion_lat": 0.0, "lat": 38.89223916666667, "name": "228731abe7446e39e91f74ae9651bea8", "fusion_lon": 0.0, "bike_id": "228731abe7446e39e91f74ae9651bea8", "is_disabled": 0, "is_reserved": 0}, {"rental_uris": {"ios": "https://dc.lft.to/lastmile_qr_scan", "android": "https://dc.lft.to/lastmile_qr_scan"}, "lon": -77.06528433333334, "type": "electric_scooter", "fusion_lat": 0.0, "lat": 38.9053065, "name": "0cb54de0020e75520ca22d8ef7b8afd5", "fusion_lon": 0.0, "bike_id": "0cb54de0020e75520ca22d8ef7b8afd5", "is_disabled": 0, "is_reserved": 0}, {"rental_uris": {"ios": "https://dc.lft.to/lastmile_qr_scan", "android": "https://dc.lft.to/lastmile_qr_scan"}, "lon": -77.043705, "type": "electric_scooter", "fusion_lat": 0.0, "lat": 38.911069499999996, "name": "fc132acfdf8fec636116f036d838d98e", "fusion_lon": 0.0, "bike_id": "fc132acfdf8fec636116f036d838d98e", "is_disabled": 0, "is_reserved": 0}, {"rental_uris": {"ios": "https://dc.lft.to/lastmile_qr_scan", "android": "https://dc.lft.to/lastmile_qr_scan"}, "lon": -77.03208383333333, "type": "electric_scooter", "fusion_lat": 0.0, "lat": 38.912460333333335, "name": "53b6ce43b20571499875345a6ca3cac0", "fusion_lon": 0.0, "bike_id": "53b6ce43b20571499875345a6ca3cac0", "is_disabled": 0, "is_reserved": 0}, {"rental_uris": {"ios": "https://dc.lft.to/lastmile_qr_scan", "android": "https://dc.lft.to/lastmile_qr_scan"}, "lon": -77.04378933333334, "type": "electric_scooter", "fusion_lat": 0.0, "lat": 38.92123316666667, "name": "9032d790468b7042cf1fd0b7dc05370c", "fusion_lon": 0.0, "bike_id": "9032d790468b7042cf1fd0b7dc05370c", "is_disabled": 0, "is_reserved": 0}, {"rental_uris": {"ios": "https://dc.lft.to/lastmile_qr_scan", "android": "https://dc.lft.to/lastmile_qr_scan"}, "lon": -77.031694, "type": "electric_scooter", "fusion_lat": 0.0, "lat": 38.917096, "name": "4d0a48f025195daabb8cde8159811389", "fusion_lon": 0.0, "bike_id": "4d0a48f025195daabb8cde8159811389", "is_disabled": 0, "is_reserved": 0}, {"rental_uris": {"ios": "https://dc.lft.to/lastmile_qr_scan", "android": "https://dc.lft.to/lastmile_qr_scan"},