{"data": {"bikes": [{"bike_id": "12d0a602e1b106b23f0a2e3b70b4de27", "fusion_lon": 0.0, "lon": -76.93185133333333, "name": "12d0a602e1b106b23f0a2e3b70b4de27", "is_disabled": 0, "rental_uris": {"android": "https://dc.lft.to/lastmile_qr_scan", "ios": "https://dc.lft.to/lastmile_qr_scan"}, "type": "electric_scooter", "lat": 38.8987635, "is_reserved": 0, "fusion_lat": 0.0}, {"bike_id": "c506518a6dc33cdd64f37ea1b27b1c5a", "fusion_lon": 0.0, "lon": -77.02414166666667, "name": "c506518a6dc33cdd64f37ea1b27b1c5a", "is_disabled": 0, "rental_uris": {"android": "https://dc.lft.to/lastmile_qr_scan", "ios": "https://dc.lft.to/lastmile_qr_scan"}, "type": "electric_scooter", "lat": 38.9219755, "is_reserved": 0, "fusion_lat": 0.0}, {"bike_id": "922375bd58514ad4cfa2e41acaafd7c3", "fusion_lon": 0.0, "lon": -77.0218855, "name": "922375bd58514ad4cfa2e41acaafd7c3", "is_disabled": 0, "rental_uris": {"android": "https://dc.lft.to/lastmile_qr_scan", "ios": "https://dc.lft.to/lastmile_qr_scan"}, "type": "electric_scooter", "lat": 38.9141775, "is_reserved": 0, "fusion_lat": 0.0}, {"bike_id": "f64f9f2f35657aa2fed63294ce143b97", "fusion_lon": 0.0, "lon": -77.0347905, "name": "f64f9f2f35657aa2fed63294ce143b97", "is_disabled": 0, "rental_uris": {"android": "https://dc.lft.to/lastmile_qr_scan", "ios": "https://dc.lft.to/lastmile_qr_scan"}, "type": "electric_scooter", "lat": 38.90867566666667, "is_reserved": 0, "fusion_lat": 0.0}, {"bike_id": "7490828a1ae96257faef60f37b1190eb", "fusion_lon": 0.0, "lon": -76.96537366666666, "name": "7490828a1ae96257faef60f37b1190eb", "is_disabled": 0, "rental_uris": {"android": "https://dc.lft.to/lastmile_qr_scan", "ios": "https://dc.lft.to/lastmile_qr_scan"}, "type": "electric_scooter", "lat": 38.918406166666664, "is_reserved": 0, "fusion_lat": 0.0}, {"bike_id": "1c335dadcea189a66a56714cd9c8dc38", "fusion_lon": 0.0, "lon": -77.02909083333333, "name": "1c335dadcea189a66a56714cd9c8dc38", "is_disabled": 0, "rental_uris": {"android": "https://dc.lft.to/lastmile_qr_scan", "ios": "https://dc.lft.to/lastmile_qr_scan"}, "type": "electric_scooter", "lat": 38.925692, "is_reserved": 0, "fusion_lat": 0.0}, {"bike_id": "68b8fb27bb5f919ac131e3689609ccc7", "fusion_lon": 0.0, "lon": -77.0236915, "name": "68b8fb27bb5f919ac131e3689609ccc7", "is_disabled": 0, "rental_uris": {"android": "https://dc.lft.to/lastmile_qr_scan", "ios": "https://dc.lft.to/lastmile_qr_scan"}, "type": "electric_scooter", "lat": 38.892184, "is_reserved": 0, "fusion_lat": 0.0}, {"bike_id": "6501b4d123b7ee6b5e5c121a93df1d43", "fusion_lon": 0.0, "lon": -77.007124, "name": "6501b4d123b7ee6b5e5c121a93df1d43", "is_disabled": 0, "rental_uris": {"android": "https://dc.lft.to/lastmile_qr_scan", "ios": "https://dc.lft.to/lastmile_qr_scan"}, "type": "electric_scooter", "lat": 38.89833333333333, "is_reserved": 0, "fusion_lat": 0.0}, {"bike_id": "fca7e996e2a1252867523c1668c66c8e", "fusion_lon": 0.0, "lon": -77.04077833333334, "name": "fca7e996e2a1252867523c1668c66c8e", "is_disabled": 0, "rental_uris": {"android": "https://dc.lft.to/lastmile_qr_scan", "ios": "https://dc.lft.to/lastmile_qr_scan"}, "type": "electric_scooter", "lat": 38.90497, "is_reserved": 0, "fusion_lat": 0.0}, {"bike_id": "37b5219b011830c4a09434ce3f332bd6", "fusion_lon": 0.0, "lon": -77.000703, "name": "37b5219b011830c4a09434ce3f332bd6", "is_disabled": 0, "rental_uris": {"android": "https://dc.lft.to/lastmile_qr_scan", "ios": "https://dc.lft.to/lastmile_qr_scan"}, "type": "electric_scooter", "lat": 38.92549966666667, "is_reserved": 0, "fusion_lat": 0.0}, {"bike_id": "88e2387abf1de2ba67ec97c805cbf61f", "fusion_lon": 0.0, "lon": -77.0093315, "name": "88e2387abf1de2ba67ec97c805cbf61f", "is_disabled": 0, "rental_uris": {"android": "https://dc.lft.to/lastmile_qr_scan", "ios": "https://dc.lft.to/lastmile_qr_scan"}, "type": "electric_scooter", "lat": 38.91817233333333, "is_reserved": 0, "fusion_lat": 0.0}, {"bike_id": "48476d62226557b880b372be39dcf5b2", "fusion_lon": 0.0, "lon": -77.1013065, "name": "48476d62226557b880b372be39dcf5b2", "is_disabled": 0, "rental_uris": {"android": "https://dc.lft.to/lastmile_qr_scan", "ios": "https://dc.lft.to/lastmile_qr_scan"}, "type": "electric_bike", "lat": 38.852089, "is_reserved": 0, "fusion_lat": 0.0}, {"bike_id": "af3529435be8cfaaf1fa948c0f51d2d0", "fusion_lon": 0.0, "lon": -77.03217666666667, "name": "af3529435be8cfaaf1fa948c0f51d2d0", "is_disabled": 0, "rental_uris": {"android": "https://dc.lft.to/lastmile_qr_scan", "ios": "https://dc.lft.to/lastmile_qr_scan"}, "type": "electric_scooter", "lat": 38.91559083333333, "is_reserved": 0, "fusion_lat": 0.0}, {"bike_id": "62f3487b0dc91cd3784f9ad213a79a59", "fusion_lon": 0.0, "lon": -77.02310016666667, "name": "62f3487b0dc91cd3784f9ad213a79a59", "is_disabled": 0, "rental_uris": {"android": "https://dc.lft.to/lastmile_qr_scan", "ios": "https://dc.lft.to/lastmile_qr_scan"}, "type": "electric_scooter", "lat": 38.90959616666667, "is_reserved": 0, "fusion_lat": 0.0}, {"bike_id": "27df37e14a67c46cd071c7a323e5e435", "fusion_lon": 0.0, "lon": -77.0299025, "name": "27df37e14a67c46cd071c7a323e5e435", "is_disabled": 0, "rental_uris": {"android": "https://dc.lft.to/lastmile_qr_scan", "ios": "https://dc.lft.to/lastmile_qr_scan"}, "type": "electric_scooter", "lat": 38.93444933333333, "is_reserved": 0, "fusion_lat": 0.0}, {"bike_id": "349b0e684fb7e1b238c26ce7dd9461b4", "fusion_lon": 0.0, "lon": -77.027132, "name": "349b0e684fb7e1b238c26ce7dd9461b4", "is_disabled": 0, "rental_uris": {"android": "https://dc.lft.to/lastmile_qr_scan", "ios": "https://dc.lft.to/lastmile_qr_scan"}, "type": "electric_scooter", "lat": 38.90667533333333, "is_reserved": 0, "fusion_lat": 0.0}, {"bike_id": "2ad077833ab96fbc9608b11dbe5b7671", "fusion_lon": 0.0, "lon": -77.0772145, "name": "2ad077833ab96fbc9608b11dbe5b7671", "is_disabled": 0, "rental_uris": {"android": "https://dc.lft.to/lastmile_qr_scan", "ios": "https://dc.lft.to/lastmile_qr_scan"}, "type": "electric_scooter", "lat": 38.95767, "is_reserved": 0, "fusion_lat": 0.0}, {"bike_id": "e23d51245ca35fe0fce7cb0033f928cf", "fusion_lon": 0.0, "lon": -77.0235025, "name": "e23d51245ca35fe0fce7cb0033f928cf", "is_disabled": 0, "rental_uris": {"android": "https://dc.lft.to/lastmile_qr_scan", "ios": "https://dc.lft.to/lastmile_qr_scan"}, "type": "electric_scooter", "lat": 38.946152833333336, "is_reserved": 0, "fusion_lat": 0.0}, {"bike_id": "c796ab2eca8e72c910f23db67ef07392", "fusion_lon": 0.0, "lon": -76.988452, "name": "c796ab2eca8e72c910f23db67ef07392", "is_disabled": 0, "rental_uris": {"android": "https://dc.lft.to/lastmile_qr_scan", "ios": "https://dc.lft.to/lastmile_qr_scan"}, "type": "electric_scooter", "lat": 38.8925545, "is_reserved": 0, "fusion_lat": 0.0}, {"bike_id": "5d99e7f69eec8a51b4f39a43adc6dc3c", "fusion_lon": 0.0, "lon": -77.03267366666667, "name": "5d99e7f69eec8a51b4f39a43adc6dc3c", "is_disabled": 0, "rental_uris": {"android": "https://dc.lft.to/lastmile_qr_scan", "ios": "https://dc.lft.to/lastmile_qr_scan"}, "type": "electric_scooter", "lat": 38.91413333333333, "is_reserved": 0, "fusion_lat": 0.0}, {"bike_id": "516b32bcce93a64abaa6aa74895b70fc", "fusion_lon": 0.0, "lon": -77.02488566666666, "name": "516b32bcce93a64abaa6aa74895b70fc", "is_disabled": 0, "rental_uris": {"android": "https://dc.lft.to/lastmile_qr_scan", "ios": "https://dc.lft.to/lastmile_qr_scan"}, "type": "electric_scooter", "lat": 38.9040245, "is_reserved": 0, "fusion_lat": 0.0}, {"bike_id": "bdcc7cd5b3e6edf449e4ccf32d0d4045", "fusion_lon": 0.0, "lon": -76.98715716666666, "name": "bdcc7cd5b3e6edf449e4ccf32d0d4045", "is_disabled": 0, "rental_uris": {"android": "https://dc.lft.to/lastmile_qr_scan", "ios": "https://dc.lft.to/lastmile_qr_scan"}, "type": "electric_scooter", "lat": 38.8669655, "is_reserved": 0, "fusion_lat": 0.0}, {"bike_id": "599d1d2efbe198fad2edfa6f48672f34", "fusion_lon": 0.0, "lon": -77.02099233333334, "name": "599d1d2efbe198fad2edfa6f48672f34", "is_disabled": 0, "rental_uris": {"android": "https://dc.lft.to/lastmile_qr_scan", "ios": "https://dc.lft.to/lastmile_qr_scan"}, "type": "electric_scooter", "lat": 38.93117083333333, "is_reserved": 0, "fusion_lat": 0.0}, {"bike_id": "e081c633f40932cb77bf08f421129da3", "fusion_lon": 0.0, "lon": -77.03917683333333, "name": "e081c633f40932cb77bf08f421129da3", "is_disabled": 0, "rental_uris": {"android": "https://dc.lft.to/lastmile_qr_scan", "ios": "https://dc.lft.to/lastmile_qr_scan"}, "type": "electric_scooter", "lat": 38.924728333333334, "is_reserved": 0, "fusion_lat": 0.0}, {"bike_id": "95f2d489cadbb7cff7133cdc3f4e3967", "fusion_lon": 0.0, "lon": -77.01455166666666, "name": "95f2d489cadbb7cff7133cdc3f4e3967", "is_disabled": 0, "rental_uris": {"android": "https://dc.lft.to/lastmile_qr_scan", "ios": "https://dc.lft.to/lastmile_qr_scan"}, "type": "electric_scooter", "lat": 38.91829516666667, "is_reserved": 0, "fusion_lat": 0.0}, {"bike_id": "7eef4e9999b63af1abcc1ee462015893", "fusion_lon": 0.0, "lon": -77.016822, "name": "7eef4e9999b63af1abcc1ee462015893", "is_disabled": 0, "rental_uris": {"android": "https://dc.lft.to/lastmile_qr_scan", "ios": "https://dc.lft.to/lastmile_qr_scan"}, "type": "electric_scooter", "lat": 38.881230333333335, "is_reserved": 0, "fusion_lat": 0.0}, {"bike_id": "8663c34a2d77244db65daffb38a21228", "fusion_lon": 0.0, "lon": -77.01209716666666, "name": "8663c34a2d77244db65daffb38a21228", "is_disabled": 0, "rental_uris": {"android": "https://dc.lft.to/lastmile_qr_scan", "ios": "https://dc.lft.to/lastmile_qr_scan"}, "type": "electric_scooter", "lat": 38.870907833333334, "is_reserved": 0, "fusion_lat": 0.0}, {"bike_id": "34c894d7376ba650f054f1b12a0d03b9", "fusion_lon": 0.0, "lon": -77.0321165, "name": "34c894d7376ba650f054f1b12a0d03b9", "is_disabled": 0, "rental_uris": {"android": "https://dc.lft.to/lastmile_qr_scan", "ios": "https://dc.lft.to/lastmile_qr_scan"}, "type": "electric_bike", "lat": 38.93315183333333, "is_reserved": 0, "fusion_lat": 0.0}, {"bike_id": "ab076e5aad38cb1d005cc6c95a213c2c", "fusion_lon": 0.0, "lon": -76.99396833333333, "name": "ab076e5aad38cb1d005cc6c95a213c2c", "is_disabled": 0, "rental_uris": {"android": "https://dc.lft.to/lastmile_qr_scan", "ios": "https://dc.lft.to/lastmile_qr_scan"}, "type": "electric_scooter", "lat": 38.92169116666667, "is_reserved": 0, "fusion_lat": 0.0}, {"bike_id": "6d42f2e4f731eb2eae8ae86801ffe56d", "fusion_lon": 0.0, "lon": -77.00889466666666, "name": "6d42f2e4f731eb2eae8ae86801ffe56d", "is_disabled": 0, "rental_uris": {"android": "https://dc.lft.to/lastmile_qr_scan", "ios": "https://dc.lft.to/lastmile_qr_scan"}, "type": "electric_scooter", "lat": 38.924866333333334, "is_reserved": 0, "fusion_lat": 0.0}, {"bike_id": "36dd5555f2b50480e683b1113f65d0a6", "fusion_lon": 0.0, "lon": -77.04538033333333, "name": "36dd5555f2b50480e683b1113f65d0a6", "is_disabled": 0, "rental_uris": {"android": "https://dc.lft.to/lastmile_qr_scan", "ios": "https://dc.lft.to/lastmile_qr_scan"}, "type": "electric_scooter", "lat": 38.9132915, "is_reserved": 0, "fusion_lat": 0.0}, {"bike_id": "38032a0e5f6633e4ce394c699de373d5", "fusion_lon": 0.0, "lon": -76.99869266666667, "name": "38032a0e5f6633e4ce394c699de373d5", "is_disabled": 0, "rental_uris": {"android": "https://dc.lft.to/lastmile_qr_scan", "ios": "https://dc.lft.to/lastmile_qr_scan"}, "type": "electric_scooter", "lat": 38.90025633333333, "is_reserved": 0, "fusion_lat": 0.0}, {"bike_id": "92030a2293058bf8c7620dc544bbecc2", "fusion_lon": 0.0, "lon": -77.03499016666666, "name": "92030a2293058bf8c7620dc544bbecc2", "is_disabled": 0, "rental_uris": {"android": "https://dc.lft.to/lastmile_qr_scan", "ios": "https://dc.lft.to/lastmile_qr_scan"}, "type": "electric_bike", "lat": 38.9375715, "is_reserved": 0, "fusion_lat": 0.0}, {"bike_id": "b5947a852846def2b055090d44cff741", "fusion_lon": 0.0, "lon": -76.982728, "name": "b5947a852846def2b055090d44cff741", "is_disabled": 0, "rental_uris": {"android": "https://dc.lft.to/lastmile_qr_scan", "ios": "https://dc.lft.to/lastmile_qr_scan"}, "type": "electric_scooter", "lat": 38.904301, "is_reserved": 0, "fusion_lat": 0.0}, {"bike_id": "14b6eeb6eae03e1f4aa435cdff54cefb", "fusion_lon": 0.0, "lon": -77.0225865, "name": "14b6eeb6eae03e1f4aa435cdff54cefb", "is_disabled": 0, "rental_uris": {"android": "https://dc.lft.to/lastmile_qr_scan", "ios": "https://dc.lft.to/lastmile_qr_scan"}, "type": "electric_scooter", "lat": 38.923080166666665, "is_reserved": 0, "fusion_lat": 0.0}, {"bike_id": "71f9426f32031f674068d74e524ab833", "fusion_lon": 0.0, "lon": -77.041585, "name": "71f9426f32031f674068d74e524ab833", "is_disabled": 0, "rental_uris": {"android": "https://dc.lft.to/lastmile_qr_scan", "ios": "https://dc.lft.to/lastmile_qr_scan"}, "type": "electric_scooter", "lat": 38.91652166666667, "is_reserved": 0, "fusion_lat": 0.0}, {"bike_id": "65561df43cf1aff525cea1ed84b56740", "fusion_lon": 0.0, "lon": -77.02710333333333, "name": "65561df43cf1aff525cea1ed84b56740", "is_disabled": 0, "rental_uris": {"android": "https://dc.lft.to/lastmile_qr_scan", "ios": "https://dc.lft.to/lastmile_qr_scan"}, "type": "electric_scooter", "lat": 38.8961315, "is_reserved": 0, "fusion_lat": 0.0}, {"bike_id": "60365483c685f2348070b761e4c5e3f3", "fusion_lon": 0.0, "lon": -76.99554916666666, "name": "60365483c685f2348070b761e4c5e3f3", "is_disabled": 0, "rental_uris": {"android": "https://dc.lft.to/lastmile_qr_scan", "ios": "https://dc.lft.to/lastmile_qr_scan"}, "type": "electric_scooter", "lat": 38.8826785, "is_reserved": 0, "fusion_lat": 0.0}, {"bike_id": "ee861551d828e9fd96557175243aa18d", "fusion_lon": 0.0, "lon": -76.99784683333333, "name": "ee861551d828e9fd96557175243aa18d", "is_disabled": 0, "rental_uris": {"android": "https://dc.lft.to/lastmile_qr_scan", "ios": "https://dc.lft.to/lastmile_qr_scan"}, "type": "electric_scooter", "lat": 38.84429266666667, "is_reserved": 0, "fusion_lat": 0.0}, {"bike_id": "24c3bcc40143c1d6eaa51883235054b0", "fusion_lon": 0.0, "lon": -76.98314283333333, "name": "24c3bcc40143c1d6eaa51883235054b0", "is_disabled": 0, "rental_uris": {"android": "https://dc.lft.to/lastmile_qr_scan", "ios": "https://dc.lft.to/lastmile_qr_scan"}, "type": "electric_scooter", "lat": 38.86893, "is_reserved": 0, "fusion_lat": 0.0}, {"bike_id": "bb68d702e483e8d38813fe34a9d8fbfe", "fusion_lon": 0.0, "lon": -77.0435495, "name": "bb68d702e483e8d38813fe34a9d8fbfe", "is_disabled": 0, "rental_uris": {"android": "https://dc.lft.to/lastmile_qr_scan", "ios": "https://dc.lft.to/lastmile_qr_scan"}, "type": "electric_scooter", "lat": 38.9214925, "is_reserved": 0, "fusion_lat": 0.0}, {"bike_id": "12ad4dda3f14a0d2b2524d1dcdaa00ed", "fusion_lon": 0.0, "lon": -77.03237416666667, "name": "12ad4dda3f14a0d2b2524d1dcdaa00ed", "is_disabled": 0, "rental_uris": {"android": "https://dc.lft.to/lastmile_qr_scan", "ios": "https://dc.lft.to/lastmile_qr_scan"}, "type": "electric_scooter", "lat": 38.9202075, "is_reserved": 0, "fusion_lat": 0.0}, {"bike_id": "770093aea79cc2c71677aeb9fd280d19", "fusion_lon": 0.0, "lon": -77.02766716666666, "name": "770093aea79cc2c71677aeb9fd280d19", "is_disabled": 0, "rental_uris": {"android": "https://dc.lft.to/lastmile_qr_scan", "ios": "https://dc.lft.to/lastmile_qr_scan"}, "type": "electric_scooter", "lat": 38.95612466666667, "is_reserved": 0, "fusion_lat": 0.0}, {"bike_id": "f50fe80c87a6b1ac563fe770e91f5b05", "fusion_lon": 0.0, "lon": -76.98514616666667, "name": "f50fe80c87a6b1ac563fe770e91f5b05", "is_disabled": 0, "rental_uris": {"android": "https://dc.lft.to/lastmile_qr_scan", "ios": "https://dc.lft.to/lastmile_qr_scan"}, "type": "electric_scooter", "lat": 38.866668833333335, "is_reserved": 0, "fusion_lat": 0.0}, {"bike_id": "15dcfb76ceb3300db42cf09cd57120e3", "fusion_lon": 0.0, "lon": -77.05693583333333, "name": "15dcfb76ceb3300db42cf09cd57120e3", "is_disabled": 0, "rental_uris": {"android": "https://dc.lft.to/lastmile_qr_scan", "ios": "https://dc.lft.to/lastmile_qr_scan"}, "type": "electric_bike", "lat": 38.93527483333333, "is_reserved": 0, "fusion_lat": 0.0}, {"bike_id": "8117b7e23dc9c800071d584645c7bdd6", "fusion_lon": 0.0, "lon": -77.03054933333334, "name": "8117b7e23dc9c800071d584645c7bdd6", "is_disabled": 0, "rental_uris": {"android": "https://dc.lft.to/lastmile_qr_scan", "ios": "https://dc.lft.to/lastmile_qr_scan"}, "type": "electric_scooter", "lat": 38.883833333333335, "is_reserved": 0, "fusion_lat": 0.0}, {"bike_id": "fd04ddb92f6a740b0313ca9e8418e6fa", "fusion_lon": 0.0, "lon": -77.02942433333334, "name": "fd04ddb92f6a740b0313ca9e8418e6fa", "is_disabled": 0, "rental_uris": {"android": "https://dc.lft.to/lastmile_qr_scan", "ios": "https://dc.lft.to/lastmile_qr_scan"}, "type": "electric_scooter", "lat": 38.90491866666667, "is_reserved": 0, "fusion_lat": 0.0}, {"bike_id": "40cf99987a0540bc1fbed3aad9005b95", "fusion_lon": 0.0, "lon": -77.034815, "name": "40cf99987a0540bc1fbed3aad9005b95", "is_disabled": 0, "rental_uris": {"android": "https://dc.lft.to/lastmile_qr_scan", "ios": "https://dc.lft.to/lastmile_qr_scan"}, "type": "electric_scooter", "lat": 38.923472, "is_reserved": 0, "fusion_lat": 0.0}, {"bike_id": "4a500c8003a5ecd91e484dbb4961f7b7", "fusion_lon": 0.0, "lon": -77.03347866666667, "name": "4a500c8003a5ecd91e484dbb4961f7b7", "is_disabled": 0, "rental_uris": {"android": "https://dc.lft.to/lastmile_qr_scan", "ios": "https://dc.lft.to/lastmile_qr_scan"}, "type": "electric_scooter", "lat": 38.941813833333335, "is_reserved": 0, "fusion_lat": 0.0}, {"bike_id": "8996d32b7aa31eef72255c91d448e686", "fusion_lon": 0.0, "lon": -77.02154733333333, "name": "8996d32b7aa31eef72255c91d448e686", "is_disabled": 0, "rental_uris": {"android": "https://dc.lft.to/lastmile_qr_scan", "ios": "https://dc.lft.to/lastmile_qr_scan"}, "type": "electric_scooter", "lat": 38.884914, "is_reserved": 0, "fusion_lat": 0.0}, {"bike_id": "3837712355ace7045c762937e588e2bf", "fusion_lon": 0.0, "lon": -77.02325466666667, "name": "3837712355ace7045c762937e588e2bf", "is_disabled": 0, "rental_uris": {"android": "https://dc.lft.to/lastmile_qr_scan", "ios": "https://dc.lft.to/lastmile_qr_scan"}, "type": "electric_scooter", "lat": 38.90714966666667, "is_reserved": 0, "fusion_lat": 0.0}, {"bike_id": "083eefdcb92baad8539ffeea376bbe90", "fusion_lon": 0.0, "lon": -76.98795983333333, "name": "083eefdcb92baad8539ffeea376bbe90", "is_disabled": 0, "rental_uris": {"android": "https://dc.lft.to/lastmile_qr_scan", "ios": "https://dc.lft.to/lastmile_qr_scan"}, "type": "electric_bike", "lat": 38.92211733333333, "is_reserved": 0, "fusion_lat": 0.0}, {"bike_id": "0ef5e4c255c97d54b8e4880764a08533", "fusion_lon": 0.0, "lon": -77.02573383333333, "name": "0ef5e4c255c97d54b8e4880764a08533", "is_disabled": 0, "rental_uris": {"android": "https://dc.lft.to/lastmile_qr_scan", "ios": "https://dc.lft.to/lastmile_qr_scan"}, "type": "electric_scooter", "lat": 38.8923305, "is_reserved": 0, "fusion_lat": 0.0}, {"bike_id": "2cb96c8b32430ff1a742845837a81ee1", "fusion_lon": 0.0, "lon": -76.98518183333333, "name": "2cb96c8b32430ff1a742845837a81ee1", "is_disabled": 0, "rental_uris": {"android": "https://dc.lft.to/lastmile_qr_scan", "ios": "https://dc.lft.to/lastmile_qr_scan"}, "type": "electric_scooter", "lat": 38.8666775, "is_reserved": 0, "fusion_lat": 0.0}, {"bike_id": "99461f5ce55feaf8c137674358458e3a", "fusion_lon": 0.0, "lon": -77.012041, "name": "99461f5ce55feaf8c137674358458e3a", "is_disabled": 0, "rental_uris": {"android": "https://dc.lft.to/lastmile_qr_scan", "ios": "https://dc.lft.to/lastmile_qr_scan"}, "type": "electric_scooter", "lat": 38.9001615, "is_reserved": 0, "fusion_lat": 0.0}, {"bike_id": "a71b9bade1d72c15c89d850216bf1c72", "fusion_lon": 0.0, "lon": -77.026899, "name": "a71b9bade1d72c15c89d850216bf1c72", "is_disabled": 0, "rental_uris": {"android": "https://dc.lft.to/lastmile_qr_scan", "ios": "https://dc.lft.to/lastmile_qr_scan"}, "type": "electric_scooter", "lat": 38.8812535, "is_reserved": 0, "fusion_lat": 0.0}, {"bike_id": "8593698fc009080559ce9c7c768075cc", "fusion_lon": 0.0, "lon": -76.927374, "name": "8593698fc009080559ce9c7c768075cc", "is_disabled": 0, "rental_uris": {"android": "https://dc.lft.to/lastmile_qr_scan", "ios": "https://dc.lft.to/lastmile_qr_scan"}, "type": "electric_scooter", "lat": 38.889651, "is_reserved": 0, "fusion_lat": 0.0}, {"bike_id": "245f257e0692c800fef4402a00fac57d", "fusion_lon": 0.0, "lon": -77.0217545, "name": "245f257e0692c800fef4402a00fac57d", "is_disabled": 0, "rental_uris": {"android": "https://dc.lft.to/lastmile_qr_scan", "ios": "https://dc.lft.to/lastmile_qr_scan"}, "type": "electric_scooter", "lat": 38.94603433333333, "is_reserved": 0, "fusion_lat": 0.0}, {"bike_id": "bdd3c2da7e3443612201c117808e5e6d", "fusion_lon": 0.0, "lon": -77.031002, "name": "bdd3c2da7e3443612201c117808e5e6d", "is_disabled": 0, "rental_uris": {"android": "https://dc.lft.to/lastmile_qr_scan", "ios": "https://dc.lft.to/lastmile_qr_scan"}, "type": "electric_scooter", "lat": 38.923796, "is_reserved": 0, "fusion_lat": 0.0}, {"bike_id": "6563408b4ca8ac07bc4bcb812e492dee", "fusion_lon": 0.0, "lon": -76.9315735, "name": "6563408b4ca8ac07bc4bcb812e492dee", "is_disabled": 0, "rental_uris": {"android": "https://dc.lft.to/lastmile_qr_scan", "ios": "https://dc.lft.to/lastmile_qr_scan"}, "type": "electric_scooter", "lat": 38.8988095, "is_reserved": 0, "fusion_lat": 0.0}, {"bike_id": "d4de07251a0aa88c297db3fbc67cedba", "fusion_lon": 0.0, "lon": -77.00115266666667, "name": "d4de07251a0aa88c297db3fbc67cedba", "is_disabled": 0, "rental_uris": {"android": "https://dc.lft.to/lastmile_qr_scan", "ios": "https://dc.lft.to/lastmile_qr_scan"}, "type": "electric_scooter", "lat": 38.917070833333334, "is_reserved": 0, "fusion_lat": 0.0}, {"bike_id": "cc70ec91638b5d70da8b0f966f349a98", "fusion_lon": 0.0, "lon": -77.00199833333333, "name": "cc70ec91638b5d70da8b0f966f349a98", "is_disabled": 0, "rental_uris": {"android": "https://dc.lft.to/lastmile_qr_scan", "ios": "https://dc.lft.to/lastmile_qr_scan"}, "type": "electric_scooter", "lat": 38.90037866666667, "is_reserved": 0, "fusion_lat": 0.0}, {"bike_id": "e88f955bdea424c58d22b5db1ea0c6bc", "fusion_lon": 0.0, "lon": -77.057468, "name": "e88f955bdea424c58d22b5db1ea0c6bc", "is_disabled": 0, "rental_uris": {"android": "https://dc.lft.to/lastmile_qr_scan", "ios": "https://dc.lft.to/lastmile_qr_scan"}, "type": "electric_scooter", "lat": 38.92575816666667, "is_reserved": 0, "fusion_lat": 0.0}, {"bike_id": "7001dab861bd4394f3d4c52f597bdf03", "fusion_lon": 0.0, "lon": -77.0323515, "name": "7001dab861bd4394f3d4c52f597bdf03", "is_disabled": 0, "rental_uris": {"android": "https://dc.lft.to/lastmile_qr_scan", "ios": "https://dc.lft.to/lastmile_qr_scan"}, "type": "electric_scooter", "lat": 38.92759316666667, "is_reserved": 0, "fusion_lat": 0.0}, {"bike_id": "54d293edf43613d2188a38d7c5a921ce", "fusion_lon": 0.0, "lon": -77.01211083333334, "name": "54d293edf43613d2188a38d7c5a921ce", "is_disabled": 0, "rental_uris": {"android": "https://dc.lft.to/lastmile_qr_scan", "ios": "https://dc.lft.to/lastmile_qr_scan"}, "type": "electric_scooter", "lat": 38.91718933333333, "is_reserved": 0, "fusion_lat": 0.0}, {"bike_id": "a103fd448741291edecb3c83652a5cf7", "fusion_lon": 0.0, "lon": -77.0732705, "name": "a103fd448741291edecb3c83652a5cf7", "is_disabled": 0, "rental_uris": {"android": "https://dc.lft.to/lastmile_qr_scan", "ios": "https://dc.lft.to/lastmile_qr_scan"}, "type": "electric_scooter", "lat": 38.92565583333333, "is_reserved": 0, "fusion_lat": 0.0}, {"bike_id": "f05a4b2a8923b9bd7c001dba5e5e5b43", "fusion_lon": 0.0, "lon": -76.974779, "name": "f05a4b2a8923b9bd7c001dba5e5e5b43", "is_disabled": 0, "rental_uris": {"android": "https://dc.lft.to/lastmile_qr_scan", "ios": "https://dc.lft.to/lastmile_qr_scan"}, "type": "electric_scooter", "lat": 38.9035315, "is_reserved": 0, "fusion_lat": 0.0}, {"bike_id": "425cfcb2fb1d8989a7d47b1bd240c844", "fusion_lon": 0.0, "lon": -77.01397883333334, "name": "425cfcb2fb1d8989a7d47b1bd240c844", "is_disabled": 0, "rental_uris": {"android": "https://dc.lft.to/lastmile_qr_scan", "ios": "https://dc.lft.to/lastmile_qr_scan"}, "type": "electric_scooter", "lat": 38.881279666666664, "is_reserved": 0, "fusion_lat": 0.0}, {"bike_id": "983d634d067cb924a23d95a480a1adce", "fusion_lon": 0.0, "lon": -77.02097683333334, "name": "983d634d067cb924a23d95a480a1adce", "is_disabled": 0, "rental_uris": {"android": "https://dc.lft.to/lastmile_qr_scan", "ios": "https://dc.lft.to/lastmile_qr_scan"}, "type": "electric_scooter", "lat": 38.92210566666667, "is_reserved": 0, "fusion_lat": 0.0}, {"bike_id": "33d4e36de6983382c7e94184f9688839", "fusion_lon": 0.0, "lon": -77.02224266666667, "name": "33d4e36de6983382c7e94184f9688839", "is_disabled": 0, "rental_uris": {"android": "https://dc.lft.to/lastmile_qr_scan", "ios": "https://dc.lft.to/lastmile_qr_scan"}, "type": "electric_scooter", "lat": 38.892223666666666, "is_reserved": 0, "fusion_lat": 0.0}, {"bike_id": "1c17e30b97ff269d712b92e794cfc24a", "fusion_lon": 0.0, "lon": -77.0143805, "name": "1c17e30b97ff269d712b92e794cfc24a", "is_disabled": 0, "rental_uris": {"android": "https://dc.lft.to/lastmile_qr_scan", "ios": "https://dc.lft.to/lastmile_qr_scan"}, "type": "electric_scooter", "lat": 38.91973566666667, "is_reserved": 0, "fusion_lat": 0.0}, {"bike_id": "76e97fd10b7e0e3037eea008875442e1", "fusion_lon": 0.0, "lon": -77.0288905, "name": "76e97fd10b7e0e3037eea008875442e1", "is_disabled": 0, "rental_uris": {"android": "https://dc.lft.to/lastmile_qr_scan", "ios": "https://dc.lft.to/lastmile_qr_scan"}, "type": "electric_scooter", "lat": 38.939852, "is_reserved": 0, "fusion_lat": 0.0}, {"bike_id": "0e9ff97f76c636a8354135373079fcc5", "fusion_lon": 0.0, "lon": -77.04128433333334, "name": "0e9ff97f76c636a8354135373079fcc5", "is_disabled": 0, "rental_uris": {"android": "https://dc.lft.to/lastmile_qr_scan", "ios": "https://dc.lft.to/lastmile_qr_scan"}, "type": "electric_scooter", "lat": 38.9095745, "is_reserved": 0, "fusion_lat": 0.0}, {"bike_id": "dc9967fca6bc7ffdade7e6596e866cdc", "fusion_lon": 0.0, "lon": -77.00876, "name": "dc9967fca6bc7ffdade7e6596e866cdc", "is_disabled": 0, "rental_uris": {"android": "https://dc.lft.to/lastmile_qr_scan", "ios": "https://dc.lft.to/lastmile_qr_scan"}, "type": "electric_scooter", "lat": 38.881811, "is_reserved": 0, "fusion_lat": 0.0}, {"bike_id": "c38a3de855407338518c5946919e32a3", "fusion_lon": 0.0, "lon": -77.04408033333333, "name": "c38a3de855407338518c5946919e32a3", "is_disabled": 0, "rental_uris": {"android": "https://dc.lft.to/lastmile_qr_scan", "ios": "https://dc.lft.to/lastmile_qr_scan"}, "type": "electric_scooter", "lat": 38.901451, "is_reserved": 0, "fusion_lat": 0.0}, {"bike_id": "bcc1a4665243d23a8681d2aeb8d2d9b8", "fusion_lon": 0.0, "lon": -76.98177433333333, "name": "bcc1a4665243d23a8681d2aeb8d2d9b8", "is_disabled": 0, "rental_uris": {"android": "https://dc.lft.to/lastmile_qr_scan", "ios": "https://dc.lft.to/lastmile_qr_scan"}, "type": "electric_bike", "lat": 38.84629983333333, "is_reserved": 0, "fusion_lat": 0.0}, {"bike_id": "aa72d6a213be2116bec3fd52ee3941af", "fusion_lon": 0.0, "lon": -77.0153595, "name": "aa72d6a213be2116bec3fd52ee3941af", "is_disabled": 0, "rental_uris": {"android": "https://dc.lft.to/lastmile_qr_scan", "ios": "https://dc.lft.to/lastmile_qr_scan"}, "type": "electric_scooter", "lat": 38.88739416666667, "is_reserved": 0, "fusion_lat": 0.0}, {"bike_id": "8d08434de67b022b17374989780cff56", "fusion_lon": 0.0, "lon": -77.03703733333333, "name": "8d08434de67b022b17374989780cff56", "is_disabled": 0, "rental_uris": {"android": "https://dc.lft.to/lastmile_qr_scan", "ios": "https://dc.lft.to/lastmile_qr_scan"}, "type": "electric_scooter", "lat": 38.92610116666667, "is_reserved": 0, "fusion_lat": 0.0}, {"bike_id": "005491175b7de38b940fc5ecfca8135d", "fusion_lon": 0.0, "lon": -76.985718, "name": "005491175b7de38b940fc5ecfca8135d", "is_disabled": 0, "rental_uris": {"android": "https://dc.lft.to/lastmile_qr_scan", "ios": "https://dc.lft.to/lastmile_qr_scan"}, "type": "electric_scooter", "lat": 38.906453666666664, "is_reserved": 0, "fusion_lat": 0.0}, {"bike_id": "0b26eb5d4718ac0fdb6b5d371e9b1578", "fusion_lon": 0.0, "lon": -77.057572, "name": "0b26eb5d4718ac0fdb6b5d371e9b1578", "is_disabled": 0, "rental_uris": {"android": "https://dc.lft.to/lastmile_qr_scan", "ios": "https://dc.lft.to/lastmile_qr_scan"}, "type": "electric_scooter", "lat": 38.92461083333333, "is_reserved": 0, "fusion_lat": 0.0}, {"bike_id": "fd0f79ad6f488186c524e046cb0bfe7c", "fusion_lon": 0.0, "lon": -77.03319716666667, "name": "fd0f79ad6f488186c524e046cb0bfe7c", "is_disabled": 0, "rental_uris": {"android": "https://dc.lft.to/lastmile_qr_scan", "ios": "https://dc.lft.to/lastmile_qr_scan"}, "type": "electric_scooter", "lat": 38.92155, "is_reserved": 0, "fusion_lat": 0.0}, {"bike_id": "7ed3aa5aabf24c615237869d550eefab", "fusion_lon": 0.0, "lon": -77.01772866666667, "name": "7ed3aa5aabf24c615237869d550eefab", "is_disabled": 0, "rental_uris": {"android": "https://dc.lft.to/lastmile_qr_scan", "ios": "https://dc.lft.to/lastmile_qr_scan"}, "type": "electric_scooter", "lat": 38.881402333333334, "is_reserved": 0, "fusion_lat": 0.0}, {"bike_id": "119cf6d4bff4e042793d4e3e12679f33", "fusion_lon": 0.0, "lon": -77.02172116666667, "name": "119cf6d4bff4e042793d4e3e12679f33", "is_disabled": 0, "rental_uris": {"android": "https://dc.lft.to/lastmile_qr_scan", "ios": "https://dc.lft.to/lastmile_qr_scan"}, "type": "electric_scooter", "lat": 38.912914, "is_reserved": 0, "fusion_lat": 0.0}, {"bike_id": "24abdbe1a3e602791955565680c62c95", "fusion_lon": 0.0, "lon": -77.0318115, "name": "24abdbe1a3e602791955565680c62c95", "is_disabled": 0, "rental_uris": {"android": "https://dc.lft.to/lastmile_qr_scan", "ios": "https://dc.lft.to/lastmile_qr_scan"}, "type": "electric_scooter", "lat": 38.90950933333333, "is_reserved": 0, "fusion_lat": 0.0}, {"bike_id": "667d396222f8b857bcef9039c6bafc2b", "fusion_lon": 0.0, "lon": -76.99427283333333, "name": "667d396222f8b857bcef9039c6bafc2b", "is_disabled": 0, "rental_uris": {"android": "https://dc.lft.to/lastmile_qr_scan", "ios": "https://dc.lft.to/lastmile_qr_scan"}, "type": "electric_scooter", "lat": 38.86183, "is_reserved": 0, "fusion_lat": 0.0}, {"bike_id": "3c8893778328120b6a392501fed471bb", "fusion_lon": 0.0, "lon": -77.0503615, "name": "3c8893778328120b6a392501fed471bb", "is_disabled": 0, "rental_uris": {"android": "https://dc.lft.to/lastmile_qr_scan", "ios": "https://dc.lft.to/lastmile_qr_scan"}, "type": "electric_scooter", "lat": 38.89284333333333, "is_reserved": 0, "fusion_lat": 0.0}, {"bike_id": "694b9b3cb2694997f4573d44936082b5", "fusion_lon": 0.0, "lon": -77.01950616666667, "name": "694b9b3cb2694997f4573d44936082b5", "is_disabled": 0, "rental_uris": {"android": "https://dc.lft.to/lastmile_qr_scan", "ios": "https://dc.lft.to/lastmile_qr_scan"}, "type": "electric_scooter", "lat": 38.92413416666667, "is_reserved": 0, "fusion_lat": 0.0}, {"bike_id": "c09bb97b9c81983826f0adde52849684", "fusion_lon": 0.0, "lon": -77.04512433333333, "name": "c09bb97b9c81983826f0adde52849684", "is_disabled": 0, "rental_uris": {"android": "https://dc.lft.to/lastmile_qr_scan", "ios": "https://dc.lft.to/lastmile_qr_scan"}, "type": "electric_scooter", "lat": 38.886062833333334, "is_reserved": 0, "fusion_lat": 0.0}, {"bike_id": "a6df6079379d6a226affdd5bfd5358df", "fusion_lon": 0.0, "lon": -77.01970466666667, "name": "a6df6079379d6a226affdd5bfd5358df", "is_disabled": 0, "rental_uris": {"android": "https://dc.lft.to/lastmile_qr_scan", "ios": "https://dc.lft.to/lastmile_qr_scan"}, "type": "electric_scooter", "lat": 38.87843083333333, "is_reserved": 0, "fusion_lat": 0.0}, {"bike_id": "a32f8fda35506a421b6fc7b30ad7b1f3", "fusion_lon": 0.0, "lon": -77.04904333333333, "name": "a32f8fda35506a421b6fc7b30ad7b1f3", "is_disabled": 0, "rental_uris": {"android": "https://dc.lft.to/lastmile_qr_scan", "ios": "https://dc.lft.to/lastmile_qr_scan"}, "type": "electric_scooter", "lat": 38.889995, "is_reserved": 0, "fusion_lat": 0.0}, {"bike_id": "18c64d35f0d5283a014ba5fc76be7d91", "fusion_lon": 0.0, "lon": -77.060007, "name": "18c64d35f0d5283a014ba5fc76be7d91", "is_disabled": 0, "rental_uris": {"android": "https://dc.lft.to/lastmile_qr_scan", "ios": "https://dc.lft.to/lastmile_qr_scan"}, "type": "electric_scooter", "lat": 38.93827566666667, "is_reserved": 0, "fusion_lat": 0.0}, {"bike_id": "20406b7f9dbff3ec657992dc6911575f", "fusion_lon": 0.0, "lon": -77.00886516666667, "name": "20406b7f9dbff3ec657992dc6911575f", "is_disabled": 0, "rental_uris": {"android": "https://dc.lft.to/lastmile_qr_scan", "ios": "https://dc.lft.to/lastmile_qr_scan"}, "type": "electric_scooter", "lat": 38.905776333333336, "is_reserved": 0, "fusion_lat": 0.0}, {"bike_id": "01820b327e0f6ee518792aa680f89dad", "fusion_lon": 0.0, "lon": -76.99331566666666, "name": "01820b327e0f6ee518792aa680f89dad", "is_disabled": 0, "rental_uris": {"android": "https://dc.lft.to/lastmile_qr_scan", "ios": "https://dc.lft.to/lastmile_qr_scan"}, "type": "electric_scooter", "lat": 38.924454833333336, "is_reserved": 0, "fusion_lat": 0.0}, {"bike_id": "00eca744a6e96142291c04a9a5fe299b", "fusion_lon": 0.0, "lon": -77.107231, "name": "00eca744a6e96142291c04a9a5fe299b", "is_disabled": 0, "rental_uris": {"android": "https://dc.lft.to/lastmile_qr_scan", "ios": "https://dc.lft.to/lastmile_qr_scan"}, "type": "electric_bike", "lat": 38.96486433333333, "is_reserved": 0, "fusion_lat": 0.0}, {"bike_id": "da0a98af1f17bfb1e8b8aab210dd618a", "fusion_lon": 0.0, "lon": -77.0297545, "name": "da0a98af1f17bfb1e8b8aab210dd618a", "is_disabled": 0, "rental_uris": {"android": "https://dc.lft.to/lastmile_qr_scan", "ios": "https://dc.lft.to/lastmile_qr_scan"}, "type": "electric_scooter", "lat": 38.934684833333336, "is_reserved": 0, "fusion_lat": 0.0}, {"bike_id": "4a07b7499318b80785f04a74f39f5732", "fusion_lon": 0.0, "lon": -77.031686, "name": "4a07b7499318b80785f04a74f39f5732", "is_disabled": 0, "rental_uris": {"android": "https://dc.lft.to/lastmile_qr_scan", "ios": "https://dc.lft.to/lastmile_qr_scan"}, "type": "electric_scooter", "lat": 38.90437683333333, "is_reserved": 0, "fusion_lat": 0.0}, {"bike_id": "9040e17df8883c701d206e5977a83905", "fusion_lon": 0.0, "lon": -77.0401635, "name": "9040e17df8883c701d206e5977a83905", "is_disabled": 0, "rental_uris": {"android": "https://dc.lft.to/lastmile_qr_scan", "ios": "https://dc.lft.to/lastmile_qr_scan"}, "type": "electric_bike", "lat": 38.793264, "is_reserved": 0, "fusion_lat": 0.0}, {"bike_id": "49877b18d092a97ade86cdf34d8c4d06", "fusion_lon": 0.0, "lon": -76.97245416666667, "name": "49877b18d092a97ade86cdf34d8c4d06", "is_disabled": 0, "rental_uris": {"android": "https://dc.lft.to/lastmile_qr_scan", "ios": "https://dc.lft.to/lastmile_qr_scan"}, "type": "electric_bike", "lat": 38.94899933333333, "is_reserved": 0, "fusion_lat": 0.0}, {"bike_id": "d5ecf9badb678b0040acf4fa22e93c27", "fusion_lon": 0.0, "lon": -77.043402, "name": "d5ecf9badb678b0040acf4fa22e93c27", "is_disabled": 0, "rental_uris": {"android": "https://dc.lft.to/lastmile_qr_scan", "ios": "https://dc.lft.to/lastmile_qr_scan"}, "type": "electric_scooter", "lat": 38.908951333333334, "is_reserved": 0, "fusion_lat": 0.0}, {"bike_id": "ce703b4359b1fe2c0bafdfa0477d3185", "fusion_lon": 0.0, "lon": -77.0329165, "name": "ce703b4359b1fe2c0bafdfa0477d3185", "is_disabled": 0, "rental_uris": {"android": "https://dc.lft.to/lastmile_qr_scan", "ios": "https://dc.lft.to/lastmile_qr_scan"}, "type": "electric_scooter", "lat": 38.898941, "is_reserved": 0, "fusion_lat": 0.0}, {"bike_id": "cde6455b33cc139cae233677c83e42b1", "fusion_lon": 0.0, "lon": -77.04386883333333, "name": "cde6455b33cc139cae233677c83e42b1", "is_disabled": 0, "rental_uris": {"android": "https://dc.lft.to/lastmile_qr_scan", "ios": "https://dc.lft.to/lastmile_qr_scan"}, "type": "electric_scooter", "lat": 38.92073383333334, "is_reserved": 0, "fusion_lat": 0.0}, {"bike_id": "a2d9306c693e6a299dab838e3e81181e", "fusion_lon": 0.0, "lon": -76.999415, "name": "a2d9306c693e6a299dab838e3e81181e", "is_disabled": 0, "rental_uris": {"android": "https://dc.lft.to/lastmile_qr_scan", "ios": "https://dc.lft.to/lastmile_qr_scan"}, "type": "electric_scooter", "lat": 38.89203283333333, "is_reserved": 0, "fusion_lat": 0.0}, {"bike_id": "871cb23ec61182a7cb75973b93533608", "fusion_lon": 0.0, "lon": -77.02695216666666, "name": "871cb23ec61182a7cb75973b93533608", "is_disabled": 0, "rental_uris": {"android": "https://dc.lft.to/lastmile_qr_scan", "ios": "https://dc.lft.to/lastmile_qr_scan"}, "type": "electric_scooter", "lat": 38.90686216666667, "is_reserved": 0, "fusion_lat": 0.0}, {"bike_id": "27fdd1b9ead89dbc5f5ed5698f502a40", "fusion_lon": 0.0, "lon": -77.00139233333333, "name": "27fdd1b9ead89dbc5f5ed5698f502a40", "is_disabled": 0, "rental_uris": {"android": "https://dc.lft.to/lastmile_qr_scan", "ios": "https://dc.lft.to/lastmile_qr_scan"}, "type": "electric_scooter", "lat": 38.90535416666667, "is_reserved": 0, "fusion_lat": 0.0}, {"bike_id": "f238782a1cd505873394ae3245147c1c", "fusion_lon": 0.0, "lon": -76.9419135, "name": "f238782a1cd505873394ae3245147c1c", "is_disabled": 0, "rental_uris": {"android": "https://dc.lft.to/lastmile_qr_scan", "ios": "https://dc.lft.to/lastmile_qr_scan"}, "type": "electric_scooter", "lat": 38.897515166666665, "is_reserved": 0, "fusion_lat": 0.0}, {"bike_id": "1abee4542a9844431a53882feb0f6f9b", "fusion_lon": 0.0, "lon": -77.03430216666666, "name": "1abee4542a9844431a53882feb0f6f9b", "is_disabled": 0, "rental_uris": {"android": "https://dc.lft.to/lastmile_qr_scan", "ios": "https://dc.lft.to/lastmile_qr_scan"}, "type": "electric_scooter", "lat": 38.922416166666665, "is_reserved": 0, "fusion_lat": 0.0}, {"bike_id": "8b26b8c5b74277e81a5bd663e0e679aa", "fusion_lon": 0.0, "lon": -77.04192533333334, "name": "8b26b8c5b74277e81a5bd663e0e679aa", "is_disabled": 0, "rental_uris": {"android": "https://dc.lft.to/lastmile_qr_scan", "ios": "https://dc.lft.to/lastmile_qr_scan"}, "type": "electric_scooter", "lat": 38.893598833333336, "is_reserved": 0, "fusion_lat": 0.0}, {"bike_id": "6293744f41360d964aa23f1e2d34e649", "fusion_lon": 0.0, "lon": -77.1202945, "name": "6293744f41360d964aa23f1e2d34e649", "is_disabled": 0, "rental_uris": {"android": "https://dc.lft.to/lastmile_qr_scan", "ios": "https://dc.lft.to/lastmile_qr_scan"}, "type": "electric_bike", "lat": 38.8550825, "is_reserved": 0, "fusion_lat": 0.0}, {"bike_id": "3131bb989b4b2a52e199870aacc22518", "fusion_lon": 0.0, "lon": -77.03191466666667, "name": "3131bb989b4b2a52e199870aacc22518", "is_disabled": 0, "rental_uris": {"android": "https://dc.lft.to/lastmile_qr_scan", "ios": "https://dc.lft.to/lastmile_qr_scan"}, "type": "electric_scooter", "lat": 38.901392, "is_reserved": 0, "fusion_lat": 0.0}, {"bike_id": "335a603d7c8e8427c585bf027b6ea4f8", "fusion_lon": 0.0, "lon": -77.03345433333334, "name": "335a603d7c8e8427c585bf027b6ea4f8", "is_disabled": 0, "rental_uris": {"android": "https://dc.lft.to/lastmile_qr_scan", "ios": "https://dc.lft.to/lastmile_qr_scan"}, "type": "electric_scooter", "lat": 38.90721, "is_reserved": 0, "fusion_lat": 0.0}, {"bike_id": "2c7d7fae0d5f661d512164803c546528", "fusion_lon": 0.0, "lon": -77.019121, "name": "2c7d7fae0d5f661d512164803c546528", "is_disabled": 0, "rental_uris": {"android": "https://dc.lft.to/lastmile_qr_scan", "ios": "https://dc.lft.to/lastmile_qr_scan"}, "type": "electric_scooter", "lat": 38.923668, "is_reserved": 0, "fusion_lat": 0.0}, {"bike_id": "937e3e80f91734402d2ff975273e6ad2", "fusion_lon": 0.0, "lon": -77.0270985, "name": "937e3e80f91734402d2ff975273e6ad2", "is_disabled": 0, "rental_uris": {"android": "https://dc.lft.to/lastmile_qr_scan", "ios": "https://dc.lft.to/lastmile_qr_scan"}, "type": "electric_scooter", "lat": 38.905078333333336, "is_reserved": 0, "fusion_lat": 0.0}, {"bike_id": "886c365297d1a4b717b914116fbd5753", "fusion_lon": 0.0, "lon": -77.03532866666667, "name": "886c365297d1a4b717b914116fbd5753", "is_disabled": 0, "rental_uris": {"android": "https://dc.lft.to/lastmile_qr_scan", "ios": "https://dc.lft.to/lastmile_qr_scan"}, "type": "electric_scooter", "lat": 38.922154, "is_reserved": 0, "fusion_lat": 0.0}, {"bike_id": "a4a31b6444bc24afcc19935464f53302", "fusion_lon": 0.0, "lon": -77.0074395, "name": "a4a31b6444bc24afcc19935464f53302", "is_disabled": 0, "rental_uris": {"android": "https://dc.lft.to/lastmile_qr_scan", "ios": "https://dc.lft.to/lastmile_qr_scan"}, "type": "electric_scooter", "lat": 38.910157833333336, "is_reserved": 0, "fusion_lat": 0.0}, {"bike_id": "12d0f587947c1e412a70be2efd342268", "fusion_lon": 0.0, "lon": -77.002018, "name": "12d0f587947c1e412a70be2efd342268", "is_disabled": 0, "rental_uris": {"android": "https://dc.lft.to/lastmile_qr_scan", "ios": "https://dc.lft.to/lastmile_qr_scan"}, "type": "electric_scooter", "lat": 38.90955066666667, "is_reserved": 0, "fusion_lat": 0.0}, {"bike_id": "f42da0bf219626624ed0e601c6ab85c4", "fusion_lon": 0.0, "lon": -77.04946183333334, "name": "f42da0bf219626624ed0e601c6ab85c4", "is_disabled": 0, "rental_uris": {"android": "https://dc.lft.to/lastmile_qr_scan", "ios": "https://dc.lft.to/lastmile_qr_scan"}, "type": "electric_bike", "lat": 38.888297666666666, "is_reserved": 0, "fusion_lat": 0.0}, {"bike_id": "14107475515cbf011689b5f4e746ebb2", "fusion_lon": 0.0, "lon": -77.022944, "name": "14107475515cbf011689b5f4e746ebb2", "is_disabled": 0, "rental_uris": {"android": "https://dc.lft.to/lastmile_qr_scan", "ios": "https://dc.lft.to/lastmile_qr_scan"}, "type": "electric_bike", "lat": 38.92328033333333, "is_reserved": 0, "fusion_lat": 0.0}, {"bike_id": "a07ad10fcc5a4d5abb81f6e12bb598a2", "fusion_lon": 0.0, "lon": -76.99737666666667, "name": "a07ad10fcc5a4d5abb81f6e12bb598a2", "is_disabled": 0, "rental_uris": {"android": "https://dc.lft.to/lastmile_qr_scan", "ios": "https://dc.lft.to/lastmile_qr_scan"}, "type": "electric_scooter", "lat": 38.901264833333336, "is_reserved": 0, "fusion_lat": 0.0}, {"bike_id": "1dcd96defb8cff580b6299a0c2e238d1", "fusion_lon": 0.0, "lon": -77.03854266666667, "name": "1dcd96defb8cff580b6299a0c2e238d1", "is_disabled": 0, "rental_uris": {"android": "https://dc.lft.to/lastmile_qr_scan", "ios": "https://dc.lft.to/lastmile_qr_scan"}, "type": "electric_scooter", "lat": 38.867458666666664, "is_reserved": 0, "fusion_lat": 0.0}, {"bike_id": "ed1181891710d34c667a553a304f8f7c", "fusion_lon": 0.0, "lon": -77.029655, "name": "ed1181891710d34c667a553a304f8f7c", "is_disabled": 0, "rental_uris": {"android": "https://dc.lft.to/lastmile_qr_scan", "ios": "https://dc.lft.to/lastmile_qr_scan"}, "type": "electric_scooter", "lat": 38.932284, "is_reserved": 0, "fusion_lat": 0.0}, {"bike_id": "0d1f11d8f284619d083a9ff36ea47f7f", "fusion_lon": 0.0, "lon": -76.99333633333333, "name": "0d1f11d8f284619d083a9ff36ea47f7f", "is_disabled": 0, "rental_uris": {"android": "https://dc.lft.to/lastmile_qr_scan", "ios": "https://dc.lft.to/lastmile_qr_scan"}, "type": "electric_scooter", "lat": 38.871430833333335, "is_reserved": 0, "fusion_lat": 0.0}, {"bike_id": "a719d354b2e0c63a8c4f733726905df9", "fusion_lon": 0.0, "lon": -76.94795716666667, "name": "a719d354b2e0c63a8c4f733726905df9", "is_disabled": 0, "rental_uris": {"android": "https://dc.lft.to/lastmile_qr_scan", "ios": "https://dc.lft.to/lastmile_qr_scan"}, "type": "electric_bike", "lat": 38.89402483333333, "is_reserved": 0, "fusion_lat": 0.0}, {"bike_id": "4b0132f7d00f1d1685930c54c6e4256f", "fusion_lon": 0.0, "lon": -76.988707, "name": "4b0132f7d00f1d1685930c54c6e4256f", "is_disabled": 0, "rental_uris": {"android": "https://dc.lft.to/lastmile_qr_scan", "ios": "https://dc.lft.to/lastmile_qr_scan"}, "type": "electric_bike", "lat": 38.95481233333334, "is_reserved": 0, "fusion_lat": 0.0}, {"bike_id": "c955fba42720edd36b51ac5f14879095", "fusion_lon": 0.0, "lon": -77.0535345, "name": "c955fba42720edd36b51ac5f14879095", "is_disabled": 0, "rental_uris": {"android": "https://dc.lft.to/lastmile_qr_scan", "ios": "https://dc.lft.to/lastmile_qr_scan"}, "type": "electric_scooter", "lat": 38.92665616666667, "is_reserved": 0, "fusion_lat": 0.0}, {"bike_id": "eed44f50c719a89a547b3af19051532b", "fusion_lon": 0.0, "lon": -76.93736316666667, "name": "eed44f50c719a89a547b3af19051532b", "is_disabled": 0, "rental_uris": {"android": "https://dc.lft.to/lastmile_qr_scan", "ios": "https://dc.lft.to/lastmile_qr_scan"}, "type": "electric_scooter", "lat": 38.8901765, "is_reserved": 0, "fusion_lat": 0.0}, {"bike_id": "df3c5e74b1d0ef01dd6d87004fe2b97d", "fusion_lon": 0.0, "lon": -77.06906666666667, "name": "df3c5e74b1d0ef01dd6d87004fe2b97d", "is_disabled": 0, "rental_uris": {"android": "https://dc.lft.to/lastmile_qr_scan", "ios": "https://dc.lft.to/lastmile_qr_scan"}, "type": "electric_scooter", "lat": 38.910181, "is_reserved": 0, "fusion_lat": 0.0}, {"bike_id": "2234ff401f0140dc5aee67d4d0944900", "fusion_lon": 0.0, "lon": -77.04395, "name": "2234ff401f0140dc5aee67d4d0944900", "is_disabled": 0, "rental_uris": {"android": "https://dc.lft.to/lastmile_qr_scan", "ios": "https://dc.lft.to/lastmile_qr_scan"}, "type": "electric_scooter", "lat": 38.91070366666667, "is_reserved": 0, "fusion_lat": 0.0}, {"bike_id": "98ee7f354dac67d5c145da87355ab434", "fusion_lon": 0.0, "lon": -77.01769133333333, "name": "98ee7f354dac67d5c145da87355ab434", "is_disabled": 0, "rental_uris": {"android": "https://dc.lft.to/lastmile_qr_scan", "ios": "https://dc.lft.to/lastmile_qr_scan"}, "type": "electric_scooter", "lat": 38.90259483333333, "is_reserved": 0, "fusion_lat": 0.0}, {"bike_id": "a0b97defd8b768ad76d7e17dca324547", "fusion_lon": 0.0, "lon": -76.9783905, "name": "a0b97defd8b768ad76d7e17dca324547", "is_disabled": 0, "rental_uris": {"android": "https://dc.lft.to/lastmile_qr_scan", "ios": "https://dc.lft.to/lastmile_qr_scan"}, "type": "electric_bike", "lat": 38.87067616666667, "is_reserved": 0, "fusion_lat": 0.0}, {"bike_id": "6834ace89f4b42bbb931777e3e1307d2", "fusion_lon": 0.0, "lon": -77.00735416666667, "name": "6834ace89f4b42bbb931777e3e1307d2", "is_disabled": 0, "rental_uris": {"android": "https://dc.lft.to/lastmile_qr_scan", "ios": "https://dc.lft.to/lastmile_qr_scan"}, "type": "electric_scooter", "lat": 38.90363033333333, "is_reserved": 0, "fusion_lat": 0.0}, {"bike_id": "e331683a8b025c0df6b699d80b879c1b", "fusion_lon": 0.0, "lon": -77.02747983333333, "name": "e331683a8b025c0df6b699d80b879c1b", "is_disabled": 0, "rental_uris": {"android": "https://dc.lft.to/lastmile_qr_scan", "ios": "https://dc.lft.to/lastmile_qr_scan"}, "type": "electric_scooter", "lat": 38.9670405, "is_reserved": 0, "fusion_lat": 0.0}, {"bike_id": "455841a3f795c43c2a69092ff934d48b", "fusion_lon": 0.0, "lon": -77.019074, "name": "455841a3f795c43c2a69092ff934d48b", "is_disabled": 0, "rental_uris": {"android": "https://dc.lft.to/lastmile_qr_scan", "ios": "https://dc.lft.to/lastmile_qr_scan"}, "type": "electric_scooter", "lat": 38.91515016666666, "is_reserved": 0, "fusion_lat": 0.0}, {"bike_id": "48e39ceabd810acb28a306b362f854aa", "fusion_lon": 0.0, "lon": -77.04492916666666, "name": "48e39ceabd810acb28a306b362f854aa", "is_disabled": 0, "rental_uris": {"android": "https://dc.lft.to/lastmile_qr_scan", "ios": "https://dc.lft.to/lastmile_qr_scan"}, "type": "electric_scooter", "lat": 38.90127116666667, "is_reserved": 0, "fusion_lat": 0.0}, {"bike_id": "e975dbfeadf19fc1b9e24e52ee05ce29", "fusion_lon": 0.0, "lon": -76.98845133333333, "name": "e975dbfeadf19fc1b9e24e52ee05ce29", "is_disabled": 0, "rental_uris": {"android": "https://dc.lft.to/lastmile_qr_scan", "ios": "https://dc.lft.to/lastmile_qr_scan"}, "type": "electric_bike", "lat": 38.84275933333333, "is_reserved": 0, "fusion_lat": 0.0}, {"bike_id": "d1958dd447ee20155c3b383abcc0ae2f", "fusion_lon": 0.0, "lon": -77.04356466666667, "name": "d1958dd447ee20155c3b383abcc0ae2f", "is_disabled": 0, "rental_uris": {"android": "https://dc.lft.to/lastmile_qr_scan", "ios": "https://dc.lft.to/lastmile_qr_scan"}, "type": "electric_scooter", "lat": 38.902335, "is_reserved": 0, "fusion_lat": 0.0}, {"bike_id": "d09bd5ea192ac0be3cc16658adc62240", "fusion_lon": 0.0, "lon": -76.98256866666667, "name": "d09bd5ea192ac0be3cc16658adc62240", "is_disabled": 0, "rental_uris": {"android": "https://dc.lft.to/lastmile_qr_scan", "ios": "https://dc.lft.to/lastmile_qr_scan"}, "type": "electric_bike", "lat": 38.953298333333336, "is_reserved": 0, "fusion_lat": 0.0}, {"bike_id": "3e535b9c616f146bc264fc8b61e95e0c", "fusion_lon": 0.0, "lon": -77.03266933333333, "name": "3e535b9c616f146bc264fc8b61e95e0c", "is_disabled": 0, "rental_uris": {"android": "https://dc.lft.to/lastmile_qr_scan", "ios": "https://dc.lft.to/lastmile_qr_scan"}, "type": "electric_scooter", "lat": 38.933101666666666, "is_reserved": 0, "fusion_lat": 0.0}, {"bike_id": "10e6fa559383ba12a6a8145886fc7a0f", "fusion_lon": 0.0, "lon": -76.98700516666666, "name": "10e6fa559383ba12a6a8145886fc7a0f", "is_disabled": 0, "rental_uris": {"android": "https://dc.lft.to/lastmile_qr_scan", "ios": "https://dc.lft.to/lastmile_qr_scan"}, "type": "electric_scooter", "lat": 38.8596415, "is_reserved": 0, "fusion_lat": 0.0}, {"bike_id": "beefb7a2b1b421708e9079c550f773f3", "fusion_lon": 0.0, "lon": -76.96549533333334, "name": "beefb7a2b1b421708e9079c550f773f3", "is_disabled": 0, "rental_uris": {"android": "https://dc.lft.to/lastmile_qr_scan", "ios": "https://dc.lft.to/lastmile_qr_scan"}, "type": "electric_scooter", "lat": 38.918735, "is_reserved": 0, "fusion_lat": 0.0}, {"bike_id": "6c84e3f47b1d3bf55a2b7fbd160e30f3", "fusion_lon": 0.0, "lon": -77.03988283333334, "name": "6c84e3f47b1d3bf55a2b7fbd160e30f3", "is_disabled": 0, "rental_uris": {"android": "https://dc.lft.to/lastmile_qr_scan", "ios": "https://dc.lft.to/lastmile_qr_scan"}, "type": "electric_bike", "lat": 38.93330916666667, "is_reserved": 0, "fusion_lat": 0.0}, {"bike_id": "fc782c3260a17d69dcc0a56114b5aaaa", "fusion_lon": 0.0, "lon": -77.041075, "name": "fc782c3260a17d69dcc0a56114b5aaaa", "is_disabled": 0, "rental_uris": {"android": "https://dc.lft.to/lastmile_qr_scan", "ios": "https://dc.lft.to/lastmile_qr_scan"}, "type": "electric_scooter", "lat": 38.92453616666667, "is_reserved": 0, "fusion_lat": 0.0}, {"bike_id": "0d4e334b7fadccd43223b9eb5ea88e00", "fusion_lon": 0.0, "lon": -77.16092666666667, "name": "0d4e334b7fadccd43223b9eb5ea88e00", "is_disabled": 0, "rental_uris": {"android": "https://dc.lft.to/lastmile_qr_scan", "ios": "https://dc.lft.to/lastmile_qr_scan"}, "type": "electric_bike", "lat": 38.88687216666667, "is_reserved": 0, "fusion_lat": 0.0}, {"bike_id": "c9ea48f949a10e8b0e87c69b3da8253a", "fusion_lon": 0.0, "lon": -77.0791795, "name": "c9ea48f949a10e8b0e87c69b3da8253a", "is_disabled": 0, "rental_uris": {"android": "https://dc.lft.to/lastmile_qr_scan", "ios": "https://dc.lft.to/lastmile_qr_scan"}, "type": "electric_bike", "lat": 38.802274833333335, "is_reserved": 0, "fusion_lat": 0.0}, {"bike_id": "ed2af49534d76f9009f48efc91a54ee1", "fusion_lon": 0.0, "lon": -77.02206583333333, "name": "ed2af49534d76f9009f48efc91a54ee1", "is_disabled": 0, "rental_uris": {"android": "https://dc.lft.to/lastmile_qr_scan", "ios": "https://dc.lft.to/lastmile_qr_scan"}, "type": "electric_scooter", "lat": 38.878923666666665, "is_reserved": 0, "fusion_lat": 0.0}, {"bike_id": "bbe61148e1e9e30cee92bf8e21f3f53f", "fusion_lon": 0.0, "lon": -77.02761383333333, "name": "bbe61148e1e9e30cee92bf8e21f3f53f", "is_disabled": 0, "rental_uris": {"android": "https://dc.lft.to/lastmile_qr_scan", "ios": "https://dc.lft.to/lastmile_qr_scan"}, "type": "electric_scooter", "lat": 38.907338, "is_reserved": 0, "fusion_lat": 0.0}, {"bike_id": "462c915f0c78f79902e3ae7f1c190d64", "fusion_lon": 0.0, "lon": -77.03408783333333, "name": "462c915f0c78f79902e3ae7f1c190d64", "is_disabled": 0, "rental_uris": {"android": "https://dc.lft.to/lastmile_qr_scan", "ios": "https://dc.lft.to/lastmile_qr_scan"}, "type": "electric_scooter", "lat": 38.930783, "is_reserved": 0, "fusion_lat": 0.0}, {"bike_id": "18d4157adafd991418566ded6b4b281e", "fusion_lon": 0.0, "lon": -76.99764783333333, "name": "18d4157adafd991418566ded6b4b281e", "is_disabled": 0, "rental_uris": {"android": "https://dc.lft.to/lastmile_qr_scan", "ios": "https://dc.lft.to/lastmile_qr_scan"}, "type": "electric_scooter", "lat": 38.887723666666666, "is_reserved": 0, "fusion_lat": 0.0}, {"bike_id": "edffd30ba30e43f7e0324618cab16596", "fusion_lon": 0.0, "lon": -77.00576983333333, "name": "edffd30ba30e43f7e0324618cab16596", "is_disabled": 0, "rental_uris": {"android": "https://dc.lft.to/lastmile_qr_scan", "ios": "https://dc.lft.to/lastmile_qr_scan"}, "type": "electric_scooter", "lat": 38.90616133333333, "is_reserved": 0, "fusion_lat": 0.0}, {"bike_id": "d98d1c35c65954d864a8fe391b6e4999", "fusion_lon": 0.0, "lon": -77.03717983333334, "name": "d98d1c35c65954d864a8fe391b6e4999", "is_disabled": 0, "rental_uris": {"android": "https://dc.lft.to/lastmile_qr_scan", "ios": "https://dc.lft.to/lastmile_qr_scan"}, "type": "electric_scooter", "lat": 38.91807933333333, "is_reserved": 0, "fusion_lat": 0.0}, {"bike_id": "2c25468af872cfc1063634234c81bb81", "fusion_lon": 0.0, "lon": -77.11851283333333, "name": "2c25468af872cfc1063634234c81bb81", "is_disabled": 0, "rental_uris": {"android": "https://dc.lft.to/lastmile_qr_scan", "ios": "https://dc.lft.to/lastmile_qr_scan"}, "type": "electric_bike", "lat": 38.877332333333335, "is_reserved": 0, "fusion_lat": 0.0}, {"bike_id": "85b83d9212d058b5ed456379cdd204f9", "fusion_lon": 0.0, "lon": -77.02764866666666, "name": "85b83d9212d058b5ed456379cdd204f9", "is_disabled": 0, "rental_uris": {"android": "https://dc.lft.to/lastmile_qr_scan", "ios": "https://dc.lft.to/lastmile_qr_scan"}, "type": "electric_scooter", "lat": 38.9072765, "is_reserved": 0, "fusion_lat": 0.0}, {"bike_id": "4d6c15b79128576b09ee54e5a0e58f05", "fusion_lon": 0.0, "lon": -76.987168, "name": "4d6c15b79128576b09ee54e5a0e58f05", "is_disabled": 0, "rental_uris": {"android": "https://dc.lft.to/lastmile_qr_scan", "ios": "https://dc.lft.to/lastmile_qr_scan"}, "type": "electric_scooter", "lat": 38.867, "is_reserved": 0, "fusion_lat": 0.0}, {"bike_id": "5862cc4fd76a0976adb5a380806d087e", "fusion_lon": 0.0, "lon": -76.998737, "name": "5862cc4fd76a0976adb5a380806d087e", "is_disabled": 0, "rental_uris": {"android": "https://dc.lft.to/lastmile_qr_scan", "ios": "https://dc.lft.to/lastmile_qr_scan"}, "type": "electric_scooter", "lat": 38.900254333333336, "is_reserved": 0, "fusion_lat": 0.0}, {"bike_id": "d34068de2aac6e72a6fe70f4972d64ca", "fusion_lon": 0.0, "lon": -76.9354325, "name": "d34068de2aac6e72a6fe70f4972d64ca", "is_disabled": 0, "rental_uris": {"android": "https://dc.lft.to/lastmile_qr_scan", "ios": "https://dc.lft.to/lastmile_qr_scan"}, "type": "electric_bike", "lat": 38.95184666666667, "is_reserved": 0, "fusion_lat": 0.0}, {"bike_id": "5501ffa7d9bcce2b226e5b98f146da00", "fusion_lon": 0.0, "lon": -77.07357766666667, "name": "5501ffa7d9bcce2b226e5b98f146da00", "is_disabled": 0, "rental_uris": {"android": "https://dc.lft.to/lastmile_qr_scan", "ios": "https://dc.lft.to/lastmile_qr_scan"}, "type": "electric_bike", "lat": 38.93045583333333, "is_reserved": 0, "fusion_lat": 0.0}, {"bike_id": "4ed7511059af697b8d49787b5c142b35", "fusion_lon": 0.0, "lon": -77.0280105, "name": "4ed7511059af697b8d49787b5c142b35", "is_disabled": 0, "rental_uris": {"android": "https://dc.lft.to/lastmile_qr_scan", "ios": "https://dc.lft.to/lastmile_qr_scan"}, "type": "electric_scooter", "lat": 38.929742, "is_reserved": 0, "fusion_lat": 0.0}, {"bike_id": "2e40389d6cdeba2f5ff3885d41306561", "fusion_lon": 0.0, "lon": -77.02541716666667, "name": "2e40389d6cdeba2f5ff3885d41306561", "is_disabled": 0, "rental_uris": {"android": "https://dc.lft.to/lastmile_qr_scan", "ios": "https://dc.lft.to/lastmile_qr_scan"}, "type": "electric_scooter", "lat": 38.920898666666666, "is_reserved": 0, "fusion_lat": 0.0}, {"bike_id": "024e14bb890ddc92bfdbc6dbcf5bf741", "fusion_lon": 0.0, "lon": -77.0158285, "name": "024e14bb890ddc92bfdbc6dbcf5bf741", "is_disabled": 0, "rental_uris": {"android": "https://dc.lft.to/lastmile_qr_scan", "ios": "https://dc.lft.to/lastmile_qr_scan"}, "type": "electric_scooter", "lat": 38.89181133333334, "is_reserved": 0, "fusion_lat": 0.0}, {"bike_id": "d24d5b8c189e4775a4150d62121b13a0", "fusion_lon": 0.0, "lon": -76.97728066666667, "name": "d24d5b8c189e4775a4150d62121b13a0", "is_disabled": 0, "rental_uris": {"android": "https://dc.lft.to/lastmile_qr_scan", "ios": "https://dc.lft.to/lastmile_qr_scan"}, "type": "electric_scooter", "lat": 38.89518433333333, "is_reserved": 0, "fusion_lat": 0.0}, {"bike_id": "d8616eedae3002fa90b8a2045c729697", "fusion_lon": 0.0, "lon": -77.0237745, "name": "d8616eedae3002fa90b8a2045c729697", "is_disabled": 0, "rental_uris": {"android": "https://dc.lft.to/lastmile_qr_scan", "ios": "https://dc.lft.to/lastmile_qr_scan"}, "type": "electric_scooter", "lat": 38.90376583333333, "is_reserved": 0, "fusion_lat": 0.0}, {"bike_id": "1e2d4257e84ba142f8947d94981cc6bf", "fusion_lon": 0.0, "lon": -76.9233525, "name": "1e2d4257e84ba142f8947d94981cc6bf", "is_disabled": 0, "rental_uris": {"android": "https://dc.lft.to/lastmile_qr_scan", "ios": "https://dc.lft.to/lastmile_qr_scan"}, "type": "electric_bike", "lat": 38.87108166666667, "is_reserved": 0, "fusion_lat": 0.0}, {"bike_id": "bdb0b8a84757b874f5c66486c10619f1", "fusion_lon": 0.0, "lon": -77.0542145, "name": "bdb0b8a84757b874f5c66486c10619f1", "is_disabled": 0, "rental_uris": {"android": "https://dc.lft.to/lastmile_qr_scan", "ios": "https://dc.lft.to/lastmile_qr_scan"}, "type": "electric_bike", "lat": 38.9352215, "is_reserved": 0, "fusion_lat": 0.0}, {"bike_id": "41de32fb2ce5f7984c13efa9f4b4a16b", "fusion_lon": 0.0, "lon": -77.02723216666666, "name": "41de32fb2ce5f7984c13efa9f4b4a16b", "is_disabled": 0, "rental_uris": {"android": "https://dc.lft.to/lastmile_qr_scan", "ios": "https://dc.lft.to/lastmile_qr_scan"}, "type": "electric_bike", "lat": 38.9455555, "is_reserved": 0, "fusion_lat": 0.0}, {"bike_id": "a62143bb8551bf901c7caf9950d7b79e", "fusion_lon": 0.0, "lon": -77.04143216666667, "name": "a62143bb8551bf901c7caf9950d7b79e", "is_disabled": 0, "rental_uris": {"android": "https://dc.lft.to/lastmile_qr_scan", "ios": "https://dc.lft.to/lastmile_qr_scan"}, "type": "electric_scooter", "lat": 38.92660266666667, "is_reserved": 0, "fusion_lat": 0.0}, {"bike_id": "3dd537baed4a952c598ad2299b603641", "fusion_lon": 0.0, "lon": -76.99516816666667, "name": "3dd537baed4a952c598ad2299b603641", "is_disabled": 0, "rental_uris": {"android": "https://dc.lft.to/lastmile_qr_scan", "ios": "https://dc.lft.to/lastmile_qr_scan"}, "type": "electric_bike", "lat": 38.93931216666667, "is_reserved": 0, "fusion_lat": 0.0}, {"bike_id": "3db9c30c6e9a698b4adb3d7a0d3cb036", "fusion_lon": 0.0, "lon": -77.01308966666667, "name": "3db9c30c6e9a698b4adb3d7a0d3cb036", "is_disabled": 0, "rental_uris": {"android": "https://dc.lft.to/lastmile_qr_scan", "ios": "https://dc.lft.to/lastmile_qr_scan"}, "type": "electric_scooter", "lat": 38.901365166666665, "is_reserved": 0, "fusion_lat": 0.0}, {"bike_id": "ff680818c32d0645df370d6e33daefcd", "fusion_lon": 0.0, "lon": -77.05784033333333, "name": "ff680818c32d0645df370d6e33daefcd", "is_disabled": 0, "rental_uris": {"android": "https://dc.lft.to/lastmile_qr_scan", "ios": "https://dc.lft.to/lastmile_qr_scan"}, "type": "electric_scooter", "lat": 38.90099683333333, "is_reserved": 0, "fusion_lat": 0.0}, {"bike_id": "10b97e39e44b4c2758a0286351a53b25", "fusion_lon": 0.0, "lon": -77.0287595, "name": "10b97e39e44b4c2758a0286351a53b25", "is_disabled": 0, "rental_uris": {"android": "https://dc.lft.to/lastmile_qr_scan", "ios": "https://dc.lft.to/lastmile_qr_scan"}, "type": "electric_scooter", "lat": 38.90444733333333, "is_reserved": 0, "fusion_lat": 0.0}, {"bike_id": "bbecbfa19684e79217a0f7aae46eed69", "fusion_lon": 0.0, "lon": -77.02409016666667, "name": "bbecbfa19684e79217a0f7aae46eed69", "is_disabled": 0, "rental_uris": {"android": "https://dc.lft.to/lastmile_qr_scan", "ios": "https://dc.lft.to/lastmile_qr_scan"}, "type": "electric_scooter", "lat": 38.90764583333333, "is_reserved": 0, "fusion_lat": 0.0}, {"bike_id": "9759f398fd6862b3fff15d8c1b7b2ff8", "fusion_lon": 0.0, "lon": -77.02406, "name": "9759f398fd6862b3fff15d8c1b7b2ff8", "is_disabled": 0, "rental_uris": {"android": "https://dc.lft.to/lastmile_qr_scan", "ios": "https://dc.lft.to/lastmile_qr_scan"}, "type": "electric_scooter", "lat": 38.917449, "is_reserved": 0, "fusion_lat": 0.0}, {"bike_id": "82151ceaab5f996254fce31984f7076b", "fusion_lon": 0.0, "lon": -77.02348166666667, "name": "82151ceaab5f996254fce31984f7076b", "is_disabled": 0, "rental_uris": {"android": "https://dc.lft.to/lastmile_qr_scan", "ios": "https://dc.lft.to/lastmile_qr_scan"}, "type": "electric_scooter", "lat": 38.94612933333333, "is_reserved": 0, "fusion_lat": 0.0}, {"bike_id": "3957bff39ac280ce05e4a9f8d352ecdb", "fusion_lon": 0.0, "lon": -77.0335525, "name": "3957bff39ac280ce05e4a9f8d352ecdb", "is_disabled": 0, "rental_uris": {"android": "https://dc.lft.to/lastmile_qr_scan", "ios": "https://dc.lft.to/lastmile_qr_scan"}, "type": "electric_scooter", "lat": 38.928869166666665, "is_reserved": 0, "fusion_lat": 0.0}, {"bike_id": "313d25fc1a010d503df3625c275057ee", "fusion_lon": 0.0, "lon": -77.03241316666667, "name": "313d25fc1a010d503df3625c275057ee", "is_disabled": 0, "rental_uris": {"android": "https://dc.lft.to/lastmile_qr_scan", "ios": "https://dc.lft.to/lastmile_qr_scan"}, "type": "electric_scooter", "lat": 38.92358933333333, "is_reserved": 0, "fusion_lat": 0.0}, {"bike_id": "d894b9a99991d2c75e3f74dc26ff3630", "fusion_lon": 0.0, "lon": -77.017597, "name": "d894b9a99991d2c75e3f74dc26ff3630", "is_disabled": 0, "rental_uris": {"android": "https://dc.lft.to/lastmile_qr_scan", "ios": "https://dc.lft.to/lastmile_qr_scan"}, "type": "electric_scooter", "lat": 38.8832915, "is_reserved": 0, "fusion_lat": 0.0}, {"bike_id": "5c6ed882e1a275baeedeeda89dafed22", "fusion_lon": 0.0, "lon": -76.986322, "name": "5c6ed882e1a275baeedeeda89dafed22", "is_disabled": 0, "rental_uris": {"android": "https://dc.lft.to/lastmile_qr_scan", "ios": "https://dc.lft.to/lastmile_qr_scan"}, "type": "electric_scooter", "lat": 38.88047733333333, "is_reserved": 0, "fusion_lat": 0.0}, {"bike_id": "075d20ed4705ea5ecaae8f303a98173b", "fusion_lon": 0.0, "lon": -77.0388335, "name": "075d20ed4705ea5ecaae8f303a98173b", "is_disabled": 0, "rental_uris": {"android": "https://dc.lft.to/lastmile_qr_scan", "ios": "https://dc.lft.to/lastmile_qr_scan"}, "type": "electric_scooter", "lat": 38.931215333333334, "is_reserved": 0, "fusion_lat": 0.0}, {"bike_id": "feb42dbe3377e0c6150a5acec8018629", "fusion_lon": 0.0, "lon": -77.03464266666667, "name": "feb42dbe3377e0c6150a5acec8018629", "is_disabled": 0, "rental_uris": {"android": "https://dc.lft.to/lastmile_qr_scan", "ios": "https://dc.lft.to/lastmile_qr_scan"}, "type": "electric_scooter", "lat": 38.9354535, "is_reserved": 0, "fusion_lat": 0.0}, {"bike_id": "40d67a65a03543b83317c00b2261832f", "fusion_lon": 0.0, "lon": -77.02825433333334, "name": "40d67a65a03543b83317c00b2261832f", "is_disabled": 0, "rental_uris": {"android": "https://dc.lft.to/lastmile_qr_scan", "ios": "https://dc.lft.to/lastmile_qr_scan"}, "type": "electric_scooter", "lat": 38.894854333333335, "is_reserved": 0, "fusion_lat": 0.0}, {"bike_id": "efb54e816afa04c4a38b68d6bff8ef2d", "fusion_lon": 0.0, "lon": -77.03163083333334, "name": "efb54e816afa04c4a38b68d6bff8ef2d", "is_disabled": 0, "rental_uris": {"android": "https://dc.lft.to/lastmile_qr_scan", "ios": "https://dc.lft.to/lastmile_qr_scan"}, "type": "electric_scooter", "lat": 38.892225833333335, "is_reserved": 0, "fusion_lat": 0.0}, {"bike_id": "da4a087c08bf3193222e30bad51f677a", "fusion_lon": 0.0, "lon": -77.06520833333333, "name": "da4a087c08bf3193222e30bad51f677a", "is_disabled": 0, "rental_uris": {"android": "https://dc.lft.to/lastmile_qr_scan", "ios": "https://dc.lft.to/lastmile_qr_scan"}, "type": "electric_scooter", "lat": 38.905851166666665, "is_reserved": 0, "fusion_lat": 0.0}, {"bike_id": "40ee866dc534aafe4216e927d9747961", "fusion_lon": 0.0, "lon": -76.99364783333333, "name": "40ee866dc534aafe4216e927d9747961", "is_disabled": 0, "rental_uris": {"android": "https://dc.lft.to/lastmile_qr_scan", "ios": "https://dc.lft.to/lastmile_qr_scan"}, "type": "electric_scooter", "lat": 38.92836916666667, "is_reserved": 0, "fusion_lat": 0.0}, {"bike_id": "71347db2bafe156cb2e8dfcfcde0cda1", "fusion_lon": 0.0, "lon": -77.04137883333334, "name": "71347db2bafe156cb2e8dfcfcde0cda1", "is_disabled": 0, "rental_uris": {"android": "https://dc.lft.to/lastmile_qr_scan", "ios": "https://dc.lft.to/lastmile_qr_scan"}, "type": "electric_scooter", "lat": 38.93372083333333, "is_reserved": 0, "fusion_lat": 0.0}, {"bike_id": "667eb8051f2f40c88a2e9ca5c4667009", "fusion_lon": 0.0, "lon": -77.0353345, "name": "667eb8051f2f40c88a2e9ca5c4667009", "is_disabled": 0, "rental_uris": {"android": "https://dc.lft.to/lastmile_qr_scan", "ios": "https://dc.lft.to/lastmile_qr_scan"}, "type": "electric_scooter", "lat": 38.924719333333336, "is_reserved": 0, "fusion_lat": 0.0}, {"bike_id": "2f81e0678ddafc2cacfba84723611fc3", "fusion_lon": 0.0, "lon": -77.0586515, "name": "2f81e0678ddafc2cacfba84723611fc3", "is_disabled": 0, "rental_uris": {"android": "https://dc.lft.to/lastmile_qr_scan", "ios": "https://dc.lft.to/lastmile_qr_scan"}, "type": "electric_scooter", "lat": 38.936059166666666, "is_reserved": 0, "fusion_lat": 0.0}, {"bike_id": "ce7e6d18db9d1f49793c19c7252f58ca", "fusion_lon": 0.0, "lon": -77.02865416666667, "name": "ce7e6d18db9d1f49793c19c7252f58ca", "is_disabled": 0, "rental_uris": {"android": "https://dc.lft.to/lastmile_qr_scan", "ios": "https://dc.lft.to/lastmile_qr_scan"}, "type": "electric_scooter", "lat": 38.90457033333333, "is_reserved": 0, "fusion_lat": 0.0}, {"bike_id": "a2ac107353e97867518ad13a87ac1a17", "fusion_lon": 0.0, "lon": -77.03418533333334, "name": "a2ac107353e97867518ad13a87ac1a17", "is_disabled": 0, "rental_uris": {"android": "https://dc.lft.to/lastmile_qr_scan", "ios": "https://dc.lft.to/lastmile_qr_scan"}, "type": "electric_scooter", "lat": 38.9192545, "is_reserved": 0, "fusion_lat": 0.0}, {"bike_id": "9a4434574c1b9638761063f3d9244752", "fusion_lon": 0.0, "lon": -77.0218505, "name": "9a4434574c1b9638761063f3d9244752", "is_disabled": 0, "rental_uris": {"android": "https://dc.lft.to/lastmile_qr_scan", "ios": "https://dc.lft.to/lastmile_qr_scan"}, "type": "electric_scooter", "lat": 38.9142395, "is_reserved": 0, "fusion_lat": 0.0}, {"bike_id": "026fb872f5a065b70427e81f5776d13d", "fusion_lon": 0.0, "lon": -77.040093, "name": "026fb872f5a065b70427e81f5776d13d", "is_disabled": 0, "rental_uris": {"android": "https://dc.lft.to/lastmile_qr_scan", "ios": "https://dc.lft.to/lastmile_qr_scan"}, "type": "electric_scooter", "lat": 38.909960166666664, "is_reserved": 0, "fusion_lat": 0.0}, {"bike_id": "8b3c604587739779c309f2400b312575", "fusion_lon": 0.0, "lon": -77.12965866666667, "name": "8b3c604587739779c309f2400b312575", "is_disabled": 0, "rental_uris": {"android": "https://dc.lft.to/lastmile_qr_scan", "ios": "https://dc.lft.to/lastmile_qr_scan"}, "type": "electric_bike", "lat": 38.852215, "is_reserved": 0, "fusion_lat": 0.0}, {"bike_id": "5318fac9f756113d90fed7fb392dddbb", "fusion_lon": 0.0, "lon": -76.99030916666666, "name": "5318fac9f756113d90fed7fb392dddbb", "is_disabled": 0, "rental_uris": {"android": "https://dc.lft.to/lastmile_qr_scan", "ios": "https://dc.lft.to/lastmile_qr_scan"}, "type": "electric_scooter", "lat": 38.86520816666667, "is_reserved": 0, "fusion_lat": 0.0}, {"bike_id": "833d2627e7f1f01a17d5df23b7b47664", "fusion_lon": 0.0, "lon": -77.023466, "name": "833d2627e7f1f01a17d5df23b7b47664", "is_disabled": 0, "rental_uris": {"android": "https://dc.lft.to/lastmile_qr_scan", "ios": "https://dc.lft.to/lastmile_qr_scan"}, "type": "electric_scooter", "lat": 38.907259, "is_reserved": 0, "fusion_lat": 0.0}, {"bike_id": "799d951b9ee2e1075efd28e326933399", "fusion_lon": 0.0, "lon": -77.05522516666667, "name": "799d951b9ee2e1075efd28e326933399", "is_disabled": 0, "rental_uris": {"android": "https://dc.lft.to/lastmile_qr_scan", "ios": "https://dc.lft.to/lastmile_qr_scan"}, "type": "electric_scooter", "lat": 38.897262, "is_reserved": 0, "fusion_lat": 0.0}, {"bike_id": "6c3be7f88566a0821ca0484cc828eb28", "fusion_lon": 0.0, "lon": -76.9322975, "name": "6c3be7f88566a0821ca0484cc828eb28", "is_disabled": 0, "rental_uris": {"android": "https://dc.lft.to/lastmile_qr_scan", "ios": "https://dc.lft.to/lastmile_qr_scan"}, "type": "electric_bike", "lat": 38.8659515, "is_reserved": 0, "fusion_lat": 0.0}, {"bike_id": "780077fea9f033dc77c68fea65625521", "fusion_lon": 0.0, "lon": -77.03482083333333, "name": "780077fea9f033dc77c68fea65625521", "is_disabled": 0, "rental_uris": {"android": "https://dc.lft.to/lastmile_qr_scan", "ios": "https://dc.lft.to/lastmile_qr_scan"}, "type": "electric_bike", "lat": 38.93535883333333, "is_reserved": 0, "fusion_lat": 0.0}, {"bike_id": "1fa9d17579e45c401de6d4c52c97ceef", "fusion_lon": 0.0, "lon": -77.03106633333333, "name": "1fa9d17579e45c401de6d4c52c97ceef", "is_disabled": 0, "rental_uris": {"android": "https://dc.lft.to/lastmile_qr_scan", "ios": "https://dc.lft.to/lastmile_qr_scan"}, "type": "electric_scooter", "lat": 38.91929866666667, "is_reserved": 0, "fusion_lat": 0.0}, {"bike_id": "2a6b22010dc554d893580900961e7208", "fusion_lon": 0.0, "lon": -77.0148385, "name": "2a6b22010dc554d893580900961e7208", "is_disabled": 0, "rental_uris": {"android": "https://dc.lft.to/lastmile_qr_scan", "ios": "https://dc.lft.to/lastmile_qr_scan"}, "type": "electric_scooter", "lat": 38.876263333333334, "is_reserved": 0, "fusion_lat": 0.0}, {"bike_id": "9afd62ef8efaaf742cf497b3e35b5927", "fusion_lon": 0.0, "lon": -77.03880166666667, "name": "9afd62ef8efaaf742cf497b3e35b5927", "is_disabled": 0, "rental_uris": {"android": "https://dc.lft.to/lastmile_qr_scan", "ios": "https://dc.lft.to/lastmile_qr_scan"}, "type": "electric_scooter", "lat": 38.917004166666665, "is_reserved": 0, "fusion_lat": 0.0}, {"bike_id": "14219af7b67fcc7724e4d7da4b80c1e3", "fusion_lon": 0.0, "lon": -77.0339525, "name": "14219af7b67fcc7724e4d7da4b80c1e3", "is_disabled": 0, "rental_uris": {"android": "https://dc.lft.to/lastmile_qr_scan", "ios": "https://dc.lft.to/lastmile_qr_scan"}, "type": "electric_scooter", "lat": 38.919735, "is_reserved": 0, "fusion_lat": 0.0}, {"bike_id": "f87e1a17ea3482188817a1c9c6e50644", "fusion_lon": 0.0, "lon": -77.0367565, "name": "f87e1a17ea3482188817a1c9c6e50644", "is_disabled": 0, "rental_uris": {"android": "https://dc.lft.to/lastmile_qr_scan", "ios": "https://dc.lft.to/lastmile_qr_scan"}, "type": "electric_scooter", "lat": 38.91711016666667, "is_reserved": 0, "fusion_lat": 0.0}, {"bike_id": "e4ba7e4cf3f9677eeb372122ff48d6fc", "fusion_lon": 0.0, "lon": -77.03007816666667, "name": "e4ba7e4cf3f9677eeb372122ff48d6fc", "is_disabled": 0, "rental_uris": {"android": "https://dc.lft.to/lastmile_qr_scan", "ios": "https://dc.lft.to/lastmile_qr_scan"}, "type": "electric_scooter", "lat": 38.917070333333335, "is_reserved": 0, "fusion_lat": 0.0}, {"bike_id": "54f95d0fa727e350697b8b77205ef4c2", "fusion_lon": 0.0, "lon": -77.03268133333333, "name": "54f95d0fa727e350697b8b77205ef4c2", "is_disabled": 0, "rental_uris": {"android": "https://dc.lft.to/lastmile_qr_scan", "ios": "https://dc.lft.to/lastmile_qr_scan"}, "type": "electric_scooter", "lat": 38.9326075, "is_reserved": 0, "fusion_lat": 0.0}, {"bike_id": "edb9d2ee7f78f4af93231444a3453ac1", "fusion_lon": 0.0, "lon": -77.01752083333334, "name": "edb9d2ee7f78f4af93231444a3453ac1", "is_disabled": 0, "rental_uris": {"android": "https://dc.lft.to/lastmile_qr_scan", "ios": "https://dc.lft.to/lastmile_qr_scan"}, "type": "electric_scooter", "lat": 38.88335433333334, "is_reserved": 0, "fusion_lat": 0.0}, {"bike_id": "6943a5700c25a8bb0fdb997ea1dd249c", "fusion_lon": 0.0, "lon": -76.99813933333333, "name": "6943a5700c25a8bb0fdb997ea1dd249c", "is_disabled": 0, "rental_uris": {"android": "https://dc.lft.to/lastmile_qr_scan", "ios": "https://dc.lft.to/lastmile_qr_scan"}, "type": "electric_scooter", "lat": 38.8443235, "is_reserved": 0, "fusion_lat": 0.0}, {"bike_id": "35ecc9145399a8173f9193e24c5b2c3e", "fusion_lon": 0.0, "lon": -77.05239233333333, "name": "35ecc9145399a8173f9193e24c5b2c3e", "is_disabled": 0, "rental_uris": {"android": "https://dc.lft.to/lastmile_qr_scan", "ios": "https://dc.lft.to/lastmile_qr_scan"}, "type": "electric_scooter", "lat": 38.92695783333333, "is_reserved": 0, "fusion_lat": 0.0}, {"bike_id": "21da4890e6bc51ed921a6bfa3d846502", "fusion_lon": 0.0, "lon": -77.02600066666666, "name": "21da4890e6bc51ed921a6bfa3d846502", "is_disabled": 0, "rental_uris": {"android": "https://dc.lft.to/lastmile_qr_scan", "ios": "https://dc.lft.to/lastmile_qr_scan"}, "type": "electric_scooter", "lat": 38.91690033333333, "is_reserved": 0, "fusion_lat": 0.0}, {"bike_id": "c654338cae228a5514744fb337c2ed5c", "fusion_lon": 0.0, "lon": -77.03463533333333, "name": "c654338cae228a5514744fb337c2ed5c", "is_disabled": 0, "rental_uris": {"android": "https://dc.lft.to/lastmile_qr_scan", "ios": "https://dc.lft.to/lastmile_qr_scan"}, "type": "electric_scooter", "lat": 38.90800433333333, "is_reserved": 0, "fusion_lat": 0.0}, {"bike_id": "484ebe1a02d8cd1e1a48b7a92bee5439", "fusion_lon": 0.0, "lon": -76.98925583333333, "name": "484ebe1a02d8cd1e1a48b7a92bee5439", "is_disabled": 0, "rental_uris": {"android": "https://dc.lft.to/lastmile_qr_scan", "ios": "https://dc.lft.to/lastmile_qr_scan"}, "type": "electric_scooter", "lat": 38.858109666666664, "is_reserved": 0, "fusion_lat": 0.0}, {"bike_id": "2780ec7263ea33a7e183cc23b6c5bd40", "fusion_lon": 0.0, "lon": -77.009728, "name": "2780ec7263ea33a7e183cc23b6c5bd40", "is_disabled": 0, "rental_uris": {"android": "https://dc.lft.to/lastmile_qr_scan", "ios": "https://dc.lft.to/lastmile_qr_scan"}, "type": "electric_scooter", "lat": 38.90782816666667, "is_reserved": 0, "fusion_lat": 0.0}, {"bike_id": "3cac4cfa31399a844e62ef189fec3a91", "fusion_lon": 0.0, "lon": -76.98652183333333, "name": "3cac4cfa31399a844e62ef189fec3a91", "is_disabled": 0, "rental_uris": {"android": "https://dc.lft.to/lastmile_qr_scan", "ios": "https://dc.lft.to/lastmile_qr_scan"}, "type": "electric_scooter", "lat": 38.858088, "is_reserved": 0, "fusion_lat": 0.0}, {"bike_id": "0d7ee9adad0a8d807d3ac4d64cb86db9", "fusion_lon": 0.0, "lon": -77.031186, "name": "0d7ee9adad0a8d807d3ac4d64cb86db9", "is_disabled": 0, "rental_uris": {"android": "https://dc.lft.to/lastmile_qr_scan", "ios": "https://dc.lft.to/lastmile_qr_scan"}, "type": "electric_bike", "lat": 38.95925066666667, "is_reserved": 0, "fusion_lat": 0.0}, {"bike_id": "42e6d275ddd832ae14cfec48931185fa", "fusion_lon": 0.0, "lon": -77.01651016666666, "name": "42e6d275ddd832ae14cfec48931185fa", "is_disabled": 0, "rental_uris": {"android": "https://dc.lft.to/lastmile_qr_scan", "ios": "https://dc.lft.to/lastmile_qr_scan"}, "type": "electric_scooter", "lat": 38.8811755, "is_reserved": 0, "fusion_lat": 0.0}, {"bike_id": "cd99a1b4742ec1b1a9c9838069800ac3", "fusion_lon": 0.0, "lon": -77.038363, "name": "cd99a1b4742ec1b1a9c9838069800ac3", "is_disabled": 0, "rental_uris": {"android": "https://dc.lft.to/lastmile_qr_scan", "ios": "https://dc.lft.to/lastmile_qr_scan"}, "type": "electric_scooter", "lat": 38.90958633333334, "is_reserved": 0, "fusion_lat": 0.0}, {"bike_id": "1758340223baa2aadbdd24679bbc5119", "fusion_lon": 0.0, "lon": -77.02816033333333, "name": "1758340223baa2aadbdd24679bbc5119", "is_disabled": 0, "rental_uris": {"android": "https://dc.lft.to/lastmile_qr_scan", "ios": "https://dc.lft.to/lastmile_qr_scan"}, "type": "electric_scooter", "lat": 38.914286, "is_reserved": 0, "fusion_lat": 0.0}, {"bike_id": "f24a42e105e10df686d3c2f0d97aea1a", "fusion_lon": 0.0, "lon": -77.01756466666667, "name": "f24a42e105e10df686d3c2f0d97aea1a", "is_disabled": 0, "rental_uris": {"android": "https://dc.lft.to/lastmile_qr_scan", "ios": "https://dc.lft.to/lastmile_qr_scan"}, "type": "electric_scooter", "lat": 38.903723166666666, "is_reserved": 0, "fusion_lat": 0.0}, {"bike_id": "dd8198e8a4779866af9d8eb8d34c7049", "fusion_lon": 0.0, "lon": -77.02404633333333, "name": "dd8198e8a4779866af9d8eb8d34c7049", "is_disabled": 0, "rental_uris": {"android": "https://dc.lft.to/lastmile_qr_scan", "ios": "https://dc.lft.to/lastmile_qr_scan"}, "type": "electric_bike", "lat": 38.9345905, "is_reserved": 0, "fusion_lat": 0.0}, {"bike_id": "64b5bf3268745e0915be4d54450ca324", "fusion_lon": 0.0, "lon": -76.99028316666667, "name": "64b5bf3268745e0915be4d54450ca324", "is_disabled": 0, "rental_uris": {"android": "https://dc.lft.to/lastmile_qr_scan", "ios": "https://dc.lft.to/lastmile_qr_scan"}, "type": "electric_scooter", "lat": 38.88877183333334, "is_reserved": 0, "fusion_lat": 0.0}, {"bike_id": "63422e838004c423198267bbbdbf0caa", "fusion_lon": 0.0, "lon": -77.01107716666667, "name": "63422e838004c423198267bbbdbf0caa", "is_disabled": 0, "rental_uris": {"android": "https://dc.lft.to/lastmile_qr_scan", "ios": "https://dc.lft.to/lastmile_qr_scan"}, "type": "electric_scooter", "lat": 38.903555, "is_reserved": 0, "fusion_lat": 0.0}, {"bike_id": "a2c39e1e383c3587b2ac923391665551", "fusion_lon": 0.0, "lon": -77.01608633333333, "name": "a2c39e1e383c3587b2ac923391665551", "is_disabled": 0, "rental_uris": {"android": "https://dc.lft.to/lastmile_qr_scan", "ios": "https://dc.lft.to/lastmile_qr_scan"}, "type": "electric_scooter", "lat": 38.91278716666667, "is_reserved": 0, "fusion_lat": 0.0}, {"bike_id": "e2c901066efa0863e1c5dd58d5048ef2", "fusion_lon": 0.0, "lon": -77.03296533333334, "name": "e2c901066efa0863e1c5dd58d5048ef2", "is_disabled": 0, "rental_uris": {"android": "https://dc.lft.to/lastmile_qr_scan", "ios": "https://dc.lft.to/lastmile_qr_scan"}, "type": "electric_scooter", "lat": 38.91647916666667, "is_reserved": 0, "fusion_lat": 0.0}, {"bike_id": "3d767f566bcf909e8f187a750030a41b", "fusion_lon": 0.0, "lon": -77.04304633333334, "name": "3d767f566bcf909e8f187a750030a41b", "is_disabled": 0, "rental_uris": {"android": "https://dc.lft.to/lastmile_qr_scan", "ios": "https://dc.lft.to/lastmile_qr_scan"}, "type": "electric_scooter", "lat": 38.9178825, "is_reserved": 0, "fusion_lat": 0.0}, {"bike_id": "01dd802dccbc5887e4845ade30f39d61", "fusion_lon": 0.0, "lon": -77.026349, "name": "01dd802dccbc5887e4845ade30f39d61", "is_disabled": 0, "rental_uris": {"android": "https://dc.lft.to/lastmile_qr_scan", "ios": "https://dc.lft.to/lastmile_qr_scan"}, "type": "electric_scooter", "lat": 38.93008616666667, "is_reserved": 0, "fusion_lat": 0.0}, {"bike_id": "1cea241d6a09e26f36169065d1d23afa", "fusion_lon": 0.0, "lon": -77.09253433333333, "name": "1cea241d6a09e26f36169065d1d23afa", "is_disabled": 0, "rental_uris": {"android": "https://dc.lft.to/lastmile_qr_scan", "ios": "https://dc.lft.to/lastmile_qr_scan"}, "type": "electric_scooter", "lat": 38.941532333333335, "is_reserved": 0, "fusion_lat": 0.0}, {"bike_id": "1aa974de190d6492b7d879b0a8f3159b", "fusion_lon": 0.0, "lon": -76.93042066666666, "name": "1aa974de190d6492b7d879b0a8f3159b", "is_disabled": 0, "rental_uris": {"android": "https://dc.lft.to/lastmile_qr_scan", "ios": "https://dc.lft.to/lastmile_qr_scan"}, "type": "electric_scooter", "lat": 38.89518133333333, "is_reserved": 0, "fusion_lat": 0.0}, {"bike_id": "0880fbd45259b3e60e6cab5f1b80fb1e", "fusion_lon": 0.0, "lon": -76.9758155, "name": "0880fbd45259b3e60e6cab5f1b80fb1e", "is_disabled": 0, "rental_uris": {"android": "https://dc.lft.to/lastmile_qr_scan", "ios": "https://dc.lft.to/lastmile_qr_scan"}, "type": "electric_bike", "lat": 38.840293, "is_reserved": 0, "fusion_lat": 0.0}, {"bike_id": "8e76a31e511f3dfe20ea79ea642641ad", "fusion_lon": 0.0, "lon": -77.0354245, "name": "8e76a31e511f3dfe20ea79ea642641ad", "is_disabled": 0, "rental_uris": {"android": "https://dc.lft.to/lastmile_qr_scan", "ios": "https://dc.lft.to/lastmile_qr_scan"}, "type": "electric_scooter", "lat": 38.92476416666667, "is_reserved": 0, "fusion_lat": 0.0}, {"bike_id": "4857f263ea46c9b4a3a4d5d19f249f47", "fusion_lon": 0.0, "lon": -77.00215066666667, "name": "4857f263ea46c9b4a3a4d5d19f249f47", "is_disabled": 0, "rental_uris": {"android": "https://dc.lft.to/lastmile_qr_scan", "ios": "https://dc.lft.to/lastmile_qr_scan"}, "type": "electric_scooter", "lat": 38.90782166666666, "is_reserved": 0, "fusion_lat": 0.0}, {"bike_id": "be99045022262d23c27bd6e1425338e4", "fusion_lon": 0.0, "lon": -77.032781, "name": "be99045022262d23c27bd6e1425338e4", "is_disabled": 0, "rental_uris": {"android": "https://dc.lft.to/lastmile_qr_scan", "ios": "https://dc.lft.to/lastmile_qr_scan"}, "type": "electric_scooter", "lat": 38.9163005, "is_reserved": 0, "fusion_lat": 0.0}, {"bike_id": "66f8f37dc064405a0e83aedad1cb925c", "fusion_lon": 0.0, "lon": -77.02439166666667, "name": "66f8f37dc064405a0e83aedad1cb925c", "is_disabled": 0, "rental_uris": {"android": "https://dc.lft.to/lastmile_qr_scan", "ios": "https://dc.lft.to/lastmile_qr_scan"}, "type": "electric_bike", "lat": 38.948311833333335, "is_reserved": 0, "fusion_lat": 0.0}, {"bike_id": "e30d6e1d65e8bdb9cedb8c347effc4d9", "fusion_lon": 0.0, "lon": -77.03815783333333, "name": "e30d6e1d65e8bdb9cedb8c347effc4d9", "is_disabled": 0, "rental_uris": {"android": "https://dc.lft.to/lastmile_qr_scan", "ios": "https://dc.lft.to/lastmile_qr_scan"}, "type": "electric_scooter", "lat": 38.92511366666667, "is_reserved": 0, "fusion_lat": 0.0}, {"bike_id": "10461c797a406b43917e24ac573d1193", "fusion_lon": 0.0, "lon": -77.0346985, "name": "10461c797a406b43917e24ac573d1193", "is_disabled": 0, "rental_uris": {"android": "https://dc.lft.to/lastmile_qr_scan", "ios": "https://dc.lft.to/lastmile_qr_scan"}, "type": "electric_bike", "lat": 38.9353305, "is_reserved": 0, "fusion_lat": 0.0}, {"bike_id": "1cb6e1bd5e1600d32e87925416c2177e", "fusion_lon": 0.0, "lon": -76.99430383333333, "name": "1cb6e1bd5e1600d32e87925416c2177e", "is_disabled": 0, "rental_uris": {"android": "https://dc.lft.to/lastmile_qr_scan", "ios": "https://dc.lft.to/lastmile_qr_scan"}, "type": "electric_scooter", "lat": 38.903170833333334, "is_reserved": 0, "fusion_lat": 0.0}, {"bike_id": "c828bced9779bc967c82246dad6ed659", "fusion_lon": 0.0, "lon": -77.02959833333334, "name": "c828bced9779bc967c82246dad6ed659", "is_disabled": 0, "rental_uris": {"android": "https://dc.lft.to/lastmile_qr_scan", "ios": "https://dc.lft.to/lastmile_qr_scan"}, "type": "electric_scooter", "lat": 38.884097, "is_reserved": 0, "fusion_lat": 0.0}, {"bike_id": "75b0764046a1f4fbb479afa51e095914", "fusion_lon": 0.0, "lon": -77.03199233333333, "name": "75b0764046a1f4fbb479afa51e095914", "is_disabled": 0, "rental_uris": {"android": "https://dc.lft.to/lastmile_qr_scan", "ios": "https://dc.lft.to/lastmile_qr_scan"}, "type": "electric_scooter", "lat": 38.91466616666666, "is_reserved": 0, "fusion_lat": 0.0}, {"bike_id": "d39e00b44cd65d271bfb1b37cc2e4e7c", "fusion_lon": 0.0, "lon": -77.10092, "name": "d39e00b44cd65d271bfb1b37cc2e4e7c", "is_disabled": 0, "rental_uris": {"android": "https://dc.lft.to/lastmile_qr_scan", "ios": "https://dc.lft.to/lastmile_qr_scan"}, "type": "electric_bike", "lat": 38.959563833333334, "is_reserved": 0, "fusion_lat": 0.0}, {"bike_id": "261b58c260e9f824d4f181e5e6672a17", "fusion_lon": 0.0, "lon": -77.03782833333334, "name": "261b58c260e9f824d4f181e5e6672a17", "is_disabled": 0, "rental_uris": {"android": "https://dc.lft.to/lastmile_qr_scan", "ios": "https://dc.lft.to/lastmile_qr_scan"}, "type": "electric_scooter", "lat": 38.925067, "is_reserved": 0, "fusion_lat": 0.0}, {"bike_id": "e045c6a13da8555dc92508a2bc4a2fc2", "fusion_lon": 0.0, "lon": -77.0232355, "name": "e045c6a13da8555dc92508a2bc4a2fc2", "is_disabled": 0, "rental_uris": {"android": "https://dc.lft.to/lastmile_qr_scan", "ios": "https://dc.lft.to/lastmile_qr_scan"}, "type": "electric_scooter", "lat": 38.927730333333336, "is_reserved": 0, "fusion_lat": 0.0}, {"bike_id": "96abc1a7448e96cccc57167918767c39", "fusion_lon": 0.0, "lon": -77.01667683333334, "name": "96abc1a7448e96cccc57167918767c39", "is_disabled": 0, "rental_uris": {"android": "https://dc.lft.to/lastmile_qr_scan", "ios": "https://dc.lft.to/lastmile_qr_scan"}, "type": "electric_scooter", "lat": 38.881052333333336, "is_reserved": 0, "fusion_lat": 0.0}, {"bike_id": "e275ebabd91ab5ee8498719c326a23d6", "fusion_lon": 0.0, "lon": -77.03562983333333, "name": "e275ebabd91ab5ee8498719c326a23d6", "is_disabled": 0, "rental_uris": {"android": "https://dc.lft.to/lastmile_qr_scan", "ios": "https://dc.lft.to/lastmile_qr_scan"}, "type": "electric_scooter", "lat": 38.92808983333333, "is_reserved": 0, "fusion_lat": 0.0}, {"bike_id": "0761fd2e0ba2136ae83b7a4e57b5e372", "fusion_lon": 0.0, "lon": -77.04892833333334, "name": "0761fd2e0ba2136ae83b7a4e57b5e372", "is_disabled": 0, "rental_uris": {"android": "https://dc.lft.to/lastmile_qr_scan", "ios": "https://dc.lft.to/lastmile_qr_scan"}, "type": "electric_scooter", "lat": 38.9006285, "is_reserved": 0, "fusion_lat": 0.0}, {"bike_id": "1b0c9d4e1e30b57749b3864b6a3d3076", "fusion_lon": 0.0, "lon": -77.0273015, "name": "1b0c9d4e1e30b57749b3864b6a3d3076", "is_disabled": 0, "rental_uris": {"android": "https://dc.lft.to/lastmile_qr_scan", "ios": "https://dc.lft.to/lastmile_qr_scan"}, "type": "electric_scooter", "lat": 38.940859833333334, "is_reserved": 0, "fusion_lat": 0.0}, {"bike_id": "fa176c69c6348b5f7f77c560f8afb695", "fusion_lon": 0.0, "lon": -77.0325865, "name": "fa176c69c6348b5f7f77c560f8afb695", "is_disabled": 0, "rental_uris": {"android": "https://dc.lft.to/lastmile_qr_scan", "ios": "https://dc.lft.to/lastmile_qr_scan"}, "type": "electric_scooter", "lat": 38.94273416666667, "is_reserved": 0, "fusion_lat": 0.0}, {"bike_id": "0aeece35d0628eea7b990ad737f0c061", "fusion_lon": 0.0, "lon": -77.03290283333334, "name": "0aeece35d0628eea7b990ad737f0c061", "is_disabled": 0, "rental_uris": {"android": "https://dc.lft.to/lastmile_qr_scan", "ios": "https://dc.lft.to/lastmile_qr_scan"}, "type": "electric_scooter", "lat": 38.93454783333333, "is_reserved": 0, "fusion_lat": 0.0}, {"bike_id": "40bdf4c4a7165e4570fe330d99c93a7f", "fusion_lon": 0.0, "lon": -76.99326683333334, "name": "40bdf4c4a7165e4570fe330d99c93a7f", "is_disabled": 0, "rental_uris": {"android": "https://dc.lft.to/lastmile_qr_scan", "ios": "https://dc.lft.to/lastmile_qr_scan"}, "type": "electric_bike", "lat": 38.893615, "is_reserved": 0, "fusion_lat": 0.0}, {"bike_id": "8595b2bff330c2e79c45bc0374d1e3a9", "fusion_lon": 0.0, "lon": -77.0119565, "name": "8595b2bff330c2e79c45bc0374d1e3a9", "is_disabled": 0, "rental_uris": {"android": "https://dc.lft.to/lastmile_qr_scan", "ios": "https://dc.lft.to/lastmile_qr_scan"}, "type": "electric_scooter", "lat": 38.90017316666667, "is_reserved": 0, "fusion_lat": 0.0}, {"bike_id": "afa19432d4fad974610f4a81c2dfa30a", "fusion_lon": 0.0, "lon": -76.98390066666667, "name": "afa19432d4fad974610f4a81c2dfa30a", "is_disabled": 0, "rental_uris": {"android": "https://dc.lft.to/lastmile_qr_scan", "ios": "https://dc.lft.to/lastmile_qr_scan"}, "type": "electric_scooter", "lat": 38.86116833333333, "is_reserved": 0, "fusion_lat": 0.0}, {"bike_id": "1331cd3883aa6d9bef326461454a6bee", "fusion_lon": 0.0, "lon": -77.00192616666666, "name": "1331cd3883aa6d9bef326461454a6bee", "is_disabled": 0, "rental_uris": {"android": "https://dc.lft.to/lastmile_qr_scan", "ios": "https://dc.lft.to/lastmile_qr_scan"}, "type": "electric_scooter", "lat": 38.9007075, "is_reserved": 0, "fusion_lat": 0.0}, {"bike_id": "dde63017d90bfaf5a531208d9e0a6cf4", "fusion_lon": 0.0, "lon": -77.01229716666667, "name": "dde63017d90bfaf5a531208d9e0a6cf4", "is_disabled": 0, "rental_uris": {"android": "https://dc.lft.to/lastmile_qr_scan", "ios": "https://dc.lft.to/lastmile_qr_scan"}, "type": "electric_scooter", "lat": 38.91440883333333, "is_reserved": 0, "fusion_lat": 0.0}, {"bike_id": "9f417f30d2bb87c31a151e5a445330fd", "fusion_lon": 0.0, "lon": -77.0180055, "name": "9f417f30d2bb87c31a151e5a445330fd", "is_disabled": 0, "rental_uris": {"android": "https://dc.lft.to/lastmile_qr_scan", "ios": "https://dc.lft.to/lastmile_qr_scan"}, "type": "electric_scooter", "lat": 38.87674483333333, "is_reserved": 0, "fusion_lat": 0.0}, {"bike_id": "f46a850bd6c36dae3df1cfa8128f33c0", "fusion_lon": 0.0, "lon": -77.03178716666666, "name": "f46a850bd6c36dae3df1cfa8128f33c0", "is_disabled": 0, "rental_uris": {"android": "https://dc.lft.to/lastmile_qr_scan", "ios": "https://dc.lft.to/lastmile_qr_scan"}, "type": "electric_scooter", "lat": 38.9097555, "is_reserved": 0, "fusion_lat": 0.0}, {"bike_id": "a9c7d7ef0daa63a28326e5d553e9eede", "fusion_lon": 0.0, "lon": -77.02200983333333, "name": "a9c7d7ef0daa63a28326e5d553e9eede", "is_disabled": 0, "rental_uris": {"android": "https://dc.lft.to/lastmile_qr_scan", "ios": "https://dc.lft.to/lastmile_qr_scan"}, "type": "electric_scooter", "lat": 38.91102583333333, "is_reserved": 0, "fusion_lat": 0.0}, {"bike_id": "f128711a34b88c8cc4c0582f841c8df3", "fusion_lon": 0.0, "lon": -77.031896, "name": "f128711a34b88c8cc4c0582f841c8df3", "is_disabled": 0, "rental_uris": {"android": "https://dc.lft.to/lastmile_qr_scan", "ios": "https://dc.lft.to/lastmile_qr_scan"}, "type": "electric_scooter", "lat": 38.923789166666666, "is_reserved": 0, "fusion_lat": 0.0}, {"bike_id": "5d5abf2e105e4f5875b40c9803e3c43b", "fusion_lon": 0.0, "lon": -77.02168033333334, "name": "5d5abf2e105e4f5875b40c9803e3c43b", "is_disabled": 0, "rental_uris": {"android": "https://dc.lft.to/lastmile_qr_scan", "ios": "https://dc.lft.to/lastmile_qr_scan"}, "type": "electric_scooter", "lat": 38.897272666666666, "is_reserved": 0, "fusion_lat": 0.0}, {"bike_id": "d442945d0ea032e407ce979c8fb55e5f", "fusion_lon": 0.0, "lon": -77.02289633333334, "name": "d442945d0ea032e407ce979c8fb55e5f", "is_disabled": 0, "rental_uris": {"android": "https://dc.lft.to/lastmile_qr_scan", "ios": "https://dc.lft.to/lastmile_qr_scan"}, "type": "electric_scooter", "lat": 38.916092, "is_reserved": 0, "fusion_lat": 0.0}, {"bike_id": "0faa98097dd72b8f77b4693a3917cd60", "fusion_lon": 0.0, "lon": -77.0321735, "name": "0faa98097dd72b8f77b4693a3917cd60", "is_disabled": 0, "rental_uris": {"android": "https://dc.lft.to/lastmile_qr_scan", "ios": "https://dc.lft.to/lastmile_qr_scan"}, "type": "electric_scooter", "lat": 38.90943983333333, "is_reserved": 0, "fusion_lat": 0.0}, {"bike_id": "bbb831d91d17deb1d748dbc7a6bebcf8", "fusion_lon": 0.0, "lon": -77.00714833333333, "name": "bbb831d91d17deb1d748dbc7a6bebcf8", "is_disabled": 0, "rental_uris": {"android": "https://dc.lft.to/lastmile_qr_scan", "ios": "https://dc.lft.to/lastmile_qr_scan"}, "type": "electric_scooter", "lat": 38.879220333333336, "is_reserved": 0, "fusion_lat": 0.0}, {"bike_id": "cbb521ce587a9cca03d45fe8d7dc0ab8", "fusion_lon": 0.0, "lon": -76.9871515, "name": "cbb521ce587a9cca03d45fe8d7dc0ab8", "is_disabled": 0, "rental_uris": {"android": "https://dc.lft.to/lastmile_qr_scan", "ios": "https://dc.lft.to/lastmile_qr_scan"}, "type": "electric_scooter", "lat": 38.86634083333333, "is_reserved": 0, "fusion_lat": 0.0}, {"bike_id": "b3116ee71134a0c14f81164ea18004c8", "fusion_lon": 0.0, "lon": -77.04639, "name": "b3116ee71134a0c14f81164ea18004c8", "is_disabled": 0, "rental_uris": {"android": "https://dc.lft.to/lastmile_qr_scan", "ios": "https://dc.lft.to/lastmile_qr_scan"}, "type": "electric_scooter", "lat": 38.895321333333335, "is_reserved": 0, "fusion_lat": 0.0}, {"bike_id": "a707d696d87e577ce7b3ed18febab316", "fusion_lon": 0.0, "lon": -77.03307533333333, "name": "a707d696d87e577ce7b3ed18febab316", "is_disabled": 0, "rental_uris": {"android": "https://dc.lft.to/lastmile_qr_scan", "ios": "https://dc.lft.to/lastmile_qr_scan"}, "type": "electric_scooter", "lat": 38.907172833333334, "is_reserved": 0, "fusion_lat": 0.0}, {"bike_id": "4315ca93c36cf0b9c238c7ab1ec81e6c", "fusion_lon": 0.0, "lon": -77.03256183333333, "name": "4315ca93c36cf0b9c238c7ab1ec81e6c", "is_disabled": 0, "rental_uris": {"android": "https://dc.lft.to/lastmile_qr_scan", "ios": "https://dc.lft.to/lastmile_qr_scan"}, "type": "electric_bike", "lat": 38.962814, "is_reserved": 0, "fusion_lat": 0.0}, {"bike_id": "c57e60d8f01e328169fa35f09bcaedf5", "fusion_lon": 0.0, "lon": -77.03172683333334, "name": "c57e60d8f01e328169fa35f09bcaedf5", "is_disabled": 0, "rental_uris": {"android": "https://dc.lft.to/lastmile_qr_scan", "ios": "https://dc.lft.to/lastmile_qr_scan"}, "type": "electric_scooter", "lat": 38.914054, "is_reserved": 0, "fusion_lat": 0.0}, {"bike_id": "093418347dd6ce3feac5d55a6e259de3", "fusion_lon": 0.0, "lon": -77.03501383333334, "name": "093418347dd6ce3feac5d55a6e259de3", "is_disabled": 0, "rental_uris": {"android": "https://dc.lft.to/lastmile_qr_scan", "ios": "https://dc.lft.to/lastmile_qr_scan"}, "type": "electric_scooter", "lat": 38.963857, "is_reserved": 0, "fusion_lat": 0.0}, {"bike_id": "5d12c5c0dda69134325e4d7d7dfe300b", "fusion_lon": 0.0, "lon": -77.02165666666667, "name": "5d12c5c0dda69134325e4d7d7dfe300b", "is_disabled": 0, "rental_uris": {"android": "https://dc.lft.to/lastmile_qr_scan", "ios": "https://dc.lft.to/lastmile_qr_scan"}, "type": "electric_scooter", "lat": 38.94699633333333, "is_reserved": 0, "fusion_lat": 0.0}, {"bike_id": "4c1450e0b2f6297cd66545276acfc812", "fusion_lon": 0.0, "lon": -76.98192816666666, "name": "4c1450e0b2f6297cd66545276acfc812", "is_disabled": 0, "rental_uris": {"android": "https://dc.lft.to/lastmile_qr_scan", "ios": "https://dc.lft.to/lastmile_qr_scan"}, "type": "electric_bike", "lat": 38.98511716666667, "is_reserved": 0, "fusion_lat": 0.0}, {"bike_id": "19a1ef17d7d6561f98ef127aeceba68d", "fusion_lon": 0.0, "lon": -76.97808533333334, "name": "19a1ef17d7d6561f98ef127aeceba68d", "is_disabled": 0, "rental_uris": {"android": "https://dc.lft.to/lastmile_qr_scan", "ios": "https://dc.lft.to/lastmile_qr_scan"}, "type": "electric_scooter", "lat": 38.894513333333336, "is_reserved": 0, "fusion_lat": 0.0}, {"bike_id": "25038f0c6a83d5f00180c06c24cc6fb9", "fusion_lon": 0.0, "lon": -77.02948716666667, "name": "25038f0c6a83d5f00180c06c24cc6fb9", "is_disabled": 0, "rental_uris": {"android": "https://dc.lft.to/lastmile_qr_scan", "ios": "https://dc.lft.to/lastmile_qr_scan"}, "type": "electric_scooter", "lat": 38.90526966666667, "is_reserved": 0, "fusion_lat": 0.0}, {"bike_id": "d5ea77149cce2295a1852a509de0c12e", "fusion_lon": 0.0, "lon": -77.04100366666667, "name": "d5ea77149cce2295a1852a509de0c12e", "is_disabled": 0, "rental_uris": {"android": "https://dc.lft.to/lastmile_qr_scan", "ios": "https://dc.lft.to/lastmile_qr_scan"}, "type": "electric_scooter", "lat": 38.9177715, "is_reserved": 0, "fusion_lat": 0.0}, {"bike_id": "d9fb8cd6f31c9b03c29baac6257f8ba2", "fusion_lon": 0.0, "lon": -76.99755583333334, "name": "d9fb8cd6f31c9b03c29baac6257f8ba2", "is_disabled": 0, "rental_uris": {"android": "https://dc.lft.to/lastmile_qr_scan", "ios": "https://dc.lft.to/lastmile_qr_scan"}, "type": "electric_scooter", "lat": 38.887693666666664, "is_reserved": 0, "fusion_lat": 0.0}, {"bike_id": "fafb22b27606da3201659b2e31e04c0b", "fusion_lon": 0.0, "lon": -76.942815, "name": "fafb22b27606da3201659b2e31e04c0b", "is_disabled": 0, "rental_uris": {"android": "https://dc.lft.to/lastmile_qr_scan", "ios": "https://dc.lft.to/lastmile_qr_scan"}, "type": "electric_bike", "lat": 38.879686, "is_reserved": 0, "fusion_lat": 0.0}, {"bike_id": "47adf74649f0bee83e680e7ee5c62315", "fusion_lon": 0.0, "lon": -77.06862983333333, "name": "47adf74649f0bee83e680e7ee5c62315", "is_disabled": 0, "rental_uris": {"android": "https://dc.lft.to/lastmile_qr_scan", "ios": "https://dc.lft.to/lastmile_qr_scan"}, "type": "electric_bike", "lat": 38.805760166666666, "is_reserved": 0, "fusion_lat": 0.0}, {"bike_id": "0e597606e71d437a590a21b7fe86dc3e", "fusion_lon": 0.0, "lon": -77.02092033333334, "name": "0e597606e71d437a590a21b7fe86dc3e", "is_disabled": 0, "rental_uris": {"android": "https://dc.lft.to/lastmile_qr_scan", "ios": "https://dc.lft.to/lastmile_qr_scan"}, "type": "electric_scooter", "lat": 38.94114366666667, "is_reserved": 0, "fusion_lat": 0.0}, {"bike_id": "f35a80aaf96e703a5811d9abf8bd1076", "fusion_lon": 0.0, "lon": -77.018555, "name": "f35a80aaf96e703a5811d9abf8bd1076", "is_disabled": 0, "rental_uris": {"android": "https://dc.lft.to/lastmile_qr_scan", "ios": "https://dc.lft.to/lastmile_qr_scan"}, "type": "electric_scooter", "lat": 38.9040385, "is_reserved": 0, "fusion_lat": 0.0}, {"bike_id": "a25d7629929b0f3b2e3a18fbdd691668", "fusion_lon": 0.0, "lon": -77.02325716666667, "name": "a25d7629929b0f3b2e3a18fbdd691668", "is_disabled": 0, "rental_uris": {"android": "https://dc.lft.to/lastmile_qr_scan", "ios": "https://dc.lft.to/lastmile_qr_scan"}, "type": "electric_scooter", "lat": 38.897368, "is_reserved": 0, "fusion_lat": 0.0}, {"bike_id": "14ecffa3a6348e099c4e1eb1c69578ec", "fusion_lon": 0.0, "lon": -77.016884, "name": "14ecffa3a6348e099c4e1eb1c69578ec", "is_disabled": 0, "rental_uris": {"android": "https://dc.lft.to/lastmile_qr_scan", "ios": "https://dc.lft.to/lastmile_qr_scan"}, "type": "electric_scooter", "lat": 38.90642233333333, "is_reserved": 0, "fusion_lat": 0.0}, {"bike_id": "ae499e661efe1d50b5e6ed3ae19df795", "fusion_lon": 0.0, "lon": -77.01774866666666, "name": "ae499e661efe1d50b5e6ed3ae19df795", "is_disabled": 0, "rental_uris": {"android": "https://dc.lft.to/lastmile_qr_scan", "ios": "https://dc.lft.to/lastmile_qr_scan"}, "type": "electric_bike", "lat": 38.98275483333333, "is_reserved": 0, "fusion_lat": 0.0}, {"bike_id": "775de965f3a605ddba64bf0027204cd8", "fusion_lon": 0.0, "lon": -77.05000966666667, "name": "775de965f3a605ddba64bf0027204cd8", "is_disabled": 0, "rental_uris": {"android": "https://dc.lft.to/lastmile_qr_scan", "ios": "https://dc.lft.to/lastmile_qr_scan"}, "type": "electric_scooter", "lat": 38.89231783333334, "is_reserved": 0, "fusion_lat": 0.0}, {"bike_id": "dc9ef70cad21d88abae9aa8c309999e1", "fusion_lon": 0.0, "lon": -77.041975, "name": "dc9ef70cad21d88abae9aa8c309999e1", "is_disabled": 0, "rental_uris": {"android": "https://dc.lft.to/lastmile_qr_scan", "ios": "https://dc.lft.to/lastmile_qr_scan"}, "type": "electric_scooter", "lat": 38.92048416666667, "is_reserved": 0, "fusion_lat": 0.0}, {"bike_id": "ccc9a7caf5c792c2f754212abe8620fe", "fusion_lon": 0.0, "lon": -77.02713683333333, "name": "ccc9a7caf5c792c2f754212abe8620fe", "is_disabled": 0, "rental_uris": {"android": "https://dc.lft.to/lastmile_qr_scan", "ios": "https://dc.lft.to/lastmile_qr_scan"}, "type": "electric_scooter", "lat": 38.922351, "is_reserved": 0, "fusion_lat": 0.0}, {"bike_id": "539d14527fb31f661c9f495d2780962d", "fusion_lon": 0.0, "lon": -77.00324066666667, "name": "539d14527fb31f661c9f495d2780962d", "is_disabled": 0, "rental_uris": {"android": "https://dc.lft.to/lastmile_qr_scan", "ios": "https://dc.lft.to/lastmile_qr_scan"}, "type": "electric_scooter", "lat": 38.9012755, "is_reserved": 0, "fusion_lat": 0.0}, {"bike_id": "9338286131ca14389e336407f34d5655", "fusion_lon": 0.0, "lon": -77.023427, "name": "9338286131ca14389e336407f34d5655", "is_disabled": 0, "rental_uris": {"android": "https://dc.lft.to/lastmile_qr_scan", "ios": "https://dc.lft.to/lastmile_qr_scan"}, "type": "electric_scooter", "lat": 38.944681333333335, "is_reserved": 0, "fusion_lat": 0.0}, {"bike_id": "c90dffe7a93b87c7bba19d34c416e741", "fusion_lon": 0.0, "lon": -76.99476866666667, "name": "c90dffe7a93b87c7bba19d34c416e741", "is_disabled": 0, "rental_uris": {"android": "https://dc.lft.to/lastmile_qr_scan", "ios": "https://dc.lft.to/lastmile_qr_scan"}, "type": "electric_bike", "lat": 38.862673, "is_reserved": 0, "fusion_lat": 0.0}, {"bike_id": "d523a2a4c4834a2b0da37b4dc830a7d3", "fusion_lon": 0.0, "lon": -77.027941, "name": "d523a2a4c4834a2b0da37b4dc830a7d3", "is_disabled": 0, "rental_uris": {"android": "https://dc.lft.to/lastmile_qr_scan", "ios": "https://dc.lft.to/lastmile_qr_scan"}, "type": "electric_scooter", "lat": 38.930879166666664, "is_reserved": 0, "fusion_lat": 0.0}, {"bike_id": "72eae7e57570bfde2b98f63354405906", "fusion_lon": 0.0, "lon": -76.9777075, "name": "72eae7e57570bfde2b98f63354405906", "is_disabled": 0, "rental_uris": {"android": "https://dc.lft.to/lastmile_qr_scan", "ios": "https://dc.lft.to/lastmile_qr_scan"}, "type": "electric_scooter", "lat": 38.87068766666667, "is_reserved": 0, "fusion_lat": 0.0}, {"bike_id": "df30faa5525fbe2aadd3952925763fba", "fusion_lon": 0.0, "lon": -77.02683116666667, "name": "df30faa5525fbe2aadd3952925763fba", "is_disabled": 0, "rental_uris": {"android": "https://dc.lft.to/lastmile_qr_scan", "ios": "https://dc.lft.to/lastmile_qr_scan"},