{"data": {"bikes": [{"name": "577fa353b98b717ef463020233d54f16", "fusion_lat": 0.0, "type": "electric_scooter", "lat": 38.8853575, "is_reserved": 0, "is_disabled": 0, "fusion_lon": 0.0, "bike_id": "577fa353b98b717ef463020233d54f16", "lon": -77.00577183333333, "rental_uris": {"ios": "https://dc.lft.to/lastmile_qr_scan", "android": "https://dc.lft.to/lastmile_qr_scan"}}, {"name": "55612d4c3c3043b2ac2edb31d4083194", "fusion_lat": 0.0, "type": "electric_scooter", "lat": 38.903397, "is_reserved": 0, "is_disabled": 0, "fusion_lon": 0.0, "bike_id": "55612d4c3c3043b2ac2edb31d4083194", "lon": -77.03987316666667, "rental_uris": {"ios": "https://dc.lft.to/lastmile_qr_scan", "android": "https://dc.lft.to/lastmile_qr_scan"}}, {"name": "cd8f8bf643aaff8bbd8d3be3e6c8bdf8", "fusion_lat": 0.0, "type": "electric_scooter", "lat": 38.85799866666667, "is_reserved": 0, "is_disabled": 0, "fusion_lon": 0.0, "bike_id": "cd8f8bf643aaff8bbd8d3be3e6c8bdf8", "lon": -76.9865035, "rental_uris": {"ios": "https://dc.lft.to/lastmile_qr_scan", "android": "https://dc.lft.to/lastmile_qr_scan"}}, {"name": "58de9ccd89f393e6fe36157ff2dfc0fb", "fusion_lat": 0.0, "type": "electric_scooter", "lat": 38.89988, "is_reserved": 0, "is_disabled": 0, "fusion_lon": 0.0, "bike_id": "58de9ccd89f393e6fe36157ff2dfc0fb", "lon": -77.02712633333333, "rental_uris": {"ios": "https://dc.lft.to/lastmile_qr_scan", "android": "https://dc.lft.to/lastmile_qr_scan"}}, {"name": "6fdf9ecd169fbd7217034e248aef70c2", "fusion_lat": 0.0, "type": "electric_bike", "lat": 38.990579333333336, "is_reserved": 0, "is_disabled": 0, "fusion_lon": 0.0, "bike_id": "6fdf9ecd169fbd7217034e248aef70c2", "lon": -77.10028483333333, "rental_uris": {"ios": "https://dc.lft.to/lastmile_qr_scan", "android": "https://dc.lft.to/lastmile_qr_scan"}}, {"name": "fee017c42abb03aa65e51831538d92a6", "fusion_lat": 0.0, "type": "electric_scooter", "lat": 38.929484333333335, "is_reserved": 0, "is_disabled": 0, "fusion_lon": 0.0, "bike_id": "fee017c42abb03aa65e51831538d92a6", "lon": -77.0347095, "rental_uris": {"ios": "https://dc.lft.to/lastmile_qr_scan", "android": "https://dc.lft.to/lastmile_qr_scan"}}, {"name": "e746927496272d8bc4ef3a7e830eeaab", "fusion_lat": 0.0, "type": "electric_scooter", "lat": 38.90218816666667, "is_reserved": 0, "is_disabled": 0, "fusion_lon": 0.0, "bike_id": "e746927496272d8bc4ef3a7e830eeaab", "lon": -77.04354816666667, "rental_uris": {"ios": "https://dc.lft.to/lastmile_qr_scan", "android": "https://dc.lft.to/lastmile_qr_scan"}}, {"name": "ea35b3dc9200a925581c23acd9a4c570", "fusion_lat": 0.0, "type": "electric_scooter", "lat": 38.9394875, "is_reserved": 0, "is_disabled": 0, "fusion_lon": 0.0, "bike_id": "ea35b3dc9200a925581c23acd9a4c570", "lon": -77.03261233333333, "rental_uris": {"ios": "https://dc.lft.to/lastmile_qr_scan", "android": "https://dc.lft.to/lastmile_qr_scan"}}, {"name": "9e044d39fd8bfbffe991eecf2b02ce23", "fusion_lat": 0.0, "type": "electric_scooter", "lat": 38.91111316666667, "is_reserved": 0, "is_disabled": 0, "fusion_lon": 0.0, "bike_id": "9e044d39fd8bfbffe991eecf2b02ce23", "lon": -77.03722066666667, "rental_uris": {"ios": "https://dc.lft.to/lastmile_qr_scan", "android": "https://dc.lft.to/lastmile_qr_scan"}}, {"name": "5caa4f51604150639622d6c63b0bea63", "fusion_lat": 0.0, "type": "electric_scooter", "lat": 38.905912666666666, "is_reserved": 0, "is_disabled": 0, "fusion_lon": 0.0, "bike_id": "5caa4f51604150639622d6c63b0bea63", "lon": -77.07006766666667, "rental_uris": {"ios": "https://dc.lft.to/lastmile_qr_scan", "android": "https://dc.lft.to/lastmile_qr_scan"}}, {"name": "9ce19c6d81de47a859864dce1ddb77f6", "fusion_lat": 0.0, "type": "electric_scooter", "lat": 38.937791833333335, "is_reserved": 0, "is_disabled": 0, "fusion_lon": 0.0, "bike_id": "9ce19c6d81de47a859864dce1ddb77f6", "lon": -77.0600245, "rental_uris": {"ios": "https://dc.lft.to/lastmile_qr_scan", "android": "https://dc.lft.to/lastmile_qr_scan"}}, {"name": "5441a4af29dcd0a6664f47f8e90a964f", "fusion_lat": 0.0, "type": "electric_scooter", "lat": 38.9221035, "is_reserved": 0, "is_disabled": 0, "fusion_lon": 0.0, "bike_id": "5441a4af29dcd0a6664f47f8e90a964f", "lon": -77.0425035, "rental_uris": {"ios": "https://dc.lft.to/lastmile_qr_scan", "android": "https://dc.lft.to/lastmile_qr_scan"}}, {"name": "aeb9ad5afc2f8d2394aafc28a888b31d", "fusion_lat": 0.0, "type": "electric_scooter", "lat": 38.8764325, "is_reserved": 0, "is_disabled": 0, "fusion_lon": 0.0, "bike_id": "aeb9ad5afc2f8d2394aafc28a888b31d", "lon": -76.96505383333333, "rental_uris": {"ios": "https://dc.lft.to/lastmile_qr_scan", "android": "https://dc.lft.to/lastmile_qr_scan"}}, {"name": "d3cc86efdd9af009fd31d52d34700435", "fusion_lat": 0.0, "type": "electric_scooter", "lat": 38.938396166666664, "is_reserved": 0, "is_disabled": 0, "fusion_lon": 0.0, "bike_id": "d3cc86efdd9af009fd31d52d34700435", "lon": -77.02482716666667, "rental_uris": {"ios": "https://dc.lft.to/lastmile_qr_scan", "android": "https://dc.lft.to/lastmile_qr_scan"}}, {"name": "337ffc6d58ec29f31ecc15338001f669", "fusion_lat": 0.0, "type": "electric_scooter", "lat": 38.87495533333333, "is_reserved": 0, "is_disabled": 0, "fusion_lon": 0.0, "bike_id": "337ffc6d58ec29f31ecc15338001f669", "lon": -76.9979305, "rental_uris": {"ios": "https://dc.lft.to/lastmile_qr_scan", "android": "https://dc.lft.to/lastmile_qr_scan"}}, {"name": "561ee9a60b1a6c5de1708bc679bd06b2", "fusion_lat": 0.0, "type": "electric_scooter", "lat": 38.92288516666667, "is_reserved": 0, "is_disabled": 0, "fusion_lon": 0.0, "bike_id": "561ee9a60b1a6c5de1708bc679bd06b2", "lon": -77.02973616666667, "rental_uris": {"ios": "https://dc.lft.to/lastmile_qr_scan", "android": "https://dc.lft.to/lastmile_qr_scan"}}, {"name": "3ceed9e93b42cfd8a85fecc96c52075c", "fusion_lat": 0.0, "type": "electric_scooter", "lat": 38.90022183333333, "is_reserved": 0, "is_disabled": 0, "fusion_lon": 0.0, "bike_id": "3ceed9e93b42cfd8a85fecc96c52075c", "lon": -77.00100183333333, "rental_uris": {"ios": "https://dc.lft.to/lastmile_qr_scan", "android": "https://dc.lft.to/lastmile_qr_scan"}}, {"name": "82823d2e37ed6b3e9b80a0b32094589d", "fusion_lat": 0.0, "type": "electric_scooter", "lat": 38.87645883333333, "is_reserved": 0, "is_disabled": 0, "fusion_lon": 0.0, "bike_id": "82823d2e37ed6b3e9b80a0b32094589d", "lon": -77.00450316666667, "rental_uris": {"ios": "https://dc.lft.to/lastmile_qr_scan", "android": "https://dc.lft.to/lastmile_qr_scan"}}, {"name": "90f87404557dea062d5ce7b32de75a8f", "fusion_lat": 0.0, "type": "electric_scooter", "lat": 38.92371833333333, "is_reserved": 0, "is_disabled": 0, "fusion_lon": 0.0, "bike_id": "90f87404557dea062d5ce7b32de75a8f", "lon": -77.0193805, "rental_uris": {"ios": "https://dc.lft.to/lastmile_qr_scan", "android": "https://dc.lft.to/lastmile_qr_scan"}}, {"name": "409eff371a08dbcc5e502c959c5e5b11", "fusion_lat": 0.0, "type": "electric_scooter", "lat": 38.9140195, "is_reserved": 0, "is_disabled": 0, "fusion_lon": 0.0, "bike_id": "409eff371a08dbcc5e502c959c5e5b11", "lon": -77.0222905, "rental_uris": {"ios": "https://dc.lft.to/lastmile_qr_scan", "android": "https://dc.lft.to/lastmile_qr_scan"}}, {"name": "3740162f05a7be504c8108fcc52bdc88", "fusion_lat": 0.0, "type": "electric_scooter", "lat": 38.900246833333334, "is_reserved": 0, "is_disabled": 0, "fusion_lon": 0.0, "bike_id": "3740162f05a7be504c8108fcc52bdc88", "lon": -77.01183716666667, "rental_uris": {"ios": "https://dc.lft.to/lastmile_qr_scan", "android": "https://dc.lft.to/lastmile_qr_scan"}}, {"name": "c9b635695e1385dce29d6f7157279686", "fusion_lat": 0.0, "type": "electric_scooter", "lat": 38.9495715, "is_reserved": 0, "is_disabled": 0, "fusion_lon": 0.0, "bike_id": "c9b635695e1385dce29d6f7157279686", "lon": -77.02726016666666, "rental_uris": {"ios": "https://dc.lft.to/lastmile_qr_scan", "android": "https://dc.lft.to/lastmile_qr_scan"}}, {"name": "e013d53935e1ae8ed881e7c968603c68", "fusion_lat": 0.0, "type": "electric_scooter", "lat": 38.916934833333336, "is_reserved": 0, "is_disabled": 0, "fusion_lon": 0.0, "bike_id": "e013d53935e1ae8ed881e7c968603c68", "lon": -77.031721, "rental_uris": {"ios": "https://dc.lft.to/lastmile_qr_scan", "android": "https://dc.lft.to/lastmile_qr_scan"}}, {"name": "39ca4f5a5451f453cefe9f7a8b329229", "fusion_lat": 0.0, "type": "electric_scooter", "lat": 38.93579966666667, "is_reserved": 0, "is_disabled": 0, "fusion_lon": 0.0, "bike_id": "39ca4f5a5451f453cefe9f7a8b329229", "lon": -76.99104383333334, "rental_uris": {"ios": "https://dc.lft.to/lastmile_qr_scan", "android": "https://dc.lft.to/lastmile_qr_scan"}}, {"name": "56532552c57ebfa0c36e42145b04a285", "fusion_lat": 0.0, "type": "electric_scooter", "lat": 38.9217235, "is_reserved": 0, "is_disabled": 0, "fusion_lon": 0.0, "bike_id": "56532552c57ebfa0c36e42145b04a285", "lon": -77.032312, "rental_uris": {"ios": "https://dc.lft.to/lastmile_qr_scan", "android": "https://dc.lft.to/lastmile_qr_scan"}}, {"name": "f1cae81811523304829664b4d2cd4043", "fusion_lat": 0.0, "type": "electric_scooter", "lat": 38.887411, "is_reserved": 0, "is_disabled": 0, "fusion_lon": 0.0, "bike_id": "f1cae81811523304829664b4d2cd4043", "lon": -77.0212825, "rental_uris": {"ios": "https://dc.lft.to/lastmile_qr_scan", "android": "https://dc.lft.to/lastmile_qr_scan"}}, {"name": "ba6f9e2209bf6ac70cad0f6a9f9d56ba", "fusion_lat": 0.0, "type": "electric_scooter", "lat": 38.90530033333334, "is_reserved": 0, "is_disabled": 0, "fusion_lon": 0.0, "bike_id": "ba6f9e2209bf6ac70cad0f6a9f9d56ba", "lon": -77.05767983333334, "rental_uris": {"ios": "https://dc.lft.to/lastmile_qr_scan", "android": "https://dc.lft.to/lastmile_qr_scan"}}, {"name": "8040fda82d97bc85a5c218eda987b3bf", "fusion_lat": 0.0, "type": "electric_scooter", "lat": 38.92527666666667, "is_reserved": 0, "is_disabled": 0, "fusion_lon": 0.0, "bike_id": "8040fda82d97bc85a5c218eda987b3bf", "lon": -77.0553905, "rental_uris": {"ios": "https://dc.lft.to/lastmile_qr_scan", "android": "https://dc.lft.to/lastmile_qr_scan"}}, {"name": "7192628eb502a297ff8c16fb7cc35b39", "fusion_lat": 0.0, "type": "electric_scooter", "lat": 38.893968, "is_reserved": 0, "is_disabled": 0, "fusion_lon": 0.0, "bike_id": "7192628eb502a297ff8c16fb7cc35b39", "lon": -76.948045, "rental_uris": {"ios": "https://dc.lft.to/lastmile_qr_scan", "android": "https://dc.lft.to/lastmile_qr_scan"}}, {"name": "43ef780468c281c854eda1dbe6b10751", "fusion_lat": 0.0, "type": "electric_scooter", "lat": 38.928624, "is_reserved": 0, "is_disabled": 0, "fusion_lon": 0.0, "bike_id": "43ef780468c281c854eda1dbe6b10751", "lon": -77.0334855, "rental_uris": {"ios": "https://dc.lft.to/lastmile_qr_scan", "android": "https://dc.lft.to/lastmile_qr_scan"}}, {"name": "62f45a2f4e85e9c4fabdcf6c1e044fba", "fusion_lat": 0.0, "type": "electric_scooter", "lat": 38.9015665, "is_reserved": 0, "is_disabled": 0, "fusion_lon": 0.0, "bike_id": "62f45a2f4e85e9c4fabdcf6c1e044fba", "lon": -76.93057933333333, "rental_uris": {"ios": "https://dc.lft.to/lastmile_qr_scan", "android": "https://dc.lft.to/lastmile_qr_scan"}}, {"name": "a6bd614a9ebbd12f1a7914624176329f", "fusion_lat": 0.0, "type": "electric_scooter", "lat": 38.91923216666667, "is_reserved": 0, "is_disabled": 0, "fusion_lon": 0.0, "bike_id": "a6bd614a9ebbd12f1a7914624176329f", "lon": -77.03419733333334, "rental_uris": {"ios": "https://dc.lft.to/lastmile_qr_scan", "android": "https://dc.lft.to/lastmile_qr_scan"}}, {"name": "a448fe0f2af26980bd538969baa9b707", "fusion_lat": 0.0, "type": "electric_scooter", "lat": 38.895242833333334, "is_reserved": 0, "is_disabled": 0, "fusion_lon": 0.0, "bike_id": "a448fe0f2af26980bd538969baa9b707", "lon": -77.04644166666667, "rental_uris": {"ios": "https://dc.lft.to/lastmile_qr_scan", "android": "https://dc.lft.to/lastmile_qr_scan"}}, {"name": "a24b9021542a94b7875a9d5780910808", "fusion_lat": 0.0, "type": "electric_scooter", "lat": 38.857077, "is_reserved": 0, "is_disabled": 0, "fusion_lon": 0.0, "bike_id": "a24b9021542a94b7875a9d5780910808", "lon": -76.98127066666666, "rental_uris": {"ios": "https://dc.lft.to/lastmile_qr_scan", "android": "https://dc.lft.to/lastmile_qr_scan"}}, {"name": "dd7b2cf6efff0cc5b896d4ac6babf489", "fusion_lat": 0.0, "type": "electric_bike", "lat": 38.90326, "is_reserved": 0, "is_disabled": 0, "fusion_lon": 0.0, "bike_id": "dd7b2cf6efff0cc5b896d4ac6babf489", "lon": -76.97533466666667, "rental_uris": {"ios": "https://dc.lft.to/lastmile_qr_scan", "android": "https://dc.lft.to/lastmile_qr_scan"}}, {"name": "512ae39df8b99236d9846e8bfd4c1aca", "fusion_lat": 0.0, "type": "electric_scooter", "lat": 38.8843235, "is_reserved": 0, "is_disabled": 0, "fusion_lon": 0.0, "bike_id": "512ae39df8b99236d9846e8bfd4c1aca", "lon": -76.95749366666666, "rental_uris": {"ios": "https://dc.lft.to/lastmile_qr_scan", "android": "https://dc.lft.to/lastmile_qr_scan"}}, {"name": "8a22fa0b5cd1ecb6cfbbb5fc1bda7edb", "fusion_lat": 0.0, "type": "electric_scooter", "lat": 38.9078195, "is_reserved": 0, "is_disabled": 0, "fusion_lon": 0.0, "bike_id": "8a22fa0b5cd1ecb6cfbbb5fc1bda7edb", "lon": -77.03860683333333, "rental_uris": {"ios": "https://dc.lft.to/lastmile_qr_scan", "android": "https://dc.lft.to/lastmile_qr_scan"}}, {"name": "6875d8e0c1a02dbd49b0741396afc082", "fusion_lat": 0.0, "type": "electric_scooter", "lat": 38.89957616666667, "is_reserved": 0, "is_disabled": 0, "fusion_lon": 0.0, "bike_id": "6875d8e0c1a02dbd49b0741396afc082", "lon": -77.033549, "rental_uris": {"ios": "https://dc.lft.to/lastmile_qr_scan", "android": "https://dc.lft.to/lastmile_qr_scan"}}, {"name": "9fc8350f868cfd7211536da5722c2700", "fusion_lat": 0.0, "type": "electric_scooter", "lat": 38.897078, "is_reserved": 0, "is_disabled": 0, "fusion_lon": 0.0, "bike_id": "9fc8350f868cfd7211536da5722c2700", "lon": -77.0266135, "rental_uris": {"ios": "https://dc.lft.to/lastmile_qr_scan", "android": "https://dc.lft.to/lastmile_qr_scan"}}, {"name": "4c816f53137700ac3a065ea1a0feb9b7", "fusion_lat": 0.0, "type": "electric_scooter", "lat": 38.9163175, "is_reserved": 0, "is_disabled": 0, "fusion_lon": 0.0, "bike_id": "4c816f53137700ac3a065ea1a0feb9b7", "lon": -77.03183816666666, "rental_uris": {"ios": "https://dc.lft.to/lastmile_qr_scan", "android": "https://dc.lft.to/lastmile_qr_scan"}}, {"name": "57285502a08899fae9237a146f8b0420", "fusion_lat": 0.0, "type": "electric_scooter", "lat": 38.92617833333333, "is_reserved": 0, "is_disabled": 0, "fusion_lon": 0.0, "bike_id": "57285502a08899fae9237a146f8b0420", "lon": -77.04192, "rental_uris": {"ios": "https://dc.lft.to/lastmile_qr_scan", "android": "https://dc.lft.to/lastmile_qr_scan"}}, {"name": "082ab0ec674f9b8f3ba5f1a50fc7a381", "fusion_lat": 0.0, "type": "electric_bike", "lat": 38.941779, "is_reserved": 0, "is_disabled": 0, "fusion_lon": 0.0, "bike_id": "082ab0ec674f9b8f3ba5f1a50fc7a381", "lon": -77.02868483333333, "rental_uris": {"ios": "https://dc.lft.to/lastmile_qr_scan", "android": "https://dc.lft.to/lastmile_qr_scan"}}, {"name": "238a7f64b73effb737298587ed97264e", "fusion_lat": 0.0, "type": "electric_scooter", "lat": 38.90664266666667, "is_reserved": 0, "is_disabled": 0, "fusion_lon": 0.0, "bike_id": "238a7f64b73effb737298587ed97264e", "lon": -77.02711383333333, "rental_uris": {"ios": "https://dc.lft.to/lastmile_qr_scan", "android": "https://dc.lft.to/lastmile_qr_scan"}}, {"name": "ab04508548a739fec990d10a69016a24", "fusion_lat": 0.0, "type": "electric_bike", "lat": 38.9090925, "is_reserved": 0, "is_disabled": 0, "fusion_lon": 0.0, "bike_id": "ab04508548a739fec990d10a69016a24", "lon": -77.07263633333334, "rental_uris": {"ios": "https://dc.lft.to/lastmile_qr_scan", "android": "https://dc.lft.to/lastmile_qr_scan"}}, {"name": "d7ab67707ed5fce2639703d1155bf95b", "fusion_lat": 0.0, "type": "electric_scooter", "lat": 38.888403833333335, "is_reserved": 0, "is_disabled": 0, "fusion_lon": 0.0, "bike_id": "d7ab67707ed5fce2639703d1155bf95b", "lon": -77.04907083333333, "rental_uris": {"ios": "https://dc.lft.to/lastmile_qr_scan", "android": "https://dc.lft.to/lastmile_qr_scan"}}, {"name": "3c0a66d1c1d70bb25dfa8dfa91d891a5", "fusion_lat": 0.0, "type": "electric_scooter", "lat": 38.94804083333333, "is_reserved": 0, "is_disabled": 0, "fusion_lon": 0.0, "bike_id": "3c0a66d1c1d70bb25dfa8dfa91d891a5", "lon": -77.07908416666666, "rental_uris": {"ios": "https://dc.lft.to/lastmile_qr_scan", "android": "https://dc.lft.to/lastmile_qr_scan"}}, {"name": "8a1c4b03614334021de969d9017907aa", "fusion_lat": 0.0, "type": "electric_scooter", "lat": 38.919357166666664, "is_reserved": 0, "is_disabled": 0, "fusion_lon": 0.0, "bike_id": "8a1c4b03614334021de969d9017907aa", "lon": -77.04542833333333, "rental_uris": {"ios": "https://dc.lft.to/lastmile_qr_scan", "android": "https://dc.lft.to/lastmile_qr_scan"}}, {"name": "2b4566657a522e1ab31c1a846d18fd66", "fusion_lat": 0.0, "type": "electric_scooter", "lat": 38.93358283333333, "is_reserved": 0, "is_disabled": 0, "fusion_lon": 0.0, "bike_id": "2b4566657a522e1ab31c1a846d18fd66", "lon": -77.03451833333334, "rental_uris": {"ios": "https://dc.lft.to/lastmile_qr_scan", "android": "https://dc.lft.to/lastmile_qr_scan"}}, {"name": "2ba7c3a814f5593e15a5c36d2bea385d", "fusion_lat": 0.0, "type": "electric_bike", "lat": 38.9311875, "is_reserved": 0, "is_disabled": 0, "fusion_lon": 0.0, "bike_id": "2ba7c3a814f5593e15a5c36d2bea385d", "lon": -77.027116, "rental_uris": {"ios": "https://dc.lft.to/lastmile_qr_scan", "android": "https://dc.lft.to/lastmile_qr_scan"}}, {"name": "de1e55eccc16daaec802d6bbe4db3cf1", "fusion_lat": 0.0, "type": "electric_scooter", "lat": 38.90420433333333, "is_reserved": 0, "is_disabled": 0, "fusion_lon": 0.0, "bike_id": "de1e55eccc16daaec802d6bbe4db3cf1", "lon": -77.05299433333333, "rental_uris": {"ios": "https://dc.lft.to/lastmile_qr_scan", "android": "https://dc.lft.to/lastmile_qr_scan"}}, {"name": "6695c7b2b32d1b812bc8f58188a76329", "fusion_lat": 0.0, "type": "electric_scooter", "lat": 38.9170035, "is_reserved": 0, "is_disabled": 0, "fusion_lon": 0.0, "bike_id": "6695c7b2b32d1b812bc8f58188a76329", "lon": -77.04336016666667, "rental_uris": {"ios": "https://dc.lft.to/lastmile_qr_scan", "android": "https://dc.lft.to/lastmile_qr_scan"}}, {"name": "e2136fbb3c3cb1952f4d67a452587fee", "fusion_lat": 0.0, "type": "electric_scooter", "lat": 38.86072633333333, "is_reserved": 0, "is_disabled": 0, "fusion_lon": 0.0, "bike_id": "e2136fbb3c3cb1952f4d67a452587fee", "lon": -76.9674105, "rental_uris": {"ios": "https://dc.lft.to/lastmile_qr_scan", "android": "https://dc.lft.to/lastmile_qr_scan"}}, {"name": "4b21b8ce8bf2438fc8a425b4a9bd9e9e", "fusion_lat": 0.0, "type": "electric_scooter", "lat": 38.899752166666666, "is_reserved": 0, "is_disabled": 0, "fusion_lon": 0.0, "bike_id": "4b21b8ce8bf2438fc8a425b4a9bd9e9e", "lon": -77.02944483333333, "rental_uris": {"ios": "https://dc.lft.to/lastmile_qr_scan", "android": "https://dc.lft.to/lastmile_qr_scan"}}, {"name": "ceffcef0c39a8e7e02ada8d152f125bf", "fusion_lat": 0.0, "type": "electric_scooter", "lat": 38.92149116666667, "is_reserved": 0, "is_disabled": 0, "fusion_lon": 0.0, "bike_id": "ceffcef0c39a8e7e02ada8d152f125bf", "lon": -77.0401695, "rental_uris": {"ios": "https://dc.lft.to/lastmile_qr_scan", "android": "https://dc.lft.to/lastmile_qr_scan"}}, {"name": "59c5fe10959a1a2f4ea59ae88ea0f29f", "fusion_lat": 0.0, "type": "electric_scooter", "lat": 38.904369, "is_reserved": 0, "is_disabled": 0, "fusion_lon": 0.0, "bike_id": "59c5fe10959a1a2f4ea59ae88ea0f29f", "lon": -77.023733, "rental_uris": {"ios": "https://dc.lft.to/lastmile_qr_scan", "android": "https://dc.lft.to/lastmile_qr_scan"}}, {"name": "fd2f081d16b5af948749d911362206f3", "fusion_lat": 0.0, "type": "electric_scooter", "lat": 38.90417633333333, "is_reserved": 0, "is_disabled": 0, "fusion_lon": 0.0, "bike_id": "fd2f081d16b5af948749d911362206f3", "lon": -76.97888883333333, "rental_uris": {"ios": "https://dc.lft.to/lastmile_qr_scan", "android": "https://dc.lft.to/lastmile_qr_scan"}}, {"name": "5b2e28b219718a3ccd7e2591f7b42baa", "fusion_lat": 0.0, "type": "electric_scooter", "lat": 38.90610933333333, "is_reserved": 0, "is_disabled": 0, "fusion_lon": 0.0, "bike_id": "5b2e28b219718a3ccd7e2591f7b42baa", "lon": -77.04132033333333, "rental_uris": {"ios": "https://dc.lft.to/lastmile_qr_scan", "android": "https://dc.lft.to/lastmile_qr_scan"}}, {"name": "5e4118d07404d5cc096c8c164a75d65b", "fusion_lat": 0.0, "type": "electric_bike", "lat": 38.857877, "is_reserved": 0, "is_disabled": 0, "fusion_lon": 0.0, "bike_id": "5e4118d07404d5cc096c8c164a75d65b", "lon": -76.98744666666667, "rental_uris": {"ios": "https://dc.lft.to/lastmile_qr_scan", "android": "https://dc.lft.to/lastmile_qr_scan"}}, {"name": "3616312bef906d6e58a4184780b36acb", "fusion_lat": 0.0, "type": "electric_scooter", "lat": 38.9147935, "is_reserved": 0, "is_disabled": 0, "fusion_lon": 0.0, "bike_id": "3616312bef906d6e58a4184780b36acb", "lon": -77.04058766666667, "rental_uris": {"ios": "https://dc.lft.to/lastmile_qr_scan", "android": "https://dc.lft.to/lastmile_qr_scan"}}, {"name": "49fa35fc75631048b3b5438b23e3fb08", "fusion_lat": 0.0, "type": "electric_bike", "lat": 38.959574833333335, "is_reserved": 0, "is_disabled": 0, "fusion_lon": 0.0, "bike_id": "49fa35fc75631048b3b5438b23e3fb08", "lon": -77.10096033333333, "rental_uris": {"ios": "https://dc.lft.to/lastmile_qr_scan", "android": "https://dc.lft.to/lastmile_qr_scan"}}, {"name": "ed528a6f92e2123719f3c28ab012c82d", "fusion_lat": 0.0, "type": "electric_scooter", "lat": 38.9003345, "is_reserved": 0, "is_disabled": 0, "fusion_lon": 0.0, "bike_id": "ed528a6f92e2123719f3c28ab012c82d", "lon": -76.998232, "rental_uris": {"ios": "https://dc.lft.to/lastmile_qr_scan", "android": "https://dc.lft.to/lastmile_qr_scan"}}, {"name": "71107dcff3d331b5db64a3d0ffae68a1", "fusion_lat": 0.0, "type": "electric_scooter", "lat": 38.90429566666667, "is_reserved": 0, "is_disabled": 0, "fusion_lon": 0.0, "bike_id": "71107dcff3d331b5db64a3d0ffae68a1", "lon": -77.04357383333334, "rental_uris": {"ios": "https://dc.lft.to/lastmile_qr_scan", "android": "https://dc.lft.to/lastmile_qr_scan"}}, {"name": "b1ab74ac76cfa685e7a04d554866e1fb", "fusion_lat": 0.0, "type": "electric_scooter", "lat": 38.921261666666666, "is_reserved": 0, "is_disabled": 0, "fusion_lon": 0.0, "bike_id": "b1ab74ac76cfa685e7a04d554866e1fb", "lon": -77.0421345, "rental_uris": {"ios": "https://dc.lft.to/lastmile_qr_scan", "android": "https://dc.lft.to/lastmile_qr_scan"}}, {"name": "19e8d8b607a550ebace349ec0aba716c", "fusion_lat": 0.0, "type": "electric_scooter", "lat": 38.9295885, "is_reserved": 0, "is_disabled": 0, "fusion_lon": 0.0, "bike_id": "19e8d8b607a550ebace349ec0aba716c", "lon": -77.02343516666667, "rental_uris": {"ios": "https://dc.lft.to/lastmile_qr_scan", "android": "https://dc.lft.to/lastmile_qr_scan"}}, {"name": "cd43d47dad4e953c0a271f4742e7ad8c", "fusion_lat": 0.0, "type": "electric_bike", "lat": 38.90479883333333, "is_reserved": 0, "is_disabled": 0, "fusion_lon": 0.0, "bike_id": "cd43d47dad4e953c0a271f4742e7ad8c", "lon": -77.00206866666667, "rental_uris": {"ios": "https://dc.lft.to/lastmile_qr_scan", "android": "https://dc.lft.to/lastmile_qr_scan"}}, {"name": "bbcb7bcb3d0a5fedd115512f30bd4e7f", "fusion_lat": 0.0, "type": "electric_scooter", "lat": 38.90716483333333, "is_reserved": 0, "is_disabled": 0, "fusion_lon": 0.0, "bike_id": "bbcb7bcb3d0a5fedd115512f30bd4e7f", "lon": -77.005413, "rental_uris": {"ios": "https://dc.lft.to/lastmile_qr_scan", "android": "https://dc.lft.to/lastmile_qr_scan"}}, {"name": "c073dc67718c7db5cd3cd08b66b1e25e", "fusion_lat": 0.0, "type": "electric_scooter", "lat": 38.904605333333336, "is_reserved": 0, "is_disabled": 0, "fusion_lon": 0.0, "bike_id": "c073dc67718c7db5cd3cd08b66b1e25e", "lon": -77.01431533333333, "rental_uris": {"ios": "https://dc.lft.to/lastmile_qr_scan", "android": "https://dc.lft.to/lastmile_qr_scan"}}, {"name": "82cf55064c28767d3479b67f8a389072", "fusion_lat": 0.0, "type": "electric_scooter", "lat": 38.918828166666664, "is_reserved": 0, "is_disabled": 0, "fusion_lon": 0.0, "bike_id": "82cf55064c28767d3479b67f8a389072", "lon": -77.0376145, "rental_uris": {"ios": "https://dc.lft.to/lastmile_qr_scan", "android": "https://dc.lft.to/lastmile_qr_scan"}}, {"name": "1b9fc220d981aed28ca51f76becb0088", "fusion_lat": 0.0, "type": "electric_scooter", "lat": 38.918422666666665, "is_reserved": 0, "is_disabled": 0, "fusion_lon": 0.0, "bike_id": "1b9fc220d981aed28ca51f76becb0088", "lon": -77.02591666666666, "rental_uris": {"ios": "https://dc.lft.to/lastmile_qr_scan", "android": "https://dc.lft.to/lastmile_qr_scan"}}, {"name": "e7f0ef1f74f471a1b3f0cbdbb28ce446", "fusion_lat": 0.0, "type": "electric_scooter", "lat": 38.8874305, "is_reserved": 0, "is_disabled": 0, "fusion_lon": 0.0, "bike_id": "e7f0ef1f74f471a1b3f0cbdbb28ce446", "lon": -77.028421, "rental_uris": {"ios": "https://dc.lft.to/lastmile_qr_scan", "android": "https://dc.lft.to/lastmile_qr_scan"}}, {"name": "a2789cf534235839f5a9b2dadc753f33", "fusion_lat": 0.0, "type": "electric_scooter", "lat": 38.902476666666665, "is_reserved": 0, "is_disabled": 0, "fusion_lon": 0.0, "bike_id": "a2789cf534235839f5a9b2dadc753f33", "lon": -77.03984716666666, "rental_uris": {"ios": "https://dc.lft.to/lastmile_qr_scan", "android": "https://dc.lft.to/lastmile_qr_scan"}}, {"name": "534cfe2349ff97bfd04219f36501b181", "fusion_lat": 0.0, "type": "electric_scooter", "lat": 38.91723666666667, "is_reserved": 0, "is_disabled": 0, "fusion_lon": 0.0, "bike_id": "534cfe2349ff97bfd04219f36501b181", "lon": -77.0383765, "rental_uris": {"ios": "https://dc.lft.to/lastmile_qr_scan", "android": "https://dc.lft.to/lastmile_qr_scan"}}, {"name": "03e03cf61c28127447f8e9e69eefeee5", "fusion_lat": 0.0, "type": "electric_scooter", "lat": 38.89732733333334, "is_reserved": 0, "is_disabled": 0, "fusion_lon": 0.0, "bike_id": "03e03cf61c28127447f8e9e69eefeee5", "lon": -77.0464405, "rental_uris": {"ios": "https://dc.lft.to/lastmile_qr_scan", "android": "https://dc.lft.to/lastmile_qr_scan"}}, {"name": "2a2dc0bf243b9fa31114e45e1ca2e0c2", "fusion_lat": 0.0, "type": "electric_scooter", "lat": 38.89914366666667, "is_reserved": 0, "is_disabled": 0, "fusion_lon": 0.0, "bike_id": "2a2dc0bf243b9fa31114e45e1ca2e0c2", "lon": -76.93384416666666, "rental_uris": {"ios": "https://dc.lft.to/lastmile_qr_scan", "android": "https://dc.lft.to/lastmile_qr_scan"}}, {"name": "81b1a8019281ad8eac35b94294a46183", "fusion_lat": 0.0, "type": "electric_scooter", "lat": 38.9204785, "is_reserved": 0, "is_disabled": 0, "fusion_lon": 0.0, "bike_id": "81b1a8019281ad8eac35b94294a46183", "lon": -77.0347155, "rental_uris": {"ios": "https://dc.lft.to/lastmile_qr_scan", "android": "https://dc.lft.to/lastmile_qr_scan"}}, {"name": "74f73409fe50dcaa2a1362a79feb8ee7", "fusion_lat": 0.0, "type": "electric_bike", "lat": 38.926382833333335, "is_reserved": 0, "is_disabled": 0, "fusion_lon": 0.0, "bike_id": "74f73409fe50dcaa2a1362a79feb8ee7", "lon": -77.02840233333333, "rental_uris": {"ios": "https://dc.lft.to/lastmile_qr_scan", "android": "https://dc.lft.to/lastmile_qr_scan"}}, {"name": "50dcc38e5d607f8638d05e6081ae4341", "fusion_lat": 0.0, "type": "electric_bike", "lat": 38.82444383333333, "is_reserved": 0, "is_disabled": 0, "fusion_lon": 0.0, "bike_id": "50dcc38e5d607f8638d05e6081ae4341", "lon": -77.07046966666667, "rental_uris": {"ios": "https://dc.lft.to/lastmile_qr_scan", "android": "https://dc.lft.to/lastmile_qr_scan"}}, {"name": "d970efffe1d069912e14f662edfacf71", "fusion_lat": 0.0, "type": "electric_scooter", "lat": 38.92299, "is_reserved": 0, "is_disabled": 0, "fusion_lon": 0.0, "bike_id": "d970efffe1d069912e14f662edfacf71", "lon": -77.0296855, "rental_uris": {"ios": "https://dc.lft.to/lastmile_qr_scan", "android": "https://dc.lft.to/lastmile_qr_scan"}}, {"name": "bccc3f8d8f7976e10c9ebdff16b84066", "fusion_lat": 0.0, "type": "electric_scooter", "lat": 38.920886333333335, "is_reserved": 0, "is_disabled": 0, "fusion_lon": 0.0, "bike_id": "bccc3f8d8f7976e10c9ebdff16b84066", "lon": -77.02235883333333, "rental_uris": {"ios": "https://dc.lft.to/lastmile_qr_scan", "android": "https://dc.lft.to/lastmile_qr_scan"}}, {"name": "82cdc8e00f84a16ccd0c4009f04974b2", "fusion_lat": 0.0, "type": "electric_scooter", "lat": 38.903145, "is_reserved": 0, "is_disabled": 0, "fusion_lon": 0.0, "bike_id": "82cdc8e00f84a16ccd0c4009f04974b2", "lon": -77.05173616666667, "rental_uris": {"ios": "https://dc.lft.to/lastmile_qr_scan", "android": "https://dc.lft.to/lastmile_qr_scan"}}, {"name": "706443de3a56c61d44607d8632907e39", "fusion_lat": 0.0, "type": "electric_scooter", "lat": 38.903331333333334, "is_reserved": 0, "is_disabled": 0, "fusion_lon": 0.0, "bike_id": "706443de3a56c61d44607d8632907e39", "lon": -77.04353566666667, "rental_uris": {"ios": "https://dc.lft.to/lastmile_qr_scan", "android": "https://dc.lft.to/lastmile_qr_scan"}}, {"name": "c03c59dbc5f28a460b27dd7449927bb8", "fusion_lat": 0.0, "type": "electric_bike", "lat": 38.91854083333333, "is_reserved": 0, "is_disabled": 0, "fusion_lon": 0.0, "bike_id": "c03c59dbc5f28a460b27dd7449927bb8", "lon": -76.96093216666667, "rental_uris": {"ios": "https://dc.lft.to/lastmile_qr_scan", "android": "https://dc.lft.to/lastmile_qr_scan"}}, {"name": "fb36405125e8a45eb74e202d723eab8c", "fusion_lat": 0.0, "type": "electric_scooter", "lat": 38.870771833333336, "is_reserved": 0, "is_disabled": 0, "fusion_lon": 0.0, "bike_id": "fb36405125e8a45eb74e202d723eab8c", "lon": -76.96856733333334, "rental_uris": {"ios": "https://dc.lft.to/lastmile_qr_scan", "android": "https://dc.lft.to/lastmile_qr_scan"}}, {"name": "9ecebe5810a8ade68b5cf8af89a7431f", "fusion_lat": 0.0, "type": "electric_scooter", "lat": 38.900326166666666, "is_reserved": 0, "is_disabled": 0, "fusion_lon": 0.0, "bike_id": "9ecebe5810a8ade68b5cf8af89a7431f", "lon": -76.99822783333333, "rental_uris": {"ios": "https://dc.lft.to/lastmile_qr_scan", "android": "https://dc.lft.to/lastmile_qr_scan"}}, {"name": "c8f42aaa9ddaf22244290982b041e30d", "fusion_lat": 0.0, "type": "electric_scooter", "lat": 38.895952333333334, "is_reserved": 0, "is_disabled": 0, "fusion_lon": 0.0, "bike_id": "c8f42aaa9ddaf22244290982b041e30d", "lon": -77.04134583333334, "rental_uris": {"ios": "https://dc.lft.to/lastmile_qr_scan", "android": "https://dc.lft.to/lastmile_qr_scan"}}, {"name": "68f95b150ac3fc308b62c13fdcae66a0", "fusion_lat": 0.0, "type": "electric_scooter", "lat": 38.92007483333333, "is_reserved": 0, "is_disabled": 0, "fusion_lon": 0.0, "bike_id": "68f95b150ac3fc308b62c13fdcae66a0", "lon": -77.03972866666666, "rental_uris": {"ios": "https://dc.lft.to/lastmile_qr_scan", "android": "https://dc.lft.to/lastmile_qr_scan"}}, {"name": "89dfedfadaea97443a26a78a4b589842", "fusion_lat": 0.0, "type": "electric_bike", "lat": 39.0304615, "is_reserved": 0, "is_disabled": 0, "fusion_lon": 0.0, "bike_id": "89dfedfadaea97443a26a78a4b589842", "lon": -77.09479316666666, "rental_uris": {"ios": "https://dc.lft.to/lastmile_qr_scan", "android": "https://dc.lft.to/lastmile_qr_scan"}}, {"name": "3548af996894d4334e96fd6a28759110", "fusion_lat": 0.0, "type": "electric_scooter", "lat": 38.92772716666666, "is_reserved": 0, "is_disabled": 0, "fusion_lon": 0.0, "bike_id": "3548af996894d4334e96fd6a28759110", "lon": -77.02709683333333, "rental_uris": {"ios": "https://dc.lft.to/lastmile_qr_scan", "android": "https://dc.lft.to/lastmile_qr_scan"}}, {"name": "9eeffc12a002d04629f1724b13f7e8a7", "fusion_lat": 0.0, "type": "electric_scooter", "lat": 38.872267666666666, "is_reserved": 0, "is_disabled": 0, "fusion_lon": 0.0, "bike_id": "9eeffc12a002d04629f1724b13f7e8a7", "lon": -77.01158516666666, "rental_uris": {"ios": "https://dc.lft.to/lastmile_qr_scan", "android": "https://dc.lft.to/lastmile_qr_scan"}}, {"name": "b64d96ca8ed87e9c53e77d8314df7334", "fusion_lat": 0.0, "type": "electric_scooter", "lat": 38.876848, "is_reserved": 0, "is_disabled": 0, "fusion_lon": 0.0, "bike_id": "b64d96ca8ed87e9c53e77d8314df7334", "lon": -77.00068, "rental_uris": {"ios": "https://dc.lft.to/lastmile_qr_scan", "android": "https://dc.lft.to/lastmile_qr_scan"}}, {"name": "b726c6fa83fb01419b60ddf6d064650c", "fusion_lat": 0.0, "type": "electric_scooter", "lat": 38.922398, "is_reserved": 0, "is_disabled": 0, "fusion_lon": 0.0, "bike_id": "b726c6fa83fb01419b60ddf6d064650c", "lon": -77.04488383333333, "rental_uris": {"ios": "https://dc.lft.to/lastmile_qr_scan", "android": "https://dc.lft.to/lastmile_qr_scan"}}, {"name": "3c8a49b80122a693eb1b42a92736800b", "fusion_lat": 0.0, "type": "electric_scooter", "lat": 38.900278166666666, "is_reserved": 0, "is_disabled": 0, "fusion_lon": 0.0, "bike_id": "3c8a49b80122a693eb1b42a92736800b", "lon": -76.98848216666667, "rental_uris": {"ios": "https://dc.lft.to/lastmile_qr_scan", "android": "https://dc.lft.to/lastmile_qr_scan"}}, {"name": "f5f05accabecd735fb222c99b1a0228a", "fusion_lat": 0.0, "type": "electric_scooter", "lat": 38.90349333333333, "is_reserved": 0, "is_disabled": 0, "fusion_lon": 0.0, "bike_id": "f5f05accabecd735fb222c99b1a0228a", "lon": -77.03888866666667, "rental_uris": {"ios": "https://dc.lft.to/lastmile_qr_scan", "android": "https://dc.lft.to/lastmile_qr_scan"}}, {"name": "7669c10cf8dd9b7bd176d18cc10e6e18", "fusion_lat": 0.0, "type": "electric_scooter", "lat": 38.8843105, "is_reserved": 0, "is_disabled": 0, "fusion_lon": 0.0, "bike_id": "7669c10cf8dd9b7bd176d18cc10e6e18", "lon": -76.995937, "rental_uris": {"ios": "https://dc.lft.to/lastmile_qr_scan", "android": "https://dc.lft.to/lastmile_qr_scan"}}, {"name": "5412fadc1d16e68fc39d87edf53361b9", "fusion_lat": 0.0, "type": "electric_scooter", "lat": 38.9225695, "is_reserved": 0, "is_disabled": 0, "fusion_lon": 0.0, "bike_id": "5412fadc1d16e68fc39d87edf53361b9", "lon": -77.01954983333333, "rental_uris": {"ios": "https://dc.lft.to/lastmile_qr_scan", "android": "https://dc.lft.to/lastmile_qr_scan"}}, {"name": "ecf4c3aedd513b17f872be90a4d0bd29", "fusion_lat": 0.0, "type": "electric_scooter", "lat": 38.901411, "is_reserved": 0, "is_disabled": 0, "fusion_lon": 0.0, "bike_id": "ecf4c3aedd513b17f872be90a4d0bd29", "lon": -77.0397915, "rental_uris": {"ios": "https://dc.lft.to/lastmile_qr_scan", "android": "https://dc.lft.to/lastmile_qr_scan"}}, {"name": "501e630b8fd7a7d5d71e23fe92c477c3", "fusion_lat": 0.0, "type": "electric_scooter", "lat": 38.941725, "is_reserved": 0, "is_disabled": 0, "fusion_lon": 0.0, "bike_id": "501e630b8fd7a7d5d71e23fe92c477c3", "lon": -77.0413515, "rental_uris": {"ios": "https://dc.lft.to/lastmile_qr_scan", "android": "https://dc.lft.to/lastmile_qr_scan"}}, {"name": "82d0d5ee35abb81cb14cc442835c7e7c", "fusion_lat": 0.0, "type": "electric_scooter", "lat": 38.874179, "is_reserved": 0, "is_disabled": 0, "fusion_lon": 0.0, "bike_id": "82d0d5ee35abb81cb14cc442835c7e7c", "lon": -76.97179816666667, "rental_uris": {"ios": "https://dc.lft.to/lastmile_qr_scan", "android": "https://dc.lft.to/lastmile_qr_scan"}}, {"name": "522acb6282314c2a843649bc3666c8d7", "fusion_lat": 0.0, "type": "electric_scooter", "lat": 38.90261316666667, "is_reserved": 0, "is_disabled": 0, "fusion_lon": 0.0, "bike_id": "522acb6282314c2a843649bc3666c8d7", "lon": -77.0345175, "rental_uris": {"ios": "https://dc.lft.to/lastmile_qr_scan", "android": "https://dc.lft.to/lastmile_qr_scan"}}, {"name": "2a987cdfccb4f373d7e4d81a22b1b79b", "fusion_lat": 0.0, "type": "electric_scooter", "lat": 38.898758666666666, "is_reserved": 0, "is_disabled": 0, "fusion_lon": 0.0, "bike_id": "2a987cdfccb4f373d7e4d81a22b1b79b", "lon": -76.9315865, "rental_uris": {"ios": "https://dc.lft.to/lastmile_qr_scan", "android": "https://dc.lft.to/lastmile_qr_scan"}}, {"name": "b284b8ef03bcb51054b4d1b3dd30223d", "fusion_lat": 0.0, "type": "electric_scooter", "lat": 38.900372833333336, "is_reserved": 0, "is_disabled": 0, "fusion_lon": 0.0, "bike_id": "b284b8ef03bcb51054b4d1b3dd30223d", "lon": -77.0118445, "rental_uris": {"ios": "https://dc.lft.to/lastmile_qr_scan", "android": "https://dc.lft.to/lastmile_qr_scan"}}, {"name": "f9ade1318eb535b6352361d051b69774", "fusion_lat": 0.0, "type": "electric_bike", "lat": 38.99821883333333, "is_reserved": 0, "is_disabled": 0, "fusion_lon": 0.0, "bike_id": "f9ade1318eb535b6352361d051b69774", "lon": -76.883623, "rental_uris": {"ios": "https://dc.lft.to/lastmile_qr_scan", "android": "https://dc.lft.to/lastmile_qr_scan"}}, {"name": "954e0290f5ecf7e07a0984d51614d2ed", "fusion_lat": 0.0, "type": "electric_scooter", "lat": 38.8358395, "is_reserved": 0, "is_disabled": 0, "fusion_lon": 0.0, "bike_id": "954e0290f5ecf7e07a0984d51614d2ed", "lon": -76.99355183333333, "rental_uris": {"ios": "https://dc.lft.to/lastmile_qr_scan", "android": "https://dc.lft.to/lastmile_qr_scan"}}, {"name": "f9749f7912df2bb69cd188c73170ba3f", "fusion_lat": 0.0, "type": "electric_scooter", "lat": 38.91839783333333, "is_reserved": 0, "is_disabled": 0, "fusion_lon": 0.0, "bike_id": "f9749f7912df2bb69cd188c73170ba3f", "lon": -77.025972, "rental_uris": {"ios": "https://dc.lft.to/lastmile_qr_scan", "android": "https://dc.lft.to/lastmile_qr_scan"}}, {"name": "f06945c77eb08774585627debdda79cb", "fusion_lat": 0.0, "type": "electric_bike", "lat": 38.86385533333333, "is_reserved": 0, "is_disabled": 0, "fusion_lon": 0.0, "bike_id": "f06945c77eb08774585627debdda79cb", "lon": -76.98989116666667, "rental_uris": {"ios": "https://dc.lft.to/lastmile_qr_scan", "android": "https://dc.lft.to/lastmile_qr_scan"}}, {"name": "20b97cd50086f1e889531d19096d602e", "fusion_lat": 0.0, "type": "electric_scooter", "lat": 38.903480333333334, "is_reserved": 0, "is_disabled": 0, "fusion_lon": 0.0, "bike_id": "20b97cd50086f1e889531d19096d602e", "lon": -77.01102783333333, "rental_uris": {"ios": "https://dc.lft.to/lastmile_qr_scan", "android": "https://dc.lft.to/lastmile_qr_scan"}}, {"name": "39a57eb09b373c209f3b036a88ea5ab5", "fusion_lat": 0.0, "type": "electric_bike", "lat": 38.9489795, "is_reserved": 0, "is_disabled": 0, "fusion_lon": 0.0, "bike_id": "39a57eb09b373c209f3b036a88ea5ab5", "lon": -76.96372533333333, "rental_uris": {"ios": "https://dc.lft.to/lastmile_qr_scan", "android": "https://dc.lft.to/lastmile_qr_scan"}}, {"name": "0a4823d6e97b627ed7a59478b818d83b", "fusion_lat": 0.0, "type": "electric_scooter", "lat": 38.903378333333336, "is_reserved": 0, "is_disabled": 0, "fusion_lon": 0.0, "bike_id": "0a4823d6e97b627ed7a59478b818d83b", "lon": -77.066457, "rental_uris": {"ios": "https://dc.lft.to/lastmile_qr_scan", "android": "https://dc.lft.to/lastmile_qr_scan"}}, {"name": "98b2e1574088f5e78ae8b3ba253b309c", "fusion_lat": 0.0, "type": "electric_bike", "lat": 38.943689166666665, "is_reserved": 0, "is_disabled": 0, "fusion_lon": 0.0, "bike_id": "98b2e1574088f5e78ae8b3ba253b309c", "lon": -77.07743633333334, "rental_uris": {"ios": "https://dc.lft.to/lastmile_qr_scan", "android": "https://dc.lft.to/lastmile_qr_scan"}}, {"name": "52cd1007d764791cb80342e1ee0284d7", "fusion_lat": 0.0, "type": "electric_scooter", "lat": 38.905159, "is_reserved": 0, "is_disabled": 0, "fusion_lon": 0.0, "bike_id": "52cd1007d764791cb80342e1ee0284d7", "lon": -77.04853, "rental_uris": {"ios": "https://dc.lft.to/lastmile_qr_scan", "android": "https://dc.lft.to/lastmile_qr_scan"}}, {"name": "6b35c800e22cf672bb4c2f53c70b6539", "fusion_lat": 0.0, "type": "electric_scooter", "lat": 38.916297, "is_reserved": 0, "is_disabled": 0, "fusion_lon": 0.0, "bike_id": "6b35c800e22cf672bb4c2f53c70b6539", "lon": -77.03594066666666, "rental_uris": {"ios": "https://dc.lft.to/lastmile_qr_scan", "android": "https://dc.lft.to/lastmile_qr_scan"}}, {"name": "1d01b06fa92658a035e3482173bc85e9", "fusion_lat": 0.0, "type": "electric_scooter", "lat": 38.89870716666667, "is_reserved": 0, "is_disabled": 0, "fusion_lon": 0.0, "bike_id": "1d01b06fa92658a035e3482173bc85e9", "lon": -77.00910383333333, "rental_uris": {"ios": "https://dc.lft.to/lastmile_qr_scan", "android": "https://dc.lft.to/lastmile_qr_scan"}}, {"name": "8e5fe30dcd23fa4c1fc1e26c30dba46a", "fusion_lat": 0.0, "type": "electric_scooter", "lat": 38.92488866666667, "is_reserved": 0, "is_disabled": 0, "fusion_lon": 0.0, "bike_id": "8e5fe30dcd23fa4c1fc1e26c30dba46a", "lon": -77.02709133333333, "rental_uris": {"ios": "https://dc.lft.to/lastmile_qr_scan", "android": "https://dc.lft.to/lastmile_qr_scan"}}, {"name": "8bd6dc24f430408b7a2958022558a7b8", "fusion_lat": 0.0, "type": "electric_scooter", "lat": 38.882181, "is_reserved": 0, "is_disabled": 0, "fusion_lon": 0.0, "bike_id": "8bd6dc24f430408b7a2958022558a7b8", "lon": -76.94178983333333, "rental_uris": {"ios": "https://dc.lft.to/lastmile_qr_scan", "android": "https://dc.lft.to/lastmile_qr_scan"}}, {"name": "9d4edfdb8098ea6f3f843143e317099d", "fusion_lat": 0.0, "type": "electric_scooter", "lat": 38.9169495, "is_reserved": 0, "is_disabled": 0, "fusion_lon": 0.0, "bike_id": "9d4edfdb8098ea6f3f843143e317099d", "lon": -77.03186366666667, "rental_uris": {"ios": "https://dc.lft.to/lastmile_qr_scan", "android": "https://dc.lft.to/lastmile_qr_scan"}}, {"name": "b2afa5d7a925505297e82975ea634cc6", "fusion_lat": 0.0, "type": "electric_scooter", "lat": 38.92606116666666, "is_reserved": 0, "is_disabled": 0, "fusion_lon": 0.0, "bike_id": "b2afa5d7a925505297e82975ea634cc6", "lon": -77.02157733333334, "rental_uris": {"ios": "https://dc.lft.to/lastmile_qr_scan", "android": "https://dc.lft.to/lastmile_qr_scan"}}, {"name": "9177eb7be27704ef4f2f080e848a7731", "fusion_lat": 0.0, "type": "electric_scooter", "lat": 38.903347, "is_reserved": 0, "is_disabled": 0, "fusion_lon": 0.0, "bike_id": "9177eb7be27704ef4f2f080e848a7731", "lon": -76.98968266666667, "rental_uris": {"ios": "https://dc.lft.to/lastmile_qr_scan", "android": "https://dc.lft.to/lastmile_qr_scan"}}, {"name": "cf4739de5292e4319c3f8b6270511dff", "fusion_lat": 0.0, "type": "electric_scooter", "lat": 38.929279666666666, "is_reserved": 0, "is_disabled": 0, "fusion_lon": 0.0, "bike_id": "cf4739de5292e4319c3f8b6270511dff", "lon": -77.02337766666666, "rental_uris": {"ios": "https://dc.lft.to/lastmile_qr_scan", "android": "https://dc.lft.to/lastmile_qr_scan"}}, {"name": "51c7bee8a7c59282b94ba4b5d4944d8e", "fusion_lat": 0.0, "type": "electric_scooter", "lat": 38.914172666666666, "is_reserved": 0, "is_disabled": 0, "fusion_lon": 0.0, "bike_id": "51c7bee8a7c59282b94ba4b5d4944d8e", "lon": -77.02802883333334, "rental_uris": {"ios": "https://dc.lft.to/lastmile_qr_scan", "android": "https://dc.lft.to/lastmile_qr_scan"}}, {"name": "919693e477cf53943c5c7227c0a14017", "fusion_lat": 0.0, "type": "electric_scooter", "lat": 38.911224, "is_reserved": 0, "is_disabled": 0, "fusion_lon": 0.0, "bike_id": "919693e477cf53943c5c7227c0a14017", "lon": -77.03183866666667, "rental_uris": {"ios": "https://dc.lft.to/lastmile_qr_scan", "android": "https://dc.lft.to/lastmile_qr_scan"}}, {"name": "0318bd410de6774cb4cdf863ff3a49c0", "fusion_lat": 0.0, "type": "electric_scooter", "lat": 38.9124645, "is_reserved": 0, "is_disabled": 0, "fusion_lon": 0.0, "bike_id": "0318bd410de6774cb4cdf863ff3a49c0", "lon": -77.047684, "rental_uris": {"ios": "https://dc.lft.to/lastmile_qr_scan", "android": "https://dc.lft.to/lastmile_qr_scan"}}, {"name": "8973f479c3381908081ee52a5caf264f", "fusion_lat": 0.0, "type": "electric_scooter", "lat": 38.905251666666665, "is_reserved": 0, "is_disabled": 0, "fusion_lon": 0.0, "bike_id": "8973f479c3381908081ee52a5caf264f", "lon": -77.0500715, "rental_uris": {"ios": "https://dc.lft.to/lastmile_qr_scan", "android": "https://dc.lft.to/lastmile_qr_scan"}}, {"name": "324d106cd106534d19e2288bea08b9aa", "fusion_lat": 0.0, "type": "electric_scooter", "lat": 38.92454466666667, "is_reserved": 0, "is_disabled": 0, "fusion_lon": 0.0, "bike_id": "324d106cd106534d19e2288bea08b9aa", "lon": -77.03049166666666, "rental_uris": {"ios": "https://dc.lft.to/lastmile_qr_scan", "android": "https://dc.lft.to/lastmile_qr_scan"}}, {"name": "4b2c9f57d432414c8b1c26007a38dfd4", "fusion_lat": 0.0, "type": "electric_scooter", "lat": 38.947519166666666, "is_reserved": 0, "is_disabled": 0, "fusion_lon": 0.0, "bike_id": "4b2c9f57d432414c8b1c26007a38dfd4", "lon": -77.000211, "rental_uris": {"ios": "https://dc.lft.to/lastmile_qr_scan", "android": "https://dc.lft.to/lastmile_qr_scan"}}, {"name": "cb9a284f6c721e58fe5fe475ba84884e", "fusion_lat": 0.0, "type": "electric_scooter", "lat": 38.9023645, "is_reserved": 0, "is_disabled": 0, "fusion_lon": 0.0, "bike_id": "cb9a284f6c721e58fe5fe475ba84884e", "lon": -77.00200533333333, "rental_uris": {"ios": "https://dc.lft.to/lastmile_qr_scan", "android": "https://dc.lft.to/lastmile_qr_scan"}}, {"name": "735554bed9fd5d97d65040c1b1d4c356", "fusion_lat": 0.0, "type": "electric_bike", "lat": 38.89653166666667, "is_reserved": 0, "is_disabled": 0, "fusion_lon": 0.0, "bike_id": "735554bed9fd5d97d65040c1b1d4c356", "lon": -76.95977316666666, "rental_uris": {"ios": "https://dc.lft.to/lastmile_qr_scan", "android": "https://dc.lft.to/lastmile_qr_scan"}}, {"name": "f0d3845490b6620db7164123d3c90bcc", "fusion_lat": 0.0, "type": "electric_scooter", "lat": 38.88992783333333, "is_reserved": 0, "is_disabled": 0, "fusion_lon": 0.0, "bike_id": "f0d3845490b6620db7164123d3c90bcc", "lon": -76.9541325, "rental_uris": {"ios": "https://dc.lft.to/lastmile_qr_scan", "android": "https://dc.lft.to/lastmile_qr_scan"}}, {"name": "0c5cf1a6c57ad513b6ef7db4cf4b8578", "fusion_lat": 0.0, "type": "electric_scooter", "lat": 38.84292533333333, "is_reserved": 0, "is_disabled": 0, "fusion_lon": 0.0, "bike_id": "0c5cf1a6c57ad513b6ef7db4cf4b8578", "lon": -76.99949016666666, "rental_uris": {"ios": "https://dc.lft.to/lastmile_qr_scan", "android": "https://dc.lft.to/lastmile_qr_scan"}}, {"name": "1d404620fb6a3cab679b810adc05c14a", "fusion_lat": 0.0, "type": "electric_scooter", "lat": 38.90224383333333, "is_reserved": 0, "is_disabled": 0, "fusion_lon": 0.0, "bike_id": "1d404620fb6a3cab679b810adc05c14a", "lon": -77.0177385, "rental_uris": {"ios": "https://dc.lft.to/lastmile_qr_scan", "android": "https://dc.lft.to/lastmile_qr_scan"}}, {"name": "53f33058b9ba55469efca5b0abfeff58", "fusion_lat": 0.0, "type": "electric_scooter", "lat": 38.91215316666667, "is_reserved": 0, "is_disabled": 0, "fusion_lon": 0.0, "bike_id": "53f33058b9ba55469efca5b0abfeff58", "lon": -77.07591233333333, "rental_uris": {"ios": "https://dc.lft.to/lastmile_qr_scan", "android": "https://dc.lft.to/lastmile_qr_scan"}}, {"name": "d402052feff3706100bc3bb6b659a0f5", "fusion_lat": 0.0, "type": "electric_scooter", "lat": 38.89734033333333, "is_reserved": 0, "is_disabled": 0, "fusion_lon": 0.0, "bike_id": "d402052feff3706100bc3bb6b659a0f5", "lon": -76.94718566666667, "rental_uris": {"ios": "https://dc.lft.to/lastmile_qr_scan", "android": "https://dc.lft.to/lastmile_qr_scan"}}, {"name": "c007a1300868a0410cae0b091976eb09", "fusion_lat": 0.0, "type": "electric_scooter", "lat": 38.92027316666667, "is_reserved": 0, "is_disabled": 0, "fusion_lon": 0.0, "bike_id": "c007a1300868a0410cae0b091976eb09", "lon": -77.01113783333334, "rental_uris": {"ios": "https://dc.lft.to/lastmile_qr_scan", "android": "https://dc.lft.to/lastmile_qr_scan"}}, {"name": "2914a9e11789b47cf5527c0bc6b5be41", "fusion_lat": 0.0, "type": "electric_scooter", "lat": 38.901234333333335, "is_reserved": 0, "is_disabled": 0, "fusion_lon": 0.0, "bike_id": "2914a9e11789b47cf5527c0bc6b5be41", "lon": -77.044448, "rental_uris": {"ios": "https://dc.lft.to/lastmile_qr_scan", "android": "https://dc.lft.to/lastmile_qr_scan"}}, {"name": "87d9e0c402fda05c71018b91ff238c3d", "fusion_lat": 0.0, "type": "electric_scooter", "lat": 38.89608966666667, "is_reserved": 0, "is_disabled": 0, "fusion_lon": 0.0, "bike_id": "87d9e0c402fda05c71018b91ff238c3d", "lon": -77.0454335, "rental_uris": {"ios": "https://dc.lft.to/lastmile_qr_scan", "android": "https://dc.lft.to/lastmile_qr_scan"}}, {"name": "e9b48bd786a83cbc31b6efb418d657d5", "fusion_lat": 0.0, "type": "electric_scooter", "lat": 38.9051975, "is_reserved": 0, "is_disabled": 0, "fusion_lon": 0.0, "bike_id": "e9b48bd786a83cbc31b6efb418d657d5", "lon": -77.05044066666666, "rental_uris": {"ios": "https://dc.lft.to/lastmile_qr_scan", "android": "https://dc.lft.to/lastmile_qr_scan"}}, {"name": "9784ac4b5debb625a69e3dbc462482e6", "fusion_lat": 0.0, "type": "electric_scooter", "lat": 38.975008833333334, "is_reserved": 0, "is_disabled": 0, "fusion_lon": 0.0, "bike_id": "9784ac4b5debb625a69e3dbc462482e6", "lon": -77.01688866666667, "rental_uris": {"ios": "https://dc.lft.to/lastmile_qr_scan", "android": "https://dc.lft.to/lastmile_qr_scan"}}, {"name": "0df4b26a7753e4dfd4e9e1d1a9328118", "fusion_lat": 0.0, "type": "electric_scooter", "lat": 38.9118355, "is_reserved": 0, "is_disabled": 0, "fusion_lon": 0.0, "bike_id": "0df4b26a7753e4dfd4e9e1d1a9328118", "lon": -77.06083283333334, "rental_uris": {"ios": "https://dc.lft.to/lastmile_qr_scan", "android": "https://dc.lft.to/lastmile_qr_scan"}}, {"name": "a38cfcc9acd8f4faf5f2723528173332", "fusion_lat": 0.0, "type": "electric_scooter", "lat": 38.896482666666664, "is_reserved": 0, "is_disabled": 0, "fusion_lon": 0.0, "bike_id": "a38cfcc9acd8f4faf5f2723528173332", "lon": -77.02587116666666, "rental_uris": {"ios": "https://dc.lft.to/lastmile_qr_scan", "android": "https://dc.lft.to/lastmile_qr_scan"}}, {"name": "bb20c58ea8f83fa8f2c232af41fc8baf", "fusion_lat": 0.0, "type": "electric_scooter", "lat": 38.902359833333335, "is_reserved": 0, "is_disabled": 0, "fusion_lon": 0.0, "bike_id": "bb20c58ea8f83fa8f2c232af41fc8baf", "lon": -77.03164133333334, "rental_uris": {"ios": "https://dc.lft.to/lastmile_qr_scan", "android": "https://dc.lft.to/lastmile_qr_scan"}}, {"name": "9db07f17177a91505f435e9855fbbc18", "fusion_lat": 0.0, "type": "electric_scooter", "lat": 38.92356783333334, "is_reserved": 0, "is_disabled": 0, "fusion_lon": 0.0, "bike_id": "9db07f17177a91505f435e9855fbbc18", "lon": -77.058456, "rental_uris": {"ios": "https://dc.lft.to/lastmile_qr_scan", "android": "https://dc.lft.to/lastmile_qr_scan"}}, {"name": "e751ca65c413dba06ae9f5512f432f24", "fusion_lat": 0.0, "type": "electric_scooter", "lat": 38.896108166666664, "is_reserved": 0, "is_disabled": 0, "fusion_lon": 0.0, "bike_id": "e751ca65c413dba06ae9f5512f432f24", "lon": -77.04465533333334, "rental_uris": {"ios": "https://dc.lft.to/lastmile_qr_scan", "android": "https://dc.lft.to/lastmile_qr_scan"}}, {"name": "b9950ac2759c9f649880ed8f4289b640", "fusion_lat": 0.0, "type": "electric_scooter", "lat": 38.925087833333336, "is_reserved": 0, "is_disabled": 0, "fusion_lon": 0.0, "bike_id": "b9950ac2759c9f649880ed8f4289b640", "lon": -77.001755, "rental_uris": {"ios": "https://dc.lft.to/lastmile_qr_scan", "android": "https://dc.lft.to/lastmile_qr_scan"}}, {"name": "96bb82e91674b2e5fae0ce09b6744f9e", "fusion_lat": 0.0, "type": "electric_scooter", "lat": 38.895329833333335, "is_reserved": 0, "is_disabled": 0, "fusion_lon": 0.0, "bike_id": "96bb82e91674b2e5fae0ce09b6744f9e", "lon": -77.01144733333334, "rental_uris": {"ios": "https://dc.lft.to/lastmile_qr_scan", "android": "https://dc.lft.to/lastmile_qr_scan"}}, {"name": "6fb391d2a4f7ffc1fe1a38022897108f", "fusion_lat": 0.0, "type": "electric_scooter", "lat": 38.90190316666666, "is_reserved": 0, "is_disabled": 0, "fusion_lon": 0.0, "bike_id": "6fb391d2a4f7ffc1fe1a38022897108f", "lon": -76.98175966666666, "rental_uris": {"ios": "https://dc.lft.to/lastmile_qr_scan", "android": "https://dc.lft.to/lastmile_qr_scan"}}, {"name": "9ddce78273daf20f4460496c8001e997", "fusion_lat": 0.0, "type": "electric_scooter", "lat": 38.88373, "is_reserved": 0, "is_disabled": 0, "fusion_lon": 0.0, "bike_id": "9ddce78273daf20f4460496c8001e997", "lon": -76.923733, "rental_uris": {"ios": "https://dc.lft.to/lastmile_qr_scan", "android": "https://dc.lft.to/lastmile_qr_scan"}}, {"name": "d9a8257aee206674ed9c484372f40bc9", "fusion_lat": 0.0, "type": "electric_scooter", "lat": 38.909555, "is_reserved": 0, "is_disabled": 0, "fusion_lon": 0.0, "bike_id": "d9a8257aee206674ed9c484372f40bc9", "lon": -77.02745716666666, "rental_uris": {"ios": "https://dc.lft.to/lastmile_qr_scan", "android": "https://dc.lft.to/lastmile_qr_scan"}}, {"name": "0154936a81579159b1c45aaeec7a751c", "fusion_lat": 0.0, "type": "electric_scooter", "lat": 38.92855316666667, "is_reserved": 0, "is_disabled": 0, "fusion_lon": 0.0, "bike_id": "0154936a81579159b1c45aaeec7a751c", "lon": -77.0273745, "rental_uris": {"ios": "https://dc.lft.to/lastmile_qr_scan", "android": "https://dc.lft.to/lastmile_qr_scan"}}, {"name": "7326ba69060601a90d48f9788e290ac3", "fusion_lat": 0.0, "type": "electric_scooter", "lat": 38.9067905, "is_reserved": 0, "is_disabled": 0, "fusion_lon": 0.0, "bike_id": "7326ba69060601a90d48f9788e290ac3", "lon": -77.04644683333333, "rental_uris": {"ios": "https://dc.lft.to/lastmile_qr_scan", "android": "https://dc.lft.to/lastmile_qr_scan"}}, {"name": "4d5392c181c21c79bc85eeafabc45962", "fusion_lat": 0.0, "type": "electric_scooter", "lat": 38.92516116666667, "is_reserved": 0, "is_disabled": 0, "fusion_lon": 0.0, "bike_id": "4d5392c181c21c79bc85eeafabc45962", "lon": -77.03326266666667, "rental_uris": {"ios": "https://dc.lft.to/lastmile_qr_scan", "android": "https://dc.lft.to/lastmile_qr_scan"}}, {"name": "b74024e49e5cdc2375912c9a6d24895e", "fusion_lat": 0.0, "type": "electric_scooter", "lat": 38.866595333333336, "is_reserved": 0, "is_disabled": 0, "fusion_lon": 0.0, "bike_id": "b74024e49e5cdc2375912c9a6d24895e", "lon": -76.988834, "rental_uris": {"ios": "https://dc.lft.to/lastmile_qr_scan", "android": "https://dc.lft.to/lastmile_qr_scan"}}, {"name": "c8ab1dea2e1ccde743eb8fbbb64526f4", "fusion_lat": 0.0, "type": "electric_scooter", "lat": 38.917577666666666, "is_reserved": 0, "is_disabled": 0, "fusion_lon": 0.0, "bike_id": "c8ab1dea2e1ccde743eb8fbbb64526f4", "lon": -77.09672216666667, "rental_uris": {"ios": "https://dc.lft.to/lastmile_qr_scan", "android": "https://dc.lft.to/lastmile_qr_scan"}}, {"name": "3197fcfa404ef2c85ac5397cabe03e11", "fusion_lat": 0.0, "type": "electric_scooter", "lat": 38.919266, "is_reserved": 0, "is_disabled": 0, "fusion_lon": 0.0, "bike_id": "3197fcfa404ef2c85ac5397cabe03e11", "lon": -77.041528, "rental_uris": {"ios": "https://dc.lft.to/lastmile_qr_scan", "android": "https://dc.lft.to/lastmile_qr_scan"}}, {"name": "d9476a4b60c632d7eaa06c19df640682", "fusion_lat": 0.0, "type": "electric_scooter", "lat": 38.902448666666665, "is_reserved": 0, "is_disabled": 0, "fusion_lon": 0.0, "bike_id": "d9476a4b60c632d7eaa06c19df640682", "lon": -77.03945016666667, "rental_uris": {"ios": "https://dc.lft.to/lastmile_qr_scan", "android": "https://dc.lft.to/lastmile_qr_scan"}}, {"name": "c0f2aa8e6ecc93e0721e0925e9f6405d", "fusion_lat": 0.0, "type": "electric_scooter", "lat": 38.90216733333333, "is_reserved": 0, "is_disabled": 0, "fusion_lon": 0.0, "bike_id": "c0f2aa8e6ecc93e0721e0925e9f6405d", "lon": -77.0437795, "rental_uris": {"ios": "https://dc.lft.to/lastmile_qr_scan", "android": "https://dc.lft.to/lastmile_qr_scan"}}, {"name": "c02942ffa913007568cde1af74284aad", "fusion_lat": 0.0, "type": "electric_scooter", "lat": 38.91112783333333, "is_reserved": 0, "is_disabled": 0, "fusion_lon": 0.0, "bike_id": "c02942ffa913007568cde1af74284aad", "lon": -77.0246325, "rental_uris": {"ios": "https://dc.lft.to/lastmile_qr_scan", "android": "https://dc.lft.to/lastmile_qr_scan"}}, {"name": "2815b706e3efaaa5cd97f412381f7159", "fusion_lat": 0.0, "type": "electric_scooter", "lat": 38.919031333333336, "is_reserved": 0, "is_disabled": 0, "fusion_lon": 0.0, "bike_id": "2815b706e3efaaa5cd97f412381f7159", "lon": -77.03153183333333, "rental_uris": {"ios": "https://dc.lft.to/lastmile_qr_scan", "android": "https://dc.lft.to/lastmile_qr_scan"}}, {"name": "ed164f1771e2d4297966a2349754217c", "fusion_lat": 0.0, "type": "electric_scooter", "lat": 38.901599833333336, "is_reserved": 0, "is_disabled": 0, "fusion_lon": 0.0, "bike_id": "ed164f1771e2d4297966a2349754217c", "lon": -76.98056983333333, "rental_uris": {"ios": "https://dc.lft.to/lastmile_qr_scan", "android": "https://dc.lft.to/lastmile_qr_scan"}}, {"name": "589cb9b72a95a2980da60f15baf000e8", "fusion_lat": 0.0, "type": "electric_scooter", "lat": 38.91746416666667, "is_reserved": 0, "is_disabled": 0, "fusion_lon": 0.0, "bike_id": "589cb9b72a95a2980da60f15baf000e8", "lon": -77.04147383333333, "rental_uris": {"ios": "https://dc.lft.to/lastmile_qr_scan", "android": "https://dc.lft.to/lastmile_qr_scan"}}, {"name": "0b2456dd9abb0d54cc71c4339cddb198", "fusion_lat": 0.0, "type": "electric_scooter", "lat": 38.90106433333333, "is_reserved": 0, "is_disabled": 0, "fusion_lon": 0.0, "bike_id": "0b2456dd9abb0d54cc71c4339cddb198", "lon": -77.03173333333334, "rental_uris": {"ios": "https://dc.lft.to/lastmile_qr_scan", "android": "https://dc.lft.to/lastmile_qr_scan"}}, {"name": "de513805e0607ab2071f630c8932b63c", "fusion_lat": 0.0, "type": "electric_scooter", "lat": 38.90027, "is_reserved": 0, "is_disabled": 0, "fusion_lon": 0.0, "bike_id": "de513805e0607ab2071f630c8932b63c", "lon": -77.00887116666667, "rental_uris": {"ios": "https://dc.lft.to/lastmile_qr_scan", "android": "https://dc.lft.to/lastmile_qr_scan"}}, {"name": "00021e17688dd10f4cd2106ae605fa7d", "fusion_lat": 0.0, "type": "electric_scooter", "lat": 38.8901915, "is_reserved": 0, "is_disabled": 0, "fusion_lon": 0.0, "bike_id": "00021e17688dd10f4cd2106ae605fa7d", "lon": -76.9371905, "rental_uris": {"ios": "https://dc.lft.to/lastmile_qr_scan", "android": "https://dc.lft.to/lastmile_qr_scan"}}, {"name": "17487425fe874f5a464e2070d58a6da3", "fusion_lat": 0.0, "type": "electric_scooter", "lat": 38.90305866666667, "is_reserved": 0, "is_disabled": 0, "fusion_lon": 0.0, "bike_id": "17487425fe874f5a464e2070d58a6da3", "lon": -77.034329, "rental_uris": {"ios": "https://dc.lft.to/lastmile_qr_scan", "android": "https://dc.lft.to/lastmile_qr_scan"}}, {"name": "204a64766ffca5e331c3aa057dd51309", "fusion_lat": 0.0, "type": "electric_scooter", "lat": 38.899906333333334, "is_reserved": 0, "is_disabled": 0, "fusion_lon": 0.0, "bike_id": "204a64766ffca5e331c3aa057dd51309", "lon": -77.04031866666666, "rental_uris": {"ios": "https://dc.lft.to/lastmile_qr_scan", "android": "https://dc.lft.to/lastmile_qr_scan"}}, {"name": "923126e094e6b88e30f27d875106092a", "fusion_lat": 0.0, "type": "electric_scooter", "lat": 38.902523333333335, "is_reserved": 0, "is_disabled": 0, "fusion_lon": 0.0, "bike_id": "923126e094e6b88e30f27d875106092a", "lon": -77.0453985, "rental_uris": {"ios": "https://dc.lft.to/lastmile_qr_scan", "android": "https://dc.lft.to/lastmile_qr_scan"}}, {"name": "31c962c831d26ccfbd41d806a333ee44", "fusion_lat": 0.0, "type": "electric_scooter", "lat": 38.930888, "is_reserved": 0, "is_disabled": 0, "fusion_lon": 0.0, "bike_id": "31c962c831d26ccfbd41d806a333ee44", "lon": -77.02494066666667, "rental_uris": {"ios": "https://dc.lft.to/lastmile_qr_scan", "android": "https://dc.lft.to/lastmile_qr_scan"}}, {"name": "8d250aca71a0da6c433024811f8e02cf", "fusion_lat": 0.0, "type": "electric_scooter", "lat": 38.91158733333333, "is_reserved": 0, "is_disabled": 0, "fusion_lon": 0.0, "bike_id": "8d250aca71a0da6c433024811f8e02cf", "lon": -77.03854466666667, "rental_uris": {"ios": "https://dc.lft.to/lastmile_qr_scan", "android": "https://dc.lft.to/lastmile_qr_scan"}}, {"name": "42bb80652f8b3779dda4af7e4f968410", "fusion_lat": 0.0, "type": "electric_bike", "lat": 38.92840566666667, "is_reserved": 0, "is_disabled": 0, "fusion_lon": 0.0, "bike_id": "42bb80652f8b3779dda4af7e4f968410", "lon": -77.02052566666667, "rental_uris": {"ios": "https://dc.lft.to/lastmile_qr_scan", "android": "https://dc.lft.to/lastmile_qr_scan"}}, {"name": "c11eedc8a34a85df94eca6ecc48d21be", "fusion_lat": 0.0, "type": "electric_scooter", "lat": 38.91191833333333, "is_reserved": 0, "is_disabled": 0, "fusion_lon": 0.0, "bike_id": "c11eedc8a34a85df94eca6ecc48d21be", "lon": -77.04533283333333, "rental_uris": {"ios": "https://dc.lft.to/lastmile_qr_scan", "android": "https://dc.lft.to/lastmile_qr_scan"}}, {"name": "cec744e64be8f5ea3cfa354526b3e18f", "fusion_lat": 0.0, "type": "electric_scooter", "lat": 38.905472833333334, "is_reserved": 0, "is_disabled": 0, "fusion_lon": 0.0, "bike_id": "cec744e64be8f5ea3cfa354526b3e18f", "lon": -77.0057525, "rental_uris": {"ios": "https://dc.lft.to/lastmile_qr_scan", "android": "https://dc.lft.to/lastmile_qr_scan"}}, {"name": "8ef821fd422fbeb5cb2d8517ce30a108", "fusion_lat": 0.0, "type": "electric_scooter", "lat": 38.876578, "is_reserved": 0, "is_disabled": 0, "fusion_lon": 0.0, "bike_id": "8ef821fd422fbeb5cb2d8517ce30a108", "lon": -77.0045305, "rental_uris": {"ios": "https://dc.lft.to/lastmile_qr_scan", "android": "https://dc.lft.to/lastmile_qr_scan"}}, {"name": "7d311b1ea586451773f5400b646eb1d9", "fusion_lat": 0.0, "type": "electric_scooter", "lat": 38.92625866666667, "is_reserved": 0, "is_disabled": 0, "fusion_lon": 0.0, "bike_id": "7d311b1ea586451773f5400b646eb1d9", "lon": -77.03784866666666, "rental_uris": {"ios": "https://dc.lft.to/lastmile_qr_scan", "android": "https://dc.lft.to/lastmile_qr_scan"}}, {"name": "32e4c63e4b216dbedb9aa08030f648cf", "fusion_lat": 0.0, "type": "electric_scooter", "lat": 38.905161, "is_reserved": 0, "is_disabled": 0, "fusion_lon": 0.0, "bike_id": "32e4c63e4b216dbedb9aa08030f648cf", "lon": -77.03438083333333, "rental_uris": {"ios": "https://dc.lft.to/lastmile_qr_scan", "android": "https://dc.lft.to/lastmile_qr_scan"}}, {"name": "ff895ccbb13b63895ed773eee8b88231", "fusion_lat": 0.0, "type": "electric_scooter", "lat": 38.90242116666667, "is_reserved": 0, "is_disabled": 0, "fusion_lon": 0.0, "bike_id": "ff895ccbb13b63895ed773eee8b88231", "lon": -77.04611616666666, "rental_uris": {"ios": "https://dc.lft.to/lastmile_qr_scan", "android": "https://dc.lft.to/lastmile_qr_scan"}}, {"name": "b83ce668ea1ae74a01fbd495eb47f476", "fusion_lat": 0.0, "type": "electric_scooter", "lat": 38.90533533333333, "is_reserved": 0, "is_disabled": 0, "fusion_lon": 0.0, "bike_id": "b83ce668ea1ae74a01fbd495eb47f476", "lon": -77.00553516666666, "rental_uris": {"ios": "https://dc.lft.to/lastmile_qr_scan", "android": "https://dc.lft.to/lastmile_qr_scan"}}, {"name": "61e7434935a56accefda966ea0299e22", "fusion_lat": 0.0, "type": "electric_scooter", "lat": 38.92347216666667, "is_reserved": 0, "is_disabled": 0, "fusion_lon": 0.0, "bike_id": "61e7434935a56accefda966ea0299e22", "lon": -77.03394283333333, "rental_uris": {"ios": "https://dc.lft.to/lastmile_qr_scan", "android": "https://dc.lft.to/lastmile_qr_scan"}}, {"name": "4dcdce7c6a20da44bfd5c8b50ff60d8b", "fusion_lat": 0.0, "type": "electric_scooter", "lat": 38.913294666666665, "is_reserved": 0, "is_disabled": 0, "fusion_lon": 0.0, "bike_id": "4dcdce7c6a20da44bfd5c8b50ff60d8b", "lon": -77.0487035, "rental_uris": {"ios": "https://dc.lft.to/lastmile_qr_scan", "android": "https://dc.lft.to/lastmile_qr_scan"}}, {"name": "476aec12174f214f3f6a3db0914ab9bd", "fusion_lat": 0.0, "type": "electric_scooter", "lat": 38.9269605, "is_reserved": 0, "is_disabled": 0, "fusion_lon": 0.0, "bike_id": "476aec12174f214f3f6a3db0914ab9bd", "lon": -77.024281, "rental_uris": {"ios": "https://dc.lft.to/lastmile_qr_scan", "android": "https://dc.lft.to/lastmile_qr_scan"}}, {"name": "02189c22caeeebdcc6a7f1eba65eb556", "fusion_lat": 0.0, "type": "electric_scooter", "lat": 38.91269283333333, "is_reserved": 0, "is_disabled": 0, "fusion_lon": 0.0, "bike_id": "02189c22caeeebdcc6a7f1eba65eb556", "lon": -77.04503333333334, "rental_uris": {"ios": "https://dc.lft.to/lastmile_qr_scan", "android": "https://dc.lft.to/lastmile_qr_scan"}}, {"name": "fe4d032ad0f4ac1fefa4e630c9cd1947", "fusion_lat": 0.0, "type": "electric_scooter", "lat": 38.89515983333333, "is_reserved": 0, "is_disabled": 0, "fusion_lon": 0.0, "bike_id": "fe4d032ad0f4ac1fefa4e630c9cd1947", "lon": -77.0110955, "rental_uris": {"ios": "https://dc.lft.to/lastmile_qr_scan", "android": "https://dc.lft.to/lastmile_qr_scan"}}, {"name": "5981452cc2932a438614b4a7762f3b86", "fusion_lat": 0.0, "type": "electric_scooter", "lat": 38.899698, "is_reserved": 0, "is_disabled": 0, "fusion_lon": 0.0, "bike_id": "5981452cc2932a438614b4a7762f3b86", "lon": -77.055572, "rental_uris": {"ios": "https://dc.lft.to/lastmile_qr_scan", "android": "https://dc.lft.to/lastmile_qr_scan"}}, {"name": "81c30746ce8c097cd93c6d7b07087a4d", "fusion_lat": 0.0, "type": "electric_scooter", "lat": 38.935362, "is_reserved": 0, "is_disabled": 0, "fusion_lon": 0.0, "bike_id": "81c30746ce8c097cd93c6d7b07087a4d", "lon": -77.03413133333333, "rental_uris": {"ios": "https://dc.lft.to/lastmile_qr_scan", "android": "https://dc.lft.to/lastmile_qr_scan"}}, {"name": "913db20a62b08f25c1295cc71e7e63c5", "fusion_lat": 0.0, "type": "electric_scooter", "lat": 38.9089395, "is_reserved": 0, "is_disabled": 0, "fusion_lon": 0.0, "bike_id": "913db20a62b08f25c1295cc71e7e63c5", "lon": -77.02808066666667, "rental_uris": {"ios": "https://dc.lft.to/lastmile_qr_scan", "android": "https://dc.lft.to/lastmile_qr_scan"}}, {"name": "ddaf5c68d59c765d52651abe897d3c92", "fusion_lat": 0.0, "type": "electric_scooter", "lat": 38.90339733333333, "is_reserved": 0, "is_disabled": 0, "fusion_lon": 0.0, "bike_id": "ddaf5c68d59c765d52651abe897d3c92", "lon": -77.0529125, "rental_uris": {"ios": "https://dc.lft.to/lastmile_qr_scan", "android": "https://dc.lft.to/lastmile_qr_scan"}}, {"name": "bf167878e7168f7bd6aeee66a407ba1f", "fusion_lat": 0.0, "type": "electric_scooter", "lat": 38.913337166666665, "is_reserved": 0, "is_disabled": 0, "fusion_lon": 0.0, "bike_id": "bf167878e7168f7bd6aeee66a407ba1f", "lon": -77.04569416666666, "rental_uris": {"ios": "https://dc.lft.to/lastmile_qr_scan", "android": "https://dc.lft.to/lastmile_qr_scan"}}, {"name": "cbe81fb3999bf0f4659aca2ef2587a2a", "fusion_lat": 0.0, "type": "electric_scooter", "lat": 38.897217166666664, "is_reserved": 0, "is_disabled": 0, "fusion_lon": 0.0, "bike_id": "cbe81fb3999bf0f4659aca2ef2587a2a", "lon": -77.00922566666667, "rental_uris": {"ios": "https://dc.lft.to/lastmile_qr_scan", "android": "https://dc.lft.to/lastmile_qr_scan"}}, {"name": "7b53367e51f6d0f87675395ac2c1215d", "fusion_lat": 0.0, "type": "electric_scooter", "lat": 38.8987835, "is_reserved": 0, "is_disabled": 0, "fusion_lon": 0.0, "bike_id": "7b53367e51f6d0f87675395ac2c1215d", "lon": -77.03280766666667, "rental_uris": {"ios": "https://dc.lft.to/lastmile_qr_scan", "android": "https://dc.lft.to/lastmile_qr_scan"}}, {"name": "9a0bb8370c1bb80038b1391a5fa77278", "fusion_lat": 0.0, "type": "electric_bike", "lat": 39.0580955, "is_reserved": 0, "is_disabled": 0, "fusion_lon": 0.0, "bike_id": "9a0bb8370c1bb80038b1391a5fa77278", "lon": -77.12627433333333, "rental_uris": {"ios": "https://dc.lft.to/lastmile_qr_scan", "android": "https://dc.lft.to/lastmile_qr_scan"}}, {"name": "00b3975eb0f591de332fe31ad53e638b", "fusion_lat": 0.0, "type": "electric_scooter", "lat": 38.91969233333333, "is_reserved": 0, "is_disabled": 0, "fusion_lon": 0.0, "bike_id": "00b3975eb0f591de332fe31ad53e638b", "lon": -77.03856483333334, "rental_uris": {"ios": "https://dc.lft.to/lastmile_qr_scan", "android": "https://dc.lft.to/lastmile_qr_scan"}}, {"name": "bc6a6edd1528ea013ae57b4dc55c5eac", "fusion_lat": 0.0, "type": "electric_bike", "lat": 38.84606633333333, "is_reserved": 0, "is_disabled": 0, "fusion_lon": 0.0, "bike_id": "bc6a6edd1528ea013ae57b4dc55c5eac", "lon": -76.97830616666667, "rental_uris": {"ios": "https://dc.lft.to/lastmile_qr_scan", "android": "https://dc.lft.to/lastmile_qr_scan"}}, {"name": "769f46413d9347e100860678ab952f90", "fusion_lat": 0.0, "type": "electric_scooter", "lat": 38.906712666666664, "is_reserved": 0, "is_disabled": 0, "fusion_lon": 0.0, "bike_id": "769f46413d9347e100860678ab952f90", "lon": -77.02714183333333, "rental_uris": {"ios": "https://dc.lft.to/lastmile_qr_scan", "android": "https://dc.lft.to/lastmile_qr_scan"}}, {"name": "023506c4b7fefb9e1bd8f3b16a8041fe", "fusion_lat": 0.0, "type": "electric_scooter", "lat": 38.90833383333333, "is_reserved": 0, "is_disabled": 0, "fusion_lon": 0.0, "bike_id": "023506c4b7fefb9e1bd8f3b16a8041fe", "lon": -77.0009755, "rental_uris": {"ios": "https://dc.lft.to/lastmile_qr_scan", "android": "https://dc.lft.to/lastmile_qr_scan"}}, {"name": "eb83279849e336aa1ac25fd05688a3fc", "fusion_lat": 0.0, "type": "electric_scooter", "lat": 38.90915283333333, "is_reserved": 0, "is_disabled": 0, "fusion_lon": 0.0, "bike_id": "eb83279849e336aa1ac25fd05688a3fc", "lon": -77.03660266666667, "rental_uris": {"ios": "https://dc.lft.to/lastmile_qr_scan", "android": "https://dc.lft.to/lastmile_qr_scan"}}, {"name": "8770e370a41634f06f1b3276f32d51e8", "fusion_lat": 0.0, "type": "electric_bike", "lat": 38.85415616666667, "is_reserved": 0, "is_disabled": 0, "fusion_lon": 0.0, "bike_id": "8770e370a41634f06f1b3276f32d51e8", "lon": -76.90945866666667, "rental_uris": {"ios": "https://dc.lft.to/lastmile_qr_scan", "android": "https://dc.lft.to/lastmile_qr_scan"}}, {"name": "3607e589e97eb3e7645e58a2f0cf09cd", "fusion_lat": 0.0, "type": "electric_bike", "lat": 38.81052016666667, "is_reserved": 0, "is_disabled": 0, "fusion_lon": 0.0, "bike_id": "3607e589e97eb3e7645e58a2f0cf09cd", "lon": -77.08513183333334, "rental_uris": {"ios": "https://dc.lft.to/lastmile_qr_scan", "android": "https://dc.lft.to/lastmile_qr_scan"}}, {"name": "e075f799e2bd599fec6e93dd3031014d", "fusion_lat": 0.0, "type": "electric_scooter", "lat": 38.8952395, "is_reserved": 0, "is_disabled": 0, "fusion_lon": 0.0, "bike_id": "e075f799e2bd599fec6e93dd3031014d", "lon": -76.948915, "rental_uris": {"ios": "https://dc.lft.to/lastmile_qr_scan", "android": "https://dc.lft.to/lastmile_qr_scan"}}, {"name": "c6da972926358c4e5c9df38c2af0f41b", "fusion_lat": 0.0, "type": "electric_scooter", "lat": 38.900355, "is_reserved": 0, "is_disabled": 0, "fusion_lon": 0.0, "bike_id": "c6da972926358c4e5c9df38c2af0f41b", "lon": -77.0020035, "rental_uris": {"ios": "https://dc.lft.to/lastmile_qr_scan", "android": "https://dc.lft.to/lastmile_qr_scan"}}, {"name": "5b2676d2b33de6c0f9c9179a2e3c942d", "fusion_lat": 0.0, "type": "electric_scooter", "lat": 38.902011333333334, "is_reserved": 0, "is_disabled": 0, "fusion_lon": 0.0, "bike_id": "5b2676d2b33de6c0f9c9179a2e3c942d", "lon": -77.02178883333333, "rental_uris": {"ios": "https://dc.lft.to/lastmile_qr_scan", "android": "https://dc.lft.to/lastmile_qr_scan"}}, {"name": "5997ba682a1bc73fcab90dc28693488c", "fusion_lat": 0.0, "type": "electric_scooter", "lat": 38.893565333333335, "is_reserved": 0, "is_disabled": 0, "fusion_lon": 0.0, "bike_id": "5997ba682a1bc73fcab90dc28693488c", "lon": -77.003402, "rental_uris": {"ios": "https://dc.lft.to/lastmile_qr_scan", "android": "https://dc.lft.to/lastmile_qr_scan"}}, {"name": "bdc73ad876f1ad74d7c3cf00c309bb85", "fusion_lat": 0.0, "type": "electric_scooter", "lat": 38.935256333333335, "is_reserved": 0, "is_disabled": 0, "fusion_lon": 0.0, "bike_id": "bdc73ad876f1ad74d7c3cf00c309bb85", "lon": -77.034042, "rental_uris": {"ios": "https://dc.lft.to/lastmile_qr_scan", "android": "https://dc.lft.to/lastmile_qr_scan"}}, {"name": "93ac622a50e025deb1a62f61bea159e2", "fusion_lat": 0.0, "type": "electric_bike", "lat": 39.0268305, "is_reserved": 0, "is_disabled": 0, "fusion_lon": 0.0, "bike_id": "93ac622a50e025deb1a62f61bea159e2", "lon": -77.1260265, "rental_uris": {"ios": "https://dc.lft.to/lastmile_qr_scan", "android": "https://dc.lft.to/lastmile_qr_scan"}}, {"name": "944ed340b5460cb57ba06aad6ee6e402", "fusion_lat": 0.0, "type": "electric_scooter", "lat": 38.91870733333333, "is_reserved": 0, "is_disabled": 0, "fusion_lon": 0.0, "bike_id": "944ed340b5460cb57ba06aad6ee6e402", "lon": -76.96542333333333, "rental_uris": {"ios": "https://dc.lft.to/lastmile_qr_scan", "android": "https://dc.lft.to/lastmile_qr_scan"}}, {"name": "b927ace59de812b281abad034ba8518e", "fusion_lat": 0.0, "type": "electric_scooter", "lat": 38.906688833333334, "is_reserved": 0, "is_disabled": 0, "fusion_lon": 0.0, "bike_id": "b927ace59de812b281abad034ba8518e", "lon": -77.02703066666666, "rental_uris": {"ios": "https://dc.lft.to/lastmile_qr_scan", "android": "https://dc.lft.to/lastmile_qr_scan"}}, {"name": "822ca77ad0aa3d313d40ff6ae713f671", "fusion_lat": 0.0, "type": "electric_scooter", "lat": 38.93635666666667, "is_reserved": 0, "is_disabled": 0, "fusion_lon": 0.0, "bike_id": "822ca77ad0aa3d313d40ff6ae713f671", "lon": -77.02058066666666, "rental_uris": {"ios": "https://dc.lft.to/lastmile_qr_scan", "android": "https://dc.lft.to/lastmile_qr_scan"}}, {"name": "30e4fa6c5ba34ccb0c375a3eac37d7b3", "fusion_lat": 0.0, "type": "electric_scooter", "lat": 38.900926166666665, "is_reserved": 0, "is_disabled": 0, "fusion_lon": 0.0, "bike_id": "30e4fa6c5ba34ccb0c375a3eac37d7b3", "lon": -77.01353166666667, "rental_uris": {"ios": "https://dc.lft.to/lastmile_qr_scan", "android": "https://dc.lft.to/lastmile_qr_scan"}}, {"name": "01bc4024852eaaf43765cae1278fcc59", "fusion_lat": 0.0, "type": "electric_bike", "lat": 38.973228166666665, "is_reserved": 0, "is_disabled": 0, "fusion_lon": 0.0, "bike_id": "01bc4024852eaaf43765cae1278fcc59", "lon": -77.02147166666667, "rental_uris": {"ios": "https://dc.lft.to/lastmile_qr_scan", "android": "https://dc.lft.to/lastmile_qr_scan"}}, {"name": "b5c8a11eabb1cae1d86f1cab96661231", "fusion_lat": 0.0, "type": "electric_scooter", "lat": 38.883919666666664, "is_reserved": 0, "is_disabled": 0, "fusion_lon": 0.0, "bike_id": "b5c8a11eabb1cae1d86f1cab96661231", "lon": -76.930456, "rental_uris": {"ios": "https://dc.lft.to/lastmile_qr_scan", "android": "https://dc.lft.to/lastmile_qr_scan"}}, {"name": "eda951e5291fc4425f79fea9124b867f", "fusion_lat": 0.0, "type": "electric_scooter", "lat": 38.9154055, "is_reserved": 0, "is_disabled": 0, "fusion_lon": 0.0, "bike_id": "eda951e5291fc4425f79fea9124b867f", "lon": -77.03856366666666, "rental_uris": {"ios": "https://dc.lft.to/lastmile_qr_scan", "android": "https://dc.lft.to/lastmile_qr_scan"}}, {"name": "edbfd3f1be323b9fb4e3d12a41faed93", "fusion_lat": 0.0, "type": "electric_scooter", "lat": 38.91805816666667, "is_reserved": 0, "is_disabled": 0, "fusion_lon": 0.0, "bike_id": "edbfd3f1be323b9fb4e3d12a41faed93", "lon": -77.03170683333333, "rental_uris": {"ios": "https://dc.lft.to/lastmile_qr_scan", "android": "https://dc.lft.to/lastmile_qr_scan"}}, {"name": "818557967fc0bf2d07b22a6a5c631563", "fusion_lat": 0.0, "type": "electric_scooter", "lat": 38.928795666666666, "is_reserved": 0, "is_disabled": 0, "fusion_lon": 0.0, "bike_id": "818557967fc0bf2d07b22a6a5c631563", "lon": -77.01372083333334, "rental_uris": {"ios": "https://dc.lft.to/lastmile_qr_scan", "android": "https://dc.lft.to/lastmile_qr_scan"}}, {"name": "4a1c464eb56f33882dcf9a0eda3aae64", "fusion_lat": 0.0, "type": "electric_scooter", "lat": 38.90750083333333, "is_reserved": 0, "is_disabled": 0, "fusion_lon": 0.0, "bike_id": "4a1c464eb56f33882dcf9a0eda3aae64", "lon": -76.9997015, "rental_uris": {"ios": "https://dc.lft.to/lastmile_qr_scan", "android": "https://dc.lft.to/lastmile_qr_scan"}}, {"name": "0e1888253a66411dc25d8bc26427a16d", "fusion_lat": 0.0, "type": "electric_bike", "lat": 38.945490666666664, "is_reserved": 0, "is_disabled": 0, "fusion_lon": 0.0, "bike_id": "0e1888253a66411dc25d8bc26427a16d", "lon": -76.895392, "rental_uris": {"ios": "https://dc.lft.to/lastmile_qr_scan", "android": "https://dc.lft.to/lastmile_qr_scan"}}, {"name": "6edf955c95d1b927332bbc1d817bda3c", "fusion_lat": 0.0, "type": "electric_scooter", "lat": 38.90049466666667, "is_reserved": 0, "is_disabled": 0, "fusion_lon": 0.0, "bike_id": "6edf955c95d1b927332bbc1d817bda3c", "lon": -77.043388, "rental_uris": {"ios": "https://dc.lft.to/lastmile_qr_scan", "android": "https://dc.lft.to/lastmile_qr_scan"}}, {"name": "811412132f05b4d34d66887ec6517c4f", "fusion_lat": 0.0, "type": "electric_scooter", "lat": 38.941838, "is_reserved": 0, "is_disabled": 0, "fusion_lon": 0.0, "bike_id": "811412132f05b4d34d66887ec6517c4f", "lon": -77.02488016666666, "rental_uris": {"ios": "https://dc.lft.to/lastmile_qr_scan", "android": "https://dc.lft.to/lastmile_qr_scan"}}, {"name": "8bf8b2cb557c4bd5ff7d345ed384c52a", "fusion_lat": 0.0, "type": "electric_scooter", "lat": 38.916161833333334, "is_reserved": 0, "is_disabled": 0, "fusion_lon": 0.0, "bike_id": "8bf8b2cb557c4bd5ff7d345ed384c52a", "lon": -77.0384585, "rental_uris": {"ios": "https://dc.lft.to/lastmile_qr_scan", "android": "https://dc.lft.to/lastmile_qr_scan"}}, {"name": "9b5efc98a642a69de39d2734f96688b9", "fusion_lat": 0.0, "type": "electric_scooter", "lat": 38.893442, "is_reserved": 0, "is_disabled": 0, "fusion_lon": 0.0, "bike_id": "9b5efc98a642a69de39d2734f96688b9", "lon": -77.04652433333334, "rental_uris": {"ios": "https://dc.lft.to/lastmile_qr_scan", "android": "https://dc.lft.to/lastmile_qr_scan"}}, {"name": "5425dfb254b8db7965f5e45d7ead753d", "fusion_lat": 0.0, "type": "electric_scooter", "lat": 38.866944333333336, "is_reserved": 0, "is_disabled": 0, "fusion_lon": 0.0, "bike_id": "5425dfb254b8db7965f5e45d7ead753d", "lon": -76.98711666666667, "rental_uris": {"ios": "https://dc.lft.to/lastmile_qr_scan", "android": "https://dc.lft.to/lastmile_qr_scan"}}, {"name": "4e4dc1a210e7e94b0d199d59fcd1ea7a", "fusion_lat": 0.0, "type": "electric_scooter", "lat": 38.9399485, "is_reserved": 0, "is_disabled": 0, "fusion_lon": 0.0, "bike_id": "4e4dc1a210e7e94b0d199d59fcd1ea7a", "lon": -77.02957916666666, "rental_uris": {"ios": "https://dc.lft.to/lastmile_qr_scan", "android": "https://dc.lft.to/lastmile_qr_scan"}}, {"name": "3f75d832fb32d9403e1875fed437bf28", "fusion_lat": 0.0, "type": "electric_scooter", "lat": 38.898526333333336, "is_reserved": 0, "is_disabled": 0, "fusion_lon": 0.0, "bike_id": "3f75d832fb32d9403e1875fed437bf28", "lon": -76.990314, "rental_uris": {"ios": "https://dc.lft.to/lastmile_qr_scan", "android": "https://dc.lft.to/lastmile_qr_scan"}}, {"name": "3c6bb6c51822be84ee44e9c38cc539d6", "fusion_lat": 0.0, "type": "electric_scooter", "lat": 38.89539833333333, "is_reserved": 0, "is_disabled": 0, "fusion_lon": 0.0, "bike_id": "3c6bb6c51822be84ee44e9c38cc539d6", "lon": -77.01985683333334, "rental_uris": {"ios": "https://dc.lft.to/lastmile_qr_scan", "android": "https://dc.lft.to/lastmile_qr_scan"}}, {"name": "1997a4807b0ed6720dfcae3d40aceb6d", "fusion_lat": 0.0, "type": "electric_scooter", "lat": 38.8948165, "is_reserved": 0, "is_disabled": 0, "fusion_lon": 0.0, "bike_id": "1997a4807b0ed6720dfcae3d40aceb6d", "lon": -76.94873516666667, "rental_uris": {"ios": "https://dc.lft.to/lastmile_qr_scan", "android": "https://dc.lft.to/lastmile_qr_scan"}}, {"name": "2d0b8a4b357f579d1cb25c80a0524010", "fusion_lat": 0.0, "type": "electric_scooter", "lat": 38.892779833333336, "is_reserved": 0, "is_disabled": 0, "fusion_lon": 0.0, "bike_id": "2d0b8a4b357f579d1cb25c80a0524010", "lon": -77.03172516666666, "rental_uris": {"ios": "https://dc.lft.to/lastmile_qr_scan", "android": "https://dc.lft.to/lastmile_qr_scan"}}, {"name": "eb94aaf59b0c5be873a6026ac11bd426", "fusion_lat": 0.0, "type": "electric_scooter", "lat": 38.932512, "is_reserved": 0, "is_disabled": 0, "fusion_lon": 0.0, "bike_id": "eb94aaf59b0c5be873a6026ac11bd426", "lon": -77.04004, "rental_uris": {"ios": "https://dc.lft.to/lastmile_qr_scan", "android": "https://dc.lft.to/lastmile_qr_scan"}}, {"name": "f82025d6bbe9402e24aad9885c8b97e0", "fusion_lat": 0.0, "type": "electric_scooter", "lat": 38.90829733333333, "is_reserved": 0, "is_disabled": 0, "fusion_lon": 0.0, "bike_id": "f82025d6bbe9402e24aad9885c8b97e0", "lon": -76.99967333333333, "rental_uris": {"ios": "https://dc.lft.to/lastmile_qr_scan", "android": "https://dc.lft.to/lastmile_qr_scan"}}, {"name": "3d60f7c8dd67ed428cbe033c50645d07", "fusion_lat": 0.0, "type": "electric_scooter", "lat": 38.931154666666664, "is_reserved": 0, "is_disabled": 0, "fusion_lon": 0.0, "bike_id": "3d60f7c8dd67ed428cbe033c50645d07", "lon": -77.03601483333334, "rental_uris": {"ios": "https://dc.lft.to/lastmile_qr_scan", "android": "https://dc.lft.to/lastmile_qr_scan"}}, {"name": "9575041dcb52ca7cef8af1dba943df58", "fusion_lat": 0.0, "type": "electric_scooter", "lat": 38.9064345, "is_reserved": 0, "is_disabled": 0, "fusion_lon": 0.0, "bike_id": "9575041dcb52ca7cef8af1dba943df58", "lon": -76.98578616666667, "rental_uris": {"ios": "https://dc.lft.to/lastmile_qr_scan", "android": "https://dc.lft.to/lastmile_qr_scan"}}, {"name": "ff5b1fd64682351482388c62d9a49a7c", "fusion_lat": 0.0, "type": "electric_bike", "lat": 38.834393, "is_reserved": 0, "is_disabled": 0, "fusion_lon": 0.0, "bike_id": "ff5b1fd64682351482388c62d9a49a7c", "lon": -77.008271, "rental_uris": {"ios": "https://dc.lft.to/lastmile_qr_scan", "android": "https://dc.lft.to/lastmile_qr_scan"}}, {"name": "3212dc81aacc7dc59124a7e30e8c9378", "fusion_lat": 0.0, "type": "electric_scooter", "lat": 38.902194333333334, "is_reserved": 0, "is_disabled": 0, "fusion_lon": 0.0, "bike_id": "3212dc81aacc7dc59124a7e30e8c9378", "lon": -77.01749216666667, "rental_uris": {"ios": "https://dc.lft.to/lastmile_qr_scan", "android": "https://dc.lft.to/lastmile_qr_scan"}}, {"name": "3e8bbd7340f7c082c209985f30f39eaa", "fusion_lat": 0.0, "type": "electric_scooter", "lat": 38.892201166666666, "is_reserved": 0, "is_disabled": 0, "fusion_lon": 0.0, "bike_id": "3e8bbd7340f7c082c209985f30f39eaa", "lon": -77.0137225, "rental_uris": {"ios": "https://dc.lft.to/lastmile_qr_scan", "android": "https://dc.lft.to/lastmile_qr_scan"}}, {"name": "ea44ce7ad7110c0274a9f3268f6b4961", "fusion_lat": 0.0, "type": "electric_scooter", "lat": 38.90014433333333, "is_reserved": 0, "is_disabled": 0, "fusion_lon": 0.0, "bike_id": "ea44ce7ad7110c0274a9f3268f6b4961", "lon": -77.016783, "rental_uris": {"ios": "https://dc.lft.to/lastmile_qr_scan", "android": "https://dc.lft.to/lastmile_qr_scan"}}, {"name": "1f5f4d832c35f6c8a8d516cde1ae7f11", "fusion_lat": 0.0, "type": "electric_scooter", "lat": 38.90083166666667, "is_reserved": 0, "is_disabled": 0, "fusion_lon": 0.0, "bike_id": "1f5f4d832c35f6c8a8d516cde1ae7f11", "lon": -77.02205583333334, "rental_uris": {"ios": "https://dc.lft.to/lastmile_qr_scan", "android": "https://dc.lft.to/lastmile_qr_scan"}}, {"name": "430efefef1e0b42d16be037ae16ab7bd", "fusion_lat": 0.0, "type": "electric_scooter", "lat": 38.844263166666664, "is_reserved": 0, "is_disabled": 0, "fusion_lon": 0.0, "bike_id": "430efefef1e0b42d16be037ae16ab7bd", "lon": -76.9977785, "rental_uris": {"ios": "https://dc.lft.to/lastmile_qr_scan", "android": "https://dc.lft.to/lastmile_qr_scan"}}, {"name": "686ed91bc4c46b0eadda8999375585ee", "fusion_lat": 0.0, "type": "electric_scooter", "lat": 38.89369816666667, "is_reserved": 0, "is_disabled": 0, "fusion_lon": 0.0, "bike_id": "686ed91bc4c46b0eadda8999375585ee", "lon": -76.949988, "rental_uris": {"ios": "https://dc.lft.to/lastmile_qr_scan", "android": "https://dc.lft.to/lastmile_qr_scan"}}, {"name": "c8ce13d470092fa754d9ad4d660f5683", "fusion_lat": 0.0, "type": "electric_scooter", "lat": 38.9250885, "is_reserved": 0, "is_disabled": 0, "fusion_lon": 0.0, "bike_id": "c8ce13d470092fa754d9ad4d660f5683", "lon": -77.02356483333334, "rental_uris": {"ios": "https://dc.lft.to/lastmile_qr_scan", "android": "https://dc.lft.to/lastmile_qr_scan"}}, {"name": "eaa7d7852787c2bcb81bfc9433e1797e", "fusion_lat": 0.0, "type": "electric_scooter", "lat": 38.89590066666667, "is_reserved": 0, "is_disabled": 0, "fusion_lon": 0.0, "bike_id": "eaa7d7852787c2bcb81bfc9433e1797e", "lon": -77.02852383333334, "rental_uris": {"ios": "https://dc.lft.to/lastmile_qr_scan", "android": "https://dc.lft.to/lastmile_qr_scan"}}, {"name": "ba2ab045614e24b2153710fb64091da8", "fusion_lat": 0.0, "type": "electric_scooter", "lat": 38.926697, "is_reserved": 0, "is_disabled": 0, "fusion_lon": 0.0, "bike_id": "ba2ab045614e24b2153710fb64091da8", "lon": -77.01480316666667, "rental_uris": {"ios": "https://dc.lft.to/lastmile_qr_scan", "android": "https://dc.lft.to/lastmile_qr_scan"}}, {"name": "6b936026fd27ce6d68f0471c22c32b02", "fusion_lat": 0.0, "type": "electric_scooter", "lat": 38.902500333333336, "is_reserved": 0, "is_disabled": 0, "fusion_lon": 0.0, "bike_id": "6b936026fd27ce6d68f0471c22c32b02", "lon": -77.03147016666667, "rental_uris": {"ios": "https://dc.lft.to/lastmile_qr_scan", "android": "https://dc.lft.to/lastmile_qr_scan"}}, {"name": "da1b05a61c430c35be1bb23202173f87", "fusion_lat": 0.0, "type": "electric_scooter", "lat": 38.91111183333334, "is_reserved": 0, "is_disabled": 0, "fusion_lon": 0.0, "bike_id": "da1b05a61c430c35be1bb23202173f87", "lon": -77.03914316666666, "rental_uris": {"ios": "https://dc.lft.to/lastmile_qr_scan", "android": "https://dc.lft.to/lastmile_qr_scan"}}, {"name": "071d4732a42ba49bd4795900ad91180d", "fusion_lat": 0.0, "type": "electric_scooter", "lat": 38.899202, "is_reserved": 0, "is_disabled": 0, "fusion_lon": 0.0, "bike_id": "071d4732a42ba49bd4795900ad91180d", "lon": -77.00349833333334, "rental_uris": {"ios": "https://dc.lft.to/lastmile_qr_scan", "android": "https://dc.lft.to/lastmile_qr_scan"}}, {"name": "a9476659759d5fe244e649a09ba3f63f", "fusion_lat": 0.0, "type": "electric_bike", "lat": 38.869028, "is_reserved": 0, "is_disabled": 0, "fusion_lon": 0.0, "bike_id": "a9476659759d5fe244e649a09ba3f63f", "lon": -77.13174133333334, "rental_uris": {"ios": "https://dc.lft.to/lastmile_qr_scan", "android": "https://dc.lft.to/lastmile_qr_scan"}}, {"name": "7f00a1742a9a75a23afda8cb5adc364c", "fusion_lat": 0.0, "type": "electric_scooter", "lat": 38.90283933333333, "is_reserved": 0, "is_disabled": 0, "fusion_lon": 0.0, "bike_id": "7f00a1742a9a75a23afda8cb5adc364c", "lon": -77.03653333333334, "rental_uris": {"ios": "https://dc.lft.to/lastmile_qr_scan", "android": "https://dc.lft.to/lastmile_qr_scan"}}, {"name": "54aaa9ac0bed99bb770d3672d14c2e84", "fusion_lat": 0.0, "type": "electric_scooter", "lat": 38.85789833333333, "is_reserved": 0, "is_disabled": 0, "fusion_lon": 0.0, "bike_id": "54aaa9ac0bed99bb770d3672d14c2e84", "lon": -76.990933, "rental_uris": {"ios": "https://dc.lft.to/lastmile_qr_scan", "android": "https://dc.lft.to/lastmile_qr_scan"}}, {"name": "8f88e0edd1811ae4cb0f22bfe85c715f", "fusion_lat": 0.0, "type": "electric_bike", "lat": 39.003793333333334, "is_reserved": 0, "is_disabled": 0, "fusion_lon": 0.0, "bike_id": "8f88e0edd1811ae4cb0f22bfe85c715f", "lon": -77.01286183333333, "rental_uris": {"ios": "https://dc.lft.to/lastmile_qr_scan", "android": "https://dc.lft.to/lastmile_qr_scan"}}, {"name": "07ce73700d152f864ac275063d496b5f", "fusion_lat": 0.0, "type": "electric_scooter", "lat": 38.95647666666667, "is_reserved": 0, "is_disabled": 0, "fusion_lon": 0.0, "bike_id": "07ce73700d152f864ac275063d496b5f", "lon": -77.03285883333334, "rental_uris": {"ios": "https://dc.lft.to/lastmile_qr_scan", "android": "https://dc.lft.to/lastmile_qr_scan"}}, {"name": "637c7bfdec951a7a0426abc921234922", "fusion_lat": 0.0, "type": "electric_scooter", "lat": 38.9248265, "is_reserved": 0, "is_disabled": 0, "fusion_lon": 0.0, "bike_id": "637c7bfdec951a7a0426abc921234922", "lon": -77.05208966666666, "rental_uris": {"ios": "https://dc.lft.to/lastmile_qr_scan", "android": "https://dc.lft.to/lastmile_qr_scan"}}, {"name": "44a9d4ea7d1629974447d2d11446e6c3", "fusion_lat": 0.0, "type": "electric_scooter", "lat": 38.89426783333333, "is_reserved": 0, "is_disabled": 0, "fusion_lon": 0.0, "bike_id": "44a9d4ea7d1629974447d2d11446e6c3", "lon": -76.93257866666667, "rental_uris": {"ios": "https://dc.lft.to/lastmile_qr_scan", "android": "https://dc.lft.to/lastmile_qr_scan"}}, {"name": "a2e7b3f6759478fa73791044b3dc4ef3", "fusion_lat": 0.0, "type": "electric_scooter", "lat": 38.90267216666667, "is_reserved": 0, "is_disabled": 0, "fusion_lon": 0.0, "bike_id": "a2e7b3f6759478fa73791044b3dc4ef3", "lon": -77.038625, "rental_uris": {"ios": "https://dc.lft.to/lastmile_qr_scan", "android": "https://dc.lft.to/lastmile_qr_scan"}}, {"name": "ff726c8ff2b0e909ff4107866672d114", "fusion_lat": 0.0, "type": "electric_scooter", "lat": 38.95905883333333, "is_reserved": 0, "is_disabled": 0, "fusion_lon": 0.0, "bike_id": "ff726c8ff2b0e909ff4107866672d114", "lon": -77.08079866666667, "rental_uris": {"ios": "https://dc.lft.to/lastmile_qr_scan", "android": "https://dc.lft.to/lastmile_qr_scan"}}, {"name": "c2a258ca31770f70497a9a5027fe9504", "fusion_lat": 0.0, "type": "electric_scooter", "lat": 38.9320255, "is_reserved": 0, "is_disabled": 0, "fusion_lon": 0.0, "bike_id": "c2a258ca31770f70497a9a5027fe9504", "lon": -77.03662083333333, "rental_uris": {"ios": "https://dc.lft.to/lastmile_qr_scan", "android": "https://dc.lft.to/lastmile_qr_scan"}}, {"name": "92db914aa79f5054f25e9ea11eafaff2", "fusion_lat": 0.0, "type": "electric_scooter", "lat": 38.90305566666667, "is_reserved": 0, "is_disabled": 0, "fusion_lon": 0.0, "bike_id": "92db914aa79f5054f25e9ea11eafaff2", "lon": -77.02367583333333, "rental_uris": {"ios": "https://dc.lft.to/lastmile_qr_scan", "android": "https://dc.lft.to/lastmile_qr_scan"}}, {"name": "c4ffbd0286ce601d58264648472a1623", "fusion_lat": 0.0, "type": "electric_scooter", "lat": 38.89530966666667, "is_reserved": 0, "is_disabled": 0, "fusion_lon": 0.0, "bike_id": "c4ffbd0286ce601d58264648472a1623", "lon": -77.03208716666667, "rental_uris": {"ios": "https://dc.lft.to/lastmile_qr_scan", "android": "https://dc.lft.to/lastmile_qr_scan"}}, {"name": "17dab5f84fa9c2325e48c672c5601076", "fusion_lat": 0.0, "type": "electric_scooter", "lat": 38.90134316666666, "is_reserved": 0, "is_disabled": 0, "fusion_lon": 0.0, "bike_id": "17dab5f84fa9c2325e48c672c5601076", "lon": -77.02905583333333, "rental_uris": {"ios": "https://dc.lft.to/lastmile_qr_scan", "android": "https://dc.lft.to/lastmile_qr_scan"}}, {"name": "8c46098fabb8ee0e32e562382a8ff2de", "fusion_lat": 0.0, "type": "electric_bike", "lat": 38.93670866666667, "is_reserved": 0, "is_disabled": 0, "fusion_lon": 0.0, "bike_id": "8c46098fabb8ee0e32e562382a8ff2de", "lon": -76.95206966666667, "rental_uris": {"ios": "https://dc.lft.to/lastmile_qr_scan", "android": "https://dc.lft.to/lastmile_qr_scan"}}, {"name": "dcf1db00dff35ba0bdef416dada4130b", "fusion_lat": 0.0, "type": "electric_scooter", "lat": 38.894889666666664, "is_reserved": 0, "is_disabled": 0, "fusion_lon": 0.0, "bike_id": "dcf1db00dff35ba0bdef416dada4130b", "lon": -77.0107925, "rental_uris": {"ios": "https://dc.lft.to/lastmile_qr_scan", "android": "https://dc.lft.to/lastmile_qr_scan"}}, {"name": "6948269b08d3cfe218f5d74f8de6d28e", "fusion_lat": 0.0, "type": "electric_scooter", "lat": 38.901275166666665, "is_reserved": 0, "is_disabled": 0, "fusion_lon": 0.0, "bike_id": "6948269b08d3cfe218f5d74f8de6d28e", "lon": -77.0304635, "rental_uris": {"ios": "https://dc.lft.to/lastmile_qr_scan", "android": "https://dc.lft.to/lastmile_qr_scan"}}, {"name": "9522d97410a905bdeb11bcd5722b6d85", "fusion_lat": 0.0, "type": "electric_scooter", "lat": 38.876565166666666, "is_reserved": 0, "is_disabled": 0, "fusion_lon": 0.0, "bike_id": "9522d97410a905bdeb11bcd5722b6d85", "lon": -77.00454333333333, "rental_uris": {"ios": "https://dc.lft.to/lastmile_qr_scan", "android": "https://dc.lft.to/lastmile_qr_scan"}}, {"name": "462a342d9e48e8d4edd689c3384b0bd4", "fusion_lat": 0.0, "type": "electric_scooter", "lat": 38.89416833333333, "is_reserved": 0, "is_disabled": 0, "fusion_lon": 0.0, "bike_id": "462a342d9e48e8d4edd689c3384b0bd4", "lon": -76.93961283333333, "rental_uris": {"ios": "https://dc.lft.to/lastmile_qr_scan", "android": "https://dc.lft.to/lastmile_qr_scan"}}, {"name": "e116f243a04e58f38ec5971595822b48", "fusion_lat": 0.0, "type": "electric_scooter", "lat": 38.920393, "is_reserved": 0, "is_disabled": 0, "fusion_lon": 0.0, "bike_id": "e116f243a04e58f38ec5971595822b48", "lon": -77.0312765, "rental_uris": {"ios": "https://dc.lft.to/lastmile_qr_scan", "android": "https://dc.lft.to/lastmile_qr_scan"}}, {"name": "fde9a2c5b710c4bb6c755f40e2748a41", "fusion_lat": 0.0, "type": "electric_scooter", "lat": 38.91705866666667, "is_reserved": 0, "is_disabled": 0, "fusion_lon": 0.0, "bike_id": "fde9a2c5b710c4bb6c755f40e2748a41", "lon": -77.04675133333333, "rental_uris": {"ios": "https://dc.lft.to/lastmile_qr_scan", "android": "https://dc.lft.to/lastmile_qr_scan"}}, {"name": "2f3b147e7accc31dd3aecc7c9a7dc523", "fusion_lat": 0.0, "type": "electric_scooter", "lat": 38.925877, "is_reserved": 0, "is_disabled": 0, "fusion_lon": 0.0, "bike_id": "2f3b147e7accc31dd3aecc7c9a7dc523", "lon": -77.0296375, "rental_uris": {"ios": "https://dc.lft.to/lastmile_qr_scan", "android": "https://dc.lft.to/lastmile_qr_scan"}}, {"name": "b7a0eef91afcb95e16454aafc51593d2", "fusion_lat": 0.0, "type": "electric_scooter", "lat": 38.883315333333336, "is_reserved": 0, "is_disabled": 0, "fusion_lon": 0.0, "bike_id": "b7a0eef91afcb95e16454aafc51593d2", "lon": -76.98536783333333, "rental_uris": {"ios": "https://dc.lft.to/lastmile_qr_scan", "android": "https://dc.lft.to/lastmile_qr_scan"}}, {"name": "321c7eaac980a4bdb31ccc0aa3ff7f72", "fusion_lat": 0.0, "type": "electric_scooter", "lat": 38.933598333333336, "is_reserved": 0, "is_disabled": 0, "fusion_lon": 0.0, "bike_id": "321c7eaac980a4bdb31ccc0aa3ff7f72", "lon": -77.057261, "rental_uris": {"ios": "https://dc.lft.to/lastmile_qr_scan", "android": "https://dc.lft.to/lastmile_qr_scan"}}, {"name": "a460509da1e35f52d0cefaa5dec71630", "fusion_lat": 0.0, "type": "electric_scooter", "lat": 38.89550166666667, "is_reserved": 0, "is_disabled": 0, "fusion_lon": 0.0, "bike_id": "a460509da1e35f52d0cefaa5dec71630", "lon": -77.0468385, "rental_uris": {"ios": "https://dc.lft.to/lastmile_qr_scan", "android": "https://dc.lft.to/lastmile_qr_scan"}}, {"name": "72ff3645fa64c9a0c7a78413fc89f061", "fusion_lat": 0.0, "type": "electric_scooter", "lat": 38.933031666666665, "is_reserved": 0, "is_disabled": 0, "fusion_lon": 0.0, "bike_id": "72ff3645fa64c9a0c7a78413fc89f061", "lon": -77.0247025, "rental_uris": {"ios": "https://dc.lft.to/lastmile_qr_scan", "android": "https://dc.lft.to/lastmile_qr_scan"}}, {"name": "99bc1beec0cc838df429802c16281adb", "fusion_lat": 0.0, "type": "electric_scooter", "lat": 38.896599333333334, "is_reserved": 0, "is_disabled": 0, "fusion_lon": 0.0, "bike_id": "99bc1beec0cc838df429802c16281adb", "lon": -77.048824, "rental_uris": {"ios": "https://dc.lft.to/lastmile_qr_scan", "android": "https://dc.lft.to/lastmile_qr_scan"}}, {"name": "fea20236d27241a31d128393c5a94719", "fusion_lat": 0.0, "type": "electric_scooter", "lat": 38.92423816666667, "is_reserved": 0, "is_disabled": 0, "fusion_lon": 0.0, "bike_id": "fea20236d27241a31d128393c5a94719", "lon": -77.01950933333333, "rental_uris": {"ios": "https://dc.lft.to/lastmile_qr_scan", "android": "https://dc.lft.to/lastmile_qr_scan"}}, {"name": "3b00182fa0704494f17521a25c35fb20", "fusion_lat": 0.0, "type": "electric_scooter", "lat": 38.91112, "is_reserved": 0, "is_disabled": 0, "fusion_lon": 0.0, "bike_id": "3b00182fa0704494f17521a25c35fb20", "lon": -77.0347575, "rental_uris": {"ios": "https://dc.lft.to/lastmile_qr_scan", "android": "https://dc.lft.to/lastmile_qr_scan"}}, {"name": "d95a6b7d6dee537e27fbf8774db37db9", "fusion_lat": 0.0, "type": "electric_scooter", "lat": 38.90486833333333, "is_reserved": 0, "is_disabled": 0, "fusion_lon": 0.0, "bike_id": "d95a6b7d6dee537e27fbf8774db37db9", "lon": -77.0416665, "rental_uris": {"ios": "https://dc.lft.to/lastmile_qr_scan", "android": "https://dc.lft.to/lastmile_qr_scan"}}, {"name": "c2d131011f7f430629c434126709e6cb", "fusion_lat": 0.0, "type": "electric_scooter", "lat": 38.928756666666665, "is_reserved": 0, "is_disabled": 0, "fusion_lon": 0.0, "bike_id": "c2d131011f7f430629c434126709e6cb", "lon": -77.04124233333333, "rental_uris": {"ios": "https://dc.lft.to/lastmile_qr_scan", "android": "https://dc.lft.to/lastmile_qr_scan"}}, {"name": "4d731dc891420385fb34b57ca10a9c70", "fusion_lat": 0.0, "type": "electric_scooter", "lat": 38.920625333333334, "is_reserved": 0, "is_disabled": 0, "fusion_lon": 0.0, "bike_id": "4d731dc891420385fb34b57ca10a9c70", "lon": -77.0454505, "rental_uris": {"ios": "https://dc.lft.to/lastmile_qr_scan", "android": "https://dc.lft.to/lastmile_qr_scan"}}, {"name": "a4763adce6ccef00515dc8744cf46066", "fusion_lat": 0.0, "type": "electric_bike", "lat": 38.95479866666667, "is_reserved": 0, "is_disabled": 0, "fusion_lon": 0.0, "bike_id": "a4763adce6ccef00515dc8744cf46066", "lon": -77.08242116666666, "rental_uris": {"ios": "https://dc.lft.to/lastmile_qr_scan", "android": "https://dc.lft.to/lastmile_qr_scan"}}, {"name": "201f7fe00e74d99ac91e7813915da7ff", "fusion_lat": 0.0, "type": "electric_scooter", "lat": 38.8775655, "is_reserved": 0, "is_disabled": 0, "fusion_lon": 0.0, "bike_id": "201f7fe00e74d99ac91e7813915da7ff", "lon": -76.99426116666666, "rental_uris": {"ios": "https://dc.lft.to/lastmile_qr_scan", "android": "https://dc.lft.to/lastmile_qr_scan"}}, {"name": "958a370ebe8e8cb52ab028be06f3e175", "fusion_lat": 0.0, "type": "electric_scooter", "lat": 38.8831195, "is_reserved": 0, "is_disabled": 0, "fusion_lon": 0.0, "bike_id": "958a370ebe8e8cb52ab028be06f3e175", "lon": -77.0236895, "rental_uris": {"ios": "https://dc.lft.to/lastmile_qr_scan", "android": "https://dc.lft.to/lastmile_qr_scan"}}, {"name": "9f7631ec6b4130fbc1542ce0b19cba37", "fusion_lat": 0.0, "type": "electric_scooter", "lat": 38.91183, "is_reserved": 0, "is_disabled": 0, "fusion_lon": 0.0, "bike_id": "9f7631ec6b4130fbc1542ce0b19cba37", "lon": -77.03865333333333, "rental_uris": {"ios": "https://dc.lft.to/lastmile_qr_scan", "android": "https://dc.lft.to/lastmile_qr_scan"}}, {"name": "dffaf6463bcdcb9fa2bfaab2eefaddc7", "fusion_lat": 0.0, "type": "electric_scooter", "lat": 38.91092533333333, "is_reserved": 0, "is_disabled": 0, "fusion_lon": 0.0, "bike_id": "dffaf6463bcdcb9fa2bfaab2eefaddc7", "lon": -77.073475, "rental_uris": {"ios": "https://dc.lft.to/lastmile_qr_scan", "android": "https://dc.lft.to/lastmile_qr_scan"}}, {"name": "d27ee051a781ec840e6bd19d51524113", "fusion_lat": 0.0, "type": "electric_scooter", "lat": 38.95284, "is_reserved": 0, "is_disabled": 0, "fusion_lon": 0.0, "bike_id": "d27ee051a781ec840e6bd19d51524113", "lon": -77.003597, "rental_uris": {"ios": "https://dc.lft.to/lastmile_qr_scan", "android": "https://dc.lft.to/lastmile_qr_scan"}}, {"name": "df460773c8b03bdab01f198c2cd17c48", "fusion_lat": 0.0, "type": "electric_scooter", "lat": 38.90524283333333, "is_reserved": 0, "is_disabled": 0, "fusion_lon": 0.0, "bike_id": "df460773c8b03bdab01f198c2cd17c48", "lon": -77.04163066666666, "rental_uris": {"ios": "https://dc.lft.to/lastmile_qr_scan", "android": "https://dc.lft.to/lastmile_qr_scan"}}, {"name": "59d19226a75eadacfd4f9a6f4603e0a4", "fusion_lat": 0.0, "type": "electric_scooter", "lat": 38.93007983333333, "is_reserved": 0, "is_disabled": 0, "fusion_lon": 0.0, "bike_id": "59d19226a75eadacfd4f9a6f4603e0a4", "lon": -77.05526633333334, "rental_uris": {"ios": "https://dc.lft.to/lastmile_qr_scan", "android": "https://dc.lft.to/lastmile_qr_scan"}}, {"name": "6ca969f84d0412158d54b463293a5bb7", "fusion_lat": 0.0, "type": "electric_scooter", "lat": 38.942908833333334, "is_reserved": 0, "is_disabled": 0, "fusion_lon": 0.0, "bike_id": "6ca969f84d0412158d54b463293a5bb7", "lon": -77.02168966666666, "rental_uris": {"ios": "https://dc.lft.to/lastmile_qr_scan", "android": "https://dc.lft.to/lastmile_qr_scan"}}, {"name": "81d99da45d19e74c802d6f5273c59e1e", "fusion_lat": 0.0, "type": "electric_scooter", "lat": 38.946916, "is_reserved": 0, "is_disabled": 0, "fusion_lon": 0.0, "bike_id": "81d99da45d19e74c802d6f5273c59e1e", "lon": -77.06984966666667, "rental_uris": {"ios": "https://dc.lft.to/lastmile_qr_scan", "android": "https://dc.lft.to/lastmile_qr_scan"}}, {"name": "f0e275b8cbbcd80c14b3c44c2f83789e", "fusion_lat": 0.0, "type": "electric_scooter", "lat": 38.91267716666667, "is_reserved": 0, "is_disabled": 0, "fusion_lon": 0.0, "bike_id": "f0e275b8cbbcd80c14b3c44c2f83789e", "lon": -77.03827716666666, "rental_uris": {"ios": "https://dc.lft.to/lastmile_qr_scan", "android": "https://dc.lft.to/lastmile_qr_scan"}}, {"name": "ad012361982afcc8a28e8e9fad46eedc", "fusion_lat": 0.0, "type": "electric_scooter", "lat": 38.91257916666667, "is_reserved": 0, "is_disabled": 0, "fusion_lon": 0.0, "bike_id": "ad012361982afcc8a28e8e9fad46eedc", "lon": -77.0315615, "rental_uris": {"ios": "https://dc.lft.to/lastmile_qr_scan", "android": "https://dc.lft.to/lastmile_qr_scan"}}, {"name": "fbf624ee287f4c35505f31b1af337b18", "fusion_lat": 0.0, "type": "electric_bike", "lat": 38.907293333333335, "is_reserved": 0, "is_disabled": 0, "fusion_lon": 0.0, "bike_id": "fbf624ee287f4c35505f31b1af337b18", "lon": -77.0400955, "rental_uris": {"ios": "https://dc.lft.to/lastmile_qr_scan", "android": "https://dc.lft.to/lastmile_qr_scan"}},