{"data": {"bikes": [{"rental_uris": {"android": "https://dc.lft.to/lastmile_qr_scan", "ios": "https://dc.lft.to/lastmile_qr_scan"}, "is_reserved": 0, "is_disabled": 0, "name": "0e5b1e155ca2051e6b428a529cc88e4e", "bike_id": "0e5b1e155ca2051e6b428a529cc88e4e", "fusion_lat": 0.0, "lon": -76.98605183333333, "type": "electric_scooter", "fusion_lon": 0.0, "lat": 38.908602}, {"rental_uris": {"android": "https://dc.lft.to/lastmile_qr_scan", "ios": "https://dc.lft.to/lastmile_qr_scan"}, "is_reserved": 0, "is_disabled": 0, "name": "6b8829adf1159e03f9b1d131397a927c", "bike_id": "6b8829adf1159e03f9b1d131397a927c", "fusion_lat": 0.0, "lon": -77.07668033333333, "type": "electric_bike", "fusion_lon": 0.0, "lat": 38.864768166666664}, {"rental_uris": {"android": "https://dc.lft.to/lastmile_qr_scan", "ios": "https://dc.lft.to/lastmile_qr_scan"}, "is_reserved": 0, "is_disabled": 0, "name": "b7b3820f3e407dd25a6e31ef253b93cb", "bike_id": "b7b3820f3e407dd25a6e31ef253b93cb", "fusion_lat": 0.0, "lon": -77.02570183333333, "type": "electric_scooter", "fusion_lon": 0.0, "lat": 38.9000655}, {"rental_uris": {"android": "https://dc.lft.to/lastmile_qr_scan", "ios": "https://dc.lft.to/lastmile_qr_scan"}, "is_reserved": 0, "is_disabled": 0, "name": "a03b981c2ac6c263fdbc409d517a0b12", "bike_id": "a03b981c2ac6c263fdbc409d517a0b12", "fusion_lat": 0.0, "lon": -77.0325555, "type": "electric_scooter", "fusion_lon": 0.0, "lat": 38.9369175}, {"rental_uris": {"android": "https://dc.lft.to/lastmile_qr_scan", "ios": "https://dc.lft.to/lastmile_qr_scan"}, "is_reserved": 0, "is_disabled": 0, "name": "974c7fc3b521745275f89be1bb21b2f5", "bike_id": "974c7fc3b521745275f89be1bb21b2f5", "fusion_lat": 0.0, "lon": -77.04518983333334, "type": "electric_scooter", "fusion_lon": 0.0, "lat": 38.9129345}, {"rental_uris": {"android": "https://dc.lft.to/lastmile_qr_scan", "ios": "https://dc.lft.to/lastmile_qr_scan"}, "is_reserved": 0, "is_disabled": 0, "name": "f9b3a7d71e6eb052135f3a523d4903f7", "bike_id": "f9b3a7d71e6eb052135f3a523d4903f7", "fusion_lat": 0.0, "lon": -77.0852795, "type": "electric_bike", "fusion_lon": 0.0, "lat": 38.85647183333333}, {"rental_uris": {"android": "https://dc.lft.to/lastmile_qr_scan", "ios": "https://dc.lft.to/lastmile_qr_scan"}, "is_reserved": 0, "is_disabled": 0, "name": "d92022c0be66b974b2ecceed1f4814db", "bike_id": "d92022c0be66b974b2ecceed1f4814db", "fusion_lat": 0.0, "lon": -77.03362433333334, "type": "electric_scooter", "fusion_lon": 0.0, "lat": 38.9358475}, {"rental_uris": {"android": "https://dc.lft.to/lastmile_qr_scan", "ios": "https://dc.lft.to/lastmile_qr_scan"}, "is_reserved": 0, "is_disabled": 0, "name": "50410a874effa2be7c199ee71346300d", "bike_id": "50410a874effa2be7c199ee71346300d", "fusion_lat": 0.0, "lon": -77.031719, "type": "electric_scooter", "fusion_lon": 0.0, "lat": 38.914179}, {"rental_uris": {"android": "https://dc.lft.to/lastmile_qr_scan", "ios": "https://dc.lft.to/lastmile_qr_scan"}, "is_reserved": 0, "is_disabled": 0, "name": "212018d954758cff13a6e788bc87fa0f", "bike_id": "212018d954758cff13a6e788bc87fa0f", "fusion_lat": 0.0, "lon": -77.04023116666667, "type": "electric_scooter", "fusion_lon": 0.0, "lat": 38.9183745}, {"rental_uris": {"android": "https://dc.lft.to/lastmile_qr_scan", "ios": "https://dc.lft.to/lastmile_qr_scan"}, "is_reserved": 0, "is_disabled": 0, "name": "db50bd8937a52660107fbc0a762e6427", "bike_id": "db50bd8937a52660107fbc0a762e6427", "fusion_lat": 0.0, "lon": -77.0059955, "type": "electric_scooter", "fusion_lon": 0.0, "lat": 38.90576633333333}, {"rental_uris": {"android": "https://dc.lft.to/lastmile_qr_scan", "ios": "https://dc.lft.to/lastmile_qr_scan"}, "is_reserved": 0, "is_disabled": 0, "name": "6319f4a56b340094a73e5725d1da1302", "bike_id": "6319f4a56b340094a73e5725d1da1302", "fusion_lat": 0.0, "lon": -77.06801316666666, "type": "electric_scooter", "fusion_lon": 0.0, "lat": 38.915680333333334}, {"rental_uris": {"android": "https://dc.lft.to/lastmile_qr_scan", "ios": "https://dc.lft.to/lastmile_qr_scan"}, "is_reserved": 0, "is_disabled": 0, "name": "f425f16a613959d7ab013c2c444a3b35", "bike_id": "f425f16a613959d7ab013c2c444a3b35", "fusion_lat": 0.0, "lon": -77.02128116666667, "type": "electric_scooter", "fusion_lon": 0.0, "lat": 38.8996505}, {"rental_uris": {"android": "https://dc.lft.to/lastmile_qr_scan", "ios": "https://dc.lft.to/lastmile_qr_scan"}, "is_reserved": 0, "is_disabled": 0, "name": "8ec092545ea6062efb0ce58cefbacc56", "bike_id": "8ec092545ea6062efb0ce58cefbacc56", "fusion_lat": 0.0, "lon": -77.009566, "type": "electric_scooter", "fusion_lon": 0.0, "lat": 38.874618}, {"rental_uris": {"android": "https://dc.lft.to/lastmile_qr_scan", "ios": "https://dc.lft.to/lastmile_qr_scan"}, "is_reserved": 0, "is_disabled": 0, "name": "9c9f2f7154ed5bfaabc70abe7d7fa4c2", "bike_id": "9c9f2f7154ed5bfaabc70abe7d7fa4c2", "fusion_lat": 0.0, "lon": -77.04169933333333, "type": "electric_scooter", "fusion_lon": 0.0, "lat": 38.90751916666667}, {"rental_uris": {"android": "https://dc.lft.to/lastmile_qr_scan", "ios": "https://dc.lft.to/lastmile_qr_scan"}, "is_reserved": 0, "is_disabled": 0, "name": "d4dbcf570cfa0fc38c7fdcdbe80b1619", "bike_id": "d4dbcf570cfa0fc38c7fdcdbe80b1619", "fusion_lat": 0.0, "lon": -77.02390016666666, "type": "electric_scooter", "fusion_lon": 0.0, "lat": 38.920535}, {"rental_uris": {"android": "https://dc.lft.to/lastmile_qr_scan", "ios": "https://dc.lft.to/lastmile_qr_scan"}, "is_reserved": 0, "is_disabled": 0, "name": "578ddc3e20b9a3bc4e152d31d3223bad", "bike_id": "578ddc3e20b9a3bc4e152d31d3223bad", "fusion_lat": 0.0, "lon": -77.03203766666667, "type": "electric_scooter", "fusion_lon": 0.0, "lat": 38.90743}, {"rental_uris": {"android": "https://dc.lft.to/lastmile_qr_scan", "ios": "https://dc.lft.to/lastmile_qr_scan"}, "is_reserved": 0, "is_disabled": 0, "name": "b2282346fb4ec20d0a4226ac871ffc58", "bike_id": "b2282346fb4ec20d0a4226ac871ffc58", "fusion_lat": 0.0, "lon": -77.09621666666666, "type": "electric_bike", "fusion_lon": 0.0, "lat": 38.974450166666664}, {"rental_uris": {"android": "https://dc.lft.to/lastmile_qr_scan", "ios": "https://dc.lft.to/lastmile_qr_scan"}, "is_reserved": 0, "is_disabled": 0, "name": "f92c09dd1453075ed69c4eb30c1bad2a", "bike_id": "f92c09dd1453075ed69c4eb30c1bad2a", "fusion_lat": 0.0, "lon": -77.06869083333333, "type": "electric_scooter", "fusion_lon": 0.0, "lat": 38.930188}, {"rental_uris": {"android": "https://dc.lft.to/lastmile_qr_scan", "ios": "https://dc.lft.to/lastmile_qr_scan"}, "is_reserved": 0, "is_disabled": 0, "name": "98792a2d55281098ee1afc32ba816f49", "bike_id": "98792a2d55281098ee1afc32ba816f49", "fusion_lat": 0.0, "lon": -77.0022415, "type": "electric_scooter", "fusion_lon": 0.0, "lat": 38.87479366666667}, {"rental_uris": {"android": "https://dc.lft.to/lastmile_qr_scan", "ios": "https://dc.lft.to/lastmile_qr_scan"}, "is_reserved": 0, "is_disabled": 0, "name": "940cc5ec09e49de2f9136bbc5604d689", "bike_id": "940cc5ec09e49de2f9136bbc5604d689", "fusion_lat": 0.0, "lon": -76.95352616666666, "type": "electric_bike", "fusion_lon": 0.0, "lat": 38.941767}, {"rental_uris": {"android": "https://dc.lft.to/lastmile_qr_scan", "ios": "https://dc.lft.to/lastmile_qr_scan"}, "is_reserved": 0, "is_disabled": 0, "name": "c6725369fc4242ae82ff3b92861f0f8f", "bike_id": "c6725369fc4242ae82ff3b92861f0f8f", "fusion_lat": 0.0, "lon": -77.03236716666666, "type": "electric_scooter", "fusion_lon": 0.0, "lat": 38.915639}, {"rental_uris": {"android": "https://dc.lft.to/lastmile_qr_scan", "ios": "https://dc.lft.to/lastmile_qr_scan"}, "is_reserved": 0, "is_disabled": 0, "name": "49e802f75fe3a478e783c9edfbdffd97", "bike_id": "49e802f75fe3a478e783c9edfbdffd97", "fusion_lat": 0.0, "lon": -77.02574683333333, "type": "electric_scooter", "fusion_lon": 0.0, "lat": 38.94188316666666}, {"rental_uris": {"android": "https://dc.lft.to/lastmile_qr_scan", "ios": "https://dc.lft.to/lastmile_qr_scan"}, "is_reserved": 0, "is_disabled": 0, "name": "56078fc35300e14bc0dde0060c657c6e", "bike_id": "56078fc35300e14bc0dde0060c657c6e", "fusion_lat": 0.0, "lon": -77.03169716666666, "type": "electric_scooter", "fusion_lon": 0.0, "lat": 38.91560366666667}, {"rental_uris": {"android": "https://dc.lft.to/lastmile_qr_scan", "ios": "https://dc.lft.to/lastmile_qr_scan"}, "is_reserved": 0, "is_disabled": 0, "name": "213bce1642a5e36902dc57748ae7e55b", "bike_id": "213bce1642a5e36902dc57748ae7e55b", "fusion_lat": 0.0, "lon": -77.07914183333334, "type": "electric_bike", "fusion_lon": 0.0, "lat": 38.83828166666667}, {"rental_uris": {"android": "https://dc.lft.to/lastmile_qr_scan", "ios": "https://dc.lft.to/lastmile_qr_scan"}, "is_reserved": 0, "is_disabled": 0, "name": "2e4a3fd85f335d3a8a63c09c4bd41bbf", "bike_id": "2e4a3fd85f335d3a8a63c09c4bd41bbf", "fusion_lat": 0.0, "lon": -77.00063883333333, "type": "electric_bike", "fusion_lon": 0.0, "lat": 38.91905283333333}, {"rental_uris": {"android": "https://dc.lft.to/lastmile_qr_scan", "ios": "https://dc.lft.to/lastmile_qr_scan"}, "is_reserved": 0, "is_disabled": 0, "name": "2390d049396b929827f7174d93d9aa29", "bike_id": "2390d049396b929827f7174d93d9aa29", "fusion_lat": 0.0, "lon": -77.03550733333333, "type": "electric_scooter", "fusion_lon": 0.0, "lat": 38.9182995}, {"rental_uris": {"android": "https://dc.lft.to/lastmile_qr_scan", "ios": "https://dc.lft.to/lastmile_qr_scan"}, "is_reserved": 0, "is_disabled": 0, "name": "d1f1acc2a776c42abc6dd23a5abab5bf", "bike_id": "d1f1acc2a776c42abc6dd23a5abab5bf", "fusion_lat": 0.0, "lon": -77.02095883333334, "type": "electric_scooter", "fusion_lon": 0.0, "lat": 38.921256166666666}, {"rental_uris": {"android": "https://dc.lft.to/lastmile_qr_scan", "ios": "https://dc.lft.to/lastmile_qr_scan"}, "is_reserved": 0, "is_disabled": 0, "name": "ba49a9add30a2004c5e5361ce7867cc6", "bike_id": "ba49a9add30a2004c5e5361ce7867cc6", "fusion_lat": 0.0, "lon": -77.02759983333333, "type": "electric_bike", "fusion_lon": 0.0, "lat": 38.919568166666664}, {"rental_uris": {"android": "https://dc.lft.to/lastmile_qr_scan", "ios": "https://dc.lft.to/lastmile_qr_scan"}, "is_reserved": 0, "is_disabled": 0, "name": "7779ce5ab25774c9d7a1311c33b3285a", "bike_id": "7779ce5ab25774c9d7a1311c33b3285a", "fusion_lat": 0.0, "lon": -77.024182, "type": "electric_scooter", "fusion_lon": 0.0, "lat": 38.92094066666667}, {"rental_uris": {"android": "https://dc.lft.to/lastmile_qr_scan", "ios": "https://dc.lft.to/lastmile_qr_scan"}, "is_reserved": 0, "is_disabled": 0, "name": "7be82797d2fe7b43d423635989c8acaa", "bike_id": "7be82797d2fe7b43d423635989c8acaa", "fusion_lat": 0.0, "lon": -77.03216566666667, "type": "electric_scooter", "fusion_lon": 0.0, "lat": 38.91838583333333}, {"rental_uris": {"android": "https://dc.lft.to/lastmile_qr_scan", "ios": "https://dc.lft.to/lastmile_qr_scan"}, "is_reserved": 0, "is_disabled": 0, "name": "f4b7b9b6256b2bf1ff2376ea602fb168", "bike_id": "f4b7b9b6256b2bf1ff2376ea602fb168", "fusion_lat": 0.0, "lon": -77.00647366666666, "type": "electric_scooter", "fusion_lon": 0.0, "lat": 38.909814}, {"rental_uris": {"android": "https://dc.lft.to/lastmile_qr_scan", "ios": "https://dc.lft.to/lastmile_qr_scan"}, "is_reserved": 0, "is_disabled": 0, "name": "7d6853ce5aaa742c38121c2c355177dc", "bike_id": "7d6853ce5aaa742c38121c2c355177dc", "fusion_lat": 0.0, "lon": -77.03852216666667, "type": "electric_scooter", "fusion_lon": 0.0, "lat": 38.921708333333335}, {"rental_uris": {"android": "https://dc.lft.to/lastmile_qr_scan", "ios": "https://dc.lft.to/lastmile_qr_scan"}, "is_reserved": 0, "is_disabled": 0, "name": "ad57d89251c4210694b90bf1ad8b222b", "bike_id": "ad57d89251c4210694b90bf1ad8b222b", "fusion_lat": 0.0, "lon": -77.01444666666667, "type": "electric_scooter", "fusion_lon": 0.0, "lat": 38.958168}, {"rental_uris": {"android": "https://dc.lft.to/lastmile_qr_scan", "ios": "https://dc.lft.to/lastmile_qr_scan"}, "is_reserved": 0, "is_disabled": 0, "name": "efd2981b00b08885ec284c1558c1a044", "bike_id": "efd2981b00b08885ec284c1558c1a044", "fusion_lat": 0.0, "lon": -77.02637016666667, "type": "electric_scooter", "fusion_lon": 0.0, "lat": 38.92921}, {"rental_uris": {"android": "https://dc.lft.to/lastmile_qr_scan", "ios": "https://dc.lft.to/lastmile_qr_scan"}, "is_reserved": 0, "is_disabled": 0, "name": "a3669f657b9d26c706fea372fe451697", "bike_id": "a3669f657b9d26c706fea372fe451697", "fusion_lat": 0.0, "lon": -77.0651615, "type": "electric_scooter", "fusion_lon": 0.0, "lat": 38.905197}, {"rental_uris": {"android": "https://dc.lft.to/lastmile_qr_scan", "ios": "https://dc.lft.to/lastmile_qr_scan"}, "is_reserved": 0, "is_disabled": 0, "name": "b9802c898de256d12d07aeb711e84249", "bike_id": "b9802c898de256d12d07aeb711e84249", "fusion_lat": 0.0, "lon": -77.02178566666667, "type": "electric_scooter", "fusion_lon": 0.0, "lat": 38.89227416666667}, {"rental_uris": {"android": "https://dc.lft.to/lastmile_qr_scan", "ios": "https://dc.lft.to/lastmile_qr_scan"}, "is_reserved": 0, "is_disabled": 0, "name": "1a756c40ba847d5f841078b74f997d2f", "bike_id": "1a756c40ba847d5f841078b74f997d2f", "fusion_lat": 0.0, "lon": -77.03730016666667, "type": "electric_scooter", "fusion_lon": 0.0, "lat": 38.9170415}, {"rental_uris": {"android": "https://dc.lft.to/lastmile_qr_scan", "ios": "https://dc.lft.to/lastmile_qr_scan"}, "is_reserved": 0, "is_disabled": 0, "name": "4ca5b01ea8f9b7056e9e7f1617caadcc", "bike_id": "4ca5b01ea8f9b7056e9e7f1617caadcc", "fusion_lat": 0.0, "lon": -77.03633766666667, "type": "electric_bike", "fusion_lon": 0.0, "lat": 38.927408666666665}, {"rental_uris": {"android": "https://dc.lft.to/lastmile_qr_scan", "ios": "https://dc.lft.to/lastmile_qr_scan"}, "is_reserved": 0, "is_disabled": 0, "name": "d8876c2d3aa2cb507dcac146c56b9c35", "bike_id": "d8876c2d3aa2cb507dcac146c56b9c35", "fusion_lat": 0.0, "lon": -77.01953833333333, "type": "electric_scooter", "fusion_lon": 0.0, "lat": 38.923314500000004}, {"rental_uris": {"android": "https://dc.lft.to/lastmile_qr_scan", "ios": "https://dc.lft.to/lastmile_qr_scan"}, "is_reserved": 0, "is_disabled": 0, "name": "4a80c71818dc54144743730227a2a804", "bike_id": "4a80c71818dc54144743730227a2a804", "fusion_lat": 0.0, "lon": -76.93363483333333, "type": "electric_scooter", "fusion_lon": 0.0, "lat": 38.898432666666665}, {"rental_uris": {"android": "https://dc.lft.to/lastmile_qr_scan", "ios": "https://dc.lft.to/lastmile_qr_scan"}, "is_reserved": 0, "is_disabled": 0, "name": "fc2801089d143e45fbf2eb135fa7126c", "bike_id": "fc2801089d143e45fbf2eb135fa7126c", "fusion_lat": 0.0, "lon": -77.23179083333333, "type": "electric_bike", "fusion_lon": 0.0, "lat": 38.928970166666666}, {"rental_uris": {"android": "https://dc.lft.to/lastmile_qr_scan", "ios": "https://dc.lft.to/lastmile_qr_scan"}, "is_reserved": 0, "is_disabled": 0, "name": "449503a035eb5f6e50cf4f65f5d96bf0", "bike_id": "449503a035eb5f6e50cf4f65f5d96bf0", "fusion_lat": 0.0, "lon": -77.03353666666666, "type": "electric_scooter", "fusion_lon": 0.0, "lat": 38.935846166666664}, {"rental_uris": {"android": "https://dc.lft.to/lastmile_qr_scan", "ios": "https://dc.lft.to/lastmile_qr_scan"}, "is_reserved": 0, "is_disabled": 0, "name": "0428c86d9cb054dc5bf85919d18f1d7b", "bike_id": "0428c86d9cb054dc5bf85919d18f1d7b", "fusion_lat": 0.0, "lon": -77.10289533333334, "type": "electric_bike", "fusion_lon": 0.0, "lat": 38.85253933333333}, {"rental_uris": {"android": "https://dc.lft.to/lastmile_qr_scan", "ios": "https://dc.lft.to/lastmile_qr_scan"}, "is_reserved": 0, "is_disabled": 0, "name": "61147961afb91085cdd4cc1df9555609", "bike_id": "61147961afb91085cdd4cc1df9555609", "fusion_lat": 0.0, "lon": -77.02641133333333, "type": "electric_scooter", "fusion_lon": 0.0, "lat": 38.92381483333333}, {"rental_uris": {"android": "https://dc.lft.to/lastmile_qr_scan", "ios": "https://dc.lft.to/lastmile_qr_scan"}, "is_reserved": 0, "is_disabled": 0, "name": "b76b9d3df72986095ab3386d04533588", "bike_id": "b76b9d3df72986095ab3386d04533588", "fusion_lat": 0.0, "lon": -77.04493733333334, "type": "electric_scooter", "fusion_lon": 0.0, "lat": 38.911866333333336}, {"rental_uris": {"android": "https://dc.lft.to/lastmile_qr_scan", "ios": "https://dc.lft.to/lastmile_qr_scan"}, "is_reserved": 0, "is_disabled": 0, "name": "33e06f58e4922a0ac515153f225db3a9", "bike_id": "33e06f58e4922a0ac515153f225db3a9", "fusion_lat": 0.0, "lon": -76.991222, "type": "electric_scooter", "fusion_lon": 0.0, "lat": 38.9090385}, {"rental_uris": {"android": "https://dc.lft.to/lastmile_qr_scan", "ios": "https://dc.lft.to/lastmile_qr_scan"}, "is_reserved": 0, "is_disabled": 0, "name": "1d2ccf8b67e8cb27f6d4dea209ac158d", "bike_id": "1d2ccf8b67e8cb27f6d4dea209ac158d", "fusion_lat": 0.0, "lon": -77.04659016666666, "type": "electric_scooter", "fusion_lon": 0.0, "lat": 38.90465783333333}, {"rental_uris": {"android": "https://dc.lft.to/lastmile_qr_scan", "ios": "https://dc.lft.to/lastmile_qr_scan"}, "is_reserved": 0, "is_disabled": 0, "name": "96379643e1f217bcd8cac704400a153b", "bike_id": "96379643e1f217bcd8cac704400a153b", "fusion_lat": 0.0, "lon": -77.03079983333333, "type": "electric_scooter", "fusion_lon": 0.0, "lat": 38.899613}, {"rental_uris": {"android": "https://dc.lft.to/lastmile_qr_scan", "ios": "https://dc.lft.to/lastmile_qr_scan"}, "is_reserved": 0, "is_disabled": 0, "name": "6c64fcf913559c0287b6cec12481e1f4", "bike_id": "6c64fcf913559c0287b6cec12481e1f4", "fusion_lat": 0.0, "lon": -77.0188675, "type": "electric_scooter", "fusion_lon": 0.0, "lat": 38.91484633333334}, {"rental_uris": {"android": "https://dc.lft.to/lastmile_qr_scan", "ios": "https://dc.lft.to/lastmile_qr_scan"}, "is_reserved": 0, "is_disabled": 0, "name": "9d558eb3d3196f7265f20e846a2c401e", "bike_id": "9d558eb3d3196f7265f20e846a2c401e", "fusion_lat": 0.0, "lon": -77.07151916666666, "type": "electric_scooter", "fusion_lon": 0.0, "lat": 38.906078}, {"rental_uris": {"android": "https://dc.lft.to/lastmile_qr_scan", "ios": "https://dc.lft.to/lastmile_qr_scan"}, "is_reserved": 0, "is_disabled": 0, "name": "79a47ce23cabf749a680416d533577fd", "bike_id": "79a47ce23cabf749a680416d533577fd", "fusion_lat": 0.0, "lon": -77.0307365, "type": "electric_scooter", "fusion_lon": 0.0, "lat": 38.922524}, {"rental_uris": {"android": "https://dc.lft.to/lastmile_qr_scan", "ios": "https://dc.lft.to/lastmile_qr_scan"}, "is_reserved": 0, "is_disabled": 0, "name": "22217a6b84fa548f36c19e577717213c", "bike_id": "22217a6b84fa548f36c19e577717213c", "fusion_lat": 0.0, "lon": -76.9466195, "type": "electric_scooter", "fusion_lon": 0.0, "lat": 38.89868033333333}, {"rental_uris": {"android": "https://dc.lft.to/lastmile_qr_scan", "ios": "https://dc.lft.to/lastmile_qr_scan"}, "is_reserved": 0, "is_disabled": 0, "name": "c3721af09371bb53a16f9d95d137bc38", "bike_id": "c3721af09371bb53a16f9d95d137bc38", "fusion_lat": 0.0, "lon": -77.02199733333333, "type": "electric_scooter", "fusion_lon": 0.0, "lat": 38.91126116666667}, {"rental_uris": {"android": "https://dc.lft.to/lastmile_qr_scan", "ios": "https://dc.lft.to/lastmile_qr_scan"}, "is_reserved": 0, "is_disabled": 0, "name": "90ed0ce7cb467775b978df91f42f96a1", "bike_id": "90ed0ce7cb467775b978df91f42f96a1", "fusion_lat": 0.0, "lon": -77.05005866666667, "type": "electric_scooter", "fusion_lon": 0.0, "lat": 38.89233133333333}, {"rental_uris": {"android": "https://dc.lft.to/lastmile_qr_scan", "ios": "https://dc.lft.to/lastmile_qr_scan"}, "is_reserved": 0, "is_disabled": 0, "name": "09e7eebe5a8d915a9674fd77bfe3cc19", "bike_id": "09e7eebe5a8d915a9674fd77bfe3cc19", "fusion_lat": 0.0, "lon": -77.05265816666666, "type": "electric_scooter", "fusion_lon": 0.0, "lat": 38.901441}, {"rental_uris": {"android": "https://dc.lft.to/lastmile_qr_scan", "ios": "https://dc.lft.to/lastmile_qr_scan"}, "is_reserved": 0, "is_disabled": 0, "name": "79149f45663c058c1633fe378331f142", "bike_id": "79149f45663c058c1633fe378331f142", "fusion_lat": 0.0, "lon": -77.02278333333334, "type": "electric_bike", "fusion_lon": 0.0, "lat": 38.901536666666665}, {"rental_uris": {"android": "https://dc.lft.to/lastmile_qr_scan", "ios": "https://dc.lft.to/lastmile_qr_scan"}, "is_reserved": 0, "is_disabled": 0, "name": "6ea56a321ba956e41275b49f5f8859d6", "bike_id": "6ea56a321ba956e41275b49f5f8859d6", "fusion_lat": 0.0, "lon": -77.03211633333333, "type": "electric_scooter", "fusion_lon": 0.0, "lat": 38.91849083333334}, {"rental_uris": {"android": "https://dc.lft.to/lastmile_qr_scan", "ios": "https://dc.lft.to/lastmile_qr_scan"}, "is_reserved": 0, "is_disabled": 0, "name": "374bd0e54891f8c3d3d3c1b167103cff", "bike_id": "374bd0e54891f8c3d3d3c1b167103cff", "fusion_lat": 0.0, "lon": -77.090003, "type": "electric_bike", "fusion_lon": 0.0, "lat": 38.909091333333336}, {"rental_uris": {"android": "https://dc.lft.to/lastmile_qr_scan", "ios": "https://dc.lft.to/lastmile_qr_scan"}, "is_reserved": 0, "is_disabled": 0, "name": "14f446c412145578c8a273141221d4c6", "bike_id": "14f446c412145578c8a273141221d4c6", "fusion_lat": 0.0, "lon": -77.027866, "type": "electric_scooter", "fusion_lon": 0.0, "lat": 38.962166}, {"rental_uris": {"android": "https://dc.lft.to/lastmile_qr_scan", "ios": "https://dc.lft.to/lastmile_qr_scan"}, "is_reserved": 0, "is_disabled": 0, "name": "4743417d4e18f9b675f612555b830806", "bike_id": "4743417d4e18f9b675f612555b830806", "fusion_lat": 0.0, "lon": -77.03852066666667, "type": "electric_scooter", "fusion_lon": 0.0, "lat": 38.919655666666664}, {"rental_uris": {"android": "https://dc.lft.to/lastmile_qr_scan", "ios": "https://dc.lft.to/lastmile_qr_scan"}, "is_reserved": 0, "is_disabled": 0, "name": "44150cc492b7b7f60385422e5c97eb3d", "bike_id": "44150cc492b7b7f60385422e5c97eb3d", "fusion_lat": 0.0, "lon": -76.95356816666667, "type": "electric_scooter", "fusion_lon": 0.0, "lat": 38.88966933333333}, {"rental_uris": {"android": "https://dc.lft.to/lastmile_qr_scan", "ios": "https://dc.lft.to/lastmile_qr_scan"}, "is_reserved": 0, "is_disabled": 0, "name": "557200ca3f6be1e283cde4ea49303eb1", "bike_id": "557200ca3f6be1e283cde4ea49303eb1", "fusion_lat": 0.0, "lon": -76.99790733333333, "type": "electric_scooter", "fusion_lon": 0.0, "lat": 38.92185516666667}, {"rental_uris": {"android": "https://dc.lft.to/lastmile_qr_scan", "ios": "https://dc.lft.to/lastmile_qr_scan"}, "is_reserved": 0, "is_disabled": 0, "name": "150530685641b4b44fb2e594472f9f51", "bike_id": "150530685641b4b44fb2e594472f9f51", "fusion_lat": 0.0, "lon": -76.94255716666666, "type": "electric_scooter", "fusion_lon": 0.0, "lat": 38.89850533333333}, {"rental_uris": {"android": "https://dc.lft.to/lastmile_qr_scan", "ios": "https://dc.lft.to/lastmile_qr_scan"}, "is_reserved": 0, "is_disabled": 0, "name": "34116890534ecbd56d9de821847c7246", "bike_id": "34116890534ecbd56d9de821847c7246", "fusion_lat": 0.0, "lon": -77.03190183333334, "type": "electric_scooter", "fusion_lon": 0.0, "lat": 38.9225885}, {"rental_uris": {"android": "https://dc.lft.to/lastmile_qr_scan", "ios": "https://dc.lft.to/lastmile_qr_scan"}, "is_reserved": 0, "is_disabled": 0, "name": "0c1a998e1e49da4f074b2f228d234ac5", "bike_id": "0c1a998e1e49da4f074b2f228d234ac5", "fusion_lat": 0.0, "lon": -77.04696216666666, "type": "electric_scooter", "fusion_lon": 0.0, "lat": 38.896091166666665}, {"rental_uris": {"android": "https://dc.lft.to/lastmile_qr_scan", "ios": "https://dc.lft.to/lastmile_qr_scan"}, "is_reserved": 0, "is_disabled": 0, "name": "48f24df7b2139cc3dc609c405fc72d67", "bike_id": "48f24df7b2139cc3dc609c405fc72d67", "fusion_lat": 0.0, "lon": -77.0249815, "type": "electric_scooter", "fusion_lon": 0.0, "lat": 38.919310333333335}, {"rental_uris": {"android": "https://dc.lft.to/lastmile_qr_scan", "ios": "https://dc.lft.to/lastmile_qr_scan"}, "is_reserved": 0, "is_disabled": 0, "name": "08a6210999da53a30b3527fef24d4d28", "bike_id": "08a6210999da53a30b3527fef24d4d28", "fusion_lat": 0.0, "lon": -77.01527933333334, "type": "electric_scooter", "fusion_lon": 0.0, "lat": 38.90943133333333}, {"rental_uris": {"android": "https://dc.lft.to/lastmile_qr_scan", "ios": "https://dc.lft.to/lastmile_qr_scan"}, "is_reserved": 0, "is_disabled": 0, "name": "5423110df4d49638decbfb7bd6bc4245", "bike_id": "5423110df4d49638decbfb7bd6bc4245", "fusion_lat": 0.0, "lon": -77.033793, "type": "electric_scooter", "fusion_lon": 0.0, "lat": 38.901318833333335}, {"rental_uris": {"android": "https://dc.lft.to/lastmile_qr_scan", "ios": "https://dc.lft.to/lastmile_qr_scan"}, "is_reserved": 0, "is_disabled": 0, "name": "7d2f2d30bcf7cf39b9c1c06325e8d22c", "bike_id": "7d2f2d30bcf7cf39b9c1c06325e8d22c", "fusion_lat": 0.0, "lon": -76.98684083333333, "type": "electric_bike", "fusion_lon": 0.0, "lat": 38.94470183333333}, {"rental_uris": {"android": "https://dc.lft.to/lastmile_qr_scan", "ios": "https://dc.lft.to/lastmile_qr_scan"}, "is_reserved": 0, "is_disabled": 0, "name": "23d4616209e31f5ad95937200999652b", "bike_id": "23d4616209e31f5ad95937200999652b", "fusion_lat": 0.0, "lon": -77.0663575, "type": "electric_bike", "fusion_lon": 0.0, "lat": 38.949511}, {"rental_uris": {"android": "https://dc.lft.to/lastmile_qr_scan", "ios": "https://dc.lft.to/lastmile_qr_scan"}, "is_reserved": 0, "is_disabled": 0, "name": "54f8318640e20774748f6598690d1a97", "bike_id": "54f8318640e20774748f6598690d1a97", "fusion_lat": 0.0, "lon": -77.02473883333333, "type": "electric_scooter", "fusion_lon": 0.0, "lat": 38.91876583333333}, {"rental_uris": {"android": "https://dc.lft.to/lastmile_qr_scan", "ios": "https://dc.lft.to/lastmile_qr_scan"}, "is_reserved": 0, "is_disabled": 0, "name": "d12f36828cd26799f09a38800c5cf031", "bike_id": "d12f36828cd26799f09a38800c5cf031", "fusion_lat": 0.0, "lon": -77.02827466666666, "type": "electric_scooter", "fusion_lon": 0.0, "lat": 38.938822}, {"rental_uris": {"android": "https://dc.lft.to/lastmile_qr_scan", "ios": "https://dc.lft.to/lastmile_qr_scan"}, "is_reserved": 0, "is_disabled": 0, "name": "8ef5ecf3450a8fb64156d5e25f7674c0", "bike_id": "8ef5ecf3450a8fb64156d5e25f7674c0", "fusion_lat": 0.0, "lon": -77.03441566666666, "type": "electric_scooter", "fusion_lon": 0.0, "lat": 38.91800716666667}, {"rental_uris": {"android": "https://dc.lft.to/lastmile_qr_scan", "ios": "https://dc.lft.to/lastmile_qr_scan"}, "is_reserved": 0, "is_disabled": 0, "name": "4d0521c96cba79e96c875c68016e4b21", "bike_id": "4d0521c96cba79e96c875c68016e4b21", "fusion_lat": 0.0, "lon": -77.0190315, "type": "electric_scooter", "fusion_lon": 0.0, "lat": 38.903732833333336}, {"rental_uris": {"android": "https://dc.lft.to/lastmile_qr_scan", "ios": "https://dc.lft.to/lastmile_qr_scan"}, "is_reserved": 0, "is_disabled": 0, "name": "d3672aa7fc736054eec835d993e71d62", "bike_id": "d3672aa7fc736054eec835d993e71d62", "fusion_lat": 0.0, "lon": -77.0287275, "type": "electric_scooter", "fusion_lon": 0.0, "lat": 38.91696133333333}, {"rental_uris": {"android": "https://dc.lft.to/lastmile_qr_scan", "ios": "https://dc.lft.to/lastmile_qr_scan"}, "is_reserved": 0, "is_disabled": 0, "name": "b883e5227b34d8b5ce79b176b99241fc", "bike_id": "b883e5227b34d8b5ce79b176b99241fc", "fusion_lat": 0.0, "lon": -77.020672, "type": "electric_scooter", "fusion_lon": 0.0, "lat": 38.92695033333333}, {"rental_uris": {"android": "https://dc.lft.to/lastmile_qr_scan", "ios": "https://dc.lft.to/lastmile_qr_scan"}, "is_reserved": 0, "is_disabled": 0, "name": "cc708fd583d03f73bebf152823b34893", "bike_id": "cc708fd583d03f73bebf152823b34893", "fusion_lat": 0.0, "lon": -77.02698366666667, "type": "electric_scooter", "fusion_lon": 0.0, "lat": 38.949813666666664}, {"rental_uris": {"android": "https://dc.lft.to/lastmile_qr_scan", "ios": "https://dc.lft.to/lastmile_qr_scan"}, "is_reserved": 0, "is_disabled": 0, "name": "632f15f04ad79b30ce7a9f7f139224c3", "bike_id": "632f15f04ad79b30ce7a9f7f139224c3", "fusion_lat": 0.0, "lon": -76.98494383333333, "type": "electric_scooter", "fusion_lon": 0.0, "lat": 38.86058366666666}, {"rental_uris": {"android": "https://dc.lft.to/lastmile_qr_scan", "ios": "https://dc.lft.to/lastmile_qr_scan"}, "is_reserved": 0, "is_disabled": 0, "name": "7771a34587a1c2f705409c75fa836863", "bike_id": "7771a34587a1c2f705409c75fa836863", "fusion_lat": 0.0, "lon": -77.03269816666666, "type": "electric_scooter", "fusion_lon": 0.0, "lat": 38.93416116666667}, {"rental_uris": {"android": "https://dc.lft.to/lastmile_qr_scan", "ios": "https://dc.lft.to/lastmile_qr_scan"}, "is_reserved": 0, "is_disabled": 0, "name": "f8183d298be3c31c9cfac2f844dc39f6", "bike_id": "f8183d298be3c31c9cfac2f844dc39f6", "fusion_lat": 0.0, "lon": -77.03391133333334, "type": "electric_scooter", "fusion_lon": 0.0, "lat": 38.90323333333333}, {"rental_uris": {"android": "https://dc.lft.to/lastmile_qr_scan", "ios": "https://dc.lft.to/lastmile_qr_scan"}, "is_reserved": 0, "is_disabled": 0, "name": "81beb0a1e668fa8e36da8e0ce8637604", "bike_id": "81beb0a1e668fa8e36da8e0ce8637604", "fusion_lat": 0.0, "lon": -77.03198433333333, "type": "electric_scooter", "fusion_lon": 0.0, "lat": 38.919300666666665}, {"rental_uris": {"android": "https://dc.lft.to/lastmile_qr_scan", "ios": "https://dc.lft.to/lastmile_qr_scan"}, "is_reserved": 0, "is_disabled": 0, "name": "b96c158d89abca057b7564c3aecfcc2e", "bike_id": "b96c158d89abca057b7564c3aecfcc2e", "fusion_lat": 0.0, "lon": -77.026, "type": "electric_scooter", "fusion_lon": 0.0, "lat": 38.92038766666667}, {"rental_uris": {"android": "https://dc.lft.to/lastmile_qr_scan", "ios": "https://dc.lft.to/lastmile_qr_scan"}, "is_reserved": 0, "is_disabled": 0, "name": "a195e503292e40a46cffdc4456731bfc", "bike_id": "a195e503292e40a46cffdc4456731bfc", "fusion_lat": 0.0, "lon": -77.0285865, "type": "electric_scooter", "fusion_lon": 0.0, "lat": 38.93535133333334}, {"rental_uris": {"android": "https://dc.lft.to/lastmile_qr_scan", "ios": "https://dc.lft.to/lastmile_qr_scan"}, "is_reserved": 0, "is_disabled": 0, "name": "f1c83b60e35aace5ce04dfbae1ef09bf", "bike_id": "f1c83b60e35aace5ce04dfbae1ef09bf", "fusion_lat": 0.0, "lon": -77.05118366666666, "type": "electric_scooter", "fusion_lon": 0.0, "lat": 38.90649466666667}, {"rental_uris": {"android": "https://dc.lft.to/lastmile_qr_scan", "ios": "https://dc.lft.to/lastmile_qr_scan"}, "is_reserved": 0, "is_disabled": 0, "name": "b7ff6c5088ae2e248e3e2e53d376e6ae", "bike_id": "b7ff6c5088ae2e248e3e2e53d376e6ae", "fusion_lat": 0.0, "lon": -77.006182, "type": "electric_scooter", "fusion_lon": 0.0, "lat": 38.8754445}, {"rental_uris": {"android": "https://dc.lft.to/lastmile_qr_scan", "ios": "https://dc.lft.to/lastmile_qr_scan"}, "is_reserved": 0, "is_disabled": 0, "name": "5711281e817164a00c46769de9e170c1", "bike_id": "5711281e817164a00c46769de9e170c1", "fusion_lat": 0.0, "lon": -77.0319345, "type": "electric_scooter", "fusion_lon": 0.0, "lat": 38.91586933333333}, {"rental_uris": {"android": "https://dc.lft.to/lastmile_qr_scan", "ios": "https://dc.lft.to/lastmile_qr_scan"}, "is_reserved": 0, "is_disabled": 0, "name": "b656f7d4ef1a89d82162351398f4124b", "bike_id": "b656f7d4ef1a89d82162351398f4124b", "fusion_lat": 0.0, "lon": -77.0232075, "type": "electric_scooter", "fusion_lon": 0.0, "lat": 38.91682133333333}, {"rental_uris": {"android": "https://dc.lft.to/lastmile_qr_scan", "ios": "https://dc.lft.to/lastmile_qr_scan"}, "is_reserved": 0, "is_disabled": 0, "name": "19a0145e71a18438a208b8270f54b852", "bike_id": "19a0145e71a18438a208b8270f54b852", "fusion_lat": 0.0, "lon": -77.03335316666667, "type": "electric_scooter", "fusion_lon": 0.0, "lat": 38.90038966666667}, {"rental_uris": {"android": "https://dc.lft.to/lastmile_qr_scan", "ios": "https://dc.lft.to/lastmile_qr_scan"}, "is_reserved": 0, "is_disabled": 0, "name": "89d6740595b91198308fd24a8159e86e", "bike_id": "89d6740595b91198308fd24a8159e86e", "fusion_lat": 0.0, "lon": -77.02141883333333, "type": "electric_scooter", "fusion_lon": 0.0, "lat": 38.90480316666667}, {"rental_uris": {"android": "https://dc.lft.to/lastmile_qr_scan", "ios": "https://dc.lft.to/lastmile_qr_scan"}, "is_reserved": 0, "is_disabled": 0, "name": "642d5262dd148192d74557b35f2af45e", "bike_id": "642d5262dd148192d74557b35f2af45e", "fusion_lat": 0.0, "lon": -77.04338383333334, "type": "electric_scooter", "fusion_lon": 0.0, "lat": 38.913025833333336}, {"rental_uris": {"android": "https://dc.lft.to/lastmile_qr_scan", "ios": "https://dc.lft.to/lastmile_qr_scan"}, "is_reserved": 0, "is_disabled": 0, "name": "1a64e66a347320633ec3f0fe024b488d", "bike_id": "1a64e66a347320633ec3f0fe024b488d", "fusion_lat": 0.0, "lon": -77.026615, "type": "electric_scooter", "fusion_lon": 0.0, "lat": 38.9217455}, {"rental_uris": {"android": "https://dc.lft.to/lastmile_qr_scan", "ios": "https://dc.lft.to/lastmile_qr_scan"}, "is_reserved": 0, "is_disabled": 0, "name": "7b1d86a30d8ed51f02342a05e10b7542", "bike_id": "7b1d86a30d8ed51f02342a05e10b7542", "fusion_lat": 0.0, "lon": -77.019967, "type": "electric_scooter", "fusion_lon": 0.0, "lat": 38.91495183333333}, {"rental_uris": {"android": "https://dc.lft.to/lastmile_qr_scan", "ios": "https://dc.lft.to/lastmile_qr_scan"}, "is_reserved": 0, "is_disabled": 0, "name": "988173f08d98778fa992dc5e87e20641", "bike_id": "988173f08d98778fa992dc5e87e20641", "fusion_lat": 0.0, "lon": -77.00727166666667, "type": "electric_scooter", "fusion_lon": 0.0, "lat": 38.91189466666667}, {"rental_uris": {"android": "https://dc.lft.to/lastmile_qr_scan", "ios": "https://dc.lft.to/lastmile_qr_scan"}, "is_reserved": 0, "is_disabled": 0, "name": "88e8e28e4c7d81ffd0e5c83f5f8cf932", "bike_id": "88e8e28e4c7d81ffd0e5c83f5f8cf932", "fusion_lat": 0.0, "lon": -77.03821316666667, "type": "electric_scooter", "fusion_lon": 0.0, "lat": 38.92085266666667}, {"rental_uris": {"android": "https://dc.lft.to/lastmile_qr_scan", "ios": "https://dc.lft.to/lastmile_qr_scan"}, "is_reserved": 0, "is_disabled": 0, "name": "92811b578a85a082de2ef6437db79512", "bike_id": "92811b578a85a082de2ef6437db79512", "fusion_lat": 0.0, "lon": -77.03168666666667, "type": "electric_scooter", "fusion_lon": 0.0, "lat": 38.91563816666667}, {"rental_uris": {"android": "https://dc.lft.to/lastmile_qr_scan", "ios": "https://dc.lft.to/lastmile_qr_scan"}, "is_reserved": 0, "is_disabled": 0, "name": "9a688fc7e4a0bb503da2798c729e9349", "bike_id": "9a688fc7e4a0bb503da2798c729e9349", "fusion_lat": 0.0, "lon": -77.05045666666666, "type": "electric_scooter", "fusion_lon": 0.0, "lat": 38.9030515}, {"rental_uris": {"android": "https://dc.lft.to/lastmile_qr_scan", "ios": "https://dc.lft.to/lastmile_qr_scan"}, "is_reserved": 0, "is_disabled": 0, "name": "e79cfeba9d9d768fffa2c9cbe1bc1256", "bike_id": "e79cfeba9d9d768fffa2c9cbe1bc1256", "fusion_lat": 0.0, "lon": -77.0248845, "type": "electric_scooter", "fusion_lon": 0.0, "lat": 38.91410033333333}, {"rental_uris": {"android": "https://dc.lft.to/lastmile_qr_scan", "ios": "https://dc.lft.to/lastmile_qr_scan"}, "is_reserved": 0, "is_disabled": 0, "name": "a235441a8bd97f12b70668415b4e41d9", "bike_id": "a235441a8bd97f12b70668415b4e41d9", "fusion_lat": 0.0, "lon": -77.01216683333334, "type": "electric_scooter", "fusion_lon": 0.0, "lat": 38.915166666666664}, {"rental_uris": {"android": "https://dc.lft.to/lastmile_qr_scan", "ios": "https://dc.lft.to/lastmile_qr_scan"}, "is_reserved": 0, "is_disabled": 0, "name": "ed5e538684edf4da82b3ecaf8a2a37fa", "bike_id": "ed5e538684edf4da82b3ecaf8a2a37fa", "fusion_lat": 0.0, "lon": -77.03512516666666, "type": "electric_scooter", "fusion_lon": 0.0, "lat": 38.9189475}, {"rental_uris": {"android": "https://dc.lft.to/lastmile_qr_scan", "ios": "https://dc.lft.to/lastmile_qr_scan"}, "is_reserved": 0, "is_disabled": 0, "name": "0798a256d9b7cfdcb37d74fc87dcabe1", "bike_id": "0798a256d9b7cfdcb37d74fc87dcabe1", "fusion_lat": 0.0, "lon": -76.99865033333333, "type": "electric_scooter", "fusion_lon": 0.0, "lat": 38.900150333333336}, {"rental_uris": {"android": "https://dc.lft.to/lastmile_qr_scan", "ios": "https://dc.lft.to/lastmile_qr_scan"}, "is_reserved": 0, "is_disabled": 0, "name": "6d78d2446723ab7fb462a41bc2cfdc58", "bike_id": "6d78d2446723ab7fb462a41bc2cfdc58", "fusion_lat": 0.0, "lon": -77.00343016666666, "type": "electric_scooter", "fusion_lon": 0.0, "lat": 38.8926995}, {"rental_uris": {"android": "https://dc.lft.to/lastmile_qr_scan", "ios": "https://dc.lft.to/lastmile_qr_scan"}, "is_reserved": 0, "is_disabled": 0, "name": "c7d464606f07b072abba60a0a67ad04a", "bike_id": "c7d464606f07b072abba60a0a67ad04a", "fusion_lat": 0.0, "lon": -76.9524655, "type": "electric_bike", "fusion_lon": 0.0, "lat": 38.88463766666667}, {"rental_uris": {"android": "https://dc.lft.to/lastmile_qr_scan", "ios": "https://dc.lft.to/lastmile_qr_scan"}, "is_reserved": 0, "is_disabled": 0, "name": "4a2edeb211378cd83c57c3c95b6c0e6e", "bike_id": "4a2edeb211378cd83c57c3c95b6c0e6e", "fusion_lat": 0.0, "lon": -77.0305875, "type": "electric_scooter", "fusion_lon": 0.0, "lat": 38.90010683333333}, {"rental_uris": {"android": "https://dc.lft.to/lastmile_qr_scan", "ios": "https://dc.lft.to/lastmile_qr_scan"}, "is_reserved": 0, "is_disabled": 0, "name": "a673225a44796141d754c5263fc579da", "bike_id": "a673225a44796141d754c5263fc579da", "fusion_lat": 0.0, "lon": -77.04486916666667, "type": "electric_scooter", "fusion_lon": 0.0, "lat": 38.90253366666666}, {"rental_uris": {"android": "https://dc.lft.to/lastmile_qr_scan", "ios": "https://dc.lft.to/lastmile_qr_scan"}, "is_reserved": 0, "is_disabled": 0, "name": "2095beb8e87b27671551692c0fae5acb", "bike_id": "2095beb8e87b27671551692c0fae5acb", "fusion_lat": 0.0, "lon": -76.998379, "type": "electric_bike", "fusion_lon": 0.0, "lat": 38.88387}, {"rental_uris": {"android": "https://dc.lft.to/lastmile_qr_scan", "ios": "https://dc.lft.to/lastmile_qr_scan"}, "is_reserved": 0, "is_disabled": 0, "name": "3984ed30f859c38928177694a5a5da35", "bike_id": "3984ed30f859c38928177694a5a5da35", "fusion_lat": 0.0, "lon": -77.00925833333334, "type": "electric_scooter", "fusion_lon": 0.0, "lat": 38.900645}, {"rental_uris": {"android": "https://dc.lft.to/lastmile_qr_scan", "ios": "https://dc.lft.to/lastmile_qr_scan"}, "is_reserved": 0, "is_disabled": 0, "name": "14af0958093dfe28476db3705e4298de", "bike_id": "14af0958093dfe28476db3705e4298de", "fusion_lat": 0.0, "lon": -76.998707, "type": "electric_scooter", "fusion_lon": 0.0, "lat": 38.90010566666667}, {"rental_uris": {"android": "https://dc.lft.to/lastmile_qr_scan", "ios": "https://dc.lft.to/lastmile_qr_scan"}, "is_reserved": 0, "is_disabled": 0, "name": "e9ac772e9249083d82527961397284e7", "bike_id": "e9ac772e9249083d82527961397284e7", "fusion_lat": 0.0, "lon": -77.05358233333334, "type": "electric_bike", "fusion_lon": 0.0, "lat": 38.82041783333333}, {"rental_uris": {"android": "https://dc.lft.to/lastmile_qr_scan", "ios": "https://dc.lft.to/lastmile_qr_scan"}, "is_reserved": 0, "is_disabled": 0, "name": "a28c006f4fbead5a444171446acc4674", "bike_id": "a28c006f4fbead5a444171446acc4674", "fusion_lat": 0.0, "lon": -77.028748, "type": "electric_bike", "fusion_lon": 0.0, "lat": 38.92128866666667}, {"rental_uris": {"android": "https://dc.lft.to/lastmile_qr_scan", "ios": "https://dc.lft.to/lastmile_qr_scan"}, "is_reserved": 0, "is_disabled": 0, "name": "380384e4c322a59e450a5ef19eb15afd", "bike_id": "380384e4c322a59e450a5ef19eb15afd", "fusion_lat": 0.0, "lon": -76.99344916666666, "type": "electric_scooter", "fusion_lon": 0.0, "lat": 38.881277}, {"rental_uris": {"android": "https://dc.lft.to/lastmile_qr_scan", "ios": "https://dc.lft.to/lastmile_qr_scan"}, "is_reserved": 0, "is_disabled": 0, "name": "f1fefc0fd6b7b369550119acaf255564", "bike_id": "f1fefc0fd6b7b369550119acaf255564", "fusion_lat": 0.0, "lon": -76.93754433333334, "type": "electric_scooter", "fusion_lon": 0.0, "lat": 38.878585666666666}, {"rental_uris": {"android": "https://dc.lft.to/lastmile_qr_scan", "ios": "https://dc.lft.to/lastmile_qr_scan"}, "is_reserved": 0, "is_disabled": 0, "name": "8ec113a2472c3af07284fdf77f8d8d87", "bike_id": "8ec113a2472c3af07284fdf77f8d8d87", "fusion_lat": 0.0, "lon": -77.02794716666666, "type": "electric_scooter", "fusion_lon": 0.0, "lat": 38.954011333333334}, {"rental_uris": {"android": "https://dc.lft.to/lastmile_qr_scan", "ios": "https://dc.lft.to/lastmile_qr_scan"}, "is_reserved": 0, "is_disabled": 0, "name": "e54dc717ba5681657acc2d4ef4f61b6d", "bike_id": "e54dc717ba5681657acc2d4ef4f61b6d", "fusion_lat": 0.0, "lon": -77.02894216666667, "type": "electric_scooter", "fusion_lon": 0.0, "lat": 38.91406}, {"rental_uris": {"android": "https://dc.lft.to/lastmile_qr_scan", "ios": "https://dc.lft.to/lastmile_qr_scan"}, "is_reserved": 0, "is_disabled": 0, "name": "15a19fe2e54e91853eb36e27c25c5abf", "bike_id": "15a19fe2e54e91853eb36e27c25c5abf", "fusion_lat": 0.0, "lon": -77.00763383333333, "type": "electric_bike", "fusion_lon": 0.0, "lat": 38.997874833333334}, {"rental_uris": {"android": "https://dc.lft.to/lastmile_qr_scan", "ios": "https://dc.lft.to/lastmile_qr_scan"}, "is_reserved": 0, "is_disabled": 0, "name": "99808535b76697f75fbd140b7d844360", "bike_id": "99808535b76697f75fbd140b7d844360", "fusion_lat": 0.0, "lon": -76.945457, "type": "electric_bike", "fusion_lon": 0.0, "lat": 38.9828905}, {"rental_uris": {"android": "https://dc.lft.to/lastmile_qr_scan", "ios": "https://dc.lft.to/lastmile_qr_scan"}, "is_reserved": 0, "is_disabled": 0, "name": "e9d16d6b50812252e4b38014afbd8c37", "bike_id": "e9d16d6b50812252e4b38014afbd8c37", "fusion_lat": 0.0, "lon": -77.0284685, "type": "electric_scooter", "fusion_lon": 0.0, "lat": 38.93315066666667}, {"rental_uris": {"android": "https://dc.lft.to/lastmile_qr_scan", "ios": "https://dc.lft.to/lastmile_qr_scan"}, "is_reserved": 0, "is_disabled": 0, "name": "f094ad9569678f529b2ed855c0c0018b", "bike_id": "f094ad9569678f529b2ed855c0c0018b", "fusion_lat": 0.0, "lon": -77.0346655, "type": "electric_scooter", "fusion_lon": 0.0, "lat": 38.913849166666665}, {"rental_uris": {"android": "https://dc.lft.to/lastmile_qr_scan", "ios": "https://dc.lft.to/lastmile_qr_scan"}, "is_reserved": 0, "is_disabled": 0, "name": "df458d85e0adef149f145fa8502872d3", "bike_id": "df458d85e0adef149f145fa8502872d3", "fusion_lat": 0.0, "lon": -76.99026216666667, "type": "electric_bike", "fusion_lon": 0.0, "lat": 38.835825166666666}, {"rental_uris": {"android": "https://dc.lft.to/lastmile_qr_scan", "ios": "https://dc.lft.to/lastmile_qr_scan"}, "is_reserved": 0, "is_disabled": 0, "name": "6ce8810f48413dec7fc1cc91886a527c", "bike_id": "6ce8810f48413dec7fc1cc91886a527c", "fusion_lat": 0.0, "lon": -77.02567483333333, "type": "electric_scooter", "fusion_lon": 0.0, "lat": 38.88746966666667}, {"rental_uris": {"android": "https://dc.lft.to/lastmile_qr_scan", "ios": "https://dc.lft.to/lastmile_qr_scan"}, "is_reserved": 0, "is_disabled": 0, "name": "0be492f21edc6593ff90aa6bd2475699", "bike_id": "0be492f21edc6593ff90aa6bd2475699", "fusion_lat": 0.0, "lon": -77.03381033333334, "type": "electric_scooter", "fusion_lon": 0.0, "lat": 38.89971416666667}, {"rental_uris": {"android": "https://dc.lft.to/lastmile_qr_scan", "ios": "https://dc.lft.to/lastmile_qr_scan"}, "is_reserved": 0, "is_disabled": 0, "name": "89b851372f9b621c2f7a9fd56e77f6b1", "bike_id": "89b851372f9b621c2f7a9fd56e77f6b1", "fusion_lat": 0.0, "lon": -77.01956233333334, "type": "electric_scooter", "fusion_lon": 0.0, "lat": 38.92320183333333}, {"rental_uris": {"android": "https://dc.lft.to/lastmile_qr_scan", "ios": "https://dc.lft.to/lastmile_qr_scan"}, "is_reserved": 0, "is_disabled": 0, "name": "e56514c08fa2f653b7df44d825d64f30", "bike_id": "e56514c08fa2f653b7df44d825d64f30", "fusion_lat": 0.0, "lon": -77.09620583333333, "type": "electric_bike", "fusion_lon": 0.0, "lat": 38.87888933333333}, {"rental_uris": {"android": "https://dc.lft.to/lastmile_qr_scan", "ios": "https://dc.lft.to/lastmile_qr_scan"}, "is_reserved": 0, "is_disabled": 0, "name": "ec7e5268686b568854fa64683983f565", "bike_id": "ec7e5268686b568854fa64683983f565", "fusion_lat": 0.0, "lon": -76.94025533333334, "type": "electric_bike", "fusion_lon": 0.0, "lat": 38.90834183333333}, {"rental_uris": {"android": "https://dc.lft.to/lastmile_qr_scan", "ios": "https://dc.lft.to/lastmile_qr_scan"}, "is_reserved": 0, "is_disabled": 0, "name": "74823ab04ffea3a3ffe55a86c8fe519f", "bike_id": "74823ab04ffea3a3ffe55a86c8fe519f", "fusion_lat": 0.0, "lon": -77.00602016666667, "type": "electric_scooter", "fusion_lon": 0.0, "lat": 38.905843}, {"rental_uris": {"android": "https://dc.lft.to/lastmile_qr_scan", "ios": "https://dc.lft.to/lastmile_qr_scan"}, "is_reserved": 0, "is_disabled": 0, "name": "539202b821bd65c97798d7f94a25e682", "bike_id": "539202b821bd65c97798d7f94a25e682", "fusion_lat": 0.0, "lon": -77.0255035, "type": "electric_scooter", "fusion_lon": 0.0, "lat": 38.892003}, {"rental_uris": {"android": "https://dc.lft.to/lastmile_qr_scan", "ios": "https://dc.lft.to/lastmile_qr_scan"}, "is_reserved": 0, "is_disabled": 0, "name": "7227baf4ee6605124c93b9ae1906e413", "bike_id": "7227baf4ee6605124c93b9ae1906e413", "fusion_lat": 0.0, "lon": -77.01713866666667, "type": "electric_scooter", "fusion_lon": 0.0, "lat": 38.90490116666667}, {"rental_uris": {"android": "https://dc.lft.to/lastmile_qr_scan", "ios": "https://dc.lft.to/lastmile_qr_scan"}, "is_reserved": 0, "is_disabled": 0, "name": "ef59361f7db2a611579938ce4dd4f3c1", "bike_id": "ef59361f7db2a611579938ce4dd4f3c1", "fusion_lat": 0.0, "lon": -76.95110866666667, "type": "electric_bike", "fusion_lon": 0.0, "lat": 38.904565}, {"rental_uris": {"android": "https://dc.lft.to/lastmile_qr_scan", "ios": "https://dc.lft.to/lastmile_qr_scan"}, "is_reserved": 0, "is_disabled": 0, "name": "691c73f9080b62d2b3070fee95b4cc48", "bike_id": "691c73f9080b62d2b3070fee95b4cc48", "fusion_lat": 0.0, "lon": -77.0234165, "type": "electric_scooter", "fusion_lon": 0.0, "lat": 38.9171995}, {"rental_uris": {"android": "https://dc.lft.to/lastmile_qr_scan", "ios": "https://dc.lft.to/lastmile_qr_scan"}, "is_reserved": 0, "is_disabled": 0, "name": "41a94c87f7a15c98db2378142d752081", "bike_id": "41a94c87f7a15c98db2378142d752081", "fusion_lat": 0.0, "lon": -76.97224383333334, "type": "electric_bike", "fusion_lon": 0.0, "lat": 38.9003675}, {"rental_uris": {"android": "https://dc.lft.to/lastmile_qr_scan", "ios": "https://dc.lft.to/lastmile_qr_scan"}, "is_reserved": 0, "is_disabled": 0, "name": "d7f2af0badefdf70102b9bcc52337f55", "bike_id": "d7f2af0badefdf70102b9bcc52337f55", "fusion_lat": 0.0, "lon": -77.040608, "type": "electric_bike", "fusion_lon": 0.0, "lat": 38.91771683333333}, {"rental_uris": {"android": "https://dc.lft.to/lastmile_qr_scan", "ios": "https://dc.lft.to/lastmile_qr_scan"}, "is_reserved": 0, "is_disabled": 0, "name": "32c7c62a02fe495d6490a4f4e2d1276e", "bike_id": "32c7c62a02fe495d6490a4f4e2d1276e", "fusion_lat": 0.0, "lon": -77.051725, "type": "electric_scooter", "fusion_lon": 0.0, "lat": 38.9031775}, {"rental_uris": {"android": "https://dc.lft.to/lastmile_qr_scan", "ios": "https://dc.lft.to/lastmile_qr_scan"}, "is_reserved": 0, "is_disabled": 0, "name": "8ce1e1c781fbb300496c117a875560d3", "bike_id": "8ce1e1c781fbb300496c117a875560d3", "fusion_lat": 0.0, "lon": -76.99650283333334, "type": "electric_bike", "fusion_lon": 0.0, "lat": 38.967811833333336}, {"rental_uris": {"android": "https://dc.lft.to/lastmile_qr_scan", "ios": "https://dc.lft.to/lastmile_qr_scan"}, "is_reserved": 0, "is_disabled": 0, "name": "12e805ab0697549d094b2b4a9d33ec3f", "bike_id": "12e805ab0697549d094b2b4a9d33ec3f", "fusion_lat": 0.0, "lon": -76.93177816666666, "type": "electric_scooter", "fusion_lon": 0.0, "lat": 38.89883016666667}, {"rental_uris": {"android": "https://dc.lft.to/lastmile_qr_scan", "ios": "https://dc.lft.to/lastmile_qr_scan"}, "is_reserved": 0, "is_disabled": 0, "name": "0ae422cc296c054a9e10c330a7eb210b", "bike_id": "0ae422cc296c054a9e10c330a7eb210b", "fusion_lat": 0.0, "lon": -76.97349516666667, "type": "electric_scooter", "fusion_lon": 0.0, "lat": 38.86563433333333}, {"rental_uris": {"android": "https://dc.lft.to/lastmile_qr_scan", "ios": "https://dc.lft.to/lastmile_qr_scan"}, "is_reserved": 0, "is_disabled": 0, "name": "c2f20993de9c8fe8b63a8b8854f69f37", "bike_id": "c2f20993de9c8fe8b63a8b8854f69f37", "fusion_lat": 0.0, "lon": -77.03934533333333, "type": "electric_scooter", "fusion_lon": 0.0, "lat": 38.924941833333335}, {"rental_uris": {"android": "https://dc.lft.to/lastmile_qr_scan", "ios": "https://dc.lft.to/lastmile_qr_scan"}, "is_reserved": 0, "is_disabled": 0, "name": "11b860839efe61c33a757c6016a03e9a", "bike_id": "11b860839efe61c33a757c6016a03e9a", "fusion_lat": 0.0, "lon": -77.028745, "type": "electric_bike", "fusion_lon": 0.0, "lat": 38.921291833333335}, {"rental_uris": {"android": "https://dc.lft.to/lastmile_qr_scan", "ios": "https://dc.lft.to/lastmile_qr_scan"}, "is_reserved": 0, "is_disabled": 0, "name": "5acebfe6835b31e60ffe72053d986022", "bike_id": "5acebfe6835b31e60ffe72053d986022", "fusion_lat": 0.0, "lon": -77.02490716666667, "type": "electric_scooter", "fusion_lon": 0.0, "lat": 38.941888666666664}, {"rental_uris": {"android": "https://dc.lft.to/lastmile_qr_scan", "ios": "https://dc.lft.to/lastmile_qr_scan"}, "is_reserved": 0, "is_disabled": 0, "name": "c6e797e0f779510d2f2b15127399c3c5", "bike_id": "c6e797e0f779510d2f2b15127399c3c5", "fusion_lat": 0.0, "lon": -77.0496555, "type": "electric_scooter", "fusion_lon": 0.0, "lat": 38.9054415}, {"rental_uris": {"android": "https://dc.lft.to/lastmile_qr_scan", "ios": "https://dc.lft.to/lastmile_qr_scan"}, "is_reserved": 0, "is_disabled": 0, "name": "101db7b02ecc02896edde199940f5c8c", "bike_id": "101db7b02ecc02896edde199940f5c8c", "fusion_lat": 0.0, "lon": -77.04485816666667, "type": "electric_scooter", "fusion_lon": 0.0, "lat": 38.899527}, {"rental_uris": {"android": "https://dc.lft.to/lastmile_qr_scan", "ios": "https://dc.lft.to/lastmile_qr_scan"}, "is_reserved": 0, "is_disabled": 0, "name": "ff5f6f70b5fbd08b1d8a36dd68822d60", "bike_id": "ff5f6f70b5fbd08b1d8a36dd68822d60", "fusion_lat": 0.0, "lon": -76.99079183333333, "type": "electric_bike", "fusion_lon": 0.0, "lat": 38.89816366666667}, {"rental_uris": {"android": "https://dc.lft.to/lastmile_qr_scan", "ios": "https://dc.lft.to/lastmile_qr_scan"}, "is_reserved": 0, "is_disabled": 0, "name": "a000f31a01a0b9c27ad8cb006d31b71b", "bike_id": "a000f31a01a0b9c27ad8cb006d31b71b", "fusion_lat": 0.0, "lon": -77.00916683333334, "type": "electric_scooter", "fusion_lon": 0.0, "lat": 38.90629333333333}, {"rental_uris": {"android": "https://dc.lft.to/lastmile_qr_scan", "ios": "https://dc.lft.to/lastmile_qr_scan"}, "is_reserved": 0, "is_disabled": 0, "name": "d54a3e81bebffffba39d41c5cb1859c6", "bike_id": "d54a3e81bebffffba39d41c5cb1859c6", "fusion_lat": 0.0, "lon": -77.03658866666666, "type": "electric_scooter", "fusion_lon": 0.0, "lat": 38.9230845}, {"rental_uris": {"android": "https://dc.lft.to/lastmile_qr_scan", "ios": "https://dc.lft.to/lastmile_qr_scan"}, "is_reserved": 0, "is_disabled": 0, "name": "d32c4a93e3f5e936a80a24670e70f930", "bike_id": "d32c4a93e3f5e936a80a24670e70f930", "fusion_lat": 0.0, "lon": -77.02136683333333, "type": "electric_scooter", "fusion_lon": 0.0, "lat": 38.928058666666665}, {"rental_uris": {"android": "https://dc.lft.to/lastmile_qr_scan", "ios": "https://dc.lft.to/lastmile_qr_scan"}, "is_reserved": 0, "is_disabled": 0, "name": "b47ec1169baff7b76455b27e52f743df", "bike_id": "b47ec1169baff7b76455b27e52f743df", "fusion_lat": 0.0, "lon": -77.0298555, "type": "electric_scooter", "fusion_lon": 0.0, "lat": 38.896435}, {"rental_uris": {"android": "https://dc.lft.to/lastmile_qr_scan", "ios": "https://dc.lft.to/lastmile_qr_scan"}, "is_reserved": 0, "is_disabled": 0, "name": "dc5dce81a5e7161e83602d08aa3edd0b", "bike_id": "dc5dce81a5e7161e83602d08aa3edd0b", "fusion_lat": 0.0, "lon": -77.0511765, "type": "electric_scooter", "fusion_lon": 0.0, "lat": 38.9234415}, {"rental_uris": {"android": "https://dc.lft.to/lastmile_qr_scan", "ios": "https://dc.lft.to/lastmile_qr_scan"}, "is_reserved": 0, "is_disabled": 0, "name": "53d09a82482649ea57ea6e0a31609f30", "bike_id": "53d09a82482649ea57ea6e0a31609f30", "fusion_lat": 0.0, "lon": -76.97718183333333, "type": "electric_scooter", "fusion_lon": 0.0, "lat": 38.88822316666667}, {"rental_uris": {"android": "https://dc.lft.to/lastmile_qr_scan", "ios": "https://dc.lft.to/lastmile_qr_scan"}, "is_reserved": 0, "is_disabled": 0, "name": "782a6bbb9ce74b76b6addbaa13134a38", "bike_id": "782a6bbb9ce74b76b6addbaa13134a38", "fusion_lat": 0.0, "lon": -76.98952566666667, "type": "electric_bike", "fusion_lon": 0.0, "lat": 38.834028833333335}, {"rental_uris": {"android": "https://dc.lft.to/lastmile_qr_scan", "ios": "https://dc.lft.to/lastmile_qr_scan"}, "is_reserved": 0, "is_disabled": 0, "name": "d8e4a7cfcfbce92a2eb55a9b21ecfcc4", "bike_id": "d8e4a7cfcfbce92a2eb55a9b21ecfcc4", "fusion_lat": 0.0, "lon": -77.025953, "type": "electric_scooter", "fusion_lon": 0.0, "lat": 38.917031333333334}, {"rental_uris": {"android": "https://dc.lft.to/lastmile_qr_scan", "ios": "https://dc.lft.to/lastmile_qr_scan"}, "is_reserved": 0, "is_disabled": 0, "name": "7b66655e09a6f32a4459bd80ff960f38", "bike_id": "7b66655e09a6f32a4459bd80ff960f38", "fusion_lat": 0.0, "lon": -76.9237335, "type": "electric_scooter", "fusion_lon": 0.0, "lat": 38.89251933333333}, {"rental_uris": {"android": "https://dc.lft.to/lastmile_qr_scan", "ios": "https://dc.lft.to/lastmile_qr_scan"}, "is_reserved": 0, "is_disabled": 0, "name": "3767708e8a8deb2ef2822378295e9d24", "bike_id": "3767708e8a8deb2ef2822378295e9d24", "fusion_lat": 0.0, "lon": -77.02246733333334, "type": "electric_scooter", "fusion_lon": 0.0, "lat": 38.916383333333336}, {"rental_uris": {"android": "https://dc.lft.to/lastmile_qr_scan", "ios": "https://dc.lft.to/lastmile_qr_scan"}, "is_reserved": 0, "is_disabled": 0, "name": "c25fa2a0043875d7bfbd39f2f8ab8b04", "bike_id": "c25fa2a0043875d7bfbd39f2f8ab8b04", "fusion_lat": 0.0, "lon": -76.98796133333333, "type": "electric_scooter", "fusion_lon": 0.0, "lat": 38.90028216666666}, {"rental_uris": {"android": "https://dc.lft.to/lastmile_qr_scan", "ios": "https://dc.lft.to/lastmile_qr_scan"}, "is_reserved": 0, "is_disabled": 0, "name": "8a215d855f419fd828117a0073975e00", "bike_id": "8a215d855f419fd828117a0073975e00", "fusion_lat": 0.0, "lon": -77.054547, "type": "electric_scooter", "fusion_lon": 0.0, "lat": 38.9290105}, {"rental_uris": {"android": "https://dc.lft.to/lastmile_qr_scan", "ios": "https://dc.lft.to/lastmile_qr_scan"}, "is_reserved": 0, "is_disabled": 0, "name": "690e490d21ad87a22b89d62668397ef2", "bike_id": "690e490d21ad87a22b89d62668397ef2", "fusion_lat": 0.0, "lon": -77.030034, "type": "electric_scooter", "fusion_lon": 0.0, "lat": 38.9012115}, {"rental_uris": {"android": "https://dc.lft.to/lastmile_qr_scan", "ios": "https://dc.lft.to/lastmile_qr_scan"}, "is_reserved": 0, "is_disabled": 0, "name": "b67feefa92c8c7ce2d60ffb9d8208d6a", "bike_id": "b67feefa92c8c7ce2d60ffb9d8208d6a", "fusion_lat": 0.0, "lon": -76.98558383333334, "type": "electric_scooter", "fusion_lon": 0.0, "lat": 38.896161}, {"rental_uris": {"android": "https://dc.lft.to/lastmile_qr_scan", "ios": "https://dc.lft.to/lastmile_qr_scan"}, "is_reserved": 0, "is_disabled": 0, "name": "83df9655def30f455ac0bd48d857cd5b", "bike_id": "83df9655def30f455ac0bd48d857cd5b", "fusion_lat": 0.0, "lon": -77.056742, "type": "electric_scooter", "fusion_lon": 0.0, "lat": 38.92328966666667}, {"rental_uris": {"android": "https://dc.lft.to/lastmile_qr_scan", "ios": "https://dc.lft.to/lastmile_qr_scan"}, "is_reserved": 0, "is_disabled": 0, "name": "0838ab73a96ea4d1196cbcb2641e0440", "bike_id": "0838ab73a96ea4d1196cbcb2641e0440", "fusion_lat": 0.0, "lon": -77.027667, "type": "electric_scooter", "fusion_lon": 0.0, "lat": 38.95419416666667}, {"rental_uris": {"android": "https://dc.lft.to/lastmile_qr_scan", "ios": "https://dc.lft.to/lastmile_qr_scan"}, "is_reserved": 0, "is_disabled": 0, "name": "569e0b5dac5ab68c7b9563ab65c49f39", "bike_id": "569e0b5dac5ab68c7b9563ab65c49f39", "fusion_lat": 0.0, "lon": -77.02552116666666, "type": "electric_scooter", "fusion_lon": 0.0, "lat": 38.91409066666667}, {"rental_uris": {"android": "https://dc.lft.to/lastmile_qr_scan", "ios": "https://dc.lft.to/lastmile_qr_scan"}, "is_reserved": 0, "is_disabled": 0, "name": "a01351596a48e735543a0f9439a518b3", "bike_id": "a01351596a48e735543a0f9439a518b3", "fusion_lat": 0.0, "lon": -76.98021516666667, "type": "electric_bike", "fusion_lon": 0.0, "lat": 38.9575325}, {"rental_uris": {"android": "https://dc.lft.to/lastmile_qr_scan", "ios": "https://dc.lft.to/lastmile_qr_scan"}, "is_reserved": 0, "is_disabled": 0, "name": "51e661d16c6bf8b80612eeeb804532ab", "bike_id": "51e661d16c6bf8b80612eeeb804532ab", "fusion_lat": 0.0, "lon": -76.9948835, "type": "electric_scooter", "fusion_lon": 0.0, "lat": 38.893944833333336}, {"rental_uris": {"android": "https://dc.lft.to/lastmile_qr_scan", "ios": "https://dc.lft.to/lastmile_qr_scan"}, "is_reserved": 0, "is_disabled": 0, "name": "b20d0ce5e4c43ac719ed5742fd298a51", "bike_id": "b20d0ce5e4c43ac719ed5742fd298a51", "fusion_lat": 0.0, "lon": -77.0514255, "type": "electric_scooter", "fusion_lon": 0.0, "lat": 38.89759766666667}, {"rental_uris": {"android": "https://dc.lft.to/lastmile_qr_scan", "ios": "https://dc.lft.to/lastmile_qr_scan"}, "is_reserved": 0, "is_disabled": 0, "name": "017db632f4ab34e92db728849e6a03ad", "bike_id": "017db632f4ab34e92db728849e6a03ad", "fusion_lat": 0.0, "lon": -77.01751433333334, "type": "electric_scooter", "fusion_lon": 0.0, "lat": 38.93999083333333}, {"rental_uris": {"android": "https://dc.lft.to/lastmile_qr_scan", "ios": "https://dc.lft.to/lastmile_qr_scan"}, "is_reserved": 0, "is_disabled": 0, "name": "d95b8e7e7b17ac400c5ec262655a32d6", "bike_id": "d95b8e7e7b17ac400c5ec262655a32d6", "fusion_lat": 0.0, "lon": -77.04536616666667, "type": "electric_scooter", "fusion_lon": 0.0, "lat": 38.897444666666665}, {"rental_uris": {"android": "https://dc.lft.to/lastmile_qr_scan", "ios": "https://dc.lft.to/lastmile_qr_scan"}, "is_reserved": 0, "is_disabled": 0, "name": "e50643c95b45bee13612f43d9e950ca2", "bike_id": "e50643c95b45bee13612f43d9e950ca2", "fusion_lat": 0.0, "lon": -77.0102595, "type": "electric_scooter", "fusion_lon": 0.0, "lat": 38.914238833333336}, {"rental_uris": {"android": "https://dc.lft.to/lastmile_qr_scan", "ios": "https://dc.lft.to/lastmile_qr_scan"}, "is_reserved": 0, "is_disabled": 0, "name": "843d14ae0c6f01c410c4b89af84c18ef", "bike_id": "843d14ae0c6f01c410c4b89af84c18ef", "fusion_lat": 0.0, "lon": -77.02308183333334, "type": "electric_scooter", "fusion_lon": 0.0, "lat": 38.91754783333333}, {"rental_uris": {"android": "https://dc.lft.to/lastmile_qr_scan", "ios": "https://dc.lft.to/lastmile_qr_scan"}, "is_reserved": 0, "is_disabled": 0, "name": "94d10f732c647d53854d734fa62db96e", "bike_id": "94d10f732c647d53854d734fa62db96e", "fusion_lat": 0.0, "lon": -77.040876, "type": "electric_scooter", "fusion_lon": 0.0, "lat": 38.90725666666667}, {"rental_uris": {"android": "https://dc.lft.to/lastmile_qr_scan", "ios": "https://dc.lft.to/lastmile_qr_scan"}, "is_reserved": 0, "is_disabled": 0, "name": "406660809ee2ab5a92221d2ef29d9329", "bike_id": "406660809ee2ab5a92221d2ef29d9329", "fusion_lat": 0.0, "lon": -77.0534005, "type": "electric_scooter", "fusion_lon": 0.0, "lat": 38.906551666666665}, {"rental_uris": {"android": "https://dc.lft.to/lastmile_qr_scan", "ios": "https://dc.lft.to/lastmile_qr_scan"}, "is_reserved": 0, "is_disabled": 0, "name": "bff2b6e180e4d06d0082c5ccd7daf3d5", "bike_id": "bff2b6e180e4d06d0082c5ccd7daf3d5", "fusion_lat": 0.0, "lon": -77.0757405, "type": "electric_scooter", "fusion_lon": 0.0, "lat": 38.90735433333333}, {"rental_uris": {"android": "https://dc.lft.to/lastmile_qr_scan", "ios": "https://dc.lft.to/lastmile_qr_scan"}, "is_reserved": 0, "is_disabled": 0, "name": "69906a53a72470886bead20db082ea11", "bike_id": "69906a53a72470886bead20db082ea11", "fusion_lat": 0.0, "lon": -77.0216575, "type": "electric_scooter", "fusion_lon": 0.0, "lat": 38.899950833333335}, {"rental_uris": {"android": "https://dc.lft.to/lastmile_qr_scan", "ios": "https://dc.lft.to/lastmile_qr_scan"}, "is_reserved": 0, "is_disabled": 0, "name": "c8d0c4ac475c731cd6525fe87e3cf42c", "bike_id": "c8d0c4ac475c731cd6525fe87e3cf42c", "fusion_lat": 0.0, "lon": -77.0322995, "type": "electric_scooter", "fusion_lon": 0.0, "lat": 38.90957816666667}, {"rental_uris": {"android": "https://dc.lft.to/lastmile_qr_scan", "ios": "https://dc.lft.to/lastmile_qr_scan"}, "is_reserved": 0, "is_disabled": 0, "name": "e223f3de21dcb21ad095bc5bcd6e633a", "bike_id": "e223f3de21dcb21ad095bc5bcd6e633a", "fusion_lat": 0.0, "lon": -77.02321, "type": "electric_scooter", "fusion_lon": 0.0, "lat": 38.9209635}, {"rental_uris": {"android": "https://dc.lft.to/lastmile_qr_scan", "ios": "https://dc.lft.to/lastmile_qr_scan"}, "is_reserved": 0, "is_disabled": 0, "name": "3a3aac76bd5d0d1ae3c7f2dd4eb60a6b", "bike_id": "3a3aac76bd5d0d1ae3c7f2dd4eb60a6b", "fusion_lat": 0.0, "lon": -77.03628266666666, "type": "electric_scooter", "fusion_lon": 0.0, "lat": 38.936817833333336}, {"rental_uris": {"android": "https://dc.lft.to/lastmile_qr_scan", "ios": "https://dc.lft.to/lastmile_qr_scan"}, "is_reserved": 0, "is_disabled": 0, "name": "9bb36f969acfd711166e524c779c4564", "bike_id": "9bb36f969acfd711166e524c779c4564", "fusion_lat": 0.0, "lon": -77.00799083333334, "type": "electric_scooter", "fusion_lon": 0.0, "lat": 38.926669833333335}, {"rental_uris": {"android": "https://dc.lft.to/lastmile_qr_scan", "ios": "https://dc.lft.to/lastmile_qr_scan"}, "is_reserved": 0, "is_disabled": 0, "name": "8d51730e9e75d70db881a2c432a0f5a0", "bike_id": "8d51730e9e75d70db881a2c432a0f5a0", "fusion_lat": 0.0, "lon": -77.02058383333333, "type": "electric_scooter", "fusion_lon": 0.0, "lat": 38.92371383333333}, {"rental_uris": {"android": "https://dc.lft.to/lastmile_qr_scan", "ios": "https://dc.lft.to/lastmile_qr_scan"}, "is_reserved": 0, "is_disabled": 0, "name": "036769070d2143a9b40b7ed79daa3406", "bike_id": "036769070d2143a9b40b7ed79daa3406", "fusion_lat": 0.0, "lon": -77.03170933333334, "type": "electric_scooter", "fusion_lon": 0.0, "lat": 38.91808133333333}, {"rental_uris": {"android": "https://dc.lft.to/lastmile_qr_scan", "ios": "https://dc.lft.to/lastmile_qr_scan"}, "is_reserved": 0, "is_disabled": 0, "name": "2c1c206e900a13adb872b24bf8eb2705", "bike_id": "2c1c206e900a13adb872b24bf8eb2705", "fusion_lat": 0.0, "lon": -76.97738666666666, "type": "electric_bike", "fusion_lon": 0.0, "lat": 38.8648125}, {"rental_uris": {"android": "https://dc.lft.to/lastmile_qr_scan", "ios": "https://dc.lft.to/lastmile_qr_scan"}, "is_reserved": 0, "is_disabled": 0, "name": "3fdb85d1ef28d5a9f7a2c95aa3689660", "bike_id": "3fdb85d1ef28d5a9f7a2c95aa3689660", "fusion_lat": 0.0, "lon": -77.02409966666667, "type": "electric_scooter", "fusion_lon": 0.0, "lat": 38.9110015}, {"rental_uris": {"android": "https://dc.lft.to/lastmile_qr_scan", "ios": "https://dc.lft.to/lastmile_qr_scan"}, "is_reserved": 0, "is_disabled": 0, "name": "880851e1e57c6d6561bb75fc7a6bca62", "bike_id": "880851e1e57c6d6561bb75fc7a6bca62", "fusion_lat": 0.0, "lon": -77.03259116666666, "type": "electric_scooter", "fusion_lon": 0.0, "lat": 38.9397455}, {"rental_uris": {"android": "https://dc.lft.to/lastmile_qr_scan", "ios": "https://dc.lft.to/lastmile_qr_scan"}, "is_reserved": 0, "is_disabled": 0, "name": "56ba6f5f3b04a2badda73e8a254e09fc", "bike_id": "56ba6f5f3b04a2badda73e8a254e09fc", "fusion_lat": 0.0, "lon": -76.94083583333334, "type": "electric_scooter", "fusion_lon": 0.0, "lat": 38.89123566666667}, {"rental_uris": {"android": "https://dc.lft.to/lastmile_qr_scan", "ios": "https://dc.lft.to/lastmile_qr_scan"}, "is_reserved": 0, "is_disabled": 0, "name": "108c8106def157578f9994c9ddb1d6a1", "bike_id": "108c8106def157578f9994c9ddb1d6a1", "fusion_lat": 0.0, "lon": -77.03804416666667, "type": "electric_scooter", "fusion_lon": 0.0, "lat": 38.930686666666666}, {"rental_uris": {"android": "https://dc.lft.to/lastmile_qr_scan", "ios": "https://dc.lft.to/lastmile_qr_scan"}, "is_reserved": 0, "is_disabled": 0, "name": "256cbe6d410a189e8cef8e0f5147b0d6", "bike_id": "256cbe6d410a189e8cef8e0f5147b0d6", "fusion_lat": 0.0, "lon": -77.06350983333333, "type": "electric_scooter", "fusion_lon": 0.0, "lat": 38.94436533333333}, {"rental_uris": {"android": "https://dc.lft.to/lastmile_qr_scan", "ios": "https://dc.lft.to/lastmile_qr_scan"}, "is_reserved": 0, "is_disabled": 0, "name": "eb87e08fdbf649b5a5f3b75ef098f49b", "bike_id": "eb87e08fdbf649b5a5f3b75ef098f49b", "fusion_lat": 0.0, "lon": -77.05328616666667, "type": "electric_scooter", "fusion_lon": 0.0, "lat": 38.90518933333333}, {"rental_uris": {"android": "https://dc.lft.to/lastmile_qr_scan", "ios": "https://dc.lft.to/lastmile_qr_scan"}, "is_reserved": 0, "is_disabled": 0, "name": "45b52afecf21cfe9e06e858297779561", "bike_id": "45b52afecf21cfe9e06e858297779561", "fusion_lat": 0.0, "lon": -77.031859, "type": "electric_scooter", "fusion_lon": 0.0, "lat": 38.913475166666665}, {"rental_uris": {"android": "https://dc.lft.to/lastmile_qr_scan", "ios": "https://dc.lft.to/lastmile_qr_scan"}, "is_reserved": 0, "is_disabled": 0, "name": "3a611871bbc50b452cf4d9dd7de26d63", "bike_id": "3a611871bbc50b452cf4d9dd7de26d63", "fusion_lat": 0.0, "lon": -77.02296583333333, "type": "electric_scooter", "fusion_lon": 0.0, "lat": 38.918374}, {"rental_uris": {"android": "https://dc.lft.to/lastmile_qr_scan", "ios": "https://dc.lft.to/lastmile_qr_scan"}, "is_reserved": 0, "is_disabled": 0, "name": "bf1a101db12ae80b41d1097cd279e2dd", "bike_id": "bf1a101db12ae80b41d1097cd279e2dd", "fusion_lat": 0.0, "lon": -77.04313766666667, "type": "electric_scooter", "fusion_lon": 0.0, "lat": 38.918787333333334}, {"rental_uris": {"android": "https://dc.lft.to/lastmile_qr_scan", "ios": "https://dc.lft.to/lastmile_qr_scan"}, "is_reserved": 0, "is_disabled": 0, "name": "51cb0a8e49452e44468d71d5142b859d", "bike_id": "51cb0a8e49452e44468d71d5142b859d", "fusion_lat": 0.0, "lon": -77.04048166666666, "type": "electric_scooter", "fusion_lon": 0.0, "lat": 38.908686833333334}, {"rental_uris": {"android": "https://dc.lft.to/lastmile_qr_scan", "ios": "https://dc.lft.to/lastmile_qr_scan"}, "is_reserved": 0, "is_disabled": 0, "name": "c3efe6d2e26ae469aa507da53edca861", "bike_id": "c3efe6d2e26ae469aa507da53edca861", "fusion_lat": 0.0, "lon": -77.03469616666666, "type": "electric_scooter", "fusion_lon": 0.0, "lat": 38.90259116666667}, {"rental_uris": {"android": "https://dc.lft.to/lastmile_qr_scan", "ios": "https://dc.lft.to/lastmile_qr_scan"}, "is_reserved": 0, "is_disabled": 0, "name": "5413ce0673335c721f6f326a92e6a040", "bike_id": "5413ce0673335c721f6f326a92e6a040", "fusion_lat": 0.0, "lon": -77.032675, "type": "electric_scooter", "fusion_lon": 0.0, "lat": 38.937366}, {"rental_uris": {"android": "https://dc.lft.to/lastmile_qr_scan", "ios": "https://dc.lft.to/lastmile_qr_scan"}, "is_reserved": 0, "is_disabled": 0, "name": "1e5e3eafa3ce00dea24695460ffe4aff", "bike_id": "1e5e3eafa3ce00dea24695460ffe4aff", "fusion_lat": 0.0, "lon": -77.02382583333333, "type": "electric_scooter", "fusion_lon": 0.0, "lat": 38.95273616666667}, {"rental_uris": {"android": "https://dc.lft.to/lastmile_qr_scan", "ios": "https://dc.lft.to/lastmile_qr_scan"}, "is_reserved": 0, "is_disabled": 0, "name": "506fd9297f504a43883feaed4fee23a2", "bike_id": "506fd9297f504a43883feaed4fee23a2", "fusion_lat": 0.0, "lon": -77.02182483333333, "type": "electric_scooter", "fusion_lon": 0.0, "lat": 38.90953433333333}, {"rental_uris": {"android": "https://dc.lft.to/lastmile_qr_scan", "ios": "https://dc.lft.to/lastmile_qr_scan"}, "is_reserved": 0, "is_disabled": 0, "name": "282e60bae805c57925f3ed93914e29ea", "bike_id": "282e60bae805c57925f3ed93914e29ea", "fusion_lat": 0.0, "lon": -77.04082216666667, "type": "electric_scooter", "fusion_lon": 0.0, "lat": 38.903807}, {"rental_uris": {"android": "https://dc.lft.to/lastmile_qr_scan", "ios": "https://dc.lft.to/lastmile_qr_scan"}, "is_reserved": 0, "is_disabled": 0, "name": "2770c2710a5ce935fd443f5ddd140824", "bike_id": "2770c2710a5ce935fd443f5ddd140824", "fusion_lat": 0.0, "lon": -77.00328833333333, "type": "electric_scooter", "fusion_lon": 0.0, "lat": 38.90262383333334}, {"rental_uris": {"android": "https://dc.lft.to/lastmile_qr_scan", "ios": "https://dc.lft.to/lastmile_qr_scan"}, "is_reserved": 0, "is_disabled": 0, "name": "7451f2cdd0a838bf675170fda7147aea", "bike_id": "7451f2cdd0a838bf675170fda7147aea", "fusion_lat": 0.0, "lon": -77.02194466666667, "type": "electric_scooter", "fusion_lon": 0.0, "lat": 38.90193166666667}, {"rental_uris": {"android": "https://dc.lft.to/lastmile_qr_scan", "ios": "https://dc.lft.to/lastmile_qr_scan"}, "is_reserved": 0, "is_disabled": 0, "name": "544477980d9dd6d81cb4bff61500089f", "bike_id": "544477980d9dd6d81cb4bff61500089f", "fusion_lat": 0.0, "lon": -76.95290083333333, "type": "electric_scooter", "fusion_lon": 0.0, "lat": 38.89029383333333}, {"rental_uris": {"android": "https://dc.lft.to/lastmile_qr_scan", "ios": "https://dc.lft.to/lastmile_qr_scan"}, "is_reserved": 0, "is_disabled": 0, "name": "22628286f8965256a7531d9336d52f5f", "bike_id": "22628286f8965256a7531d9336d52f5f", "fusion_lat": 0.0, "lon": -77.027345, "type": "electric_scooter", "fusion_lon": 0.0, "lat": 38.952028}, {"rental_uris": {"android": "https://dc.lft.to/lastmile_qr_scan", "ios": "https://dc.lft.to/lastmile_qr_scan"}, "is_reserved": 0, "is_disabled": 0, "name": "f541f412dcffeb4775bf174e343add44", "bike_id": "f541f412dcffeb4775bf174e343add44", "fusion_lat": 0.0, "lon": -77.02577366666667, "type": "electric_scooter", "fusion_lon": 0.0, "lat": 38.90010616666667}, {"rental_uris": {"android": "https://dc.lft.to/lastmile_qr_scan", "ios": "https://dc.lft.to/lastmile_qr_scan"}, "is_reserved": 0, "is_disabled": 0, "name": "c014ba71a27f7fee32e39311fb92ae78", "bike_id": "c014ba71a27f7fee32e39311fb92ae78", "fusion_lat": 0.0, "lon": -77.05598716666667, "type": "electric_scooter", "fusion_lon": 0.0, "lat": 38.93700116666667}, {"rental_uris": {"android": "https://dc.lft.to/lastmile_qr_scan", "ios": "https://dc.lft.to/lastmile_qr_scan"}, "is_reserved": 0, "is_disabled": 0, "name": "7e2b43a656bb4351fcafca720dbc20e9", "bike_id": "7e2b43a656bb4351fcafca720dbc20e9", "fusion_lat": 0.0, "lon": -77.04601883333333, "type": "electric_scooter", "fusion_lon": 0.0, "lat": 38.91518116666667}, {"rental_uris": {"android": "https://dc.lft.to/lastmile_qr_scan", "ios": "https://dc.lft.to/lastmile_qr_scan"}, "is_reserved": 0, "is_disabled": 0, "name": "a156b96b6eda1abffdea6c2d377fd6a8", "bike_id": "a156b96b6eda1abffdea6c2d377fd6a8", "fusion_lat": 0.0, "lon": -76.98804616666666, "type": "electric_scooter", "fusion_lon": 0.0, "lat": 38.90026566666667}, {"rental_uris": {"android": "https://dc.lft.to/lastmile_qr_scan", "ios": "https://dc.lft.to/lastmile_qr_scan"}, "is_reserved": 0, "is_disabled": 0, "name": "cf0b53f7de553e994d74f69f6f7ec8ae", "bike_id": "cf0b53f7de553e994d74f69f6f7ec8ae", "fusion_lat": 0.0, "lon": -76.98971366666666, "type": "electric_bike", "fusion_lon": 0.0, "lat": 38.930719333333336}, {"rental_uris": {"android": "https://dc.lft.to/lastmile_qr_scan", "ios": "https://dc.lft.to/lastmile_qr_scan"}, "is_reserved": 0, "is_disabled": 0, "name": "dcff249a4c20369c939beda9b5d3e9cf", "bike_id": "dcff249a4c20369c939beda9b5d3e9cf", "fusion_lat": 0.0, "lon": -77.07660566666667, "type": "electric_scooter", "fusion_lon": 0.0, "lat": 38.910844833333336}, {"rental_uris": {"android": "https://dc.lft.to/lastmile_qr_scan", "ios": "https://dc.lft.to/lastmile_qr_scan"}, "is_reserved": 0, "is_disabled": 0, "name": "f30f919220ee518f40788327731c8be3", "bike_id": "f30f919220ee518f40788327731c8be3", "fusion_lat": 0.0, "lon": -76.94931683333333, "type": "electric_scooter", "fusion_lon": 0.0, "lat": 38.89530583333333}, {"rental_uris": {"android": "https://dc.lft.to/lastmile_qr_scan", "ios": "https://dc.lft.to/lastmile_qr_scan"}, "is_reserved": 0, "is_disabled": 0, "name": "f62b06ea70eb5244f61cf9b5a0a86af8", "bike_id": "f62b06ea70eb5244f61cf9b5a0a86af8", "fusion_lat": 0.0, "lon": -77.07332733333334, "type": "electric_scooter", "fusion_lon": 0.0, "lat": 38.9608965}, {"rental_uris": {"android": "https://dc.lft.to/lastmile_qr_scan", "ios": "https://dc.lft.to/lastmile_qr_scan"}, "is_reserved": 0, "is_disabled": 0, "name": "2bdd6058fe2ddfa30952308b0b1a4f36", "bike_id": "2bdd6058fe2ddfa30952308b0b1a4f36", "fusion_lat": 0.0, "lon": -77.00133183333334, "type": "electric_bike", "fusion_lon": 0.0, "lat": 38.99500166666667}, {"rental_uris": {"android": "https://dc.lft.to/lastmile_qr_scan", "ios": "https://dc.lft.to/lastmile_qr_scan"}, "is_reserved": 0, "is_disabled": 0, "name": "44f57f8f9387b21a3bbb3e88bcfc0f35", "bike_id": "44f57f8f9387b21a3bbb3e88bcfc0f35", "fusion_lat": 0.0, "lon": -77.00125983333334, "type": "electric_scooter", "fusion_lon": 0.0, "lat": 38.876259}, {"rental_uris": {"android": "https://dc.lft.to/lastmile_qr_scan", "ios": "https://dc.lft.to/lastmile_qr_scan"}, "is_reserved": 0, "is_disabled": 0, "name": "c2ef3eb118e432b098e7e7e8bb4d96d3", "bike_id": "c2ef3eb118e432b098e7e7e8bb4d96d3", "fusion_lat": 0.0, "lon": -77.06012333333334, "type": "electric_scooter", "fusion_lon": 0.0, "lat": 38.886511}, {"rental_uris": {"android": "https://dc.lft.to/lastmile_qr_scan", "ios": "https://dc.lft.to/lastmile_qr_scan"}, "is_reserved": 0, "is_disabled": 0, "name": "b4f3074fb396c262881373abdb28faaa", "bike_id": "b4f3074fb396c262881373abdb28faaa", "fusion_lat": 0.0, "lon": -77.01220233333333, "type": "electric_scooter", "fusion_lon": 0.0, "lat": 38.915199666666666}, {"rental_uris": {"android": "https://dc.lft.to/lastmile_qr_scan", "ios": "https://dc.lft.to/lastmile_qr_scan"}, "is_reserved": 0, "is_disabled": 0, "name": "b295c6edc96d56f6756ce95d06194ce8", "bike_id": "b295c6edc96d56f6756ce95d06194ce8", "fusion_lat": 0.0, "lon": -77.02197983333333, "type": "electric_scooter", "fusion_lon": 0.0, "lat": 38.9154635}, {"rental_uris": {"android": "https://dc.lft.to/lastmile_qr_scan", "ios": "https://dc.lft.to/lastmile_qr_scan"}, "is_reserved": 0, "is_disabled": 0, "name": "66ff7b63b148c369b504954cd72af58d", "bike_id": "66ff7b63b148c369b504954cd72af58d", "fusion_lat": 0.0, "lon": -76.957925, "type": "electric_bike", "fusion_lon": 0.0, "lat": 38.98047}, {"rental_uris": {"android": "https://dc.lft.to/lastmile_qr_scan", "ios": "https://dc.lft.to/lastmile_qr_scan"}, "is_reserved": 0, "is_disabled": 0, "name": "d4d7ae66b619cbbb2e3fd794ca13e0ec", "bike_id": "d4d7ae66b619cbbb2e3fd794ca13e0ec", "fusion_lat": 0.0, "lon": -77.0334265, "type": "electric_scooter", "fusion_lon": 0.0, "lat": 38.93514233333333}, {"rental_uris": {"android": "https://dc.lft.to/lastmile_qr_scan", "ios": "https://dc.lft.to/lastmile_qr_scan"}, "is_reserved": 0, "is_disabled": 0, "name": "c95ffea7ec8fda5896544ddabd8e979c", "bike_id": "c95ffea7ec8fda5896544ddabd8e979c", "fusion_lat": 0.0, "lon": -77.04766783333334, "type": "electric_scooter", "fusion_lon": 0.0, "lat": 38.90084433333333}, {"rental_uris": {"android": "https://dc.lft.to/lastmile_qr_scan", "ios": "https://dc.lft.to/lastmile_qr_scan"}, "is_reserved": 0, "is_disabled": 0, "name": "ff98252e31b02958bf8f4ae371e27fda", "bike_id": "ff98252e31b02958bf8f4ae371e27fda", "fusion_lat": 0.0, "lon": -77.03176466666666, "type": "electric_scooter", "fusion_lon": 0.0, "lat": 38.91634166666667}, {"rental_uris": {"android": "https://dc.lft.to/lastmile_qr_scan", "ios": "https://dc.lft.to/lastmile_qr_scan"}, "is_reserved": 0, "is_disabled": 0, "name": "e8fd0fd11fdb16873ca9427d838144f6", "bike_id": "e8fd0fd11fdb16873ca9427d838144f6", "fusion_lat": 0.0, "lon": -77.00766666666667, "type": "electric_scooter", "fusion_lon": 0.0, "lat": 38.926768}, {"rental_uris": {"android": "https://dc.lft.to/lastmile_qr_scan", "ios": "https://dc.lft.to/lastmile_qr_scan"}, "is_reserved": 0, "is_disabled": 0, "name": "f442920bc7e33342af9b36f49413feaa", "bike_id": "f442920bc7e33342af9b36f49413feaa", "fusion_lat": 0.0, "lon": -77.03648416666667, "type": "electric_scooter", "fusion_lon": 0.0, "lat": 38.936062}, {"rental_uris": {"android": "https://dc.lft.to/lastmile_qr_scan", "ios": "https://dc.lft.to/lastmile_qr_scan"}, "is_reserved": 0, "is_disabled": 0, "name": "31e5c1cf066961e3722069594937e193", "bike_id": "31e5c1cf066961e3722069594937e193", "fusion_lat": 0.0, "lon": -77.07329466666667, "type": "electric_scooter", "fusion_lon": 0.0, "lat": 38.926098333333336}, {"rental_uris": {"android": "https://dc.lft.to/lastmile_qr_scan", "ios": "https://dc.lft.to/lastmile_qr_scan"}, "is_reserved": 0, "is_disabled": 0, "name": "37b54a3594c3b6a937b6456abb95ac05", "bike_id": "37b54a3594c3b6a937b6456abb95ac05", "fusion_lat": 0.0, "lon": -77.01593316666667, "type": "electric_scooter", "fusion_lon": 0.0, "lat": 38.883205833333335}, {"rental_uris": {"android": "https://dc.lft.to/lastmile_qr_scan", "ios": "https://dc.lft.to/lastmile_qr_scan"}, "is_reserved": 0, "is_disabled": 0, "name": "03ae7c498271e54dbad07d234904bcab", "bike_id": "03ae7c498271e54dbad07d234904bcab", "fusion_lat": 0.0, "lon": -76.98617233333333, "type": "electric_scooter", "fusion_lon": 0.0, "lat": 38.9072775}, {"rental_uris": {"android": "https://dc.lft.to/lastmile_qr_scan", "ios": "https://dc.lft.to/lastmile_qr_scan"}, "is_reserved": 0, "is_disabled": 0, "name": "72225b71a9ff0bd190713a71b937669a", "bike_id": "72225b71a9ff0bd190713a71b937669a", "fusion_lat": 0.0, "lon": -77.035165, "type": "electric_scooter", "fusion_lon": 0.0, "lat": 38.93594066666667}, {"rental_uris": {"android": "https://dc.lft.to/lastmile_qr_scan", "ios": "https://dc.lft.to/lastmile_qr_scan"}, "is_reserved": 0, "is_disabled": 0, "name": "4dc5456f8c63cbf9f53312184b3539b0", "bike_id": "4dc5456f8c63cbf9f53312184b3539b0", "fusion_lat": 0.0, "lon": -77.01313916666666, "type": "electric_scooter", "fusion_lon": 0.0, "lat": 38.897410666666666}, {"rental_uris": {"android": "https://dc.lft.to/lastmile_qr_scan", "ios": "https://dc.lft.to/lastmile_qr_scan"}, "is_reserved": 0, "is_disabled": 0, "name": "667b1663a72835dfa33c96eb85ac64e8", "bike_id": "667b1663a72835dfa33c96eb85ac64e8", "fusion_lat": 0.0, "lon": -77.03487766666667, "type": "electric_scooter", "fusion_lon": 0.0, "lat": 38.9215055}, {"rental_uris": {"android": "https://dc.lft.to/lastmile_qr_scan", "ios": "https://dc.lft.to/lastmile_qr_scan"}, "is_reserved": 0, "is_disabled": 0, "name": "a2e92f1c4e8b2a2ce2f34e825a1b1861", "bike_id": "a2e92f1c4e8b2a2ce2f34e825a1b1861", "fusion_lat": 0.0, "lon": -77.02470283333334, "type": "electric_scooter", "fusion_lon": 0.0, "lat": 38.897300333333334}, {"rental_uris": {"android": "https://dc.lft.to/lastmile_qr_scan", "ios": "https://dc.lft.to/lastmile_qr_scan"}, "is_reserved": 0, "is_disabled": 0, "name": "b5574064f6a1023f4b746fc6ab88cf1e", "bike_id": "b5574064f6a1023f4b746fc6ab88cf1e", "fusion_lat": 0.0, "lon": -77.05038433333333, "type": "electric_scooter", "fusion_lon": 0.0, "lat": 38.92360566666667}, {"rental_uris": {"android": "https://dc.lft.to/lastmile_qr_scan", "ios": "https://dc.lft.to/lastmile_qr_scan"}, "is_reserved": 0, "is_disabled": 0, "name": "801e908d1ac99560df2de4622eef36d6", "bike_id": "801e908d1ac99560df2de4622eef36d6", "fusion_lat": 0.0, "lon": -77.0193805, "type": "electric_scooter", "fusion_lon": 0.0, "lat": 38.917293666666666}, {"rental_uris": {"android": "https://dc.lft.to/lastmile_qr_scan", "ios": "https://dc.lft.to/lastmile_qr_scan"}, "is_reserved": 0, "is_disabled": 0, "name": "c78d50238de84a73deca6d4a5290fd8c", "bike_id": "c78d50238de84a73deca6d4a5290fd8c", "fusion_lat": 0.0, "lon": -77.03484, "type": "electric_scooter", "fusion_lon": 0.0, "lat": 38.924831833333336}, {"rental_uris": {"android": "https://dc.lft.to/lastmile_qr_scan", "ios": "https://dc.lft.to/lastmile_qr_scan"}, "is_reserved": 0, "is_disabled": 0, "name": "59b8a76f5cfe690481c5bb0e3ebb498b", "bike_id": "59b8a76f5cfe690481c5bb0e3ebb498b", "fusion_lat": 0.0, "lon": -76.95063333333333, "type": "electric_bike", "fusion_lon": 0.0, "lat": 39.08511033333333}, {"rental_uris": {"android": "https://dc.lft.to/lastmile_qr_scan", "ios": "https://dc.lft.to/lastmile_qr_scan"}, "is_reserved": 0, "is_disabled": 0, "name": "f62af29a1154ca1589697276ae49e83d", "bike_id": "f62af29a1154ca1589697276ae49e83d", "fusion_lat": 0.0, "lon": -77.03882533333334, "type": "electric_bike", "fusion_lon": 0.0, "lat": 39.0262315}, {"rental_uris": {"android": "https://dc.lft.to/lastmile_qr_scan", "ios": "https://dc.lft.to/lastmile_qr_scan"}, "is_reserved": 0, "is_disabled": 0, "name": "6ef97bcf588bdc4642ccd16dc3af4f4c", "bike_id": "6ef97bcf588bdc4642ccd16dc3af4f4c", "fusion_lat": 0.0, "lon": -77.00566433333333, "type": "electric_bike", "fusion_lon": 0.0, "lat": 38.89811266666667}, {"rental_uris": {"android": "https://dc.lft.to/lastmile_qr_scan", "ios": "https://dc.lft.to/lastmile_qr_scan"}, "is_reserved": 0, "is_disabled": 0, "name": "896ec70751de0955af834f9824a8d1e2", "bike_id": "896ec70751de0955af834f9824a8d1e2", "fusion_lat": 0.0, "lon": -76.97916716666667, "type": "electric_bike", "fusion_lon": 0.0, "lat": 38.958547833333334}, {"rental_uris": {"android": "https://dc.lft.to/lastmile_qr_scan", "ios": "https://dc.lft.to/lastmile_qr_scan"}, "is_reserved": 0, "is_disabled": 0, "name": "a7e154b3f68858d3c7631d0a4834d8b9", "bike_id": "a7e154b3f68858d3c7631d0a4834d8b9", "fusion_lat": 0.0, "lon": -77.01160066666667, "type": "electric_scooter", "fusion_lon": 0.0, "lat": 38.89651816666667}, {"rental_uris": {"android": "https://dc.lft.to/lastmile_qr_scan", "ios": "https://dc.lft.to/lastmile_qr_scan"}, "is_reserved": 0, "is_disabled": 0, "name": "8f2339266fbe82eb57d3465c3dcf8b17", "bike_id": "8f2339266fbe82eb57d3465c3dcf8b17", "fusion_lat": 0.0, "lon": -77.0271885, "type": "electric_scooter", "fusion_lon": 0.0, "lat": 38.92228683333333}, {"rental_uris": {"android": "https://dc.lft.to/lastmile_qr_scan", "ios": "https://dc.lft.to/lastmile_qr_scan"}, "is_reserved": 0, "is_disabled": 0, "name": "05a30fef0f7ff323dbee47566f870ec5", "bike_id": "05a30fef0f7ff323dbee47566f870ec5", "fusion_lat": 0.0, "lon": -77.0457425, "type": "electric_scooter", "fusion_lon": 0.0, "lat": 38.90717083333333}, {"rental_uris": {"android": "https://dc.lft.to/lastmile_qr_scan", "ios": "https://dc.lft.to/lastmile_qr_scan"}, "is_reserved": 0, "is_disabled": 0, "name": "c525d8c7f26b8792923a49d5185fe9b6", "bike_id": "c525d8c7f26b8792923a49d5185fe9b6", "fusion_lat": 0.0, "lon": -77.023816, "type": "electric_scooter", "fusion_lon": 0.0, "lat": 38.89197766666667}, {"rental_uris": {"android": "https://dc.lft.to/lastmile_qr_scan", "ios": "https://dc.lft.to/lastmile_qr_scan"}, "is_reserved": 0, "is_disabled": 0, "name": "546f1b15c06a47805820a088f55a53f0", "bike_id": "546f1b15c06a47805820a088f55a53f0", "fusion_lat": 0.0, "lon": -76.94578366666667, "type": "electric_scooter", "fusion_lon": 0.0, "lat": 38.89925383333333}, {"rental_uris": {"android": "https://dc.lft.to/lastmile_qr_scan", "ios": "https://dc.lft.to/lastmile_qr_scan"}, "is_reserved": 0, "is_disabled": 0, "name": "fec24b693d9747734304d80a164fc46f", "bike_id": "fec24b693d9747734304d80a164fc46f", "fusion_lat": 0.0, "lon": -77.004595, "type": "electric_scooter", "fusion_lon": 0.0, "lat": 38.911607833333335}, {"rental_uris": {"android": "https://dc.lft.to/lastmile_qr_scan", "ios": "https://dc.lft.to/lastmile_qr_scan"}, "is_reserved": 0, "is_disabled": 0, "name": "fe7765da43fabf54df447b8af87bea17", "bike_id": "fe7765da43fabf54df447b8af87bea17", "fusion_lat": 0.0, "lon": -77.12736216666667, "type": "electric_bike", "fusion_lon": 0.0, "lat": 38.895648666666666}, {"rental_uris": {"android": "https://dc.lft.to/lastmile_qr_scan", "ios": "https://dc.lft.to/lastmile_qr_scan"}, "is_reserved": 0, "is_disabled": 0, "name": "c9dbeb35e6a8ed0e8eef1b3d4ead7d5a", "bike_id": "c9dbeb35e6a8ed0e8eef1b3d4ead7d5a", "fusion_lat": 0.0, "lon": -77.02793166666666, "type": "electric_scooter", "fusion_lon": 0.0, "lat": 38.898543333333336}, {"rental_uris": {"android": "https://dc.lft.to/lastmile_qr_scan", "ios": "https://dc.lft.to/lastmile_qr_scan"}, "is_reserved": 0, "is_disabled": 0, "name": "6f911be3b6f476423818c82b89683a42", "bike_id": "6f911be3b6f476423818c82b89683a42", "fusion_lat": 0.0, "lon": -76.98198533333333, "type": "electric_bike", "fusion_lon": 0.0, "lat": 38.9850915}, {"rental_uris": {"android": "https://dc.lft.to/lastmile_qr_scan", "ios": "https://dc.lft.to/lastmile_qr_scan"}, "is_reserved": 0, "is_disabled": 0, "name": "becdaa9e418dfe0ca0b48ed56e859bb3", "bike_id": "becdaa9e418dfe0ca0b48ed56e859bb3", "fusion_lat": 0.0, "lon": -77.08725333333334, "type": "electric_bike", "fusion_lon": 0.0, "lat": 38.86244883333333}, {"rental_uris": {"android": "https://dc.lft.to/lastmile_qr_scan", "ios": "https://dc.lft.to/lastmile_qr_scan"}, "is_reserved": 0, "is_disabled": 0, "name": "04a9a7141277040c4ffbad1b480bd418", "bike_id": "04a9a7141277040c4ffbad1b480bd418", "fusion_lat": 0.0, "lon": -77.01574933333333, "type": "electric_scooter", "fusion_lon": 0.0, "lat": 38.92801816666667}, {"rental_uris": {"android": "https://dc.lft.to/lastmile_qr_scan", "ios": "https://dc.lft.to/lastmile_qr_scan"}, "is_reserved": 0, "is_disabled": 0, "name": "59e5a2bf4193c68cef8187aa144fe8d6", "bike_id": "59e5a2bf4193c68cef8187aa144fe8d6", "fusion_lat": 0.0, "lon": -77.04862766666666, "type": "electric_scooter", "fusion_lon": 0.0, "lat": 38.91036183333333}, {"rental_uris": {"android": "https://dc.lft.to/lastmile_qr_scan", "ios": "https://dc.lft.to/lastmile_qr_scan"}, "is_reserved": 0, "is_disabled": 0, "name": "9e65fe156ad91f0b1737afcfcf6c5ad7", "bike_id": "9e65fe156ad91f0b1737afcfcf6c5ad7", "fusion_lat": 0.0, "lon": -77.020181, "type": "electric_scooter", "fusion_lon": 0.0, "lat": 38.92452733333333}, {"rental_uris": {"android": "https://dc.lft.to/lastmile_qr_scan", "ios": "https://dc.lft.to/lastmile_qr_scan"}, "is_reserved": 0, "is_disabled": 0, "name": "a22b8f3f60b10b2496fada6e7cd79015", "bike_id": "a22b8f3f60b10b2496fada6e7cd79015", "fusion_lat": 0.0, "lon": -77.03510683333333, "type": "electric_scooter", "fusion_lon": 0.0, "lat": 38.91898183333333}, {"rental_uris": {"android": "https://dc.lft.to/lastmile_qr_scan", "ios": "https://dc.lft.to/lastmile_qr_scan"}, "is_reserved": 0, "is_disabled": 0, "name": "3eae747e55afeb538be836d5e6f27a3d", "bike_id": "3eae747e55afeb538be836d5e6f27a3d", "fusion_lat": 0.0, "lon": -77.02429733333334, "type": "electric_scooter", "fusion_lon": 0.0, "lat": 38.920586666666665}, {"rental_uris": {"android": "https://dc.lft.to/lastmile_qr_scan", "ios": "https://dc.lft.to/lastmile_qr_scan"}, "is_reserved": 0, "is_disabled": 0, "name": "6994aad7522b1bc76b7cb416fc7c34b2", "bike_id": "6994aad7522b1bc76b7cb416fc7c34b2", "fusion_lat": 0.0, "lon": -77.006134, "type": "electric_scooter", "fusion_lon": 0.0, "lat": 38.875443833333335}, {"rental_uris": {"android": "https://dc.lft.to/lastmile_qr_scan", "ios": "https://dc.lft.to/lastmile_qr_scan"}, "is_reserved": 0, "is_disabled": 0, "name": "682dd163e758f74928b7288361bbcc83", "bike_id": "682dd163e758f74928b7288361bbcc83", "fusion_lat": 0.0, "lon": -77.035694, "type": "electric_scooter", "fusion_lon": 0.0, "lat": 38.924838333333334}, {"rental_uris": {"android": "https://dc.lft.to/lastmile_qr_scan", "ios": "https://dc.lft.to/lastmile_qr_scan"}, "is_reserved": 0, "is_disabled": 0, "name": "075a68c3de6798b6de7ff78dc31dba7a", "bike_id": "075a68c3de6798b6de7ff78dc31dba7a", "fusion_lat": 0.0, "lon": -77.05491766666667, "type": "electric_scooter", "fusion_lon": 0.0, "lat": 38.908448166666666}, {"rental_uris": {"android": "https://dc.lft.to/lastmile_qr_scan", "ios": "https://dc.lft.to/lastmile_qr_scan"}, "is_reserved": 0, "is_disabled": 0, "name": "3963cd22615c558da0c4ec21848ade7c", "bike_id": "3963cd22615c558da0c4ec21848ade7c", "fusion_lat": 0.0, "lon": -77.03376666666666, "type": "electric_scooter", "fusion_lon": 0.0, "lat": 38.90045383333333}, {"rental_uris": {"android": "https://dc.lft.to/lastmile_qr_scan", "ios": "https://dc.lft.to/lastmile_qr_scan"}, "is_reserved": 0, "is_disabled": 0, "name": "0e8e6345474bc3a0a9e187f2523c071c", "bike_id": "0e8e6345474bc3a0a9e187f2523c071c", "fusion_lat": 0.0, "lon": -77.03748266666666, "type": "electric_scooter", "fusion_lon": 0.0, "lat": 38.91253183333333}, {"rental_uris": {"android": "https://dc.lft.to/lastmile_qr_scan", "ios": "https://dc.lft.to/lastmile_qr_scan"}, "is_reserved": 0, "is_disabled": 0, "name": "fa19b8747bea77816930f2c7f9f0dd86", "bike_id": "fa19b8747bea77816930f2c7f9f0dd86", "fusion_lat": 0.0, "lon": -76.98514533333334, "type": "electric_scooter", "fusion_lon": 0.0, "lat": 38.90054583333333}, {"rental_uris": {"android": "https://dc.lft.to/lastmile_qr_scan", "ios": "https://dc.lft.to/lastmile_qr_scan"}, "is_reserved": 0, "is_disabled": 0, "name": "23a56a09daa51edb8099d31042ca148f", "bike_id": "23a56a09daa51edb8099d31042ca148f", "fusion_lat": 0.0, "lon": -76.94875533333334, "type": "electric_scooter", "fusion_lon": 0.0, "lat": 38.894983}, {"rental_uris": {"android": "https://dc.lft.to/lastmile_qr_scan", "ios": "https://dc.lft.to/lastmile_qr_scan"}, "is_reserved": 0, "is_disabled": 0, "name": "10ea53d126f8138c542bc28b7ffa4117", "bike_id": "10ea53d126f8138c542bc28b7ffa4117", "fusion_lat": 0.0, "lon": -77.04347066666666, "type": "electric_scooter", "fusion_lon": 0.0, "lat": 38.9112205}, {"rental_uris": {"android": "https://dc.lft.to/lastmile_qr_scan", "ios": "https://dc.lft.to/lastmile_qr_scan"}, "is_reserved": 0, "is_disabled": 0, "name": "a244dfcf780f3d6ea01e2bac11012de0", "bike_id": "a244dfcf780f3d6ea01e2bac11012de0", "fusion_lat": 0.0, "lon": -77.23393683333333, "type": "electric_bike", "fusion_lon": 0.0, "lat": 38.87182266666667}, {"rental_uris": {"android": "https://dc.lft.to/lastmile_qr_scan", "ios": "https://dc.lft.to/lastmile_qr_scan"}, "is_reserved": 0, "is_disabled": 0, "name": "b877ee47b83483fd7b43e650f51014f8", "bike_id": "b877ee47b83483fd7b43e650f51014f8", "fusion_lat": 0.0, "lon": -77.036781, "type": "electric_scooter", "fusion_lon": 0.0, "lat": 38.906972}, {"rental_uris": {"android": "https://dc.lft.to/lastmile_qr_scan", "ios": "https://dc.lft.to/lastmile_qr_scan"}, "is_reserved": 0, "is_disabled": 0, "name": "eff6320e9d976978bf40f11ff893f91d", "bike_id": "eff6320e9d976978bf40f11ff893f91d", "fusion_lat": 0.0, "lon": -77.038706, "type": "electric_scooter", "fusion_lon": 0.0, "lat": 38.917104333333334}, {"rental_uris": {"android": "https://dc.lft.to/lastmile_qr_scan", "ios": "https://dc.lft.to/lastmile_qr_scan"}, "is_reserved": 0, "is_disabled": 0, "name": "e56b331dce11dbd0821fc2a491e98536", "bike_id": "e56b331dce11dbd0821fc2a491e98536", "fusion_lat": 0.0, "lon": -77.01722283333334, "type": "electric_scooter", "fusion_lon": 0.0, "lat": 38.97492233333333}, {"rental_uris": {"android": "https://dc.lft.to/lastmile_qr_scan", "ios": "https://dc.lft.to/lastmile_qr_scan"}, "is_reserved": 0, "is_disabled": 0, "name": "37db1c74dcdab15a3795fb19b30b6f8e", "bike_id": "37db1c74dcdab15a3795fb19b30b6f8e", "fusion_lat": 0.0, "lon": -77.04243366666667, "type": "electric_scooter", "fusion_lon": 0.0, "lat": 38.920579000000004}, {"rental_uris": {"android": "https://dc.lft.to/lastmile_qr_scan", "ios": "https://dc.lft.to/lastmile_qr_scan"}, "is_reserved": 0, "is_disabled": 0, "name": "2a811e42d8d0e35a1256cf9821966089", "bike_id": "2a811e42d8d0e35a1256cf9821966089", "fusion_lat": 0.0, "lon": -77.04680833333333, "type": "electric_scooter", "fusion_lon": 0.0, "lat": 38.892238}, {"rental_uris": {"android": "https://dc.lft.to/lastmile_qr_scan", "ios": "https://dc.lft.to/lastmile_qr_scan"}, "is_reserved": 0, "is_disabled": 0, "name": "843390174939e08c137f0c4732e7d42e", "bike_id": "843390174939e08c137f0c4732e7d42e", "fusion_lat": 0.0, "lon": -77.01946383333333, "type": "electric_scooter", "fusion_lon": 0.0, "lat": 38.924494}, {"rental_uris": {"android": "https://dc.lft.to/lastmile_qr_scan", "ios": "https://dc.lft.to/lastmile_qr_scan"}, "is_reserved": 0, "is_disabled": 0, "name": "fd754687e7bff643ec232d21b142935a", "bike_id": "fd754687e7bff643ec232d21b142935a", "fusion_lat": 0.0, "lon": -77.00610583333334, "type": "electric_scooter", "fusion_lon": 0.0, "lat": 38.875451166666664}, {"rental_uris": {"android": "https://dc.lft.to/lastmile_qr_scan", "ios": "https://dc.lft.to/lastmile_qr_scan"}, "is_reserved": 0, "is_disabled": 0, "name": "8090f17b59555aa32137e2fb0f25176d", "bike_id": "8090f17b59555aa32137e2fb0f25176d", "fusion_lat": 0.0, "lon": -77.01518866666666, "type": "electric_scooter", "fusion_lon": 0.0, "lat": 38.872974166666665}, {"rental_uris": {"android": "https://dc.lft.to/lastmile_qr_scan", "ios": "https://dc.lft.to/lastmile_qr_scan"}, "is_reserved": 0, "is_disabled": 0, "name": "1cadab50c0c521bca31a693a0c3dd56f", "bike_id": "1cadab50c0c521bca31a693a0c3dd56f", "fusion_lat": 0.0, "lon": -77.0436205, "type": "electric_scooter", "fusion_lon": 0.0, "lat": 38.92246266666667}, {"rental_uris": {"android": "https://dc.lft.to/lastmile_qr_scan", "ios": "https://dc.lft.to/lastmile_qr_scan"}, "is_reserved": 0, "is_disabled": 0, "name": "3f1c2bdc9b9771b9ff00b453a02c200f", "bike_id": "3f1c2bdc9b9771b9ff00b453a02c200f", "fusion_lat": 0.0, "lon": -77.09685066666667, "type": "electric_bike", "fusion_lon": 0.0, "lat": 38.807374833333334}, {"rental_uris": {"android": "https://dc.lft.to/lastmile_qr_scan", "ios": "https://dc.lft.to/lastmile_qr_scan"}, "is_reserved": 0, "is_disabled": 0, "name": "43a4e121c115e89c9b854600e887f2a3", "bike_id": "43a4e121c115e89c9b854600e887f2a3", "fusion_lat": 0.0, "lon": -77.03197916666667, "type": "electric_scooter", "fusion_lon": 0.0, "lat": 38.91016416666667}, {"rental_uris": {"android": "https://dc.lft.to/lastmile_qr_scan", "ios": "https://dc.lft.to/lastmile_qr_scan"}, "is_reserved": 0, "is_disabled": 0, "name": "97770be8236083135fe74c54d94151a3", "bike_id": "97770be8236083135fe74c54d94151a3", "fusion_lat": 0.0, "lon": -77.00884433333333, "type": "electric_scooter", "fusion_lon": 0.0, "lat": 38.924669333333334}, {"rental_uris": {"android": "https://dc.lft.to/lastmile_qr_scan", "ios": "https://dc.lft.to/lastmile_qr_scan"}, "is_reserved": 0, "is_disabled": 0, "name": "37109fe7fbad90656d0fffb71aec03d7", "bike_id": "37109fe7fbad90656d0fffb71aec03d7", "fusion_lat": 0.0, "lon": -77.03506033333333, "type": "electric_scooter", "fusion_lon": 0.0, "lat": 38.91877866666667}, {"rental_uris": {"android": "https://dc.lft.to/lastmile_qr_scan", "ios": "https://dc.lft.to/lastmile_qr_scan"}, "is_reserved": 0, "is_disabled": 0, "name": "b8c7d460836ec7ad1afe2d32cf6dda45", "bike_id": "b8c7d460836ec7ad1afe2d32cf6dda45", "fusion_lat": 0.0, "lon": -76.98432, "type": "electric_bike", "fusion_lon": 0.0, "lat": 38.855174}, {"rental_uris": {"android": "https://dc.lft.to/lastmile_qr_scan", "ios": "https://dc.lft.to/lastmile_qr_scan"}, "is_reserved": 0, "is_disabled": 0, "name": "d4d78ab9ac7d2777e5b9bbe0fdb47901", "bike_id": "d4d78ab9ac7d2777e5b9bbe0fdb47901", "fusion_lat": 0.0, "lon": -77.0294325, "type": "electric_scooter", "fusion_lon": 0.0, "lat": 38.907124833333334}, {"rental_uris": {"android": "https://dc.lft.to/lastmile_qr_scan", "ios": "https://dc.lft.to/lastmile_qr_scan"}, "is_reserved": 0, "is_disabled": 0, "name": "a260870ae030d629fc4637273c88f9a5", "bike_id": "a260870ae030d629fc4637273c88f9a5", "fusion_lat": 0.0, "lon": -76.9957895, "type": "electric_scooter", "fusion_lon": 0.0, "lat": 38.900276166666664}, {"rental_uris": {"android": "https://dc.lft.to/lastmile_qr_scan", "ios": "https://dc.lft.to/lastmile_qr_scan"}, "is_reserved": 0, "is_disabled": 0, "name": "7065bb4b8db3441ef6498e192a320d2d", "bike_id": "7065bb4b8db3441ef6498e192a320d2d", "fusion_lat": 0.0, "lon": -77.04327383333333, "type": "electric_scooter", "fusion_lon": 0.0, "lat": 38.892256}, {"rental_uris": {"android": "https://dc.lft.to/lastmile_qr_scan", "ios": "https://dc.lft.to/lastmile_qr_scan"}, "is_reserved": 0, "is_disabled": 0, "name": "18539e74324e56578ff89717bbb056a4", "bike_id": "18539e74324e56578ff89717bbb056a4", "fusion_lat": 0.0, "lon": -77.04893083333333, "type": "electric_scooter", "fusion_lon": 0.0, "lat": 38.90517333333333}, {"rental_uris": {"android": "https://dc.lft.to/lastmile_qr_scan", "ios": "https://dc.lft.to/lastmile_qr_scan"}, "is_reserved": 0, "is_disabled": 0, "name": "6cfeadf896ded02e624966e56de9dc92", "bike_id": "6cfeadf896ded02e624966e56de9dc92", "fusion_lat": 0.0, "lon": -77.0337655, "type": "electric_scooter", "fusion_lon": 0.0, "lat": 38.9246125}, {"rental_uris": {"android": "https://dc.lft.to/lastmile_qr_scan", "ios": "https://dc.lft.to/lastmile_qr_scan"}, "is_reserved": 0, "is_disabled": 0, "name": "4c1de86200a02df88fadec05ac394235", "bike_id": "4c1de86200a02df88fadec05ac394235", "fusion_lat": 0.0, "lon": -76.9837165, "type": "electric_scooter", "fusion_lon": 0.0, "lat": 38.892669166666664}, {"rental_uris": {"android": "https://dc.lft.to/lastmile_qr_scan", "ios": "https://dc.lft.to/lastmile_qr_scan"}, "is_reserved": 0, "is_disabled": 0, "name": "2a056a9b01eece9028c4eaaa66a6d1cd", "bike_id": "2a056a9b01eece9028c4eaaa66a6d1cd", "fusion_lat": 0.0, "lon": -77.0775475, "type": "electric_bike", "fusion_lon": 0.0, "lat": 38.84191933333334}, {"rental_uris": {"android": "https://dc.lft.to/lastmile_qr_scan", "ios": "https://dc.lft.to/lastmile_qr_scan"}, "is_reserved": 0, "is_disabled": 0, "name": "1305767b300c907a78122a55fd728c06", "bike_id": "1305767b300c907a78122a55fd728c06", "fusion_lat": 0.0, "lon": -77.0219675, "type": "electric_scooter", "fusion_lon": 0.0, "lat": 38.894293166666664}, {"rental_uris": {"android": "https://dc.lft.to/lastmile_qr_scan", "ios": "https://dc.lft.to/lastmile_qr_scan"}, "is_reserved": 0, "is_disabled": 0, "name": "5fe302cf4eb591347f2a67d38b65062c", "bike_id": "5fe302cf4eb591347f2a67d38b65062c", "fusion_lat": 0.0, "lon": -77.04895716666667, "type": "electric_scooter", "fusion_lon": 0.0, "lat": 38.90411116666667}, {"rental_uris": {"android": "https://dc.lft.to/lastmile_qr_scan", "ios": "https://dc.lft.to/lastmile_qr_scan"}, "is_reserved": 0, "is_disabled": 0, "name": "f75ea5c6c8c938b9001f74ea7eed36f6", "bike_id": "f75ea5c6c8c938b9001f74ea7eed36f6", "fusion_lat": 0.0, "lon": -77.01511616666667, "type": "electric_scooter", "fusion_lon": 0.0, "lat": 38.893653666666665}, {"rental_uris": {"android": "https://dc.lft.to/lastmile_qr_scan", "ios": "https://dc.lft.to/lastmile_qr_scan"}, "is_reserved": 0, "is_disabled": 0, "name": "b6a199faeb9371be7752fb6a6aef1ce5", "bike_id": "b6a199faeb9371be7752fb6a6aef1ce5", "fusion_lat": 0.0, "lon": -77.03453666666667, "type": "electric_scooter", "fusion_lon": 0.0, "lat": 38.9117545}, {"rental_uris": {"android": "https://dc.lft.to/lastmile_qr_scan", "ios": "https://dc.lft.to/lastmile_qr_scan"}, "is_reserved": 0, "is_disabled": 0, "name": "becbcdc2e738e1fae88d7c43e7c9f892", "bike_id": "becbcdc2e738e1fae88d7c43e7c9f892", "fusion_lat": 0.0, "lon": -77.02117133333333, "type": "electric_bike", "fusion_lon": 0.0, "lat": 38.93604783333333}, {"rental_uris": {"android": "https://dc.lft.to/lastmile_qr_scan", "ios": "https://dc.lft.to/lastmile_qr_scan"}, "is_reserved": 0, "is_disabled": 0, "name": "98e97dae254bd4e73a57d6b90ec7b2f7", "bike_id": "98e97dae254bd4e73a57d6b90ec7b2f7", "fusion_lat": 0.0, "lon": -77.02017333333333, "type": "electric_scooter", "fusion_lon": 0.0, "lat": 38.91564783333333}, {"rental_uris": {"android": "https://dc.lft.to/lastmile_qr_scan", "ios": "https://dc.lft.to/lastmile_qr_scan"}, "is_reserved": 0, "is_disabled": 0, "name": "3b6cbafb272deaa81174b108a01e4fb5", "bike_id": "3b6cbafb272deaa81174b108a01e4fb5", "fusion_lat": 0.0, "lon": -77.011734, "type": "electric_scooter", "fusion_lon": 0.0, "lat": 38.900065166666664}, {"rental_uris": {"android": "https://dc.lft.to/lastmile_qr_scan", "ios": "https://dc.lft.to/lastmile_qr_scan"}, "is_reserved": 0, "is_disabled": 0, "name": "f8c13284b8cb98af85111851c89a91bd", "bike_id": "f8c13284b8cb98af85111851c89a91bd", "fusion_lat": 0.0, "lon": -77.05395666666666, "type": "electric_scooter", "fusion_lon": 0.0, "lat": 38.91053566666667}, {"rental_uris": {"android": "https://dc.lft.to/lastmile_qr_scan", "ios": "https://dc.lft.to/lastmile_qr_scan"}, "is_reserved": 0, "is_disabled": 0, "name": "5599dfabd840c7f840e3b7c2a1fcacea", "bike_id": "5599dfabd840c7f840e3b7c2a1fcacea", "fusion_lat": 0.0, "lon": -77.0332855, "type": "electric_scooter", "fusion_lon": 0.0, "lat": 38.921428}, {"rental_uris": {"android": "https://dc.lft.to/lastmile_qr_scan", "ios": "https://dc.lft.to/lastmile_qr_scan"}, "is_reserved": 0, "is_disabled": 0, "name": "4821805da6461b9e9100f78a4acd5ce9", "bike_id": "4821805da6461b9e9100f78a4acd5ce9", "fusion_lat": 0.0, "lon": -77.03467416666666, "type": "electric_scooter", "fusion_lon": 0.0, "lat": 38.906248833333336},