{"data": {"bikes": [{"is_disabled": 0, "fusion_lon": 0.0, "fusion_lat": 0.0, "lat": 38.903779, "type": "electric_scooter", "lon": -77.03184416666667, "bike_id": "78932892e1bf7e2d5612e7ec506eae31", "rental_uris": {"android": "https://dc.lft.to/lastmile_qr_scan", "ios": "https://dc.lft.to/lastmile_qr_scan"}, "name": "78932892e1bf7e2d5612e7ec506eae31", "is_reserved": 0}, {"is_disabled": 0, "fusion_lon": 0.0, "fusion_lat": 0.0, "lat": 38.905199833333334, "type": "electric_scooter", "lon": -77.02529866666667, "bike_id": "b33e010286f1c654513f54223d12847f", "rental_uris": {"android": "https://dc.lft.to/lastmile_qr_scan", "ios": "https://dc.lft.to/lastmile_qr_scan"}, "name": "b33e010286f1c654513f54223d12847f", "is_reserved": 0}, {"is_disabled": 0, "fusion_lon": 0.0, "fusion_lat": 0.0, "lat": 38.91804116666667, "type": "electric_scooter", "lon": -77.0322245, "bike_id": "f2130bc0d024eddaade7b6fdb370da20", "rental_uris": {"android": "https://dc.lft.to/lastmile_qr_scan", "ios": "https://dc.lft.to/lastmile_qr_scan"}, "name": "f2130bc0d024eddaade7b6fdb370da20", "is_reserved": 0}, {"is_disabled": 0, "fusion_lon": 0.0, "fusion_lat": 0.0, "lat": 38.915647666666665, "type": "electric_scooter", "lon": -77.010227, "bike_id": "1041cbdf78a826c2016ba055355a453a", "rental_uris": {"android": "https://dc.lft.to/lastmile_qr_scan", "ios": "https://dc.lft.to/lastmile_qr_scan"}, "name": "1041cbdf78a826c2016ba055355a453a", "is_reserved": 0}, {"is_disabled": 0, "fusion_lon": 0.0, "fusion_lat": 0.0, "lat": 38.9048065, "type": "electric_scooter", "lon": -76.97329533333334, "bike_id": "665c305e56b64d712f598f4e20c968dd", "rental_uris": {"android": "https://dc.lft.to/lastmile_qr_scan", "ios": "https://dc.lft.to/lastmile_qr_scan"}, "name": "665c305e56b64d712f598f4e20c968dd", "is_reserved": 0}, {"is_disabled": 0, "fusion_lon": 0.0, "fusion_lat": 0.0, "lat": 38.9170265, "type": "electric_scooter", "lon": -77.00116633333333, "bike_id": "66bbccd264e85696a66ee83676b070db", "rental_uris": {"android": "https://dc.lft.to/lastmile_qr_scan", "ios": "https://dc.lft.to/lastmile_qr_scan"}, "name": "66bbccd264e85696a66ee83676b070db", "is_reserved": 0}, {"is_disabled": 0, "fusion_lon": 0.0, "fusion_lat": 0.0, "lat": 38.918012166666664, "type": "electric_scooter", "lon": -77.02396033333333, "bike_id": "5e41b88cadef378fb5ab8e2913ee9d90", "rental_uris": {"android": "https://dc.lft.to/lastmile_qr_scan", "ios": "https://dc.lft.to/lastmile_qr_scan"}, "name": "5e41b88cadef378fb5ab8e2913ee9d90", "is_reserved": 0}, {"is_disabled": 0, "fusion_lon": 0.0, "fusion_lat": 0.0, "lat": 38.909078666666666, "type": "electric_scooter", "lon": -77.02277333333333, "bike_id": "096d2f46f84cac604a28453d97691380", "rental_uris": {"android": "https://dc.lft.to/lastmile_qr_scan", "ios": "https://dc.lft.to/lastmile_qr_scan"}, "name": "096d2f46f84cac604a28453d97691380", "is_reserved": 0}, {"is_disabled": 0, "fusion_lon": 0.0, "fusion_lat": 0.0, "lat": 38.98502116666667, "type": "electric_bike", "lon": -76.98214766666666, "bike_id": "7633b70651e58747e87e21169e6f4f11", "rental_uris": {"android": "https://dc.lft.to/lastmile_qr_scan", "ios": "https://dc.lft.to/lastmile_qr_scan"}, "name": "7633b70651e58747e87e21169e6f4f11", "is_reserved": 0}, {"is_disabled": 0, "fusion_lon": 0.0, "fusion_lat": 0.0, "lat": 38.91731466666667, "type": "electric_scooter", "lon": -76.99179116666667, "bike_id": "2b2e5567c7c502cebadfb06da1f22098", "rental_uris": {"android": "https://dc.lft.to/lastmile_qr_scan", "ios": "https://dc.lft.to/lastmile_qr_scan"}, "name": "2b2e5567c7c502cebadfb06da1f22098", "is_reserved": 0}, {"is_disabled": 0, "fusion_lon": 0.0, "fusion_lat": 0.0, "lat": 38.94841666666667, "type": "electric_bike", "lon": -76.97228533333333, "bike_id": "abcfb31b669f0d995790b5d0c3515c3e", "rental_uris": {"android": "https://dc.lft.to/lastmile_qr_scan", "ios": "https://dc.lft.to/lastmile_qr_scan"}, "name": "abcfb31b669f0d995790b5d0c3515c3e", "is_reserved": 0}, {"is_disabled": 0, "fusion_lon": 0.0, "fusion_lat": 0.0, "lat": 38.872074, "type": "electric_bike", "lon": -76.95487566666667, "bike_id": "1e194a72439d42fc059f40d7950ba95c", "rental_uris": {"android": "https://dc.lft.to/lastmile_qr_scan", "ios": "https://dc.lft.to/lastmile_qr_scan"}, "name": "1e194a72439d42fc059f40d7950ba95c", "is_reserved": 0}, {"is_disabled": 0, "fusion_lon": 0.0, "fusion_lat": 0.0, "lat": 38.970707166666664, "type": "electric_bike", "lon": -76.96047316666667, "bike_id": "0ae24ae3e722eb138d4eca570b45dd4f", "rental_uris": {"android": "https://dc.lft.to/lastmile_qr_scan", "ios": "https://dc.lft.to/lastmile_qr_scan"}, "name": "0ae24ae3e722eb138d4eca570b45dd4f", "is_reserved": 0}, {"is_disabled": 0, "fusion_lon": 0.0, "fusion_lat": 0.0, "lat": 38.88762533333333, "type": "electric_scooter", "lon": -76.9891255, "bike_id": "e719fe45e38949392b3ad3c07f1bcc8d", "rental_uris": {"android": "https://dc.lft.to/lastmile_qr_scan", "ios": "https://dc.lft.to/lastmile_qr_scan"}, "name": "e719fe45e38949392b3ad3c07f1bcc8d", "is_reserved": 0}, {"is_disabled": 0, "fusion_lon": 0.0, "fusion_lat": 0.0, "lat": 38.918417, "type": "electric_scooter", "lon": -77.03205966666667, "bike_id": "88bacb87345bcd2d36ed6aeb67deee62", "rental_uris": {"android": "https://dc.lft.to/lastmile_qr_scan", "ios": "https://dc.lft.to/lastmile_qr_scan"}, "name": "88bacb87345bcd2d36ed6aeb67deee62", "is_reserved": 0}, {"is_disabled": 0, "fusion_lon": 0.0, "fusion_lat": 0.0, "lat": 38.91199316666667, "type": "electric_scooter", "lon": -76.98481383333333, "bike_id": "b0cea66724400111d2b56e738df2c861", "rental_uris": {"android": "https://dc.lft.to/lastmile_qr_scan", "ios": "https://dc.lft.to/lastmile_qr_scan"}, "name": "b0cea66724400111d2b56e738df2c861", "is_reserved": 0}, {"is_disabled": 0, "fusion_lon": 0.0, "fusion_lat": 0.0, "lat": 38.88751333333333, "type": "electric_scooter", "lon": -77.00222416666666, "bike_id": "bf5c351dc6fd1f6d8b69bdeccf5f7250", "rental_uris": {"android": "https://dc.lft.to/lastmile_qr_scan", "ios": "https://dc.lft.to/lastmile_qr_scan"}, "name": "bf5c351dc6fd1f6d8b69bdeccf5f7250", "is_reserved": 0}, {"is_disabled": 0, "fusion_lon": 0.0, "fusion_lat": 0.0, "lat": 38.87634766666667, "type": "electric_scooter", "lon": -76.99764833333333, "bike_id": "08d63f2377743fe6456643ca61736b55", "rental_uris": {"android": "https://dc.lft.to/lastmile_qr_scan", "ios": "https://dc.lft.to/lastmile_qr_scan"}, "name": "08d63f2377743fe6456643ca61736b55", "is_reserved": 0}, {"is_disabled": 0, "fusion_lon": 0.0, "fusion_lat": 0.0, "lat": 38.89992983333333, "type": "electric_scooter", "lon": -76.99159966666667, "bike_id": "49bd17e83dd699ba4cd9b4ef57daa04a", "rental_uris": {"android": "https://dc.lft.to/lastmile_qr_scan", "ios": "https://dc.lft.to/lastmile_qr_scan"}, "name": "49bd17e83dd699ba4cd9b4ef57daa04a", "is_reserved": 0}, {"is_disabled": 0, "fusion_lon": 0.0, "fusion_lat": 0.0, "lat": 38.901817666666666, "type": "electric_scooter", "lon": -77.0502415, "bike_id": "88fcce47dd36b016db5479ffcf7de0ae", "rental_uris": {"android": "https://dc.lft.to/lastmile_qr_scan", "ios": "https://dc.lft.to/lastmile_qr_scan"}, "name": "88fcce47dd36b016db5479ffcf7de0ae", "is_reserved": 0}, {"is_disabled": 0, "fusion_lon": 0.0, "fusion_lat": 0.0, "lat": 38.90197083333334, "type": "electric_scooter", "lon": -77.03957883333334, "bike_id": "6dfefbed60f50dcd58ea02744af83e0d", "rental_uris": {"android": "https://dc.lft.to/lastmile_qr_scan", "ios": "https://dc.lft.to/lastmile_qr_scan"}, "name": "6dfefbed60f50dcd58ea02744af83e0d", "is_reserved": 0}, {"is_disabled": 0, "fusion_lon": 0.0, "fusion_lat": 0.0, "lat": 38.90176683333333, "type": "electric_scooter", "lon": -76.99388466666667, "bike_id": "86d5181a9d9628e8a9ff53ca4bf392fa", "rental_uris": {"android": "https://dc.lft.to/lastmile_qr_scan", "ios": "https://dc.lft.to/lastmile_qr_scan"}, "name": "86d5181a9d9628e8a9ff53ca4bf392fa", "is_reserved": 0}, {"is_disabled": 0, "fusion_lon": 0.0, "fusion_lat": 0.0, "lat": 38.90267716666666, "type": "electric_scooter", "lon": -77.0032585, "bike_id": "2fcb575ca36ef2f7be6383b05428800d", "rental_uris": {"android": "https://dc.lft.to/lastmile_qr_scan", "ios": "https://dc.lft.to/lastmile_qr_scan"}, "name": "2fcb575ca36ef2f7be6383b05428800d", "is_reserved": 0}, {"is_disabled": 0, "fusion_lon": 0.0, "fusion_lat": 0.0, "lat": 38.924395833333335, "type": "electric_scooter", "lon": -77.02607266666666, "bike_id": "d05edbde912c7ba49a811a5e7df69db7", "rental_uris": {"android": "https://dc.lft.to/lastmile_qr_scan", "ios": "https://dc.lft.to/lastmile_qr_scan"}, "name": "d05edbde912c7ba49a811a5e7df69db7", "is_reserved": 0}, {"is_disabled": 0, "fusion_lon": 0.0, "fusion_lat": 0.0, "lat": 38.918087, "type": "electric_scooter", "lon": -77.0314515, "bike_id": "00fdb04edbbfbc9392cdfe1a85657cee", "rental_uris": {"android": "https://dc.lft.to/lastmile_qr_scan", "ios": "https://dc.lft.to/lastmile_qr_scan"}, "name": "00fdb04edbbfbc9392cdfe1a85657cee", "is_reserved": 0}, {"is_disabled": 0, "fusion_lon": 0.0, "fusion_lat": 0.0, "lat": 38.960121666666666, "type": "electric_scooter", "lon": -77.0331395, "bike_id": "8eb929098cf3d95f5cf6d4ec22eb9ad7", "rental_uris": {"android": "https://dc.lft.to/lastmile_qr_scan", "ios": "https://dc.lft.to/lastmile_qr_scan"}, "name": "8eb929098cf3d95f5cf6d4ec22eb9ad7", "is_reserved": 0}, {"is_disabled": 0, "fusion_lon": 0.0, "fusion_lat": 0.0, "lat": 38.9276635, "type": "electric_scooter", "lon": -77.0278235, "bike_id": "cf0bf7f5a54e56ab5082aa35d3516f02", "rental_uris": {"android": "https://dc.lft.to/lastmile_qr_scan", "ios": "https://dc.lft.to/lastmile_qr_scan"}, "name": "cf0bf7f5a54e56ab5082aa35d3516f02", "is_reserved": 0}, {"is_disabled": 0, "fusion_lon": 0.0, "fusion_lat": 0.0, "lat": 38.90952716666666, "type": "electric_scooter", "lon": -77.02184016666666, "bike_id": "8ca4c7616e659f3bcd79798fa6ca06d5", "rental_uris": {"android": "https://dc.lft.to/lastmile_qr_scan", "ios": "https://dc.lft.to/lastmile_qr_scan"}, "name": "8ca4c7616e659f3bcd79798fa6ca06d5", "is_reserved": 0}, {"is_disabled": 0, "fusion_lon": 0.0, "fusion_lat": 0.0, "lat": 38.865227, "type": "electric_scooter", "lon": -76.98971016666667, "bike_id": "109c22763c22277bbb9e0e2a22309b1a", "rental_uris": {"android": "https://dc.lft.to/lastmile_qr_scan", "ios": "https://dc.lft.to/lastmile_qr_scan"}, "name": "109c22763c22277bbb9e0e2a22309b1a", "is_reserved": 0}, {"is_disabled": 0, "fusion_lon": 0.0, "fusion_lat": 0.0, "lat": 38.898928166666664, "type": "electric_scooter", "lon": -77.0396625, "bike_id": "5ff6a362a8dc7810306fa90f4b5df549", "rental_uris": {"android": "https://dc.lft.to/lastmile_qr_scan", "ios": "https://dc.lft.to/lastmile_qr_scan"}, "name": "5ff6a362a8dc7810306fa90f4b5df549", "is_reserved": 0}, {"is_disabled": 0, "fusion_lon": 0.0, "fusion_lat": 0.0, "lat": 38.84617133333333, "type": "electric_scooter", "lon": -76.99631266666667, "bike_id": "5d798f5a24d6f64f3052bc432d9a8b82", "rental_uris": {"android": "https://dc.lft.to/lastmile_qr_scan", "ios": "https://dc.lft.to/lastmile_qr_scan"}, "name": "5d798f5a24d6f64f3052bc432d9a8b82", "is_reserved": 0}, {"is_disabled": 0, "fusion_lon": 0.0, "fusion_lat": 0.0, "lat": 38.9180255, "type": "electric_scooter", "lon": -77.026876, "bike_id": "284fbf56e33e3cfc25032a0d2c61432b", "rental_uris": {"android": "https://dc.lft.to/lastmile_qr_scan", "ios": "https://dc.lft.to/lastmile_qr_scan"}, "name": "284fbf56e33e3cfc25032a0d2c61432b", "is_reserved": 0}, {"is_disabled": 0, "fusion_lon": 0.0, "fusion_lat": 0.0, "lat": 38.95627183333333, "type": "electric_scooter", "lon": -77.02462183333333, "bike_id": "fae92871eff297edc86d5903c9727a54", "rental_uris": {"android": "https://dc.lft.to/lastmile_qr_scan", "ios": "https://dc.lft.to/lastmile_qr_scan"}, "name": "fae92871eff297edc86d5903c9727a54", "is_reserved": 0}, {"is_disabled": 0, "fusion_lon": 0.0, "fusion_lat": 0.0, "lat": 38.92440666666667, "type": "electric_scooter", "lon": -77.040326, "bike_id": "7c7422851900c1af482ba525a56fc39f", "rental_uris": {"android": "https://dc.lft.to/lastmile_qr_scan", "ios": "https://dc.lft.to/lastmile_qr_scan"}, "name": "7c7422851900c1af482ba525a56fc39f", "is_reserved": 0}, {"is_disabled": 0, "fusion_lon": 0.0, "fusion_lat": 0.0, "lat": 38.915923166666666, "type": "electric_scooter", "lon": -77.0235125, "bike_id": "25f0617d515a17072830750e79b2824e", "rental_uris": {"android": "https://dc.lft.to/lastmile_qr_scan", "ios": "https://dc.lft.to/lastmile_qr_scan"}, "name": "25f0617d515a17072830750e79b2824e", "is_reserved": 0}, {"is_disabled": 0, "fusion_lon": 0.0, "fusion_lat": 0.0, "lat": 38.916327833333334, "type": "electric_scooter", "lon": -77.046227, "bike_id": "a80b56280510d83d6eb54f167974e0c2", "rental_uris": {"android": "https://dc.lft.to/lastmile_qr_scan", "ios": "https://dc.lft.to/lastmile_qr_scan"}, "name": "a80b56280510d83d6eb54f167974e0c2", "is_reserved": 0}, {"is_disabled": 0, "fusion_lon": 0.0, "fusion_lat": 0.0, "lat": 38.91805883333333, "type": "electric_scooter", "lon": -77.024459, "bike_id": "45c62099087df991a3c196eb7b62d6c8", "rental_uris": {"android": "https://dc.lft.to/lastmile_qr_scan", "ios": "https://dc.lft.to/lastmile_qr_scan"}, "name": "45c62099087df991a3c196eb7b62d6c8", "is_reserved": 0}, {"is_disabled": 0, "fusion_lon": 0.0, "fusion_lat": 0.0, "lat": 38.908806, "type": "electric_scooter", "lon": -77.00275, "bike_id": "bb2e2bf0791a234ac69d0ad304a87201", "rental_uris": {"android": "https://dc.lft.to/lastmile_qr_scan", "ios": "https://dc.lft.to/lastmile_qr_scan"}, "name": "bb2e2bf0791a234ac69d0ad304a87201", "is_reserved": 0}, {"is_disabled": 0, "fusion_lon": 0.0, "fusion_lat": 0.0, "lat": 38.863434833333336, "type": "electric_scooter", "lon": -76.98259183333333, "bike_id": "4184681b11b25f02e64dcced0ffb4680", "rental_uris": {"android": "https://dc.lft.to/lastmile_qr_scan", "ios": "https://dc.lft.to/lastmile_qr_scan"}, "name": "4184681b11b25f02e64dcced0ffb4680", "is_reserved": 0}, {"is_disabled": 0, "fusion_lon": 0.0, "fusion_lat": 0.0, "lat": 38.88723816666667, "type": "electric_scooter", "lon": -77.02203966666667, "bike_id": "860fe15813e43e34259f84daf22fec99", "rental_uris": {"android": "https://dc.lft.to/lastmile_qr_scan", "ios": "https://dc.lft.to/lastmile_qr_scan"}, "name": "860fe15813e43e34259f84daf22fec99", "is_reserved": 0}, {"is_disabled": 0, "fusion_lon": 0.0, "fusion_lat": 0.0, "lat": 38.9203325, "type": "electric_scooter", "lon": -77.02586616666666, "bike_id": "c5578d5670b15f87173c789e8a2ad96f", "rental_uris": {"android": "https://dc.lft.to/lastmile_qr_scan", "ios": "https://dc.lft.to/lastmile_qr_scan"}, "name": "c5578d5670b15f87173c789e8a2ad96f", "is_reserved": 0}, {"is_disabled": 0, "fusion_lon": 0.0, "fusion_lat": 0.0, "lat": 38.919863666666664, "type": "electric_bike", "lon": -76.9731355, "bike_id": "5a90b52b45f64c15547b0422e095adda", "rental_uris": {"android": "https://dc.lft.to/lastmile_qr_scan", "ios": "https://dc.lft.to/lastmile_qr_scan"}, "name": "5a90b52b45f64c15547b0422e095adda", "is_reserved": 0}, {"is_disabled": 0, "fusion_lon": 0.0, "fusion_lat": 0.0, "lat": 38.897381833333334, "type": "electric_scooter", "lon": -77.02172, "bike_id": "c45637b3d37b8e09ed0859371138f53e", "rental_uris": {"android": "https://dc.lft.to/lastmile_qr_scan", "ios": "https://dc.lft.to/lastmile_qr_scan"}, "name": "c45637b3d37b8e09ed0859371138f53e", "is_reserved": 0}, {"is_disabled": 0, "fusion_lon": 0.0, "fusion_lat": 0.0, "lat": 38.978419333333335, "type": "electric_bike", "lon": -77.09127616666666, "bike_id": "49898f4b119f5c6f6f5c09e1fc918ba5", "rental_uris": {"android": "https://dc.lft.to/lastmile_qr_scan", "ios": "https://dc.lft.to/lastmile_qr_scan"}, "name": "49898f4b119f5c6f6f5c09e1fc918ba5", "is_reserved": 0}, {"is_disabled": 0, "fusion_lon": 0.0, "fusion_lat": 0.0, "lat": 38.93375866666667, "type": "electric_scooter", "lon": -77.07259666666667, "bike_id": "475bf6ac4e5105176a4ac0bd251b87b1", "rental_uris": {"android": "https://dc.lft.to/lastmile_qr_scan", "ios": "https://dc.lft.to/lastmile_qr_scan"}, "name": "475bf6ac4e5105176a4ac0bd251b87b1", "is_reserved": 0}, {"is_disabled": 0, "fusion_lon": 0.0, "fusion_lat": 0.0, "lat": 38.917690666666665, "type": "electric_scooter", "lon": -77.03603616666666, "bike_id": "cc767def588bfe259f917f33cc94a968", "rental_uris": {"android": "https://dc.lft.to/lastmile_qr_scan", "ios": "https://dc.lft.to/lastmile_qr_scan"}, "name": "cc767def588bfe259f917f33cc94a968", "is_reserved": 0}, {"is_disabled": 0, "fusion_lon": 0.0, "fusion_lat": 0.0, "lat": 38.91588866666667, "type": "electric_bike", "lon": -76.97148466666667, "bike_id": "1970d5ec8e97e7ea781cf42fbe666a38", "rental_uris": {"android": "https://dc.lft.to/lastmile_qr_scan", "ios": "https://dc.lft.to/lastmile_qr_scan"}, "name": "1970d5ec8e97e7ea781cf42fbe666a38", "is_reserved": 0}, {"is_disabled": 0, "fusion_lon": 0.0, "fusion_lat": 0.0, "lat": 38.92293683333333, "type": "electric_bike", "lon": -76.99767516666667, "bike_id": "05c1e1f38baf580cf2955a479d9e4fd7", "rental_uris": {"android": "https://dc.lft.to/lastmile_qr_scan", "ios": "https://dc.lft.to/lastmile_qr_scan"}, "name": "05c1e1f38baf580cf2955a479d9e4fd7", "is_reserved": 0}, {"is_disabled": 0, "fusion_lon": 0.0, "fusion_lat": 0.0, "lat": 38.918436166666666, "type": "electric_scooter", "lon": -77.03208633333334, "bike_id": "39703654c88af0d341f3e4977f930c95", "rental_uris": {"android": "https://dc.lft.to/lastmile_qr_scan", "ios": "https://dc.lft.to/lastmile_qr_scan"}, "name": "39703654c88af0d341f3e4977f930c95", "is_reserved": 0}, {"is_disabled": 0, "fusion_lon": 0.0, "fusion_lat": 0.0, "lat": 38.9753965, "type": "electric_bike", "lon": -76.99531733333333, "bike_id": "68aabeb241446d2e54d8352104a17aaf", "rental_uris": {"android": "https://dc.lft.to/lastmile_qr_scan", "ios": "https://dc.lft.to/lastmile_qr_scan"}, "name": "68aabeb241446d2e54d8352104a17aaf", "is_reserved": 0}, {"is_disabled": 0, "fusion_lon": 0.0, "fusion_lat": 0.0, "lat": 38.935799333333335, "type": "electric_bike", "lon": -77.08265466666667, "bike_id": "b218e99d4457cc7f5bbc2d7294019102", "rental_uris": {"android": "https://dc.lft.to/lastmile_qr_scan", "ios": "https://dc.lft.to/lastmile_qr_scan"}, "name": "b218e99d4457cc7f5bbc2d7294019102", "is_reserved": 0}, {"is_disabled": 0, "fusion_lon": 0.0, "fusion_lat": 0.0, "lat": 38.8691145, "type": "electric_bike", "lon": -77.131844, "bike_id": "cfa7e5dd03da768154df50947cccd866", "rental_uris": {"android": "https://dc.lft.to/lastmile_qr_scan", "ios": "https://dc.lft.to/lastmile_qr_scan"}, "name": "cfa7e5dd03da768154df50947cccd866", "is_reserved": 0}, {"is_disabled": 0, "fusion_lon": 0.0, "fusion_lat": 0.0, "lat": 38.91111333333333, "type": "electric_scooter", "lon": -77.00348283333334, "bike_id": "881bdee597520846c282f26f7e68c96b", "rental_uris": {"android": "https://dc.lft.to/lastmile_qr_scan", "ios": "https://dc.lft.to/lastmile_qr_scan"}, "name": "881bdee597520846c282f26f7e68c96b", "is_reserved": 0}, {"is_disabled": 0, "fusion_lon": 0.0, "fusion_lat": 0.0, "lat": 38.90839116666667, "type": "electric_scooter", "lon": -77.02699516666667, "bike_id": "87de7d083a07a046a58a13b78c259c3c", "rental_uris": {"android": "https://dc.lft.to/lastmile_qr_scan", "ios": "https://dc.lft.to/lastmile_qr_scan"}, "name": "87de7d083a07a046a58a13b78c259c3c", "is_reserved": 0}, {"is_disabled": 0, "fusion_lon": 0.0, "fusion_lat": 0.0, "lat": 38.92288966666667, "type": "electric_scooter", "lon": -77.04232283333333, "bike_id": "4d4a10ceb82a3db64411596bf40164e7", "rental_uris": {"android": "https://dc.lft.to/lastmile_qr_scan", "ios": "https://dc.lft.to/lastmile_qr_scan"}, "name": "4d4a10ceb82a3db64411596bf40164e7", "is_reserved": 0}, {"is_disabled": 0, "fusion_lon": 0.0, "fusion_lat": 0.0, "lat": 38.91271366666667, "type": "electric_scooter", "lon": -77.0222355, "bike_id": "de3842a85411edc1bf9491692166602a", "rental_uris": {"android": "https://dc.lft.to/lastmile_qr_scan", "ios": "https://dc.lft.to/lastmile_qr_scan"}, "name": "de3842a85411edc1bf9491692166602a", "is_reserved": 0}, {"is_disabled": 0, "fusion_lon": 0.0, "fusion_lat": 0.0, "lat": 38.9001655, "type": "electric_scooter", "lon": -77.00217283333333, "bike_id": "b6e82b7dba3c21edbe2192b63de0233f", "rental_uris": {"android": "https://dc.lft.to/lastmile_qr_scan", "ios": "https://dc.lft.to/lastmile_qr_scan"}, "name": "b6e82b7dba3c21edbe2192b63de0233f", "is_reserved": 0}, {"is_disabled": 0, "fusion_lon": 0.0, "fusion_lat": 0.0, "lat": 38.9012945, "type": "electric_scooter", "lon": -77.019705, "bike_id": "e25568e52ef378efbb82cd8218ed9349", "rental_uris": {"android": "https://dc.lft.to/lastmile_qr_scan", "ios": "https://dc.lft.to/lastmile_qr_scan"}, "name": "e25568e52ef378efbb82cd8218ed9349", "is_reserved": 0}, {"is_disabled": 0, "fusion_lon": 0.0, "fusion_lat": 0.0, "lat": 38.93554016666667, "type": "electric_scooter", "lon": -77.02222766666667, "bike_id": "e853e6ecdef1929fbb872c63697c2163", "rental_uris": {"android": "https://dc.lft.to/lastmile_qr_scan", "ios": "https://dc.lft.to/lastmile_qr_scan"}, "name": "e853e6ecdef1929fbb872c63697c2163", "is_reserved": 0}, {"is_disabled": 0, "fusion_lon": 0.0, "fusion_lat": 0.0, "lat": 38.934904833333334, "type": "electric_scooter", "lon": -77.03428533333333, "bike_id": "2ec16397c239310bdb2b869b018023cd", "rental_uris": {"android": "https://dc.lft.to/lastmile_qr_scan", "ios": "https://dc.lft.to/lastmile_qr_scan"}, "name": "2ec16397c239310bdb2b869b018023cd", "is_reserved": 0}, {"is_disabled": 0, "fusion_lon": 0.0, "fusion_lat": 0.0, "lat": 38.9040605, "type": "electric_scooter", "lon": -77.03292166666667, "bike_id": "27a4e66d690e45d21cd22904bbf0e925", "rental_uris": {"android": "https://dc.lft.to/lastmile_qr_scan", "ios": "https://dc.lft.to/lastmile_qr_scan"}, "name": "27a4e66d690e45d21cd22904bbf0e925", "is_reserved": 0}, {"is_disabled": 0, "fusion_lon": 0.0, "fusion_lat": 0.0, "lat": 38.93003066666667, "type": "electric_scooter", "lon": -77.022069, "bike_id": "2e0ec3a52d34e0601632965c5ec5086b", "rental_uris": {"android": "https://dc.lft.to/lastmile_qr_scan", "ios": "https://dc.lft.to/lastmile_qr_scan"}, "name": "2e0ec3a52d34e0601632965c5ec5086b", "is_reserved": 0}, {"is_disabled": 0, "fusion_lon": 0.0, "fusion_lat": 0.0, "lat": 38.8962625, "type": "electric_scooter", "lon": -77.00900416666667, "bike_id": "f609ce0686506145d37fc910bab70c19", "rental_uris": {"android": "https://dc.lft.to/lastmile_qr_scan", "ios": "https://dc.lft.to/lastmile_qr_scan"}, "name": "f609ce0686506145d37fc910bab70c19", "is_reserved": 0}, {"is_disabled": 0, "fusion_lon": 0.0, "fusion_lat": 0.0, "lat": 38.92458366666666, "type": "electric_scooter", "lon": -77.02965383333333, "bike_id": "32a366e88a118f22995c27c98eabb0ad", "rental_uris": {"android": "https://dc.lft.to/lastmile_qr_scan", "ios": "https://dc.lft.to/lastmile_qr_scan"}, "name": "32a366e88a118f22995c27c98eabb0ad", "is_reserved": 0}, {"is_disabled": 0, "fusion_lon": 0.0, "fusion_lat": 0.0, "lat": 38.909714, "type": "electric_scooter", "lon": -77.03873066666667, "bike_id": "a04f6226a4136443a7fcbebc8e8456a3", "rental_uris": {"android": "https://dc.lft.to/lastmile_qr_scan", "ios": "https://dc.lft.to/lastmile_qr_scan"}, "name": "a04f6226a4136443a7fcbebc8e8456a3", "is_reserved": 0}, {"is_disabled": 0, "fusion_lon": 0.0, "fusion_lat": 0.0, "lat": 38.875152666666665, "type": "electric_scooter", "lon": -77.01382833333334, "bike_id": "40bd188d8855e7861f09dcf351f816f3", "rental_uris": {"android": "https://dc.lft.to/lastmile_qr_scan", "ios": "https://dc.lft.to/lastmile_qr_scan"}, "name": "40bd188d8855e7861f09dcf351f816f3", "is_reserved": 0}, {"is_disabled": 0, "fusion_lon": 0.0, "fusion_lat": 0.0, "lat": 38.896679666666664, "type": "electric_scooter", "lon": -77.043496, "bike_id": "ef6eeecfb84f83f9d7ab2d70c782e338", "rental_uris": {"android": "https://dc.lft.to/lastmile_qr_scan", "ios": "https://dc.lft.to/lastmile_qr_scan"}, "name": "ef6eeecfb84f83f9d7ab2d70c782e338", "is_reserved": 0}, {"is_disabled": 0, "fusion_lon": 0.0, "fusion_lat": 0.0, "lat": 38.92609266666667, "type": "electric_scooter", "lon": -77.04190083333333, "bike_id": "6494a7477183ecbaefb1b4fa39eb8f04", "rental_uris": {"android": "https://dc.lft.to/lastmile_qr_scan", "ios": "https://dc.lft.to/lastmile_qr_scan"}, "name": "6494a7477183ecbaefb1b4fa39eb8f04", "is_reserved": 0}, {"is_disabled": 0, "fusion_lon": 0.0, "fusion_lat": 0.0, "lat": 38.99667316666667, "type": "electric_bike", "lon": -76.991421, "bike_id": "938dce1fd22be2c83774cae9f6b0b98b", "rental_uris": {"android": "https://dc.lft.to/lastmile_qr_scan", "ios": "https://dc.lft.to/lastmile_qr_scan"}, "name": "938dce1fd22be2c83774cae9f6b0b98b", "is_reserved": 0}, {"is_disabled": 0, "fusion_lon": 0.0, "fusion_lat": 0.0, "lat": 38.94454866666667, "type": "electric_scooter", "lon": -77.06022466666667, "bike_id": "16ba5efb54a6c85a464da9accea07758", "rental_uris": {"android": "https://dc.lft.to/lastmile_qr_scan", "ios": "https://dc.lft.to/lastmile_qr_scan"}, "name": "16ba5efb54a6c85a464da9accea07758", "is_reserved": 0}, {"is_disabled": 0, "fusion_lon": 0.0, "fusion_lat": 0.0, "lat": 38.93358, "type": "electric_scooter", "lon": -77.07375783333333, "bike_id": "d816cd33667f96865c16141d15800668", "rental_uris": {"android": "https://dc.lft.to/lastmile_qr_scan", "ios": "https://dc.lft.to/lastmile_qr_scan"}, "name": "d816cd33667f96865c16141d15800668", "is_reserved": 0}, {"is_disabled": 0, "fusion_lon": 0.0, "fusion_lat": 0.0, "lat": 38.905366, "type": "electric_scooter", "lon": -77.02696933333333, "bike_id": "b7db887127ade9b2e4cd53586b4e9401", "rental_uris": {"android": "https://dc.lft.to/lastmile_qr_scan", "ios": "https://dc.lft.to/lastmile_qr_scan"}, "name": "b7db887127ade9b2e4cd53586b4e9401", "is_reserved": 0}, {"is_disabled": 0, "fusion_lon": 0.0, "fusion_lat": 0.0, "lat": 38.949812, "type": "electric_scooter", "lon": -77.027018, "bike_id": "01e30941abd0d659c8e0aa17c9f7a143", "rental_uris": {"android": "https://dc.lft.to/lastmile_qr_scan", "ios": "https://dc.lft.to/lastmile_qr_scan"}, "name": "01e30941abd0d659c8e0aa17c9f7a143", "is_reserved": 0}, {"is_disabled": 0, "fusion_lon": 0.0, "fusion_lat": 0.0, "lat": 38.91527816666667, "type": "electric_scooter", "lon": -77.01845916666667, "bike_id": "b6ce9a83c94148347131f76026090ab2", "rental_uris": {"android": "https://dc.lft.to/lastmile_qr_scan", "ios": "https://dc.lft.to/lastmile_qr_scan"}, "name": "b6ce9a83c94148347131f76026090ab2", "is_reserved": 0}, {"is_disabled": 0, "fusion_lon": 0.0, "fusion_lat": 0.0, "lat": 38.9118735, "type": "electric_scooter", "lon": -77.00450083333334, "bike_id": "4b1bfb8155a7ac6feb60b8b0e61c2aed", "rental_uris": {"android": "https://dc.lft.to/lastmile_qr_scan", "ios": "https://dc.lft.to/lastmile_qr_scan"}, "name": "4b1bfb8155a7ac6feb60b8b0e61c2aed", "is_reserved": 0}, {"is_disabled": 0, "fusion_lon": 0.0, "fusion_lat": 0.0, "lat": 38.935425, "type": "electric_scooter", "lon": -77.0342175, "bike_id": "aaa56b892151df415500dd4eb5cb7b19", "rental_uris": {"android": "https://dc.lft.to/lastmile_qr_scan", "ios": "https://dc.lft.to/lastmile_qr_scan"}, "name": "aaa56b892151df415500dd4eb5cb7b19", "is_reserved": 0}, {"is_disabled": 0, "fusion_lon": 0.0, "fusion_lat": 0.0, "lat": 38.9205975, "type": "electric_scooter", "lon": -77.0435655, "bike_id": "f18a3457804e7e4df73132d8b89cec6f", "rental_uris": {"android": "https://dc.lft.to/lastmile_qr_scan", "ios": "https://dc.lft.to/lastmile_qr_scan"}, "name": "f18a3457804e7e4df73132d8b89cec6f", "is_reserved": 0}, {"is_disabled": 0, "fusion_lon": 0.0, "fusion_lat": 0.0, "lat": 38.895572333333334, "type": "electric_scooter", "lon": -77.01096516666667, "bike_id": "6e8b9ba286f450bf555ad21ebd1fee1a", "rental_uris": {"android": "https://dc.lft.to/lastmile_qr_scan", "ios": "https://dc.lft.to/lastmile_qr_scan"}, "name": "6e8b9ba286f450bf555ad21ebd1fee1a", "is_reserved": 0}, {"is_disabled": 0, "fusion_lon": 0.0, "fusion_lat": 0.0, "lat": 38.9192825, "type": "electric_scooter", "lon": -77.03036933333334, "bike_id": "d7677a5e2e18fea6729bfd10a6bef694", "rental_uris": {"android": "https://dc.lft.to/lastmile_qr_scan", "ios": "https://dc.lft.to/lastmile_qr_scan"}, "name": "d7677a5e2e18fea6729bfd10a6bef694", "is_reserved": 0}, {"is_disabled": 0, "fusion_lon": 0.0, "fusion_lat": 0.0, "lat": 38.89963766666666, "type": "electric_scooter", "lon": -77.01616283333334, "bike_id": "ba4f20d6ee09b7c5039bf0c61bf5fb7a", "rental_uris": {"android": "https://dc.lft.to/lastmile_qr_scan", "ios": "https://dc.lft.to/lastmile_qr_scan"}, "name": "ba4f20d6ee09b7c5039bf0c61bf5fb7a", "is_reserved": 0}, {"is_disabled": 0, "fusion_lon": 0.0, "fusion_lat": 0.0, "lat": 38.9002585, "type": "electric_scooter", "lon": -77.00203733333333, "bike_id": "339819707ad10adfece00aad3b1a5f72", "rental_uris": {"android": "https://dc.lft.to/lastmile_qr_scan", "ios": "https://dc.lft.to/lastmile_qr_scan"}, "name": "339819707ad10adfece00aad3b1a5f72", "is_reserved": 0}, {"is_disabled": 0, "fusion_lon": 0.0, "fusion_lat": 0.0, "lat": 38.920541, "type": "electric_scooter", "lon": -77.03393266666667, "bike_id": "68c5a1461208ffe1dee8ed74f91d95f1", "rental_uris": {"android": "https://dc.lft.to/lastmile_qr_scan", "ios": "https://dc.lft.to/lastmile_qr_scan"}, "name": "68c5a1461208ffe1dee8ed74f91d95f1", "is_reserved": 0}, {"is_disabled": 0, "fusion_lon": 0.0, "fusion_lat": 0.0, "lat": 38.931735, "type": "electric_scooter", "lon": -77.02819116666667, "bike_id": "b0bbef868c09569e5d35c3867df4a7c1", "rental_uris": {"android": "https://dc.lft.to/lastmile_qr_scan", "ios": "https://dc.lft.to/lastmile_qr_scan"}, "name": "b0bbef868c09569e5d35c3867df4a7c1", "is_reserved": 0}, {"is_disabled": 0, "fusion_lon": 0.0, "fusion_lat": 0.0, "lat": 38.900943166666664, "type": "electric_scooter", "lon": -76.98834083333334, "bike_id": "eb1c34843d3e3d98d8b6abd73b0baf60", "rental_uris": {"android": "https://dc.lft.to/lastmile_qr_scan", "ios": "https://dc.lft.to/lastmile_qr_scan"}, "name": "eb1c34843d3e3d98d8b6abd73b0baf60", "is_reserved": 0}, {"is_disabled": 0, "fusion_lon": 0.0, "fusion_lat": 0.0, "lat": 38.833750333333334, "type": "electric_scooter", "lon": -76.992939, "bike_id": "8db60dca2840b7b70e93bc70e4bdd9ae", "rental_uris": {"android": "https://dc.lft.to/lastmile_qr_scan", "ios": "https://dc.lft.to/lastmile_qr_scan"}, "name": "8db60dca2840b7b70e93bc70e4bdd9ae", "is_reserved": 0}, {"is_disabled": 0, "fusion_lon": 0.0, "fusion_lat": 0.0, "lat": 38.916176166666666, "type": "electric_scooter", "lon": -77.048666, "bike_id": "03ae54cbe69fac66e0eae33a63939b1d", "rental_uris": {"android": "https://dc.lft.to/lastmile_qr_scan", "ios": "https://dc.lft.to/lastmile_qr_scan"}, "name": "03ae54cbe69fac66e0eae33a63939b1d", "is_reserved": 0}, {"is_disabled": 0, "fusion_lon": 0.0, "fusion_lat": 0.0, "lat": 38.902603666666664, "type": "electric_scooter", "lon": -77.033107, "bike_id": "733a4f13f8e0a7634d4b09881792103d", "rental_uris": {"android": "https://dc.lft.to/lastmile_qr_scan", "ios": "https://dc.lft.to/lastmile_qr_scan"}, "name": "733a4f13f8e0a7634d4b09881792103d", "is_reserved": 0}, {"is_disabled": 0, "fusion_lon": 0.0, "fusion_lat": 0.0, "lat": 38.918813666666665, "type": "electric_scooter", "lon": -77.01782983333334, "bike_id": "ad3975665857b1e9e1b3330f0a153829", "rental_uris": {"android": "https://dc.lft.to/lastmile_qr_scan", "ios": "https://dc.lft.to/lastmile_qr_scan"}, "name": "ad3975665857b1e9e1b3330f0a153829", "is_reserved": 0}, {"is_disabled": 0, "fusion_lon": 0.0, "fusion_lat": 0.0, "lat": 38.9142515, "type": "electric_scooter", "lon": -77.03462933333333, "bike_id": "ba9e90a1577e1afc37bc25ae95995ed3", "rental_uris": {"android": "https://dc.lft.to/lastmile_qr_scan", "ios": "https://dc.lft.to/lastmile_qr_scan"}, "name": "ba9e90a1577e1afc37bc25ae95995ed3", "is_reserved": 0}, {"is_disabled": 0, "fusion_lon": 0.0, "fusion_lat": 0.0, "lat": 38.89225666666667, "type": "electric_scooter", "lon": -77.03336883333333, "bike_id": "44bc91d9e936645b005efcc65b4608f5", "rental_uris": {"android": "https://dc.lft.to/lastmile_qr_scan", "ios": "https://dc.lft.to/lastmile_qr_scan"}, "name": "44bc91d9e936645b005efcc65b4608f5", "is_reserved": 0}, {"is_disabled": 0, "fusion_lon": 0.0, "fusion_lat": 0.0, "lat": 38.941949, "type": "electric_scooter", "lon": -77.02394783333334, "bike_id": "24999e50ade48f50835605b33b061892", "rental_uris": {"android": "https://dc.lft.to/lastmile_qr_scan", "ios": "https://dc.lft.to/lastmile_qr_scan"}, "name": "24999e50ade48f50835605b33b061892", "is_reserved": 0}, {"is_disabled": 0, "fusion_lon": 0.0, "fusion_lat": 0.0, "lat": 38.8586875, "type": "electric_scooter", "lon": -76.990228, "bike_id": "540f7c073a4fc7a9189d073747cc7728", "rental_uris": {"android": "https://dc.lft.to/lastmile_qr_scan", "ios": "https://dc.lft.to/lastmile_qr_scan"}, "name": "540f7c073a4fc7a9189d073747cc7728", "is_reserved": 0}, {"is_disabled": 0, "fusion_lon": 0.0, "fusion_lat": 0.0, "lat": 38.930997166666664, "type": "electric_scooter", "lon": -77.03818566666666, "bike_id": "831ada214f120ba89bb5f757f8206337", "rental_uris": {"android": "https://dc.lft.to/lastmile_qr_scan", "ios": "https://dc.lft.to/lastmile_qr_scan"}, "name": "831ada214f120ba89bb5f757f8206337", "is_reserved": 0}, {"is_disabled": 0, "fusion_lon": 0.0, "fusion_lat": 0.0, "lat": 38.9070275, "type": "electric_scooter", "lon": -77.06308533333333, "bike_id": "827eabb7bdaff7711d0344601887cfeb", "rental_uris": {"android": "https://dc.lft.to/lastmile_qr_scan", "ios": "https://dc.lft.to/lastmile_qr_scan"}, "name": "827eabb7bdaff7711d0344601887cfeb", "is_reserved": 0}, {"is_disabled": 0, "fusion_lon": 0.0, "fusion_lat": 0.0, "lat": 38.907671, "type": "electric_scooter", "lon": -77.031864, "bike_id": "76f00882e1d3dd411ad712836beb2174", "rental_uris": {"android": "https://dc.lft.to/lastmile_qr_scan", "ios": "https://dc.lft.to/lastmile_qr_scan"}, "name": "76f00882e1d3dd411ad712836beb2174", "is_reserved": 0}, {"is_disabled": 0, "fusion_lon": 0.0, "fusion_lat": 0.0, "lat": 38.897535500000004, "type": "electric_scooter", "lon": -77.02898966666666, "bike_id": "1fccf8564d61c9cb6adb0b186b429189", "rental_uris": {"android": "https://dc.lft.to/lastmile_qr_scan", "ios": "https://dc.lft.to/lastmile_qr_scan"}, "name": "1fccf8564d61c9cb6adb0b186b429189", "is_reserved": 0}, {"is_disabled": 0, "fusion_lon": 0.0, "fusion_lat": 0.0, "lat": 38.958836, "type": "electric_bike", "lon": -76.92503733333334, "bike_id": "f6b83f379ba8b9276eb10cdde86f4599", "rental_uris": {"android": "https://dc.lft.to/lastmile_qr_scan", "ios": "https://dc.lft.to/lastmile_qr_scan"}, "name": "f6b83f379ba8b9276eb10cdde86f4599", "is_reserved": 0}, {"is_disabled": 0, "fusion_lon": 0.0, "fusion_lat": 0.0, "lat": 38.89738583333333, "type": "electric_scooter", "lon": -77.02511033333333, "bike_id": "7409a28d7a141589a19850902f804afb", "rental_uris": {"android": "https://dc.lft.to/lastmile_qr_scan", "ios": "https://dc.lft.to/lastmile_qr_scan"}, "name": "7409a28d7a141589a19850902f804afb", "is_reserved": 0}, {"is_disabled": 0, "fusion_lon": 0.0, "fusion_lat": 0.0, "lat": 38.89372133333333, "type": "electric_scooter", "lon": -76.97818316666667, "bike_id": "4e9d5c9e5db54cbfe7d40a0800aa8f98", "rental_uris": {"android": "https://dc.lft.to/lastmile_qr_scan", "ios": "https://dc.lft.to/lastmile_qr_scan"}, "name": "4e9d5c9e5db54cbfe7d40a0800aa8f98", "is_reserved": 0}, {"is_disabled": 0, "fusion_lon": 0.0, "fusion_lat": 0.0, "lat": 38.89309333333333, "type": "electric_scooter", "lon": -77.02203816666666, "bike_id": "859b71982e7f3647367ec44b525e325e", "rental_uris": {"android": "https://dc.lft.to/lastmile_qr_scan", "ios": "https://dc.lft.to/lastmile_qr_scan"}, "name": "859b71982e7f3647367ec44b525e325e", "is_reserved": 0}, {"is_disabled": 0, "fusion_lon": 0.0, "fusion_lat": 0.0, "lat": 38.916576166666665, "type": "electric_scooter", "lon": -77.04654633333334, "bike_id": "9bdba90691eeed99a08dbccbf83037ca", "rental_uris": {"android": "https://dc.lft.to/lastmile_qr_scan", "ios": "https://dc.lft.to/lastmile_qr_scan"}, "name": "9bdba90691eeed99a08dbccbf83037ca", "is_reserved": 0}, {"is_disabled": 0, "fusion_lon": 0.0, "fusion_lat": 0.0, "lat": 38.90523666666667, "type": "electric_scooter", "lon": -77.0504075, "bike_id": "1df174754ec8f9b217b245ab12840f66", "rental_uris": {"android": "https://dc.lft.to/lastmile_qr_scan", "ios": "https://dc.lft.to/lastmile_qr_scan"}, "name": "1df174754ec8f9b217b245ab12840f66", "is_reserved": 0}, {"is_disabled": 0, "fusion_lon": 0.0, "fusion_lat": 0.0, "lat": 38.885234, "type": "electric_scooter", "lon": -76.9980405, "bike_id": "9bd6a8e5b76b4bb4898e028ce7beb62e", "rental_uris": {"android": "https://dc.lft.to/lastmile_qr_scan", "ios": "https://dc.lft.to/lastmile_qr_scan"}, "name": "9bd6a8e5b76b4bb4898e028ce7beb62e", "is_reserved": 0}, {"is_disabled": 0, "fusion_lon": 0.0, "fusion_lat": 0.0, "lat": 38.916915, "type": "electric_scooter", "lon": -77.02601033333333, "bike_id": "51b6c6c1c0f41c308cd37d6bf2b55791", "rental_uris": {"android": "https://dc.lft.to/lastmile_qr_scan", "ios": "https://dc.lft.to/lastmile_qr_scan"}, "name": "51b6c6c1c0f41c308cd37d6bf2b55791", "is_reserved": 0}, {"is_disabled": 0, "fusion_lon": 0.0, "fusion_lat": 0.0, "lat": 38.9602375, "type": "electric_bike", "lon": -76.92739366666666, "bike_id": "8fb8d60904c9de5e0872d4a95c9e143c", "rental_uris": {"android": "https://dc.lft.to/lastmile_qr_scan", "ios": "https://dc.lft.to/lastmile_qr_scan"}, "name": "8fb8d60904c9de5e0872d4a95c9e143c", "is_reserved": 0}, {"is_disabled": 0, "fusion_lon": 0.0, "fusion_lat": 0.0, "lat": 38.939607333333335, "type": "electric_bike", "lon": -77.3607915, "bike_id": "55770cd3ae86c46b68ffc322fc6e404f", "rental_uris": {"android": "https://dc.lft.to/lastmile_qr_scan", "ios": "https://dc.lft.to/lastmile_qr_scan"}, "name": "55770cd3ae86c46b68ffc322fc6e404f", "is_reserved": 0}, {"is_disabled": 0, "fusion_lon": 0.0, "fusion_lat": 0.0, "lat": 38.920967, "type": "electric_scooter", "lon": -77.01790666666666, "bike_id": "f08564c5654d6ed4eef19783b33a843c", "rental_uris": {"android": "https://dc.lft.to/lastmile_qr_scan", "ios": "https://dc.lft.to/lastmile_qr_scan"}, "name": "f08564c5654d6ed4eef19783b33a843c", "is_reserved": 0}, {"is_disabled": 0, "fusion_lon": 0.0, "fusion_lat": 0.0, "lat": 38.87763916666667, "type": "electric_bike", "lon": -76.97993283333334, "bike_id": "70476eee61171b9bb046bfee3f251cc2", "rental_uris": {"android": "https://dc.lft.to/lastmile_qr_scan", "ios": "https://dc.lft.to/lastmile_qr_scan"}, "name": "70476eee61171b9bb046bfee3f251cc2", "is_reserved": 0}, {"is_disabled": 0, "fusion_lon": 0.0, "fusion_lat": 0.0, "lat": 38.925653, "type": "electric_scooter", "lon": -77.08053683333333, "bike_id": "961b4b0c3c1b47e3bcc03a17a33e02df", "rental_uris": {"android": "https://dc.lft.to/lastmile_qr_scan", "ios": "https://dc.lft.to/lastmile_qr_scan"}, "name": "961b4b0c3c1b47e3bcc03a17a33e02df", "is_reserved": 0}, {"is_disabled": 0, "fusion_lon": 0.0, "fusion_lat": 0.0, "lat": 38.924626833333335, "type": "electric_scooter", "lon": -77.07867133333333, "bike_id": "21b8d7964858729afe8b4a508fbb10fa", "rental_uris": {"android": "https://dc.lft.to/lastmile_qr_scan", "ios": "https://dc.lft.to/lastmile_qr_scan"}, "name": "21b8d7964858729afe8b4a508fbb10fa", "is_reserved": 0}, {"is_disabled": 0, "fusion_lon": 0.0, "fusion_lat": 0.0, "lat": 38.9057625, "type": "electric_scooter", "lon": -77.05593466666667, "bike_id": "9a8978575ef7191f7d5d5abf9448d84c", "rental_uris": {"android": "https://dc.lft.to/lastmile_qr_scan", "ios": "https://dc.lft.to/lastmile_qr_scan"}, "name": "9a8978575ef7191f7d5d5abf9448d84c", "is_reserved": 0}, {"is_disabled": 0, "fusion_lon": 0.0, "fusion_lat": 0.0, "lat": 38.922847833333336, "type": "electric_scooter", "lon": -77.04463333333334, "bike_id": "5337d3bd32fa763f29e0911d62df9551", "rental_uris": {"android": "https://dc.lft.to/lastmile_qr_scan", "ios": "https://dc.lft.to/lastmile_qr_scan"}, "name": "5337d3bd32fa763f29e0911d62df9551", "is_reserved": 0}, {"is_disabled": 0, "fusion_lon": 0.0, "fusion_lat": 0.0, "lat": 38.9028475, "type": "electric_scooter", "lon": -77.04885433333334, "bike_id": "de22bfa6555dc3592723531f3b1f14cc", "rental_uris": {"android": "https://dc.lft.to/lastmile_qr_scan", "ios": "https://dc.lft.to/lastmile_qr_scan"}, "name": "de22bfa6555dc3592723531f3b1f14cc", "is_reserved": 0}, {"is_disabled": 0, "fusion_lon": 0.0, "fusion_lat": 0.0, "lat": 38.85318433333333, "type": "electric_bike", "lon": -77.05335016666666, "bike_id": "a9d420c03480d94d43d78bd935f8e2a3", "rental_uris": {"android": "https://dc.lft.to/lastmile_qr_scan", "ios": "https://dc.lft.to/lastmile_qr_scan"}, "name": "a9d420c03480d94d43d78bd935f8e2a3", "is_reserved": 0}, {"is_disabled": 0, "fusion_lon": 0.0, "fusion_lat": 0.0, "lat": 38.91458566666667, "type": "electric_scooter", "lon": -76.984543, "bike_id": "f273d7e0d4e03f8e1abdcbc10a70c93b", "rental_uris": {"android": "https://dc.lft.to/lastmile_qr_scan", "ios": "https://dc.lft.to/lastmile_qr_scan"}, "name": "f273d7e0d4e03f8e1abdcbc10a70c93b", "is_reserved": 0}, {"is_disabled": 0, "fusion_lon": 0.0, "fusion_lat": 0.0, "lat": 38.94070633333333, "type": "electric_scooter", "lon": -77.02882016666666, "bike_id": "60ae21f9a02ef9b61252c4390b131ceb", "rental_uris": {"android": "https://dc.lft.to/lastmile_qr_scan", "ios": "https://dc.lft.to/lastmile_qr_scan"}, "name": "60ae21f9a02ef9b61252c4390b131ceb", "is_reserved": 0}, {"is_disabled": 0, "fusion_lon": 0.0, "fusion_lat": 0.0, "lat": 38.895450333333336, "type": "electric_scooter", "lon": -77.04852866666667, "bike_id": "474f27f5ebb222607936cf86228f23ad", "rental_uris": {"android": "https://dc.lft.to/lastmile_qr_scan", "ios": "https://dc.lft.to/lastmile_qr_scan"}, "name": "474f27f5ebb222607936cf86228f23ad", "is_reserved": 0}, {"is_disabled": 0, "fusion_lon": 0.0, "fusion_lat": 0.0, "lat": 38.923705, "type": "electric_scooter", "lon": -77.05031283333334, "bike_id": "fdaf12e10382e7b9c4a45383ddbfa81b", "rental_uris": {"android": "https://dc.lft.to/lastmile_qr_scan", "ios": "https://dc.lft.to/lastmile_qr_scan"}, "name": "fdaf12e10382e7b9c4a45383ddbfa81b", "is_reserved": 0}, {"is_disabled": 0, "fusion_lon": 0.0, "fusion_lat": 0.0, "lat": 38.904791333333336, "type": "electric_bike", "lon": -76.9505655, "bike_id": "fc788478ca43f531fbeb4a1d972bf45b", "rental_uris": {"android": "https://dc.lft.to/lastmile_qr_scan", "ios": "https://dc.lft.to/lastmile_qr_scan"}, "name": "fc788478ca43f531fbeb4a1d972bf45b", "is_reserved": 0}, {"is_disabled": 0, "fusion_lon": 0.0, "fusion_lat": 0.0, "lat": 38.9126305, "type": "electric_scooter", "lon": -77.02560016666666, "bike_id": "a11681fddcb7206ebbb180af835e106f", "rental_uris": {"android": "https://dc.lft.to/lastmile_qr_scan", "ios": "https://dc.lft.to/lastmile_qr_scan"}, "name": "a11681fddcb7206ebbb180af835e106f", "is_reserved": 0}, {"is_disabled": 0, "fusion_lon": 0.0, "fusion_lat": 0.0, "lat": 38.930331, "type": "electric_scooter", "lon": -77.03455433333333, "bike_id": "4002a5c87f59202f8bf1845a7fbfa9cb", "rental_uris": {"android": "https://dc.lft.to/lastmile_qr_scan", "ios": "https://dc.lft.to/lastmile_qr_scan"}, "name": "4002a5c87f59202f8bf1845a7fbfa9cb", "is_reserved": 0}, {"is_disabled": 0, "fusion_lon": 0.0, "fusion_lat": 0.0, "lat": 38.923826166666665, "type": "electric_scooter", "lon": -77.03023683333333, "bike_id": "06e8b21b875f135402e91613537f9993", "rental_uris": {"android": "https://dc.lft.to/lastmile_qr_scan", "ios": "https://dc.lft.to/lastmile_qr_scan"}, "name": "06e8b21b875f135402e91613537f9993", "is_reserved": 0}, {"is_disabled": 0, "fusion_lon": 0.0, "fusion_lat": 0.0, "lat": 38.962632666666664, "type": "electric_scooter", "lon": -77.02898966666666, "bike_id": "f1cc2c78e9ecf47950cdf2f657a6094d", "rental_uris": {"android": "https://dc.lft.to/lastmile_qr_scan", "ios": "https://dc.lft.to/lastmile_qr_scan"}, "name": "f1cc2c78e9ecf47950cdf2f657a6094d", "is_reserved": 0}, {"is_disabled": 0, "fusion_lon": 0.0, "fusion_lat": 0.0, "lat": 38.898344, "type": "electric_scooter", "lon": -76.9463535, "bike_id": "699607f7b63493f6793eaa1a508f9cd6", "rental_uris": {"android": "https://dc.lft.to/lastmile_qr_scan", "ios": "https://dc.lft.to/lastmile_qr_scan"}, "name": "699607f7b63493f6793eaa1a508f9cd6", "is_reserved": 0}, {"is_disabled": 0, "fusion_lon": 0.0, "fusion_lat": 0.0, "lat": 38.885339333333334, "type": "electric_scooter", "lon": -76.92709816666667, "bike_id": "1670f17622a96da29949c7a17ec0c379", "rental_uris": {"android": "https://dc.lft.to/lastmile_qr_scan", "ios": "https://dc.lft.to/lastmile_qr_scan"}, "name": "1670f17622a96da29949c7a17ec0c379", "is_reserved": 0}, {"is_disabled": 0, "fusion_lon": 0.0, "fusion_lat": 0.0, "lat": 38.827805, "type": "electric_bike", "lon": -77.110814, "bike_id": "5f1b3d272ea41b9f0c0d86c8874eab96", "rental_uris": {"android": "https://dc.lft.to/lastmile_qr_scan", "ios": "https://dc.lft.to/lastmile_qr_scan"}, "name": "5f1b3d272ea41b9f0c0d86c8874eab96", "is_reserved": 0}, {"is_disabled": 0, "fusion_lon": 0.0, "fusion_lat": 0.0, "lat": 38.90784133333333, "type": "electric_scooter", "lon": -77.03045066666667, "bike_id": "de53952ab3e15224da0df398ad23664c", "rental_uris": {"android": "https://dc.lft.to/lastmile_qr_scan", "ios": "https://dc.lft.to/lastmile_qr_scan"}, "name": "de53952ab3e15224da0df398ad23664c", "is_reserved": 0}, {"is_disabled": 0, "fusion_lon": 0.0, "fusion_lat": 0.0, "lat": 38.9181445, "type": "electric_scooter", "lon": -77.03638916666667, "bike_id": "83a7760360a070e5bfcca1fb0672b610", "rental_uris": {"android": "https://dc.lft.to/lastmile_qr_scan", "ios": "https://dc.lft.to/lastmile_qr_scan"}, "name": "83a7760360a070e5bfcca1fb0672b610", "is_reserved": 0}, {"is_disabled": 0, "fusion_lon": 0.0, "fusion_lat": 0.0, "lat": 38.939653166666666, "type": "electric_scooter", "lon": -77.03285316666667, "bike_id": "a6e9da8980aff884b0749f04c432c0f9", "rental_uris": {"android": "https://dc.lft.to/lastmile_qr_scan", "ios": "https://dc.lft.to/lastmile_qr_scan"}, "name": "a6e9da8980aff884b0749f04c432c0f9", "is_reserved": 0}, {"is_disabled": 0, "fusion_lon": 0.0, "fusion_lat": 0.0, "lat": 38.90535116666667, "type": "electric_scooter", "lon": -77.0564565, "bike_id": "40d1780659e56a51e77798f2d7c939d8", "rental_uris": {"android": "https://dc.lft.to/lastmile_qr_scan", "ios": "https://dc.lft.to/lastmile_qr_scan"}, "name": "40d1780659e56a51e77798f2d7c939d8", "is_reserved": 0}, {"is_disabled": 0, "fusion_lon": 0.0, "fusion_lat": 0.0, "lat": 38.932142, "type": "electric_scooter", "lon": -77.036583, "bike_id": "e8f89c4e68278d055f51b18e08c960df", "rental_uris": {"android": "https://dc.lft.to/lastmile_qr_scan", "ios": "https://dc.lft.to/lastmile_qr_scan"}, "name": "e8f89c4e68278d055f51b18e08c960df", "is_reserved": 0}, {"is_disabled": 0, "fusion_lon": 0.0, "fusion_lat": 0.0, "lat": 38.87496316666667, "type": "electric_scooter", "lon": -76.997971, "bike_id": "7ea6778a60605f33b794289e530ddd34", "rental_uris": {"android": "https://dc.lft.to/lastmile_qr_scan", "ios": "https://dc.lft.to/lastmile_qr_scan"}, "name": "7ea6778a60605f33b794289e530ddd34", "is_reserved": 0}, {"is_disabled": 0, "fusion_lon": 0.0, "fusion_lat": 0.0, "lat": 38.90506283333333, "type": "electric_scooter", "lon": -77.04872566666667, "bike_id": "a926b25f9308ef2ac7c1e7772583afbd", "rental_uris": {"android": "https://dc.lft.to/lastmile_qr_scan", "ios": "https://dc.lft.to/lastmile_qr_scan"}, "name": "a926b25f9308ef2ac7c1e7772583afbd", "is_reserved": 0}, {"is_disabled": 0, "fusion_lon": 0.0, "fusion_lat": 0.0, "lat": 38.908751333333335, "type": "electric_scooter", "lon": -77.04442933333333, "bike_id": "b6855d6d339dc76a7723527a72532cc0", "rental_uris": {"android": "https://dc.lft.to/lastmile_qr_scan", "ios": "https://dc.lft.to/lastmile_qr_scan"}, "name": "b6855d6d339dc76a7723527a72532cc0", "is_reserved": 0}, {"is_disabled": 0, "fusion_lon": 0.0, "fusion_lat": 0.0, "lat": 38.92998133333333, "type": "electric_scooter", "lon": -77.03803116666667, "bike_id": "99aac5d6af6cd1673108bb9f5d24c469", "rental_uris": {"android": "https://dc.lft.to/lastmile_qr_scan", "ios": "https://dc.lft.to/lastmile_qr_scan"}, "name": "99aac5d6af6cd1673108bb9f5d24c469", "is_reserved": 0}, {"is_disabled": 0, "fusion_lon": 0.0, "fusion_lat": 0.0, "lat": 38.93, "type": "electric_scooter", "lon": -77.0240575, "bike_id": "5cf859783071962b61e5a543f92885a1", "rental_uris": {"android": "https://dc.lft.to/lastmile_qr_scan", "ios": "https://dc.lft.to/lastmile_qr_scan"}, "name": "5cf859783071962b61e5a543f92885a1", "is_reserved": 0}, {"is_disabled": 0, "fusion_lon": 0.0, "fusion_lat": 0.0, "lat": 38.93559066666667, "type": "electric_scooter", "lon": -77.03444583333334, "bike_id": "67a1b6b412f7acacd1e9f7511f4cf019", "rental_uris": {"android": "https://dc.lft.to/lastmile_qr_scan", "ios": "https://dc.lft.to/lastmile_qr_scan"}, "name": "67a1b6b412f7acacd1e9f7511f4cf019", "is_reserved": 0}, {"is_disabled": 0, "fusion_lon": 0.0, "fusion_lat": 0.0, "lat": 38.8949645, "type": "electric_scooter", "lon": -77.00949683333333, "bike_id": "6a438f9fffd452d5a8681b03443c21ed", "rental_uris": {"android": "https://dc.lft.to/lastmile_qr_scan", "ios": "https://dc.lft.to/lastmile_qr_scan"}, "name": "6a438f9fffd452d5a8681b03443c21ed", "is_reserved": 0}, {"is_disabled": 0, "fusion_lon": 0.0, "fusion_lat": 0.0, "lat": 38.921178833333336, "type": "electric_scooter", "lon": -77.0120785, "bike_id": "59643798d3f6f3237209e59662300d89", "rental_uris": {"android": "https://dc.lft.to/lastmile_qr_scan", "ios": "https://dc.lft.to/lastmile_qr_scan"}, "name": "59643798d3f6f3237209e59662300d89", "is_reserved": 0}, {"is_disabled": 0, "fusion_lon": 0.0, "fusion_lat": 0.0, "lat": 38.930892666666665, "type": "electric_scooter", "lon": -77.025431, "bike_id": "1a43eda6c60edf06c7ebfa686c48b64d", "rental_uris": {"android": "https://dc.lft.to/lastmile_qr_scan", "ios": "https://dc.lft.to/lastmile_qr_scan"}, "name": "1a43eda6c60edf06c7ebfa686c48b64d", "is_reserved": 0}, {"is_disabled": 0, "fusion_lon": 0.0, "fusion_lat": 0.0, "lat": 38.93144233333334, "type": "electric_scooter", "lon": -77.07859116666667, "bike_id": "71091abdc685b4261baadfc05a617791", "rental_uris": {"android": "https://dc.lft.to/lastmile_qr_scan", "ios": "https://dc.lft.to/lastmile_qr_scan"}, "name": "71091abdc685b4261baadfc05a617791", "is_reserved": 0}, {"is_disabled": 0, "fusion_lon": 0.0, "fusion_lat": 0.0, "lat": 38.90728333333333, "type": "electric_scooter", "lon": -77.03192183333333, "bike_id": "2a271789b2a1f6dfdad7bbb62d2721b5", "rental_uris": {"android": "https://dc.lft.to/lastmile_qr_scan", "ios": "https://dc.lft.to/lastmile_qr_scan"}, "name": "2a271789b2a1f6dfdad7bbb62d2721b5", "is_reserved": 0}, {"is_disabled": 0, "fusion_lon": 0.0, "fusion_lat": 0.0, "lat": 38.900198333333336, "type": "electric_scooter", "lon": -77.052194, "bike_id": "e4e08cfd837fba3fda92a1ac17688a7e", "rental_uris": {"android": "https://dc.lft.to/lastmile_qr_scan", "ios": "https://dc.lft.to/lastmile_qr_scan"}, "name": "e4e08cfd837fba3fda92a1ac17688a7e", "is_reserved": 0}, {"is_disabled": 0, "fusion_lon": 0.0, "fusion_lat": 0.0, "lat": 39.02685783333333, "type": "electric_bike", "lon": -77.125985, "bike_id": "6116b382303392ab70a7a4707fba0c32", "rental_uris": {"android": "https://dc.lft.to/lastmile_qr_scan", "ios": "https://dc.lft.to/lastmile_qr_scan"}, "name": "6116b382303392ab70a7a4707fba0c32", "is_reserved": 0}, {"is_disabled": 0, "fusion_lon": 0.0, "fusion_lat": 0.0, "lat": 38.90404133333333, "type": "electric_scooter", "lon": -77.0489985, "bike_id": "c9624232065cae56d20606675e611166", "rental_uris": {"android": "https://dc.lft.to/lastmile_qr_scan", "ios": "https://dc.lft.to/lastmile_qr_scan"}, "name": "c9624232065cae56d20606675e611166", "is_reserved": 0}, {"is_disabled": 0, "fusion_lon": 0.0, "fusion_lat": 0.0, "lat": 38.88984, "type": "electric_scooter", "lon": -77.00244783333333, "bike_id": "6b1a59834e1ad3562ef110a71f6a9fbc", "rental_uris": {"android": "https://dc.lft.to/lastmile_qr_scan", "ios": "https://dc.lft.to/lastmile_qr_scan"}, "name": "6b1a59834e1ad3562ef110a71f6a9fbc", "is_reserved": 0}, {"is_disabled": 0, "fusion_lon": 0.0, "fusion_lat": 0.0, "lat": 38.90629716666667, "type": "electric_scooter", "lon": -76.98571783333334, "bike_id": "10d7c5117f31f81f08054718a221b3e4", "rental_uris": {"android": "https://dc.lft.to/lastmile_qr_scan", "ios": "https://dc.lft.to/lastmile_qr_scan"}, "name": "10d7c5117f31f81f08054718a221b3e4", "is_reserved": 0}, {"is_disabled": 0, "fusion_lon": 0.0, "fusion_lat": 0.0, "lat": 38.90134716666667, "type": "electric_scooter", "lon": -76.98963516666667, "bike_id": "bc36fc2c346f6a9d3738a8ea4fcbe2ed", "rental_uris": {"android": "https://dc.lft.to/lastmile_qr_scan", "ios": "https://dc.lft.to/lastmile_qr_scan"}, "name": "bc36fc2c346f6a9d3738a8ea4fcbe2ed", "is_reserved": 0}, {"is_disabled": 0, "fusion_lon": 0.0, "fusion_lat": 0.0, "lat": 38.923460166666665, "type": "electric_scooter", "lon": -77.0350625, "bike_id": "2c35cfb8eceda274f27ef740f7ddf9b4", "rental_uris": {"android": "https://dc.lft.to/lastmile_qr_scan", "ios": "https://dc.lft.to/lastmile_qr_scan"}, "name": "2c35cfb8eceda274f27ef740f7ddf9b4", "is_reserved": 0}, {"is_disabled": 0, "fusion_lon": 0.0, "fusion_lat": 0.0, "lat": 38.921531, "type": "electric_scooter", "lon": -77.03505466666667, "bike_id": "e36bc820c8a4919c09a48cdce73afbce", "rental_uris": {"android": "https://dc.lft.to/lastmile_qr_scan", "ios": "https://dc.lft.to/lastmile_qr_scan"}, "name": "e36bc820c8a4919c09a48cdce73afbce", "is_reserved": 0}, {"is_disabled": 0, "fusion_lon": 0.0, "fusion_lat": 0.0, "lat": 38.917132333333335, "type": "electric_scooter", "lon": -77.09821016666666, "bike_id": "ee0ca23cb625384dab6bd8b0aa7a2b0d", "rental_uris": {"android": "https://dc.lft.to/lastmile_qr_scan", "ios": "https://dc.lft.to/lastmile_qr_scan"}, "name": "ee0ca23cb625384dab6bd8b0aa7a2b0d", "is_reserved": 0}, {"is_disabled": 0, "fusion_lon": 0.0, "fusion_lat": 0.0, "lat": 38.915607333333334, "type": "electric_scooter", "lon": -77.03875816666667, "bike_id": "a583b1561c81b357dc03cd63ae862ab2", "rental_uris": {"android": "https://dc.lft.to/lastmile_qr_scan", "ios": "https://dc.lft.to/lastmile_qr_scan"}, "name": "a583b1561c81b357dc03cd63ae862ab2", "is_reserved": 0}, {"is_disabled": 0, "fusion_lon": 0.0, "fusion_lat": 0.0, "lat": 38.92154883333333, "type": "electric_scooter", "lon": -77.03390533333334, "bike_id": "4aeedad409162072a5094bcf13fbc0a8", "rental_uris": {"android": "https://dc.lft.to/lastmile_qr_scan", "ios": "https://dc.lft.to/lastmile_qr_scan"}, "name": "4aeedad409162072a5094bcf13fbc0a8", "is_reserved": 0}, {"is_disabled": 0, "fusion_lon": 0.0, "fusion_lat": 0.0, "lat": 38.938346833333334, "type": "electric_scooter", "lon": -77.06019266666667, "bike_id": "8b30b1c63c10891dda43b75fa5b69b54", "rental_uris": {"android": "https://dc.lft.to/lastmile_qr_scan", "ios": "https://dc.lft.to/lastmile_qr_scan"}, "name": "8b30b1c63c10891dda43b75fa5b69b54", "is_reserved": 0}, {"is_disabled": 0, "fusion_lon": 0.0, "fusion_lat": 0.0, "lat": 38.877947666666664, "type": "electric_scooter", "lon": -77.01363933333333, "bike_id": "b8b602b0862461da0ac32a8eef6a4f9c", "rental_uris": {"android": "https://dc.lft.to/lastmile_qr_scan", "ios": "https://dc.lft.to/lastmile_qr_scan"}, "name": "b8b602b0862461da0ac32a8eef6a4f9c", "is_reserved": 0}, {"is_disabled": 0, "fusion_lon": 0.0, "fusion_lat": 0.0, "lat": 38.867189, "type": "electric_scooter", "lon": -76.97916033333334, "bike_id": "0b7d7dfe0db7bfb307526aa9daca956a", "rental_uris": {"android": "https://dc.lft.to/lastmile_qr_scan", "ios": "https://dc.lft.to/lastmile_qr_scan"}, "name": "0b7d7dfe0db7bfb307526aa9daca956a", "is_reserved": 0}, {"is_disabled": 0, "fusion_lon": 0.0, "fusion_lat": 0.0, "lat": 38.9574565, "type": "electric_scooter", "lon": -77.02430733333334, "bike_id": "0532a9d918ac3f5e1c51d6b30d215b5f", "rental_uris": {"android": "https://dc.lft.to/lastmile_qr_scan", "ios": "https://dc.lft.to/lastmile_qr_scan"}, "name": "0532a9d918ac3f5e1c51d6b30d215b5f", "is_reserved": 0}, {"is_disabled": 0, "fusion_lon": 0.0, "fusion_lat": 0.0, "lat": 38.9333925, "type": "electric_scooter", "lon": -77.04140866666667, "bike_id": "067cf93f051f091685810f6f16c0c009", "rental_uris": {"android": "https://dc.lft.to/lastmile_qr_scan", "ios": "https://dc.lft.to/lastmile_qr_scan"}, "name": "067cf93f051f091685810f6f16c0c009", "is_reserved": 0}, {"is_disabled": 0, "fusion_lon": 0.0, "fusion_lat": 0.0, "lat": 38.92869066666667, "type": "electric_scooter", "lon": -76.99030983333333, "bike_id": "4127fd9f4f59212524711d4f8de9dd69", "rental_uris": {"android": "https://dc.lft.to/lastmile_qr_scan", "ios": "https://dc.lft.to/lastmile_qr_scan"}, "name": "4127fd9f4f59212524711d4f8de9dd69", "is_reserved": 0}, {"is_disabled": 0, "fusion_lon": 0.0, "fusion_lat": 0.0, "lat": 38.928248833333335, "type": "electric_scooter", "lon": -77.02260016666666, "bike_id": "e1aa577345472c6080e56a7b1afd118f", "rental_uris": {"android": "https://dc.lft.to/lastmile_qr_scan", "ios": "https://dc.lft.to/lastmile_qr_scan"}, "name": "e1aa577345472c6080e56a7b1afd118f", "is_reserved": 0}, {"is_disabled": 0, "fusion_lon": 0.0, "fusion_lat": 0.0, "lat": 38.913386, "type": "electric_scooter", "lon": -77.05221216666666, "bike_id": "f38b86a5a9c965816ed33fe545c4fd11", "rental_uris": {"android": "https://dc.lft.to/lastmile_qr_scan", "ios": "https://dc.lft.to/lastmile_qr_scan"}, "name": "f38b86a5a9c965816ed33fe545c4fd11", "is_reserved": 0}, {"is_disabled": 0, "fusion_lon": 0.0, "fusion_lat": 0.0, "lat": 38.927356833333334, "type": "electric_bike", "lon": -76.99365316666666, "bike_id": "d0ffc354f1ec97368f96833f86451edd", "rental_uris": {"android": "https://dc.lft.to/lastmile_qr_scan", "ios": "https://dc.lft.to/lastmile_qr_scan"}, "name": "d0ffc354f1ec97368f96833f86451edd", "is_reserved": 0}, {"is_disabled": 0, "fusion_lon": 0.0, "fusion_lat": 0.0, "lat": 38.9847615, "type": "electric_scooter", "lon": -77.0264985, "bike_id": "63b424f2320218e336f9fb62360aa4f7", "rental_uris": {"android": "https://dc.lft.to/lastmile_qr_scan", "ios": "https://dc.lft.to/lastmile_qr_scan"}, "name": "63b424f2320218e336f9fb62360aa4f7", "is_reserved": 0}, {"is_disabled": 0, "fusion_lon": 0.0, "fusion_lat": 0.0, "lat": 38.89355666666667, "type": "electric_scooter", "lon": -76.93987933333334, "bike_id": "cb554415bae5d11709c207fa7e39ab23", "rental_uris": {"android": "https://dc.lft.to/lastmile_qr_scan", "ios": "https://dc.lft.to/lastmile_qr_scan"}, "name": "cb554415bae5d11709c207fa7e39ab23", "is_reserved": 0}, {"is_disabled": 0, "fusion_lon": 0.0, "fusion_lat": 0.0, "lat": 38.9341835, "type": "electric_scooter", "lon": -77.024505, "bike_id": "e0311ef4ce9090128ac82e95f46cbb6f", "rental_uris": {"android": "https://dc.lft.to/lastmile_qr_scan", "ios": "https://dc.lft.to/lastmile_qr_scan"}, "name": "e0311ef4ce9090128ac82e95f46cbb6f", "is_reserved": 0}, {"is_disabled": 0, "fusion_lon": 0.0, "fusion_lat": 0.0, "lat": 38.90971, "type": "electric_scooter", "lon": -77.03871616666666, "bike_id": "3b65a2bea8cf14e2d16f8c9693f5305f", "rental_uris": {"android": "https://dc.lft.to/lastmile_qr_scan", "ios": "https://dc.lft.to/lastmile_qr_scan"}, "name": "3b65a2bea8cf14e2d16f8c9693f5305f", "is_reserved": 0}, {"is_disabled": 0, "fusion_lon": 0.0, "fusion_lat": 0.0, "lat": 38.9085945, "type": "electric_scooter", "lon": -77.04618933333333, "bike_id": "f911705ea8dc24130c51194537d9bb43", "rental_uris": {"android": "https://dc.lft.to/lastmile_qr_scan", "ios": "https://dc.lft.to/lastmile_qr_scan"}, "name": "f911705ea8dc24130c51194537d9bb43", "is_reserved": 0}, {"is_disabled": 0, "fusion_lon": 0.0, "fusion_lat": 0.0, "lat": 38.91796266666667, "type": "electric_scooter", "lon": -77.0344455, "bike_id": "f7f66f49f0fae6103f1be49682db6ac0", "rental_uris": {"android": "https://dc.lft.to/lastmile_qr_scan", "ios": "https://dc.lft.to/lastmile_qr_scan"}, "name": "f7f66f49f0fae6103f1be49682db6ac0", "is_reserved": 0}, {"is_disabled": 0, "fusion_lon": 0.0, "fusion_lat": 0.0, "lat": 38.91340066666667, "type": "electric_scooter", "lon": -77.042406, "bike_id": "4d3efc4ad75825224881b35616f7a882", "rental_uris": {"android": "https://dc.lft.to/lastmile_qr_scan", "ios": "https://dc.lft.to/lastmile_qr_scan"}, "name": "4d3efc4ad75825224881b35616f7a882", "is_reserved": 0}, {"is_disabled": 0, "fusion_lon": 0.0, "fusion_lat": 0.0, "lat": 38.88868566666667, "type": "electric_scooter", "lon": -77.0400165, "bike_id": "740fb88d7f6f8094074b7828d3efa280", "rental_uris": {"android": "https://dc.lft.to/lastmile_qr_scan", "ios": "https://dc.lft.to/lastmile_qr_scan"}, "name": "740fb88d7f6f8094074b7828d3efa280", "is_reserved": 0}, {"is_disabled": 0, "fusion_lon": 0.0, "fusion_lat": 0.0, "lat": 38.92870766666667, "type": "electric_scooter", "lon": -77.01429916666666, "bike_id": "f8108afaf796743af9bbca6787b1a1f9", "rental_uris": {"android": "https://dc.lft.to/lastmile_qr_scan", "ios": "https://dc.lft.to/lastmile_qr_scan"}, "name": "f8108afaf796743af9bbca6787b1a1f9", "is_reserved": 0}, {"is_disabled": 0, "fusion_lon": 0.0, "fusion_lat": 0.0, "lat": 38.918427333333334, "type": "electric_scooter", "lon": -77.072111, "bike_id": "41903f7f4ef70c831edd733cd869c968", "rental_uris": {"android": "https://dc.lft.to/lastmile_qr_scan", "ios": "https://dc.lft.to/lastmile_qr_scan"}, "name": "41903f7f4ef70c831edd733cd869c968", "is_reserved": 0}, {"is_disabled": 0, "fusion_lon": 0.0, "fusion_lat": 0.0, "lat": 38.912676833333336, "type": "electric_scooter", "lon": -77.0222275, "bike_id": "03b1b88d31e97fa2d0de7aeb6f0ade48", "rental_uris": {"android": "https://dc.lft.to/lastmile_qr_scan", "ios": "https://dc.lft.to/lastmile_qr_scan"}, "name": "03b1b88d31e97fa2d0de7aeb6f0ade48", "is_reserved": 0}, {"is_disabled": 0, "fusion_lon": 0.0, "fusion_lat": 0.0, "lat": 38.90601616666667, "type": "electric_scooter", "lon": -77.057121, "bike_id": "b04545ad7018c6d25d8eb498ea41aaf2", "rental_uris": {"android": "https://dc.lft.to/lastmile_qr_scan", "ios": "https://dc.lft.to/lastmile_qr_scan"}, "name": "b04545ad7018c6d25d8eb498ea41aaf2", "is_reserved": 0}, {"is_disabled": 0, "fusion_lon": 0.0, "fusion_lat": 0.0, "lat": 38.924438, "type": "electric_scooter", "lon": -77.0508355, "bike_id": "10035dd3b5d53e15a610400b3f0343d7", "rental_uris": {"android": "https://dc.lft.to/lastmile_qr_scan", "ios": "https://dc.lft.to/lastmile_qr_scan"}, "name": "10035dd3b5d53e15a610400b3f0343d7", "is_reserved": 0}, {"is_disabled": 0, "fusion_lon": 0.0, "fusion_lat": 0.0, "lat": 38.9253375, "type": "electric_scooter", "lon": -77.076605, "bike_id": "7d9982860cafc82591e43fc8f2112e13", "rental_uris": {"android": "https://dc.lft.to/lastmile_qr_scan", "ios": "https://dc.lft.to/lastmile_qr_scan"}, "name": "7d9982860cafc82591e43fc8f2112e13", "is_reserved": 0}, {"is_disabled": 0, "fusion_lon": 0.0, "fusion_lat": 0.0, "lat": 38.883577, "type": "electric_scooter", "lon": -76.9856505, "bike_id": "89d4209998106286b18a431f755aa275", "rental_uris": {"android": "https://dc.lft.to/lastmile_qr_scan", "ios": "https://dc.lft.to/lastmile_qr_scan"}, "name": "89d4209998106286b18a431f755aa275", "is_reserved": 0}, {"is_disabled": 0, "fusion_lon": 0.0, "fusion_lat": 0.0, "lat": 38.907644166666664, "type": "electric_scooter", "lon": -77.063112, "bike_id": "fb867d30731ed95c3781557076e9037a", "rental_uris": {"android": "https://dc.lft.to/lastmile_qr_scan", "ios": "https://dc.lft.to/lastmile_qr_scan"}, "name": "fb867d30731ed95c3781557076e9037a", "is_reserved": 0}, {"is_disabled": 0, "fusion_lon": 0.0, "fusion_lat": 0.0, "lat": 38.9092685, "type": "electric_bike", "lon": -77.06121683333333, "bike_id": "e673373abf0883cf256635dda25462c7", "rental_uris": {"android": "https://dc.lft.to/lastmile_qr_scan", "ios": "https://dc.lft.to/lastmile_qr_scan"}, "name": "e673373abf0883cf256635dda25462c7", "is_reserved": 0}, {"is_disabled": 0, "fusion_lon": 0.0, "fusion_lat": 0.0, "lat": 38.852085, "type": "electric_bike", "lon": -77.10128133333333, "bike_id": "ab46414d524c727514cc11be59dd10a8", "rental_uris": {"android": "https://dc.lft.to/lastmile_qr_scan", "ios": "https://dc.lft.to/lastmile_qr_scan"}, "name": "ab46414d524c727514cc11be59dd10a8", "is_reserved": 0}, {"is_disabled": 0, "fusion_lon": 0.0, "fusion_lat": 0.0, "lat": 38.93278316666667, "type": "electric_scooter", "lon": -76.97426, "bike_id": "2c51414f9bdb9c4fa51b9c97360dcf67", "rental_uris": {"android": "https://dc.lft.to/lastmile_qr_scan", "ios": "https://dc.lft.to/lastmile_qr_scan"}, "name": "2c51414f9bdb9c4fa51b9c97360dcf67", "is_reserved": 0}, {"is_disabled": 0, "fusion_lon": 0.0, "fusion_lat": 0.0, "lat": 38.92755483333333, "type": "electric_scooter", "lon": -77.005958, "bike_id": "fa79faf7e15a89a1fedeaa8ca333e9a3", "rental_uris": {"android": "https://dc.lft.to/lastmile_qr_scan", "ios": "https://dc.lft.to/lastmile_qr_scan"}, "name": "fa79faf7e15a89a1fedeaa8ca333e9a3", "is_reserved": 0}, {"is_disabled": 0, "fusion_lon": 0.0, "fusion_lat": 0.0, "lat": 38.9051155, "type": "electric_bike", "lon": -76.981251, "bike_id": "d16a22786e142f41fda268b851b99884", "rental_uris": {"android": "https://dc.lft.to/lastmile_qr_scan", "ios": "https://dc.lft.to/lastmile_qr_scan"}, "name": "d16a22786e142f41fda268b851b99884", "is_reserved": 0}, {"is_disabled": 0, "fusion_lon": 0.0, "fusion_lat": 0.0, "lat": 38.89520983333333, "type": "electric_scooter", "lon": -77.02802883333334, "bike_id": "8600a83ccabd60e7429b15c996921812", "rental_uris": {"android": "https://dc.lft.to/lastmile_qr_scan", "ios": "https://dc.lft.to/lastmile_qr_scan"}, "name": "8600a83ccabd60e7429b15c996921812", "is_reserved": 0}, {"is_disabled": 0, "fusion_lon": 0.0, "fusion_lat": 0.0, "lat": 38.900608166666665, "type": "electric_scooter", "lon": -77.03448366666667, "bike_id": "acbdd0e7cbfd4cdac1907cfd5a4300c1", "rental_uris": {"android": "https://dc.lft.to/lastmile_qr_scan", "ios": "https://dc.lft.to/lastmile_qr_scan"}, "name": "acbdd0e7cbfd4cdac1907cfd5a4300c1", "is_reserved": 0}, {"is_disabled": 0, "fusion_lon": 0.0, "fusion_lat": 0.0, "lat": 38.88489366666667, "type": "electric_scooter", "lon": -77.02224466666667, "bike_id": "9b454eb4f8f26600aa0fc296828a7f9d", "rental_uris": {"android": "https://dc.lft.to/lastmile_qr_scan", "ios": "https://dc.lft.to/lastmile_qr_scan"}, "name": "9b454eb4f8f26600aa0fc296828a7f9d", "is_reserved": 0}, {"is_disabled": 0, "fusion_lon": 0.0, "fusion_lat": 0.0, "lat": 38.896898, "type": "electric_scooter", "lon": -76.94715433333333, "bike_id": "0850185a3966009c3f1711e43e67f2c7", "rental_uris": {"android": "https://dc.lft.to/lastmile_qr_scan", "ios": "https://dc.lft.to/lastmile_qr_scan"}, "name": "0850185a3966009c3f1711e43e67f2c7", "is_reserved": 0}, {"is_disabled": 0, "fusion_lon": 0.0, "fusion_lat": 0.0, "lat": 38.90550616666667, "type": "electric_scooter", "lon": -77.0271015, "bike_id": "41118c272f889a3bd239f59b787e239d", "rental_uris": {"android": "https://dc.lft.to/lastmile_qr_scan", "ios": "https://dc.lft.to/lastmile_qr_scan"}, "name": "41118c272f889a3bd239f59b787e239d", "is_reserved": 0}, {"is_disabled": 0, "fusion_lon": 0.0, "fusion_lat": 0.0, "lat": 38.93059066666667, "type": "electric_scooter", "lon": -77.0266185, "bike_id": "8fc535800a490833a8c4f4397efc2dfc", "rental_uris": {"android": "https://dc.lft.to/lastmile_qr_scan", "ios": "https://dc.lft.to/lastmile_qr_scan"}, "name": "8fc535800a490833a8c4f4397efc2dfc", "is_reserved": 0}, {"is_disabled": 0, "fusion_lon": 0.0, "fusion_lat": 0.0, "lat": 38.9705035, "type": "electric_bike", "lon": -77.030822, "bike_id": "864675444a0a9ebb2f8810052b05db4e", "rental_uris": {"android": "https://dc.lft.to/lastmile_qr_scan", "ios": "https://dc.lft.to/lastmile_qr_scan"}, "name": "864675444a0a9ebb2f8810052b05db4e", "is_reserved": 0}, {"is_disabled": 0, "fusion_lon": 0.0, "fusion_lat": 0.0, "lat": 38.848414166666664, "type": "electric_bike", "lon": -77.0804765, "bike_id": "9faab7f4289d8e6c2108bc999f15734b", "rental_uris": {"android": "https://dc.lft.to/lastmile_qr_scan", "ios": "https://dc.lft.to/lastmile_qr_scan"}, "name": "9faab7f4289d8e6c2108bc999f15734b", "is_reserved": 0}, {"is_disabled": 0, "fusion_lon": 0.0, "fusion_lat": 0.0, "lat": 38.929930666666664, "type": "electric_scooter", "lon": -77.02184733333333, "bike_id": "9f301503bdeaf0df42f32cdf4311d128", "rental_uris": {"android": "https://dc.lft.to/lastmile_qr_scan", "ios": "https://dc.lft.to/lastmile_qr_scan"}, "name": "9f301503bdeaf0df42f32cdf4311d128", "is_reserved": 0}, {"is_disabled": 0, "fusion_lon": 0.0, "fusion_lat": 0.0, "lat": 38.92332433333333, "type": "electric_scooter", "lon": -77.03612566666666, "bike_id": "b41e9235c56ac268be470981ec60da60", "rental_uris": {"android": "https://dc.lft.to/lastmile_qr_scan", "ios": "https://dc.lft.to/lastmile_qr_scan"}, "name": "b41e9235c56ac268be470981ec60da60", "is_reserved": 0}, {"is_disabled": 0, "fusion_lon": 0.0, "fusion_lat": 0.0, "lat": 38.917663166666664, "type": "electric_scooter", "lon": -77.02345466666667, "bike_id": "c3815a645cf27b750e4ec0bdc96b864f", "rental_uris": {"android": "https://dc.lft.to/lastmile_qr_scan", "ios": "https://dc.lft.to/lastmile_qr_scan"}, "name": "c3815a645cf27b750e4ec0bdc96b864f", "is_reserved": 0}, {"is_disabled": 0, "fusion_lon": 0.0, "fusion_lat": 0.0, "lat": 38.90700433333333, "type": "electric_scooter", "lon": -77.02696416666667, "bike_id": "b54b431be90c82ff6ca788a130939328", "rental_uris": {"android": "https://dc.lft.to/lastmile_qr_scan", "ios": "https://dc.lft.to/lastmile_qr_scan"}, "name": "b54b431be90c82ff6ca788a130939328", "is_reserved": 0}, {"is_disabled": 0, "fusion_lon": 0.0, "fusion_lat": 0.0, "lat": 38.91462083333333, "type": "electric_scooter", "lon": -77.02816933333334, "bike_id": "253f5b3aeed1a2fa6d8021fa6aafccd6", "rental_uris": {"android": "https://dc.lft.to/lastmile_qr_scan", "ios": "https://dc.lft.to/lastmile_qr_scan"}, "name": "253f5b3aeed1a2fa6d8021fa6aafccd6", "is_reserved": 0}, {"is_disabled": 0, "fusion_lon": 0.0, "fusion_lat": 0.0, "lat": 38.93396966666667, "type": "electric_scooter", "lon": -77.02732466666667, "bike_id": "ee496d9125959ef7df15d742dc6a3370", "rental_uris": {"android": "https://dc.lft.to/lastmile_qr_scan", "ios": "https://dc.lft.to/lastmile_qr_scan"}, "name": "ee496d9125959ef7df15d742dc6a3370", "is_reserved": 0}, {"is_disabled": 0, "fusion_lon": 0.0, "fusion_lat": 0.0, "lat": 38.9024415, "type": "electric_bike", "lon": -76.97017883333334, "bike_id": "67077586a23beb2f0d6530b7c28e78de", "rental_uris": {"android": "https://dc.lft.to/lastmile_qr_scan", "ios": "https://dc.lft.to/lastmile_qr_scan"}, "name": "67077586a23beb2f0d6530b7c28e78de", "is_reserved": 0}, {"is_disabled": 0, "fusion_lon": 0.0, "fusion_lat": 0.0, "lat": 38.967541833333335, "type": "electric_bike", "lon": -77.09161216666666, "bike_id": "2e73f4001231fdc26d0cc3b3832b20d0", "rental_uris": {"android": "https://dc.lft.to/lastmile_qr_scan", "ios": "https://dc.lft.to/lastmile_qr_scan"}, "name": "2e73f4001231fdc26d0cc3b3832b20d0", "is_reserved": 0}, {"is_disabled": 0, "fusion_lon": 0.0, "fusion_lat": 0.0, "lat": 38.92480333333334, "type": "electric_scooter", "lon": -77.02714516666667, "bike_id": "af72297aadb6a75ac9bf0fb417c8f8a7", "rental_uris": {"android": "https://dc.lft.to/lastmile_qr_scan", "ios": "https://dc.lft.to/lastmile_qr_scan"}, "name": "af72297aadb6a75ac9bf0fb417c8f8a7", "is_reserved": 0}, {"is_disabled": 0, "fusion_lon": 0.0, "fusion_lat": 0.0, "lat": 38.84201383333333, "type": "electric_bike", "lon": -77.1068485, "bike_id": "d9aef45601571a265e7f35ea6ae4ed9a", "rental_uris": {"android": "https://dc.lft.to/lastmile_qr_scan", "ios": "https://dc.lft.to/lastmile_qr_scan"}, "name": "d9aef45601571a265e7f35ea6ae4ed9a", "is_reserved": 0}, {"is_disabled": 0, "fusion_lon": 0.0, "fusion_lat": 0.0, "lat": 38.9158185, "type": "electric_scooter", "lon": -76.981099, "bike_id": "dedd48f40da6f4b173a649d3c40d9974", "rental_uris": {"android": "https://dc.lft.to/lastmile_qr_scan", "ios": "https://dc.lft.to/lastmile_qr_scan"}, "name": "dedd48f40da6f4b173a649d3c40d9974", "is_reserved": 0}, {"is_disabled": 0, "fusion_lon": 0.0, "fusion_lat": 0.0, "lat": 38.8580675, "type": "electric_scooter", "lon": -76.98654233333333, "bike_id": "9367cbb67552357fc4cfe2658d374aea", "rental_uris": {"android": "https://dc.lft.to/lastmile_qr_scan", "ios": "https://dc.lft.to/lastmile_qr_scan"}, "name": "9367cbb67552357fc4cfe2658d374aea", "is_reserved": 0}, {"is_disabled": 0, "fusion_lon": 0.0, "fusion_lat": 0.0, "lat": 38.998846, "type": "electric_bike", "lon": -77.02893616666667, "bike_id": "9604894fd7664bc6afe4826e2ed9bd83", "rental_uris": {"android": "https://dc.lft.to/lastmile_qr_scan", "ios": "https://dc.lft.to/lastmile_qr_scan"}, "name": "9604894fd7664bc6afe4826e2ed9bd83", "is_reserved": 0}, {"is_disabled": 0, "fusion_lon": 0.0, "fusion_lat": 0.0, "lat": 38.92874066666667, "type": "electric_scooter", "lon": -77.01421266666667, "bike_id": "ce471bf128ee251f75bf4c27005fb596", "rental_uris": {"android": "https://dc.lft.to/lastmile_qr_scan", "ios": "https://dc.lft.to/lastmile_qr_scan"}, "name": "ce471bf128ee251f75bf4c27005fb596", "is_reserved": 0}, {"is_disabled": 0, "fusion_lon": 0.0, "fusion_lat": 0.0, "lat": 38.863159833333334, "type": "electric_scooter", "lon": -76.99063533333333, "bike_id": "0edb388e391b8460583946992f6399be", "rental_uris": {"android": "https://dc.lft.to/lastmile_qr_scan", "ios": "https://dc.lft.to/lastmile_qr_scan"}, "name": "0edb388e391b8460583946992f6399be", "is_reserved": 0}, {"is_disabled": 0, "fusion_lon": 0.0, "fusion_lat": 0.0, "lat": 38.924786166666664, "type": "electric_scooter", "lon": -77.03487866666667, "bike_id": "22603edb3f12ba5e62f5ac687fba7f5f", "rental_uris": {"android": "https://dc.lft.to/lastmile_qr_scan", "ios": "https://dc.lft.to/lastmile_qr_scan"}, "name": "22603edb3f12ba5e62f5ac687fba7f5f", "is_reserved": 0}, {"is_disabled": 0, "fusion_lon": 0.0, "fusion_lat": 0.0, "lat": 38.84591116666667, "type": "electric_bike", "lon": -76.96883716666666, "bike_id": "5ecff1bdd6ecbc8ecfa8e1c1915cf7fc", "rental_uris": {"android": "https://dc.lft.to/lastmile_qr_scan", "ios": "https://dc.lft.to/lastmile_qr_scan"}, "name": "5ecff1bdd6ecbc8ecfa8e1c1915cf7fc", "is_reserved": 0}, {"is_disabled": 0, "fusion_lon": 0.0, "fusion_lat": 0.0, "lat": 38.893664333333334, "type": "electric_scooter", "lon": -77.022658, "bike_id": "5c35b66bd1a91481426198fa61e68690", "rental_uris": {"android": "https://dc.lft.to/lastmile_qr_scan", "ios": "https://dc.lft.to/lastmile_qr_scan"}, "name": "5c35b66bd1a91481426198fa61e68690", "is_reserved": 0}, {"is_disabled": 0, "fusion_lon": 0.0, "fusion_lat": 0.0, "lat": 38.91706833333333, "type": "electric_scooter", "lon": -77.03474966666667, "bike_id": "653c2868009755572ee976810803bb60", "rental_uris": {"android": "https://dc.lft.to/lastmile_qr_scan", "ios": "https://dc.lft.to/lastmile_qr_scan"}, "name": "653c2868009755572ee976810803bb60", "is_reserved": 0}, {"is_disabled": 0, "fusion_lon": 0.0, "fusion_lat": 0.0, "lat": 38.91959583333333, "type": "electric_scooter", "lon": -77.0239585, "bike_id": "9969ad2798fa933308f378140e5b0880", "rental_uris": {"android": "https://dc.lft.to/lastmile_qr_scan", "ios": "https://dc.lft.to/lastmile_qr_scan"}, "name": "9969ad2798fa933308f378140e5b0880", "is_reserved": 0}, {"is_disabled": 0, "fusion_lon": 0.0, "fusion_lat": 0.0, "lat": 38.905111166666664, "type": "electric_scooter", "lon": -77.03184833333333, "bike_id": "30f22d36e9e68b1cc9b86b380dd0baf5", "rental_uris": {"android": "https://dc.lft.to/lastmile_qr_scan", "ios": "https://dc.lft.to/lastmile_qr_scan"}, "name": "30f22d36e9e68b1cc9b86b380dd0baf5", "is_reserved": 0}, {"is_disabled": 0, "fusion_lon": 0.0, "fusion_lat": 0.0, "lat": 38.93505716666667, "type": "electric_scooter", "lon": -77.024071, "bike_id": "8a7d529f8c94e3e999ef235001f88814", "rental_uris": {"android": "https://dc.lft.to/lastmile_qr_scan", "ios": "https://dc.lft.to/lastmile_qr_scan"}, "name": "8a7d529f8c94e3e999ef235001f88814", "is_reserved": 0}, {"is_disabled": 0, "fusion_lon": 0.0, "fusion_lat": 0.0, "lat": 38.913239, "type": "electric_scooter", "lon": -77.03237533333333, "bike_id": "929a6e9a5e90917e3f02cdb1a6a0dcea", "rental_uris": {"android": "https://dc.lft.to/lastmile_qr_scan", "ios": "https://dc.lft.to/lastmile_qr_scan"}, "name": "929a6e9a5e90917e3f02cdb1a6a0dcea", "is_reserved": 0}, {"is_disabled": 0, "fusion_lon": 0.0, "fusion_lat": 0.0, "lat": 38.9057505, "type": "electric_scooter", "lon": -77.03438683333333, "bike_id": "ba514350db00d213a955c50b97bda345", "rental_uris": {"android": "https://dc.lft.to/lastmile_qr_scan", "ios": "https://dc.lft.to/lastmile_qr_scan"}, "name": "ba514350db00d213a955c50b97bda345", "is_reserved": 0}, {"is_disabled": 0, "fusion_lon": 0.0, "fusion_lat": 0.0, "lat": 38.88598616666667, "type": "electric_scooter", "lon": -77.02203033333333, "bike_id": "3eb087c76255fb7af1674052f55dc8c5", "rental_uris": {"android": "https://dc.lft.to/lastmile_qr_scan", "ios": "https://dc.lft.to/lastmile_qr_scan"}, "name": "3eb087c76255fb7af1674052f55dc8c5", "is_reserved": 0}, {"is_disabled": 0, "fusion_lon": 0.0, "fusion_lat": 0.0, "lat": 38.8918965, "type": "electric_scooter", "lon": -76.98839216666667, "bike_id": "aa043d846ba62618877cc784796de203", "rental_uris": {"android": "https://dc.lft.to/lastmile_qr_scan", "ios": "https://dc.lft.to/lastmile_qr_scan"}, "name": "aa043d846ba62618877cc784796de203", "is_reserved": 0}, {"is_disabled": 0, "fusion_lon": 0.0, "fusion_lat": 0.0, "lat": 38.900146666666664, "type": "electric_scooter", "lon": -77.026368, "bike_id": "8a97ea987660e603b7d7e35bdc384b87", "rental_uris": {"android": "https://dc.lft.to/lastmile_qr_scan", "ios": "https://dc.lft.to/lastmile_qr_scan"}, "name": "8a97ea987660e603b7d7e35bdc384b87", "is_reserved": 0}, {"is_disabled": 0, "fusion_lon": 0.0, "fusion_lat": 0.0, "lat": 38.9181565, "type": "electric_scooter", "lon": -77.03638916666667, "bike_id": "08855b19e7c5c1638abfb2b9c3c8e182", "rental_uris": {"android": "https://dc.lft.to/lastmile_qr_scan", "ios": "https://dc.lft.to/lastmile_qr_scan"}, "name": "08855b19e7c5c1638abfb2b9c3c8e182", "is_reserved": 0}, {"is_disabled": 0, "fusion_lon": 0.0, "fusion_lat": 0.0, "lat": 38.9160565, "type": "electric_scooter", "lon": -77.04603066666667, "bike_id": "257d915c8a023092617acade8cded44a", "rental_uris": {"android": "https://dc.lft.to/lastmile_qr_scan", "ios": "https://dc.lft.to/lastmile_qr_scan"}, "name": "257d915c8a023092617acade8cded44a", "is_reserved": 0}, {"is_disabled": 0, "fusion_lon": 0.0, "fusion_lat": 0.0, "lat": 38.886299666666666, "type": "electric_scooter", "lon": -76.9551185, "bike_id": "8ea11be90d0469d4804c710ba84f515b", "rental_uris": {"android": "https://dc.lft.to/lastmile_qr_scan", "ios": "https://dc.lft.to/lastmile_qr_scan"}, "name": "8ea11be90d0469d4804c710ba84f515b", "is_reserved": 0}, {"is_disabled": 0, "fusion_lon": 0.0, "fusion_lat": 0.0, "lat": 38.90541183333333, "type": "electric_scooter", "lon": -77.0504515, "bike_id": "02698fd0697c05401755f36b9bb91df5", "rental_uris": {"android": "https://dc.lft.to/lastmile_qr_scan", "ios": "https://dc.lft.to/lastmile_qr_scan"}, "name": "02698fd0697c05401755f36b9bb91df5", "is_reserved": 0}, {"is_disabled": 0, "fusion_lon": 0.0, "fusion_lat": 0.0, "lat": 38.915903666666665, "type": "electric_scooter", "lon": -77.02126816666667, "bike_id": "4200ff0c1537e47b9d9e3dc937d20f30", "rental_uris": {"android": "https://dc.lft.to/lastmile_qr_scan", "ios": "https://dc.lft.to/lastmile_qr_scan"}, "name": "4200ff0c1537e47b9d9e3dc937d20f30", "is_reserved": 0}, {"is_disabled": 0, "fusion_lon": 0.0, "fusion_lat": 0.0, "lat": 38.945597666666664, "type": "electric_bike", "lon": -77.0512215, "bike_id": "9d78a42fb62ebf7b5876fd133097bb4e", "rental_uris": {"android": "https://dc.lft.to/lastmile_qr_scan", "ios": "https://dc.lft.to/lastmile_qr_scan"}, "name": "9d78a42fb62ebf7b5876fd133097bb4e", "is_reserved": 0}, {"is_disabled": 0, "fusion_lon": 0.0, "fusion_lat": 0.0, "lat": 38.924739, "type": "electric_scooter", "lon": -77.03788583333333, "bike_id": "e1a21633f7646cfcf0419b1f53618919", "rental_uris": {"android": "https://dc.lft.to/lastmile_qr_scan", "ios": "https://dc.lft.to/lastmile_qr_scan"}, "name": "e1a21633f7646cfcf0419b1f53618919", "is_reserved": 0}, {"is_disabled": 0, "fusion_lon": 0.0, "fusion_lat": 0.0, "lat": 38.90018516666667, "type": "electric_scooter", "lon": -77.0396215, "bike_id": "9b3b5c06765e4ed999eea53245c6a13b", "rental_uris": {"android": "https://dc.lft.to/lastmile_qr_scan", "ios": "https://dc.lft.to/lastmile_qr_scan"}, "name": "9b3b5c06765e4ed999eea53245c6a13b", "is_reserved": 0}, {"is_disabled": 0, "fusion_lon": 0.0, "fusion_lat": 0.0, "lat": 38.92581116666667, "type": "electric_scooter", "lon": -77.0321185, "bike_id": "202306ad552808ce22b3ceaa757a46f2", "rental_uris": {"android": "https://dc.lft.to/lastmile_qr_scan", "ios": "https://dc.lft.to/lastmile_qr_scan"}, "name": "202306ad552808ce22b3ceaa757a46f2", "is_reserved": 0}, {"is_disabled": 0, "fusion_lon": 0.0, "fusion_lat": 0.0, "lat": 38.84292033333333, "type": "electric_scooter", "lon": -76.99946483333333, "bike_id": "4b89ae45060bdb27bcc34849e71ff93f", "rental_uris": {"android": "https://dc.lft.to/lastmile_qr_scan", "ios": "https://dc.lft.to/lastmile_qr_scan"}, "name": "4b89ae45060bdb27bcc34849e71ff93f", "is_reserved": 0}, {"is_disabled": 0, "fusion_lon": 0.0, "fusion_lat": 0.0, "lat": 38.894892666666664, "type": "electric_scooter", "lon": -77.01106066666667, "bike_id": "896e204d356e50ac951c4119b739f131", "rental_uris": {"android": "https://dc.lft.to/lastmile_qr_scan", "ios": "https://dc.lft.to/lastmile_qr_scan"}, "name": "896e204d356e50ac951c4119b739f131", "is_reserved": 0}, {"is_disabled": 0, "fusion_lon": 0.0, "fusion_lat": 0.0, "lat": 39.0994385, "type": "electric_bike", "lon": -77.18789783333334, "bike_id": "53f1ae174fe1d367c06a82395f08419e", "rental_uris": {"android": "https://dc.lft.to/lastmile_qr_scan", "ios": "https://dc.lft.to/lastmile_qr_scan"}, "name": "53f1ae174fe1d367c06a82395f08419e", "is_reserved": 0}, {"is_disabled": 0, "fusion_lon": 0.0, "fusion_lat": 0.0, "lat": 38.935027833333336, "type": "electric_bike", "lon": -76.94954833333334, "bike_id": "9e54adbf5c8694441d93cc1c4a1274a7", "rental_uris": {"android": "https://dc.lft.to/lastmile_qr_scan", "ios": "https://dc.lft.to/lastmile_qr_scan"}, "name": "9e54adbf5c8694441d93cc1c4a1274a7", "is_reserved": 0}, {"is_disabled": 0, "fusion_lon": 0.0, "fusion_lat": 0.0, "lat": 38.90798, "type": "electric_scooter", "lon": -77.04985533333333, "bike_id": "a42a7b63340e67ec779c424a76e18ee0", "rental_uris": {"android": "https://dc.lft.to/lastmile_qr_scan", "ios": "https://dc.lft.to/lastmile_qr_scan"}, "name": "a42a7b63340e67ec779c424a76e18ee0", "is_reserved": 0}, {"is_disabled": 0, "fusion_lon": 0.0, "fusion_lat": 0.0, "lat": 38.897433666666664, "type": "electric_scooter", "lon": -77.028253, "bike_id": "0348ae626c93b1da4145a292195efd23", "rental_uris": {"android": "https://dc.lft.to/lastmile_qr_scan", "ios": "https://dc.lft.to/lastmile_qr_scan"}, "name": "0348ae626c93b1da4145a292195efd23", "is_reserved": 0}, {"is_disabled": 0, "fusion_lon": 0.0, "fusion_lat": 0.0, "lat": 38.921565666666666, "type": "electric_scooter", "lon": -77.03381, "bike_id": "b13434ed1470600759ca63a9142969fb", "rental_uris": {"android": "https://dc.lft.to/lastmile_qr_scan", "ios": "https://dc.lft.to/lastmile_qr_scan"}, "name": "b13434ed1470600759ca63a9142969fb", "is_reserved": 0}, {"is_disabled": 0, "fusion_lon": 0.0, "fusion_lat": 0.0, "lat": 38.8946345, "type": "electric_scooter", "lon": -76.99489566666666, "bike_id": "a638c4b4800c91d8c9d184527d4c6e8d", "rental_uris": {"android": "https://dc.lft.to/lastmile_qr_scan", "ios": "https://dc.lft.to/lastmile_qr_scan"}, "name": "a638c4b4800c91d8c9d184527d4c6e8d", "is_reserved": 0}, {"is_disabled": 0, "fusion_lon": 0.0, "fusion_lat": 0.0, "lat": 38.907283666666665, "type": "electric_scooter", "lon": -77.02990816666667, "bike_id": "e520b3037a0254ef751d0e9670d8e900", "rental_uris": {"android": "https://dc.lft.to/lastmile_qr_scan", "ios": "https://dc.lft.to/lastmile_qr_scan"}, "name": "e520b3037a0254ef751d0e9670d8e900", "is_reserved": 0}, {"is_disabled": 0, "fusion_lon": 0.0, "fusion_lat": 0.0, "lat": 38.88628283333333, "type": "electric_scooter", "lon": -76.9984965, "bike_id": "e32fc8cec10b870fe811e2a639610e87", "rental_uris": {"android": "https://dc.lft.to/lastmile_qr_scan", "ios": "https://dc.lft.to/lastmile_qr_scan"}, "name": "e32fc8cec10b870fe811e2a639610e87", "is_reserved": 0}, {"is_disabled": 0, "fusion_lon": 0.0, "fusion_lat": 0.0, "lat": 38.838124, "type": "electric_scooter", "lon": -77.0043465, "bike_id": "256754bdfc8c34d9ba74cd176873a6fd", "rental_uris": {"android": "https://dc.lft.to/lastmile_qr_scan", "ios": "https://dc.lft.to/lastmile_qr_scan"}, "name": "256754bdfc8c34d9ba74cd176873a6fd", "is_reserved": 0}, {"is_disabled": 0, "fusion_lon": 0.0, "fusion_lat": 0.0, "lat": 38.89483583333333, "type": "electric_bike", "lon": -76.995211, "bike_id": "2847a56db28dfe80a4ffb6af7c49df6c", "rental_uris": {"android": "https://dc.lft.to/lastmile_qr_scan", "ios": "https://dc.lft.to/lastmile_qr_scan"}, "name": "2847a56db28dfe80a4ffb6af7c49df6c", "is_reserved": 0}, {"is_disabled": 0, "fusion_lon": 0.0, "fusion_lat": 0.0, "lat": 38.92574833333333, "type": "electric_scooter", "lon": -76.994953, "bike_id": "8b949cc409fe8aa1a57057cfb52773b9", "rental_uris": {"android": "https://dc.lft.to/lastmile_qr_scan", "ios": "https://dc.lft.to/lastmile_qr_scan"}, "name": "8b949cc409fe8aa1a57057cfb52773b9", "is_reserved": 0}, {"is_disabled": 0, "fusion_lon": 0.0, "fusion_lat": 0.0, "lat": 38.96115916666667, "type": "electric_scooter", "lon": -77.08519416666667, "bike_id": "a6614c63779aeb5d798d2348953a96ff", "rental_uris": {"android": "https://dc.lft.to/lastmile_qr_scan", "ios": "https://dc.lft.to/lastmile_qr_scan"}, "name": "a6614c63779aeb5d798d2348953a96ff", "is_reserved": 0}, {"is_disabled": 0, "fusion_lon": 0.0, "fusion_lat": 0.0, "lat": 38.93782866666667, "type": "electric_scooter", "lon": -77.01878966666666, "bike_id": "bc77eb3a7c918eccf1e6181eb017d626", "rental_uris": {"android": "https://dc.lft.to/lastmile_qr_scan", "ios": "https://dc.lft.to/lastmile_qr_scan"}, "name": "bc77eb3a7c918eccf1e6181eb017d626", "is_reserved": 0}, {"is_disabled": 0, "fusion_lon": 0.0, "fusion_lat": 0.0, "lat": 38.92225083333334, "type": "electric_scooter", "lon": -77.033013, "bike_id": "87e4ff2b6161e93235de5cdb2c0acead", "rental_uris": {"android": "https://dc.lft.to/lastmile_qr_scan", "ios": "https://dc.lft.to/lastmile_qr_scan"}, "name": "87e4ff2b6161e93235de5cdb2c0acead", "is_reserved": 0}, {"is_disabled": 0, "fusion_lon": 0.0, "fusion_lat": 0.0, "lat": 38.88743616666667, "type": "electric_scooter", "lon": -77.01540633333333, "bike_id": "8e6783fc8c6bf3a0bd76fc7eeeb16cd5", "rental_uris": {"android": "https://dc.lft.to/lastmile_qr_scan", "ios": "https://dc.lft.to/lastmile_qr_scan"}, "name": "8e6783fc8c6bf3a0bd76fc7eeeb16cd5", "is_reserved": 0}, {"is_disabled": 0, "fusion_lon": 0.0, "fusion_lat": 0.0, "lat": 38.916216666666664, "type": "electric_scooter", "lon": -77.04867033333333, "bike_id": "2f8595243b729970972f7c36ecab6556", "rental_uris": {"android": "https://dc.lft.to/lastmile_qr_scan", "ios": "https://dc.lft.to/lastmile_qr_scan"}, "name": "2f8595243b729970972f7c36ecab6556", "is_reserved": 0}, {"is_disabled": 0, "fusion_lon": 0.0, "fusion_lat": 0.0, "lat": 38.89564433333334, "type": "electric_bike", "lon": -77.12737716666666, "bike_id": "d2b920024bfab7f9f2865420655d41a9", "rental_uris": {"android": "https://dc.lft.to/lastmile_qr_scan", "ios": "https://dc.lft.to/lastmile_qr_scan"}, "name": "d2b920024bfab7f9f2865420655d41a9", "is_reserved": 0}, {"is_disabled": 0, "fusion_lon": 0.0, "fusion_lat": 0.0, "lat": 38.905560666666666, "type": "electric_scooter", "lon": -77.03470816666666, "bike_id": "b243aed25fdf2d447a71a424fb3a94ae", "rental_uris": {"android": "https://dc.lft.to/lastmile_qr_scan", "ios": "https://dc.lft.to/lastmile_qr_scan"}, "name": "b243aed25fdf2d447a71a424fb3a94ae", "is_reserved": 0}, {"is_disabled": 0, "fusion_lon": 0.0, "fusion_lat": 0.0, "lat": 38.922498166666664, "type": "electric_scooter", "lon": -77.041436, "bike_id": "a118fdaf60f67d903c57adaab78a449b", "rental_uris": {"android": "https://dc.lft.to/lastmile_qr_scan", "ios": "https://dc.lft.to/lastmile_qr_scan"}, "name": "a118fdaf60f67d903c57adaab78a449b", "is_reserved": 0}, {"is_disabled": 0, "fusion_lon": 0.0, "fusion_lat": 0.0, "lat": 38.91690366666667, "type": "electric_scooter", "lon": -77.02991233333333, "bike_id": "6454a0a194f0a759b22c73fbf8f68f22", "rental_uris": {"android": "https://dc.lft.to/lastmile_qr_scan", "ios": "https://dc.lft.to/lastmile_qr_scan"}, "name": "6454a0a194f0a759b22c73fbf8f68f22", "is_reserved": 0}, {"is_disabled": 0, "fusion_lon": 0.0, "fusion_lat": 0.0, "lat": 38.8343195, "type": "electric_bike", "lon": -77.10354216666667, "bike_id": "9cfd1af76fa665e4a35498407a535631", "rental_uris": {"android": "https://dc.lft.to/lastmile_qr_scan", "ios": "https://dc.lft.to/lastmile_qr_scan"}, "name": "9cfd1af76fa665e4a35498407a535631", "is_reserved": 0}, {"is_disabled": 0, "fusion_lon": 0.0, "fusion_lat": 0.0, "lat": 38.9110975, "type": "electric_scooter", "lon": -77.035592, "bike_id": "70532c7686b456d58125f7db12985eb5", "rental_uris": {"android": "https://dc.lft.to/lastmile_qr_scan", "ios": "https://dc.lft.to/lastmile_qr_scan"}, "name": "70532c7686b456d58125f7db12985eb5", "is_reserved": 0}, {"is_disabled": 0, "fusion_lon": 0.0, "fusion_lat": 0.0, "lat": 38.906508333333335, "type": "electric_scooter", "lon": -77.04528083333334, "bike_id": "bd7e43f97db60de6872d27517b7a9080", "rental_uris": {"android": "https://dc.lft.to/lastmile_qr_scan", "ios": "https://dc.lft.to/lastmile_qr_scan"}, "name": "bd7e43f97db60de6872d27517b7a9080", "is_reserved": 0}, {"is_disabled": 0, "fusion_lon": 0.0, "fusion_lat": 0.0, "lat": 38.9005895, "type": "electric_scooter", "lon": -77.04910066666666, "bike_id": "92a838028bc79c350631ea2811d6b91a", "rental_uris": {"android": "https://dc.lft.to/lastmile_qr_scan", "ios": "https://dc.lft.to/lastmile_qr_scan"}, "name": "92a838028bc79c350631ea2811d6b91a", "is_reserved": 0}, {"is_disabled": 0, "fusion_lon": 0.0, "fusion_lat": 0.0, "lat": 38.91924366666667, "type": "electric_scooter", "lon": -77.03093283333334, "bike_id": "a84c55985fc0a50b3293dcb9b1443d86", "rental_uris": {"android": "https://dc.lft.to/lastmile_qr_scan", "ios": "https://dc.lft.to/lastmile_qr_scan"}, "name": "a84c55985fc0a50b3293dcb9b1443d86", "is_reserved": 0}, {"is_disabled": 0, "fusion_lon": 0.0, "fusion_lat": 0.0, "lat": 38.90515333333333, "type": "electric_scooter", "lon": -76.98251333333333, "bike_id": "794d279fb3111c7b9506668af55448ff", "rental_uris": {"android": "https://dc.lft.to/lastmile_qr_scan", "ios": "https://dc.lft.to/lastmile_qr_scan"}, "name": "794d279fb3111c7b9506668af55448ff", "is_reserved": 0}, {"is_disabled": 0, "fusion_lon": 0.0, "fusion_lat": 0.0, "lat": 38.91695833333333, "type": "electric_scooter", "lon": -77.02604283333334, "bike_id": "77c25a560f58c6143e329686836daceb", "rental_uris": {"android": "https://dc.lft.to/lastmile_qr_scan", "ios": "https://dc.lft.to/lastmile_qr_scan"}, "name": "77c25a560f58c6143e329686836daceb", "is_reserved": 0}, {"is_disabled": 0, "fusion_lon": 0.0, "fusion_lat": 0.0, "lat": 39.007879333333335, "type": "electric_bike", "lon": -76.9956995, "bike_id": "c46152314b817b8b86b81cad86c01235", "rental_uris": {"android": "https://dc.lft.to/lastmile_qr_scan", "ios": "https://dc.lft.to/lastmile_qr_scan"}, "name": "c46152314b817b8b86b81cad86c01235", "is_reserved": 0}, {"is_disabled": 0, "fusion_lon": 0.0, "fusion_lat": 0.0, "lat": 38.923261, "type": "electric_scooter", "lon": -77.035779, "bike_id": "4ddaa06ff1f48de6b4b1734e2891a3e9", "rental_uris": {"android": "https://dc.lft.to/lastmile_qr_scan", "ios": "https://dc.lft.to/lastmile_qr_scan"}, "name": "4ddaa06ff1f48de6b4b1734e2891a3e9", "is_reserved": 0}, {"is_disabled": 0, "fusion_lon": 0.0, "fusion_lat": 0.0, "lat": 38.89637966666667, "type": "electric_scooter", "lon": -77.00926933333334, "bike_id": "4cdf10644798f361d9e58c923b9c131d", "rental_uris": {"android": "https://dc.lft.to/lastmile_qr_scan", "ios": "https://dc.lft.to/lastmile_qr_scan"}, "name": "4cdf10644798f361d9e58c923b9c131d", "is_reserved": 0}, {"is_disabled": 0, "fusion_lon": 0.0, "fusion_lat": 0.0, "lat": 38.91701333333334, "type": "electric_scooter", "lon": -77.04298666666666, "bike_id": "10b62cd086162bcdd809ad5e04bef542", "rental_uris": {"android": "https://dc.lft.to/lastmile_qr_scan", "ios": "https://dc.lft.to/lastmile_qr_scan"}, "name": "10b62cd086162bcdd809ad5e04bef542", "is_reserved": 0}, {"is_disabled": 0, "fusion_lon": 0.0, "fusion_lat": 0.0, "lat": 38.9056215, "type": "electric_scooter", "lon": -77.0246685, "bike_id": "7e24d21be0dad0d65754fa429da663aa", "rental_uris": {"android": "https://dc.lft.to/lastmile_qr_scan", "ios": "https://dc.lft.to/lastmile_qr_scan"}, "name": "7e24d21be0dad0d65754fa429da663aa", "is_reserved": 0}, {"is_disabled": 0, "fusion_lon": 0.0, "fusion_lat": 0.0, "lat": 38.92846683333333, "type": "electric_scooter", "lon": -77.0562415, "bike_id": "c21d7f9bf7d4a21a273ae3ba7af19e48", "rental_uris": {"android": "https://dc.lft.to/lastmile_qr_scan", "ios": "https://dc.lft.to/lastmile_qr_scan"}, "name": "c21d7f9bf7d4a21a273ae3ba7af19e48", "is_reserved": 0}, {"is_disabled": 0, "fusion_lon": 0.0, "fusion_lat": 0.0, "lat": 38.9186, "type": "electric_bike", "lon": -76.96087983333334, "bike_id": "7037d41414f7aed4fd66b11a2b076447", "rental_uris": {"android": "https://dc.lft.to/lastmile_qr_scan", "ios": "https://dc.lft.to/lastmile_qr_scan"}, "name": "7037d41414f7aed4fd66b11a2b076447", "is_reserved": 0}, {"is_disabled": 0, "fusion_lon": 0.0, "fusion_lat": 0.0, "lat": 38.945442666666665, "type": "electric_scooter", "lon": -77.042449, "bike_id": "1b7ff9156d9dba3488d0f6241df86155", "rental_uris": {"android": "https://dc.lft.to/lastmile_qr_scan", "ios": "https://dc.lft.to/lastmile_qr_scan"}, "name": "1b7ff9156d9dba3488d0f6241df86155", "is_reserved": 0}, {"is_disabled": 0, "fusion_lon": 0.0, "fusion_lat": 0.0, "lat": 38.91796633333333, "type": "electric_scooter", "lon": -77.03464416666667, "bike_id": "24e0868bf36840ee490785ad1ac94fd8", "rental_uris": {"android": "https://dc.lft.to/lastmile_qr_scan", "ios": "https://dc.lft.to/lastmile_qr_scan"}, "name": "24e0868bf36840ee490785ad1ac94fd8", "is_reserved": 0}, {"is_disabled": 0, "fusion_lon": 0.0, "fusion_lat": 0.0, "lat": 38.904685, "type": "electric_scooter", "lon": -77.02716016666666, "bike_id": "e3526056496d3eb26d931886c94f0dc1", "rental_uris": {"android": "https://dc.lft.to/lastmile_qr_scan", "ios": "https://dc.lft.to/lastmile_qr_scan"}, "name": "e3526056496d3eb26d931886c94f0dc1", "is_reserved": 0}, {"is_disabled": 0, "fusion_lon": 0.0, "fusion_lat": 0.0, "lat": 38.92957766666667, "type": "electric_scooter", "lon": -77.02335983333333, "bike_id": "d6d8b8e952946faa07d3b5fbb277f03c", "rental_uris": {"android": "https://dc.lft.to/lastmile_qr_scan", "ios": "https://dc.lft.to/lastmile_qr_scan"}, "name": "d6d8b8e952946faa07d3b5fbb277f03c", "is_reserved": 0}, {"is_disabled": 0, "fusion_lon": 0.0, "fusion_lat": 0.0, "lat": 38.92746266666666, "type": "electric_scooter", "lon": -77.02532533333333, "bike_id": "88f913a1db6736322dc13bcb0e4709d0", "rental_uris": {"android": "https://dc.lft.to/lastmile_qr_scan", "ios": "https://dc.lft.to/lastmile_qr_scan"}, "name": "88f913a1db6736322dc13bcb0e4709d0", "is_reserved": 0}, {"is_disabled": 0, "fusion_lon": 0.0, "fusion_lat": 0.0, "lat": 38.8767975, "type": "electric_scooter", "lon": -77.01790716666666, "bike_id": "3328b9519dfaafd3d172ba3aef12c612", "rental_uris": {"android": "https://dc.lft.to/lastmile_qr_scan", "ios": "https://dc.lft.to/lastmile_qr_scan"}, "name": "3328b9519dfaafd3d172ba3aef12c612", "is_reserved": 0}, {"is_disabled": 0, "fusion_lon": 0.0, "fusion_lat": 0.0, "lat": 38.9108555, "type": "electric_bike", "lon": -77.00498966666666, "bike_id": "03fd7be6c0b8cba8d505b0654fc3d638", "rental_uris": {"android": "https://dc.lft.to/lastmile_qr_scan", "ios": "https://dc.lft.to/lastmile_qr_scan"}, "name": "03fd7be6c0b8cba8d505b0654fc3d638", "is_reserved": 0}, {"is_disabled": 0, "fusion_lon": 0.0, "fusion_lat": 0.0, "lat": 38.91496466666667, "type": "electric_scooter", "lon": -76.98366133333333, "bike_id": "b8d6dfba78273f20283f182930864a93", "rental_uris": {"android": "https://dc.lft.to/lastmile_qr_scan", "ios": "https://dc.lft.to/lastmile_qr_scan"}, "name": "b8d6dfba78273f20283f182930864a93", "is_reserved": 0}, {"is_disabled": 0, "fusion_lon": 0.0, "fusion_lat": 0.0, "lat": 38.917200333333334, "type": "electric_scooter", "lon": -77.03322283333334, "bike_id": "5d7ebeef40977633b743dba0e1207ad8", "rental_uris": {"android": "https://dc.lft.to/lastmile_qr_scan", "ios": "https://dc.lft.to/lastmile_qr_scan"}, "name": "5d7ebeef40977633b743dba0e1207ad8", "is_reserved": 0}, {"is_disabled": 0, "fusion_lon": 0.0, "fusion_lat": 0.0, "lat": 38.951839, "type": "electric_scooter", "lon": -77.02612883333333, "bike_id": "74734fbd13f4fcec62a8d8e45a0a80b2", "rental_uris": {"android": "https://dc.lft.to/lastmile_qr_scan", "ios": "https://dc.lft.to/lastmile_qr_scan"}, "name": "74734fbd13f4fcec62a8d8e45a0a80b2", "is_reserved": 0}, {"is_disabled": 0, "fusion_lon": 0.0, "fusion_lat": 0.0, "lat": 38.90385233333333, "type": "electric_scooter", "lon": -76.990084, "bike_id": "7efc85074b48d919aee313f093db2b75", "rental_uris": {"android": "https://dc.lft.to/lastmile_qr_scan", "ios": "https://dc.lft.to/lastmile_qr_scan"}, "name": "7efc85074b48d919aee313f093db2b75", "is_reserved": 0}, {"is_disabled": 0, "fusion_lon": 0.0, "fusion_lat": 0.0, "lat": 38.92816366666667, "type": "electric_scooter", "lon": -77.03620083333334, "bike_id": "f96f764ca44d29e2ac2e80d2788b357a", "rental_uris": {"android": "https://dc.lft.to/lastmile_qr_scan", "ios": "https://dc.lft.to/lastmile_qr_scan"}, "name": "f96f764ca44d29e2ac2e80d2788b357a", "is_reserved": 0}, {"is_disabled": 0, "fusion_lon": 0.0, "fusion_lat": 0.0, "lat": 38.881184833333336, "type": "electric_bike", "lon": -77.01666983333334, "bike_id": "795fb8d5964f81dd9f02da61226ca0b1", "rental_uris": {"android": "https://dc.lft.to/lastmile_qr_scan", "ios": "https://dc.lft.to/lastmile_qr_scan"}, "name": "795fb8d5964f81dd9f02da61226ca0b1", "is_reserved": 0}, {"is_disabled": 0, "fusion_lon": 0.0, "fusion_lat": 0.0, "lat": 38.946241, "type": "electric_bike", "lon": -76.934158, "bike_id": "eda40ec08493f06e3ce1486aafa44ee3", "rental_uris": {"android": "https://dc.lft.to/lastmile_qr_scan", "ios": "https://dc.lft.to/lastmile_qr_scan"}, "name": "eda40ec08493f06e3ce1486aafa44ee3", "is_reserved": 0}, {"is_disabled": 0, "fusion_lon": 0.0, "fusion_lat": 0.0, "lat": 38.902682166666665, "type": "electric_scooter", "lon": -77.03431633333334, "bike_id": "f86c6992433d89f737413d66122388c7", "rental_uris": {"android": "https://dc.lft.to/lastmile_qr_scan", "ios": "https://dc.lft.to/lastmile_qr_scan"}, "name": "f86c6992433d89f737413d66122388c7", "is_reserved": 0}, {"is_disabled": 0, "fusion_lon": 0.0, "fusion_lat": 0.0, "lat": 38.911079, "type": "electric_scooter", "lon": -77.0383225, "bike_id": "7d0f8e388756d1b56a82567c8d8e47a5", "rental_uris": {"android": "https://dc.lft.to/lastmile_qr_scan", "ios": "https://dc.lft.to/lastmile_qr_scan"}, "name": "7d0f8e388756d1b56a82567c8d8e47a5", "is_reserved": 0}, {"is_disabled": 0, "fusion_lon": 0.0, "fusion_lat": 0.0, "lat": 38.89823783333333, "type": "electric_scooter", "lon": -76.946546, "bike_id": "5cdf26dd9201998533d526fabcf707d7", "rental_uris": {"android": "https://dc.lft.to/lastmile_qr_scan", "ios": "https://dc.lft.to/lastmile_qr_scan"}, "name": "5cdf26dd9201998533d526fabcf707d7", "is_reserved": 0}, {"is_disabled": 0, "fusion_lon": 0.0, "fusion_lat": 0.0, "lat": 38.924586, "type": "electric_scooter", "lon": -77.0296545, "bike_id": "190f277ebd88e05c63a2d96b9db73336", "rental_uris": {"android": "https://dc.lft.to/lastmile_qr_scan", "ios": "https://dc.lft.to/lastmile_qr_scan"}, "name": "190f277ebd88e05c63a2d96b9db73336", "is_reserved": 0}, {"is_disabled": 0, "fusion_lon": 0.0, "fusion_lat": 0.0, "lat": 38.910510333333335, "type": "electric_scooter", "lon": -77.02287583333333, "bike_id": "0cff5ba84a74419a092c79eb13ff9b59", "rental_uris": {"android": "https://dc.lft.to/lastmile_qr_scan", "ios": "https://dc.lft.to/lastmile_qr_scan"}, "name": "0cff5ba84a74419a092c79eb13ff9b59", "is_reserved": 0},