{"data": {"bikes": [{"lon": -77.03880466666666, "name": "e98af5132c5f8f2793230d5b76603800", "is_disabled": 0, "type": "electric_bike", "is_reserved": 0, "fusion_lon": 0.0, "lat": 39.026223333333334, "rental_uris": {"ios": "https://dc.lft.to/lastmile_qr_scan", "android": "https://dc.lft.to/lastmile_qr_scan"}, "bike_id": "e98af5132c5f8f2793230d5b76603800", "fusion_lat": 0.0}, {"lon": -77.05094166666667, "name": "8c80c665b7b69852ac2818668800a2fd", "is_disabled": 0, "type": "electric_bike", "is_reserved": 0, "fusion_lon": 0.0, "lat": 38.8132645, "rental_uris": {"ios": "https://dc.lft.to/lastmile_qr_scan", "android": "https://dc.lft.to/lastmile_qr_scan"}, "bike_id": "8c80c665b7b69852ac2818668800a2fd", "fusion_lat": 0.0}, {"lon": -77.00213316666667, "name": "4c61aef433a6626aad352fb21c0a3da0", "is_disabled": 0, "type": "electric_scooter", "is_reserved": 0, "fusion_lon": 0.0, "lat": 38.900246833333334, "rental_uris": {"ios": "https://dc.lft.to/lastmile_qr_scan", "android": "https://dc.lft.to/lastmile_qr_scan"}, "bike_id": "4c61aef433a6626aad352fb21c0a3da0", "fusion_lat": 0.0}, {"lon": -77.044634, "name": "72f420e3f8055c65575c5c4e60bee9a1", "is_disabled": 0, "type": "electric_scooter", "is_reserved": 0, "fusion_lon": 0.0, "lat": 38.915312666666665, "rental_uris": {"ios": "https://dc.lft.to/lastmile_qr_scan", "android": "https://dc.lft.to/lastmile_qr_scan"}, "bike_id": "72f420e3f8055c65575c5c4e60bee9a1", "fusion_lat": 0.0}, {"lon": -77.03372766666666, "name": "08d52bdf3bd3add2db1254829adb248a", "is_disabled": 0, "type": "electric_scooter", "is_reserved": 0, "fusion_lon": 0.0, "lat": 38.90108466666667, "rental_uris": {"ios": "https://dc.lft.to/lastmile_qr_scan", "android": "https://dc.lft.to/lastmile_qr_scan"}, "bike_id": "08d52bdf3bd3add2db1254829adb248a", "fusion_lat": 0.0}, {"lon": -76.94582416666667, "name": "ba3d80f56511708ff29844049f901d27", "is_disabled": 0, "type": "electric_scooter", "is_reserved": 0, "fusion_lon": 0.0, "lat": 38.8992465, "rental_uris": {"ios": "https://dc.lft.to/lastmile_qr_scan", "android": "https://dc.lft.to/lastmile_qr_scan"}, "bike_id": "ba3d80f56511708ff29844049f901d27", "fusion_lat": 0.0}, {"lon": -77.03455866666667, "name": "9ecc0af8179c964f47d591a46a189f53", "is_disabled": 0, "type": "electric_scooter", "is_reserved": 0, "fusion_lon": 0.0, "lat": 38.9374355, "rental_uris": {"ios": "https://dc.lft.to/lastmile_qr_scan", "android": "https://dc.lft.to/lastmile_qr_scan"}, "bike_id": "9ecc0af8179c964f47d591a46a189f53", "fusion_lat": 0.0}, {"lon": -77.12740983333333, "name": "61175a896491f0453bb0c602b8f252c4", "is_disabled": 0, "type": "electric_bike", "is_reserved": 0, "fusion_lon": 0.0, "lat": 38.89566833333333, "rental_uris": {"ios": "https://dc.lft.to/lastmile_qr_scan", "android": "https://dc.lft.to/lastmile_qr_scan"}, "bike_id": "61175a896491f0453bb0c602b8f252c4", "fusion_lat": 0.0}, {"lon": -77.013112, "name": "855a3ee937c4cffdddad44dbfffd8813", "is_disabled": 0, "type": "electric_scooter", "is_reserved": 0, "fusion_lon": 0.0, "lat": 38.9007515, "rental_uris": {"ios": "https://dc.lft.to/lastmile_qr_scan", "android": "https://dc.lft.to/lastmile_qr_scan"}, "bike_id": "855a3ee937c4cffdddad44dbfffd8813", "fusion_lat": 0.0}, {"lon": -77.030732, "name": "f771303a30f9221d49909abcb64c392d", "is_disabled": 0, "type": "electric_scooter", "is_reserved": 0, "fusion_lon": 0.0, "lat": 38.90574983333333, "rental_uris": {"ios": "https://dc.lft.to/lastmile_qr_scan", "android": "https://dc.lft.to/lastmile_qr_scan"}, "bike_id": "f771303a30f9221d49909abcb64c392d", "fusion_lat": 0.0}, {"lon": -76.93617966666666, "name": "02b8a6fe218ee133e651f317370c67ba", "is_disabled": 0, "type": "electric_bike", "is_reserved": 0, "fusion_lon": 0.0, "lat": 38.97050333333333, "rental_uris": {"ios": "https://dc.lft.to/lastmile_qr_scan", "android": "https://dc.lft.to/lastmile_qr_scan"}, "bike_id": "02b8a6fe218ee133e651f317370c67ba", "fusion_lat": 0.0}, {"lon": -77.03951833333333, "name": "ca2e271e015058eaa4aae1d36862e3d1", "is_disabled": 0, "type": "electric_scooter", "is_reserved": 0, "fusion_lon": 0.0, "lat": 38.92456416666667, "rental_uris": {"ios": "https://dc.lft.to/lastmile_qr_scan", "android": "https://dc.lft.to/lastmile_qr_scan"}, "bike_id": "ca2e271e015058eaa4aae1d36862e3d1", "fusion_lat": 0.0}, {"lon": -76.97331916666667, "name": "09f42377710647781d4d830e50faad77", "is_disabled": 0, "type": "electric_scooter", "is_reserved": 0, "fusion_lon": 0.0, "lat": 38.9041175, "rental_uris": {"ios": "https://dc.lft.to/lastmile_qr_scan", "android": "https://dc.lft.to/lastmile_qr_scan"}, "bike_id": "09f42377710647781d4d830e50faad77", "fusion_lat": 0.0}, {"lon": -77.00285466666666, "name": "958100e5830a9c7e5fb4d94e9de4fe61", "is_disabled": 0, "type": "electric_scooter", "is_reserved": 0, "fusion_lon": 0.0, "lat": 38.9110715, "rental_uris": {"ios": "https://dc.lft.to/lastmile_qr_scan", "android": "https://dc.lft.to/lastmile_qr_scan"}, "bike_id": "958100e5830a9c7e5fb4d94e9de4fe61", "fusion_lat": 0.0}, {"lon": -76.99564916666667, "name": "0cdbcf542d4da3634f0d4adbd03a77e8", "is_disabled": 0, "type": "electric_scooter", "is_reserved": 0, "fusion_lon": 0.0, "lat": 38.900091333333336, "rental_uris": {"ios": "https://dc.lft.to/lastmile_qr_scan", "android": "https://dc.lft.to/lastmile_qr_scan"}, "bike_id": "0cdbcf542d4da3634f0d4adbd03a77e8", "fusion_lat": 0.0}, {"lon": -77.01514666666667, "name": "6afc663e3874f5b3f2ac3e3e5c5ff6e3", "is_disabled": 0, "type": "electric_scooter", "is_reserved": 0, "fusion_lon": 0.0, "lat": 38.91322683333333, "rental_uris": {"ios": "https://dc.lft.to/lastmile_qr_scan", "android": "https://dc.lft.to/lastmile_qr_scan"}, "bike_id": "6afc663e3874f5b3f2ac3e3e5c5ff6e3", "fusion_lat": 0.0}, {"lon": -77.03200683333333, "name": "4e8cecb183806888d37354434a3c99af", "is_disabled": 0, "type": "electric_scooter", "is_reserved": 0, "fusion_lon": 0.0, "lat": 38.916254, "rental_uris": {"ios": "https://dc.lft.to/lastmile_qr_scan", "android": "https://dc.lft.to/lastmile_qr_scan"}, "bike_id": "4e8cecb183806888d37354434a3c99af", "fusion_lat": 0.0}, {"lon": -77.03289583333333, "name": "42ac383760d2f5af927cc30b253e6d45", "is_disabled": 0, "type": "electric_scooter", "is_reserved": 0, "fusion_lon": 0.0, "lat": 38.929309, "rental_uris": {"ios": "https://dc.lft.to/lastmile_qr_scan", "android": "https://dc.lft.to/lastmile_qr_scan"}, "bike_id": "42ac383760d2f5af927cc30b253e6d45", "fusion_lat": 0.0}, {"lon": -77.005087, "name": "bb24f309c3edd95730a4a1f703d06bf2", "is_disabled": 0, "type": "electric_scooter", "is_reserved": 0, "fusion_lon": 0.0, "lat": 38.87531533333333, "rental_uris": {"ios": "https://dc.lft.to/lastmile_qr_scan", "android": "https://dc.lft.to/lastmile_qr_scan"}, "bike_id": "bb24f309c3edd95730a4a1f703d06bf2", "fusion_lat": 0.0}, {"lon": -77.06988666666666, "name": "848f997111ae76524a4f4ba1a21b0667", "is_disabled": 0, "type": "electric_scooter", "is_reserved": 0, "fusion_lon": 0.0, "lat": 38.952981666666666, "rental_uris": {"ios": "https://dc.lft.to/lastmile_qr_scan", "android": "https://dc.lft.to/lastmile_qr_scan"}, "bike_id": "848f997111ae76524a4f4ba1a21b0667", "fusion_lat": 0.0}, {"lon": -77.02457583333333, "name": "e5688b53ad2d6cf9c5ec1e86ce1cb809", "is_disabled": 0, "type": "electric_scooter", "is_reserved": 0, "fusion_lon": 0.0, "lat": 38.923868666666664, "rental_uris": {"ios": "https://dc.lft.to/lastmile_qr_scan", "android": "https://dc.lft.to/lastmile_qr_scan"}, "bike_id": "e5688b53ad2d6cf9c5ec1e86ce1cb809", "fusion_lat": 0.0}, {"lon": -77.01164316666667, "name": "b4b1576bfb3dae1266b5e57be2194465", "is_disabled": 0, "type": "electric_scooter", "is_reserved": 0, "fusion_lon": 0.0, "lat": 38.917092833333335, "rental_uris": {"ios": "https://dc.lft.to/lastmile_qr_scan", "android": "https://dc.lft.to/lastmile_qr_scan"}, "bike_id": "b4b1576bfb3dae1266b5e57be2194465", "fusion_lat": 0.0}, {"lon": -77.00928, "name": "8c9bfad292be51152aaade0524ddbf38", "is_disabled": 0, "type": "electric_scooter", "is_reserved": 0, "fusion_lon": 0.0, "lat": 38.9169545, "rental_uris": {"ios": "https://dc.lft.to/lastmile_qr_scan", "android": "https://dc.lft.to/lastmile_qr_scan"}, "bike_id": "8c9bfad292be51152aaade0524ddbf38", "fusion_lat": 0.0}, {"lon": -77.225446, "name": "dcc5c2e1c7b432a7af42fca5588c00b1", "is_disabled": 0, "type": "electric_bike", "is_reserved": 0, "fusion_lon": 0.0, "lat": 38.92952833333333, "rental_uris": {"ios": "https://dc.lft.to/lastmile_qr_scan", "android": "https://dc.lft.to/lastmile_qr_scan"}, "bike_id": "dcc5c2e1c7b432a7af42fca5588c00b1", "fusion_lat": 0.0}, {"lon": -76.929507, "name": "51e507e325d400d11d7b56469fa9c87a", "is_disabled": 0, "type": "electric_scooter", "is_reserved": 0, "fusion_lon": 0.0, "lat": 38.901784166666665, "rental_uris": {"ios": "https://dc.lft.to/lastmile_qr_scan", "android": "https://dc.lft.to/lastmile_qr_scan"}, "bike_id": "51e507e325d400d11d7b56469fa9c87a", "fusion_lat": 0.0}, {"lon": -77.04868516666667, "name": "7e1c659da2692bd17b843e2b06dbae26", "is_disabled": 0, "type": "electric_scooter", "is_reserved": 0, "fusion_lon": 0.0, "lat": 38.899469833333335, "rental_uris": {"ios": "https://dc.lft.to/lastmile_qr_scan", "android": "https://dc.lft.to/lastmile_qr_scan"}, "bike_id": "7e1c659da2692bd17b843e2b06dbae26", "fusion_lat": 0.0}, {"lon": -77.01115516666667, "name": "d8bf3c27daded6fd5c269f221393d495", "is_disabled": 0, "type": "electric_scooter", "is_reserved": 0, "fusion_lon": 0.0, "lat": 38.89465766666667, "rental_uris": {"ios": "https://dc.lft.to/lastmile_qr_scan", "android": "https://dc.lft.to/lastmile_qr_scan"}, "bike_id": "d8bf3c27daded6fd5c269f221393d495", "fusion_lat": 0.0}, {"lon": -77.03404966666666, "name": "db208ad3820ebeca926cf4958da4acbf", "is_disabled": 0, "type": "electric_scooter", "is_reserved": 0, "fusion_lon": 0.0, "lat": 38.92043233333333, "rental_uris": {"ios": "https://dc.lft.to/lastmile_qr_scan", "android": "https://dc.lft.to/lastmile_qr_scan"}, "bike_id": "db208ad3820ebeca926cf4958da4acbf", "fusion_lat": 0.0}, {"lon": -77.02005233333334, "name": "43f4e63719eda6402fb4f2c7279aa46d", "is_disabled": 0, "type": "electric_scooter", "is_reserved": 0, "fusion_lon": 0.0, "lat": 38.885458, "rental_uris": {"ios": "https://dc.lft.to/lastmile_qr_scan", "android": "https://dc.lft.to/lastmile_qr_scan"}, "bike_id": "43f4e63719eda6402fb4f2c7279aa46d", "fusion_lat": 0.0}, {"lon": -77.021515, "name": "0210cf924d2085709d847bd09fe23a77", "is_disabled": 0, "type": "electric_scooter", "is_reserved": 0, "fusion_lon": 0.0, "lat": 38.92453066666667, "rental_uris": {"ios": "https://dc.lft.to/lastmile_qr_scan", "android": "https://dc.lft.to/lastmile_qr_scan"}, "bike_id": "0210cf924d2085709d847bd09fe23a77", "fusion_lat": 0.0}, {"lon": -77.04176366666667, "name": "20e5a8b0742fecdca9699d205257f613", "is_disabled": 0, "type": "electric_scooter", "is_reserved": 0, "fusion_lon": 0.0, "lat": 38.91704083333333, "rental_uris": {"ios": "https://dc.lft.to/lastmile_qr_scan", "android": "https://dc.lft.to/lastmile_qr_scan"}, "bike_id": "20e5a8b0742fecdca9699d205257f613", "fusion_lat": 0.0}, {"lon": -77.046003, "name": "949b16fa2c2a1e03861c2feb9b09c96f", "is_disabled": 0, "type": "electric_scooter", "is_reserved": 0, "fusion_lon": 0.0, "lat": 38.896178166666665, "rental_uris": {"ios": "https://dc.lft.to/lastmile_qr_scan", "android": "https://dc.lft.to/lastmile_qr_scan"}, "bike_id": "949b16fa2c2a1e03861c2feb9b09c96f", "fusion_lat": 0.0}, {"lon": -77.02714966666667, "name": "6a0feff34d5393316e702e48459641b3", "is_disabled": 0, "type": "electric_scooter", "is_reserved": 0, "fusion_lon": 0.0, "lat": 38.9168595, "rental_uris": {"ios": "https://dc.lft.to/lastmile_qr_scan", "android": "https://dc.lft.to/lastmile_qr_scan"}, "bike_id": "6a0feff34d5393316e702e48459641b3", "fusion_lat": 0.0}, {"lon": -77.01928516666666, "name": "93e971b0a70ee9785585676490a2badd", "is_disabled": 0, "type": "electric_scooter", "is_reserved": 0, "fusion_lon": 0.0, "lat": 38.93269133333333, "rental_uris": {"ios": "https://dc.lft.to/lastmile_qr_scan", "android": "https://dc.lft.to/lastmile_qr_scan"}, "bike_id": "93e971b0a70ee9785585676490a2badd", "fusion_lat": 0.0}, {"lon": -77.018773, "name": "238a1f9f78bea6d1bad51d4ff51e4b10", "is_disabled": 0, "type": "electric_scooter", "is_reserved": 0, "fusion_lon": 0.0, "lat": 38.911020666666666, "rental_uris": {"ios": "https://dc.lft.to/lastmile_qr_scan", "android": "https://dc.lft.to/lastmile_qr_scan"}, "bike_id": "238a1f9f78bea6d1bad51d4ff51e4b10", "fusion_lat": 0.0}, {"lon": -76.97334766666667, "name": "51794e296443c52ae34e312750aab25f", "is_disabled": 0, "type": "electric_scooter", "is_reserved": 0, "fusion_lon": 0.0, "lat": 38.904088333333334, "rental_uris": {"ios": "https://dc.lft.to/lastmile_qr_scan", "android": "https://dc.lft.to/lastmile_qr_scan"}, "bike_id": "51794e296443c52ae34e312750aab25f", "fusion_lat": 0.0}, {"lon": -77.02164766666667, "name": "cf6a9a1eb6d877b180ce236f7dfa359b", "is_disabled": 0, "type": "electric_scooter", "is_reserved": 0, "fusion_lon": 0.0, "lat": 38.919951166666664, "rental_uris": {"ios": "https://dc.lft.to/lastmile_qr_scan", "android": "https://dc.lft.to/lastmile_qr_scan"}, "bike_id": "cf6a9a1eb6d877b180ce236f7dfa359b", "fusion_lat": 0.0}, {"lon": -77.07472283333334, "name": "4eaba2408018fb7ea292af5d4aace882", "is_disabled": 0, "type": "electric_scooter", "is_reserved": 0, "fusion_lon": 0.0, "lat": 38.92243066666666, "rental_uris": {"ios": "https://dc.lft.to/lastmile_qr_scan", "android": "https://dc.lft.to/lastmile_qr_scan"}, "bike_id": "4eaba2408018fb7ea292af5d4aace882", "fusion_lat": 0.0}, {"lon": -77.031925, "name": "6cd662b70c72beaa55e84c81d5389a72", "is_disabled": 0, "type": "electric_scooter", "is_reserved": 0, "fusion_lon": 0.0, "lat": 38.90748216666667, "rental_uris": {"ios": "https://dc.lft.to/lastmile_qr_scan", "android": "https://dc.lft.to/lastmile_qr_scan"}, "bike_id": "6cd662b70c72beaa55e84c81d5389a72", "fusion_lat": 0.0}, {"lon": -77.02519216666667, "name": "bf1d5cdb0d54766321cdffba6f865656", "is_disabled": 0, "type": "electric_scooter", "is_reserved": 0, "fusion_lon": 0.0, "lat": 38.9209025, "rental_uris": {"ios": "https://dc.lft.to/lastmile_qr_scan", "android": "https://dc.lft.to/lastmile_qr_scan"}, "bike_id": "bf1d5cdb0d54766321cdffba6f865656", "fusion_lat": 0.0}, {"lon": -77.040796, "name": "78616c67f6270edfbc0fbc7392e8197b", "is_disabled": 0, "type": "electric_scooter", "is_reserved": 0, "fusion_lon": 0.0, "lat": 38.928825833333335, "rental_uris": {"ios": "https://dc.lft.to/lastmile_qr_scan", "android": "https://dc.lft.to/lastmile_qr_scan"}, "bike_id": "78616c67f6270edfbc0fbc7392e8197b", "fusion_lat": 0.0}, {"lon": -77.2341235, "name": "51d4b128be8ce1b86547b151e3c6213b", "is_disabled": 0, "type": "electric_bike", "is_reserved": 0, "fusion_lon": 0.0, "lat": 38.87577, "rental_uris": {"ios": "https://dc.lft.to/lastmile_qr_scan", "android": "https://dc.lft.to/lastmile_qr_scan"}, "bike_id": "51d4b128be8ce1b86547b151e3c6213b", "fusion_lat": 0.0}, {"lon": -77.00233566666667, "name": "10b7688aec0b5f6822202072cef1b3f1", "is_disabled": 0, "type": "electric_scooter", "is_reserved": 0, "fusion_lon": 0.0, "lat": 38.907649, "rental_uris": {"ios": "https://dc.lft.to/lastmile_qr_scan", "android": "https://dc.lft.to/lastmile_qr_scan"}, "bike_id": "10b7688aec0b5f6822202072cef1b3f1", "fusion_lat": 0.0}, {"lon": -76.93931283333333, "name": "995344a765d615d38a0aaa9f62a06503", "is_disabled": 0, "type": "electric_scooter", "is_reserved": 0, "fusion_lon": 0.0, "lat": 38.89332566666667, "rental_uris": {"ios": "https://dc.lft.to/lastmile_qr_scan", "android": "https://dc.lft.to/lastmile_qr_scan"}, "bike_id": "995344a765d615d38a0aaa9f62a06503", "fusion_lat": 0.0}, {"lon": -77.04301016666666, "name": "1439d61a3f519e9a07dada44ce45ab4d", "is_disabled": 0, "type": "electric_scooter", "is_reserved": 0, "fusion_lon": 0.0, "lat": 38.92384466666667, "rental_uris": {"ios": "https://dc.lft.to/lastmile_qr_scan", "android": "https://dc.lft.to/lastmile_qr_scan"}, "bike_id": "1439d61a3f519e9a07dada44ce45ab4d", "fusion_lat": 0.0}, {"lon": -77.0057665, "name": "d80b6129bc46c493959781ff5fba64f5", "is_disabled": 0, "type": "electric_scooter", "is_reserved": 0, "fusion_lon": 0.0, "lat": 38.885043333333336, "rental_uris": {"ios": "https://dc.lft.to/lastmile_qr_scan", "android": "https://dc.lft.to/lastmile_qr_scan"}, "bike_id": "d80b6129bc46c493959781ff5fba64f5", "fusion_lat": 0.0}, {"lon": -77.019718, "name": "2986c8ec792958160af6cf84bf53fce6", "is_disabled": 0, "type": "electric_scooter", "is_reserved": 0, "fusion_lon": 0.0, "lat": 38.878431666666664, "rental_uris": {"ios": "https://dc.lft.to/lastmile_qr_scan", "android": "https://dc.lft.to/lastmile_qr_scan"}, "bike_id": "2986c8ec792958160af6cf84bf53fce6", "fusion_lat": 0.0}, {"lon": -77.00337466666667, "name": "6c624c976d21ae8afd345c526fd16ff8", "is_disabled": 0, "type": "electric_scooter", "is_reserved": 0, "fusion_lon": 0.0, "lat": 38.893526, "rental_uris": {"ios": "https://dc.lft.to/lastmile_qr_scan", "android": "https://dc.lft.to/lastmile_qr_scan"}, "bike_id": "6c624c976d21ae8afd345c526fd16ff8", "fusion_lat": 0.0}, {"lon": -76.97902416666666, "name": "bcc1bc575980d07c6b862b7622f0260c", "is_disabled": 0, "type": "electric_scooter", "is_reserved": 0, "fusion_lon": 0.0, "lat": 38.888582, "rental_uris": {"ios": "https://dc.lft.to/lastmile_qr_scan", "android": "https://dc.lft.to/lastmile_qr_scan"}, "bike_id": "bcc1bc575980d07c6b862b7622f0260c", "fusion_lat": 0.0}, {"lon": -77.077002, "name": "187c247a8527fc7cc525123a6058da36", "is_disabled": 0, "type": "electric_scooter", "is_reserved": 0, "fusion_lon": 0.0, "lat": 38.922454333333334, "rental_uris": {"ios": "https://dc.lft.to/lastmile_qr_scan", "android": "https://dc.lft.to/lastmile_qr_scan"}, "bike_id": "187c247a8527fc7cc525123a6058da36", "fusion_lat": 0.0}, {"lon": -77.021947, "name": "a1d5e5a704bc032a92cccda8b9bfe356", "is_disabled": 0, "type": "electric_scooter", "is_reserved": 0, "fusion_lon": 0.0, "lat": 38.9154325, "rental_uris": {"ios": "https://dc.lft.to/lastmile_qr_scan", "android": "https://dc.lft.to/lastmile_qr_scan"}, "bike_id": "a1d5e5a704bc032a92cccda8b9bfe356", "fusion_lat": 0.0}, {"lon": -77.0236655, "name": "ffca4185241dbfc3ba0267ca0bfb12b8", "is_disabled": 0, "type": "electric_scooter", "is_reserved": 0, "fusion_lon": 0.0, "lat": 38.908520833333334, "rental_uris": {"ios": "https://dc.lft.to/lastmile_qr_scan", "android": "https://dc.lft.to/lastmile_qr_scan"}, "bike_id": "ffca4185241dbfc3ba0267ca0bfb12b8", "fusion_lat": 0.0}, {"lon": -77.01737966666667, "name": "d2aab9fe62f72ad43b392cea5742e688", "is_disabled": 0, "type": "electric_bike", "is_reserved": 0, "fusion_lon": 0.0, "lat": 38.97516316666667, "rental_uris": {"ios": "https://dc.lft.to/lastmile_qr_scan", "android": "https://dc.lft.to/lastmile_qr_scan"}, "bike_id": "d2aab9fe62f72ad43b392cea5742e688", "fusion_lat": 0.0}, {"lon": -77.001397, "name": "5602c784b0ad5c3ad4576da800967d82", "is_disabled": 0, "type": "electric_bike", "is_reserved": 0, "fusion_lon": 0.0, "lat": 38.99497, "rental_uris": {"ios": "https://dc.lft.to/lastmile_qr_scan", "android": "https://dc.lft.to/lastmile_qr_scan"}, "bike_id": "5602c784b0ad5c3ad4576da800967d82", "fusion_lat": 0.0}, {"lon": -76.96263933333333, "name": "a89c213a1f1286066ae3948e9e8ce8bb", "is_disabled": 0, "type": "electric_bike", "is_reserved": 0, "fusion_lon": 0.0, "lat": 38.88245766666667, "rental_uris": {"ios": "https://dc.lft.to/lastmile_qr_scan", "android": "https://dc.lft.to/lastmile_qr_scan"}, "bike_id": "a89c213a1f1286066ae3948e9e8ce8bb", "fusion_lat": 0.0}, {"lon": -76.98938883333334, "name": "71af08b7e4094a063203dea4f350ec86", "is_disabled": 0, "type": "electric_scooter", "is_reserved": 0, "fusion_lon": 0.0, "lat": 38.900053666666665, "rental_uris": {"ios": "https://dc.lft.to/lastmile_qr_scan", "android": "https://dc.lft.to/lastmile_qr_scan"}, "bike_id": "71af08b7e4094a063203dea4f350ec86", "fusion_lat": 0.0}, {"lon": -77.005367, "name": "704e4deb678e83b8ae3d4f07bae119eb", "is_disabled": 0, "type": "electric_scooter", "is_reserved": 0, "fusion_lon": 0.0, "lat": 38.875460833333335, "rental_uris": {"ios": "https://dc.lft.to/lastmile_qr_scan", "android": "https://dc.lft.to/lastmile_qr_scan"}, "bike_id": "704e4deb678e83b8ae3d4f07bae119eb", "fusion_lat": 0.0}, {"lon": -77.01731983333333, "name": "d00647653cd4dc7a0192d4d39c25f0c8", "is_disabled": 0, "type": "electric_scooter", "is_reserved": 0, "fusion_lon": 0.0, "lat": 38.876974, "rental_uris": {"ios": "https://dc.lft.to/lastmile_qr_scan", "android": "https://dc.lft.to/lastmile_qr_scan"}, "bike_id": "d00647653cd4dc7a0192d4d39c25f0c8", "fusion_lat": 0.0}, {"lon": -76.948483, "name": "c14ca10877ca5d26d73ff10492a017e2", "is_disabled": 0, "type": "electric_scooter", "is_reserved": 0, "fusion_lon": 0.0, "lat": 38.89604333333333, "rental_uris": {"ios": "https://dc.lft.to/lastmile_qr_scan", "android": "https://dc.lft.to/lastmile_qr_scan"}, "bike_id": "c14ca10877ca5d26d73ff10492a017e2", "fusion_lat": 0.0}, {"lon": -77.0314105, "name": "1741d5867c0afe6c60e884082df8ec1f", "is_disabled": 0, "type": "electric_scooter", "is_reserved": 0, "fusion_lon": 0.0, "lat": 38.941921666666666, "rental_uris": {"ios": "https://dc.lft.to/lastmile_qr_scan", "android": "https://dc.lft.to/lastmile_qr_scan"}, "bike_id": "1741d5867c0afe6c60e884082df8ec1f", "fusion_lat": 0.0}, {"lon": -76.9872335, "name": "d91f7ce7b910c4275605d41ffaaaa48f", "is_disabled": 0, "type": "electric_bike", "is_reserved": 0, "fusion_lon": 0.0, "lat": 38.86330016666667, "rental_uris": {"ios": "https://dc.lft.to/lastmile_qr_scan", "android": "https://dc.lft.to/lastmile_qr_scan"}, "bike_id": "d91f7ce7b910c4275605d41ffaaaa48f", "fusion_lat": 0.0}, {"lon": -77.02765233333334, "name": "babd400ff641d2834bab912502b08e71", "is_disabled": 0, "type": "electric_scooter", "is_reserved": 0, "fusion_lon": 0.0, "lat": 38.925795, "rental_uris": {"ios": "https://dc.lft.to/lastmile_qr_scan", "android": "https://dc.lft.to/lastmile_qr_scan"}, "bike_id": "babd400ff641d2834bab912502b08e71", "fusion_lat": 0.0}, {"lon": -77.03705133333334, "name": "241576cedbbd4244e3d1d9e7b8b16af2", "is_disabled": 0, "type": "electric_scooter", "is_reserved": 0, "fusion_lon": 0.0, "lat": 38.930618, "rental_uris": {"ios": "https://dc.lft.to/lastmile_qr_scan", "android": "https://dc.lft.to/lastmile_qr_scan"}, "bike_id": "241576cedbbd4244e3d1d9e7b8b16af2", "fusion_lat": 0.0}, {"lon": -77.0127055, "name": "a5a67de93a07c980e9be63ea261a1d34", "is_disabled": 0, "type": "electric_scooter", "is_reserved": 0, "fusion_lon": 0.0, "lat": 38.86448083333333, "rental_uris": {"ios": "https://dc.lft.to/lastmile_qr_scan", "android": "https://dc.lft.to/lastmile_qr_scan"}, "bike_id": "a5a67de93a07c980e9be63ea261a1d34", "fusion_lat": 0.0}, {"lon": -77.03210316666667, "name": "6ca3b2a4eca4b7cc61e1c47aa167f599", "is_disabled": 0, "type": "electric_scooter", "is_reserved": 0, "fusion_lon": 0.0, "lat": 38.916458, "rental_uris": {"ios": "https://dc.lft.to/lastmile_qr_scan", "android": "https://dc.lft.to/lastmile_qr_scan"}, "bike_id": "6ca3b2a4eca4b7cc61e1c47aa167f599", "fusion_lat": 0.0}, {"lon": -76.9910055, "name": "c5695a59e65a5196cef71287d29697bd", "is_disabled": 0, "type": "electric_bike", "is_reserved": 0, "fusion_lon": 0.0, "lat": 38.804824833333335, "rental_uris": {"ios": "https://dc.lft.to/lastmile_qr_scan", "android": "https://dc.lft.to/lastmile_qr_scan"}, "bike_id": "c5695a59e65a5196cef71287d29697bd", "fusion_lat": 0.0}, {"lon": -77.00357633333333, "name": "ee75a4222c4c10e54ef251a9207cabad", "is_disabled": 0, "type": "electric_scooter", "is_reserved": 0, "fusion_lon": 0.0, "lat": 38.917638333333336, "rental_uris": {"ios": "https://dc.lft.to/lastmile_qr_scan", "android": "https://dc.lft.to/lastmile_qr_scan"}, "bike_id": "ee75a4222c4c10e54ef251a9207cabad", "fusion_lat": 0.0}, {"lon": -77.03660883333333, "name": "78e31bdc8650df70f3a8adf3b45227a1", "is_disabled": 0, "type": "electric_scooter", "is_reserved": 0, "fusion_lon": 0.0, "lat": 38.92332783333333, "rental_uris": {"ios": "https://dc.lft.to/lastmile_qr_scan", "android": "https://dc.lft.to/lastmile_qr_scan"}, "bike_id": "78e31bdc8650df70f3a8adf3b45227a1", "fusion_lat": 0.0}, {"lon": -77.0184875, "name": "3dbc91d94a408f73d9703a70c1e4690f", "is_disabled": 0, "type": "electric_scooter", "is_reserved": 0, "fusion_lon": 0.0, "lat": 38.948896, "rental_uris": {"ios": "https://dc.lft.to/lastmile_qr_scan", "android": "https://dc.lft.to/lastmile_qr_scan"}, "bike_id": "3dbc91d94a408f73d9703a70c1e4690f", "fusion_lat": 0.0}, {"lon": -76.97564583333333, "name": "eec1f7ac6a620f84bdaeecaf59c8bd3a", "is_disabled": 0, "type": "electric_bike", "is_reserved": 0, "fusion_lon": 0.0, "lat": 38.8726385, "rental_uris": {"ios": "https://dc.lft.to/lastmile_qr_scan", "android": "https://dc.lft.to/lastmile_qr_scan"}, "bike_id": "eec1f7ac6a620f84bdaeecaf59c8bd3a", "fusion_lat": 0.0}, {"lon": -76.99380916666667, "name": "987e659c89bcc5e0456cb9643b250ff4", "is_disabled": 0, "type": "electric_scooter", "is_reserved": 0, "fusion_lon": 0.0, "lat": 38.893374666666666, "rental_uris": {"ios": "https://dc.lft.to/lastmile_qr_scan", "android": "https://dc.lft.to/lastmile_qr_scan"}, "bike_id": "987e659c89bcc5e0456cb9643b250ff4", "fusion_lat": 0.0}, {"lon": -77.022075, "name": "396cd80ae3519d673a93c9466bab2b60", "is_disabled": 0, "type": "electric_scooter", "is_reserved": 0, "fusion_lon": 0.0, "lat": 38.92465933333333, "rental_uris": {"ios": "https://dc.lft.to/lastmile_qr_scan", "android": "https://dc.lft.to/lastmile_qr_scan"}, "bike_id": "396cd80ae3519d673a93c9466bab2b60", "fusion_lat": 0.0}, {"lon": -76.99798283333334, "name": "7dba989d9d0ac2695f13173b6729e4f5", "is_disabled": 0, "type": "electric_bike", "is_reserved": 0, "fusion_lon": 0.0, "lat": 38.99811783333333, "rental_uris": {"ios": "https://dc.lft.to/lastmile_qr_scan", "android": "https://dc.lft.to/lastmile_qr_scan"}, "bike_id": "7dba989d9d0ac2695f13173b6729e4f5", "fusion_lat": 0.0}, {"lon": -77.02112683333333, "name": "a39c4c6ee8d383f925752649002717ac", "is_disabled": 0, "type": "electric_scooter", "is_reserved": 0, "fusion_lon": 0.0, "lat": 38.927853, "rental_uris": {"ios": "https://dc.lft.to/lastmile_qr_scan", "android": "https://dc.lft.to/lastmile_qr_scan"}, "bike_id": "a39c4c6ee8d383f925752649002717ac", "fusion_lat": 0.0}, {"lon": -77.03340733333333, "name": "60d15890a5266e1657ecb668fb88f7cb", "is_disabled": 0, "type": "electric_scooter", "is_reserved": 0, "fusion_lon": 0.0, "lat": 38.91801783333333, "rental_uris": {"ios": "https://dc.lft.to/lastmile_qr_scan", "android": "https://dc.lft.to/lastmile_qr_scan"}, "bike_id": "60d15890a5266e1657ecb668fb88f7cb", "fusion_lat": 0.0}, {"lon": -77.02539883333333, "name": "4c50eab4acb0351cd13c20db422fd04f", "is_disabled": 0, "type": "electric_scooter", "is_reserved": 0, "fusion_lon": 0.0, "lat": 38.92246383333333, "rental_uris": {"ios": "https://dc.lft.to/lastmile_qr_scan", "android": "https://dc.lft.to/lastmile_qr_scan"}, "bike_id": "4c50eab4acb0351cd13c20db422fd04f", "fusion_lat": 0.0}, {"lon": -77.02809266666667, "name": "bd149d654b42063c28df3f2ed37fbca2", "is_disabled": 0, "type": "electric_scooter", "is_reserved": 0, "fusion_lon": 0.0, "lat": 38.90705483333333, "rental_uris": {"ios": "https://dc.lft.to/lastmile_qr_scan", "android": "https://dc.lft.to/lastmile_qr_scan"}, "bike_id": "bd149d654b42063c28df3f2ed37fbca2", "fusion_lat": 0.0}, {"lon": -77.03204483333333, "name": "74cbe9840ba30ae6c96e65b9129f2888", "is_disabled": 0, "type": "electric_scooter", "is_reserved": 0, "fusion_lon": 0.0, "lat": 38.916276333333336, "rental_uris": {"ios": "https://dc.lft.to/lastmile_qr_scan", "android": "https://dc.lft.to/lastmile_qr_scan"}, "bike_id": "74cbe9840ba30ae6c96e65b9129f2888", "fusion_lat": 0.0}, {"lon": -77.03281383333334, "name": "803d2db55e446050fc7e3810e9eb1706", "is_disabled": 0, "type": "electric_scooter", "is_reserved": 0, "fusion_lon": 0.0, "lat": 38.89885016666667, "rental_uris": {"ios": "https://dc.lft.to/lastmile_qr_scan", "android": "https://dc.lft.to/lastmile_qr_scan"}, "bike_id": "803d2db55e446050fc7e3810e9eb1706", "fusion_lat": 0.0}, {"lon": -76.990697, "name": "adc8724e2ad5b90bf05c001522c63c17", "is_disabled": 0, "type": "electric_scooter", "is_reserved": 0, "fusion_lon": 0.0, "lat": 38.856311166666664, "rental_uris": {"ios": "https://dc.lft.to/lastmile_qr_scan", "android": "https://dc.lft.to/lastmile_qr_scan"}, "bike_id": "adc8724e2ad5b90bf05c001522c63c17", "fusion_lat": 0.0}, {"lon": -76.986022, "name": "b2ac7c7576a954ae9b506cf0f152659b", "is_disabled": 0, "type": "electric_scooter", "is_reserved": 0, "fusion_lon": 0.0, "lat": 38.906561833333335, "rental_uris": {"ios": "https://dc.lft.to/lastmile_qr_scan", "android": "https://dc.lft.to/lastmile_qr_scan"}, "bike_id": "b2ac7c7576a954ae9b506cf0f152659b", "fusion_lat": 0.0}, {"lon": -76.96107866666667, "name": "728d28567cf2d94358b3386f209da566", "is_disabled": 0, "type": "electric_scooter", "is_reserved": 0, "fusion_lon": 0.0, "lat": 38.89199333333333, "rental_uris": {"ios": "https://dc.lft.to/lastmile_qr_scan", "android": "https://dc.lft.to/lastmile_qr_scan"}, "bike_id": "728d28567cf2d94358b3386f209da566", "fusion_lat": 0.0}, {"lon": -76.983823, "name": "89d1843d0df50153d0dee6ebc11923d3", "is_disabled": 0, "type": "electric_scooter", "is_reserved": 0, "fusion_lon": 0.0, "lat": 38.90649583333333, "rental_uris": {"ios": "https://dc.lft.to/lastmile_qr_scan", "android": "https://dc.lft.to/lastmile_qr_scan"}, "bike_id": "89d1843d0df50153d0dee6ebc11923d3", "fusion_lat": 0.0}, {"lon": -77.0238215, "name": "a47722c836af993d5b35c4f16c0a5772", "is_disabled": 0, "type": "electric_scooter", "is_reserved": 0, "fusion_lon": 0.0, "lat": 38.92061366666667, "rental_uris": {"ios": "https://dc.lft.to/lastmile_qr_scan", "android": "https://dc.lft.to/lastmile_qr_scan"}, "bike_id": "a47722c836af993d5b35c4f16c0a5772", "fusion_lat": 0.0}, {"lon": -77.02168033333334, "name": "1c53484bc38180cbffa019e26b04a7fd", "is_disabled": 0, "type": "electric_scooter", "is_reserved": 0, "fusion_lon": 0.0, "lat": 38.901998666666664, "rental_uris": {"ios": "https://dc.lft.to/lastmile_qr_scan", "android": "https://dc.lft.to/lastmile_qr_scan"}, "bike_id": "1c53484bc38180cbffa019e26b04a7fd", "fusion_lat": 0.0}, {"lon": -77.02062016666666, "name": "f29c437a3e727d634f414fc15ff573f4", "is_disabled": 0, "type": "electric_scooter", "is_reserved": 0, "fusion_lon": 0.0, "lat": 38.92253266666667, "rental_uris": {"ios": "https://dc.lft.to/lastmile_qr_scan", "android": "https://dc.lft.to/lastmile_qr_scan"}, "bike_id": "f29c437a3e727d634f414fc15ff573f4", "fusion_lat": 0.0}, {"lon": -77.02377666666666, "name": "5619a72117cc7858cb740323c5b619ab", "is_disabled": 0, "type": "electric_scooter", "is_reserved": 0, "fusion_lon": 0.0, "lat": 38.90197416666667, "rental_uris": {"ios": "https://dc.lft.to/lastmile_qr_scan", "android": "https://dc.lft.to/lastmile_qr_scan"}, "bike_id": "5619a72117cc7858cb740323c5b619ab", "fusion_lat": 0.0}, {"lon": -77.06084416666667, "name": "bc96074356758519afb1765c70488682", "is_disabled": 0, "type": "electric_scooter", "is_reserved": 0, "fusion_lon": 0.0, "lat": 38.911873, "rental_uris": {"ios": "https://dc.lft.to/lastmile_qr_scan", "android": "https://dc.lft.to/lastmile_qr_scan"}, "bike_id": "bc96074356758519afb1765c70488682", "fusion_lat": 0.0}, {"lon": -77.0188835, "name": "585083a4b8a34f8a80250e243077c0b0", "is_disabled": 0, "type": "electric_scooter", "is_reserved": 0, "fusion_lon": 0.0, "lat": 38.90906566666666, "rental_uris": {"ios": "https://dc.lft.to/lastmile_qr_scan", "android": "https://dc.lft.to/lastmile_qr_scan"}, "bike_id": "585083a4b8a34f8a80250e243077c0b0", "fusion_lat": 0.0}, {"lon": -76.91723683333333, "name": "3a7ed67422d8860b5e6ba387bd1a5180", "is_disabled": 0, "type": "electric_bike", "is_reserved": 0, "fusion_lon": 0.0, "lat": 38.88025966666667, "rental_uris": {"ios": "https://dc.lft.to/lastmile_qr_scan", "android": "https://dc.lft.to/lastmile_qr_scan"}, "bike_id": "3a7ed67422d8860b5e6ba387bd1a5180", "fusion_lat": 0.0}, {"lon": -77.0388505, "name": "dc0192721868e5215fc92fe1d15f86a2", "is_disabled": 0, "type": "electric_scooter", "is_reserved": 0, "fusion_lon": 0.0, "lat": 38.93123033333333, "rental_uris": {"ios": "https://dc.lft.to/lastmile_qr_scan", "android": "https://dc.lft.to/lastmile_qr_scan"}, "bike_id": "dc0192721868e5215fc92fe1d15f86a2", "fusion_lat": 0.0}, {"lon": -77.0049205, "name": "993dc9aaa858efc33c982feeae7787db", "is_disabled": 0, "type": "electric_scooter", "is_reserved": 0, "fusion_lon": 0.0, "lat": 38.91691216666667, "rental_uris": {"ios": "https://dc.lft.to/lastmile_qr_scan", "android": "https://dc.lft.to/lastmile_qr_scan"}, "bike_id": "993dc9aaa858efc33c982feeae7787db", "fusion_lat": 0.0}, {"lon": -77.0722135, "name": "8023b383fdfddc9d266a6c27ec5b31b7", "is_disabled": 0, "type": "electric_scooter", "is_reserved": 0, "fusion_lon": 0.0, "lat": 38.913607666666664, "rental_uris": {"ios": "https://dc.lft.to/lastmile_qr_scan", "android": "https://dc.lft.to/lastmile_qr_scan"}, "bike_id": "8023b383fdfddc9d266a6c27ec5b31b7", "fusion_lat": 0.0}, {"lon": -77.02949783333334, "name": "7ccd7cd9a4f81a875145eb7023486a54", "is_disabled": 0, "type": "electric_scooter", "is_reserved": 0, "fusion_lon": 0.0, "lat": 38.9049955, "rental_uris": {"ios": "https://dc.lft.to/lastmile_qr_scan", "android": "https://dc.lft.to/lastmile_qr_scan"}, "bike_id": "7ccd7cd9a4f81a875145eb7023486a54", "fusion_lat": 0.0}, {"lon": -77.02044716666667, "name": "38e6754f74cca70452cc56d93bb4f649", "is_disabled": 0, "type": "electric_scooter", "is_reserved": 0, "fusion_lon": 0.0, "lat": 38.923808, "rental_uris": {"ios": "https://dc.lft.to/lastmile_qr_scan", "android": "https://dc.lft.to/lastmile_qr_scan"}, "bike_id": "38e6754f74cca70452cc56d93bb4f649", "fusion_lat": 0.0}, {"lon": -77.043019, "name": "a21fb1c1768b5c55e2155553c7f6f6d8", "is_disabled": 0, "type": "electric_scooter", "is_reserved": 0, "fusion_lon": 0.0, "lat": 38.92260983333333, "rental_uris": {"ios": "https://dc.lft.to/lastmile_qr_scan", "android": "https://dc.lft.to/lastmile_qr_scan"}, "bike_id": "a21fb1c1768b5c55e2155553c7f6f6d8", "fusion_lat": 0.0}, {"lon": -76.93594783333333, "name": "cb084371e65c6ecb0ea6df0c276a97ea", "is_disabled": 0, "type": "electric_scooter", "is_reserved": 0, "fusion_lon": 0.0, "lat": 38.909440000000004, "rental_uris": {"ios": "https://dc.lft.to/lastmile_qr_scan", "android": "https://dc.lft.to/lastmile_qr_scan"}, "bike_id": "cb084371e65c6ecb0ea6df0c276a97ea", "fusion_lat": 0.0}, {"lon": -77.04806216666667, "name": "2a4b75fa0c7ccc37956e7c9e9e7ab346", "is_disabled": 0, "type": "electric_scooter", "is_reserved": 0, "fusion_lon": 0.0, "lat": 38.8974265, "rental_uris": {"ios": "https://dc.lft.to/lastmile_qr_scan", "android": "https://dc.lft.to/lastmile_qr_scan"}, "bike_id": "2a4b75fa0c7ccc37956e7c9e9e7ab346", "fusion_lat": 0.0}, {"lon": -77.01292566666666, "name": "eceabce93d01080e9e2454774bc198e8", "is_disabled": 0, "type": "electric_bike", "is_reserved": 0, "fusion_lon": 0.0, "lat": 38.88153333333333, "rental_uris": {"ios": "https://dc.lft.to/lastmile_qr_scan", "android": "https://dc.lft.to/lastmile_qr_scan"}, "bike_id": "eceabce93d01080e9e2454774bc198e8", "fusion_lat": 0.0}, {"lon": -77.0366145, "name": "dbfbc7c684c71aded027b5c0f84c7160", "is_disabled": 0, "type": "electric_scooter", "is_reserved": 0, "fusion_lon": 0.0, "lat": 38.92391216666667, "rental_uris": {"ios": "https://dc.lft.to/lastmile_qr_scan", "android": "https://dc.lft.to/lastmile_qr_scan"}, "bike_id": "dbfbc7c684c71aded027b5c0f84c7160", "fusion_lat": 0.0}, {"lon": -77.036605, "name": "0b3ec3a05d8d90f023af6d01a13be242", "is_disabled": 0, "type": "electric_scooter", "is_reserved": 0, "fusion_lon": 0.0, "lat": 38.922836833333335, "rental_uris": {"ios": "https://dc.lft.to/lastmile_qr_scan", "android": "https://dc.lft.to/lastmile_qr_scan"}, "bike_id": "0b3ec3a05d8d90f023af6d01a13be242", "fusion_lat": 0.0}, {"lon": -77.02396183333333, "name": "2270059beab46917fb1be294dbb5f7c7", "is_disabled": 0, "type": "electric_scooter", "is_reserved": 0, "fusion_lon": 0.0, "lat": 38.919045833333335, "rental_uris": {"ios": "https://dc.lft.to/lastmile_qr_scan", "android": "https://dc.lft.to/lastmile_qr_scan"}, "bike_id": "2270059beab46917fb1be294dbb5f7c7", "fusion_lat": 0.0}, {"lon": -76.951648, "name": "6d9ddf8cffa740fb6229ba6de7c87e95", "is_disabled": 0, "type": "electric_bike", "is_reserved": 0, "fusion_lon": 0.0, "lat": 39.084335833333334, "rental_uris": {"ios": "https://dc.lft.to/lastmile_qr_scan", "android": "https://dc.lft.to/lastmile_qr_scan"}, "bike_id": "6d9ddf8cffa740fb6229ba6de7c87e95", "fusion_lat": 0.0}, {"lon": -77.019502, "name": "02bcb29e515e4469e65e9d4e803ff03c", "is_disabled": 0, "type": "electric_scooter", "is_reserved": 0, "fusion_lon": 0.0, "lat": 38.922542, "rental_uris": {"ios": "https://dc.lft.to/lastmile_qr_scan", "android": "https://dc.lft.to/lastmile_qr_scan"}, "bike_id": "02bcb29e515e4469e65e9d4e803ff03c", "fusion_lat": 0.0}, {"lon": -77.03390333333333, "name": "476908221da04ea13a99c1b31955d38e", "is_disabled": 0, "type": "electric_scooter", "is_reserved": 0, "fusion_lon": 0.0, "lat": 38.92154933333333, "rental_uris": {"ios": "https://dc.lft.to/lastmile_qr_scan", "android": "https://dc.lft.to/lastmile_qr_scan"}, "bike_id": "476908221da04ea13a99c1b31955d38e", "fusion_lat": 0.0}, {"lon": -77.00585083333333, "name": "787f09452617744960acad8dd626eb8b", "is_disabled": 0, "type": "electric_scooter", "is_reserved": 0, "fusion_lon": 0.0, "lat": 38.905706333333335, "rental_uris": {"ios": "https://dc.lft.to/lastmile_qr_scan", "android": "https://dc.lft.to/lastmile_qr_scan"}, "bike_id": "787f09452617744960acad8dd626eb8b", "fusion_lat": 0.0}, {"lon": -77.0234775, "name": "13e6d4f6bba53f80840a9fc2f4b9ad65", "is_disabled": 0, "type": "electric_scooter", "is_reserved": 0, "fusion_lon": 0.0, "lat": 38.929687666666666, "rental_uris": {"ios": "https://dc.lft.to/lastmile_qr_scan", "android": "https://dc.lft.to/lastmile_qr_scan"}, "bike_id": "13e6d4f6bba53f80840a9fc2f4b9ad65", "fusion_lat": 0.0}, {"lon": -77.02317033333334, "name": "adc8f8b86a42087eb7eec17547278eec", "is_disabled": 0, "type": "electric_scooter", "is_reserved": 0, "fusion_lon": 0.0, "lat": 38.92075716666667, "rental_uris": {"ios": "https://dc.lft.to/lastmile_qr_scan", "android": "https://dc.lft.to/lastmile_qr_scan"}, "bike_id": "adc8f8b86a42087eb7eec17547278eec", "fusion_lat": 0.0}, {"lon": -77.0241225, "name": "de77f9e3afa79258bfcd43979d3f38a5", "is_disabled": 0, "type": "electric_scooter", "is_reserved": 0, "fusion_lon": 0.0, "lat": 38.9270545, "rental_uris": {"ios": "https://dc.lft.to/lastmile_qr_scan", "android": "https://dc.lft.to/lastmile_qr_scan"}, "bike_id": "de77f9e3afa79258bfcd43979d3f38a5", "fusion_lat": 0.0}, {"lon": -77.03146733333334, "name": "f61d7e389ad4bc23189e944f65365201", "is_disabled": 0, "type": "electric_scooter", "is_reserved": 0, "fusion_lon": 0.0, "lat": 38.928115166666664, "rental_uris": {"ios": "https://dc.lft.to/lastmile_qr_scan", "android": "https://dc.lft.to/lastmile_qr_scan"}, "bike_id": "f61d7e389ad4bc23189e944f65365201", "fusion_lat": 0.0}, {"lon": -77.02806516666666, "name": "1fb4f41c993f73ffc638e794c8783f3a", "is_disabled": 0, "type": "electric_scooter", "is_reserved": 0, "fusion_lon": 0.0, "lat": 38.907028833333335, "rental_uris": {"ios": "https://dc.lft.to/lastmile_qr_scan", "android": "https://dc.lft.to/lastmile_qr_scan"}, "bike_id": "1fb4f41c993f73ffc638e794c8783f3a", "fusion_lat": 0.0}, {"lon": -77.0576085, "name": "4b4c46db45cb7ae47bddea89a54d921f", "is_disabled": 0, "type": "electric_scooter", "is_reserved": 0, "fusion_lon": 0.0, "lat": 38.92460883333333, "rental_uris": {"ios": "https://dc.lft.to/lastmile_qr_scan", "android": "https://dc.lft.to/lastmile_qr_scan"}, "bike_id": "4b4c46db45cb7ae47bddea89a54d921f", "fusion_lat": 0.0}, {"lon": -77.031891, "name": "3b842cacf0b38760c18222be7237835e", "is_disabled": 0, "type": "electric_scooter", "is_reserved": 0, "fusion_lon": 0.0, "lat": 38.916235666666665, "rental_uris": {"ios": "https://dc.lft.to/lastmile_qr_scan", "android": "https://dc.lft.to/lastmile_qr_scan"}, "bike_id": "3b842cacf0b38760c18222be7237835e", "fusion_lat": 0.0}, {"lon": -76.93766883333333, "name": "be48d303f801baf38722556a25b19b4f", "is_disabled": 0, "type": "electric_scooter", "is_reserved": 0, "fusion_lon": 0.0, "lat": 38.89965766666667, "rental_uris": {"ios": "https://dc.lft.to/lastmile_qr_scan", "android": "https://dc.lft.to/lastmile_qr_scan"}, "bike_id": "be48d303f801baf38722556a25b19b4f", "fusion_lat": 0.0}, {"lon": -76.98274816666667, "name": "1d8524f6caef07701d034bad50719100", "is_disabled": 0, "type": "electric_scooter", "is_reserved": 0, "fusion_lon": 0.0, "lat": 38.885315166666665, "rental_uris": {"ios": "https://dc.lft.to/lastmile_qr_scan", "android": "https://dc.lft.to/lastmile_qr_scan"}, "bike_id": "1d8524f6caef07701d034bad50719100", "fusion_lat": 0.0}, {"lon": -77.03309533333334, "name": "0f31b748b4bec40c09fcf700d991efec", "is_disabled": 0, "type": "electric_scooter", "is_reserved": 0, "fusion_lon": 0.0, "lat": 38.926427, "rental_uris": {"ios": "https://dc.lft.to/lastmile_qr_scan", "android": "https://dc.lft.to/lastmile_qr_scan"}, "bike_id": "0f31b748b4bec40c09fcf700d991efec", "fusion_lat": 0.0}, {"lon": -77.021305, "name": "cbe679bc73304a3cfa2bed1f56d4b002", "is_disabled": 0, "type": "electric_scooter", "is_reserved": 0, "fusion_lon": 0.0, "lat": 38.924164, "rental_uris": {"ios": "https://dc.lft.to/lastmile_qr_scan", "android": "https://dc.lft.to/lastmile_qr_scan"}, "bike_id": "cbe679bc73304a3cfa2bed1f56d4b002", "fusion_lat": 0.0}, {"lon": -77.02944633333334, "name": "a5a4a83b68805bcf7e0e9d701bac3636", "is_disabled": 0, "type": "electric_scooter", "is_reserved": 0, "fusion_lon": 0.0, "lat": 38.905036833333334, "rental_uris": {"ios": "https://dc.lft.to/lastmile_qr_scan", "android": "https://dc.lft.to/lastmile_qr_scan"}, "bike_id": "a5a4a83b68805bcf7e0e9d701bac3636", "fusion_lat": 0.0}, {"lon": -76.9577185, "name": "d4717c14eca1be9b09f1371937ec4096", "is_disabled": 0, "type": "electric_scooter", "is_reserved": 0, "fusion_lon": 0.0, "lat": 38.88353883333333, "rental_uris": {"ios": "https://dc.lft.to/lastmile_qr_scan", "android": "https://dc.lft.to/lastmile_qr_scan"}, "bike_id": "d4717c14eca1be9b09f1371937ec4096", "fusion_lat": 0.0}, {"lon": -77.02773966666666, "name": "c93e10b26a981e045ea259f222c08871", "is_disabled": 0, "type": "electric_scooter", "is_reserved": 0, "fusion_lon": 0.0, "lat": 38.952996666666664, "rental_uris": {"ios": "https://dc.lft.to/lastmile_qr_scan", "android": "https://dc.lft.to/lastmile_qr_scan"}, "bike_id": "c93e10b26a981e045ea259f222c08871", "fusion_lat": 0.0}, {"lon": -77.036664, "name": "94193f8aa3e669911d40f81dd1900c6d", "is_disabled": 0, "type": "electric_scooter", "is_reserved": 0, "fusion_lon": 0.0, "lat": 38.92240116666667, "rental_uris": {"ios": "https://dc.lft.to/lastmile_qr_scan", "android": "https://dc.lft.to/lastmile_qr_scan"}, "bike_id": "94193f8aa3e669911d40f81dd1900c6d", "fusion_lat": 0.0}, {"lon": -77.03645683333333, "name": "301aa1ee634917448ccb6ac84eb9a92f", "is_disabled": 0, "type": "electric_scooter", "is_reserved": 0, "fusion_lon": 0.0, "lat": 38.91126966666667, "rental_uris": {"ios": "https://dc.lft.to/lastmile_qr_scan", "android": "https://dc.lft.to/lastmile_qr_scan"}, "bike_id": "301aa1ee634917448ccb6ac84eb9a92f", "fusion_lat": 0.0}, {"lon": -77.039224, "name": "7df12a457db4d4e3bf891fda0089477b", "is_disabled": 0, "type": "electric_scooter", "is_reserved": 0, "fusion_lon": 0.0, "lat": 38.8983775, "rental_uris": {"ios": "https://dc.lft.to/lastmile_qr_scan", "android": "https://dc.lft.to/lastmile_qr_scan"}, "bike_id": "7df12a457db4d4e3bf891fda0089477b", "fusion_lat": 0.0}, {"lon": -77.040113, "name": "675a3d114eff58fed8e9cecca70fcb72", "is_disabled": 0, "type": "electric_scooter", "is_reserved": 0, "fusion_lon": 0.0, "lat": 38.9100305, "rental_uris": {"ios": "https://dc.lft.to/lastmile_qr_scan", "android": "https://dc.lft.to/lastmile_qr_scan"}, "bike_id": "675a3d114eff58fed8e9cecca70fcb72", "fusion_lat": 0.0}, {"lon": -77.0365925, "name": "5de5d7579892d3b523bf41a3b5803bae", "is_disabled": 0, "type": "electric_scooter", "is_reserved": 0, "fusion_lon": 0.0, "lat": 38.93210466666667, "rental_uris": {"ios": "https://dc.lft.to/lastmile_qr_scan", "android": "https://dc.lft.to/lastmile_qr_scan"}, "bike_id": "5de5d7579892d3b523bf41a3b5803bae", "fusion_lat": 0.0}, {"lon": -77.0318865, "name": "b8d932749f9ecd09a16a5b0780a67946", "is_disabled": 0, "type": "electric_scooter", "is_reserved": 0, "fusion_lon": 0.0, "lat": 38.89240083333333, "rental_uris": {"ios": "https://dc.lft.to/lastmile_qr_scan", "android": "https://dc.lft.to/lastmile_qr_scan"}, "bike_id": "b8d932749f9ecd09a16a5b0780a67946", "fusion_lat": 0.0}, {"lon": -77.04034566666667, "name": "746a9804edd00258fedb039749cced23", "is_disabled": 0, "type": "electric_scooter", "is_reserved": 0, "fusion_lon": 0.0, "lat": 38.9037505, "rental_uris": {"ios": "https://dc.lft.to/lastmile_qr_scan", "android": "https://dc.lft.to/lastmile_qr_scan"}, "bike_id": "746a9804edd00258fedb039749cced23", "fusion_lat": 0.0}, {"lon": -77.02201316666667, "name": "13e9f336085709c87201c8e4a9bca3ad", "is_disabled": 0, "type": "electric_scooter", "is_reserved": 0, "fusion_lon": 0.0, "lat": 38.90563366666667, "rental_uris": {"ios": "https://dc.lft.to/lastmile_qr_scan", "android": "https://dc.lft.to/lastmile_qr_scan"}, "bike_id": "13e9f336085709c87201c8e4a9bca3ad", "fusion_lat": 0.0}, {"lon": -77.09053283333333, "name": "1c27534c85b538846df12545af9df30f", "is_disabled": 0, "type": "electric_scooter", "is_reserved": 0, "fusion_lon": 0.0, "lat": 38.917542, "rental_uris": {"ios": "https://dc.lft.to/lastmile_qr_scan", "android": "https://dc.lft.to/lastmile_qr_scan"}, "bike_id": "1c27534c85b538846df12545af9df30f", "fusion_lat": 0.0}, {"lon": -77.01836783333333, "name": "e84ea0f59ac6f662950583719830b525", "is_disabled": 0, "type": "electric_scooter", "is_reserved": 0, "fusion_lon": 0.0, "lat": 38.908597, "rental_uris": {"ios": "https://dc.lft.to/lastmile_qr_scan", "android": "https://dc.lft.to/lastmile_qr_scan"}, "bike_id": "e84ea0f59ac6f662950583719830b525", "fusion_lat": 0.0}, {"lon": -76.99148983333333, "name": "6c15b67a01f3467c9e0e6b9b54594058", "is_disabled": 0, "type": "electric_scooter", "is_reserved": 0, "fusion_lon": 0.0, "lat": 38.891618666666666, "rental_uris": {"ios": "https://dc.lft.to/lastmile_qr_scan", "android": "https://dc.lft.to/lastmile_qr_scan"}, "bike_id": "6c15b67a01f3467c9e0e6b9b54594058", "fusion_lat": 0.0}, {"lon": -77.0462065, "name": "4d5fc6e63ac7a7a6bf3621ea1bc759c3", "is_disabled": 0, "type": "electric_scooter", "is_reserved": 0, "fusion_lon": 0.0, "lat": 38.916137666666664, "rental_uris": {"ios": "https://dc.lft.to/lastmile_qr_scan", "android": "https://dc.lft.to/lastmile_qr_scan"}, "bike_id": "4d5fc6e63ac7a7a6bf3621ea1bc759c3", "fusion_lat": 0.0}, {"lon": -76.977438, "name": "a0e36be97e8f7232072c7d6dbc9e457f", "is_disabled": 0, "type": "electric_bike", "is_reserved": 0, "fusion_lon": 0.0, "lat": 38.8649195, "rental_uris": {"ios": "https://dc.lft.to/lastmile_qr_scan", "android": "https://dc.lft.to/lastmile_qr_scan"}, "bike_id": "a0e36be97e8f7232072c7d6dbc9e457f", "fusion_lat": 0.0}, {"lon": -76.98101083333333, "name": "035c0d629217106b3b4fbbecd675416a", "is_disabled": 0, "type": "electric_bike", "is_reserved": 0, "fusion_lon": 0.0, "lat": 38.95355383333333, "rental_uris": {"ios": "https://dc.lft.to/lastmile_qr_scan", "android": "https://dc.lft.to/lastmile_qr_scan"}, "bike_id": "035c0d629217106b3b4fbbecd675416a", "fusion_lat": 0.0}, {"lon": -77.0014145, "name": "41f82d2503fef06f06fcae97d1075fc0", "is_disabled": 0, "type": "electric_scooter", "is_reserved": 0, "fusion_lon": 0.0, "lat": 38.88433166666667, "rental_uris": {"ios": "https://dc.lft.to/lastmile_qr_scan", "android": "https://dc.lft.to/lastmile_qr_scan"}, "bike_id": "41f82d2503fef06f06fcae97d1075fc0", "fusion_lat": 0.0}, {"lon": -77.01857266666667, "name": "18045860967ae678c82f361eed4e01e5", "is_disabled": 0, "type": "electric_scooter", "is_reserved": 0, "fusion_lon": 0.0, "lat": 38.874575166666666, "rental_uris": {"ios": "https://dc.lft.to/lastmile_qr_scan", "android": "https://dc.lft.to/lastmile_qr_scan"}, "bike_id": "18045860967ae678c82f361eed4e01e5", "fusion_lat": 0.0}, {"lon": -77.05742166666667, "name": "451365a57ab5eb1876aad5b6137df7d2", "is_disabled": 0, "type": "electric_scooter", "is_reserved": 0, "fusion_lon": 0.0, "lat": 38.93336716666666, "rental_uris": {"ios": "https://dc.lft.to/lastmile_qr_scan", "android": "https://dc.lft.to/lastmile_qr_scan"}, "bike_id": "451365a57ab5eb1876aad5b6137df7d2", "fusion_lat": 0.0}, {"lon": -77.02780233333333, "name": "30c992946b284c9323c47b704e0659c1", "is_disabled": 0, "type": "electric_scooter", "is_reserved": 0, "fusion_lon": 0.0, "lat": 38.92952116666667, "rental_uris": {"ios": "https://dc.lft.to/lastmile_qr_scan", "android": "https://dc.lft.to/lastmile_qr_scan"}, "bike_id": "30c992946b284c9323c47b704e0659c1", "fusion_lat": 0.0}, {"lon": -77.041958, "name": "27a78485ef2a7077822d86eaa970ba73", "is_disabled": 0, "type": "electric_scooter", "is_reserved": 0, "fusion_lon": 0.0, "lat": 38.920602833333334, "rental_uris": {"ios": "https://dc.lft.to/lastmile_qr_scan", "android": "https://dc.lft.to/lastmile_qr_scan"}, "bike_id": "27a78485ef2a7077822d86eaa970ba73", "fusion_lat": 0.0}, {"lon": -77.0199875, "name": "7eb1c9f5d45e160dc4e97b132b88082d", "is_disabled": 0, "type": "electric_scooter", "is_reserved": 0, "fusion_lon": 0.0, "lat": 38.91362266666667, "rental_uris": {"ios": "https://dc.lft.to/lastmile_qr_scan", "android": "https://dc.lft.to/lastmile_qr_scan"}, "bike_id": "7eb1c9f5d45e160dc4e97b132b88082d", "fusion_lat": 0.0}, {"lon": -76.93753666666667, "name": "4cc6b29890833fc4a4994bb2b2cb2753", "is_disabled": 0, "type": "electric_scooter", "is_reserved": 0, "fusion_lon": 0.0, "lat": 38.890505833333336, "rental_uris": {"ios": "https://dc.lft.to/lastmile_qr_scan", "android": "https://dc.lft.to/lastmile_qr_scan"}, "bike_id": "4cc6b29890833fc4a4994bb2b2cb2753", "fusion_lat": 0.0}, {"lon": -77.033505, "name": "c4044175aa4bd77ccc214ebb01347461", "is_disabled": 0, "type": "electric_scooter", "is_reserved": 0, "fusion_lon": 0.0, "lat": 38.91701533333333, "rental_uris": {"ios": "https://dc.lft.to/lastmile_qr_scan", "android": "https://dc.lft.to/lastmile_qr_scan"}, "bike_id": "c4044175aa4bd77ccc214ebb01347461", "fusion_lat": 0.0}, {"lon": -77.009234, "name": "0e2d71c4b79b56a0da7d7b7b709cc2e1", "is_disabled": 0, "type": "electric_scooter", "is_reserved": 0, "fusion_lon": 0.0, "lat": 38.918778333333336, "rental_uris": {"ios": "https://dc.lft.to/lastmile_qr_scan", "android": "https://dc.lft.to/lastmile_qr_scan"}, "bike_id": "0e2d71c4b79b56a0da7d7b7b709cc2e1", "fusion_lat": 0.0}, {"lon": -76.93913333333333, "name": "ee4fb58a006be6b9d33ef6d631b1fa0d", "is_disabled": 0, "type": "electric_scooter", "is_reserved": 0, "fusion_lon": 0.0, "lat": 38.891631, "rental_uris": {"ios": "https://dc.lft.to/lastmile_qr_scan", "android": "https://dc.lft.to/lastmile_qr_scan"}, "bike_id": "ee4fb58a006be6b9d33ef6d631b1fa0d", "fusion_lat": 0.0}, {"lon": -77.04003616666667, "name": "3b607509c265130b85289cdaa247c816", "is_disabled": 0, "type": "electric_scooter", "is_reserved": 0, "fusion_lon": 0.0, "lat": 38.934224, "rental_uris": {"ios": "https://dc.lft.to/lastmile_qr_scan", "android": "https://dc.lft.to/lastmile_qr_scan"}, "bike_id": "3b607509c265130b85289cdaa247c816", "fusion_lat": 0.0}, {"lon": -77.02342966666667, "name": "2d4bae4f51c02739e385c5b119424611", "is_disabled": 0, "type": "electric_scooter", "is_reserved": 0, "fusion_lon": 0.0, "lat": 38.917804333333336, "rental_uris": {"ios": "https://dc.lft.to/lastmile_qr_scan", "android": "https://dc.lft.to/lastmile_qr_scan"}, "bike_id": "2d4bae4f51c02739e385c5b119424611", "fusion_lat": 0.0}, {"lon": -77.09617966666667, "name": "d147923f955e5add8a7155ce910b1053", "is_disabled": 0, "type": "electric_bike", "is_reserved": 0, "fusion_lon": 0.0, "lat": 38.974383, "rental_uris": {"ios": "https://dc.lft.to/lastmile_qr_scan", "android": "https://dc.lft.to/lastmile_qr_scan"}, "bike_id": "d147923f955e5add8a7155ce910b1053", "fusion_lat": 0.0}, {"lon": -77.04305633333334, "name": "194cb91b2dd393ae0a561f53a84b59d8", "is_disabled": 0, "type": "electric_scooter", "is_reserved": 0, "fusion_lon": 0.0, "lat": 38.9013235, "rental_uris": {"ios": "https://dc.lft.to/lastmile_qr_scan", "android": "https://dc.lft.to/lastmile_qr_scan"}, "bike_id": "194cb91b2dd393ae0a561f53a84b59d8", "fusion_lat": 0.0}, {"lon": -77.0320975, "name": "c753ef8dabdd9e56a25bd5a06708febb", "is_disabled": 0, "type": "electric_scooter", "is_reserved": 0, "fusion_lon": 0.0, "lat": 38.917264333333335, "rental_uris": {"ios": "https://dc.lft.to/lastmile_qr_scan", "android": "https://dc.lft.to/lastmile_qr_scan"}, "bike_id": "c753ef8dabdd9e56a25bd5a06708febb", "fusion_lat": 0.0}, {"lon": -76.9983125, "name": "3b527a6a11218226f3711a6cb430a764", "is_disabled": 0, "type": "electric_scooter", "is_reserved": 0, "fusion_lon": 0.0, "lat": 38.907142666666665, "rental_uris": {"ios": "https://dc.lft.to/lastmile_qr_scan", "android": "https://dc.lft.to/lastmile_qr_scan"}, "bike_id": "3b527a6a11218226f3711a6cb430a764", "fusion_lat": 0.0}, {"lon": -77.03199283333333, "name": "c0ea5a9c1205e806f9e1b9e7a1f0c5e8", "is_disabled": 0, "type": "electric_scooter", "is_reserved": 0, "fusion_lon": 0.0, "lat": 38.918254166666664, "rental_uris": {"ios": "https://dc.lft.to/lastmile_qr_scan", "android": "https://dc.lft.to/lastmile_qr_scan"}, "bike_id": "c0ea5a9c1205e806f9e1b9e7a1f0c5e8", "fusion_lat": 0.0}, {"lon": -77.04126716666667, "name": "be9f39cc29e86bd9e4776858c1df6dda", "is_disabled": 0, "type": "electric_scooter", "is_reserved": 0, "fusion_lon": 0.0, "lat": 38.932235, "rental_uris": {"ios": "https://dc.lft.to/lastmile_qr_scan", "android": "https://dc.lft.to/lastmile_qr_scan"}, "bike_id": "be9f39cc29e86bd9e4776858c1df6dda", "fusion_lat": 0.0}, {"lon": -77.03196016666666, "name": "6e52dc4f9cd1318b3203c8d581840e16", "is_disabled": 0, "type": "electric_scooter", "is_reserved": 0, "fusion_lon": 0.0, "lat": 38.907970666666664, "rental_uris": {"ios": "https://dc.lft.to/lastmile_qr_scan", "android": "https://dc.lft.to/lastmile_qr_scan"}, "bike_id": "6e52dc4f9cd1318b3203c8d581840e16", "fusion_lat": 0.0}, {"lon": -77.07438583333334, "name": "1f10625f3d205cfc415adf334e21ae3f", "is_disabled": 0, "type": "electric_scooter", "is_reserved": 0, "fusion_lon": 0.0, "lat": 38.93587216666667, "rental_uris": {"ios": "https://dc.lft.to/lastmile_qr_scan", "android": "https://dc.lft.to/lastmile_qr_scan"}, "bike_id": "1f10625f3d205cfc415adf334e21ae3f", "fusion_lat": 0.0}, {"lon": -77.0121405, "name": "700186a140f7a1b5d2f3f44a2c73eadd", "is_disabled": 0, "type": "electric_scooter", "is_reserved": 0, "fusion_lon": 0.0, "lat": 38.91821766666666, "rental_uris": {"ios": "https://dc.lft.to/lastmile_qr_scan", "android": "https://dc.lft.to/lastmile_qr_scan"}, "bike_id": "700186a140f7a1b5d2f3f44a2c73eadd", "fusion_lat": 0.0}, {"lon": -77.05421716666666, "name": "c01a04a4a13e7b0b8c46a4e1a2aa2c7c", "is_disabled": 0, "type": "electric_scooter", "is_reserved": 0, "fusion_lon": 0.0, "lat": 38.9852635, "rental_uris": {"ios": "https://dc.lft.to/lastmile_qr_scan", "android": "https://dc.lft.to/lastmile_qr_scan"}, "bike_id": "c01a04a4a13e7b0b8c46a4e1a2aa2c7c", "fusion_lat": 0.0}, {"lon": -77.05939583333334, "name": "4ae6bd14a976ad2e8226bbfd35d5c3ea", "is_disabled": 0, "type": "electric_scooter", "is_reserved": 0, "fusion_lon": 0.0, "lat": 38.94297016666667, "rental_uris": {"ios": "https://dc.lft.to/lastmile_qr_scan", "android": "https://dc.lft.to/lastmile_qr_scan"}, "bike_id": "4ae6bd14a976ad2e8226bbfd35d5c3ea", "fusion_lat": 0.0}, {"lon": -76.9862535, "name": "2e212513446f80f638fe64f0750595c9", "is_disabled": 0, "type": "electric_scooter", "is_reserved": 0, "fusion_lon": 0.0, "lat": 38.905848666666664, "rental_uris": {"ios": "https://dc.lft.to/lastmile_qr_scan", "android": "https://dc.lft.to/lastmile_qr_scan"}, "bike_id": "2e212513446f80f638fe64f0750595c9", "fusion_lat": 0.0}, {"lon": -76.9320845, "name": "956f0c6b63193cab5127932822ba51ee", "is_disabled": 0, "type": "electric_scooter", "is_reserved": 0, "fusion_lon": 0.0, "lat": 38.8984885, "rental_uris": {"ios": "https://dc.lft.to/lastmile_qr_scan", "android": "https://dc.lft.to/lastmile_qr_scan"}, "bike_id": "956f0c6b63193cab5127932822ba51ee", "fusion_lat": 0.0}, {"lon": -76.95361566666666, "name": "07b97e063049b9c7e9a4a2665980a938", "is_disabled": 0, "type": "electric_scooter", "is_reserved": 0, "fusion_lon": 0.0, "lat": 38.88953866666667, "rental_uris": {"ios": "https://dc.lft.to/lastmile_qr_scan", "android": "https://dc.lft.to/lastmile_qr_scan"}, "bike_id": "07b97e063049b9c7e9a4a2665980a938", "fusion_lat": 0.0}, {"lon": -76.990267, "name": "93d45a4dda634cec039717c04398efb0", "is_disabled": 0, "type": "electric_scooter", "is_reserved": 0, "fusion_lon": 0.0, "lat": 38.86525316666667, "rental_uris": {"ios": "https://dc.lft.to/lastmile_qr_scan", "android": "https://dc.lft.to/lastmile_qr_scan"}, "bike_id": "93d45a4dda634cec039717c04398efb0", "fusion_lat": 0.0}, {"lon": -77.03187133333333, "name": "3e54785a920df3af782bd701d08d5c41", "is_disabled": 0, "type": "electric_scooter", "is_reserved": 0, "fusion_lon": 0.0, "lat": 38.91414833333333, "rental_uris": {"ios": "https://dc.lft.to/lastmile_qr_scan", "android": "https://dc.lft.to/lastmile_qr_scan"}, "bike_id": "3e54785a920df3af782bd701d08d5c41", "fusion_lat": 0.0}, {"lon": -76.93136016666666, "name": "97d1941905bf3423b12fb44c2de6cf8c", "is_disabled": 0, "type": "electric_scooter", "is_reserved": 0, "fusion_lon": 0.0, "lat": 38.88333316666667, "rental_uris": {"ios": "https://dc.lft.to/lastmile_qr_scan", "android": "https://dc.lft.to/lastmile_qr_scan"}, "bike_id": "97d1941905bf3423b12fb44c2de6cf8c", "fusion_lat": 0.0}, {"lon": -77.036586, "name": "1f5cffc10f796c3fe68173b8825f48f0", "is_disabled": 0, "type": "electric_scooter", "is_reserved": 0, "fusion_lon": 0.0, "lat": 38.9233275, "rental_uris": {"ios": "https://dc.lft.to/lastmile_qr_scan", "android": "https://dc.lft.to/lastmile_qr_scan"}, "bike_id": "1f5cffc10f796c3fe68173b8825f48f0", "fusion_lat": 0.0}, {"lon": -77.05001566666667, "name": "01c9523ebe4f83a498bc7e6b9e0e89c2", "is_disabled": 0, "type": "electric_scooter", "is_reserved": 0, "fusion_lon": 0.0, "lat": 38.892283, "rental_uris": {"ios": "https://dc.lft.to/lastmile_qr_scan", "android": "https://dc.lft.to/lastmile_qr_scan"}, "bike_id": "01c9523ebe4f83a498bc7e6b9e0e89c2", "fusion_lat": 0.0}, {"lon": -76.99074533333334, "name": "4ac0ac44d58d26aa59e7c0ae716f9a62", "is_disabled": 0, "type": "electric_bike", "is_reserved": 0, "fusion_lon": 0.0, "lat": 38.89809266666666, "rental_uris": {"ios": "https://dc.lft.to/lastmile_qr_scan", "android": "https://dc.lft.to/lastmile_qr_scan"}, "bike_id": "4ac0ac44d58d26aa59e7c0ae716f9a62", "fusion_lat": 0.0}, {"lon": -77.02159083333333, "name": "0907a6a9b24024cf88aa513be61c72e3", "is_disabled": 0, "type": "electric_scooter", "is_reserved": 0, "fusion_lon": 0.0, "lat": 38.92603966666667, "rental_uris": {"ios": "https://dc.lft.to/lastmile_qr_scan", "android": "https://dc.lft.to/lastmile_qr_scan"}, "bike_id": "0907a6a9b24024cf88aa513be61c72e3", "fusion_lat": 0.0}, {"lon": -77.03193333333333, "name": "0ffdcd2debb61d50fa8edaa31b2c8140", "is_disabled": 0, "type": "electric_scooter", "is_reserved": 0, "fusion_lon": 0.0, "lat": 38.9193935, "rental_uris": {"ios": "https://dc.lft.to/lastmile_qr_scan", "android": "https://dc.lft.to/lastmile_qr_scan"}, "bike_id": "0ffdcd2debb61d50fa8edaa31b2c8140", "fusion_lat": 0.0}, {"lon": -77.01947016666666, "name": "27e57eff95058aa9e72f1800b0c6925a", "is_disabled": 0, "type": "electric_scooter", "is_reserved": 0, "fusion_lon": 0.0, "lat": 38.92419533333333, "rental_uris": {"ios": "https://dc.lft.to/lastmile_qr_scan", "android": "https://dc.lft.to/lastmile_qr_scan"}, "bike_id": "27e57eff95058aa9e72f1800b0c6925a", "fusion_lat": 0.0}, {"lon": -77.01216566666666, "name": "ce462fba237a5c87228f629a7a4de0e5", "is_disabled": 0, "type": "electric_scooter", "is_reserved": 0, "fusion_lon": 0.0, "lat": 38.914445666666666, "rental_uris": {"ios": "https://dc.lft.to/lastmile_qr_scan", "android": "https://dc.lft.to/lastmile_qr_scan"}, "bike_id": "ce462fba237a5c87228f629a7a4de0e5", "fusion_lat": 0.0}, {"lon": -77.02255233333334, "name": "85ae2802222a9af86518ff4eed373565", "is_disabled": 0, "type": "electric_scooter", "is_reserved": 0, "fusion_lon": 0.0, "lat": 38.89459133333333, "rental_uris": {"ios": "https://dc.lft.to/lastmile_qr_scan", "android": "https://dc.lft.to/lastmile_qr_scan"}, "bike_id": "85ae2802222a9af86518ff4eed373565", "fusion_lat": 0.0}, {"lon": -77.0419305, "name": "ee24941e96aa3eaa92ce092f12542cf2", "is_disabled": 0, "type": "electric_scooter", "is_reserved": 0, "fusion_lon": 0.0, "lat": 38.92049433333333, "rental_uris": {"ios": "https://dc.lft.to/lastmile_qr_scan", "android": "https://dc.lft.to/lastmile_qr_scan"}, "bike_id": "ee24941e96aa3eaa92ce092f12542cf2", "fusion_lat": 0.0}, {"lon": -77.00339866666667, "name": "f346adaeb41e2681925c73699f9aab59", "is_disabled": 0, "type": "electric_bike", "is_reserved": 0, "fusion_lon": 0.0, "lat": 38.9201695, "rental_uris": {"ios": "https://dc.lft.to/lastmile_qr_scan", "android": "https://dc.lft.to/lastmile_qr_scan"}, "bike_id": "f346adaeb41e2681925c73699f9aab59", "fusion_lat": 0.0}, {"lon": -77.04466133333334, "name": "a19222ac8b86a9831baeb4a2e811800a", "is_disabled": 0, "type": "electric_scooter", "is_reserved": 0, "fusion_lon": 0.0, "lat": 38.91529933333333, "rental_uris": {"ios": "https://dc.lft.to/lastmile_qr_scan", "android": "https://dc.lft.to/lastmile_qr_scan"}, "bike_id": "a19222ac8b86a9831baeb4a2e811800a", "fusion_lat": 0.0}, {"lon": -77.01361316666667, "name": "e5cde2a6315b148ba488fbc2650ad86f", "is_disabled": 0, "type": "electric_scooter", "is_reserved": 0, "fusion_lon": 0.0, "lat": 38.928751, "rental_uris": {"ios": "https://dc.lft.to/lastmile_qr_scan", "android": "https://dc.lft.to/lastmile_qr_scan"}, "bike_id": "e5cde2a6315b148ba488fbc2650ad86f", "fusion_lat": 0.0}, {"lon": -77.05763433333334, "name": "9729f89f1254755ec9b6077b4981270b", "is_disabled": 0, "type": "electric_scooter", "is_reserved": 0, "fusion_lon": 0.0, "lat": 38.9248105, "rental_uris": {"ios": "https://dc.lft.to/lastmile_qr_scan", "android": "https://dc.lft.to/lastmile_qr_scan"}, "bike_id": "9729f89f1254755ec9b6077b4981270b", "fusion_lat": 0.0}, {"lon": -77.057091, "name": "0fc264453eeef197813d0deb5cd15163", "is_disabled": 0, "type": "electric_scooter", "is_reserved": 0, "fusion_lon": 0.0, "lat": 38.925982833333336, "rental_uris": {"ios": "https://dc.lft.to/lastmile_qr_scan", "android": "https://dc.lft.to/lastmile_qr_scan"}, "bike_id": "0fc264453eeef197813d0deb5cd15163", "fusion_lat": 0.0}, {"lon": -77.024017, "name": "ffef2bd6c59f1c3c4e682b01df5c00b8", "is_disabled": 0, "type": "electric_scooter", "is_reserved": 0, "fusion_lon": 0.0, "lat": 38.9161705, "rental_uris": {"ios": "https://dc.lft.to/lastmile_qr_scan", "android": "https://dc.lft.to/lastmile_qr_scan"}, "bike_id": "ffef2bd6c59f1c3c4e682b01df5c00b8", "fusion_lat": 0.0}, {"lon": -77.04159633333333, "name": "2cc83e54e52919f158c6ee93e765c3b5", "is_disabled": 0, "type": "electric_scooter", "is_reserved": 0, "fusion_lon": 0.0, "lat": 38.90735383333333, "rental_uris": {"ios": "https://dc.lft.to/lastmile_qr_scan", "android": "https://dc.lft.to/lastmile_qr_scan"}, "bike_id": "2cc83e54e52919f158c6ee93e765c3b5", "fusion_lat": 0.0}, {"lon": -77.03576816666667, "name": "cd8b7406ee5f10481d2a307e61764cb3", "is_disabled": 0, "type": "electric_scooter", "is_reserved": 0, "fusion_lon": 0.0, "lat": 38.926873, "rental_uris": {"ios": "https://dc.lft.to/lastmile_qr_scan", "android": "https://dc.lft.to/lastmile_qr_scan"}, "bike_id": "cd8b7406ee5f10481d2a307e61764cb3", "fusion_lat": 0.0}, {"lon": -77.01154483333333, "name": "111242e853f300c8ec0f7c5a1b2814e9", "is_disabled": 0, "type": "electric_scooter", "is_reserved": 0, "fusion_lon": 0.0, "lat": 38.911127, "rental_uris": {"ios": "https://dc.lft.to/lastmile_qr_scan", "android": "https://dc.lft.to/lastmile_qr_scan"}, "bike_id": "111242e853f300c8ec0f7c5a1b2814e9", "fusion_lat": 0.0}, {"lon": -77.01985966666666, "name": "07b86a4c9599ae5f769c48899c9527f4", "is_disabled": 0, "type": "electric_scooter", "is_reserved": 0, "fusion_lon": 0.0, "lat": 38.91560483333333, "rental_uris": {"ios": "https://dc.lft.to/lastmile_qr_scan", "android": "https://dc.lft.to/lastmile_qr_scan"}, "bike_id": "07b86a4c9599ae5f769c48899c9527f4", "fusion_lat": 0.0}, {"lon": -77.02120083333334, "name": "660db92a8759276898909c4e4b1e9785", "is_disabled": 0, "type": "electric_scooter", "is_reserved": 0, "fusion_lon": 0.0, "lat": 38.931016166666666, "rental_uris": {"ios": "https://dc.lft.to/lastmile_qr_scan", "android": "https://dc.lft.to/lastmile_qr_scan"}, "bike_id": "660db92a8759276898909c4e4b1e9785", "fusion_lat": 0.0}, {"lon": -76.99308866666667, "name": "bbd99359b1e026c68f24ebfe56806fa8", "is_disabled": 0, "type": "electric_bike", "is_reserved": 0, "fusion_lon": 0.0, "lat": 38.946336333333335, "rental_uris": {"ios": "https://dc.lft.to/lastmile_qr_scan", "android": "https://dc.lft.to/lastmile_qr_scan"}, "bike_id": "bbd99359b1e026c68f24ebfe56806fa8", "fusion_lat": 0.0}, {"lon": -77.04186933333334, "name": "8da0d62750c74beae232a06015e3d8f2", "is_disabled": 0, "type": "electric_scooter", "is_reserved": 0, "fusion_lon": 0.0, "lat": 38.9205055, "rental_uris": {"ios": "https://dc.lft.to/lastmile_qr_scan", "android": "https://dc.lft.to/lastmile_qr_scan"}, "bike_id": "8da0d62750c74beae232a06015e3d8f2", "fusion_lat": 0.0}, {"lon": -77.05523366666667, "name": "37c5be2e33718b43be742dca9c4f9ac4", "is_disabled": 0, "type": "electric_scooter", "is_reserved": 0, "fusion_lon": 0.0, "lat": 38.89724733333333, "rental_uris": {"ios": "https://dc.lft.to/lastmile_qr_scan", "android": "https://dc.lft.to/lastmile_qr_scan"}, "bike_id": "37c5be2e33718b43be742dca9c4f9ac4", "fusion_lat": 0.0}, {"lon": -77.024126, "name": "63d344f7c24ccdb2f12619fd9eedfa6d", "is_disabled": 0, "type": "electric_scooter", "is_reserved": 0, "fusion_lon": 0.0, "lat": 38.9208815, "rental_uris": {"ios": "https://dc.lft.to/lastmile_qr_scan", "android": "https://dc.lft.to/lastmile_qr_scan"}, "bike_id": "63d344f7c24ccdb2f12619fd9eedfa6d", "fusion_lat": 0.0}, {"lon": -77.0180885, "name": "90b544fa3b76e369f8e156e3bdf1f315", "is_disabled": 0, "type": "electric_scooter", "is_reserved": 0, "fusion_lon": 0.0, "lat": 38.92145683333333, "rental_uris": {"ios": "https://dc.lft.to/lastmile_qr_scan", "android": "https://dc.lft.to/lastmile_qr_scan"}, "bike_id": "90b544fa3b76e369f8e156e3bdf1f315", "fusion_lat": 0.0}, {"lon": -77.01948083333333, "name": "4497c1970a441194e932f8c43ed00c40", "is_disabled": 0, "type": "electric_scooter", "is_reserved": 0, "fusion_lon": 0.0, "lat": 38.92419266666667, "rental_uris": {"ios": "https://dc.lft.to/lastmile_qr_scan", "android": "https://dc.lft.to/lastmile_qr_scan"}, "bike_id": "4497c1970a441194e932f8c43ed00c40", "fusion_lat": 0.0}, {"lon": -77.04171016666666, "name": "9e2b88334454965cbe458e64d03b7550", "is_disabled": 0, "type": "electric_scooter", "is_reserved": 0, "fusion_lon": 0.0, "lat": 38.91650633333333, "rental_uris": {"ios": "https://dc.lft.to/lastmile_qr_scan", "android": "https://dc.lft.to/lastmile_qr_scan"}, "bike_id": "9e2b88334454965cbe458e64d03b7550", "fusion_lat": 0.0}, {"lon": -77.03872766666667, "name": "fef3d7bc727c874bb827cca70b547714", "is_disabled": 0, "type": "electric_scooter", "is_reserved": 0, "fusion_lon": 0.0, "lat": 38.91269283333333, "rental_uris": {"ios": "https://dc.lft.to/lastmile_qr_scan", "android": "https://dc.lft.to/lastmile_qr_scan"}, "bike_id": "fef3d7bc727c874bb827cca70b547714", "fusion_lat": 0.0}, {"lon": -76.93213466666667, "name": "17bfa4771a6258f1b75f6d07412caa57", "is_disabled": 0, "type": "electric_scooter", "is_reserved": 0, "fusion_lon": 0.0, "lat": 38.89671933333333, "rental_uris": {"ios": "https://dc.lft.to/lastmile_qr_scan", "android": "https://dc.lft.to/lastmile_qr_scan"}, "bike_id": "17bfa4771a6258f1b75f6d07412caa57", "fusion_lat": 0.0}, {"lon": -77.02414433333334, "name": "dc79c70d295341834e50144369c45251", "is_disabled": 0, "type": "electric_scooter", "is_reserved": 0, "fusion_lon": 0.0, "lat": 38.92091816666667, "rental_uris": {"ios": "https://dc.lft.to/lastmile_qr_scan", "android": "https://dc.lft.to/lastmile_qr_scan"}, "bike_id": "dc79c70d295341834e50144369c45251", "fusion_lat": 0.0}, {"lon": -77.00412266666666, "name": "def13dc92114707d4b0654d3bcb06c4b", "is_disabled": 0, "type": "electric_bike", "is_reserved": 0, "fusion_lon": 0.0, "lat": 38.98531933333334, "rental_uris": {"ios": "https://dc.lft.to/lastmile_qr_scan", "android": "https://dc.lft.to/lastmile_qr_scan"}, "bike_id": "def13dc92114707d4b0654d3bcb06c4b", "fusion_lat": 0.0}, {"lon": -77.04905266666667, "name": "07c78a503dab366312629234c617efd4", "is_disabled": 0, "type": "electric_scooter", "is_reserved": 0, "fusion_lon": 0.0, "lat": 38.915961333333335, "rental_uris": {"ios": "https://dc.lft.to/lastmile_qr_scan", "android": "https://dc.lft.to/lastmile_qr_scan"}, "bike_id": "07c78a503dab366312629234c617efd4", "fusion_lat": 0.0}, {"lon": -77.03193416666667, "name": "d912758693ddd6b596ca3d65667f4ad0", "is_disabled": 0, "type": "electric_scooter", "is_reserved": 0, "fusion_lon": 0.0, "lat": 38.90997216666667, "rental_uris": {"ios": "https://dc.lft.to/lastmile_qr_scan", "android": "https://dc.lft.to/lastmile_qr_scan"}, "bike_id": "d912758693ddd6b596ca3d65667f4ad0", "fusion_lat": 0.0}, {"lon": -76.98562, "name": "7e53f8e6aea051c413ca99cee01f2091", "is_disabled": 0, "type": "electric_scooter", "is_reserved": 0, "fusion_lon": 0.0, "lat": 38.907065, "rental_uris": {"ios": "https://dc.lft.to/lastmile_qr_scan", "android": "https://dc.lft.to/lastmile_qr_scan"}, "bike_id": "7e53f8e6aea051c413ca99cee01f2091", "fusion_lat": 0.0}, {"lon": -77.00054533333333, "name": "a9b852117a0e89c5b01f7e50a829512d", "is_disabled": 0, "type": "electric_scooter", "is_reserved": 0, "fusion_lon": 0.0, "lat": 38.875421833333334, "rental_uris": {"ios": "https://dc.lft.to/lastmile_qr_scan", "android": "https://dc.lft.to/lastmile_qr_scan"}, "bike_id": "a9b852117a0e89c5b01f7e50a829512d", "fusion_lat": 0.0}, {"lon": -77.03379733333334, "name": "ee15e22f7f16cdd27aefcd33c07de3e1", "is_disabled": 0, "type": "electric_scooter", "is_reserved": 0, "fusion_lon": 0.0, "lat": 38.9216, "rental_uris": {"ios": "https://dc.lft.to/lastmile_qr_scan", "android": "https://dc.lft.to/lastmile_qr_scan"}, "bike_id": "ee15e22f7f16cdd27aefcd33c07de3e1", "fusion_lat": 0.0}, {"lon": -77.0221585, "name": "ee2de15c6a30083b7a9fd5c35f911f26", "is_disabled": 0, "type": "electric_scooter", "is_reserved": 0, "fusion_lon": 0.0, "lat": 38.91267833333333, "rental_uris": {"ios": "https://dc.lft.to/lastmile_qr_scan", "android": "https://dc.lft.to/lastmile_qr_scan"}, "bike_id": "ee2de15c6a30083b7a9fd5c35f911f26", "fusion_lat": 0.0}, {"lon": -77.03369616666667, "name": "2543efffdea96c16991c83ecb6590c36", "is_disabled": 0, "type": "electric_scooter", "is_reserved": 0, "fusion_lon": 0.0, "lat": 38.9288195, "rental_uris": {"ios": "https://dc.lft.to/lastmile_qr_scan", "android": "https://dc.lft.to/lastmile_qr_scan"}, "bike_id": "2543efffdea96c16991c83ecb6590c36", "fusion_lat": 0.0}, {"lon": -77.00739583333333, "name": "ae45c20aab096f9d6e59f09e2f0358e8", "is_disabled": 0, "type": "electric_scooter", "is_reserved": 0, "fusion_lon": 0.0, "lat": 38.903485, "rental_uris": {"ios": "https://dc.lft.to/lastmile_qr_scan", "android": "https://dc.lft.to/lastmile_qr_scan"}, "bike_id": "ae45c20aab096f9d6e59f09e2f0358e8", "fusion_lat": 0.0}, {"lon": -77.02036416666667, "name": "4729325bee389b07f3cc5a75f0ed021d", "is_disabled": 0, "type": "electric_scooter", "is_reserved": 0, "fusion_lon": 0.0, "lat": 38.924183166666666, "rental_uris": {"ios": "https://dc.lft.to/lastmile_qr_scan", "android": "https://dc.lft.to/lastmile_qr_scan"}, "bike_id": "4729325bee389b07f3cc5a75f0ed021d", "fusion_lat": 0.0}, {"lon": -77.04016883333334, "name": "ac72e65d2f5195939c8d1859eefd07dd", "is_disabled": 0, "type": "electric_scooter", "is_reserved": 0, "fusion_lon": 0.0, "lat": 38.921864166666666, "rental_uris": {"ios": "https://dc.lft.to/lastmile_qr_scan", "android": "https://dc.lft.to/lastmile_qr_scan"}, "bike_id": "ac72e65d2f5195939c8d1859eefd07dd", "fusion_lat": 0.0}, {"lon": -77.02381783333334, "name": "9f4aa82d2cd41a4fe7e2cc6ca8d09298", "is_disabled": 0, "type": "electric_scooter", "is_reserved": 0, "fusion_lon": 0.0, "lat": 38.95273266666667, "rental_uris": {"ios": "https://dc.lft.to/lastmile_qr_scan", "android": "https://dc.lft.to/lastmile_qr_scan"}, "bike_id": "9f4aa82d2cd41a4fe7e2cc6ca8d09298", "fusion_lat": 0.0}, {"lon": -77.062233, "name": "a9ea8dab1ba3865c48e72ab563438662", "is_disabled": 0, "type": "electric_scooter", "is_reserved": 0, "fusion_lon": 0.0, "lat": 38.94224366666667, "rental_uris": {"ios": "https://dc.lft.to/lastmile_qr_scan", "android": "https://dc.lft.to/lastmile_qr_scan"}, "bike_id": "a9ea8dab1ba3865c48e72ab563438662", "fusion_lat": 0.0}, {"lon": -77.03189866666666, "name": "bb546d02d0c6be0f12cf6c800348ccfb", "is_disabled": 0, "type": "electric_scooter", "is_reserved": 0, "fusion_lon": 0.0, "lat": 38.916302, "rental_uris": {"ios": "https://dc.lft.to/lastmile_qr_scan", "android": "https://dc.lft.to/lastmile_qr_scan"}, "bike_id": "bb546d02d0c6be0f12cf6c800348ccfb", "fusion_lat": 0.0}, {"lon": -77.05435516666667, "name": "0c15c615a0b5d14bbb84babd974723cf", "is_disabled": 0, "type": "electric_scooter", "is_reserved": 0, "fusion_lon": 0.0, "lat": 38.914824833333334, "rental_uris": {"ios": "https://dc.lft.to/lastmile_qr_scan", "android": "https://dc.lft.to/lastmile_qr_scan"}, "bike_id": "0c15c615a0b5d14bbb84babd974723cf", "fusion_lat": 0.0}, {"lon": -77.02097666666667, "name": "5ad8ee350de35c75cea0e2e104c7832e", "is_disabled": 0, "type": "electric_scooter", "is_reserved": 0, "fusion_lon": 0.0, "lat": 38.91124383333333, "rental_uris": {"ios": "https://dc.lft.to/lastmile_qr_scan", "android": "https://dc.lft.to/lastmile_qr_scan"}, "bike_id": "5ad8ee350de35c75cea0e2e104c7832e", "fusion_lat": 0.0}, {"lon": -77.0386895, "name": "05c5adb73f22d4de62bcbb2e5f6651b0", "is_disabled": 0, "type": "electric_scooter", "is_reserved": 0, "fusion_lon": 0.0, "lat": 38.917088666666665, "rental_uris": {"ios": "https://dc.lft.to/lastmile_qr_scan", "android": "https://dc.lft.to/lastmile_qr_scan"}, "bike_id": "05c5adb73f22d4de62bcbb2e5f6651b0", "fusion_lat": 0.0}, {"lon": -77.00288966666666, "name": "5a4180651c61404c97555524ea69d6da", "is_disabled": 0, "type": "electric_scooter", "is_reserved": 0, "fusion_lon": 0.0, "lat": 38.89353033333333, "rental_uris": {"ios": "https://dc.lft.to/lastmile_qr_scan", "android": "https://dc.lft.to/lastmile_qr_scan"}, "bike_id": "5a4180651c61404c97555524ea69d6da", "fusion_lat": 0.0}, {"lon": -77.01025983333334, "name": "359991d73b00ac549e7adb70e0f31ea6", "is_disabled": 0, "type": "electric_scooter", "is_reserved": 0, "fusion_lon": 0.0, "lat": 38.91708666666667, "rental_uris": {"ios": "https://dc.lft.to/lastmile_qr_scan", "android": "https://dc.lft.to/lastmile_qr_scan"}, "bike_id": "359991d73b00ac549e7adb70e0f31ea6", "fusion_lat": 0.0}, {"lon": -77.038814, "name": "67fd9e3680269958f377527df5e938a3", "is_disabled": 0, "type": "electric_scooter", "is_reserved": 0, "fusion_lon": 0.0, "lat": 38.918513, "rental_uris": {"ios": "https://dc.lft.to/lastmile_qr_scan", "android": "https://dc.lft.to/lastmile_qr_scan"}, "bike_id": "67fd9e3680269958f377527df5e938a3", "fusion_lat": 0.0}, {"lon": -76.9916555, "name": "cd53b27a9b7592645891e47bff4afd48", "is_disabled": 0, "type": "electric_scooter", "is_reserved": 0, "fusion_lon": 0.0, "lat": 38.90129733333333, "rental_uris": {"ios": "https://dc.lft.to/lastmile_qr_scan", "android": "https://dc.lft.to/lastmile_qr_scan"}, "bike_id": "cd53b27a9b7592645891e47bff4afd48", "fusion_lat": 0.0}, {"lon": -77.03187683333333, "name": "fb9ca6dc8179b306e85a3078e1e2d9b0", "is_disabled": 0, "type": "electric_scooter", "is_reserved": 0, "fusion_lon": 0.0, "lat": 38.91618616666667, "rental_uris": {"ios": "https://dc.lft.to/lastmile_qr_scan", "android": "https://dc.lft.to/lastmile_qr_scan"}, "bike_id": "fb9ca6dc8179b306e85a3078e1e2d9b0", "fusion_lat": 0.0}, {"lon": -77.1288995, "name": "50967d478e5dea62c3babf01d73aaa8b", "is_disabled": 0, "type": "electric_bike", "is_reserved": 0, "fusion_lon": 0.0, "lat": 38.9060625, "rental_uris": {"ios": "https://dc.lft.to/lastmile_qr_scan", "android": "https://dc.lft.to/lastmile_qr_scan"}, "bike_id": "50967d478e5dea62c3babf01d73aaa8b", "fusion_lat": 0.0}, {"lon": -77.02786416666666, "name": "1993431e445ce1f437f0f768714bf1a0", "is_disabled": 0, "type": "electric_scooter", "is_reserved": 0, "fusion_lon": 0.0, "lat": 38.9383605, "rental_uris": {"ios": "https://dc.lft.to/lastmile_qr_scan", "android": "https://dc.lft.to/lastmile_qr_scan"}, "bike_id": "1993431e445ce1f437f0f768714bf1a0", "fusion_lat": 0.0}, {"lon": -77.00593283333333, "name": "6447d43bbd62f76f79e130718540b6bd", "is_disabled": 0, "type": "electric_scooter", "is_reserved": 0, "fusion_lon": 0.0, "lat": 38.906358, "rental_uris": {"ios": "https://dc.lft.to/lastmile_qr_scan", "android": "https://dc.lft.to/lastmile_qr_scan"}, "bike_id": "6447d43bbd62f76f79e130718540b6bd", "fusion_lat": 0.0}, {"lon": -77.0093095, "name": "0b9cbebe895414b1ff17d80e41a20cdc", "is_disabled": 0, "type": "electric_scooter", "is_reserved": 0, "fusion_lon": 0.0, "lat": 38.895504833333334, "rental_uris": {"ios": "https://dc.lft.to/lastmile_qr_scan", "android": "https://dc.lft.to/lastmile_qr_scan"}, "bike_id": "0b9cbebe895414b1ff17d80e41a20cdc", "fusion_lat": 0.0}, {"lon": -77.00132716666667, "name": "83ae7352f525c3c31f2cf86dc28c6a8d", "is_disabled": 0, "type": "electric_scooter", "is_reserved": 0, "fusion_lon": 0.0, "lat": 38.87381833333333, "rental_uris": {"ios": "https://dc.lft.to/lastmile_qr_scan", "android": "https://dc.lft.to/lastmile_qr_scan"}, "bike_id": "83ae7352f525c3c31f2cf86dc28c6a8d", "fusion_lat": 0.0}, {"lon": -76.976812, "name": "8e2aea1b477478a456fea416c6a011cc", "is_disabled": 0, "type": "electric_scooter", "is_reserved": 0, "fusion_lon": 0.0, "lat": 38.90093983333333, "rental_uris": {"ios": "https://dc.lft.to/lastmile_qr_scan", "android": "https://dc.lft.to/lastmile_qr_scan"}, "bike_id": "8e2aea1b477478a456fea416c6a011cc", "fusion_lat": 0.0}, {"lon": -77.03258783333334, "name": "454b0b7cb49a5124461337343f9478d5", "is_disabled": 0, "type": "electric_scooter", "is_reserved": 0, "fusion_lon": 0.0, "lat": 38.921094, "rental_uris": {"ios": "https://dc.lft.to/lastmile_qr_scan", "android": "https://dc.lft.to/lastmile_qr_scan"}, "bike_id": "454b0b7cb49a5124461337343f9478d5", "fusion_lat": 0.0}, {"lon": -77.012091, "name": "d35e295daa050bbd5ed6bceb525d696b", "is_disabled": 0, "type": "electric_scooter", "is_reserved": 0, "fusion_lon": 0.0, "lat": 38.870915, "rental_uris": {"ios": "https://dc.lft.to/lastmile_qr_scan", "android": "https://dc.lft.to/lastmile_qr_scan"}, "bike_id": "d35e295daa050bbd5ed6bceb525d696b", "fusion_lat": 0.0}, {"lon": -76.98525416666666, "name": "8e6c1f89c6eba1327e89f5432dc90c48", "is_disabled": 0, "type": "electric_scooter", "is_reserved": 0, "fusion_lon": 0.0, "lat": 38.860046, "rental_uris": {"ios": "https://dc.lft.to/lastmile_qr_scan", "android": "https://dc.lft.to/lastmile_qr_scan"}, "bike_id": "8e6c1f89c6eba1327e89f5432dc90c48", "fusion_lat": 0.0}, {"lon": -77.03470066666667, "name": "326e26fa513e148bd315eaa7d26fe81b", "is_disabled": 0, "type": "electric_scooter", "is_reserved": 0, "fusion_lon": 0.0, "lat": 38.9297835, "rental_uris": {"ios": "https://dc.lft.to/lastmile_qr_scan", "android": "https://dc.lft.to/lastmile_qr_scan"}, "bike_id": "326e26fa513e148bd315eaa7d26fe81b", "fusion_lat": 0.0}, {"lon": -77.02130866666667, "name": "9c2194c2a9accf3637d5e0185ed46b6c", "is_disabled": 0, "type": "electric_scooter", "is_reserved": 0, "fusion_lon": 0.0, "lat": 38.92414566666667, "rental_uris": {"ios": "https://dc.lft.to/lastmile_qr_scan", "android": "https://dc.lft.to/lastmile_qr_scan"}, "bike_id": "9c2194c2a9accf3637d5e0185ed46b6c", "fusion_lat": 0.0}, {"lon": -77.0343845, "name": "bfc829587b6b0f2062fba4ade7045b20", "is_disabled": 0, "type": "electric_scooter", "is_reserved": 0, "fusion_lon": 0.0, "lat": 38.921606, "rental_uris": {"ios": "https://dc.lft.to/lastmile_qr_scan", "android": "https://dc.lft.to/lastmile_qr_scan"}, "bike_id": "bfc829587b6b0f2062fba4ade7045b20", "fusion_lat": 0.0}, {"lon": -77.03416183333333, "name": "393bfa323fb591987670ca900448280b", "is_disabled": 0, "type": "electric_scooter", "is_reserved": 0, "fusion_lon": 0.0, "lat": 38.923448, "rental_uris": {"ios": "https://dc.lft.to/lastmile_qr_scan", "android": "https://dc.lft.to/lastmile_qr_scan"}, "bike_id": "393bfa323fb591987670ca900448280b", "fusion_lat": 0.0}, {"lon": -77.03218516666666, "name": "5c62003e42156c1842a6b55f45f611a0", "is_disabled": 0, "type": "electric_scooter", "is_reserved": 0, "fusion_lon": 0.0, "lat": 38.91616116666667, "rental_uris": {"ios": "https://dc.lft.to/lastmile_qr_scan", "android": "https://dc.lft.to/lastmile_qr_scan"}, "bike_id": "5c62003e42156c1842a6b55f45f611a0", "fusion_lat": 0.0}, {"lon": -77.03210566666667, "name": "7962e08539d12b64df2f59154ebc135f", "is_disabled": 0, "type": "electric_scooter", "is_reserved": 0, "fusion_lon": 0.0, "lat": 38.9161005, "rental_uris": {"ios": "https://dc.lft.to/lastmile_qr_scan", "android": "https://dc.lft.to/lastmile_qr_scan"}, "bike_id": "7962e08539d12b64df2f59154ebc135f", "fusion_lat": 0.0}, {"lon": -77.0021595, "name": "d47342dc0b7d963a36f4e620b4022b09", "is_disabled": 0, "type": "electric_scooter", "is_reserved": 0, "fusion_lon": 0.0, "lat": 38.901255666666664, "rental_uris": {"ios": "https://dc.lft.to/lastmile_qr_scan", "android": "https://dc.lft.to/lastmile_qr_scan"}, "bike_id": "d47342dc0b7d963a36f4e620b4022b09", "fusion_lat": 0.0}, {"lon": -77.02731733333333, "name": "3646caac865bfe10c1fd042b7d54f779", "is_disabled": 0, "type": "electric_scooter", "is_reserved": 0, "fusion_lon": 0.0, "lat": 38.92815683333333, "rental_uris": {"ios": "https://dc.lft.to/lastmile_qr_scan", "android": "https://dc.lft.to/lastmile_qr_scan"}, "bike_id": "3646caac865bfe10c1fd042b7d54f779", "fusion_lat": 0.0}, {"lon": -77.01223166666666, "name": "28eaa9618a657be9c72c87d0869d429d", "is_disabled": 0, "type": "electric_scooter", "is_reserved": 0, "fusion_lon": 0.0, "lat": 38.92511066666667, "rental_uris": {"ios": "https://dc.lft.to/lastmile_qr_scan", "android": "https://dc.lft.to/lastmile_qr_scan"}, "bike_id": "28eaa9618a657be9c72c87d0869d429d", "fusion_lat": 0.0}, {"lon": -76.96543483333333, "name": "8ff7479f7b7201cfafbb0b7e04701f84", "is_disabled": 0, "type": "electric_scooter", "is_reserved": 0, "fusion_lon": 0.0, "lat": 38.87877666666667, "rental_uris": {"ios": "https://dc.lft.to/lastmile_qr_scan", "android": "https://dc.lft.to/lastmile_qr_scan"}, "bike_id": "8ff7479f7b7201cfafbb0b7e04701f84", "fusion_lat": 0.0}, {"lon": -77.03285516666666, "name": "93538d4ecbea9e9deb18d460118a3e5f", "is_disabled": 0, "type": "electric_scooter", "is_reserved": 0, "fusion_lon": 0.0, "lat": 38.93574183333333, "rental_uris": {"ios": "https://dc.lft.to/lastmile_qr_scan", "android": "https://dc.lft.to/lastmile_qr_scan"}, "bike_id": "93538d4ecbea9e9deb18d460118a3e5f", "fusion_lat": 0.0}, {"lon": -77.02486283333333, "name": "fd69473e72b943cd2db65e06387d8c5b", "is_disabled": 0, "type": "electric_scooter", "is_reserved": 0, "fusion_lon": 0.0, "lat": 38.918176333333335, "rental_uris": {"ios": "https://dc.lft.to/lastmile_qr_scan", "android": "https://dc.lft.to/lastmile_qr_scan"}, "bike_id": "fd69473e72b943cd2db65e06387d8c5b", "fusion_lat": 0.0}, {"lon": -77.00540233333334, "name": "2654da194a50113823f5a7a34307dcdd", "is_disabled": 0, "type": "electric_scooter", "is_reserved": 0, "fusion_lon": 0.0, "lat": 38.87544366666667, "rental_uris": {"ios": "https://dc.lft.to/lastmile_qr_scan", "android": "https://dc.lft.to/lastmile_qr_scan"}, "bike_id": "2654da194a50113823f5a7a34307dcdd", "fusion_lat": 0.0}, {"lon": -77.04042833333334, "name": "c236ad02b0e3342d18572fd0cfa3ae8f", "is_disabled": 0, "type": "electric_scooter", "is_reserved": 0, "fusion_lon": 0.0, "lat": 38.920463, "rental_uris": {"ios": "https://dc.lft.to/lastmile_qr_scan", "android": "https://dc.lft.to/lastmile_qr_scan"}, "bike_id": "c236ad02b0e3342d18572fd0cfa3ae8f", "fusion_lat": 0.0}, {"lon": -77.04408083333334, "name": "a7af9db2e56dd186ac806bedcd11bc5b", "is_disabled": 0, "type": "electric_scooter", "is_reserved": 0, "fusion_lon": 0.0, "lat": 38.92952583333334, "rental_uris": {"ios": "https://dc.lft.to/lastmile_qr_scan", "android": "https://dc.lft.to/lastmile_qr_scan"}, "bike_id": "a7af9db2e56dd186ac806bedcd11bc5b", "fusion_lat": 0.0}, {"lon": -77.04707533333334, "name": "72e63b4615f2a06b5bf9cae00383db83", "is_disabled": 0, "type": "electric_scooter", "is_reserved": 0, "fusion_lon": 0.0, "lat": 38.91663916666667, "rental_uris": {"ios": "https://dc.lft.to/lastmile_qr_scan", "android": "https://dc.lft.to/lastmile_qr_scan"}, "bike_id": "72e63b4615f2a06b5bf9cae00383db83", "fusion_lat": 0.0}, {"lon": -77.0412015, "name": "e435ad40fd24a76c83660d11890a5d9b", "is_disabled": 0, "type": "electric_scooter", "is_reserved": 0, "fusion_lon": 0.0, "lat": 38.921198833333335, "rental_uris": {"ios": "https://dc.lft.to/lastmile_qr_scan", "android": "https://dc.lft.to/lastmile_qr_scan"}, "bike_id": "e435ad40fd24a76c83660d11890a5d9b", "fusion_lat": 0.0}, {"lon": -77.03661483333333, "name": "21ca084aa30172d21a1f05c151ab7b2b", "is_disabled": 0, "type": "electric_scooter", "is_reserved": 0, "fusion_lon": 0.0, "lat": 38.93156966666667, "rental_uris": {"ios": "https://dc.lft.to/lastmile_qr_scan", "android": "https://dc.lft.to/lastmile_qr_scan"}, "bike_id": "21ca084aa30172d21a1f05c151ab7b2b", "fusion_lat": 0.0}, {"lon": -77.054269, "name": "9392222d5fe9d31e150fab02d806f9cb", "is_disabled": 0, "type": "electric_scooter", "is_reserved": 0, "fusion_lon": 0.0, "lat": 38.9235645, "rental_uris": {"ios": "https://dc.lft.to/lastmile_qr_scan", "android": "https://dc.lft.to/lastmile_qr_scan"}, "bike_id": "9392222d5fe9d31e150fab02d806f9cb", "fusion_lat": 0.0}, {"lon": -77.02213933333333, "name": "24da4fd5f47467ec355fdcd29661de99", "is_disabled": 0, "type": "electric_scooter", "is_reserved": 0, "fusion_lon": 0.0, "lat": 38.878964333333336, "rental_uris": {"ios": "https://dc.lft.to/lastmile_qr_scan", "android": "https://dc.lft.to/lastmile_qr_scan"}, "bike_id": "24da4fd5f47467ec355fdcd29661de99", "fusion_lat": 0.0}, {"lon": -76.9980315, "name": "6fdd57a643e7ae52a598f07e9fbc6340", "is_disabled": 0, "type": "electric_scooter", "is_reserved": 0, "fusion_lon": 0.0, "lat": 38.896068, "rental_uris": {"ios": "https://dc.lft.to/lastmile_qr_scan", "android": "https://dc.lft.to/lastmile_qr_scan"}, "bike_id": "6fdd57a643e7ae52a598f07e9fbc6340", "fusion_lat": 0.0}, {"lon": -77.04618483333333, "name": "810ad7c7bd2cbbdbef1b3360574c704d", "is_disabled": 0, "type": "electric_scooter", "is_reserved": 0, "fusion_lon": 0.0, "lat": 38.91617983333333, "rental_uris": {"ios": "https://dc.lft.to/lastmile_qr_scan", "android": "https://dc.lft.to/lastmile_qr_scan"}, "bike_id": "810ad7c7bd2cbbdbef1b3360574c704d", "fusion_lat": 0.0}, {"lon": -77.02194966666667, "name": "876717809f894ea26a47aa10b82aa88c", "is_disabled": 0, "type": "electric_scooter", "is_reserved": 0, "fusion_lon": 0.0, "lat": 38.914853666666666, "rental_uris": {"ios": "https://dc.lft.to/lastmile_qr_scan", "android": "https://dc.lft.to/lastmile_qr_scan"}, "bike_id": "876717809f894ea26a47aa10b82aa88c", "fusion_lat": 0.0}, {"lon": -77.02232883333333, "name": "6c9331a27ed470446a9306bf9696daa6", "is_disabled": 0, "type": "electric_scooter", "is_reserved": 0, "fusion_lon": 0.0, "lat": 38.92351, "rental_uris": {"ios": "https://dc.lft.to/lastmile_qr_scan", "android": "https://dc.lft.to/lastmile_qr_scan"}, "bike_id": "6c9331a27ed470446a9306bf9696daa6", "fusion_lat": 0.0}, {"lon": -77.0220105, "name": "377a47e18d2d723fbfde4ffee0c759b8", "is_disabled": 0, "type": "electric_scooter", "is_reserved": 0, "fusion_lon": 0.0, "lat": 38.92998733333334, "rental_uris": {"ios": "https://dc.lft.to/lastmile_qr_scan", "android": "https://dc.lft.to/lastmile_qr_scan"}, "bike_id": "377a47e18d2d723fbfde4ffee0c759b8", "fusion_lat": 0.0}, {"lon": -77.01916016666667, "name": "5deb292270f1d01e2e94877eb7d2d24a", "is_disabled": 0, "type": "electric_scooter", "is_reserved": 0, "fusion_lon": 0.0, "lat": 38.929402, "rental_uris": {"ios": "https://dc.lft.to/lastmile_qr_scan", "android": "https://dc.lft.to/lastmile_qr_scan"}, "bike_id": "5deb292270f1d01e2e94877eb7d2d24a", "fusion_lat": 0.0}, {"lon": -76.985425, "name": "dde507d49cac9af818d1c68f21e45a07", "is_disabled": 0, "type": "electric_scooter", "is_reserved": 0, "fusion_lon": 0.0, "lat": 38.87967916666667, "rental_uris": {"ios": "https://dc.lft.to/lastmile_qr_scan", "android": "https://dc.lft.to/lastmile_qr_scan"}, "bike_id": "dde507d49cac9af818d1c68f21e45a07", "fusion_lat": 0.0}, {"lon": -76.98576733333333, "name": "4bfeeca2aee95f3321540c7532f7624c", "is_disabled": 0, "type": "electric_scooter", "is_reserved": 0, "fusion_lon": 0.0, "lat": 38.8961485, "rental_uris": {"ios": "https://dc.lft.to/lastmile_qr_scan", "android": "https://dc.lft.to/lastmile_qr_scan"}, "bike_id": "4bfeeca2aee95f3321540c7532f7624c", "fusion_lat": 0.0}, {"lon": -76.9836325, "name": "dd393322dcb87b24a9e9217993f333d2", "is_disabled": 0, "type": "electric_scooter", "is_reserved": 0, "fusion_lon": 0.0, "lat": 38.89155216666666, "rental_uris": {"ios": "https://dc.lft.to/lastmile_qr_scan", "android": "https://dc.lft.to/lastmile_qr_scan"}, "bike_id": "dd393322dcb87b24a9e9217993f333d2", "fusion_lat": 0.0}, {"lon": -77.02321383333333, "name": "a3b749dd04dc8492431c4ff0e0613de0", "is_disabled": 0, "type": "electric_scooter", "is_reserved": 0, "fusion_lon": 0.0, "lat": 38.920697, "rental_uris": {"ios": "https://dc.lft.to/lastmile_qr_scan", "android": "https://dc.lft.to/lastmile_qr_scan"}, "bike_id": "a3b749dd04dc8492431c4ff0e0613de0", "fusion_lat": 0.0}, {"lon": -77.02712316666667, "name": "ff1ca757f544a47c4065cf7186e568fe", "is_disabled": 0, "type": "electric_scooter", "is_reserved": 0, "fusion_lon": 0.0, "lat": 38.9276975, "rental_uris": {"ios": "https://dc.lft.to/lastmile_qr_scan", "android": "https://dc.lft.to/lastmile_qr_scan"}, "bike_id": "ff1ca757f544a47c4065cf7186e568fe", "fusion_lat": 0.0}, {"lon": -77.00062383333334, "name": "8862a84371466cfb58c8f015c17f88c8", "is_disabled": 0, "type": "electric_scooter", "is_reserved": 0, "fusion_lon": 0.0, "lat": 38.87493683333334, "rental_uris": {"ios": "https://dc.lft.to/lastmile_qr_scan", "android": "https://dc.lft.to/lastmile_qr_scan"}, "bike_id": "8862a84371466cfb58c8f015c17f88c8", "fusion_lat": 0.0}, {"lon": -77.027211, "name": "489c0bd552e12c2ddca38cb5c18f245a", "is_disabled": 0, "type": "electric_scooter", "is_reserved": 0, "fusion_lon": 0.0, "lat": 38.91063533333333, "rental_uris": {"ios": "https://dc.lft.to/lastmile_qr_scan", "android": "https://dc.lft.to/lastmile_qr_scan"}, "bike_id": "489c0bd552e12c2ddca38cb5c18f245a", "fusion_lat": 0.0}, {"lon": -77.0406655, "name": "329df4a253d6a52dec88cffff5c9faa6", "is_disabled": 0, "type": "electric_scooter", "is_reserved": 0, "fusion_lon": 0.0, "lat": 38.9051775, "rental_uris": {"ios": "https://dc.lft.to/lastmile_qr_scan", "android": "https://dc.lft.to/lastmile_qr_scan"}, "bike_id": "329df4a253d6a52dec88cffff5c9faa6", "fusion_lat": 0.0}, {"lon": -77.01858866666667, "name": "6bc67004dc0d14031e730abbb105a3d7", "is_disabled": 0, "type": "electric_scooter", "is_reserved": 0, "fusion_lon": 0.0, "lat": 38.94921383333333, "rental_uris": {"ios": "https://dc.lft.to/lastmile_qr_scan", "android": "https://dc.lft.to/lastmile_qr_scan"}, "bike_id": "6bc67004dc0d14031e730abbb105a3d7", "fusion_lat": 0.0}, {"lon": -77.07907783333333, "name": "a7b675ff8d016dee0d46f51c032647a3", "is_disabled": 0, "type": "electric_bike", "is_reserved": 0, "fusion_lon": 0.0, "lat": 38.83935816666666, "rental_uris": {"ios": "https://dc.lft.to/lastmile_qr_scan", "android": "https://dc.lft.to/lastmile_qr_scan"}, "bike_id": "a7b675ff8d016dee0d46f51c032647a3", "fusion_lat": 0.0}, {"lon": -77.02063316666667, "name": "1881410f84272cad2393a4ee30f3d7af", "is_disabled": 0, "type": "electric_scooter", "is_reserved": 0, "fusion_lon": 0.0, "lat": 38.932606, "rental_uris": {"ios": "https://dc.lft.to/lastmile_qr_scan", "android": "https://dc.lft.to/lastmile_qr_scan"}, "bike_id": "1881410f84272cad2393a4ee30f3d7af", "fusion_lat": 0.0}, {"lon": -76.99788433333333, "name": "283ad00d1d73c24875060394210a0203", "is_disabled": 0, "type": "electric_scooter", "is_reserved": 0, "fusion_lon": 0.0, "lat": 38.93216483333333, "rental_uris": {"ios": "https://dc.lft.to/lastmile_qr_scan", "android": "https://dc.lft.to/lastmile_qr_scan"}, "bike_id": "283ad00d1d73c24875060394210a0203", "fusion_lat": 0.0}, {"lon": -77.0217005, "name": "0ce8a2cfc61d08d497c20a8e8be8cd25", "is_disabled": 0, "type": "electric_scooter", "is_reserved": 0, "fusion_lon": 0.0, "lat": 38.914042, "rental_uris": {"ios": "https://dc.lft.to/lastmile_qr_scan", "android": "https://dc.lft.to/lastmile_qr_scan"}, "bike_id": "0ce8a2cfc61d08d497c20a8e8be8cd25", "fusion_lat": 0.0}, {"lon": -77.04047683333333, "name": "133f924e1cb9b5fbc374407af85eb45c", "is_disabled": 0, "type": "electric_scooter", "is_reserved": 0, "fusion_lon": 0.0, "lat": 38.904667833333335, "rental_uris": {"ios": "https://dc.lft.to/lastmile_qr_scan", "android": "https://dc.lft.to/lastmile_qr_scan"}, "bike_id": "133f924e1cb9b5fbc374407af85eb45c", "fusion_lat": 0.0}, {"lon": -76.933943, "name": "3f9973b9f45e1435801cda79e91e752f", "is_disabled": 0, "type": "electric_scooter", "is_reserved": 0, "fusion_lon": 0.0, "lat": 38.8991055, "rental_uris": {"ios": "https://dc.lft.to/lastmile_qr_scan", "android": "https://dc.lft.to/lastmile_qr_scan"}, "bike_id": "3f9973b9f45e1435801cda79e91e752f", "fusion_lat": 0.0}, {"lon": -77.04234883333334, "name": "03ea9570f7b3ac16193952cd1688f9f8", "is_disabled": 0, "type": "electric_scooter", "is_reserved": 0, "fusion_lon": 0.0, "lat": 38.92150483333333, "rental_uris": {"ios": "https://dc.lft.to/lastmile_qr_scan", "android": "https://dc.lft.to/lastmile_qr_scan"}, "bike_id": "03ea9570f7b3ac16193952cd1688f9f8", "fusion_lat": 0.0}, {"lon": -77.04337933333333, "name": "116d40ecd1cb1d230bb64fd5b01b811f", "is_disabled": 0, "type": "electric_scooter", "is_reserved": 0, "fusion_lon": 0.0, "lat": 38.896925, "rental_uris": {"ios": "https://dc.lft.to/lastmile_qr_scan", "android": "https://dc.lft.to/lastmile_qr_scan"}, "bike_id": "116d40ecd1cb1d230bb64fd5b01b811f", "fusion_lat": 0.0}, {"lon": -77.04971983333333, "name": "d25cbd70cda49a770abbbd91564e174d", "is_disabled": 0, "type": "electric_bike", "is_reserved": 0, "fusion_lon": 0.0, "lat": 38.852934, "rental_uris": {"ios": "https://dc.lft.to/lastmile_qr_scan", "android": "https://dc.lft.to/lastmile_qr_scan"}, "bike_id": "d25cbd70cda49a770abbbd91564e174d", "fusion_lat": 0.0}, {"lon": -77.06778816666667, "name": "0a547d3eab6924b03aa7dffcce6173e1", "is_disabled": 0, "type": "electric_scooter", "is_reserved": 0, "fusion_lon": 0.0, "lat": 38.95217, "rental_uris": {"ios": "https://dc.lft.to/lastmile_qr_scan", "android": "https://dc.lft.to/lastmile_qr_scan"}, "bike_id": "0a547d3eab6924b03aa7dffcce6173e1", "fusion_lat": 0.0}, {"lon": -76.98472916666667, "name": "772be9323df2bd1356eeff9bdad88a4d", "is_disabled": 0, "type": "electric_bike", "is_reserved": 0, "fusion_lon": 0.0, "lat": 38.912716833333334, "rental_uris": {"ios": "https://dc.lft.to/lastmile_qr_scan", "android": "https://dc.lft.to/lastmile_qr_scan"}, "bike_id": "772be9323df2bd1356eeff9bdad88a4d", "fusion_lat": 0.0}, {"lon": -77.0067865, "name": "ec82298357f043b46926fa19ce5a7b43", "is_disabled": 0, "type": "electric_bike", "is_reserved": 0, "fusion_lon": 0.0, "lat": 38.945082, "rental_uris": {"ios": "https://dc.lft.to/lastmile_qr_scan", "android": "https://dc.lft.to/lastmile_qr_scan"}, "bike_id": "ec82298357f043b46926fa19ce5a7b43", "fusion_lat": 0.0}, {"lon": -77.02663, "name": "c4f5d6ceb03fe69ee24c486c52a8daee", "is_disabled": 0, "type": "electric_scooter", "is_reserved": 0, "fusion_lon": 0.0, "lat": 38.92375283333333, "rental_uris": {"ios": "https://dc.lft.to/lastmile_qr_scan", "android": "https://dc.lft.to/lastmile_qr_scan"}, "bike_id": "c4f5d6ceb03fe69ee24c486c52a8daee", "fusion_lat": 0.0}, {"lon": -77.03358833333333, "name": "02b71e0489e8c9e113a633d8495c35b7", "is_disabled": 0, "type": "electric_scooter", "is_reserved": 0, "fusion_lon": 0.0, "lat": 38.927595833333335, "rental_uris": {"ios": "https://dc.lft.to/lastmile_qr_scan", "android": "https://dc.lft.to/lastmile_qr_scan"}, "bike_id": "02b71e0489e8c9e113a633d8495c35b7", "fusion_lat": 0.0}, {"lon": -76.9930215, "name": "4fe7ac4257db00e7ba597a128b32dbdb", "is_disabled": 0, "type": "electric_scooter", "is_reserved": 0, "fusion_lon": 0.0, "lat": 38.9377025, "rental_uris": {"ios": "https://dc.lft.to/lastmile_qr_scan", "android": "https://dc.lft.to/lastmile_qr_scan"}, "bike_id": "4fe7ac4257db00e7ba597a128b32dbdb", "fusion_lat": 0.0}, {"lon": -77.02211666666666, "name": "2d63b2635a5995c60ee12bb3cd6fbdd8", "is_disabled": 0, "type": "electric_scooter", "is_reserved": 0, "fusion_lon": 0.0, "lat": 38.8960565, "rental_uris": {"ios": "https://dc.lft.to/lastmile_qr_scan", "android": "https://dc.lft.to/lastmile_qr_scan"}, "bike_id": "2d63b2635a5995c60ee12bb3cd6fbdd8", "fusion_lat": 0.0}, {"lon": -77.03109166666667, "name": "3698db51786619412516fbb9373306ea", "is_disabled": 0, "type": "electric_scooter", "is_reserved": 0, "fusion_lon": 0.0, "lat": 38.88608416666667, "rental_uris": {"ios": "https://dc.lft.to/lastmile_qr_scan", "android": "https://dc.lft.to/lastmile_qr_scan"}, "bike_id": "3698db51786619412516fbb9373306ea", "fusion_lat": 0.0}, {"lon": -77.0074375, "name": "ffac7b7d35b411cf4707d87b7439bd61", "is_disabled": 0, "type": "electric_scooter", "is_reserved": 0, "fusion_lon": 0.0, "lat": 38.903594166666664, "rental_uris": {"ios": "https://dc.lft.to/lastmile_qr_scan", "android": "https://dc.lft.to/lastmile_qr_scan"}, "bike_id": "ffac7b7d35b411cf4707d87b7439bd61", "fusion_lat": 0.0}, {"lon": -77.02436983333334, "name": "a920f81e5f64c4341abb2c5ba5416e9f", "is_disabled": 0, "type": "electric_scooter", "is_reserved": 0, "fusion_lon": 0.0, "lat": 38.93100116666667, "rental_uris": {"ios": "https://dc.lft.to/lastmile_qr_scan", "android": "https://dc.lft.to/lastmile_qr_scan"}, "bike_id": "a920f81e5f64c4341abb2c5ba5416e9f", "fusion_lat": 0.0}, {"lon": -77.0012195, "name": "a3652edff143ce656dd11cbed7b1f99c", "is_disabled": 0, "type": "electric_scooter", "is_reserved": 0, "fusion_lon": 0.0, "lat": 38.886480666666664, "rental_uris": {"ios": "https://dc.lft.to/lastmile_qr_scan", "android": "https://dc.lft.to/lastmile_qr_scan"}, "bike_id": "a3652edff143ce656dd11cbed7b1f99c", "fusion_lat": 0.0}, {"lon": -77.02829966666667, "name": "469780f59255d97ce8dffe9058fa68e5", "is_disabled": 0, "type": "electric_scooter", "is_reserved": 0, "fusion_lon": 0.0, "lat": 38.887381500000004, "rental_uris": {"ios": "https://dc.lft.to/lastmile_qr_scan", "android": "https://dc.lft.to/lastmile_qr_scan"}, "bike_id": "469780f59255d97ce8dffe9058fa68e5", "fusion_lat": 0.0}, {"lon": -77.03255316666667, "name": "4571b8ab2eb97be46c7cc28be799f68b", "is_disabled": 0, "type": "electric_scooter", "is_reserved": 0, "fusion_lon": 0.0, "lat": 38.93965733333334, "rental_uris": {"ios": "https://dc.lft.to/lastmile_qr_scan", "android": "https://dc.lft.to/lastmile_qr_scan"}, "bike_id": "4571b8ab2eb97be46c7cc28be799f68b", "fusion_lat": 0.0}, {"lon": -77.03184933333333, "name": "c5d0d4d36c435dabd048c72a5230bec9", "is_disabled": 0, "type": "electric_scooter", "is_reserved": 0, "fusion_lon": 0.0, "lat": 38.89237516666667, "rental_uris": {"ios": "https://dc.lft.to/lastmile_qr_scan", "android": "https://dc.lft.to/lastmile_qr_scan"}, "bike_id": "c5d0d4d36c435dabd048c72a5230bec9", "fusion_lat": 0.0},