{"data": {"bikes": [{"bike_id": "b6ef00bcecd973fe724850db3682e7b9", "type": "electric_scooter", "is_disabled": 0, "lat": 38.939199333333335, "rental_uris": {"ios": "https://dc.lft.to/lastmile_qr_scan", "android": "https://dc.lft.to/lastmile_qr_scan"}, "is_reserved": 0, "fusion_lon": 0.0, "fusion_lat": 0.0, "lon": -77.06053383333334, "name": "b6ef00bcecd973fe724850db3682e7b9"}, {"bike_id": "b467720d52e61710426b671018fcd7c6", "type": "electric_scooter", "is_disabled": 0, "lat": 38.94204766666667, "rental_uris": {"ios": "https://dc.lft.to/lastmile_qr_scan", "android": "https://dc.lft.to/lastmile_qr_scan"}, "is_reserved": 0, "fusion_lon": 0.0, "fusion_lat": 0.0, "lon": -77.01735333333333, "name": "b467720d52e61710426b671018fcd7c6"}, {"bike_id": "f14b3a02af496011fd85d890a31d66b8", "type": "electric_scooter", "is_disabled": 0, "lat": 38.90579, "rental_uris": {"ios": "https://dc.lft.to/lastmile_qr_scan", "android": "https://dc.lft.to/lastmile_qr_scan"}, "is_reserved": 0, "fusion_lon": 0.0, "fusion_lat": 0.0, "lon": -76.98429566666667, "name": "f14b3a02af496011fd85d890a31d66b8"}, {"bike_id": "18eb8a4278d61221769d4e62a565c5f1", "type": "electric_scooter", "is_disabled": 0, "lat": 38.916774833333335, "rental_uris": {"ios": "https://dc.lft.to/lastmile_qr_scan", "android": "https://dc.lft.to/lastmile_qr_scan"}, "is_reserved": 0, "fusion_lon": 0.0, "fusion_lat": 0.0, "lon": -77.02875883333333, "name": "18eb8a4278d61221769d4e62a565c5f1"}, {"bike_id": "d360f051d5d1a2545208dd9c9b94146c", "type": "electric_scooter", "is_disabled": 0, "lat": 38.880850833333334, "rental_uris": {"ios": "https://dc.lft.to/lastmile_qr_scan", "android": "https://dc.lft.to/lastmile_qr_scan"}, "is_reserved": 0, "fusion_lon": 0.0, "fusion_lat": 0.0, "lon": -77.0166815, "name": "d360f051d5d1a2545208dd9c9b94146c"}, {"bike_id": "89cd81be615edd2a00de0791f77cef0f", "type": "electric_scooter", "is_disabled": 0, "lat": 38.88477966666667, "rental_uris": {"ios": "https://dc.lft.to/lastmile_qr_scan", "android": "https://dc.lft.to/lastmile_qr_scan"}, "is_reserved": 0, "fusion_lon": 0.0, "fusion_lat": 0.0, "lon": -76.9821375, "name": "89cd81be615edd2a00de0791f77cef0f"}, {"bike_id": "c87ecf183e53c34ed308a2d66ad0d243", "type": "electric_scooter", "is_disabled": 0, "lat": 38.93254683333333, "rental_uris": {"ios": "https://dc.lft.to/lastmile_qr_scan", "android": "https://dc.lft.to/lastmile_qr_scan"}, "is_reserved": 0, "fusion_lon": 0.0, "fusion_lat": 0.0, "lon": -77.032852, "name": "c87ecf183e53c34ed308a2d66ad0d243"}, {"bike_id": "37959af01ca105de35af407573280c9f", "type": "electric_scooter", "is_disabled": 0, "lat": 38.9208265, "rental_uris": {"ios": "https://dc.lft.to/lastmile_qr_scan", "android": "https://dc.lft.to/lastmile_qr_scan"}, "is_reserved": 0, "fusion_lon": 0.0, "fusion_lat": 0.0, "lon": -77.028458, "name": "37959af01ca105de35af407573280c9f"}, {"bike_id": "9197623bfa35109e171e4f4c4ffb52c7", "type": "electric_scooter", "is_disabled": 0, "lat": 38.916355333333335, "rental_uris": {"ios": "https://dc.lft.to/lastmile_qr_scan", "android": "https://dc.lft.to/lastmile_qr_scan"}, "is_reserved": 0, "fusion_lon": 0.0, "fusion_lat": 0.0, "lon": -77.02554233333333, "name": "9197623bfa35109e171e4f4c4ffb52c7"}, {"bike_id": "caf830ede87e44a454f8a4df5c10bbab", "type": "electric_scooter", "is_disabled": 0, "lat": 38.9203515, "rental_uris": {"ios": "https://dc.lft.to/lastmile_qr_scan", "android": "https://dc.lft.to/lastmile_qr_scan"}, "is_reserved": 0, "fusion_lon": 0.0, "fusion_lat": 0.0, "lon": -77.01308883333333, "name": "caf830ede87e44a454f8a4df5c10bbab"}, {"bike_id": "5ee26d1c4c5f3959bb86d2d36f44db0c", "type": "electric_scooter", "is_disabled": 0, "lat": 38.91634283333333, "rental_uris": {"ios": "https://dc.lft.to/lastmile_qr_scan", "android": "https://dc.lft.to/lastmile_qr_scan"}, "is_reserved": 0, "fusion_lon": 0.0, "fusion_lat": 0.0, "lon": -77.04007883333334, "name": "5ee26d1c4c5f3959bb86d2d36f44db0c"}, {"bike_id": "e0d79375117e6de325728384203b9ea0", "type": "electric_scooter", "is_disabled": 0, "lat": 38.91570166666666, "rental_uris": {"ios": "https://dc.lft.to/lastmile_qr_scan", "android": "https://dc.lft.to/lastmile_qr_scan"}, "is_reserved": 0, "fusion_lon": 0.0, "fusion_lat": 0.0, "lon": -77.024179, "name": "e0d79375117e6de325728384203b9ea0"}, {"bike_id": "802af76310cffa582e343149df6e99dc", "type": "electric_bike", "is_disabled": 0, "lat": 38.872981833333334, "rental_uris": {"ios": "https://dc.lft.to/lastmile_qr_scan", "android": "https://dc.lft.to/lastmile_qr_scan"}, "is_reserved": 0, "fusion_lon": 0.0, "fusion_lat": 0.0, "lon": -77.139257, "name": "802af76310cffa582e343149df6e99dc"}, {"bike_id": "4c836005be48e55ac91fee9c81ea767e", "type": "electric_scooter", "is_disabled": 0, "lat": 38.93174116666667, "rental_uris": {"ios": "https://dc.lft.to/lastmile_qr_scan", "android": "https://dc.lft.to/lastmile_qr_scan"}, "is_reserved": 0, "fusion_lon": 0.0, "fusion_lat": 0.0, "lon": -77.03174516666667, "name": "4c836005be48e55ac91fee9c81ea767e"}, {"bike_id": "3da2834bb89ec05bded86a52874601cb", "type": "electric_scooter", "is_disabled": 0, "lat": 38.90125033333333, "rental_uris": {"ios": "https://dc.lft.to/lastmile_qr_scan", "android": "https://dc.lft.to/lastmile_qr_scan"}, "is_reserved": 0, "fusion_lon": 0.0, "fusion_lat": 0.0, "lon": -77.05023333333334, "name": "3da2834bb89ec05bded86a52874601cb"}, {"bike_id": "4c785ee7f7f9dd448cf52109e1926c3a", "type": "electric_scooter", "is_disabled": 0, "lat": 38.92365066666667, "rental_uris": {"ios": "https://dc.lft.to/lastmile_qr_scan", "android": "https://dc.lft.to/lastmile_qr_scan"}, "is_reserved": 0, "fusion_lon": 0.0, "fusion_lat": 0.0, "lon": -77.05037766666666, "name": "4c785ee7f7f9dd448cf52109e1926c3a"}, {"bike_id": "ff6c3684f354e26d6296b2b1958b1795", "type": "electric_scooter", "is_disabled": 0, "lat": 38.877234333333334, "rental_uris": {"ios": "https://dc.lft.to/lastmile_qr_scan", "android": "https://dc.lft.to/lastmile_qr_scan"}, "is_reserved": 0, "fusion_lon": 0.0, "fusion_lat": 0.0, "lon": -77.00613783333333, "name": "ff6c3684f354e26d6296b2b1958b1795"}, {"bike_id": "9bbc95a3d1ed0487760a5a33621f5c3f", "type": "electric_scooter", "is_disabled": 0, "lat": 38.908871833333336, "rental_uris": {"ios": "https://dc.lft.to/lastmile_qr_scan", "android": "https://dc.lft.to/lastmile_qr_scan"}, "is_reserved": 0, "fusion_lon": 0.0, "fusion_lat": 0.0, "lon": -77.00263366666667, "name": "9bbc95a3d1ed0487760a5a33621f5c3f"}, {"bike_id": "4a30bc414ce8b6c294b6fabde08a504f", "type": "electric_scooter", "is_disabled": 0, "lat": 38.916641, "rental_uris": {"ios": "https://dc.lft.to/lastmile_qr_scan", "android": "https://dc.lft.to/lastmile_qr_scan"}, "is_reserved": 0, "fusion_lon": 0.0, "fusion_lat": 0.0, "lon": -77.03848983333333, "name": "4a30bc414ce8b6c294b6fabde08a504f"}, {"bike_id": "a448f71f64566ad9e8479a3af9fde62e", "type": "electric_scooter", "is_disabled": 0, "lat": 38.884314833333335, "rental_uris": {"ios": "https://dc.lft.to/lastmile_qr_scan", "android": "https://dc.lft.to/lastmile_qr_scan"}, "is_reserved": 0, "fusion_lon": 0.0, "fusion_lat": 0.0, "lon": -76.95756066666667, "name": "a448f71f64566ad9e8479a3af9fde62e"}, {"bike_id": "1656ff39e6be927a78a6f5be5934fcdf", "type": "electric_scooter", "is_disabled": 0, "lat": 38.90817833333333, "rental_uris": {"ios": "https://dc.lft.to/lastmile_qr_scan", "android": "https://dc.lft.to/lastmile_qr_scan"}, "is_reserved": 0, "fusion_lon": 0.0, "fusion_lat": 0.0, "lon": -77.033409, "name": "1656ff39e6be927a78a6f5be5934fcdf"}, {"bike_id": "9b05f3f5b5087444ab23d828643a983d", "type": "electric_scooter", "is_disabled": 0, "lat": 38.965587, "rental_uris": {"ios": "https://dc.lft.to/lastmile_qr_scan", "android": "https://dc.lft.to/lastmile_qr_scan"}, "is_reserved": 0, "fusion_lon": 0.0, "fusion_lat": 0.0, "lon": -77.0202835, "name": "9b05f3f5b5087444ab23d828643a983d"}, {"bike_id": "8b627f4c6e1ab3acdfeb1f76b6321aaa", "type": "electric_scooter", "is_disabled": 0, "lat": 38.88219516666667, "rental_uris": {"ios": "https://dc.lft.to/lastmile_qr_scan", "android": "https://dc.lft.to/lastmile_qr_scan"}, "is_reserved": 0, "fusion_lon": 0.0, "fusion_lat": 0.0, "lon": -77.02914233333334, "name": "8b627f4c6e1ab3acdfeb1f76b6321aaa"}, {"bike_id": "8aadc34d0f4f015f5c392201ef55c4c9", "type": "electric_scooter", "is_disabled": 0, "lat": 38.93036683333333, "rental_uris": {"ios": "https://dc.lft.to/lastmile_qr_scan", "android": "https://dc.lft.to/lastmile_qr_scan"}, "is_reserved": 0, "fusion_lon": 0.0, "fusion_lat": 0.0, "lon": -77.01831116666666, "name": "8aadc34d0f4f015f5c392201ef55c4c9"}, {"bike_id": "6820188f28ac0026e3ee5bc6ab45397a", "type": "electric_scooter", "is_disabled": 0, "lat": 38.9014735, "rental_uris": {"ios": "https://dc.lft.to/lastmile_qr_scan", "android": "https://dc.lft.to/lastmile_qr_scan"}, "is_reserved": 0, "fusion_lon": 0.0, "fusion_lat": 0.0, "lon": -77.02979683333334, "name": "6820188f28ac0026e3ee5bc6ab45397a"}, {"bike_id": "f7fca6526d2ede48ec53084d8d007807", "type": "electric_scooter", "is_disabled": 0, "lat": 38.901940833333335, "rental_uris": {"ios": "https://dc.lft.to/lastmile_qr_scan", "android": "https://dc.lft.to/lastmile_qr_scan"}, "is_reserved": 0, "fusion_lon": 0.0, "fusion_lat": 0.0, "lon": -76.99686216666667, "name": "f7fca6526d2ede48ec53084d8d007807"}, {"bike_id": "d65f5f4e99a11d1cbb4db8937d7e7985", "type": "electric_scooter", "is_disabled": 0, "lat": 38.89703133333333, "rental_uris": {"ios": "https://dc.lft.to/lastmile_qr_scan", "android": "https://dc.lft.to/lastmile_qr_scan"}, "is_reserved": 0, "fusion_lon": 0.0, "fusion_lat": 0.0, "lon": -76.92999666666667, "name": "d65f5f4e99a11d1cbb4db8937d7e7985"}, {"bike_id": "f3d8c951a9677dfbb7e8abdfc31f2661", "type": "electric_scooter", "is_disabled": 0, "lat": 38.90279316666667, "rental_uris": {"ios": "https://dc.lft.to/lastmile_qr_scan", "android": "https://dc.lft.to/lastmile_qr_scan"}, "is_reserved": 0, "fusion_lon": 0.0, "fusion_lat": 0.0, "lon": -77.022788, "name": "f3d8c951a9677dfbb7e8abdfc31f2661"}, {"bike_id": "211fbe6e57c2e155773c23259a9b8cc8", "type": "electric_bike", "is_disabled": 0, "lat": 38.86515033333333, "rental_uris": {"ios": "https://dc.lft.to/lastmile_qr_scan", "android": "https://dc.lft.to/lastmile_qr_scan"}, "is_reserved": 0, "fusion_lon": 0.0, "fusion_lat": 0.0, "lon": -77.12934566666667, "name": "211fbe6e57c2e155773c23259a9b8cc8"}, {"bike_id": "a0a829ec0f56d6bb19e8023d96183f9b", "type": "electric_scooter", "is_disabled": 0, "lat": 38.93182266666667, "rental_uris": {"ios": "https://dc.lft.to/lastmile_qr_scan", "android": "https://dc.lft.to/lastmile_qr_scan"}, "is_reserved": 0, "fusion_lon": 0.0, "fusion_lat": 0.0, "lon": -77.025417, "name": "a0a829ec0f56d6bb19e8023d96183f9b"}, {"bike_id": "246ec40e6ae7a28081a311143c136446", "type": "electric_scooter", "is_disabled": 0, "lat": 38.91949866666667, "rental_uris": {"ios": "https://dc.lft.to/lastmile_qr_scan", "android": "https://dc.lft.to/lastmile_qr_scan"}, "is_reserved": 0, "fusion_lon": 0.0, "fusion_lat": 0.0, "lon": -77.045201, "name": "246ec40e6ae7a28081a311143c136446"}, {"bike_id": "3920ec988879660104ecbdc3f83cd877", "type": "electric_scooter", "is_disabled": 0, "lat": 38.8911045, "rental_uris": {"ios": "https://dc.lft.to/lastmile_qr_scan", "android": "https://dc.lft.to/lastmile_qr_scan"}, "is_reserved": 0, "fusion_lon": 0.0, "fusion_lat": 0.0, "lon": -77.0150675, "name": "3920ec988879660104ecbdc3f83cd877"}, {"bike_id": "a7bbec5452aaea38f901d97e8810dd2a", "type": "electric_bike", "is_disabled": 0, "lat": 38.803939166666666, "rental_uris": {"ios": "https://dc.lft.to/lastmile_qr_scan", "android": "https://dc.lft.to/lastmile_qr_scan"}, "is_reserved": 0, "fusion_lon": 0.0, "fusion_lat": 0.0, "lon": -77.05564566666666, "name": "a7bbec5452aaea38f901d97e8810dd2a"}, {"bike_id": "6d6e91684dfde93c0fecaf25c0bd3d3e", "type": "electric_scooter", "is_disabled": 0, "lat": 38.9055865, "rental_uris": {"ios": "https://dc.lft.to/lastmile_qr_scan", "android": "https://dc.lft.to/lastmile_qr_scan"}, "is_reserved": 0, "fusion_lon": 0.0, "fusion_lat": 0.0, "lon": -77.01636566666667, "name": "6d6e91684dfde93c0fecaf25c0bd3d3e"}, {"bike_id": "21d3ec4a9d09aed545dce879a1e1d6ce", "type": "electric_scooter", "is_disabled": 0, "lat": 38.93360666666667, "rental_uris": {"ios": "https://dc.lft.to/lastmile_qr_scan", "android": "https://dc.lft.to/lastmile_qr_scan"}, "is_reserved": 0, "fusion_lon": 0.0, "fusion_lat": 0.0, "lon": -77.08855233333334, "name": "21d3ec4a9d09aed545dce879a1e1d6ce"}, {"bike_id": "aee55b82058173851cc42b4036744440", "type": "electric_scooter", "is_disabled": 0, "lat": 38.905441, "rental_uris": {"ios": "https://dc.lft.to/lastmile_qr_scan", "android": "https://dc.lft.to/lastmile_qr_scan"}, "is_reserved": 0, "fusion_lon": 0.0, "fusion_lat": 0.0, "lon": -77.04422516666666, "name": "aee55b82058173851cc42b4036744440"}, {"bike_id": "95152f15c02b2d5816cfc16fea819ff1", "type": "electric_scooter", "is_disabled": 0, "lat": 38.90913483333333, "rental_uris": {"ios": "https://dc.lft.to/lastmile_qr_scan", "android": "https://dc.lft.to/lastmile_qr_scan"}, "is_reserved": 0, "fusion_lon": 0.0, "fusion_lat": 0.0, "lon": -77.01893366666667, "name": "95152f15c02b2d5816cfc16fea819ff1"}, {"bike_id": "a02c27bdf1ab33e23eae2cdc6ad026b8", "type": "electric_scooter", "is_disabled": 0, "lat": 38.900050666666665, "rental_uris": {"ios": "https://dc.lft.to/lastmile_qr_scan", "android": "https://dc.lft.to/lastmile_qr_scan"}, "is_reserved": 0, "fusion_lon": 0.0, "fusion_lat": 0.0, "lon": -77.0067285, "name": "a02c27bdf1ab33e23eae2cdc6ad026b8"}, {"bike_id": "d6279c908bb6344b8cb8ad6333f024f0", "type": "electric_scooter", "is_disabled": 0, "lat": 38.97191766666667, "rental_uris": {"ios": "https://dc.lft.to/lastmile_qr_scan", "android": "https://dc.lft.to/lastmile_qr_scan"}, "is_reserved": 0, "fusion_lon": 0.0, "fusion_lat": 0.0, "lon": -77.02652166666667, "name": "d6279c908bb6344b8cb8ad6333f024f0"}, {"bike_id": "f4fc55a554acd3104880d311efc066ae", "type": "electric_scooter", "is_disabled": 0, "lat": 38.91748283333333, "rental_uris": {"ios": "https://dc.lft.to/lastmile_qr_scan", "android": "https://dc.lft.to/lastmile_qr_scan"}, "is_reserved": 0, "fusion_lon": 0.0, "fusion_lat": 0.0, "lon": -77.028109, "name": "f4fc55a554acd3104880d311efc066ae"}, {"bike_id": "b38274e2d6ac5338dee651c4848a2114", "type": "electric_scooter", "is_disabled": 0, "lat": 38.866262166666665, "rental_uris": {"ios": "https://dc.lft.to/lastmile_qr_scan", "android": "https://dc.lft.to/lastmile_qr_scan"}, "is_reserved": 0, "fusion_lon": 0.0, "fusion_lat": 0.0, "lon": -76.9871795, "name": "b38274e2d6ac5338dee651c4848a2114"}, {"bike_id": "5f4fa68624a2c8002bc4f7894a49b939", "type": "electric_scooter", "is_disabled": 0, "lat": 38.89766983333333, "rental_uris": {"ios": "https://dc.lft.to/lastmile_qr_scan", "android": "https://dc.lft.to/lastmile_qr_scan"}, "is_reserved": 0, "fusion_lon": 0.0, "fusion_lat": 0.0, "lon": -77.0268865, "name": "5f4fa68624a2c8002bc4f7894a49b939"}, {"bike_id": "5f4cc2ffaaba8d97a43b72b00c941de2", "type": "electric_scooter", "is_disabled": 0, "lat": 38.886391333333336, "rental_uris": {"ios": "https://dc.lft.to/lastmile_qr_scan", "android": "https://dc.lft.to/lastmile_qr_scan"}, "is_reserved": 0, "fusion_lon": 0.0, "fusion_lat": 0.0, "lon": -77.02138516666666, "name": "5f4cc2ffaaba8d97a43b72b00c941de2"}, {"bike_id": "2725e4ba282beca7dd831e5dc58f53fa", "type": "electric_scooter", "is_disabled": 0, "lat": 38.902775166666665, "rental_uris": {"ios": "https://dc.lft.to/lastmile_qr_scan", "android": "https://dc.lft.to/lastmile_qr_scan"}, "is_reserved": 0, "fusion_lon": 0.0, "fusion_lat": 0.0, "lon": -77.00349566666667, "name": "2725e4ba282beca7dd831e5dc58f53fa"}, {"bike_id": "c0d54f24a457b5f72395f2dbe6e3ec74", "type": "electric_bike", "is_disabled": 0, "lat": 38.896097, "rental_uris": {"ios": "https://dc.lft.to/lastmile_qr_scan", "android": "https://dc.lft.to/lastmile_qr_scan"}, "is_reserved": 0, "fusion_lon": 0.0, "fusion_lat": 0.0, "lon": -76.9073505, "name": "c0d54f24a457b5f72395f2dbe6e3ec74"}, {"bike_id": "e81bc6a7cb194be802cc814d3f127155", "type": "electric_scooter", "is_disabled": 0, "lat": 38.906947833333334, "rental_uris": {"ios": "https://dc.lft.to/lastmile_qr_scan", "android": "https://dc.lft.to/lastmile_qr_scan"}, "is_reserved": 0, "fusion_lon": 0.0, "fusion_lat": 0.0, "lon": -77.01542866666666, "name": "e81bc6a7cb194be802cc814d3f127155"}, {"bike_id": "fb52a7bbc750551045460b4df592e5c1", "type": "electric_scooter", "is_disabled": 0, "lat": 38.90940466666667, "rental_uris": {"ios": "https://dc.lft.to/lastmile_qr_scan", "android": "https://dc.lft.to/lastmile_qr_scan"}, "is_reserved": 0, "fusion_lon": 0.0, "fusion_lat": 0.0, "lon": -77.04498283333334, "name": "fb52a7bbc750551045460b4df592e5c1"}, {"bike_id": "05b6c07708d9b6f6219a3e9ebcc74df3", "type": "electric_scooter", "is_disabled": 0, "lat": 38.90412966666667, "rental_uris": {"ios": "https://dc.lft.to/lastmile_qr_scan", "android": "https://dc.lft.to/lastmile_qr_scan"}, "is_reserved": 0, "fusion_lon": 0.0, "fusion_lat": 0.0, "lon": -76.97331183333333, "name": "05b6c07708d9b6f6219a3e9ebcc74df3"}, {"bike_id": "2794973d101810f143340f9a36e06676", "type": "electric_scooter", "is_disabled": 0, "lat": 38.94736566666667, "rental_uris": {"ios": "https://dc.lft.to/lastmile_qr_scan", "android": "https://dc.lft.to/lastmile_qr_scan"}, "is_reserved": 0, "fusion_lon": 0.0, "fusion_lat": 0.0, "lon": -77.0786305, "name": "2794973d101810f143340f9a36e06676"}, {"bike_id": "d79eb25d2b50242adea7d342551147a6", "type": "electric_scooter", "is_disabled": 0, "lat": 38.912451833333336, "rental_uris": {"ios": "https://dc.lft.to/lastmile_qr_scan", "android": "https://dc.lft.to/lastmile_qr_scan"}, "is_reserved": 0, "fusion_lon": 0.0, "fusion_lat": 0.0, "lon": -77.01973016666666, "name": "d79eb25d2b50242adea7d342551147a6"}, {"bike_id": "36ec6ae9966eeb97027608a195256a3a", "type": "electric_scooter", "is_disabled": 0, "lat": 38.92901766666667, "rental_uris": {"ios": "https://dc.lft.to/lastmile_qr_scan", "android": "https://dc.lft.to/lastmile_qr_scan"}, "is_reserved": 0, "fusion_lon": 0.0, "fusion_lat": 0.0, "lon": -77.03277783333333, "name": "36ec6ae9966eeb97027608a195256a3a"}, {"bike_id": "659239dde657cdc3c804e3484961465d", "type": "electric_bike", "is_disabled": 0, "lat": 38.872954, "rental_uris": {"ios": "https://dc.lft.to/lastmile_qr_scan", "android": "https://dc.lft.to/lastmile_qr_scan"}, "is_reserved": 0, "fusion_lon": 0.0, "fusion_lat": 0.0, "lon": -76.96976816666667, "name": "659239dde657cdc3c804e3484961465d"}, {"bike_id": "b210a352f0a721493e7c2a47d9925d0e", "type": "electric_scooter", "is_disabled": 0, "lat": 38.91989916666667, "rental_uris": {"ios": "https://dc.lft.to/lastmile_qr_scan", "android": "https://dc.lft.to/lastmile_qr_scan"}, "is_reserved": 0, "fusion_lon": 0.0, "fusion_lat": 0.0, "lon": -76.9730955, "name": "b210a352f0a721493e7c2a47d9925d0e"}, {"bike_id": "76377df12040c54ac2f78c68b63170da", "type": "electric_bike", "is_disabled": 0, "lat": 38.9967175, "rental_uris": {"ios": "https://dc.lft.to/lastmile_qr_scan", "android": "https://dc.lft.to/lastmile_qr_scan"}, "is_reserved": 0, "fusion_lon": 0.0, "fusion_lat": 0.0, "lon": -77.0378915, "name": "76377df12040c54ac2f78c68b63170da"}, {"bike_id": "befe224f7eb3865bafc08afa0665c687", "type": "electric_scooter", "is_disabled": 0, "lat": 38.907584166666666, "rental_uris": {"ios": "https://dc.lft.to/lastmile_qr_scan", "android": "https://dc.lft.to/lastmile_qr_scan"}, "is_reserved": 0, "fusion_lon": 0.0, "fusion_lat": 0.0, "lon": -77.02795866666666, "name": "befe224f7eb3865bafc08afa0665c687"}, {"bike_id": "3e28f7412e191be2a190856d73b57ad9", "type": "electric_scooter", "is_disabled": 0, "lat": 38.90532483333333, "rental_uris": {"ios": "https://dc.lft.to/lastmile_qr_scan", "android": "https://dc.lft.to/lastmile_qr_scan"}, "is_reserved": 0, "fusion_lon": 0.0, "fusion_lat": 0.0, "lon": -77.05904933333333, "name": "3e28f7412e191be2a190856d73b57ad9"}, {"bike_id": "6c89c34dc6ffd1f8442422671b0aa595", "type": "electric_scooter", "is_disabled": 0, "lat": 38.90952133333333, "rental_uris": {"ios": "https://dc.lft.to/lastmile_qr_scan", "android": "https://dc.lft.to/lastmile_qr_scan"}, "is_reserved": 0, "fusion_lon": 0.0, "fusion_lat": 0.0, "lon": -77.02605183333333, "name": "6c89c34dc6ffd1f8442422671b0aa595"}, {"bike_id": "44b7e93c25e4fbb102e0c4ce206f7dcc", "type": "electric_scooter", "is_disabled": 0, "lat": 38.9077145, "rental_uris": {"ios": "https://dc.lft.to/lastmile_qr_scan", "android": "https://dc.lft.to/lastmile_qr_scan"}, "is_reserved": 0, "fusion_lon": 0.0, "fusion_lat": 0.0, "lon": -77.07168, "name": "44b7e93c25e4fbb102e0c4ce206f7dcc"}, {"bike_id": "1c27a73f6fbdc0470cdb9d6a753741d6", "type": "electric_scooter", "is_disabled": 0, "lat": 38.90816316666667, "rental_uris": {"ios": "https://dc.lft.to/lastmile_qr_scan", "android": "https://dc.lft.to/lastmile_qr_scan"}, "is_reserved": 0, "fusion_lon": 0.0, "fusion_lat": 0.0, "lon": -77.02963816666667, "name": "1c27a73f6fbdc0470cdb9d6a753741d6"}, {"bike_id": "3c964981b295472cfebe4d8f1f503c33", "type": "electric_scooter", "is_disabled": 0, "lat": 38.912721, "rental_uris": {"ios": "https://dc.lft.to/lastmile_qr_scan", "android": "https://dc.lft.to/lastmile_qr_scan"}, "is_reserved": 0, "fusion_lon": 0.0, "fusion_lat": 0.0, "lon": -77.01883866666667, "name": "3c964981b295472cfebe4d8f1f503c33"}, {"bike_id": "8589a16e09bc4f677d0339985ce7735a", "type": "electric_scooter", "is_disabled": 0, "lat": 38.89884583333333, "rental_uris": {"ios": "https://dc.lft.to/lastmile_qr_scan", "android": "https://dc.lft.to/lastmile_qr_scan"}, "is_reserved": 0, "fusion_lon": 0.0, "fusion_lat": 0.0, "lon": -76.93178983333334, "name": "8589a16e09bc4f677d0339985ce7735a"}, {"bike_id": "f9387d587c0f5c211aaf9b46f7df9da7", "type": "electric_bike", "is_disabled": 0, "lat": 38.86620716666667, "rental_uris": {"ios": "https://dc.lft.to/lastmile_qr_scan", "android": "https://dc.lft.to/lastmile_qr_scan"}, "is_reserved": 0, "fusion_lon": 0.0, "fusion_lat": 0.0, "lon": -76.94568083333333, "name": "f9387d587c0f5c211aaf9b46f7df9da7"}, {"bike_id": "fc6d282f038fcc87d386f22956ced0e3", "type": "electric_scooter", "is_disabled": 0, "lat": 38.9275425, "rental_uris": {"ios": "https://dc.lft.to/lastmile_qr_scan", "android": "https://dc.lft.to/lastmile_qr_scan"}, "is_reserved": 0, "fusion_lon": 0.0, "fusion_lat": 0.0, "lon": -77.0284605, "name": "fc6d282f038fcc87d386f22956ced0e3"}, {"bike_id": "93881b6e11efea454670aa98587169e6", "type": "electric_scooter", "is_disabled": 0, "lat": 38.89792833333333, "rental_uris": {"ios": "https://dc.lft.to/lastmile_qr_scan", "android": "https://dc.lft.to/lastmile_qr_scan"}, "is_reserved": 0, "fusion_lon": 0.0, "fusion_lat": 0.0, "lon": -77.02201566666666, "name": "93881b6e11efea454670aa98587169e6"}, {"bike_id": "638e167ddf1c80cb83b4d0ff91dbb21f", "type": "electric_scooter", "is_disabled": 0, "lat": 38.89851766666666, "rental_uris": {"ios": "https://dc.lft.to/lastmile_qr_scan", "android": "https://dc.lft.to/lastmile_qr_scan"}, "is_reserved": 0, "fusion_lon": 0.0, "fusion_lat": 0.0, "lon": -76.99033583333333, "name": "638e167ddf1c80cb83b4d0ff91dbb21f"}, {"bike_id": "2cdaa9f29e5a83e7bc2acbb05a35e8d8", "type": "electric_scooter", "is_disabled": 0, "lat": 38.929151, "rental_uris": {"ios": "https://dc.lft.to/lastmile_qr_scan", "android": "https://dc.lft.to/lastmile_qr_scan"}, "is_reserved": 0, "fusion_lon": 0.0, "fusion_lat": 0.0, "lon": -77.020911, "name": "2cdaa9f29e5a83e7bc2acbb05a35e8d8"}, {"bike_id": "0b5fa32ceb04fa4fc17e7e1667634cbc", "type": "electric_scooter", "is_disabled": 0, "lat": 38.920480166666664, "rental_uris": {"ios": "https://dc.lft.to/lastmile_qr_scan", "android": "https://dc.lft.to/lastmile_qr_scan"}, "is_reserved": 0, "fusion_lon": 0.0, "fusion_lat": 0.0, "lon": -77.02426616666666, "name": "0b5fa32ceb04fa4fc17e7e1667634cbc"}, {"bike_id": "dd3d87492be76db15bf6a33244f293e1", "type": "electric_scooter", "is_disabled": 0, "lat": 38.90509616666667, "rental_uris": {"ios": "https://dc.lft.to/lastmile_qr_scan", "android": "https://dc.lft.to/lastmile_qr_scan"}, "is_reserved": 0, "fusion_lon": 0.0, "fusion_lat": 0.0, "lon": -77.0638755, "name": "dd3d87492be76db15bf6a33244f293e1"}, {"bike_id": "f3edf4747c5b54afb9871ae09a7f1754", "type": "electric_scooter", "is_disabled": 0, "lat": 38.92774083333333, "rental_uris": {"ios": "https://dc.lft.to/lastmile_qr_scan", "android": "https://dc.lft.to/lastmile_qr_scan"}, "is_reserved": 0, "fusion_lon": 0.0, "fusion_lat": 0.0, "lon": -77.02915566666667, "name": "f3edf4747c5b54afb9871ae09a7f1754"}, {"bike_id": "7b138e188c6d21f6d5957fae740435f5", "type": "electric_scooter", "is_disabled": 0, "lat": 38.908412166666665, "rental_uris": {"ios": "https://dc.lft.to/lastmile_qr_scan", "android": "https://dc.lft.to/lastmile_qr_scan"}, "is_reserved": 0, "fusion_lon": 0.0, "fusion_lat": 0.0, "lon": -77.03346266666667, "name": "7b138e188c6d21f6d5957fae740435f5"}, {"bike_id": "8908ed93751c1911f3f37a87ed04eaf7", "type": "electric_scooter", "is_disabled": 0, "lat": 38.916666166666666, "rental_uris": {"ios": "https://dc.lft.to/lastmile_qr_scan", "android": "https://dc.lft.to/lastmile_qr_scan"}, "is_reserved": 0, "fusion_lon": 0.0, "fusion_lat": 0.0, "lon": -77.04683016666667, "name": "8908ed93751c1911f3f37a87ed04eaf7"}, {"bike_id": "83b8870dc7eaae3a2b5bc0a0687829f7", "type": "electric_scooter", "is_disabled": 0, "lat": 38.89504933333333, "rental_uris": {"ios": "https://dc.lft.to/lastmile_qr_scan", "android": "https://dc.lft.to/lastmile_qr_scan"}, "is_reserved": 0, "fusion_lon": 0.0, "fusion_lat": 0.0, "lon": -76.93477616666667, "name": "83b8870dc7eaae3a2b5bc0a0687829f7"}, {"bike_id": "d005478209240fcfe0b0148b7153b8a3", "type": "electric_bike", "is_disabled": 0, "lat": 38.84837516666666, "rental_uris": {"ios": "https://dc.lft.to/lastmile_qr_scan", "android": "https://dc.lft.to/lastmile_qr_scan"}, "is_reserved": 0, "fusion_lon": 0.0, "fusion_lat": 0.0, "lon": -77.0791645, "name": "d005478209240fcfe0b0148b7153b8a3"}, {"bike_id": "c70a4abc5f620086fa939c3893214472", "type": "electric_bike", "is_disabled": 0, "lat": 38.9425845, "rental_uris": {"ios": "https://dc.lft.to/lastmile_qr_scan", "android": "https://dc.lft.to/lastmile_qr_scan"}, "is_reserved": 0, "fusion_lon": 0.0, "fusion_lat": 0.0, "lon": -76.990739, "name": "c70a4abc5f620086fa939c3893214472"}, {"bike_id": "70284689722764e0a6fbac3f42e23dd1", "type": "electric_scooter", "is_disabled": 0, "lat": 38.951057666666664, "rental_uris": {"ios": "https://dc.lft.to/lastmile_qr_scan", "android": "https://dc.lft.to/lastmile_qr_scan"}, "is_reserved": 0, "fusion_lon": 0.0, "fusion_lat": 0.0, "lon": -77.0142535, "name": "70284689722764e0a6fbac3f42e23dd1"}, {"bike_id": "affa9ed122f1e266f86eaa6cdcb9cde8", "type": "electric_scooter", "is_disabled": 0, "lat": 38.92862216666666, "rental_uris": {"ios": "https://dc.lft.to/lastmile_qr_scan", "android": "https://dc.lft.to/lastmile_qr_scan"}, "is_reserved": 0, "fusion_lon": 0.0, "fusion_lat": 0.0, "lon": -77.0371405, "name": "affa9ed122f1e266f86eaa6cdcb9cde8"}, {"bike_id": "1b8c3a3b752e565862d4802e0a8e1407", "type": "electric_scooter", "is_disabled": 0, "lat": 38.94930466666667, "rental_uris": {"ios": "https://dc.lft.to/lastmile_qr_scan", "android": "https://dc.lft.to/lastmile_qr_scan"}, "is_reserved": 0, "fusion_lon": 0.0, "fusion_lat": 0.0, "lon": -77.06538183333333, "name": "1b8c3a3b752e565862d4802e0a8e1407"}, {"bike_id": "7c7771467578913194d36042a12debbc", "type": "electric_scooter", "is_disabled": 0, "lat": 38.925463666666666, "rental_uris": {"ios": "https://dc.lft.to/lastmile_qr_scan", "android": "https://dc.lft.to/lastmile_qr_scan"}, "is_reserved": 0, "fusion_lon": 0.0, "fusion_lat": 0.0, "lon": -77.0335775, "name": "7c7771467578913194d36042a12debbc"}, {"bike_id": "007d69a19ec4e83d8421a8751332b277", "type": "electric_scooter", "is_disabled": 0, "lat": 38.8669365, "rental_uris": {"ios": "https://dc.lft.to/lastmile_qr_scan", "android": "https://dc.lft.to/lastmile_qr_scan"}, "is_reserved": 0, "fusion_lon": 0.0, "fusion_lat": 0.0, "lon": -76.98561783333334, "name": "007d69a19ec4e83d8421a8751332b277"}, {"bike_id": "e2f302c8fccbe7161cd35b81dbe36ff3", "type": "electric_scooter", "is_disabled": 0, "lat": 38.933428166666666, "rental_uris": {"ios": "https://dc.lft.to/lastmile_qr_scan", "android": "https://dc.lft.to/lastmile_qr_scan"}, "is_reserved": 0, "fusion_lon": 0.0, "fusion_lat": 0.0, "lon": -77.02054183333334, "name": "e2f302c8fccbe7161cd35b81dbe36ff3"}, {"bike_id": "014e25dcf8be1c512c4789d38a24de42", "type": "electric_scooter", "is_disabled": 0, "lat": 38.931286166666666, "rental_uris": {"ios": "https://dc.lft.to/lastmile_qr_scan", "android": "https://dc.lft.to/lastmile_qr_scan"}, "is_reserved": 0, "fusion_lon": 0.0, "fusion_lat": 0.0, "lon": -76.99576116666667, "name": "014e25dcf8be1c512c4789d38a24de42"}, {"bike_id": "b1dd6bde9f8b88a25e869986c880b730", "type": "electric_scooter", "is_disabled": 0, "lat": 38.866938166666664, "rental_uris": {"ios": "https://dc.lft.to/lastmile_qr_scan", "android": "https://dc.lft.to/lastmile_qr_scan"}, "is_reserved": 0, "fusion_lon": 0.0, "fusion_lat": 0.0, "lon": -76.98716533333334, "name": "b1dd6bde9f8b88a25e869986c880b730"}, {"bike_id": "ac266bd3070c1dbf55334477833137e5", "type": "electric_scooter", "is_disabled": 0, "lat": 38.88131883333333, "rental_uris": {"ios": "https://dc.lft.to/lastmile_qr_scan", "android": "https://dc.lft.to/lastmile_qr_scan"}, "is_reserved": 0, "fusion_lon": 0.0, "fusion_lat": 0.0, "lon": -76.98351916666667, "name": "ac266bd3070c1dbf55334477833137e5"}, {"bike_id": "018b635850a86f37eb25306a67ca348b", "type": "electric_scooter", "is_disabled": 0, "lat": 38.94749983333333, "rental_uris": {"ios": "https://dc.lft.to/lastmile_qr_scan", "android": "https://dc.lft.to/lastmile_qr_scan"}, "is_reserved": 0, "fusion_lon": 0.0, "fusion_lat": 0.0, "lon": -77.07586033333334, "name": "018b635850a86f37eb25306a67ca348b"}, {"bike_id": "100d8a9b7782beae0dadba84d1963c23", "type": "electric_scooter", "is_disabled": 0, "lat": 38.91269, "rental_uris": {"ios": "https://dc.lft.to/lastmile_qr_scan", "android": "https://dc.lft.to/lastmile_qr_scan"}, "is_reserved": 0, "fusion_lon": 0.0, "fusion_lat": 0.0, "lon": -77.01763733333334, "name": "100d8a9b7782beae0dadba84d1963c23"}, {"bike_id": "889baaadc51f8046f2c09dafb3e8a68c", "type": "electric_scooter", "is_disabled": 0, "lat": 38.9170275, "rental_uris": {"ios": "https://dc.lft.to/lastmile_qr_scan", "android": "https://dc.lft.to/lastmile_qr_scan"}, "is_reserved": 0, "fusion_lon": 0.0, "fusion_lat": 0.0, "lon": -77.00655133333333, "name": "889baaadc51f8046f2c09dafb3e8a68c"}, {"bike_id": "777c4101173fc54ebd50eebe0f382522", "type": "electric_scooter", "is_disabled": 0, "lat": 38.918225666666665, "rental_uris": {"ios": "https://dc.lft.to/lastmile_qr_scan", "android": "https://dc.lft.to/lastmile_qr_scan"}, "is_reserved": 0, "fusion_lon": 0.0, "fusion_lat": 0.0, "lon": -77.04942566666666, "name": "777c4101173fc54ebd50eebe0f382522"}, {"bike_id": "ea8f92164b0b892da3900490c12a8e08", "type": "electric_scooter", "is_disabled": 0, "lat": 38.934754, "rental_uris": {"ios": "https://dc.lft.to/lastmile_qr_scan", "android": "https://dc.lft.to/lastmile_qr_scan"}, "is_reserved": 0, "fusion_lon": 0.0, "fusion_lat": 0.0, "lon": -77.03581083333333, "name": "ea8f92164b0b892da3900490c12a8e08"}, {"bike_id": "1ae09023f612bb73d4102fa2779f9805", "type": "electric_bike", "is_disabled": 0, "lat": 39.05277983333333, "rental_uris": {"ios": "https://dc.lft.to/lastmile_qr_scan", "android": "https://dc.lft.to/lastmile_qr_scan"}, "is_reserved": 0, "fusion_lon": 0.0, "fusion_lat": 0.0, "lon": -77.08070733333334, "name": "1ae09023f612bb73d4102fa2779f9805"}, {"bike_id": "adcdd1cfe3cd5815cc3fb3b2b593a39b", "type": "electric_scooter", "is_disabled": 0, "lat": 38.909731666666666, "rental_uris": {"ios": "https://dc.lft.to/lastmile_qr_scan", "android": "https://dc.lft.to/lastmile_qr_scan"}, "is_reserved": 0, "fusion_lon": 0.0, "fusion_lat": 0.0, "lon": -77.04644316666666, "name": "adcdd1cfe3cd5815cc3fb3b2b593a39b"}, {"bike_id": "c345812013f9f781ec478c53359e282c", "type": "electric_scooter", "is_disabled": 0, "lat": 38.944377833333334, "rental_uris": {"ios": "https://dc.lft.to/lastmile_qr_scan", "android": "https://dc.lft.to/lastmile_qr_scan"}, "is_reserved": 0, "fusion_lon": 0.0, "fusion_lat": 0.0, "lon": -77.01449016666666, "name": "c345812013f9f781ec478c53359e282c"}, {"bike_id": "8feb34552c5f401f6e768cddb60352d8", "type": "electric_scooter", "is_disabled": 0, "lat": 38.93098283333333, "rental_uris": {"ios": "https://dc.lft.to/lastmile_qr_scan", "android": "https://dc.lft.to/lastmile_qr_scan"}, "is_reserved": 0, "fusion_lon": 0.0, "fusion_lat": 0.0, "lon": -77.02481766666666, "name": "8feb34552c5f401f6e768cddb60352d8"}, {"bike_id": "6ba0941783dd090e69a91b9bc49442f1", "type": "electric_scooter", "is_disabled": 0, "lat": 38.901708166666666, "rental_uris": {"ios": "https://dc.lft.to/lastmile_qr_scan", "android": "https://dc.lft.to/lastmile_qr_scan"}, "is_reserved": 0, "fusion_lon": 0.0, "fusion_lat": 0.0, "lon": -76.98062183333333, "name": "6ba0941783dd090e69a91b9bc49442f1"}, {"bike_id": "2cd83784ba4ab9939d1c4474573c415d", "type": "electric_bike", "is_disabled": 0, "lat": 38.815105, "rental_uris": {"ios": "https://dc.lft.to/lastmile_qr_scan", "android": "https://dc.lft.to/lastmile_qr_scan"}, "is_reserved": 0, "fusion_lon": 0.0, "fusion_lat": 0.0, "lon": -77.1265115, "name": "2cd83784ba4ab9939d1c4474573c415d"}, {"bike_id": "9cebe988953fc873946286aa5af1a729", "type": "electric_scooter", "is_disabled": 0, "lat": 38.92443933333333, "rental_uris": {"ios": "https://dc.lft.to/lastmile_qr_scan", "android": "https://dc.lft.to/lastmile_qr_scan"}, "is_reserved": 0, "fusion_lon": 0.0, "fusion_lat": 0.0, "lon": -77.03339, "name": "9cebe988953fc873946286aa5af1a729"}, {"bike_id": "5b2bd0cd86bcdfaa72a64400fb6838d0", "type": "electric_scooter", "is_disabled": 0, "lat": 38.92232516666667, "rental_uris": {"ios": "https://dc.lft.to/lastmile_qr_scan", "android": "https://dc.lft.to/lastmile_qr_scan"}, "is_reserved": 0, "fusion_lon": 0.0, "fusion_lat": 0.0, "lon": -76.97344366666667, "name": "5b2bd0cd86bcdfaa72a64400fb6838d0"}, {"bike_id": "b4ffd630dc089e27c98c728c0a64913c", "type": "electric_bike", "is_disabled": 0, "lat": 38.7960375, "rental_uris": {"ios": "https://dc.lft.to/lastmile_qr_scan", "android": "https://dc.lft.to/lastmile_qr_scan"}, "is_reserved": 0, "fusion_lon": 0.0, "fusion_lat": 0.0, "lon": -76.99743083333334, "name": "b4ffd630dc089e27c98c728c0a64913c"}, {"bike_id": "6b16ac57b6ed79f65751fba1617485ab", "type": "electric_scooter", "is_disabled": 0, "lat": 38.923318333333334, "rental_uris": {"ios": "https://dc.lft.to/lastmile_qr_scan", "android": "https://dc.lft.to/lastmile_qr_scan"}, "is_reserved": 0, "fusion_lon": 0.0, "fusion_lat": 0.0, "lon": -77.0541825, "name": "6b16ac57b6ed79f65751fba1617485ab"}, {"bike_id": "edcde586089b4f53e84576a59a87c451", "type": "electric_scooter", "is_disabled": 0, "lat": 38.90476916666667, "rental_uris": {"ios": "https://dc.lft.to/lastmile_qr_scan", "android": "https://dc.lft.to/lastmile_qr_scan"}, "is_reserved": 0, "fusion_lon": 0.0, "fusion_lat": 0.0, "lon": -77.0610455, "name": "edcde586089b4f53e84576a59a87c451"}, {"bike_id": "92d6b3166abfbda267deb03e859d5c16", "type": "electric_scooter", "is_disabled": 0, "lat": 38.89884433333334, "rental_uris": {"ios": "https://dc.lft.to/lastmile_qr_scan", "android": "https://dc.lft.to/lastmile_qr_scan"}, "is_reserved": 0, "fusion_lon": 0.0, "fusion_lat": 0.0, "lon": -76.93178116666667, "name": "92d6b3166abfbda267deb03e859d5c16"}, {"bike_id": "8e6c1517698283098a971d0203abe472", "type": "electric_scooter", "is_disabled": 0, "lat": 38.8974765, "rental_uris": {"ios": "https://dc.lft.to/lastmile_qr_scan", "android": "https://dc.lft.to/lastmile_qr_scan"}, "is_reserved": 0, "fusion_lon": 0.0, "fusion_lat": 0.0, "lon": -76.99381833333334, "name": "8e6c1517698283098a971d0203abe472"}, {"bike_id": "3ea06eec4cd097ef1f73e0e8d0d55f9b", "type": "electric_scooter", "is_disabled": 0, "lat": 38.898428333333335, "rental_uris": {"ios": "https://dc.lft.to/lastmile_qr_scan", "android": "https://dc.lft.to/lastmile_qr_scan"}, "is_reserved": 0, "fusion_lon": 0.0, "fusion_lat": 0.0, "lon": -76.94632733333333, "name": "3ea06eec4cd097ef1f73e0e8d0d55f9b"}, {"bike_id": "8a75c926086a806363ca7d7e4f622c0a", "type": "electric_scooter", "is_disabled": 0, "lat": 38.898754833333335, "rental_uris": {"ios": "https://dc.lft.to/lastmile_qr_scan", "android": "https://dc.lft.to/lastmile_qr_scan"}, "is_reserved": 0, "fusion_lon": 0.0, "fusion_lat": 0.0, "lon": -76.93184133333334, "name": "8a75c926086a806363ca7d7e4f622c0a"}, {"bike_id": "bc97927f168798d28c05c08098994479", "type": "electric_scooter", "is_disabled": 0, "lat": 38.924730833333335, "rental_uris": {"ios": "https://dc.lft.to/lastmile_qr_scan", "android": "https://dc.lft.to/lastmile_qr_scan"}, "is_reserved": 0, "fusion_lon": 0.0, "fusion_lat": 0.0, "lon": -77.02833, "name": "bc97927f168798d28c05c08098994479"}, {"bike_id": "042fd35abdefea47259633bd00da7e12", "type": "electric_scooter", "is_disabled": 0, "lat": 38.918075333333334, "rental_uris": {"ios": "https://dc.lft.to/lastmile_qr_scan", "android": "https://dc.lft.to/lastmile_qr_scan"}, "is_reserved": 0, "fusion_lon": 0.0, "fusion_lat": 0.0, "lon": -77.03629, "name": "042fd35abdefea47259633bd00da7e12"}, {"bike_id": "0ef1eef06813fb03d93da6652a2ff6e8", "type": "electric_scooter", "is_disabled": 0, "lat": 38.926022333333336, "rental_uris": {"ios": "https://dc.lft.to/lastmile_qr_scan", "android": "https://dc.lft.to/lastmile_qr_scan"}, "is_reserved": 0, "fusion_lon": 0.0, "fusion_lat": 0.0, "lon": -77.02449083333333, "name": "0ef1eef06813fb03d93da6652a2ff6e8"}, {"bike_id": "3d7695b9cfd21ff1e41afd7d3eb42239", "type": "electric_scooter", "is_disabled": 0, "lat": 38.92370566666666, "rental_uris": {"ios": "https://dc.lft.to/lastmile_qr_scan", "android": "https://dc.lft.to/lastmile_qr_scan"}, "is_reserved": 0, "fusion_lon": 0.0, "fusion_lat": 0.0, "lon": -77.02986483333333, "name": "3d7695b9cfd21ff1e41afd7d3eb42239"}, {"bike_id": "a8491473f8a1da0449f7a94b44a7ca47", "type": "electric_scooter", "is_disabled": 0, "lat": 38.91124533333333, "rental_uris": {"ios": "https://dc.lft.to/lastmile_qr_scan", "android": "https://dc.lft.to/lastmile_qr_scan"}, "is_reserved": 0, "fusion_lon": 0.0, "fusion_lat": 0.0, "lon": -77.037328, "name": "a8491473f8a1da0449f7a94b44a7ca47"}, {"bike_id": "0f5072560b426adaf0c1a5ea639d8e61", "type": "electric_scooter", "is_disabled": 0, "lat": 38.88210216666667, "rental_uris": {"ios": "https://dc.lft.to/lastmile_qr_scan", "android": "https://dc.lft.to/lastmile_qr_scan"}, "is_reserved": 0, "fusion_lon": 0.0, "fusion_lat": 0.0, "lon": -76.98917133333333, "name": "0f5072560b426adaf0c1a5ea639d8e61"}, {"bike_id": "626e7d84634f8bb2b6f733d439303ea3", "type": "electric_bike", "is_disabled": 0, "lat": 38.9336135, "rental_uris": {"ios": "https://dc.lft.to/lastmile_qr_scan", "android": "https://dc.lft.to/lastmile_qr_scan"}, "is_reserved": 0, "fusion_lon": 0.0, "fusion_lat": 0.0, "lon": -77.02420966666666, "name": "626e7d84634f8bb2b6f733d439303ea3"}, {"bike_id": "970aa1bebc63529d2308c0f8a6b347bb", "type": "electric_scooter", "is_disabled": 0, "lat": 38.900782666666665, "rental_uris": {"ios": "https://dc.lft.to/lastmile_qr_scan", "android": "https://dc.lft.to/lastmile_qr_scan"}, "is_reserved": 0, "fusion_lon": 0.0, "fusion_lat": 0.0, "lon": -77.0482745, "name": "970aa1bebc63529d2308c0f8a6b347bb"}, {"bike_id": "435306e186ae17bd2b501500503a2e76", "type": "electric_bike", "is_disabled": 0, "lat": 38.93968116666667, "rental_uris": {"ios": "https://dc.lft.to/lastmile_qr_scan", "android": "https://dc.lft.to/lastmile_qr_scan"}, "is_reserved": 0, "fusion_lon": 0.0, "fusion_lat": 0.0, "lon": -77.05268133333334, "name": "435306e186ae17bd2b501500503a2e76"}, {"bike_id": "649d2be8fde320bed479f7e5e41d8cc9", "type": "electric_scooter", "is_disabled": 0, "lat": 38.929388333333335, "rental_uris": {"ios": "https://dc.lft.to/lastmile_qr_scan", "android": "https://dc.lft.to/lastmile_qr_scan"}, "is_reserved": 0, "fusion_lon": 0.0, "fusion_lat": 0.0, "lon": -77.02316916666666, "name": "649d2be8fde320bed479f7e5e41d8cc9"}, {"bike_id": "d8de2188ae541ab0635379525ecd11c5", "type": "electric_scooter", "is_disabled": 0, "lat": 38.9283265, "rental_uris": {"ios": "https://dc.lft.to/lastmile_qr_scan", "android": "https://dc.lft.to/lastmile_qr_scan"}, "is_reserved": 0, "fusion_lon": 0.0, "fusion_lat": 0.0, "lon": -77.02977883333334, "name": "d8de2188ae541ab0635379525ecd11c5"}, {"bike_id": "d937d14cd43bd0bcb724550c725ec6b4", "type": "electric_scooter", "is_disabled": 0, "lat": 38.967374666666664, "rental_uris": {"ios": "https://dc.lft.to/lastmile_qr_scan", "android": "https://dc.lft.to/lastmile_qr_scan"}, "is_reserved": 0, "fusion_lon": 0.0, "fusion_lat": 0.0, "lon": -77.05514666666667, "name": "d937d14cd43bd0bcb724550c725ec6b4"}, {"bike_id": "fd1004ad448a0ec77d3bd788fe415590", "type": "electric_scooter", "is_disabled": 0, "lat": 38.919401, "rental_uris": {"ios": "https://dc.lft.to/lastmile_qr_scan", "android": "https://dc.lft.to/lastmile_qr_scan"}, "is_reserved": 0, "fusion_lon": 0.0, "fusion_lat": 0.0, "lon": -77.04502583333333, "name": "fd1004ad448a0ec77d3bd788fe415590"}, {"bike_id": "a910b7281244c0c2f6ce2805e5ee106a", "type": "electric_bike", "is_disabled": 0, "lat": 38.965059, "rental_uris": {"ios": "https://dc.lft.to/lastmile_qr_scan", "android": "https://dc.lft.to/lastmile_qr_scan"}, "is_reserved": 0, "fusion_lon": 0.0, "fusion_lat": 0.0, "lon": -77.0282265, "name": "a910b7281244c0c2f6ce2805e5ee106a"}, {"bike_id": "f56e967c0dda5c85ca91cb0a5b5d6a7d", "type": "electric_scooter", "is_disabled": 0, "lat": 38.8779125, "rental_uris": {"ios": "https://dc.lft.to/lastmile_qr_scan", "android": "https://dc.lft.to/lastmile_qr_scan"}, "is_reserved": 0, "fusion_lon": 0.0, "fusion_lat": 0.0, "lon": -77.00122916666666, "name": "f56e967c0dda5c85ca91cb0a5b5d6a7d"}, {"bike_id": "0596bb412ad641f58830b10bb20174d0", "type": "electric_scooter", "is_disabled": 0, "lat": 38.917739166666664, "rental_uris": {"ios": "https://dc.lft.to/lastmile_qr_scan", "android": "https://dc.lft.to/lastmile_qr_scan"}, "is_reserved": 0, "fusion_lon": 0.0, "fusion_lat": 0.0, "lon": -77.0294395, "name": "0596bb412ad641f58830b10bb20174d0"}, {"bike_id": "630a7879a808e1f39531a165e8eac2f9", "type": "electric_scooter", "is_disabled": 0, "lat": 38.91160633333333, "rental_uris": {"ios": "https://dc.lft.to/lastmile_qr_scan", "android": "https://dc.lft.to/lastmile_qr_scan"}, "is_reserved": 0, "fusion_lon": 0.0, "fusion_lat": 0.0, "lon": -77.01621416666667, "name": "630a7879a808e1f39531a165e8eac2f9"}, {"bike_id": "93712c0149e624d08959d27090da8974", "type": "electric_bike", "is_disabled": 0, "lat": 38.878803833333336, "rental_uris": {"ios": "https://dc.lft.to/lastmile_qr_scan", "android": "https://dc.lft.to/lastmile_qr_scan"}, "is_reserved": 0, "fusion_lon": 0.0, "fusion_lat": 0.0, "lon": -77.09611533333333, "name": "93712c0149e624d08959d27090da8974"}, {"bike_id": "6e65b7ce4892eb98a9ae91a95d9163fb", "type": "electric_scooter", "is_disabled": 0, "lat": 38.9111055, "rental_uris": {"ios": "https://dc.lft.to/lastmile_qr_scan", "android": "https://dc.lft.to/lastmile_qr_scan"}, "is_reserved": 0, "fusion_lon": 0.0, "fusion_lat": 0.0, "lon": -77.04003266666666, "name": "6e65b7ce4892eb98a9ae91a95d9163fb"}, {"bike_id": "48c154dcb88b0b36737520faf05f2683", "type": "electric_scooter", "is_disabled": 0, "lat": 38.9126485, "rental_uris": {"ios": "https://dc.lft.to/lastmile_qr_scan", "android": "https://dc.lft.to/lastmile_qr_scan"}, "is_reserved": 0, "fusion_lon": 0.0, "fusion_lat": 0.0, "lon": -77.04705216666666, "name": "48c154dcb88b0b36737520faf05f2683"}, {"bike_id": "f568edb009800ade07ee6081d292faa9", "type": "electric_scooter", "is_disabled": 0, "lat": 38.905013833333335, "rental_uris": {"ios": "https://dc.lft.to/lastmile_qr_scan", "android": "https://dc.lft.to/lastmile_qr_scan"}, "is_reserved": 0, "fusion_lon": 0.0, "fusion_lat": 0.0, "lon": -76.99955616666666, "name": "f568edb009800ade07ee6081d292faa9"}, {"bike_id": "6d436a702cfc0c932707ac1ea1b3b860", "type": "electric_scooter", "is_disabled": 0, "lat": 38.9079665, "rental_uris": {"ios": "https://dc.lft.to/lastmile_qr_scan", "android": "https://dc.lft.to/lastmile_qr_scan"}, "is_reserved": 0, "fusion_lon": 0.0, "fusion_lat": 0.0, "lon": -77.001948, "name": "6d436a702cfc0c932707ac1ea1b3b860"}, {"bike_id": "c8ac8abe1e453e9b7dd6812e1a3af72c", "type": "electric_scooter", "is_disabled": 0, "lat": 38.92949483333334, "rental_uris": {"ios": "https://dc.lft.to/lastmile_qr_scan", "android": "https://dc.lft.to/lastmile_qr_scan"}, "is_reserved": 0, "fusion_lon": 0.0, "fusion_lat": 0.0, "lon": -77.01840516666667, "name": "c8ac8abe1e453e9b7dd6812e1a3af72c"}, {"bike_id": "c52fb73307f0145555c0d0d223a8853b", "type": "electric_scooter", "is_disabled": 0, "lat": 38.93336433333333, "rental_uris": {"ios": "https://dc.lft.to/lastmile_qr_scan", "android": "https://dc.lft.to/lastmile_qr_scan"}, "is_reserved": 0, "fusion_lon": 0.0, "fusion_lat": 0.0, "lon": -77.03983066666666, "name": "c52fb73307f0145555c0d0d223a8853b"}, {"bike_id": "74edd0447ba8142721337b5da0a1c9a8", "type": "electric_scooter", "is_disabled": 0, "lat": 38.887427833333334, "rental_uris": {"ios": "https://dc.lft.to/lastmile_qr_scan", "android": "https://dc.lft.to/lastmile_qr_scan"}, "is_reserved": 0, "fusion_lon": 0.0, "fusion_lat": 0.0, "lon": -76.99625066666667, "name": "74edd0447ba8142721337b5da0a1c9a8"}, {"bike_id": "edea18eb4002e6365e3562ccc3e6c017", "type": "electric_scooter", "is_disabled": 0, "lat": 38.865671, "rental_uris": {"ios": "https://dc.lft.to/lastmile_qr_scan", "android": "https://dc.lft.to/lastmile_qr_scan"}, "is_reserved": 0, "fusion_lon": 0.0, "fusion_lat": 0.0, "lon": -76.98211933333333, "name": "edea18eb4002e6365e3562ccc3e6c017"}, {"bike_id": "26d05467c312bbc0f048787953223072", "type": "electric_scooter", "is_disabled": 0, "lat": 38.905247, "rental_uris": {"ios": "https://dc.lft.to/lastmile_qr_scan", "android": "https://dc.lft.to/lastmile_qr_scan"}, "is_reserved": 0, "fusion_lon": 0.0, "fusion_lat": 0.0, "lon": -76.9963825, "name": "26d05467c312bbc0f048787953223072"}, {"bike_id": "a9e9f6b7f6e05a8f96d9e960d1212d50", "type": "electric_bike", "is_disabled": 0, "lat": 38.8541795, "rental_uris": {"ios": "https://dc.lft.to/lastmile_qr_scan", "android": "https://dc.lft.to/lastmile_qr_scan"}, "is_reserved": 0, "fusion_lon": 0.0, "fusion_lat": 0.0, "lon": -77.12073233333334, "name": "a9e9f6b7f6e05a8f96d9e960d1212d50"}, {"bike_id": "a11cddd1617744252703f5c72447421d", "type": "electric_scooter", "is_disabled": 0, "lat": 38.93416066666666, "rental_uris": {"ios": "https://dc.lft.to/lastmile_qr_scan", "android": "https://dc.lft.to/lastmile_qr_scan"}, "is_reserved": 0, "fusion_lon": 0.0, "fusion_lat": 0.0, "lon": -77.0391045, "name": "a11cddd1617744252703f5c72447421d"}, {"bike_id": "4cab34154760cf850e01f47d3e4cfbc4", "type": "electric_scooter", "is_disabled": 0, "lat": 38.901725666666664, "rental_uris": {"ios": "https://dc.lft.to/lastmile_qr_scan", "android": "https://dc.lft.to/lastmile_qr_scan"}, "is_reserved": 0, "fusion_lon": 0.0, "fusion_lat": 0.0, "lon": -76.98451766666666, "name": "4cab34154760cf850e01f47d3e4cfbc4"}, {"bike_id": "1b6872f45c7dff24fe4c941ebfdc5f1f", "type": "electric_scooter", "is_disabled": 0, "lat": 38.9429585, "rental_uris": {"ios": "https://dc.lft.to/lastmile_qr_scan", "android": "https://dc.lft.to/lastmile_qr_scan"}, "is_reserved": 0, "fusion_lon": 0.0, "fusion_lat": 0.0, "lon": -77.02175266666667, "name": "1b6872f45c7dff24fe4c941ebfdc5f1f"}, {"bike_id": "47c8f42e33e2ea2ea004e4fdf3383afe", "type": "electric_scooter", "is_disabled": 0, "lat": 38.94839833333333, "rental_uris": {"ios": "https://dc.lft.to/lastmile_qr_scan", "android": "https://dc.lft.to/lastmile_qr_scan"}, "is_reserved": 0, "fusion_lon": 0.0, "fusion_lat": 0.0, "lon": -77.02544016666667, "name": "47c8f42e33e2ea2ea004e4fdf3383afe"}, {"bike_id": "66974bb085990149efc19e8eaf02942c", "type": "electric_scooter", "is_disabled": 0, "lat": 38.86225433333333, "rental_uris": {"ios": "https://dc.lft.to/lastmile_qr_scan", "android": "https://dc.lft.to/lastmile_qr_scan"}, "is_reserved": 0, "fusion_lon": 0.0, "fusion_lat": 0.0, "lon": -76.99507183333333, "name": "66974bb085990149efc19e8eaf02942c"}, {"bike_id": "e8b6b9c69207c9a019887c675ec6c133", "type": "electric_scooter", "is_disabled": 0, "lat": 38.90419516666667, "rental_uris": {"ios": "https://dc.lft.to/lastmile_qr_scan", "android": "https://dc.lft.to/lastmile_qr_scan"}, "is_reserved": 0, "fusion_lon": 0.0, "fusion_lat": 0.0, "lon": -76.97375233333334, "name": "e8b6b9c69207c9a019887c675ec6c133"}, {"bike_id": "7512a4aa339aaedfd647a96f20ed9d4a", "type": "electric_scooter", "is_disabled": 0, "lat": 38.92449933333333, "rental_uris": {"ios": "https://dc.lft.to/lastmile_qr_scan", "android": "https://dc.lft.to/lastmile_qr_scan"}, "is_reserved": 0, "fusion_lon": 0.0, "fusion_lat": 0.0, "lon": -77.0241215, "name": "7512a4aa339aaedfd647a96f20ed9d4a"}, {"bike_id": "0ae29975ed8f0f121df9ede16e88dabc", "type": "electric_scooter", "is_disabled": 0, "lat": 38.954763666666665, "rental_uris": {"ios": "https://dc.lft.to/lastmile_qr_scan", "android": "https://dc.lft.to/lastmile_qr_scan"}, "is_reserved": 0, "fusion_lon": 0.0, "fusion_lat": 0.0, "lon": -77.09250033333333, "name": "0ae29975ed8f0f121df9ede16e88dabc"}, {"bike_id": "3e067bc2080cd167293c565f5adb51e2", "type": "electric_scooter", "is_disabled": 0, "lat": 38.88879166666667, "rental_uris": {"ios": "https://dc.lft.to/lastmile_qr_scan", "android": "https://dc.lft.to/lastmile_qr_scan"}, "is_reserved": 0, "fusion_lon": 0.0, "fusion_lat": 0.0, "lon": -76.99031033333333, "name": "3e067bc2080cd167293c565f5adb51e2"}, {"bike_id": "f8445d76ac7e83df5fce272052110916", "type": "electric_scooter", "is_disabled": 0, "lat": 38.9050055, "rental_uris": {"ios": "https://dc.lft.to/lastmile_qr_scan", "android": "https://dc.lft.to/lastmile_qr_scan"}, "is_reserved": 0, "fusion_lon": 0.0, "fusion_lat": 0.0, "lon": -77.01978083333333, "name": "f8445d76ac7e83df5fce272052110916"}, {"bike_id": "c7d5c95bfc68ec70970029332d8b2417", "type": "electric_scooter", "is_disabled": 0, "lat": 38.93374033333333, "rental_uris": {"ios": "https://dc.lft.to/lastmile_qr_scan", "android": "https://dc.lft.to/lastmile_qr_scan"}, "is_reserved": 0, "fusion_lon": 0.0, "fusion_lat": 0.0, "lon": -77.05733433333333, "name": "c7d5c95bfc68ec70970029332d8b2417"}, {"bike_id": "8d62c8bd1d2e60a2032f5cfcb3dfc529", "type": "electric_scooter", "is_disabled": 0, "lat": 38.933544499999996, "rental_uris": {"ios": "https://dc.lft.to/lastmile_qr_scan", "android": "https://dc.lft.to/lastmile_qr_scan"}, "is_reserved": 0, "fusion_lon": 0.0, "fusion_lat": 0.0, "lon": -76.9925925, "name": "8d62c8bd1d2e60a2032f5cfcb3dfc529"}, {"bike_id": "6fc2ede14b7ca9b6ada97e6bf16f8617", "type": "electric_scooter", "is_disabled": 0, "lat": 38.90073, "rental_uris": {"ios": "https://dc.lft.to/lastmile_qr_scan", "android": "https://dc.lft.to/lastmile_qr_scan"}, "is_reserved": 0, "fusion_lon": 0.0, "fusion_lat": 0.0, "lon": -77.01821966666667, "name": "6fc2ede14b7ca9b6ada97e6bf16f8617"}, {"bike_id": "1a8c98b31767edbc0c067aca701c97b2", "type": "electric_scooter", "is_disabled": 0, "lat": 38.899117, "rental_uris": {"ios": "https://dc.lft.to/lastmile_qr_scan", "android": "https://dc.lft.to/lastmile_qr_scan"}, "is_reserved": 0, "fusion_lon": 0.0, "fusion_lat": 0.0, "lon": -76.98174216666666, "name": "1a8c98b31767edbc0c067aca701c97b2"}, {"bike_id": "f6972782b0c90670b255802e6ec81ddc", "type": "electric_scooter", "is_disabled": 0, "lat": 38.942263833333335, "rental_uris": {"ios": "https://dc.lft.to/lastmile_qr_scan", "android": "https://dc.lft.to/lastmile_qr_scan"}, "is_reserved": 0, "fusion_lon": 0.0, "fusion_lat": 0.0, "lon": -77.0143895, "name": "f6972782b0c90670b255802e6ec81ddc"}, {"bike_id": "1a7e5384de78bd4d7c4b5252e6ec4632", "type": "electric_scooter", "is_disabled": 0, "lat": 38.91780583333333, "rental_uris": {"ios": "https://dc.lft.to/lastmile_qr_scan", "android": "https://dc.lft.to/lastmile_qr_scan"}, "is_reserved": 0, "fusion_lon": 0.0, "fusion_lat": 0.0, "lon": -77.04554066666667, "name": "1a7e5384de78bd4d7c4b5252e6ec4632"}, {"bike_id": "2dc3f4e69a616787f34550580d322cb2", "type": "electric_scooter", "is_disabled": 0, "lat": 38.8668625, "rental_uris": {"ios": "https://dc.lft.to/lastmile_qr_scan", "android": "https://dc.lft.to/lastmile_qr_scan"}, "is_reserved": 0, "fusion_lon": 0.0, "fusion_lat": 0.0, "lon": -76.985744, "name": "2dc3f4e69a616787f34550580d322cb2"}, {"bike_id": "d923410f591d932714ff558404de4a44", "type": "electric_scooter", "is_disabled": 0, "lat": 38.907544333333334, "rental_uris": {"ios": "https://dc.lft.to/lastmile_qr_scan", "android": "https://dc.lft.to/lastmile_qr_scan"}, "is_reserved": 0, "fusion_lon": 0.0, "fusion_lat": 0.0, "lon": -77.00373766666667, "name": "d923410f591d932714ff558404de4a44"}, {"bike_id": "c11980745692c3115e7c0fbac7dda36d", "type": "electric_scooter", "is_disabled": 0, "lat": 38.9219255, "rental_uris": {"ios": "https://dc.lft.to/lastmile_qr_scan", "android": "https://dc.lft.to/lastmile_qr_scan"}, "is_reserved": 0, "fusion_lon": 0.0, "fusion_lat": 0.0, "lon": -77.037836, "name": "c11980745692c3115e7c0fbac7dda36d"}, {"bike_id": "75ddc6b0398ab593db4ecd9d76174e3a", "type": "electric_scooter", "is_disabled": 0, "lat": 38.86677066666667, "rental_uris": {"ios": "https://dc.lft.to/lastmile_qr_scan", "android": "https://dc.lft.to/lastmile_qr_scan"}, "is_reserved": 0, "fusion_lon": 0.0, "fusion_lat": 0.0, "lon": -76.98582333333333, "name": "75ddc6b0398ab593db4ecd9d76174e3a"}, {"bike_id": "d5d0aaca6971cc15a82688f8cbc199b0", "type": "electric_scooter", "is_disabled": 0, "lat": 38.901941, "rental_uris": {"ios": "https://dc.lft.to/lastmile_qr_scan", "android": "https://dc.lft.to/lastmile_qr_scan"}, "is_reserved": 0, "fusion_lon": 0.0, "fusion_lat": 0.0, "lon": -77.02385766666667, "name": "d5d0aaca6971cc15a82688f8cbc199b0"}, {"bike_id": "f0acff50335118b03dd7c2f33f5aa578", "type": "electric_scooter", "is_disabled": 0, "lat": 38.902936833333335, "rental_uris": {"ios": "https://dc.lft.to/lastmile_qr_scan", "android": "https://dc.lft.to/lastmile_qr_scan"}, "is_reserved": 0, "fusion_lon": 0.0, "fusion_lat": 0.0, "lon": -77.06527616666666, "name": "f0acff50335118b03dd7c2f33f5aa578"}, {"bike_id": "22b9baf68f10a41d4a6cf1a06979508d", "type": "electric_bike", "is_disabled": 0, "lat": 38.9739915, "rental_uris": {"ios": "https://dc.lft.to/lastmile_qr_scan", "android": "https://dc.lft.to/lastmile_qr_scan"}, "is_reserved": 0, "fusion_lon": 0.0, "fusion_lat": 0.0, "lon": -77.0645435, "name": "22b9baf68f10a41d4a6cf1a06979508d"}, {"bike_id": "5312db1d2ef5fec55833f294cf36d173", "type": "electric_scooter", "is_disabled": 0, "lat": 38.924741166666664, "rental_uris": {"ios": "https://dc.lft.to/lastmile_qr_scan", "android": "https://dc.lft.to/lastmile_qr_scan"}, "is_reserved": 0, "fusion_lon": 0.0, "fusion_lat": 0.0, "lon": -77.02651616666667, "name": "5312db1d2ef5fec55833f294cf36d173"}, {"bike_id": "1fb8dd81ad5165d7688852f92e665ed8", "type": "electric_scooter", "is_disabled": 0, "lat": 38.905790333333336, "rental_uris": {"ios": "https://dc.lft.to/lastmile_qr_scan", "android": "https://dc.lft.to/lastmile_qr_scan"}, "is_reserved": 0, "fusion_lon": 0.0, "fusion_lat": 0.0, "lon": -77.02693033333334, "name": "1fb8dd81ad5165d7688852f92e665ed8"}, {"bike_id": "d24ba049bbaff7ec3a1b65179dd1267c", "type": "electric_scooter", "is_disabled": 0, "lat": 38.8852805, "rental_uris": {"ios": "https://dc.lft.to/lastmile_qr_scan", "android": "https://dc.lft.to/lastmile_qr_scan"}, "is_reserved": 0, "fusion_lon": 0.0, "fusion_lat": 0.0, "lon": -76.9982325, "name": "d24ba049bbaff7ec3a1b65179dd1267c"}, {"bike_id": "6f64dd3992ff0d3b459b419bdf28d5db", "type": "electric_scooter", "is_disabled": 0, "lat": 38.89768316666667, "rental_uris": {"ios": "https://dc.lft.to/lastmile_qr_scan", "android": "https://dc.lft.to/lastmile_qr_scan"}, "is_reserved": 0, "fusion_lon": 0.0, "fusion_lat": 0.0, "lon": -77.05151166666667, "name": "6f64dd3992ff0d3b459b419bdf28d5db"}, {"bike_id": "6ed566a275bf942fc9266fc42a280699", "type": "electric_scooter", "is_disabled": 0, "lat": 38.90120066666667, "rental_uris": {"ios": "https://dc.lft.to/lastmile_qr_scan", "android": "https://dc.lft.to/lastmile_qr_scan"}, "is_reserved": 0, "fusion_lon": 0.0, "fusion_lat": 0.0, "lon": -76.92953433333334, "name": "6ed566a275bf942fc9266fc42a280699"}, {"bike_id": "441cbae8c5b14e5021cc5131fe02dc00", "type": "electric_scooter", "is_disabled": 0, "lat": 38.956244166666664, "rental_uris": {"ios": "https://dc.lft.to/lastmile_qr_scan", "android": "https://dc.lft.to/lastmile_qr_scan"}, "is_reserved": 0, "fusion_lon": 0.0, "fusion_lat": 0.0, "lon": -77.03617533333333, "name": "441cbae8c5b14e5021cc5131fe02dc00"}, {"bike_id": "82364f6199601dda6005eb26b835caf8", "type": "electric_scooter", "is_disabled": 0, "lat": 38.92326766666667, "rental_uris": {"ios": "https://dc.lft.to/lastmile_qr_scan", "android": "https://dc.lft.to/lastmile_qr_scan"}, "is_reserved": 0, "fusion_lon": 0.0, "fusion_lat": 0.0, "lon": -77.0377895, "name": "82364f6199601dda6005eb26b835caf8"}, {"bike_id": "9090bde06c3fba4d0684f0afed4e4405", "type": "electric_scooter", "is_disabled": 0, "lat": 38.899112833333334, "rental_uris": {"ios": "https://dc.lft.to/lastmile_qr_scan", "android": "https://dc.lft.to/lastmile_qr_scan"}, "is_reserved": 0, "fusion_lon": 0.0, "fusion_lat": 0.0, "lon": -77.03940716666666, "name": "9090bde06c3fba4d0684f0afed4e4405"}, {"bike_id": "e367ff80706f7ef706e98e541b0ecf74", "type": "electric_bike", "is_disabled": 0, "lat": 38.93168416666666, "rental_uris": {"ios": "https://dc.lft.to/lastmile_qr_scan", "android": "https://dc.lft.to/lastmile_qr_scan"}, "is_reserved": 0, "fusion_lon": 0.0, "fusion_lat": 0.0, "lon": -77.0355125, "name": "e367ff80706f7ef706e98e541b0ecf74"}, {"bike_id": "4b952b5e0d752953dd2b512588553017", "type": "electric_scooter", "is_disabled": 0, "lat": 38.88767983333334, "rental_uris": {"ios": "https://dc.lft.to/lastmile_qr_scan", "android": "https://dc.lft.to/lastmile_qr_scan"}, "is_reserved": 0, "fusion_lon": 0.0, "fusion_lat": 0.0, "lon": -77.0003615, "name": "4b952b5e0d752953dd2b512588553017"}, {"bike_id": "e2006f74792e6f3dd5fdcc7a29614c36", "type": "electric_scooter", "is_disabled": 0, "lat": 38.9471355, "rental_uris": {"ios": "https://dc.lft.to/lastmile_qr_scan", "android": "https://dc.lft.to/lastmile_qr_scan"}, "is_reserved": 0, "fusion_lon": 0.0, "fusion_lat": 0.0, "lon": -76.99706883333333, "name": "e2006f74792e6f3dd5fdcc7a29614c36"}, {"bike_id": "ed627296fb33b4494b0c190dde272854", "type": "electric_scooter", "is_disabled": 0, "lat": 38.90236516666667, "rental_uris": {"ios": "https://dc.lft.to/lastmile_qr_scan", "android": "https://dc.lft.to/lastmile_qr_scan"}, "is_reserved": 0, "fusion_lon": 0.0, "fusion_lat": 0.0, "lon": -77.00195633333334, "name": "ed627296fb33b4494b0c190dde272854"}, {"bike_id": "c6c6a04d159127a8eb310a7167b89b4b", "type": "electric_scooter", "is_disabled": 0, "lat": 38.9096015, "rental_uris": {"ios": "https://dc.lft.to/lastmile_qr_scan", "android": "https://dc.lft.to/lastmile_qr_scan"}, "is_reserved": 0, "fusion_lon": 0.0, "fusion_lat": 0.0, "lon": -77.02373616666667, "name": "c6c6a04d159127a8eb310a7167b89b4b"}, {"bike_id": "d3f15ee78074147299916dae0682bbcc", "type": "electric_scooter", "is_disabled": 0, "lat": 38.8952785, "rental_uris": {"ios": "https://dc.lft.to/lastmile_qr_scan", "android": "https://dc.lft.to/lastmile_qr_scan"}, "is_reserved": 0, "fusion_lon": 0.0, "fusion_lat": 0.0, "lon": -76.94889566666667, "name": "d3f15ee78074147299916dae0682bbcc"}, {"bike_id": "4c39a4d025090b817f81d4dae6bab1d2", "type": "electric_scooter", "is_disabled": 0, "lat": 38.941416333333336, "rental_uris": {"ios": "https://dc.lft.to/lastmile_qr_scan", "android": "https://dc.lft.to/lastmile_qr_scan"}, "is_reserved": 0, "fusion_lon": 0.0, "fusion_lat": 0.0, "lon": -77.02327516666666, "name": "4c39a4d025090b817f81d4dae6bab1d2"}, {"bike_id": "4e0299bed5a4e6ba54b2af9b68097593", "type": "electric_scooter", "is_disabled": 0, "lat": 38.8935875, "rental_uris": {"ios": "https://dc.lft.to/lastmile_qr_scan", "android": "https://dc.lft.to/lastmile_qr_scan"}, "is_reserved": 0, "fusion_lon": 0.0, "fusion_lat": 0.0, "lon": -76.9288155, "name": "4e0299bed5a4e6ba54b2af9b68097593"}, {"bike_id": "036f9ee7e873e90394d1e5df9b131b28", "type": "electric_scooter", "is_disabled": 0, "lat": 38.914276, "rental_uris": {"ios": "https://dc.lft.to/lastmile_qr_scan", "android": "https://dc.lft.to/lastmile_qr_scan"}, "is_reserved": 0, "fusion_lon": 0.0, "fusion_lat": 0.0, "lon": -77.0318575, "name": "036f9ee7e873e90394d1e5df9b131b28"}, {"bike_id": "46b5268487caa2d368649bc18de20ba3", "type": "electric_scooter", "is_disabled": 0, "lat": 38.916493333333335, "rental_uris": {"ios": "https://dc.lft.to/lastmile_qr_scan", "android": "https://dc.lft.to/lastmile_qr_scan"}, "is_reserved": 0, "fusion_lon": 0.0, "fusion_lat": 0.0, "lon": -77.022834, "name": "46b5268487caa2d368649bc18de20ba3"}, {"bike_id": "65963235fd6c0d49bcc3d5d9446adffa", "type": "electric_scooter", "is_disabled": 0, "lat": 38.9291355, "rental_uris": {"ios": "https://dc.lft.to/lastmile_qr_scan", "android": "https://dc.lft.to/lastmile_qr_scan"}, "is_reserved": 0, "fusion_lon": 0.0, "fusion_lat": 0.0, "lon": -77.02090766666667, "name": "65963235fd6c0d49bcc3d5d9446adffa"}, {"bike_id": "e31d9928c38309f97a7f06d19a0484ce", "type": "electric_scooter", "is_disabled": 0, "lat": 38.924704166666665, "rental_uris": {"ios": "https://dc.lft.to/lastmile_qr_scan", "android": "https://dc.lft.to/lastmile_qr_scan"}, "is_reserved": 0, "fusion_lon": 0.0, "fusion_lat": 0.0, "lon": -77.02832283333333, "name": "e31d9928c38309f97a7f06d19a0484ce"}, {"bike_id": "fef583b616f93dd936cdf120d8f2e08c", "type": "electric_scooter", "is_disabled": 0, "lat": 38.94270616666667, "rental_uris": {"ios": "https://dc.lft.to/lastmile_qr_scan", "android": "https://dc.lft.to/lastmile_qr_scan"}, "is_reserved": 0, "fusion_lon": 0.0, "fusion_lat": 0.0, "lon": -77.032569, "name": "fef583b616f93dd936cdf120d8f2e08c"}, {"bike_id": "86b614bf8d9515bf9690f18dbc9c9cd4", "type": "electric_scooter", "is_disabled": 0, "lat": 38.914371833333334, "rental_uris": {"ios": "https://dc.lft.to/lastmile_qr_scan", "android": "https://dc.lft.to/lastmile_qr_scan"}, "is_reserved": 0, "fusion_lon": 0.0, "fusion_lat": 0.0, "lon": -77.02287416666667, "name": "86b614bf8d9515bf9690f18dbc9c9cd4"}, {"bike_id": "8ec5d9f5414546de5f5aaff165958196", "type": "electric_scooter", "is_disabled": 0, "lat": 38.8786425, "rental_uris": {"ios": "https://dc.lft.to/lastmile_qr_scan", "android": "https://dc.lft.to/lastmile_qr_scan"}, "is_reserved": 0, "fusion_lon": 0.0, "fusion_lat": 0.0, "lon": -76.969829, "name": "8ec5d9f5414546de5f5aaff165958196"}, {"bike_id": "0628afa0fdcc9ee22acae22fbdb05813", "type": "electric_scooter", "is_disabled": 0, "lat": 38.853197333333334, "rental_uris": {"ios": "https://dc.lft.to/lastmile_qr_scan", "android": "https://dc.lft.to/lastmile_qr_scan"}, "is_reserved": 0, "fusion_lon": 0.0, "fusion_lat": 0.0, "lon": -76.9800785, "name": "0628afa0fdcc9ee22acae22fbdb05813"}, {"bike_id": "c5ea95c261b9361a8d5a856e990eff3e", "type": "electric_scooter", "is_disabled": 0, "lat": 38.88849166666667, "rental_uris": {"ios": "https://dc.lft.to/lastmile_qr_scan", "android": "https://dc.lft.to/lastmile_qr_scan"}, "is_reserved": 0, "fusion_lon": 0.0, "fusion_lat": 0.0, "lon": -76.92676766666666, "name": "c5ea95c261b9361a8d5a856e990eff3e"}, {"bike_id": "88e3b2fc74e28c64b573c0fe49616ba5", "type": "electric_scooter", "is_disabled": 0, "lat": 38.91504483333333, "rental_uris": {"ios": "https://dc.lft.to/lastmile_qr_scan", "android": "https://dc.lft.to/lastmile_qr_scan"}, "is_reserved": 0, "fusion_lon": 0.0, "fusion_lat": 0.0, "lon": -77.00930316666667, "name": "88e3b2fc74e28c64b573c0fe49616ba5"}, {"bike_id": "b4f9b2a4dbfb2d06abc674564848cc86", "type": "electric_scooter", "is_disabled": 0, "lat": 38.912562666666666, "rental_uris": {"ios": "https://dc.lft.to/lastmile_qr_scan", "android": "https://dc.lft.to/lastmile_qr_scan"}, "is_reserved": 0, "fusion_lon": 0.0, "fusion_lat": 0.0, "lon": -77.03757083333333, "name": "b4f9b2a4dbfb2d06abc674564848cc86"}, {"bike_id": "f5cef4e1f18764543be9424912ff54ea", "type": "electric_scooter", "is_disabled": 0, "lat": 38.866847, "rental_uris": {"ios": "https://dc.lft.to/lastmile_qr_scan", "android": "https://dc.lft.to/lastmile_qr_scan"}, "is_reserved": 0, "fusion_lon": 0.0, "fusion_lat": 0.0, "lon": -76.98585916666667, "name": "f5cef4e1f18764543be9424912ff54ea"}, {"bike_id": "159ec937c98539a7b7f48ab851c4bdc3", "type": "electric_scooter", "is_disabled": 0, "lat": 38.915773, "rental_uris": {"ios": "https://dc.lft.to/lastmile_qr_scan", "android": "https://dc.lft.to/lastmile_qr_scan"}, "is_reserved": 0, "fusion_lon": 0.0, "fusion_lat": 0.0, "lon": -77.020533, "name": "159ec937c98539a7b7f48ab851c4bdc3"}, {"bike_id": "a794c0294f9a5ae3f6eb077365e485b6", "type": "electric_scooter", "is_disabled": 0, "lat": 38.874168833333336, "rental_uris": {"ios": "https://dc.lft.to/lastmile_qr_scan", "android": "https://dc.lft.to/lastmile_qr_scan"}, "is_reserved": 0, "fusion_lon": 0.0, "fusion_lat": 0.0, "lon": -76.96905416666667, "name": "a794c0294f9a5ae3f6eb077365e485b6"}, {"bike_id": "8ad90531d25371727e104c921a2ab924", "type": "electric_scooter", "is_disabled": 0, "lat": 38.902367, "rental_uris": {"ios": "https://dc.lft.to/lastmile_qr_scan", "android": "https://dc.lft.to/lastmile_qr_scan"}, "is_reserved": 0, "fusion_lon": 0.0, "fusion_lat": 0.0, "lon": -77.04330633333333, "name": "8ad90531d25371727e104c921a2ab924"}, {"bike_id": "a204a4afa18118620eb9d050ae3fd530", "type": "electric_bike", "is_disabled": 0, "lat": 38.971568, "rental_uris": {"ios": "https://dc.lft.to/lastmile_qr_scan", "android": "https://dc.lft.to/lastmile_qr_scan"}, "is_reserved": 0, "fusion_lon": 0.0, "fusion_lat": 0.0, "lon": -77.027255, "name": "a204a4afa18118620eb9d050ae3fd530"}, {"bike_id": "565a0556d6e1ddaa66b5f3a3ea50c419", "type": "electric_scooter", "is_disabled": 0, "lat": 38.927866333333334, "rental_uris": {"ios": "https://dc.lft.to/lastmile_qr_scan", "android": "https://dc.lft.to/lastmile_qr_scan"}, "is_reserved": 0, "fusion_lon": 0.0, "fusion_lat": 0.0, "lon": -77.02129466666666, "name": "565a0556d6e1ddaa66b5f3a3ea50c419"}, {"bike_id": "12c45185f7ccfb4c7df048dddbe474d4", "type": "electric_scooter", "is_disabled": 0, "lat": 38.936357666666666, "rental_uris": {"ios": "https://dc.lft.to/lastmile_qr_scan", "android": "https://dc.lft.to/lastmile_qr_scan"}, "is_reserved": 0, "fusion_lon": 0.0, "fusion_lat": 0.0, "lon": -77.05886783333334, "name": "12c45185f7ccfb4c7df048dddbe474d4"}, {"bike_id": "3436446c78296df2fee052f4784cc264", "type": "electric_scooter", "is_disabled": 0, "lat": 38.90278416666666, "rental_uris": {"ios": "https://dc.lft.to/lastmile_qr_scan", "android": "https://dc.lft.to/lastmile_qr_scan"}, "is_reserved": 0, "fusion_lon": 0.0, "fusion_lat": 0.0, "lon": -77.05802316666667, "name": "3436446c78296df2fee052f4784cc264"}, {"bike_id": "a88968c1d33084aa88dd18e506951398", "type": "electric_scooter", "is_disabled": 0, "lat": 38.91106633333333, "rental_uris": {"ios": "https://dc.lft.to/lastmile_qr_scan", "android": "https://dc.lft.to/lastmile_qr_scan"}, "is_reserved": 0, "fusion_lon": 0.0, "fusion_lat": 0.0, "lon": -77.011579, "name": "a88968c1d33084aa88dd18e506951398"}, {"bike_id": "63daaee76d455b4d5bf4c76e564029b3", "type": "electric_scooter", "is_disabled": 0, "lat": 38.8984225, "rental_uris": {"ios": "https://dc.lft.to/lastmile_qr_scan", "android": "https://dc.lft.to/lastmile_qr_scan"}, "is_reserved": 0, "fusion_lon": 0.0, "fusion_lat": 0.0, "lon": -76.94630633333334, "name": "63daaee76d455b4d5bf4c76e564029b3"}, {"bike_id": "d6e60c8574e08bb3cd7004a52298ceaf", "type": "electric_scooter", "is_disabled": 0, "lat": 38.93249616666667, "rental_uris": {"ios": "https://dc.lft.to/lastmile_qr_scan", "android": "https://dc.lft.to/lastmile_qr_scan"}, "is_reserved": 0, "fusion_lon": 0.0, "fusion_lat": 0.0, "lon": -77.02003166666667, "name": "d6e60c8574e08bb3cd7004a52298ceaf"}, {"bike_id": "ea6c0c3e4ee73bc9a12c50df8316625c", "type": "electric_scooter", "is_disabled": 0, "lat": 38.8706835, "rental_uris": {"ios": "https://dc.lft.to/lastmile_qr_scan", "android": "https://dc.lft.to/lastmile_qr_scan"}, "is_reserved": 0, "fusion_lon": 0.0, "fusion_lat": 0.0, "lon": -76.981274, "name": "ea6c0c3e4ee73bc9a12c50df8316625c"}, {"bike_id": "d83e9aa7d29dedd7aba2fad65584f6d3", "type": "electric_scooter", "is_disabled": 0, "lat": 38.9163545, "rental_uris": {"ios": "https://dc.lft.to/lastmile_qr_scan", "android": "https://dc.lft.to/lastmile_qr_scan"}, "is_reserved": 0, "fusion_lon": 0.0, "fusion_lat": 0.0, "lon": -77.01426383333333, "name": "d83e9aa7d29dedd7aba2fad65584f6d3"}, {"bike_id": "96131bbcf6701cd19b39b54bbaf017d8", "type": "electric_bike", "is_disabled": 0, "lat": 38.8615275, "rental_uris": {"ios": "https://dc.lft.to/lastmile_qr_scan", "android": "https://dc.lft.to/lastmile_qr_scan"}, "is_reserved": 0, "fusion_lon": 0.0, "fusion_lat": 0.0, "lon": -77.09144133333334, "name": "96131bbcf6701cd19b39b54bbaf017d8"}, {"bike_id": "f08bcf2aa334b9b27523c2ca75845e45", "type": "electric_bike", "is_disabled": 0, "lat": 38.929642666666666, "rental_uris": {"ios": "https://dc.lft.to/lastmile_qr_scan", "android": "https://dc.lft.to/lastmile_qr_scan"}, "is_reserved": 0, "fusion_lon": 0.0, "fusion_lat": 0.0, "lon": -77.18561116666666, "name": "f08bcf2aa334b9b27523c2ca75845e45"}, {"bike_id": "86b4d4e26a8e4c505bd82e1f275263bc", "type": "electric_scooter", "is_disabled": 0, "lat": 38.88423733333333, "rental_uris": {"ios": "https://dc.lft.to/lastmile_qr_scan", "android": "https://dc.lft.to/lastmile_qr_scan"}, "is_reserved": 0, "fusion_lon": 0.0, "fusion_lat": 0.0, "lon": -76.95749883333333, "name": "86b4d4e26a8e4c505bd82e1f275263bc"}, {"bike_id": "ad319f47aff52e5583fdb89ef423c4e9", "type": "electric_bike", "is_disabled": 0, "lat": 38.80411466666666, "rental_uris": {"ios": "https://dc.lft.to/lastmile_qr_scan", "android": "https://dc.lft.to/lastmile_qr_scan"}, "is_reserved": 0, "fusion_lon": 0.0, "fusion_lat": 0.0, "lon": -77.05550266666667, "name": "ad319f47aff52e5583fdb89ef423c4e9"}, {"bike_id": "b1379550bf41ea8941e1eb272ce295bb", "type": "electric_scooter", "is_disabled": 0, "lat": 38.90565383333333, "rental_uris": {"ios": "https://dc.lft.to/lastmile_qr_scan", "android": "https://dc.lft.to/lastmile_qr_scan"}, "is_reserved": 0, "fusion_lon": 0.0, "fusion_lat": 0.0, "lon": -77.00588366666666, "name": "b1379550bf41ea8941e1eb272ce295bb"}, {"bike_id": "f61331581ce266a4009d063f11ce2929", "type": "electric_bike", "is_disabled": 0, "lat": 38.953278, "rental_uris": {"ios": "https://dc.lft.to/lastmile_qr_scan", "android": "https://dc.lft.to/lastmile_qr_scan"}, "is_reserved": 0, "fusion_lon": 0.0, "fusion_lat": 0.0, "lon": -76.982485, "name": "f61331581ce266a4009d063f11ce2929"}, {"bike_id": "dcf70bc4909408ab0f5083142bdb5a77", "type": "electric_scooter", "is_disabled": 0, "lat": 38.90723966666667, "rental_uris": {"ios": "https://dc.lft.to/lastmile_qr_scan", "android": "https://dc.lft.to/lastmile_qr_scan"}, "is_reserved": 0, "fusion_lon": 0.0, "fusion_lat": 0.0, "lon": -77.01027233333333, "name": "dcf70bc4909408ab0f5083142bdb5a77"}, {"bike_id": "233a211eb60cff837efc328af49a7eb7", "type": "electric_bike", "is_disabled": 0, "lat": 38.8772555, "rental_uris": {"ios": "https://dc.lft.to/lastmile_qr_scan", "android": "https://dc.lft.to/lastmile_qr_scan"}, "is_reserved": 0, "fusion_lon": 0.0, "fusion_lat": 0.0, "lon": -77.0038, "name": "233a211eb60cff837efc328af49a7eb7"}, {"bike_id": "5b2ebac09e48362494311c43819a7d3c", "type": "electric_bike", "is_disabled": 0, "lat": 38.94514916666667, "rental_uris": {"ios": "https://dc.lft.to/lastmile_qr_scan", "android": "https://dc.lft.to/lastmile_qr_scan"}, "is_reserved": 0, "fusion_lon": 0.0, "fusion_lat": 0.0, "lon": -77.00675516666666, "name": "5b2ebac09e48362494311c43819a7d3c"}, {"bike_id": "2d25861268fd0d3311de3195ecb381fd", "type": "electric_scooter", "is_disabled": 0, "lat": 38.92231733333333, "rental_uris": {"ios": "https://dc.lft.to/lastmile_qr_scan", "android": "https://dc.lft.to/lastmile_qr_scan"}, "is_reserved": 0, "fusion_lon": 0.0, "fusion_lat": 0.0, "lon": -76.97345266666666, "name": "2d25861268fd0d3311de3195ecb381fd"}, {"bike_id": "9ac8c93a38d0e36a1036bc0266eef4dc", "type": "electric_bike", "is_disabled": 0, "lat": 38.81168683333333, "rental_uris": {"ios": "https://dc.lft.to/lastmile_qr_scan", "android": "https://dc.lft.to/lastmile_qr_scan"}, "is_reserved": 0, "fusion_lon": 0.0, "fusion_lat": 0.0, "lon": -77.069631, "name": "9ac8c93a38d0e36a1036bc0266eef4dc"}, {"bike_id": "8f52cd3112d9e6b928ce75d4296c2053", "type": "electric_bike", "is_disabled": 0, "lat": 38.899951333333334, "rental_uris": {"ios": "https://dc.lft.to/lastmile_qr_scan", "android": "https://dc.lft.to/lastmile_qr_scan"}, "is_reserved": 0, "fusion_lon": 0.0, "fusion_lat": 0.0, "lon": -77.07545833333333, "name": "8f52cd3112d9e6b928ce75d4296c2053"}, {"bike_id": "0a37dff27c8d4862d656a71d4e860c4e", "type": "electric_scooter", "is_disabled": 0, "lat": 38.922781, "rental_uris": {"ios": "https://dc.lft.to/lastmile_qr_scan", "android": "https://dc.lft.to/lastmile_qr_scan"}, "is_reserved": 0, "fusion_lon": 0.0, "fusion_lat": 0.0, "lon": -76.99454333333334, "name": "0a37dff27c8d4862d656a71d4e860c4e"}, {"bike_id": "aa9a198c1a30d3917be063d4e87304f0", "type": "electric_scooter", "is_disabled": 0, "lat": 38.922556166666666, "rental_uris": {"ios": "https://dc.lft.to/lastmile_qr_scan", "android": "https://dc.lft.to/lastmile_qr_scan"}, "is_reserved": 0, "fusion_lon": 0.0, "fusion_lat": 0.0, "lon": -77.0388715, "name": "aa9a198c1a30d3917be063d4e87304f0"}, {"bike_id": "9ea54fdaff8ec42422210d0a018d2524", "type": "electric_scooter", "is_disabled": 0, "lat": 38.919764, "rental_uris": {"ios": "https://dc.lft.to/lastmile_qr_scan", "android": "https://dc.lft.to/lastmile_qr_scan"}, "is_reserved": 0, "fusion_lon": 0.0, "fusion_lat": 0.0, "lon": -77.04222966666667, "name": "9ea54fdaff8ec42422210d0a018d2524"}, {"bike_id": "1e264f272292ce9fecfc056cb492aa6c", "type": "electric_scooter", "is_disabled": 0, "lat": 38.905511833333335, "rental_uris": {"ios": "https://dc.lft.to/lastmile_qr_scan", "android": "https://dc.lft.to/lastmile_qr_scan"}, "is_reserved": 0, "fusion_lon": 0.0, "fusion_lat": 0.0, "lon": -76.996176, "name": "1e264f272292ce9fecfc056cb492aa6c"}, {"bike_id": "b7c5f55cfc7f1a1c89b171417629ca18", "type": "electric_scooter", "is_disabled": 0, "lat": 38.924895, "rental_uris": {"ios": "https://dc.lft.to/lastmile_qr_scan", "android": "https://dc.lft.to/lastmile_qr_scan"}, "is_reserved": 0, "fusion_lon": 0.0, "fusion_lat": 0.0, "lon": -77.05213533333334, "name": "b7c5f55cfc7f1a1c89b171417629ca18"}, {"bike_id": "a72dca40011e0653744ee60fd40e22af", "type": "electric_scooter", "is_disabled": 0, "lat": 38.92651083333333, "rental_uris": {"ios": "https://dc.lft.to/lastmile_qr_scan", "android": "https://dc.lft.to/lastmile_qr_scan"}, "is_reserved": 0, "fusion_lon": 0.0, "fusion_lat": 0.0, "lon": -77.024505, "name": "a72dca40011e0653744ee60fd40e22af"}, {"bike_id": "be7e74f4252f5a913df771e67fc38647", "type": "electric_scooter", "is_disabled": 0, "lat": 38.938419, "rental_uris": {"ios": "https://dc.lft.to/lastmile_qr_scan", "android": "https://dc.lft.to/lastmile_qr_scan"}, "is_reserved": 0, "fusion_lon": 0.0, "fusion_lat": 0.0, "lon": -77.0339415, "name": "be7e74f4252f5a913df771e67fc38647"}, {"bike_id": "b8af7e0ddfb54f275983504a3fb5607a", "type": "electric_scooter", "is_disabled": 0, "lat": 38.92457683333333, "rental_uris": {"ios": "https://dc.lft.to/lastmile_qr_scan", "android": "https://dc.lft.to/lastmile_qr_scan"}, "is_reserved": 0, "fusion_lon": 0.0, "fusion_lat": 0.0, "lon": -77.0327625, "name": "b8af7e0ddfb54f275983504a3fb5607a"}, {"bike_id": "032a360936da00a85e41b25ba9d41e8a", "type": "electric_scooter", "is_disabled": 0, "lat": 38.91762033333333, "rental_uris": {"ios": "https://dc.lft.to/lastmile_qr_scan", "android": "https://dc.lft.to/lastmile_qr_scan"}, "is_reserved": 0, "fusion_lon": 0.0, "fusion_lat": 0.0, "lon": -77.04771266666667, "name": "032a360936da00a85e41b25ba9d41e8a"}, {"bike_id": "d6c4abd5f5b86bcc9a1404f441b9a933", "type": "electric_scooter", "is_disabled": 0, "lat": 38.92341866666666, "rental_uris": {"ios": "https://dc.lft.to/lastmile_qr_scan", "android": "https://dc.lft.to/lastmile_qr_scan"}, "is_reserved": 0, "fusion_lon": 0.0, "fusion_lat": 0.0, "lon": -77.03905066666667, "name": "d6c4abd5f5b86bcc9a1404f441b9a933"}, {"bike_id": "9802d729ece6e1f02740251b1494d427", "type": "electric_scooter", "is_disabled": 0, "lat": 38.862059333333335, "rental_uris": {"ios": "https://dc.lft.to/lastmile_qr_scan", "android": "https://dc.lft.to/lastmile_qr_scan"}, "is_reserved": 0, "fusion_lon": 0.0, "fusion_lat": 0.0, "lon": -76.99465116666667, "name": "9802d729ece6e1f02740251b1494d427"}, {"bike_id": "22a12f8d90fe3a4d92b25090ea07936a", "type": "electric_bike", "is_disabled": 0, "lat": 38.94361266666667, "rental_uris": {"ios": "https://dc.lft.to/lastmile_qr_scan", "android": "https://dc.lft.to/lastmile_qr_scan"}, "is_reserved": 0, "fusion_lon": 0.0, "fusion_lat": 0.0, "lon": -76.96780683333333, "name": "22a12f8d90fe3a4d92b25090ea07936a"}, {"bike_id": "ba6a5f3151c2cc6bfced3286bbedda6e", "type": "electric_scooter", "is_disabled": 0, "lat": 38.895416833333336, "rental_uris": {"ios": "https://dc.lft.to/lastmile_qr_scan", "android": "https://dc.lft.to/lastmile_qr_scan"}, "is_reserved": 0, "fusion_lon": 0.0, "fusion_lat": 0.0, "lon": -76.94923766666666, "name": "ba6a5f3151c2cc6bfced3286bbedda6e"}, {"bike_id": "60635b3d0aebb4600227a2bc511b214f", "type": "electric_scooter", "is_disabled": 0, "lat": 38.91712166666667, "rental_uris": {"ios": "https://dc.lft.to/lastmile_qr_scan", "android": "https://dc.lft.to/lastmile_qr_scan"}, "is_reserved": 0, "fusion_lon": 0.0, "fusion_lat": 0.0, "lon": -77.02607666666667, "name": "60635b3d0aebb4600227a2bc511b214f"}, {"bike_id": "83691c59e40e73d8e4ba7508931961d0", "type": "electric_scooter", "is_disabled": 0, "lat": 38.920184166666665, "rental_uris": {"ios": "https://dc.lft.to/lastmile_qr_scan", "android": "https://dc.lft.to/lastmile_qr_scan"}, "is_reserved": 0, "fusion_lon": 0.0, "fusion_lat": 0.0, "lon": -77.01290433333334, "name": "83691c59e40e73d8e4ba7508931961d0"}, {"bike_id": "ad3cfddca7d056ab9c10a10fdc8077e7", "type": "electric_scooter", "is_disabled": 0, "lat": 38.9155095, "rental_uris": {"ios": "https://dc.lft.to/lastmile_qr_scan", "android": "https://dc.lft.to/lastmile_qr_scan"}, "is_reserved": 0, "fusion_lon": 0.0, "fusion_lat": 0.0, "lon": -77.02564683333334, "name": "ad3cfddca7d056ab9c10a10fdc8077e7"}, {"bike_id": "5f77c33b678ec08b5b65b0f2a57fd21a", "type": "electric_scooter", "is_disabled": 0, "lat": 38.88077233333333, "rental_uris": {"ios": "https://dc.lft.to/lastmile_qr_scan", "android": "https://dc.lft.to/lastmile_qr_scan"}, "is_reserved": 0, "fusion_lon": 0.0, "fusion_lat": 0.0, "lon": -76.995057, "name": "5f77c33b678ec08b5b65b0f2a57fd21a"}, {"bike_id": "a75d80709e34525859c0688b1d4efca2", "type": "electric_scooter", "is_disabled": 0, "lat": 38.939940166666666, "rental_uris": {"ios": "https://dc.lft.to/lastmile_qr_scan", "android": "https://dc.lft.to/lastmile_qr_scan"}, "is_reserved": 0, "fusion_lon": 0.0, "fusion_lat": 0.0, "lon": -77.016937, "name": "a75d80709e34525859c0688b1d4efca2"}, {"bike_id": "1f20e5bc2e59e4cb64a4aeec39da55e6", "type": "electric_bike", "is_disabled": 0, "lat": 38.853534, "rental_uris": {"ios": "https://dc.lft.to/lastmile_qr_scan", "android": "https://dc.lft.to/lastmile_qr_scan"}, "is_reserved": 0, "fusion_lon": 0.0, "fusion_lat": 0.0, "lon": -77.086895, "name": "1f20e5bc2e59e4cb64a4aeec39da55e6"}, {"bike_id": "2412bfac8c47b0ca81d677cb748329b1", "type": "electric_bike", "is_disabled": 0, "lat": 38.87305583333333, "rental_uris": {"ios": "https://dc.lft.to/lastmile_qr_scan", "android": "https://dc.lft.to/lastmile_qr_scan"}, "is_reserved": 0, "fusion_lon": 0.0, "fusion_lat": 0.0, "lon": -77.01094216666667, "name": "2412bfac8c47b0ca81d677cb748329b1"}, {"bike_id": "16a1a22d345dc50a074462105bf30462", "type": "electric_scooter", "is_disabled": 0, "lat": 38.9148085, "rental_uris": {"ios": "https://dc.lft.to/lastmile_qr_scan", "android": "https://dc.lft.to/lastmile_qr_scan"}, "is_reserved": 0, "fusion_lon": 0.0, "fusion_lat": 0.0, "lon": -77.00283566666667, "name": "16a1a22d345dc50a074462105bf30462"}, {"bike_id": "5d0a56e68e0c1e45c10c09e46ff41345", "type": "electric_scooter", "is_disabled": 0, "lat": 38.898672833333336, "rental_uris": {"ios": "https://dc.lft.to/lastmile_qr_scan", "android": "https://dc.lft.to/lastmile_qr_scan"}, "is_reserved": 0, "fusion_lon": 0.0, "fusion_lat": 0.0, "lon": -76.946614, "name": "5d0a56e68e0c1e45c10c09e46ff41345"}, {"bike_id": "e479a1ff7ee08fe2f114523d9064cf35", "type": "electric_scooter", "is_disabled": 0, "lat": 38.8650315, "rental_uris": {"ios": "https://dc.lft.to/lastmile_qr_scan", "android": "https://dc.lft.to/lastmile_qr_scan"}, "is_reserved": 0, "fusion_lon": 0.0, "fusion_lat": 0.0, "lon": -76.99001983333333, "name": "e479a1ff7ee08fe2f114523d9064cf35"}, {"bike_id": "f691fa541660272df45baa97d2ed285a", "type": "electric_scooter", "is_disabled": 0, "lat": 38.880948833333335, "rental_uris": {"ios": "https://dc.lft.to/lastmile_qr_scan", "android": "https://dc.lft.to/lastmile_qr_scan"}, "is_reserved": 0, "fusion_lon": 0.0, "fusion_lat": 0.0, "lon": -77.01770033333334, "name": "f691fa541660272df45baa97d2ed285a"}, {"bike_id": "7431709309c5b53778df40289d4141a8", "type": "electric_scooter", "is_disabled": 0, "lat": 38.923359833333336, "rental_uris": {"ios": "https://dc.lft.to/lastmile_qr_scan", "android": "https://dc.lft.to/lastmile_qr_scan"}, "is_reserved": 0, "fusion_lon": 0.0, "fusion_lat": 0.0, "lon": -77.0361135, "name": "7431709309c5b53778df40289d4141a8"}, {"bike_id": "10d484bc0209cf3645a5939b2c5a0a31", "type": "electric_scooter", "is_disabled": 0, "lat": 38.9072505, "rental_uris": {"ios": "https://dc.lft.to/lastmile_qr_scan", "android": "https://dc.lft.to/lastmile_qr_scan"}, "is_reserved": 0, "fusion_lon": 0.0, "fusion_lat": 0.0, "lon": -77.03213966666667, "name": "10d484bc0209cf3645a5939b2c5a0a31"}, {"bike_id": "46730be23b11a91d69082856d2c40b29", "type": "electric_scooter", "is_disabled": 0, "lat": 38.905557333333334, "rental_uris": {"ios": "https://dc.lft.to/lastmile_qr_scan", "android": "https://dc.lft.to/lastmile_qr_scan"}, "is_reserved": 0, "fusion_lon": 0.0, "fusion_lat": 0.0, "lon": -77.05141666666667, "name": "46730be23b11a91d69082856d2c40b29"}, {"bike_id": "ff80e9a500cebdfff856a9489cc3a7ec", "type": "electric_scooter", "is_disabled": 0, "lat": 38.92188183333333, "rental_uris": {"ios": "https://dc.lft.to/lastmile_qr_scan", "android": "https://dc.lft.to/lastmile_qr_scan"}, "is_reserved": 0, "fusion_lon": 0.0, "fusion_lat": 0.0, "lon": -77.020925, "name": "ff80e9a500cebdfff856a9489cc3a7ec"}, {"bike_id": "ff2e067744bcbc0438906f0d6c28a212", "type": "electric_scooter", "is_disabled": 0, "lat": 38.909304166666665, "rental_uris": {"ios": "https://dc.lft.to/lastmile_qr_scan", "android": "https://dc.lft.to/lastmile_qr_scan"}, "is_reserved": 0, "fusion_lon": 0.0, "fusion_lat": 0.0, "lon": -77.04936683333334, "name": "ff2e067744bcbc0438906f0d6c28a212"}, {"bike_id": "6d607e3ef3d4efa8ab5a7781f8a676f6", "type": "electric_scooter", "is_disabled": 0, "lat": 38.9142925, "rental_uris": {"ios": "https://dc.lft.to/lastmile_qr_scan", "android": "https://dc.lft.to/lastmile_qr_scan"}, "is_reserved": 0, "fusion_lon": 0.0, "fusion_lat": 0.0, "lon": -77.03250983333334, "name": "6d607e3ef3d4efa8ab5a7781f8a676f6"}, {"bike_id": "9a7b4f0abeb75dbc2a338680325d6bcd", "type": "electric_scooter", "is_disabled": 0, "lat": 38.92219816666667, "rental_uris": {"ios": "https://dc.lft.to/lastmile_qr_scan", "android": "https://dc.lft.to/lastmile_qr_scan"}, "is_reserved": 0, "fusion_lon": 0.0, "fusion_lat": 0.0, "lon": -77.0267185, "name": "9a7b4f0abeb75dbc2a338680325d6bcd"}, {"bike_id": "df211499197fa8064f106af4bb8cea0e", "type": "electric_scooter", "is_disabled": 0, "lat": 38.936934, "rental_uris": {"ios": "https://dc.lft.to/lastmile_qr_scan", "android": "https://dc.lft.to/lastmile_qr_scan"}, "is_reserved": 0, "fusion_lon": 0.0, "fusion_lat": 0.0, "lon": -77.03263066666666, "name": "df211499197fa8064f106af4bb8cea0e"}, {"bike_id": "96fb80a4e75d4f97ec846d9a756c3ac9", "type": "electric_scooter", "is_disabled": 0, "lat": 38.92170383333333, "rental_uris": {"ios": "https://dc.lft.to/lastmile_qr_scan", "android": "https://dc.lft.to/lastmile_qr_scan"}, "is_reserved": 0, "fusion_lon": 0.0, "fusion_lat": 0.0, "lon": -77.040234, "name": "96fb80a4e75d4f97ec846d9a756c3ac9"}, {"bike_id": "5a6600e1be2b0edb76508596bd08150a", "type": "electric_scooter", "is_disabled": 0, "lat": 38.91543683333333, "rental_uris": {"ios": "https://dc.lft.to/lastmile_qr_scan", "android": "https://dc.lft.to/lastmile_qr_scan"}, "is_reserved": 0, "fusion_lon": 0.0, "fusion_lat": 0.0, "lon": -77.01221183333334, "name": "5a6600e1be2b0edb76508596bd08150a"}, {"bike_id": "36b9067fc5049cb2ff1c6db68aab538b", "type": "electric_scooter", "is_disabled": 0, "lat": 38.91695416666666, "rental_uris": {"ios": "https://dc.lft.to/lastmile_qr_scan", "android": "https://dc.lft.to/lastmile_qr_scan"}, "is_reserved": 0, "fusion_lon": 0.0, "fusion_lat": 0.0, "lon": -77.01051816666667, "name": "36b9067fc5049cb2ff1c6db68aab538b"}, {"bike_id": "0e2e27c22184f54c9af41b544725f05b", "type": "electric_scooter", "is_disabled": 0, "lat": 38.868892, "rental_uris": {"ios": "https://dc.lft.to/lastmile_qr_scan", "android": "https://dc.lft.to/lastmile_qr_scan"}, "is_reserved": 0, "fusion_lon": 0.0, "fusion_lat": 0.0, "lon": -76.98312233333333, "name": "0e2e27c22184f54c9af41b544725f05b"}, {"bike_id": "3815d6f4e0b30b412f8ce85e2c8b85a6", "type": "electric_scooter", "is_disabled": 0, "lat": 38.93968483333333, "rental_uris": {"ios": "https://dc.lft.to/lastmile_qr_scan", "android": "https://dc.lft.to/lastmile_qr_scan"}, "is_reserved": 0, "fusion_lon": 0.0, "fusion_lat": 0.0, "lon": -77.03757416666667, "name": "3815d6f4e0b30b412f8ce85e2c8b85a6"}, {"bike_id": "04bce3fb141fc4a790928137d289a41a", "type": "electric_bike", "is_disabled": 0, "lat": 38.995313833333334, "rental_uris": {"ios": "https://dc.lft.to/lastmile_qr_scan", "android": "https://dc.lft.to/lastmile_qr_scan"}, "is_reserved": 0, "fusion_lon": 0.0, "fusion_lat": 0.0, "lon": -77.06950316666666, "name": "04bce3fb141fc4a790928137d289a41a"}, {"bike_id": "311e5d2ad38c5ea391e127e14134da5f", "type": "electric_scooter", "is_disabled": 0, "lat": 38.90348616666667, "rental_uris": {"ios": "https://dc.lft.to/lastmile_qr_scan", "android": "https://dc.lft.to/lastmile_qr_scan"}, "is_reserved": 0, "fusion_lon": 0.0, "fusion_lat": 0.0, "lon": -77.03642166666667, "name": "311e5d2ad38c5ea391e127e14134da5f"}, {"bike_id": "8b8a2b01739395a38db2d823d85823a7", "type": "electric_scooter", "is_disabled": 0, "lat": 38.876469166666666, "rental_uris": {"ios": "https://dc.lft.to/lastmile_qr_scan", "android": "https://dc.lft.to/lastmile_qr_scan"}, "is_reserved": 0, "fusion_lon": 0.0, "fusion_lat": 0.0, "lon": -76.96502816666667, "name": "8b8a2b01739395a38db2d823d85823a7"}, {"bike_id": "8f02de5f56f8fed13cfd072765ea38b2", "type": "electric_scooter", "is_disabled": 0, "lat": 38.965688166666666, "rental_uris": {"ios": "https://dc.lft.to/lastmile_qr_scan", "android": "https://dc.lft.to/lastmile_qr_scan"}, "is_reserved": 0, "fusion_lon": 0.0, "fusion_lat": 0.0, "lon": -77.02771983333334, "name": "8f02de5f56f8fed13cfd072765ea38b2"}, {"bike_id": "ffe63cd5e70808157b1bddbb6fe4f1de", "type": "electric_scooter", "is_disabled": 0, "lat": 38.897395833333334, "rental_uris": {"ios": "https://dc.lft.to/lastmile_qr_scan", "android": "https://dc.lft.to/lastmile_qr_scan"}, "is_reserved": 0, "fusion_lon": 0.0, "fusion_lat": 0.0, "lon": -77.02923666666666, "name": "ffe63cd5e70808157b1bddbb6fe4f1de"}, {"bike_id": "b88ce3c0d0ab23e43d23b6d7af1a35a0", "type": "electric_scooter", "is_disabled": 0, "lat": 38.90016266666667, "rental_uris": {"ios": "https://dc.lft.to/lastmile_qr_scan", "android": "https://dc.lft.to/lastmile_qr_scan"}, "is_reserved": 0, "fusion_lon": 0.0, "fusion_lat": 0.0, "lon": -77.01130966666666, "name": "b88ce3c0d0ab23e43d23b6d7af1a35a0"}, {"bike_id": "2f5072c95401b1b1f981254d4592e685", "type": "electric_scooter", "is_disabled": 0, "lat": 38.93724916666667, "rental_uris": {"ios": "https://dc.lft.to/lastmile_qr_scan", "android": "https://dc.lft.to/lastmile_qr_scan"}, "is_reserved": 0, "fusion_lon": 0.0, "fusion_lat": 0.0, "lon": -77.02526, "name": "2f5072c95401b1b1f981254d4592e685"}, {"bike_id": "2ee973fa29de67e87385d396f07783a5", "type": "electric_scooter", "is_disabled": 0, "lat": 38.973669666666666, "rental_uris": {"ios": "https://dc.lft.to/lastmile_qr_scan", "android": "https://dc.lft.to/lastmile_qr_scan"}, "is_reserved": 0, "fusion_lon": 0.0, "fusion_lat": 0.0, "lon": -77.01862566666667, "name": "2ee973fa29de67e87385d396f07783a5"}, {"bike_id": "e3b36999d9324ab16fce97b9969249e2", "type": "electric_scooter", "is_disabled": 0, "lat": 38.92117866666667, "rental_uris": {"ios": "https://dc.lft.to/lastmile_qr_scan", "android": "https://dc.lft.to/lastmile_qr_scan"}, "is_reserved": 0, "fusion_lon": 0.0, "fusion_lat": 0.0, "lon": -77.01207283333333, "name": "e3b36999d9324ab16fce97b9969249e2"}, {"bike_id": "3390a823f67a80a2e36a8c42564fc495", "type": "electric_scooter", "is_disabled": 0, "lat": 38.8775225, "rental_uris": {"ios": "https://dc.lft.to/lastmile_qr_scan", "android": "https://dc.lft.to/lastmile_qr_scan"}, "is_reserved": 0, "fusion_lon": 0.0, "fusion_lat": 0.0, "lon": -76.9868405, "name": "3390a823f67a80a2e36a8c42564fc495"}, {"bike_id": "a0e0a6c68d36e7d4bafbbe343f0db037", "type": "electric_scooter", "is_disabled": 0, "lat": 38.91561983333333, "rental_uris": {"ios": "https://dc.lft.to/lastmile_qr_scan", "android": "https://dc.lft.to/lastmile_qr_scan"}, "is_reserved": 0, "fusion_lon": 0.0, "fusion_lat": 0.0, "lon": -77.00976416666667, "name": "a0e0a6c68d36e7d4bafbbe343f0db037"}, {"bike_id": "ebbe6a838274c89e03db06c24f29bcbf", "type": "electric_scooter", "is_disabled": 0, "lat": 38.9167715, "rental_uris": {"ios": "https://dc.lft.to/lastmile_qr_scan", "android": "https://dc.lft.to/lastmile_qr_scan"}, "is_reserved": 0, "fusion_lon": 0.0, "fusion_lat": 0.0, "lon": -77.036838, "name": "ebbe6a838274c89e03db06c24f29bcbf"}, {"bike_id": "d523210563c26f53da245d12bd408ab1", "type": "electric_bike", "is_disabled": 0, "lat": 39.05056233333333, "rental_uris": {"ios": "https://dc.lft.to/lastmile_qr_scan", "android": "https://dc.lft.to/lastmile_qr_scan"}, "is_reserved": 0, "fusion_lon": 0.0, "fusion_lat": 0.0, "lon": -77.05146283333333, "name": "d523210563c26f53da245d12bd408ab1"}, {"bike_id": "f6518d1c72d9dd3060564eb797c3f588", "type": "electric_scooter", "is_disabled": 0, "lat": 38.902674, "rental_uris": {"ios": "https://dc.lft.to/lastmile_qr_scan", "android": "https://dc.lft.to/lastmile_qr_scan"}, "is_reserved": 0, "fusion_lon": 0.0, "fusion_lat": 0.0, "lon": -77.0175725, "name": "f6518d1c72d9dd3060564eb797c3f588"}, {"bike_id": "2c6e0a70e3ea41ed9a9ddbc674b47799", "type": "electric_scooter", "is_disabled": 0, "lat": 38.9056665, "rental_uris": {"ios": "https://dc.lft.to/lastmile_qr_scan", "android": "https://dc.lft.to/lastmile_qr_scan"}, "is_reserved": 0, "fusion_lon": 0.0, "fusion_lat": 0.0, "lon": -76.97780116666667, "name": "2c6e0a70e3ea41ed9a9ddbc674b47799"}, {"bike_id": "46cd14239aa35bf70149201974bf6ae1", "type": "electric_scooter", "is_disabled": 0, "lat": 38.93994883333333, "rental_uris": {"ios": "https://dc.lft.to/lastmile_qr_scan", "android": "https://dc.lft.to/lastmile_qr_scan"}, "is_reserved": 0, "fusion_lon": 0.0, "fusion_lat": 0.0, "lon": -77.0169235, "name": "46cd14239aa35bf70149201974bf6ae1"}, {"bike_id": "286a45bd422669a8607baac479f1525a", "type": "electric_bike", "is_disabled": 0, "lat": 38.8324515, "rental_uris": {"ios": "https://dc.lft.to/lastmile_qr_scan", "android": "https://dc.lft.to/lastmile_qr_scan"}, "is_reserved": 0, "fusion_lon": 0.0, "fusion_lat": 0.0, "lon": -76.94629383333333, "name": "286a45bd422669a8607baac479f1525a"}, {"bike_id": "09f24fe1f2c3e43d8dfad9abc6886c1c", "type": "electric_scooter", "is_disabled": 0, "lat": 38.9160115, "rental_uris": {"ios": "https://dc.lft.to/lastmile_qr_scan", "android": "https://dc.lft.to/lastmile_qr_scan"}, "is_reserved": 0, "fusion_lon": 0.0, "fusion_lat": 0.0, "lon": -77.02404233333333, "name": "09f24fe1f2c3e43d8dfad9abc6886c1c"}, {"bike_id": "015860d1cf71fe061349aac8293eaa1b", "type": "electric_scooter", "is_disabled": 0, "lat": 38.911097, "rental_uris": {"ios": "https://dc.lft.to/lastmile_qr_scan", "android": "https://dc.lft.to/lastmile_qr_scan"}, "is_reserved": 0, "fusion_lon": 0.0, "fusion_lat": 0.0, "lon": -77.03252133333334, "name": "015860d1cf71fe061349aac8293eaa1b"}, {"bike_id": "2cea94f386a1441fd6ae56e0a785a865", "type": "electric_scooter", "is_disabled": 0, "lat": 38.895670333333335, "rental_uris": {"ios": "https://dc.lft.to/lastmile_qr_scan", "android": "https://dc.lft.to/lastmile_qr_scan"}, "is_reserved": 0, "fusion_lon": 0.0, "fusion_lat": 0.0, "lon": -76.93028933333333, "name": "2cea94f386a1441fd6ae56e0a785a865"}, {"bike_id": "989c57766ca91a73133fded03fc4b044", "type": "electric_scooter", "is_disabled": 0, "lat": 38.9041005, "rental_uris": {"ios": "https://dc.lft.to/lastmile_qr_scan", "android": "https://dc.lft.to/lastmile_qr_scan"}, "is_reserved": 0, "fusion_lon": 0.0, "fusion_lat": 0.0, "lon": -76.97331416666667, "name": "989c57766ca91a73133fded03fc4b044"}, {"bike_id": "7cb809c6bd99898ac4a54f671df2e9b5", "type": "electric_scooter", "is_disabled": 0, "lat": 38.90373816666666, "rental_uris": {"ios": "https://dc.lft.to/lastmile_qr_scan", "android": "https://dc.lft.to/lastmile_qr_scan"}, "is_reserved": 0, "fusion_lon": 0.0, "fusion_lat": 0.0, "lon": -77.007455, "name": "7cb809c6bd99898ac4a54f671df2e9b5"}, {"bike_id": "26f9fae0bd1568ad0f7571eae55f9252", "type": "electric_scooter", "is_disabled": 0, "lat": 38.93081383333333, "rental_uris": {"ios": "https://dc.lft.to/lastmile_qr_scan", "android": "https://dc.lft.to/lastmile_qr_scan"}, "is_reserved": 0, "fusion_lon": 0.0, "fusion_lat": 0.0, "lon": -77.03651766666667, "name": "26f9fae0bd1568ad0f7571eae55f9252"}, {"bike_id": "2751e0b7762ed764f44f50e16d635bc2", "type": "electric_scooter", "is_disabled": 0, "lat": 38.9068705, "rental_uris": {"ios": "https://dc.lft.to/lastmile_qr_scan", "android": "https://dc.lft.to/lastmile_qr_scan"}, "is_reserved": 0, "fusion_lon": 0.0, "fusion_lat": 0.0, "lon": -77.05328, "name": "2751e0b7762ed764f44f50e16d635bc2"}, {"bike_id": "caf3c1159de113ec988998d2554e5410", "type": "electric_scooter", "is_disabled": 0, "lat": 38.86252, "rental_uris": {"ios": "https://dc.lft.to/lastmile_qr_scan", "android": "https://dc.lft.to/lastmile_qr_scan"}, "is_reserved": 0, "fusion_lon": 0.0, "fusion_lat": 0.0, "lon": -76.992628, "name": "caf3c1159de113ec988998d2554e5410"}, {"bike_id": "2e4c0b749a8d958d6069f0d5a70c55d0", "type": "electric_scooter", "is_disabled": 0, "lat": 38.92269066666667, "rental_uris": {"ios": "https://dc.lft.to/lastmile_qr_scan", "android": "https://dc.lft.to/lastmile_qr_scan"}, "is_reserved": 0, "fusion_lon": 0.0, "fusion_lat": 0.0, "lon": -77.01975266666666, "name": "2e4c0b749a8d958d6069f0d5a70c55d0"}, {"bike_id": "169b81751cccf7277933ed9265f04107", "type": "electric_scooter", "is_disabled": 0, "lat": 38.863737666666665, "rental_uris": {"ios": "https://dc.lft.to/lastmile_qr_scan", "android": "https://dc.lft.to/lastmile_qr_scan"}, "is_reserved": 0, "fusion_lon": 0.0, "fusion_lat": 0.0, "lon": -76.99059333333334, "name": "169b81751cccf7277933ed9265f04107"}, {"bike_id": "0d4bfe36f6e9989e84314c2ed51a26a5", "type": "electric_scooter", "is_disabled": 0, "lat": 38.912539, "rental_uris": {"ios": "https://dc.lft.to/lastmile_qr_scan", "android": "https://dc.lft.to/lastmile_qr_scan"}, "is_reserved": 0, "fusion_lon": 0.0, "fusion_lat": 0.0, "lon": -77.03862733333334, "name": "0d4bfe36f6e9989e84314c2ed51a26a5"}, {"bike_id": "fbf5a6dcd92a1747ace495789fb2eb48", "type": "electric_scooter", "is_disabled": 0, "lat": 38.89240933333333, "rental_uris": {"ios": "https://dc.lft.to/lastmile_qr_scan", "android": "https://dc.lft.to/lastmile_qr_scan"}, "is_reserved": 0, "fusion_lon": 0.0, "fusion_lat": 0.0, "lon": -77.03958716666666, "name": "fbf5a6dcd92a1747ace495789fb2eb48"}, {"bike_id": "6304fc29ce693d76a12b147c7021d989", "type": "electric_scooter", "is_disabled": 0, "lat": 38.90729616666667, "rental_uris": {"ios": "https://dc.lft.to/lastmile_qr_scan", "android": "https://dc.lft.to/lastmile_qr_scan"}, "is_reserved": 0, "fusion_lon": 0.0, "fusion_lat": 0.0, "lon": -77.00575366666666, "name": "6304fc29ce693d76a12b147c7021d989"}, {"bike_id": "012ca383f5c482ad5e3857dd3dff6d02", "type": "electric_scooter", "is_disabled": 0, "lat": 38.91640183333333, "rental_uris": {"ios": "https://dc.lft.to/lastmile_qr_scan", "android": "https://dc.lft.to/lastmile_qr_scan"}, "is_reserved": 0, "fusion_lon": 0.0, "fusion_lat": 0.0, "lon": -77.04804733333333, "name": "012ca383f5c482ad5e3857dd3dff6d02"}, {"bike_id": "0c4d1039d603bc0d65a26a3e4d292f20", "type": "electric_scooter", "is_disabled": 0, "lat": 38.90563566666667, "rental_uris": {"ios": "https://dc.lft.to/lastmile_qr_scan", "android": "https://dc.lft.to/lastmile_qr_scan"}, "is_reserved": 0, "fusion_lon": 0.0, "fusion_lat": 0.0, "lon": -77.00563466666667, "name": "0c4d1039d603bc0d65a26a3e4d292f20"}, {"bike_id": "665839f2832a14640b89a80219294a6d", "type": "electric_bike", "is_disabled": 0, "lat": 38.90829816666667, "rental_uris": {"ios": "https://dc.lft.to/lastmile_qr_scan", "android": "https://dc.lft.to/lastmile_qr_scan"}, "is_reserved": 0, "fusion_lon": 0.0, "fusion_lat": 0.0, "lon": -76.94156366666667, "name": "665839f2832a14640b89a80219294a6d"}, {"bike_id": "07e8403ce7b9d0994273d6c1a93f79bf", "type": "electric_scooter", "is_disabled": 0, "lat": 38.923551333333336, "rental_uris": {"ios": "https://dc.lft.to/lastmile_qr_scan", "android": "https://dc.lft.to/lastmile_qr_scan"}, "is_reserved": 0, "fusion_lon": 0.0, "fusion_lat": 0.0, "lon": -77.035316, "name": "07e8403ce7b9d0994273d6c1a93f79bf"}, {"bike_id": "600d974754e269a070fe09fcf3c41bf6", "type": "electric_scooter", "is_disabled": 0, "lat": 38.908074666666664, "rental_uris": {"ios": "https://dc.lft.to/lastmile_qr_scan", "android": "https://dc.lft.to/lastmile_qr_scan"}, "is_reserved": 0, "fusion_lon": 0.0, "fusion_lat": 0.0, "lon": -77.02025966666666, "name": "600d974754e269a070fe09fcf3c41bf6"}, {"bike_id": "b536fd4ec48d373853492a0dc586f75d", "type": "electric_scooter", "is_disabled": 0, "lat": 38.9372975, "rental_uris": {"ios": "https://dc.lft.to/lastmile_qr_scan", "android": "https://dc.lft.to/lastmile_qr_scan"}, "is_reserved": 0, "fusion_lon": 0.0, "fusion_lat": 0.0, "lon": -77.05966283333333, "name": "b536fd4ec48d373853492a0dc586f75d"}, {"bike_id": "9dd79c67b0035e3b8f325fac02aebc11", "type": "electric_scooter", "is_disabled": 0, "lat": 38.90717933333333, "rental_uris": {"ios": "https://dc.lft.to/lastmile_qr_scan", "android": "https://dc.lft.to/lastmile_qr_scan"}, "is_reserved": 0, "fusion_lon": 0.0, "fusion_lat": 0.0, "lon": -77.0254055, "name": "9dd79c67b0035e3b8f325fac02aebc11"}, {"bike_id": "1d0bae9df71c7ba3087703e9207fec55", "type": "electric_scooter", "is_disabled": 0, "lat": 38.88699866666666, "rental_uris": {"ios": "https://dc.lft.to/lastmile_qr_scan", "android": "https://dc.lft.to/lastmile_qr_scan"}, "is_reserved": 0, "fusion_lon": 0.0, "fusion_lat": 0.0, "lon": -77.0137705, "name": "1d0bae9df71c7ba3087703e9207fec55"}, {"bike_id": "94399172edebeb34b67baa07cbb0603e", "type": "electric_scooter", "is_disabled": 0, "lat": 38.8740995, "rental_uris": {"ios": "https://dc.lft.to/lastmile_qr_scan", "android": "https://dc.lft.to/lastmile_qr_scan"}, "is_reserved": 0, "fusion_lon": 0.0, "fusion_lat": 0.0, "lon": -77.00205783333334, "name": "94399172edebeb34b67baa07cbb0603e"},