{"data": {"bikes": [{"lat": 38.9233515, "fusion_lat": 0.0, "type": "electric_scooter", "name": "fd779a8dbdc1a16b20db257ba5bf2439", "is_disabled": 0, "bike_id": "fd779a8dbdc1a16b20db257ba5bf2439", "lon": -77.0204885, "rental_uris": {"android": "https://dc.lft.to/lastmile_qr_scan", "ios": "https://dc.lft.to/lastmile_qr_scan"}, "fusion_lon": 0.0, "is_reserved": 0}, {"lat": 38.92384416666667, "fusion_lat": 0.0, "type": "electric_scooter", "name": "a8375002474781e3629700e6009ec6ae", "is_disabled": 0, "bike_id": "a8375002474781e3629700e6009ec6ae", "lon": -77.03100216666667, "rental_uris": {"android": "https://dc.lft.to/lastmile_qr_scan", "ios": "https://dc.lft.to/lastmile_qr_scan"}, "fusion_lon": 0.0, "is_reserved": 0}, {"lat": 38.9169705, "fusion_lat": 0.0, "type": "electric_scooter", "name": "5308e41aee3f38ffadeb298db7658583", "is_disabled": 0, "bike_id": "5308e41aee3f38ffadeb298db7658583", "lon": -77.03491433333333, "rental_uris": {"android": "https://dc.lft.to/lastmile_qr_scan", "ios": "https://dc.lft.to/lastmile_qr_scan"}, "fusion_lon": 0.0, "is_reserved": 0}, {"lat": 38.914057666666665, "fusion_lat": 0.0, "type": "electric_scooter", "name": "a102d6a9da448142029a9022c0b2a7bd", "is_disabled": 0, "bike_id": "a102d6a9da448142029a9022c0b2a7bd", "lon": -77.032172, "rental_uris": {"android": "https://dc.lft.to/lastmile_qr_scan", "ios": "https://dc.lft.to/lastmile_qr_scan"}, "fusion_lon": 0.0, "is_reserved": 0}, {"lat": 38.898445833333334, "fusion_lat": 0.0, "type": "electric_scooter", "name": "9f8711534e7faf73b401c65198d21066", "is_disabled": 0, "bike_id": "9f8711534e7faf73b401c65198d21066", "lon": -76.97825116666667, "rental_uris": {"android": "https://dc.lft.to/lastmile_qr_scan", "ios": "https://dc.lft.to/lastmile_qr_scan"}, "fusion_lon": 0.0, "is_reserved": 0}, {"lat": 38.93891466666667, "fusion_lat": 0.0, "type": "electric_scooter", "name": "0def27370e56b3f8a5e11969d2db4de1", "is_disabled": 0, "bike_id": "0def27370e56b3f8a5e11969d2db4de1", "lon": -77.03335116666666, "rental_uris": {"android": "https://dc.lft.to/lastmile_qr_scan", "ios": "https://dc.lft.to/lastmile_qr_scan"}, "fusion_lon": 0.0, "is_reserved": 0}, {"lat": 38.866572166666664, "fusion_lat": 0.0, "type": "electric_scooter", "name": "f276fcaa6c8f3560025dfcc05ce48a46", "is_disabled": 0, "bike_id": "f276fcaa6c8f3560025dfcc05ce48a46", "lon": -76.98878283333333, "rental_uris": {"android": "https://dc.lft.to/lastmile_qr_scan", "ios": "https://dc.lft.to/lastmile_qr_scan"}, "fusion_lon": 0.0, "is_reserved": 0}, {"lat": 38.957365, "fusion_lat": 0.0, "type": "electric_scooter", "name": "a2db83eedf6e3af301b713557f646deb", "is_disabled": 0, "bike_id": "a2db83eedf6e3af301b713557f646deb", "lon": -77.00219833333334, "rental_uris": {"android": "https://dc.lft.to/lastmile_qr_scan", "ios": "https://dc.lft.to/lastmile_qr_scan"}, "fusion_lon": 0.0, "is_reserved": 0}, {"lat": 38.897603833333335, "fusion_lat": 0.0, "type": "electric_scooter", "name": "909f5af678e9bef040f5da9e265224ba", "is_disabled": 0, "bike_id": "909f5af678e9bef040f5da9e265224ba", "lon": -77.04891733333334, "rental_uris": {"android": "https://dc.lft.to/lastmile_qr_scan", "ios": "https://dc.lft.to/lastmile_qr_scan"}, "fusion_lon": 0.0, "is_reserved": 0}, {"lat": 38.92359, "fusion_lat": 0.0, "type": "electric_scooter", "name": "18455fe311535fc6528a862a0d24458e", "is_disabled": 0, "bike_id": "18455fe311535fc6528a862a0d24458e", "lon": -77.03387133333334, "rental_uris": {"android": "https://dc.lft.to/lastmile_qr_scan", "ios": "https://dc.lft.to/lastmile_qr_scan"}, "fusion_lon": 0.0, "is_reserved": 0}, {"lat": 38.8984775, "fusion_lat": 0.0, "type": "electric_scooter", "name": "e1f39b2aa967eb243b1c9b09be05f988", "is_disabled": 0, "bike_id": "e1f39b2aa967eb243b1c9b09be05f988", "lon": -77.03348033333333, "rental_uris": {"android": "https://dc.lft.to/lastmile_qr_scan", "ios": "https://dc.lft.to/lastmile_qr_scan"}, "fusion_lon": 0.0, "is_reserved": 0}, {"lat": 38.909622666666664, "fusion_lat": 0.0, "type": "electric_bike", "name": "3b311ac6bd97ede0b66371fcfd633a35", "is_disabled": 0, "bike_id": "3b311ac6bd97ede0b66371fcfd633a35", "lon": -77.22888283333333, "rental_uris": {"android": "https://dc.lft.to/lastmile_qr_scan", "ios": "https://dc.lft.to/lastmile_qr_scan"}, "fusion_lon": 0.0, "is_reserved": 0}, {"lat": 38.923388333333335, "fusion_lat": 0.0, "type": "electric_scooter", "name": "ebf765e1db72a026ef768630798fb268", "is_disabled": 0, "bike_id": "ebf765e1db72a026ef768630798fb268", "lon": -77.02963733333333, "rental_uris": {"android": "https://dc.lft.to/lastmile_qr_scan", "ios": "https://dc.lft.to/lastmile_qr_scan"}, "fusion_lon": 0.0, "is_reserved": 0}, {"lat": 38.88017083333333, "fusion_lat": 0.0, "type": "electric_scooter", "name": "47333498da6bc42bc2f73ee79cc1799c", "is_disabled": 0, "bike_id": "47333498da6bc42bc2f73ee79cc1799c", "lon": -77.00253616666667, "rental_uris": {"android": "https://dc.lft.to/lastmile_qr_scan", "ios": "https://dc.lft.to/lastmile_qr_scan"}, "fusion_lon": 0.0, "is_reserved": 0}, {"lat": 38.93421633333333, "fusion_lat": 0.0, "type": "electric_scooter", "name": "cfa1d5af2f1282dbecd26ebe2910e757", "is_disabled": 0, "bike_id": "cfa1d5af2f1282dbecd26ebe2910e757", "lon": -77.04408583333333, "rental_uris": {"android": "https://dc.lft.to/lastmile_qr_scan", "ios": "https://dc.lft.to/lastmile_qr_scan"}, "fusion_lon": 0.0, "is_reserved": 0}, {"lat": 38.905054166666666, "fusion_lat": 0.0, "type": "electric_scooter", "name": "1651ea3deda6dbfb325f6a3c44f2acc1", "is_disabled": 0, "bike_id": "1651ea3deda6dbfb325f6a3c44f2acc1", "lon": -77.01986816666667, "rental_uris": {"android": "https://dc.lft.to/lastmile_qr_scan", "ios": "https://dc.lft.to/lastmile_qr_scan"}, "fusion_lon": 0.0, "is_reserved": 0}, {"lat": 38.8935475, "fusion_lat": 0.0, "type": "electric_bike", "name": "07a519065ef8bceb22e934435502eeca", "is_disabled": 0, "bike_id": "07a519065ef8bceb22e934435502eeca", "lon": -77.1874135, "rental_uris": {"android": "https://dc.lft.to/lastmile_qr_scan", "ios": "https://dc.lft.to/lastmile_qr_scan"}, "fusion_lon": 0.0, "is_reserved": 0}, {"lat": 38.906734, "fusion_lat": 0.0, "type": "electric_scooter", "name": "24f57a3cab16aaaf8fa6e42adc1fdd3a", "is_disabled": 0, "bike_id": "24f57a3cab16aaaf8fa6e42adc1fdd3a", "lon": -77.02705483333334, "rental_uris": {"android": "https://dc.lft.to/lastmile_qr_scan", "ios": "https://dc.lft.to/lastmile_qr_scan"}, "fusion_lon": 0.0, "is_reserved": 0}, {"lat": 38.865135, "fusion_lat": 0.0, "type": "electric_scooter", "name": "0d07c2e6449b36241f2368bd315e207e", "is_disabled": 0, "bike_id": "0d07c2e6449b36241f2368bd315e207e", "lon": -76.99006383333334, "rental_uris": {"android": "https://dc.lft.to/lastmile_qr_scan", "ios": "https://dc.lft.to/lastmile_qr_scan"}, "fusion_lon": 0.0, "is_reserved": 0}, {"lat": 38.92330316666666, "fusion_lat": 0.0, "type": "electric_scooter", "name": "65ef9be0504a75df9fe88c9433e50285", "is_disabled": 0, "bike_id": "65ef9be0504a75df9fe88c9433e50285", "lon": -77.019155, "rental_uris": {"android": "https://dc.lft.to/lastmile_qr_scan", "ios": "https://dc.lft.to/lastmile_qr_scan"}, "fusion_lon": 0.0, "is_reserved": 0}, {"lat": 38.89626, "fusion_lat": 0.0, "type": "electric_scooter", "name": "3fb7c5e7b31517ced444259dfe6d22d5", "is_disabled": 0, "bike_id": "3fb7c5e7b31517ced444259dfe6d22d5", "lon": -77.03955666666667, "rental_uris": {"android": "https://dc.lft.to/lastmile_qr_scan", "ios": "https://dc.lft.to/lastmile_qr_scan"}, "fusion_lon": 0.0, "is_reserved": 0}, {"lat": 38.833772, "fusion_lat": 0.0, "type": "electric_bike", "name": "ffab8a84878c090a126e09ad98f51a1d", "is_disabled": 0, "bike_id": "ffab8a84878c090a126e09ad98f51a1d", "lon": -77.00295533333333, "rental_uris": {"android": "https://dc.lft.to/lastmile_qr_scan", "ios": "https://dc.lft.to/lastmile_qr_scan"}, "fusion_lon": 0.0, "is_reserved": 0}, {"lat": 38.925906833333336, "fusion_lat": 0.0, "type": "electric_scooter", "name": "0830df83f0344e3e7547f6e60b893378", "is_disabled": 0, "bike_id": "0830df83f0344e3e7547f6e60b893378", "lon": -77.03226333333333, "rental_uris": {"android": "https://dc.lft.to/lastmile_qr_scan", "ios": "https://dc.lft.to/lastmile_qr_scan"}, "fusion_lon": 0.0, "is_reserved": 0}, {"lat": 38.92781383333333, "fusion_lat": 0.0, "type": "electric_scooter", "name": "c2e5a4e0ee0c631c2c8520c3c83cbbf7", "is_disabled": 0, "bike_id": "c2e5a4e0ee0c631c2c8520c3c83cbbf7", "lon": -77.052607, "rental_uris": {"android": "https://dc.lft.to/lastmile_qr_scan", "ios": "https://dc.lft.to/lastmile_qr_scan"}, "fusion_lon": 0.0, "is_reserved": 0}, {"lat": 38.922745166666665, "fusion_lat": 0.0, "type": "electric_scooter", "name": "850feb6324125d3ab06d3b21d7b368a2", "is_disabled": 0, "bike_id": "850feb6324125d3ab06d3b21d7b368a2", "lon": -77.021214, "rental_uris": {"android": "https://dc.lft.to/lastmile_qr_scan", "ios": "https://dc.lft.to/lastmile_qr_scan"}, "fusion_lon": 0.0, "is_reserved": 0}, {"lat": 38.919068333333335, "fusion_lat": 0.0, "type": "electric_scooter", "name": "26bf6d28c644fbea3f8734e53f2fe207", "is_disabled": 0, "bike_id": "26bf6d28c644fbea3f8734e53f2fe207", "lon": -77.02074133333333, "rental_uris": {"android": "https://dc.lft.to/lastmile_qr_scan", "ios": "https://dc.lft.to/lastmile_qr_scan"}, "fusion_lon": 0.0, "is_reserved": 0}, {"lat": 38.92156116666666, "fusion_lat": 0.0, "type": "electric_scooter", "name": "b323655d923fad1c901137250fc564e9", "is_disabled": 0, "bike_id": "b323655d923fad1c901137250fc564e9", "lon": -77.03391516666667, "rental_uris": {"android": "https://dc.lft.to/lastmile_qr_scan", "ios": "https://dc.lft.to/lastmile_qr_scan"}, "fusion_lon": 0.0, "is_reserved": 0}, {"lat": 38.8772575, "fusion_lat": 0.0, "type": "electric_scooter", "name": "8667dcf24689a5f76a51817923dfdfe0", "is_disabled": 0, "bike_id": "8667dcf24689a5f76a51817923dfdfe0", "lon": -77.00350666666667, "rental_uris": {"android": "https://dc.lft.to/lastmile_qr_scan", "ios": "https://dc.lft.to/lastmile_qr_scan"}, "fusion_lon": 0.0, "is_reserved": 0}, {"lat": 38.90305166666667, "fusion_lat": 0.0, "type": "electric_scooter", "name": "54d1cfc58864301e2a50d8b1d55ec346", "is_disabled": 0, "bike_id": "54d1cfc58864301e2a50d8b1d55ec346", "lon": -77.034376, "rental_uris": {"android": "https://dc.lft.to/lastmile_qr_scan", "ios": "https://dc.lft.to/lastmile_qr_scan"}, "fusion_lon": 0.0, "is_reserved": 0}, {"lat": 38.89878783333333, "fusion_lat": 0.0, "type": "electric_scooter", "name": "2aa09e6fdf1dab30a6faf7e8b5b36c9f", "is_disabled": 0, "bike_id": "2aa09e6fdf1dab30a6faf7e8b5b36c9f", "lon": -77.00923783333333, "rental_uris": {"android": "https://dc.lft.to/lastmile_qr_scan", "ios": "https://dc.lft.to/lastmile_qr_scan"}, "fusion_lon": 0.0, "is_reserved": 0}, {"lat": 38.90012183333333, "fusion_lat": 0.0, "type": "electric_scooter", "name": "a6098afc869888a735d3a7eb49c9d1d2", "is_disabled": 0, "bike_id": "a6098afc869888a735d3a7eb49c9d1d2", "lon": -77.04053216666667, "rental_uris": {"android": "https://dc.lft.to/lastmile_qr_scan", "ios": "https://dc.lft.to/lastmile_qr_scan"}, "fusion_lon": 0.0, "is_reserved": 0}, {"lat": 38.894918, "fusion_lat": 0.0, "type": "electric_scooter", "name": "af30269c67bb5d9a38bdaf638c05e858", "is_disabled": 0, "bike_id": "af30269c67bb5d9a38bdaf638c05e858", "lon": -77.00298366666667, "rental_uris": {"android": "https://dc.lft.to/lastmile_qr_scan", "ios": "https://dc.lft.to/lastmile_qr_scan"}, "fusion_lon": 0.0, "is_reserved": 0}, {"lat": 38.8969705, "fusion_lat": 0.0, "type": "electric_scooter", "name": "6b1ffd89d57bf9deb7648d2af67e4680", "is_disabled": 0, "bike_id": "6b1ffd89d57bf9deb7648d2af67e4680", "lon": -77.0241345, "rental_uris": {"android": "https://dc.lft.to/lastmile_qr_scan", "ios": "https://dc.lft.to/lastmile_qr_scan"}, "fusion_lon": 0.0, "is_reserved": 0}, {"lat": 38.90038583333333, "fusion_lat": 0.0, "type": "electric_scooter", "name": "77699e26a6c4e5fc3ae5946921a86a54", "is_disabled": 0, "bike_id": "77699e26a6c4e5fc3ae5946921a86a54", "lon": -77.0118045, "rental_uris": {"android": "https://dc.lft.to/lastmile_qr_scan", "ios": "https://dc.lft.to/lastmile_qr_scan"}, "fusion_lon": 0.0, "is_reserved": 0}, {"lat": 38.8623265, "fusion_lat": 0.0, "type": "electric_bike", "name": "f542d4ca81b5d97725bdd2433e0b300a", "is_disabled": 0, "bike_id": "f542d4ca81b5d97725bdd2433e0b300a", "lon": -76.952905, "rental_uris": {"android": "https://dc.lft.to/lastmile_qr_scan", "ios": "https://dc.lft.to/lastmile_qr_scan"}, "fusion_lon": 0.0, "is_reserved": 0}, {"lat": 38.87429616666667, "fusion_lat": 0.0, "type": "electric_scooter", "name": "3a771f2e9d59440a9773014011b43a99", "is_disabled": 0, "bike_id": "3a771f2e9d59440a9773014011b43a99", "lon": -77.00032083333333, "rental_uris": {"android": "https://dc.lft.to/lastmile_qr_scan", "ios": "https://dc.lft.to/lastmile_qr_scan"}, "fusion_lon": 0.0, "is_reserved": 0}, {"lat": 38.9052165, "fusion_lat": 0.0, "type": "electric_scooter", "name": "f4f741ac2b0d1ddf1ac3615974f19352", "is_disabled": 0, "bike_id": "f4f741ac2b0d1ddf1ac3615974f19352", "lon": -77.04148233333333, "rental_uris": {"android": "https://dc.lft.to/lastmile_qr_scan", "ios": "https://dc.lft.to/lastmile_qr_scan"}, "fusion_lon": 0.0, "is_reserved": 0}, {"lat": 38.93920766666667, "fusion_lat": 0.0, "type": "electric_scooter", "name": "0a5cdbca4525bdc4b84cd700fb8e8a7f", "is_disabled": 0, "bike_id": "0a5cdbca4525bdc4b84cd700fb8e8a7f", "lon": -77.0603795, "rental_uris": {"android": "https://dc.lft.to/lastmile_qr_scan", "ios": "https://dc.lft.to/lastmile_qr_scan"}, "fusion_lon": 0.0, "is_reserved": 0}, {"lat": 38.905313666666665, "fusion_lat": 0.0, "type": "electric_scooter", "name": "4a087f37bebe240f57c5f9806dc770cc", "is_disabled": 0, "bike_id": "4a087f37bebe240f57c5f9806dc770cc", "lon": -76.996669, "rental_uris": {"android": "https://dc.lft.to/lastmile_qr_scan", "ios": "https://dc.lft.to/lastmile_qr_scan"}, "fusion_lon": 0.0, "is_reserved": 0}, {"lat": 38.9038415, "fusion_lat": 0.0, "type": "electric_scooter", "name": "7bc937ca7641dc7946d8e7cb9ea567f1", "is_disabled": 0, "bike_id": "7bc937ca7641dc7946d8e7cb9ea567f1", "lon": -77.0453655, "rental_uris": {"android": "https://dc.lft.to/lastmile_qr_scan", "ios": "https://dc.lft.to/lastmile_qr_scan"}, "fusion_lon": 0.0, "is_reserved": 0}, {"lat": 38.91317033333333, "fusion_lat": 0.0, "type": "electric_scooter", "name": "1aa9c9d95635637d868e7b09aa7c5ee4", "is_disabled": 0, "bike_id": "1aa9c9d95635637d868e7b09aa7c5ee4", "lon": -77.033163, "rental_uris": {"android": "https://dc.lft.to/lastmile_qr_scan", "ios": "https://dc.lft.to/lastmile_qr_scan"}, "fusion_lon": 0.0, "is_reserved": 0}, {"lat": 38.90739466666667, "fusion_lat": 0.0, "type": "electric_scooter", "name": "f6fe3bff4270c9f2c331eb29e73d97ed", "is_disabled": 0, "bike_id": "f6fe3bff4270c9f2c331eb29e73d97ed", "lon": -77.04285283333333, "rental_uris": {"android": "https://dc.lft.to/lastmile_qr_scan", "ios": "https://dc.lft.to/lastmile_qr_scan"}, "fusion_lon": 0.0, "is_reserved": 0}, {"lat": 38.89991633333333, "fusion_lat": 0.0, "type": "electric_scooter", "name": "2da1fe8ead24c9a9b9b6f7e12b659d60", "is_disabled": 0, "bike_id": "2da1fe8ead24c9a9b9b6f7e12b659d60", "lon": -76.98082166666667, "rental_uris": {"android": "https://dc.lft.to/lastmile_qr_scan", "ios": "https://dc.lft.to/lastmile_qr_scan"}, "fusion_lon": 0.0, "is_reserved": 0}, {"lat": 38.8780515, "fusion_lat": 0.0, "type": "electric_scooter", "name": "5d62996572acfa3032746d85646d6776", "is_disabled": 0, "bike_id": "5d62996572acfa3032746d85646d6776", "lon": -77.0177185, "rental_uris": {"android": "https://dc.lft.to/lastmile_qr_scan", "ios": "https://dc.lft.to/lastmile_qr_scan"}, "fusion_lon": 0.0, "is_reserved": 0}, {"lat": 38.804564666666664, "fusion_lat": 0.0, "type": "electric_bike", "name": "bb28092e87e08a6a8e2b4cd229cda93e", "is_disabled": 0, "bike_id": "bb28092e87e08a6a8e2b4cd229cda93e", "lon": -77.05395966666667, "rental_uris": {"android": "https://dc.lft.to/lastmile_qr_scan", "ios": "https://dc.lft.to/lastmile_qr_scan"}, "fusion_lon": 0.0, "is_reserved": 0}, {"lat": 38.91891916666667, "fusion_lat": 0.0, "type": "electric_scooter", "name": "7cf17e47fc46aa7057f8ccb1438c8b39", "is_disabled": 0, "bike_id": "7cf17e47fc46aa7057f8ccb1438c8b39", "lon": -77.04169866666666, "rental_uris": {"android": "https://dc.lft.to/lastmile_qr_scan", "ios": "https://dc.lft.to/lastmile_qr_scan"}, "fusion_lon": 0.0, "is_reserved": 0}, {"lat": 38.89736533333333, "fusion_lat": 0.0, "type": "electric_scooter", "name": "f0c4654725608cf1321138dea8f5ad65", "is_disabled": 0, "bike_id": "f0c4654725608cf1321138dea8f5ad65", "lon": -77.04773816666666, "rental_uris": {"android": "https://dc.lft.to/lastmile_qr_scan", "ios": "https://dc.lft.to/lastmile_qr_scan"}, "fusion_lon": 0.0, "is_reserved": 0}, {"lat": 38.899666, "fusion_lat": 0.0, "type": "electric_scooter", "name": "80542b5e0dd98f1567218613fb2e61b4", "is_disabled": 0, "bike_id": "80542b5e0dd98f1567218613fb2e61b4", "lon": -77.04512266666667, "rental_uris": {"android": "https://dc.lft.to/lastmile_qr_scan", "ios": "https://dc.lft.to/lastmile_qr_scan"}, "fusion_lon": 0.0, "is_reserved": 0}, {"lat": 38.9267605, "fusion_lat": 0.0, "type": "electric_scooter", "name": "dc1aa7800af902a4bde50274da983cf8", "is_disabled": 0, "bike_id": "dc1aa7800af902a4bde50274da983cf8", "lon": -77.01483633333334, "rental_uris": {"android": "https://dc.lft.to/lastmile_qr_scan", "ios": "https://dc.lft.to/lastmile_qr_scan"}, "fusion_lon": 0.0, "is_reserved": 0}, {"lat": 38.898454666666666, "fusion_lat": 0.0, "type": "electric_scooter", "name": "27cc72867ac7ba91d1ad963426ea5284", "is_disabled": 0, "bike_id": "27cc72867ac7ba91d1ad963426ea5284", "lon": -77.04153483333333, "rental_uris": {"android": "https://dc.lft.to/lastmile_qr_scan", "ios": "https://dc.lft.to/lastmile_qr_scan"}, "fusion_lon": 0.0, "is_reserved": 0}, {"lat": 38.891657333333335, "fusion_lat": 0.0, "type": "electric_scooter", "name": "15e22d04f46338c92227ef7692884f66", "is_disabled": 0, "bike_id": "15e22d04f46338c92227ef7692884f66", "lon": -77.01541083333333, "rental_uris": {"android": "https://dc.lft.to/lastmile_qr_scan", "ios": "https://dc.lft.to/lastmile_qr_scan"}, "fusion_lon": 0.0, "is_reserved": 0}, {"lat": 38.923424, "fusion_lat": 0.0, "type": "electric_scooter", "name": "7d13ce1f15d4cb1c052f8036b19711a1", "is_disabled": 0, "bike_id": "7d13ce1f15d4cb1c052f8036b19711a1", "lon": -77.01918383333333, "rental_uris": {"android": "https://dc.lft.to/lastmile_qr_scan", "ios": "https://dc.lft.to/lastmile_qr_scan"}, "fusion_lon": 0.0, "is_reserved": 0}, {"lat": 38.897320666666666, "fusion_lat": 0.0, "type": "electric_scooter", "name": "f56e5416bc36574d1969c2767124f5e5", "is_disabled": 0, "bike_id": "f56e5416bc36574d1969c2767124f5e5", "lon": -77.0295835, "rental_uris": {"android": "https://dc.lft.to/lastmile_qr_scan", "ios": "https://dc.lft.to/lastmile_qr_scan"}, "fusion_lon": 0.0, "is_reserved": 0}, {"lat": 38.898036833333336, "fusion_lat": 0.0, "type": "electric_bike", "name": "005a2ad711b98b7bc484c40c996ab6c2", "is_disabled": 0, "bike_id": "005a2ad711b98b7bc484c40c996ab6c2", "lon": -77.0418755, "rental_uris": {"android": "https://dc.lft.to/lastmile_qr_scan", "ios": "https://dc.lft.to/lastmile_qr_scan"}, "fusion_lon": 0.0, "is_reserved": 0}, {"lat": 38.895287833333335, "fusion_lat": 0.0, "type": "electric_scooter", "name": "cc65f5b503d75447955c31ebdb47f610", "is_disabled": 0, "bike_id": "cc65f5b503d75447955c31ebdb47f610", "lon": -77.0293115, "rental_uris": {"android": "https://dc.lft.to/lastmile_qr_scan", "ios": "https://dc.lft.to/lastmile_qr_scan"}, "fusion_lon": 0.0, "is_reserved": 0}, {"lat": 38.956388, "fusion_lat": 0.0, "type": "electric_bike", "name": "daf2b7db15a68ffd2bb2aafaa34c3ee4", "is_disabled": 0, "bike_id": "daf2b7db15a68ffd2bb2aafaa34c3ee4", "lon": -76.93875466666667, "rental_uris": {"android": "https://dc.lft.to/lastmile_qr_scan", "ios": "https://dc.lft.to/lastmile_qr_scan"}, "fusion_lon": 0.0, "is_reserved": 0}, {"lat": 38.89795266666667, "fusion_lat": 0.0, "type": "electric_scooter", "name": "73b06c5ead4e1e892a57a80eb574d118", "is_disabled": 0, "bike_id": "73b06c5ead4e1e892a57a80eb574d118", "lon": -77.00658416666667, "rental_uris": {"android": "https://dc.lft.to/lastmile_qr_scan", "ios": "https://dc.lft.to/lastmile_qr_scan"}, "fusion_lon": 0.0, "is_reserved": 0}, {"lat": 38.91525583333333, "fusion_lat": 0.0, "type": "electric_scooter", "name": "7f009f507655da795192919efe82fb00", "is_disabled": 0, "bike_id": "7f009f507655da795192919efe82fb00", "lon": -77.027079, "rental_uris": {"android": "https://dc.lft.to/lastmile_qr_scan", "ios": "https://dc.lft.to/lastmile_qr_scan"}, "fusion_lon": 0.0, "is_reserved": 0}, {"lat": 38.9110095, "fusion_lat": 0.0, "type": "electric_scooter", "name": "844574ae649c440ddfa27eccca134e57", "is_disabled": 0, "bike_id": "844574ae649c440ddfa27eccca134e57", "lon": -77.03186183333334, "rental_uris": {"android": "https://dc.lft.to/lastmile_qr_scan", "ios": "https://dc.lft.to/lastmile_qr_scan"}, "fusion_lon": 0.0, "is_reserved": 0}, {"lat": 38.892919166666665, "fusion_lat": 0.0, "type": "electric_bike", "name": "f8b8aa7018a85edb633a02731cea1616", "is_disabled": 0, "bike_id": "f8b8aa7018a85edb633a02731cea1616", "lon": -76.976173, "rental_uris": {"android": "https://dc.lft.to/lastmile_qr_scan", "ios": "https://dc.lft.to/lastmile_qr_scan"}, "fusion_lon": 0.0, "is_reserved": 0}, {"lat": 38.86001866666667, "fusion_lat": 0.0, "type": "electric_scooter", "name": "45c16c136cecd09329d951a68caf8e14", "is_disabled": 0, "bike_id": "45c16c136cecd09329d951a68caf8e14", "lon": -76.98516816666667, "rental_uris": {"android": "https://dc.lft.to/lastmile_qr_scan", "ios": "https://dc.lft.to/lastmile_qr_scan"}, "fusion_lon": 0.0, "is_reserved": 0}, {"lat": 38.903256999999996, "fusion_lat": 0.0, "type": "electric_scooter", "name": "888be2799c3ab3126a592f28d35c1bce", "is_disabled": 0, "bike_id": "888be2799c3ab3126a592f28d35c1bce", "lon": -77.02407016666666, "rental_uris": {"android": "https://dc.lft.to/lastmile_qr_scan", "ios": "https://dc.lft.to/lastmile_qr_scan"}, "fusion_lon": 0.0, "is_reserved": 0}, {"lat": 38.8873485, "fusion_lat": 0.0, "type": "electric_scooter", "name": "f84e87c77ac3de3dda846c81c1f80f93", "is_disabled": 0, "bike_id": "f84e87c77ac3de3dda846c81c1f80f93", "lon": -77.02834666666666, "rental_uris": {"android": "https://dc.lft.to/lastmile_qr_scan", "ios": "https://dc.lft.to/lastmile_qr_scan"}, "fusion_lon": 0.0, "is_reserved": 0}, {"lat": 38.92183833333333, "fusion_lat": 0.0, "type": "electric_scooter", "name": "864c404496a8ccdb25a537c0b83272ec", "is_disabled": 0, "bike_id": "864c404496a8ccdb25a537c0b83272ec", "lon": -77.0392215, "rental_uris": {"android": "https://dc.lft.to/lastmile_qr_scan", "ios": "https://dc.lft.to/lastmile_qr_scan"}, "fusion_lon": 0.0, "is_reserved": 0}, {"lat": 38.909812333333335, "fusion_lat": 0.0, "type": "electric_scooter", "name": "ba0eaa35c7b6a84219893a68cc36ed3c", "is_disabled": 0, "bike_id": "ba0eaa35c7b6a84219893a68cc36ed3c", "lon": -76.99496283333333, "rental_uris": {"android": "https://dc.lft.to/lastmile_qr_scan", "ios": "https://dc.lft.to/lastmile_qr_scan"}, "fusion_lon": 0.0, "is_reserved": 0}, {"lat": 38.9498135, "fusion_lat": 0.0, "type": "electric_scooter", "name": "83e8bc8fe9d0fc99ca679883955ad2d3", "is_disabled": 0, "bike_id": "83e8bc8fe9d0fc99ca679883955ad2d3", "lon": -77.02693166666667, "rental_uris": {"android": "https://dc.lft.to/lastmile_qr_scan", "ios": "https://dc.lft.to/lastmile_qr_scan"}, "fusion_lon": 0.0, "is_reserved": 0}, {"lat": 38.90686766666666, "fusion_lat": 0.0, "type": "electric_scooter", "name": "3dfa255368af7316f6ec18a092f17e7e", "is_disabled": 0, "bike_id": "3dfa255368af7316f6ec18a092f17e7e", "lon": -77.02692216666667, "rental_uris": {"android": "https://dc.lft.to/lastmile_qr_scan", "ios": "https://dc.lft.to/lastmile_qr_scan"}, "fusion_lon": 0.0, "is_reserved": 0}, {"lat": 38.8989885, "fusion_lat": 0.0, "type": "electric_scooter", "name": "54996923a8302f3d1b10bdbdf2283a5d", "is_disabled": 0, "bike_id": "54996923a8302f3d1b10bdbdf2283a5d", "lon": -77.04672066666667, "rental_uris": {"android": "https://dc.lft.to/lastmile_qr_scan", "ios": "https://dc.lft.to/lastmile_qr_scan"}, "fusion_lon": 0.0, "is_reserved": 0}, {"lat": 38.902664333333334, "fusion_lat": 0.0, "type": "electric_scooter", "name": "9d0e467a6d2aaedf78dd6acf4d868cdd", "is_disabled": 0, "bike_id": "9d0e467a6d2aaedf78dd6acf4d868cdd", "lon": -77.0032775, "rental_uris": {"android": "https://dc.lft.to/lastmile_qr_scan", "ios": "https://dc.lft.to/lastmile_qr_scan"}, "fusion_lon": 0.0, "is_reserved": 0}, {"lat": 38.837623666666666, "fusion_lat": 0.0, "type": "electric_bike", "name": "62e7d90ee924ee5329eb9cc01dc89576", "is_disabled": 0, "bike_id": "62e7d90ee924ee5329eb9cc01dc89576", "lon": -77.04994216666667, "rental_uris": {"android": "https://dc.lft.to/lastmile_qr_scan", "ios": "https://dc.lft.to/lastmile_qr_scan"}, "fusion_lon": 0.0, "is_reserved": 0}, {"lat": 38.9170905, "fusion_lat": 0.0, "type": "electric_scooter", "name": "4ee01b2d81a6f13c92635a65e9a1d8d0", "is_disabled": 0, "bike_id": "4ee01b2d81a6f13c92635a65e9a1d8d0", "lon": -77.02840133333333, "rental_uris": {"android": "https://dc.lft.to/lastmile_qr_scan", "ios": "https://dc.lft.to/lastmile_qr_scan"}, "fusion_lon": 0.0, "is_reserved": 0}, {"lat": 38.90507933333333, "fusion_lat": 0.0, "type": "electric_scooter", "name": "bab3cda6b35e8fb327c7a98f71dc66df", "is_disabled": 0, "bike_id": "bab3cda6b35e8fb327c7a98f71dc66df", "lon": -77.064987, "rental_uris": {"android": "https://dc.lft.to/lastmile_qr_scan", "ios": "https://dc.lft.to/lastmile_qr_scan"}, "fusion_lon": 0.0, "is_reserved": 0}, {"lat": 38.9016405, "fusion_lat": 0.0, "type": "electric_scooter", "name": "1f7fb4f5fa60ffcaf9975e188a3f8b9c", "is_disabled": 0, "bike_id": "1f7fb4f5fa60ffcaf9975e188a3f8b9c", "lon": -76.9307105, "rental_uris": {"android": "https://dc.lft.to/lastmile_qr_scan", "ios": "https://dc.lft.to/lastmile_qr_scan"}, "fusion_lon": 0.0, "is_reserved": 0}, {"lat": 38.94984016666667, "fusion_lat": 0.0, "type": "electric_bike", "name": "1146c247a7c15875c0c4c80248c12f8b", "is_disabled": 0, "bike_id": "1146c247a7c15875c0c4c80248c12f8b", "lon": -77.08017916666667, "rental_uris": {"android": "https://dc.lft.to/lastmile_qr_scan", "ios": "https://dc.lft.to/lastmile_qr_scan"}, "fusion_lon": 0.0, "is_reserved": 0}, {"lat": 38.9068795, "fusion_lat": 0.0, "type": "electric_scooter", "name": "c1f85fcb63d3c0f247731a10fa6c58bb", "is_disabled": 0, "bike_id": "c1f85fcb63d3c0f247731a10fa6c58bb", "lon": -77.05147516666666, "rental_uris": {"android": "https://dc.lft.to/lastmile_qr_scan", "ios": "https://dc.lft.to/lastmile_qr_scan"}, "fusion_lon": 0.0, "is_reserved": 0}, {"lat": 38.94563683333333, "fusion_lat": 0.0, "type": "electric_scooter", "name": "c1bbe6900928431f04d57b3a9b3df9d7", "is_disabled": 0, "bike_id": "c1bbe6900928431f04d57b3a9b3df9d7", "lon": -77.07960066666666, "rental_uris": {"android": "https://dc.lft.to/lastmile_qr_scan", "ios": "https://dc.lft.to/lastmile_qr_scan"}, "fusion_lon": 0.0, "is_reserved": 0}, {"lat": 38.91915866666667, "fusion_lat": 0.0, "type": "electric_scooter", "name": "8b9b02f281b981be89639c9d15236177", "is_disabled": 0, "bike_id": "8b9b02f281b981be89639c9d15236177", "lon": -77.01203783333334, "rental_uris": {"android": "https://dc.lft.to/lastmile_qr_scan", "ios": "https://dc.lft.to/lastmile_qr_scan"}, "fusion_lon": 0.0, "is_reserved": 0}, {"lat": 38.88301166666667, "fusion_lat": 0.0, "type": "electric_scooter", "name": "cc08166bc9cf803e7d7d1253084ce6a0", "is_disabled": 0, "bike_id": "cc08166bc9cf803e7d7d1253084ce6a0", "lon": -76.94852283333333, "rental_uris": {"android": "https://dc.lft.to/lastmile_qr_scan", "ios": "https://dc.lft.to/lastmile_qr_scan"}, "fusion_lon": 0.0, "is_reserved": 0}, {"lat": 38.8924415, "fusion_lat": 0.0, "type": "electric_scooter", "name": "779dc0580a15f64dfef16d1dc68709fb", "is_disabled": 0, "bike_id": "779dc0580a15f64dfef16d1dc68709fb", "lon": -77.03188033333333, "rental_uris": {"android": "https://dc.lft.to/lastmile_qr_scan", "ios": "https://dc.lft.to/lastmile_qr_scan"}, "fusion_lon": 0.0, "is_reserved": 0}, {"lat": 38.892356, "fusion_lat": 0.0, "type": "electric_scooter", "name": "44549cb357f3a96e65ef87e455e5bdd1", "is_disabled": 0, "bike_id": "44549cb357f3a96e65ef87e455e5bdd1", "lon": -77.04161783333333, "rental_uris": {"android": "https://dc.lft.to/lastmile_qr_scan", "ios": "https://dc.lft.to/lastmile_qr_scan"}, "fusion_lon": 0.0, "is_reserved": 0}, {"lat": 38.91419483333333, "fusion_lat": 0.0, "type": "electric_scooter", "name": "b210e20c08ed631204916a25f9bcf009", "is_disabled": 0, "bike_id": "b210e20c08ed631204916a25f9bcf009", "lon": -77.03171133333333, "rental_uris": {"android": "https://dc.lft.to/lastmile_qr_scan", "ios": "https://dc.lft.to/lastmile_qr_scan"}, "fusion_lon": 0.0, "is_reserved": 0}, {"lat": 38.88516, "fusion_lat": 0.0, "type": "electric_bike", "name": "d3194993358362f513264a8603e715b5", "is_disabled": 0, "bike_id": "d3194993358362f513264a8603e715b5", "lon": -76.95158616666667, "rental_uris": {"android": "https://dc.lft.to/lastmile_qr_scan", "ios": "https://dc.lft.to/lastmile_qr_scan"}, "fusion_lon": 0.0, "is_reserved": 0}, {"lat": 38.921008, "fusion_lat": 0.0, "type": "electric_scooter", "name": "e9aaf7aa94ccc03f9aa6ccad053ef4a0", "is_disabled": 0, "bike_id": "e9aaf7aa94ccc03f9aa6ccad053ef4a0", "lon": -77.04702316666666, "rental_uris": {"android": "https://dc.lft.to/lastmile_qr_scan", "ios": "https://dc.lft.to/lastmile_qr_scan"}, "fusion_lon": 0.0, "is_reserved": 0}, {"lat": 38.9035225, "fusion_lat": 0.0, "type": "electric_scooter", "name": "02f39ef6cf5cb58444dba6d56d15cce2", "is_disabled": 0, "bike_id": "02f39ef6cf5cb58444dba6d56d15cce2", "lon": -77.0387395, "rental_uris": {"android": "https://dc.lft.to/lastmile_qr_scan", "ios": "https://dc.lft.to/lastmile_qr_scan"}, "fusion_lon": 0.0, "is_reserved": 0}, {"lat": 38.865039833333334, "fusion_lat": 0.0, "type": "electric_scooter", "name": "b8f1055f32e79701f43d7433a67a53a1", "is_disabled": 0, "bike_id": "b8f1055f32e79701f43d7433a67a53a1", "lon": -76.990008, "rental_uris": {"android": "https://dc.lft.to/lastmile_qr_scan", "ios": "https://dc.lft.to/lastmile_qr_scan"}, "fusion_lon": 0.0, "is_reserved": 0}, {"lat": 38.8937305, "fusion_lat": 0.0, "type": "electric_scooter", "name": "ce325726b3bacd196a3af98f1ebe63f1", "is_disabled": 0, "bike_id": "ce325726b3bacd196a3af98f1ebe63f1", "lon": -76.94812383333333, "rental_uris": {"android": "https://dc.lft.to/lastmile_qr_scan", "ios": "https://dc.lft.to/lastmile_qr_scan"}, "fusion_lon": 0.0, "is_reserved": 0}, {"lat": 38.917093333333334, "fusion_lat": 0.0, "type": "electric_scooter", "name": "63ba1eacd4d526be3bedcd5b2a027ac3", "is_disabled": 0, "bike_id": "63ba1eacd4d526be3bedcd5b2a027ac3", "lon": -77.02788616666666, "rental_uris": {"android": "https://dc.lft.to/lastmile_qr_scan", "ios": "https://dc.lft.to/lastmile_qr_scan"}, "fusion_lon": 0.0, "is_reserved": 0}, {"lat": 38.906766833333336, "fusion_lat": 0.0, "type": "electric_scooter", "name": "3804bc52d65230b4bcba6dc21a34bffc", "is_disabled": 0, "bike_id": "3804bc52d65230b4bcba6dc21a34bffc", "lon": -77.03815183333333, "rental_uris": {"android": "https://dc.lft.to/lastmile_qr_scan", "ios": "https://dc.lft.to/lastmile_qr_scan"}, "fusion_lon": 0.0, "is_reserved": 0}, {"lat": 38.88428533333333, "fusion_lat": 0.0, "type": "electric_scooter", "name": "ad8c1a4e30d7aa9901355bef385f3c23", "is_disabled": 0, "bike_id": "ad8c1a4e30d7aa9901355bef385f3c23", "lon": -76.957557, "rental_uris": {"android": "https://dc.lft.to/lastmile_qr_scan", "ios": "https://dc.lft.to/lastmile_qr_scan"}, "fusion_lon": 0.0, "is_reserved": 0}, {"lat": 38.94816316666667, "fusion_lat": 0.0, "type": "electric_scooter", "name": "55d86db28f510a5b24d7fed7395e823d", "is_disabled": 0, "bike_id": "55d86db28f510a5b24d7fed7395e823d", "lon": -77.03283466666667, "rental_uris": {"android": "https://dc.lft.to/lastmile_qr_scan", "ios": "https://dc.lft.to/lastmile_qr_scan"}, "fusion_lon": 0.0, "is_reserved": 0}, {"lat": 38.89222133333333, "fusion_lat": 0.0, "type": "electric_scooter", "name": "c27a57eb9ea4d23ed3571decf6658589", "is_disabled": 0, "bike_id": "c27a57eb9ea4d23ed3571decf6658589", "lon": -77.04690983333333, "rental_uris": {"android": "https://dc.lft.to/lastmile_qr_scan", "ios": "https://dc.lft.to/lastmile_qr_scan"}, "fusion_lon": 0.0, "is_reserved": 0}, {"lat": 38.901378666666666, "fusion_lat": 0.0, "type": "electric_scooter", "name": "05dee1d6500fce8889e6e9222a181800", "is_disabled": 0, "bike_id": "05dee1d6500fce8889e6e9222a181800", "lon": -76.99802016666666, "rental_uris": {"android": "https://dc.lft.to/lastmile_qr_scan", "ios": "https://dc.lft.to/lastmile_qr_scan"}, "fusion_lon": 0.0, "is_reserved": 0}, {"lat": 38.92666283333333, "fusion_lat": 0.0, "type": "electric_scooter", "name": "e8b292edf9fc07b6336da4dd7cc3d6b3", "is_disabled": 0, "bike_id": "e8b292edf9fc07b6336da4dd7cc3d6b3", "lon": -76.99535183333333, "rental_uris": {"android": "https://dc.lft.to/lastmile_qr_scan", "ios": "https://dc.lft.to/lastmile_qr_scan"}, "fusion_lon": 0.0, "is_reserved": 0}, {"lat": 38.90425233333333, "fusion_lat": 0.0, "type": "electric_scooter", "name": "fa5e79208d4927e4e91e4fab15bfec3a", "is_disabled": 0, "bike_id": "fa5e79208d4927e4e91e4fab15bfec3a", "lon": -77.04339666666667, "rental_uris": {"android": "https://dc.lft.to/lastmile_qr_scan", "ios": "https://dc.lft.to/lastmile_qr_scan"}, "fusion_lon": 0.0, "is_reserved": 0}, {"lat": 38.9181085, "fusion_lat": 0.0, "type": "electric_scooter", "name": "dd769ee90d4b9ad9021b84e70155ee2c", "is_disabled": 0, "bike_id": "dd769ee90d4b9ad9021b84e70155ee2c", "lon": -77.02510383333333, "rental_uris": {"android": "https://dc.lft.to/lastmile_qr_scan", "ios": "https://dc.lft.to/lastmile_qr_scan"}, "fusion_lon": 0.0, "is_reserved": 0}, {"lat": 38.92475483333333, "fusion_lat": 0.0, "type": "electric_scooter", "name": "039940e79f0b966e5df287d0b94571aa", "is_disabled": 0, "bike_id": "039940e79f0b966e5df287d0b94571aa", "lon": -77.02204466666667, "rental_uris": {"android": "https://dc.lft.to/lastmile_qr_scan", "ios": "https://dc.lft.to/lastmile_qr_scan"}, "fusion_lon": 0.0, "is_reserved": 0}, {"lat": 38.902829833333335, "fusion_lat": 0.0, "type": "electric_scooter", "name": "0a6d1eb9da269c988cf38d651d61b0a6", "is_disabled": 0, "bike_id": "0a6d1eb9da269c988cf38d651d61b0a6", "lon": -77.0591695, "rental_uris": {"android": "https://dc.lft.to/lastmile_qr_scan", "ios": "https://dc.lft.to/lastmile_qr_scan"}, "fusion_lon": 0.0, "is_reserved": 0}, {"lat": 38.89091883333333, "fusion_lat": 0.0, "type": "electric_scooter", "name": "573e00c5f08710e083dfa518e1619e16", "is_disabled": 0, "bike_id": "573e00c5f08710e083dfa518e1619e16", "lon": -76.99607016666667, "rental_uris": {"android": "https://dc.lft.to/lastmile_qr_scan", "ios": "https://dc.lft.to/lastmile_qr_scan"}, "fusion_lon": 0.0, "is_reserved": 0}, {"lat": 38.89521466666667, "fusion_lat": 0.0, "type": "electric_scooter", "name": "ee527323707081100784dd55640a0225", "is_disabled": 0, "bike_id": "ee527323707081100784dd55640a0225", "lon": -77.04480483333333, "rental_uris": {"android": "https://dc.lft.to/lastmile_qr_scan", "ios": "https://dc.lft.to/lastmile_qr_scan"}, "fusion_lon": 0.0, "is_reserved": 0}, {"lat": 38.857649333333335, "fusion_lat": 0.0, "type": "electric_scooter", "name": "c50537f66f523dcd7c50c5008017f701", "is_disabled": 0, "bike_id": "c50537f66f523dcd7c50c5008017f701", "lon": -76.98883416666666, "rental_uris": {"android": "https://dc.lft.to/lastmile_qr_scan", "ios": "https://dc.lft.to/lastmile_qr_scan"}, "fusion_lon": 0.0, "is_reserved": 0}, {"lat": 38.922661166666664, "fusion_lat": 0.0, "type": "electric_scooter", "name": "d666b6ddae583a409d0472c5e4046ca2", "is_disabled": 0, "bike_id": "d666b6ddae583a409d0472c5e4046ca2", "lon": -77.038842, "rental_uris": {"android": "https://dc.lft.to/lastmile_qr_scan", "ios": "https://dc.lft.to/lastmile_qr_scan"}, "fusion_lon": 0.0, "is_reserved": 0}, {"lat": 38.8862, "fusion_lat": 0.0, "type": "electric_scooter", "name": "702ddf9f74d89869c788580fefff3e95", "is_disabled": 0, "bike_id": "702ddf9f74d89869c788580fefff3e95", "lon": -76.9558325, "rental_uris": {"android": "https://dc.lft.to/lastmile_qr_scan", "ios": "https://dc.lft.to/lastmile_qr_scan"}, "fusion_lon": 0.0, "is_reserved": 0}, {"lat": 38.95403733333333, "fusion_lat": 0.0, "type": "electric_scooter", "name": "605056bf72818cd85682967be351c768", "is_disabled": 0, "bike_id": "605056bf72818cd85682967be351c768", "lon": -77.02745583333333, "rental_uris": {"android": "https://dc.lft.to/lastmile_qr_scan", "ios": "https://dc.lft.to/lastmile_qr_scan"}, "fusion_lon": 0.0, "is_reserved": 0}, {"lat": 38.9222265, "fusion_lat": 0.0, "type": "electric_scooter", "name": "a7e5028fe89ab107396ba202b733c306", "is_disabled": 0, "bike_id": "a7e5028fe89ab107396ba202b733c306", "lon": -77.04242216666667, "rental_uris": {"android": "https://dc.lft.to/lastmile_qr_scan", "ios": "https://dc.lft.to/lastmile_qr_scan"}, "fusion_lon": 0.0, "is_reserved": 0}, {"lat": 38.91400766666667, "fusion_lat": 0.0, "type": "electric_scooter", "name": "442b40e20d4c88b305fa876b14e47668", "is_disabled": 0, "bike_id": "442b40e20d4c88b305fa876b14e47668", "lon": -77.01796266666666, "rental_uris": {"android": "https://dc.lft.to/lastmile_qr_scan", "ios": "https://dc.lft.to/lastmile_qr_scan"}, "fusion_lon": 0.0, "is_reserved": 0}, {"lat": 38.904779166666664, "fusion_lat": 0.0, "type": "electric_scooter", "name": "693994123656a07f34ac98ec8c17b09e", "is_disabled": 0, "bike_id": "693994123656a07f34ac98ec8c17b09e", "lon": -77.0486355, "rental_uris": {"android": "https://dc.lft.to/lastmile_qr_scan", "ios": "https://dc.lft.to/lastmile_qr_scan"}, "fusion_lon": 0.0, "is_reserved": 0}, {"lat": 38.92123016666667, "fusion_lat": 0.0, "type": "electric_scooter", "name": "999034ffd450e5235321c0f0456cc2ea", "is_disabled": 0, "bike_id": "999034ffd450e5235321c0f0456cc2ea", "lon": -77.0435575, "rental_uris": {"android": "https://dc.lft.to/lastmile_qr_scan", "ios": "https://dc.lft.to/lastmile_qr_scan"}, "fusion_lon": 0.0, "is_reserved": 0}, {"lat": 38.89232716666667, "fusion_lat": 0.0, "type": "electric_scooter", "name": "630ef5945f82d3c043ea0edf0ca1dd73", "is_disabled": 0, "bike_id": "630ef5945f82d3c043ea0edf0ca1dd73", "lon": -77.05000166666666, "rental_uris": {"android": "https://dc.lft.to/lastmile_qr_scan", "ios": "https://dc.lft.to/lastmile_qr_scan"}, "fusion_lon": 0.0, "is_reserved": 0}, {"lat": 38.900149666666664, "fusion_lat": 0.0, "type": "electric_scooter", "name": "0de0193a29ca629d0620e2a45fe52053", "is_disabled": 0, "bike_id": "0de0193a29ca629d0620e2a45fe52053", "lon": -77.043749, "rental_uris": {"android": "https://dc.lft.to/lastmile_qr_scan", "ios": "https://dc.lft.to/lastmile_qr_scan"}, "fusion_lon": 0.0, "is_reserved": 0}, {"lat": 38.923787, "fusion_lat": 0.0, "type": "electric_scooter", "name": "9b59c9753466698c4e823a523eec3aba", "is_disabled": 0, "bike_id": "9b59c9753466698c4e823a523eec3aba", "lon": -77.05149066666667, "rental_uris": {"android": "https://dc.lft.to/lastmile_qr_scan", "ios": "https://dc.lft.to/lastmile_qr_scan"}, "fusion_lon": 0.0, "is_reserved": 0}, {"lat": 39.08445866666667, "fusion_lat": 0.0, "type": "electric_bike", "name": "44fb612262ac5a852673e90d037caac9", "is_disabled": 0, "bike_id": "44fb612262ac5a852673e90d037caac9", "lon": -76.95201366666667, "rental_uris": {"android": "https://dc.lft.to/lastmile_qr_scan", "ios": "https://dc.lft.to/lastmile_qr_scan"}, "fusion_lon": 0.0, "is_reserved": 0}, {"lat": 38.94348983333333, "fusion_lat": 0.0, "type": "electric_scooter", "name": "5bbf4f235b0023cdc8bdb8663aa4bcc5", "is_disabled": 0, "bike_id": "5bbf4f235b0023cdc8bdb8663aa4bcc5", "lon": -77.0629235, "rental_uris": {"android": "https://dc.lft.to/lastmile_qr_scan", "ios": "https://dc.lft.to/lastmile_qr_scan"}, "fusion_lon": 0.0, "is_reserved": 0}, {"lat": 38.916703166666665, "fusion_lat": 0.0, "type": "electric_scooter", "name": "2f13fc3a599220f3b2afe1f7482edda8", "is_disabled": 0, "bike_id": "2f13fc3a599220f3b2afe1f7482edda8", "lon": -77.02383966666666, "rental_uris": {"android": "https://dc.lft.to/lastmile_qr_scan", "ios": "https://dc.lft.to/lastmile_qr_scan"}, "fusion_lon": 0.0, "is_reserved": 0}, {"lat": 38.92772716666666, "fusion_lat": 0.0, "type": "electric_scooter", "name": "143ef22ecdd40c2eab0e4b138b340bd3", "is_disabled": 0, "bike_id": "143ef22ecdd40c2eab0e4b138b340bd3", "lon": -77.02898816666666, "rental_uris": {"android": "https://dc.lft.to/lastmile_qr_scan", "ios": "https://dc.lft.to/lastmile_qr_scan"}, "fusion_lon": 0.0, "is_reserved": 0}, {"lat": 38.9282055, "fusion_lat": 0.0, "type": "electric_scooter", "name": "09aeefb674e2d97a05ea16fa14385bf0", "is_disabled": 0, "bike_id": "09aeefb674e2d97a05ea16fa14385bf0", "lon": -77.0433645, "rental_uris": {"android": "https://dc.lft.to/lastmile_qr_scan", "ios": "https://dc.lft.to/lastmile_qr_scan"}, "fusion_lon": 0.0, "is_reserved": 0}, {"lat": 38.919649166666666, "fusion_lat": 0.0, "type": "electric_scooter", "name": "b89f2c5346851a82c7c349780ada58f6", "is_disabled": 0, "bike_id": "b89f2c5346851a82c7c349780ada58f6", "lon": -77.04505666666667, "rental_uris": {"android": "https://dc.lft.to/lastmile_qr_scan", "ios": "https://dc.lft.to/lastmile_qr_scan"}, "fusion_lon": 0.0, "is_reserved": 0}, {"lat": 38.84438766666667, "fusion_lat": 0.0, "type": "electric_scooter", "name": "f1831f1f7b181da5ae22503e951df8f0", "is_disabled": 0, "bike_id": "f1831f1f7b181da5ae22503e951df8f0", "lon": -76.99778183333333, "rental_uris": {"android": "https://dc.lft.to/lastmile_qr_scan", "ios": "https://dc.lft.to/lastmile_qr_scan"}, "fusion_lon": 0.0, "is_reserved": 0}, {"lat": 38.85768483333333, "fusion_lat": 0.0, "type": "electric_scooter", "name": "f0c2c54cd206c33d30a7dd4815a9113b", "is_disabled": 0, "bike_id": "f0c2c54cd206c33d30a7dd4815a9113b", "lon": -76.9930515, "rental_uris": {"android": "https://dc.lft.to/lastmile_qr_scan", "ios": "https://dc.lft.to/lastmile_qr_scan"}, "fusion_lon": 0.0, "is_reserved": 0}, {"lat": 38.8839535, "fusion_lat": 0.0, "type": "electric_bike", "name": "5d8f737c7ab4a5dd78bf031378a81ea6", "is_disabled": 0, "bike_id": "5d8f737c7ab4a5dd78bf031378a81ea6", "lon": -77.01976516666667, "rental_uris": {"android": "https://dc.lft.to/lastmile_qr_scan", "ios": "https://dc.lft.to/lastmile_qr_scan"}, "fusion_lon": 0.0, "is_reserved": 0}, {"lat": 38.935904, "fusion_lat": 0.0, "type": "electric_scooter", "name": "02bd034727a1e02794f43bf54f1686c1", "is_disabled": 0, "bike_id": "02bd034727a1e02794f43bf54f1686c1", "lon": -77.02534383333334, "rental_uris": {"android": "https://dc.lft.to/lastmile_qr_scan", "ios": "https://dc.lft.to/lastmile_qr_scan"}, "fusion_lon": 0.0, "is_reserved": 0}, {"lat": 38.90552733333333, "fusion_lat": 0.0, "type": "electric_scooter", "name": "1ca6f895a579ef5bf6add45130448a78", "is_disabled": 0, "bike_id": "1ca6f895a579ef5bf6add45130448a78", "lon": -77.03255716666666, "rental_uris": {"android": "https://dc.lft.to/lastmile_qr_scan", "ios": "https://dc.lft.to/lastmile_qr_scan"}, "fusion_lon": 0.0, "is_reserved": 0}, {"lat": 38.926460166666665, "fusion_lat": 0.0, "type": "electric_bike", "name": "42fdadf25959776faec7d01f1652940b", "is_disabled": 0, "bike_id": "42fdadf25959776faec7d01f1652940b", "lon": -76.984235, "rental_uris": {"android": "https://dc.lft.to/lastmile_qr_scan", "ios": "https://dc.lft.to/lastmile_qr_scan"}, "fusion_lon": 0.0, "is_reserved": 0}, {"lat": 38.8963715, "fusion_lat": 0.0, "type": "electric_bike", "name": "60127bad8e7a296340b6e3476dfbe7fb", "is_disabled": 0, "bike_id": "60127bad8e7a296340b6e3476dfbe7fb", "lon": -77.04012366666667, "rental_uris": {"android": "https://dc.lft.to/lastmile_qr_scan", "ios": "https://dc.lft.to/lastmile_qr_scan"}, "fusion_lon": 0.0, "is_reserved": 0}, {"lat": 38.90780066666667, "fusion_lat": 0.0, "type": "electric_scooter", "name": "5f6bf1e5f4f0c490df9ad3ebad2da8fc", "is_disabled": 0, "bike_id": "5f6bf1e5f4f0c490df9ad3ebad2da8fc", "lon": -77.04315233333334, "rental_uris": {"android": "https://dc.lft.to/lastmile_qr_scan", "ios": "https://dc.lft.to/lastmile_qr_scan"}, "fusion_lon": 0.0, "is_reserved": 0}, {"lat": 38.9283685, "fusion_lat": 0.0, "type": "electric_scooter", "name": "abbde2d9209cc9adf54442aed74576f9", "is_disabled": 0, "bike_id": "abbde2d9209cc9adf54442aed74576f9", "lon": -77.01409366666667, "rental_uris": {"android": "https://dc.lft.to/lastmile_qr_scan", "ios": "https://dc.lft.to/lastmile_qr_scan"}, "fusion_lon": 0.0, "is_reserved": 0}, {"lat": 38.939238, "fusion_lat": 0.0, "type": "electric_bike", "name": "39bb3a05c93dda111c1daea12b68462b", "is_disabled": 0, "bike_id": "39bb3a05c93dda111c1daea12b68462b", "lon": -76.95509833333334, "rental_uris": {"android": "https://dc.lft.to/lastmile_qr_scan", "ios": "https://dc.lft.to/lastmile_qr_scan"}, "fusion_lon": 0.0, "is_reserved": 0}, {"lat": 38.879865833333334, "fusion_lat": 0.0, "type": "electric_scooter", "name": "3bdaddb780abdb9a575dd02feed7f7bd", "is_disabled": 0, "bike_id": "3bdaddb780abdb9a575dd02feed7f7bd", "lon": -77.02403883333334, "rental_uris": {"android": "https://dc.lft.to/lastmile_qr_scan", "ios": "https://dc.lft.to/lastmile_qr_scan"}, "fusion_lon": 0.0, "is_reserved": 0}, {"lat": 38.923708166666664, "fusion_lat": 0.0, "type": "electric_scooter", "name": "62b27f45a91437fba2c7e0df5bb1cb11", "is_disabled": 0, "bike_id": "62b27f45a91437fba2c7e0df5bb1cb11", "lon": -77.01905316666667, "rental_uris": {"android": "https://dc.lft.to/lastmile_qr_scan", "ios": "https://dc.lft.to/lastmile_qr_scan"}, "fusion_lon": 0.0, "is_reserved": 0}, {"lat": 38.838353166666664, "fusion_lat": 0.0, "type": "electric_bike", "name": "9014537718fa6ba9397b3e0a10ef3468", "is_disabled": 0, "bike_id": "9014537718fa6ba9397b3e0a10ef3468", "lon": -77.0024215, "rental_uris": {"android": "https://dc.lft.to/lastmile_qr_scan", "ios": "https://dc.lft.to/lastmile_qr_scan"}, "fusion_lon": 0.0, "is_reserved": 0}, {"lat": 38.9245715, "fusion_lat": 0.0, "type": "electric_scooter", "name": "d76fbe53a351845bf070483721b9defd", "is_disabled": 0, "bike_id": "d76fbe53a351845bf070483721b9defd", "lon": -77.033002, "rental_uris": {"android": "https://dc.lft.to/lastmile_qr_scan", "ios": "https://dc.lft.to/lastmile_qr_scan"}, "fusion_lon": 0.0, "is_reserved": 0}, {"lat": 38.909045666666664, "fusion_lat": 0.0, "type": "electric_scooter", "name": "1f844727e393fbe6790a62ad9178c543", "is_disabled": 0, "bike_id": "1f844727e393fbe6790a62ad9178c543", "lon": -77.042825, "rental_uris": {"android": "https://dc.lft.to/lastmile_qr_scan", "ios": "https://dc.lft.to/lastmile_qr_scan"}, "fusion_lon": 0.0, "is_reserved": 0}, {"lat": 38.842775333333336, "fusion_lat": 0.0, "type": "electric_bike", "name": "1478085c5c334a0eb59e97058a5cdb5a", "is_disabled": 0, "bike_id": "1478085c5c334a0eb59e97058a5cdb5a", "lon": -76.98818266666666, "rental_uris": {"android": "https://dc.lft.to/lastmile_qr_scan", "ios": "https://dc.lft.to/lastmile_qr_scan"}, "fusion_lon": 0.0, "is_reserved": 0}, {"lat": 38.9013875, "fusion_lat": 0.0, "type": "electric_scooter", "name": "fc810d58bdb90206e413895a57ebfb43", "is_disabled": 0, "bike_id": "fc810d58bdb90206e413895a57ebfb43", "lon": -77.04158166666667, "rental_uris": {"android": "https://dc.lft.to/lastmile_qr_scan", "ios": "https://dc.lft.to/lastmile_qr_scan"}, "fusion_lon": 0.0, "is_reserved": 0}, {"lat": 38.904875, "fusion_lat": 0.0, "type": "electric_scooter", "name": "541aecae71c8c3fb67e77fd99b145744", "is_disabled": 0, "bike_id": "541aecae71c8c3fb67e77fd99b145744", "lon": -77.04333483333333, "rental_uris": {"android": "https://dc.lft.to/lastmile_qr_scan", "ios": "https://dc.lft.to/lastmile_qr_scan"}, "fusion_lon": 0.0, "is_reserved": 0}, {"lat": 38.90225083333333, "fusion_lat": 0.0, "type": "electric_scooter", "name": "5f0dd46bd3257672770686fcb9d48519", "is_disabled": 0, "bike_id": "5f0dd46bd3257672770686fcb9d48519", "lon": -77.03188033333333, "rental_uris": {"android": "https://dc.lft.to/lastmile_qr_scan", "ios": "https://dc.lft.to/lastmile_qr_scan"}, "fusion_lon": 0.0, "is_reserved": 0}, {"lat": 38.917199, "fusion_lat": 0.0, "type": "electric_scooter", "name": "309d43b03489a2f3073f4c6e38f792bb", "is_disabled": 0, "bike_id": "309d43b03489a2f3073f4c6e38f792bb", "lon": -77.03862766666667, "rental_uris": {"android": "https://dc.lft.to/lastmile_qr_scan", "ios": "https://dc.lft.to/lastmile_qr_scan"}, "fusion_lon": 0.0, "is_reserved": 0}, {"lat": 38.9423315, "fusion_lat": 0.0, "type": "electric_scooter", "name": "647d5f10c2e0d9c9c941a8c3b85d9f81", "is_disabled": 0, "bike_id": "647d5f10c2e0d9c9c941a8c3b85d9f81", "lon": -77.01390666666667, "rental_uris": {"android": "https://dc.lft.to/lastmile_qr_scan", "ios": "https://dc.lft.to/lastmile_qr_scan"}, "fusion_lon": 0.0, "is_reserved": 0}, {"lat": 38.996856333333334, "fusion_lat": 0.0, "type": "electric_bike", "name": "0f06b50c671fe830406e9e54b760f9c9", "is_disabled": 0, "bike_id": "0f06b50c671fe830406e9e54b760f9c9", "lon": -77.03831566666666, "rental_uris": {"android": "https://dc.lft.to/lastmile_qr_scan", "ios": "https://dc.lft.to/lastmile_qr_scan"}, "fusion_lon": 0.0, "is_reserved": 0}, {"lat": 38.9252075, "fusion_lat": 0.0, "type": "electric_scooter", "name": "5df4d391c814a488f77a0175d18c7e57", "is_disabled": 0, "bike_id": "5df4d391c814a488f77a0175d18c7e57", "lon": -77.022815, "rental_uris": {"android": "https://dc.lft.to/lastmile_qr_scan", "ios": "https://dc.lft.to/lastmile_qr_scan"}, "fusion_lon": 0.0, "is_reserved": 0}, {"lat": 38.930512, "fusion_lat": 0.0, "type": "electric_scooter", "name": "876e05731fa3f642656840e3cd1ad568", "is_disabled": 0, "bike_id": "876e05731fa3f642656840e3cd1ad568", "lon": -77.02354016666666, "rental_uris": {"android": "https://dc.lft.to/lastmile_qr_scan", "ios": "https://dc.lft.to/lastmile_qr_scan"}, "fusion_lon": 0.0, "is_reserved": 0}, {"lat": 38.92686116666667, "fusion_lat": 0.0, "type": "electric_scooter", "name": "c9878bed0ca70bd58ab909177e1bb672", "is_disabled": 0, "bike_id": "c9878bed0ca70bd58ab909177e1bb672", "lon": -77.00697483333333, "rental_uris": {"android": "https://dc.lft.to/lastmile_qr_scan", "ios": "https://dc.lft.to/lastmile_qr_scan"}, "fusion_lon": 0.0, "is_reserved": 0}, {"lat": 38.923087833333334, "fusion_lat": 0.0, "type": "electric_scooter", "name": "849a59ee5c7d5a10157252b618fd531e", "is_disabled": 0, "bike_id": "849a59ee5c7d5a10157252b618fd531e", "lon": -77.04209816666666, "rental_uris": {"android": "https://dc.lft.to/lastmile_qr_scan", "ios": "https://dc.lft.to/lastmile_qr_scan"}, "fusion_lon": 0.0, "is_reserved": 0}, {"lat": 38.8965825, "fusion_lat": 0.0, "type": "electric_scooter", "name": "d83ab1aa83179dc1b57e02e20727dfb4", "is_disabled": 0, "bike_id": "d83ab1aa83179dc1b57e02e20727dfb4", "lon": -77.05023816666667, "rental_uris": {"android": "https://dc.lft.to/lastmile_qr_scan", "ios": "https://dc.lft.to/lastmile_qr_scan"}, "fusion_lon": 0.0, "is_reserved": 0}, {"lat": 38.908693166666666, "fusion_lat": 0.0, "type": "electric_scooter", "name": "c56738cdd178735db206c5809e3a50f6", "is_disabled": 0, "bike_id": "c56738cdd178735db206c5809e3a50f6", "lon": -77.0449405, "rental_uris": {"android": "https://dc.lft.to/lastmile_qr_scan", "ios": "https://dc.lft.to/lastmile_qr_scan"}, "fusion_lon": 0.0, "is_reserved": 0}, {"lat": 38.88999116666667, "fusion_lat": 0.0, "type": "electric_scooter", "name": "3cb05b57c636ccb9c7829266adb84499", "is_disabled": 0, "bike_id": "3cb05b57c636ccb9c7829266adb84499", "lon": -76.95417816666667, "rental_uris": {"android": "https://dc.lft.to/lastmile_qr_scan", "ios": "https://dc.lft.to/lastmile_qr_scan"}, "fusion_lon": 0.0, "is_reserved": 0}, {"lat": 38.918435833333334, "fusion_lat": 0.0, "type": "electric_scooter", "name": "a77ec1783862aa578e91220b2b7a7e9f", "is_disabled": 0, "bike_id": "a77ec1783862aa578e91220b2b7a7e9f", "lon": -77.0483295, "rental_uris": {"android": "https://dc.lft.to/lastmile_qr_scan", "ios": "https://dc.lft.to/lastmile_qr_scan"}, "fusion_lon": 0.0, "is_reserved": 0}, {"lat": 38.89563583333333, "fusion_lat": 0.0, "type": "electric_scooter", "name": "26199c826c3cfe6006ffa79cadf0289c", "is_disabled": 0, "bike_id": "26199c826c3cfe6006ffa79cadf0289c", "lon": -77.04674816666666, "rental_uris": {"android": "https://dc.lft.to/lastmile_qr_scan", "ios": "https://dc.lft.to/lastmile_qr_scan"}, "fusion_lon": 0.0, "is_reserved": 0}, {"lat": 38.91330833333333, "fusion_lat": 0.0, "type": "electric_scooter", "name": "5fd4bde0865cc5000ba98337b6c1ec0c", "is_disabled": 0, "bike_id": "5fd4bde0865cc5000ba98337b6c1ec0c", "lon": -77.03187216666667, "rental_uris": {"android": "https://dc.lft.to/lastmile_qr_scan", "ios": "https://dc.lft.to/lastmile_qr_scan"}, "fusion_lon": 0.0, "is_reserved": 0}, {"lat": 38.94899383333333, "fusion_lat": 0.0, "type": "electric_bike", "name": "d6aae6e123d1f3f747e125a0caf0e350", "is_disabled": 0, "bike_id": "d6aae6e123d1f3f747e125a0caf0e350", "lon": -76.96373983333334, "rental_uris": {"android": "https://dc.lft.to/lastmile_qr_scan", "ios": "https://dc.lft.to/lastmile_qr_scan"}, "fusion_lon": 0.0, "is_reserved": 0}, {"lat": 38.9032195, "fusion_lat": 0.0, "type": "electric_scooter", "name": "d3ee676cfbe69cdd35442750dbcaf754", "is_disabled": 0, "bike_id": "d3ee676cfbe69cdd35442750dbcaf754", "lon": -76.97547166666666, "rental_uris": {"android": "https://dc.lft.to/lastmile_qr_scan", "ios": "https://dc.lft.to/lastmile_qr_scan"}, "fusion_lon": 0.0, "is_reserved": 0}, {"lat": 38.876289, "fusion_lat": 0.0, "type": "electric_scooter", "name": "03ad858105cc749ac7f536f564a810a6", "is_disabled": 0, "bike_id": "03ad858105cc749ac7f536f564a810a6", "lon": -76.96530266666667, "rental_uris": {"android": "https://dc.lft.to/lastmile_qr_scan", "ios": "https://dc.lft.to/lastmile_qr_scan"}, "fusion_lon": 0.0, "is_reserved": 0}, {"lat": 38.899171, "fusion_lat": 0.0, "type": "electric_scooter", "name": "23bbbfaa42e02f51b89369eb8ff9c0b9", "is_disabled": 0, "bike_id": "23bbbfaa42e02f51b89369eb8ff9c0b9", "lon": -77.00341233333333, "rental_uris": {"android": "https://dc.lft.to/lastmile_qr_scan", "ios": "https://dc.lft.to/lastmile_qr_scan"}, "fusion_lon": 0.0, "is_reserved": 0}, {"lat": 38.892218, "fusion_lat": 0.0, "type": "electric_scooter", "name": "ee56ec5c46571a457cda10ee8301cc31", "is_disabled": 0, "bike_id": "ee56ec5c46571a457cda10ee8301cc31", "lon": -77.01356416666667, "rental_uris": {"android": "https://dc.lft.to/lastmile_qr_scan", "ios": "https://dc.lft.to/lastmile_qr_scan"}, "fusion_lon": 0.0, "is_reserved": 0}, {"lat": 38.902917, "fusion_lat": 0.0, "type": "electric_scooter", "name": "7df97e10c70c8a57a37db359a94ee9a2", "is_disabled": 0, "bike_id": "7df97e10c70c8a57a37db359a94ee9a2", "lon": -77.03819683333333, "rental_uris": {"android": "https://dc.lft.to/lastmile_qr_scan", "ios": "https://dc.lft.to/lastmile_qr_scan"}, "fusion_lon": 0.0, "is_reserved": 0}, {"lat": 38.90558933333333, "fusion_lat": 0.0, "type": "electric_scooter", "name": "e419f3af673346532383fac4bb9141a0", "is_disabled": 0, "bike_id": "e419f3af673346532383fac4bb9141a0", "lon": -77.042021, "rental_uris": {"android": "https://dc.lft.to/lastmile_qr_scan", "ios": "https://dc.lft.to/lastmile_qr_scan"}, "fusion_lon": 0.0, "is_reserved": 0}, {"lat": 38.866840333333336, "fusion_lat": 0.0, "type": "electric_scooter", "name": "9a8e87398050e35b8f2ce15072223ee2", "is_disabled": 0, "bike_id": "9a8e87398050e35b8f2ce15072223ee2", "lon": -76.985631, "rental_uris": {"android": "https://dc.lft.to/lastmile_qr_scan", "ios": "https://dc.lft.to/lastmile_qr_scan"}, "fusion_lon": 0.0, "is_reserved": 0}, {"lat": 38.91801516666666, "fusion_lat": 0.0, "type": "electric_scooter", "name": "61056d89086bc5b9b4cd8c19fe568ba1", "is_disabled": 0, "bike_id": "61056d89086bc5b9b4cd8c19fe568ba1", "lon": -77.03661366666667, "rental_uris": {"android": "https://dc.lft.to/lastmile_qr_scan", "ios": "https://dc.lft.to/lastmile_qr_scan"}, "fusion_lon": 0.0, "is_reserved": 0}, {"lat": 38.918253666666665, "fusion_lat": 0.0, "type": "electric_scooter", "name": "f4176ce700ad12a561d5e0e8460f87b4", "is_disabled": 0, "bike_id": "f4176ce700ad12a561d5e0e8460f87b4", "lon": -77.03143, "rental_uris": {"android": "https://dc.lft.to/lastmile_qr_scan", "ios": "https://dc.lft.to/lastmile_qr_scan"}, "fusion_lon": 0.0, "is_reserved": 0}, {"lat": 38.918435833333334, "fusion_lat": 0.0, "type": "electric_scooter", "name": "facc2daf6578bd789a87d6ab34d683e8", "is_disabled": 0, "bike_id": "facc2daf6578bd789a87d6ab34d683e8", "lon": -77.03214383333334, "rental_uris": {"android": "https://dc.lft.to/lastmile_qr_scan", "ios": "https://dc.lft.to/lastmile_qr_scan"}, "fusion_lon": 0.0, "is_reserved": 0}, {"lat": 38.882833, "fusion_lat": 0.0, "type": "electric_scooter", "name": "0b07d8ed9f950081238a997e9e2b68d2", "is_disabled": 0, "bike_id": "0b07d8ed9f950081238a997e9e2b68d2", "lon": -76.98611266666667, "rental_uris": {"android": "https://dc.lft.to/lastmile_qr_scan", "ios": "https://dc.lft.to/lastmile_qr_scan"}, "fusion_lon": 0.0, "is_reserved": 0}, {"lat": 38.898614, "fusion_lat": 0.0, "type": "electric_scooter", "name": "c775a7e29743a536d6d7f0e126407f00", "is_disabled": 0, "bike_id": "c775a7e29743a536d6d7f0e126407f00", "lon": -76.94639533333333, "rental_uris": {"android": "https://dc.lft.to/lastmile_qr_scan", "ios": "https://dc.lft.to/lastmile_qr_scan"}, "fusion_lon": 0.0, "is_reserved": 0}, {"lat": 38.88186366666667, "fusion_lat": 0.0, "type": "electric_scooter", "name": "c8644187255a5bad21dee38f8ec8060f", "is_disabled": 0, "bike_id": "c8644187255a5bad21dee38f8ec8060f", "lon": -77.02088616666667, "rental_uris": {"android": "https://dc.lft.to/lastmile_qr_scan", "ios": "https://dc.lft.to/lastmile_qr_scan"}, "fusion_lon": 0.0, "is_reserved": 0}, {"lat": 38.900142, "fusion_lat": 0.0, "type": "electric_scooter", "name": "24530e35ff86451d63f4384fec5f9d31", "is_disabled": 0, "bike_id": "24530e35ff86451d63f4384fec5f9d31", "lon": -76.98600116666667, "rental_uris": {"android": "https://dc.lft.to/lastmile_qr_scan", "ios": "https://dc.lft.to/lastmile_qr_scan"}, "fusion_lon": 0.0, "is_reserved": 0}, {"lat": 38.87332466666667, "fusion_lat": 0.0, "type": "electric_scooter", "name": "d41d79c81e99cbbf55e604c13b28bfb2", "is_disabled": 0, "bike_id": "d41d79c81e99cbbf55e604c13b28bfb2", "lon": -76.96835833333333, "rental_uris": {"android": "https://dc.lft.to/lastmile_qr_scan", "ios": "https://dc.lft.to/lastmile_qr_scan"}, "fusion_lon": 0.0, "is_reserved": 0}, {"lat": 38.897468333333336, "fusion_lat": 0.0, "type": "electric_scooter", "name": "0a8d7a7029572f55250558efba4028f1", "is_disabled": 0, "bike_id": "0a8d7a7029572f55250558efba4028f1", "lon": -76.98142933333334, "rental_uris": {"android": "https://dc.lft.to/lastmile_qr_scan", "ios": "https://dc.lft.to/lastmile_qr_scan"}, "fusion_lon": 0.0, "is_reserved": 0}, {"lat": 38.951873666666664, "fusion_lat": 0.0, "type": "electric_scooter", "name": "db1f05e87c3a10af2d583f47dfb1d4e0", "is_disabled": 0, "bike_id": "db1f05e87c3a10af2d583f47dfb1d4e0", "lon": -77.027266, "rental_uris": {"android": "https://dc.lft.to/lastmile_qr_scan", "ios": "https://dc.lft.to/lastmile_qr_scan"}, "fusion_lon": 0.0, "is_reserved": 0}, {"lat": 38.902282, "fusion_lat": 0.0, "type": "electric_scooter", "name": "7ebfa9f5275fcb651b73428be77cbfca", "is_disabled": 0, "bike_id": "7ebfa9f5275fcb651b73428be77cbfca", "lon": -77.041368, "rental_uris": {"android": "https://dc.lft.to/lastmile_qr_scan", "ios": "https://dc.lft.to/lastmile_qr_scan"}, "fusion_lon": 0.0, "is_reserved": 0}, {"lat": 38.9281425, "fusion_lat": 0.0, "type": "electric_scooter", "name": "2fefc95c21b3c1c5f19dd0c1c4914139", "is_disabled": 0, "bike_id": "2fefc95c21b3c1c5f19dd0c1c4914139", "lon": -77.03259216666666, "rental_uris": {"android": "https://dc.lft.to/lastmile_qr_scan", "ios": "https://dc.lft.to/lastmile_qr_scan"}, "fusion_lon": 0.0, "is_reserved": 0}, {"lat": 38.897358, "fusion_lat": 0.0, "type": "electric_scooter", "name": "60921f1e89b9d9c7daf421dc6b32a547", "is_disabled": 0, "bike_id": "60921f1e89b9d9c7daf421dc6b32a547", "lon": -77.04944883333333, "rental_uris": {"android": "https://dc.lft.to/lastmile_qr_scan", "ios": "https://dc.lft.to/lastmile_qr_scan"}, "fusion_lon": 0.0, "is_reserved": 0}, {"lat": 38.9068205, "fusion_lat": 0.0, "type": "electric_scooter", "name": "9a62691abe4aa79e8bf90dcbe87f30d7", "is_disabled": 0, "bike_id": "9a62691abe4aa79e8bf90dcbe87f30d7", "lon": -77.02692433333333, "rental_uris": {"android": "https://dc.lft.to/lastmile_qr_scan", "ios": "https://dc.lft.to/lastmile_qr_scan"}, "fusion_lon": 0.0, "is_reserved": 0}, {"lat": 38.900706666666665, "fusion_lat": 0.0, "type": "electric_bike", "name": "752c0c1f51974cf304113b74a6d16a00", "is_disabled": 0, "bike_id": "752c0c1f51974cf304113b74a6d16a00", "lon": -77.046458, "rental_uris": {"android": "https://dc.lft.to/lastmile_qr_scan", "ios": "https://dc.lft.to/lastmile_qr_scan"}, "fusion_lon": 0.0, "is_reserved": 0}, {"lat": 38.9055025, "fusion_lat": 0.0, "type": "electric_scooter", "name": "5fcc787bafaabae51e28cd2df9c509aa", "is_disabled": 0, "bike_id": "5fcc787bafaabae51e28cd2df9c509aa", "lon": -77.034554, "rental_uris": {"android": "https://dc.lft.to/lastmile_qr_scan", "ios": "https://dc.lft.to/lastmile_qr_scan"}, "fusion_lon": 0.0, "is_reserved": 0}, {"lat": 38.9027935, "fusion_lat": 0.0, "type": "electric_scooter", "name": "853e334096095b60635ce847f86b3500", "is_disabled": 0, "bike_id": "853e334096095b60635ce847f86b3500", "lon": -77.03829683333333, "rental_uris": {"android": "https://dc.lft.to/lastmile_qr_scan", "ios": "https://dc.lft.to/lastmile_qr_scan"}, "fusion_lon": 0.0, "is_reserved": 0}, {"lat": 38.887701666666665, "fusion_lat": 0.0, "type": "electric_scooter", "name": "7eda26ab0454cfd862df3add99adfc67", "is_disabled": 0, "bike_id": "7eda26ab0454cfd862df3add99adfc67", "lon": -77.0262665, "rental_uris": {"android": "https://dc.lft.to/lastmile_qr_scan", "ios": "https://dc.lft.to/lastmile_qr_scan"}, "fusion_lon": 0.0, "is_reserved": 0}, {"lat": 38.90603, "fusion_lat": 0.0, "type": "electric_scooter", "name": "15729219c4cd5e63b102368b4de07a64", "is_disabled": 0, "bike_id": "15729219c4cd5e63b102368b4de07a64", "lon": -77.034693, "rental_uris": {"android": "https://dc.lft.to/lastmile_qr_scan", "ios": "https://dc.lft.to/lastmile_qr_scan"}, "fusion_lon": 0.0, "is_reserved": 0}, {"lat": 38.9032775, "fusion_lat": 0.0, "type": "electric_scooter", "name": "40619d9f3bf64c21977a7cd9c360133e", "is_disabled": 0, "bike_id": "40619d9f3bf64c21977a7cd9c360133e", "lon": -77.039883, "rental_uris": {"android": "https://dc.lft.to/lastmile_qr_scan", "ios": "https://dc.lft.to/lastmile_qr_scan"}, "fusion_lon": 0.0, "is_reserved": 0}, {"lat": 38.92053333333333, "fusion_lat": 0.0, "type": "electric_scooter", "name": "ebd9a13ceba8a5ddc96668690fc2e6b0", "is_disabled": 0, "bike_id": "ebd9a13ceba8a5ddc96668690fc2e6b0", "lon": -77.04183266666666, "rental_uris": {"android": "https://dc.lft.to/lastmile_qr_scan", "ios": "https://dc.lft.to/lastmile_qr_scan"}, "fusion_lon": 0.0, "is_reserved": 0}, {"lat": 38.9208945, "fusion_lat": 0.0, "type": "electric_scooter", "name": "108f907249cd774a7f60f9ed57850753", "is_disabled": 0, "bike_id": "108f907249cd774a7f60f9ed57850753", "lon": -77.0251245, "rental_uris": {"android": "https://dc.lft.to/lastmile_qr_scan", "ios": "https://dc.lft.to/lastmile_qr_scan"}, "fusion_lon": 0.0, "is_reserved": 0}, {"lat": 38.92273483333334, "fusion_lat": 0.0, "type": "electric_scooter", "name": "3faed3163b19944035f4008ee93b7038", "is_disabled": 0, "bike_id": "3faed3163b19944035f4008ee93b7038", "lon": -77.0423235, "rental_uris": {"android": "https://dc.lft.to/lastmile_qr_scan", "ios": "https://dc.lft.to/lastmile_qr_scan"}, "fusion_lon": 0.0, "is_reserved": 0}, {"lat": 38.923165833333336, "fusion_lat": 0.0, "type": "electric_scooter", "name": "7c9e4ba93d4159a5c9dee20e715790f3", "is_disabled": 0, "bike_id": "7c9e4ba93d4159a5c9dee20e715790f3", "lon": -77.021264, "rental_uris": {"android": "https://dc.lft.to/lastmile_qr_scan", "ios": "https://dc.lft.to/lastmile_qr_scan"}, "fusion_lon": 0.0, "is_reserved": 0}, {"lat": 38.892299, "fusion_lat": 0.0, "type": "electric_scooter", "name": "9e817892e19f0243c99cf1aee55f480b", "is_disabled": 0, "bike_id": "9e817892e19f0243c99cf1aee55f480b", "lon": -77.02385516666666, "rental_uris": {"android": "https://dc.lft.to/lastmile_qr_scan", "ios": "https://dc.lft.to/lastmile_qr_scan"}, "fusion_lon": 0.0, "is_reserved": 0}, {"lat": 38.91553016666667, "fusion_lat": 0.0, "type": "electric_scooter", "name": "72f229981b33d4c79f54c46570f4e26f", "is_disabled": 0, "bike_id": "72f229981b33d4c79f54c46570f4e26f", "lon": -77.02713683333333, "rental_uris": {"android": "https://dc.lft.to/lastmile_qr_scan", "ios": "https://dc.lft.to/lastmile_qr_scan"}, "fusion_lon": 0.0, "is_reserved": 0}, {"lat": 38.8624145, "fusion_lat": 0.0, "type": "electric_scooter", "name": "834ecb8c3b4d9c4064c668f2ee3dcd34", "is_disabled": 0, "bike_id": "834ecb8c3b4d9c4064c668f2ee3dcd34", "lon": -76.99491966666666, "rental_uris": {"android": "https://dc.lft.to/lastmile_qr_scan", "ios": "https://dc.lft.to/lastmile_qr_scan"}, "fusion_lon": 0.0, "is_reserved": 0}, {"lat": 38.89868583333333, "fusion_lat": 0.0, "type": "electric_scooter", "name": "f8bd4a14a668769b8f9eb57533fa10c5", "is_disabled": 0, "bike_id": "f8bd4a14a668769b8f9eb57533fa10c5", "lon": -76.9463605, "rental_uris": {"android": "https://dc.lft.to/lastmile_qr_scan", "ios": "https://dc.lft.to/lastmile_qr_scan"}, "fusion_lon": 0.0, "is_reserved": 0}, {"lat": 38.865224833333336, "fusion_lat": 0.0, "type": "electric_scooter", "name": "8da502a09fdf0078410acc9c570a2afa", "is_disabled": 0, "bike_id": "8da502a09fdf0078410acc9c570a2afa", "lon": -76.97325883333333, "rental_uris": {"android": "https://dc.lft.to/lastmile_qr_scan", "ios": "https://dc.lft.to/lastmile_qr_scan"}, "fusion_lon": 0.0, "is_reserved": 0}, {"lat": 38.90635, "fusion_lat": 0.0, "type": "electric_scooter", "name": "74c62e0d30ab9e5a1e734d9386aeb451", "is_disabled": 0, "bike_id": "74c62e0d30ab9e5a1e734d9386aeb451", "lon": -77.04125266666667, "rental_uris": {"android": "https://dc.lft.to/lastmile_qr_scan", "ios": "https://dc.lft.to/lastmile_qr_scan"}, "fusion_lon": 0.0, "is_reserved": 0}, {"lat": 38.901350666666666, "fusion_lat": 0.0, "type": "electric_scooter", "name": "743e919e5ff2d9f0c8421c29895fa856", "is_disabled": 0, "bike_id": "743e919e5ff2d9f0c8421c29895fa856", "lon": -77.03205766666666, "rental_uris": {"android": "https://dc.lft.to/lastmile_qr_scan", "ios": "https://dc.lft.to/lastmile_qr_scan"}, "fusion_lon": 0.0, "is_reserved": 0}, {"lat": 38.91846, "fusion_lat": 0.0, "type": "electric_scooter", "name": "38bf905cc718d2fac99ba252458b01cb", "is_disabled": 0, "bike_id": "38bf905cc718d2fac99ba252458b01cb", "lon": -77.03218333333334, "rental_uris": {"android": "https://dc.lft.to/lastmile_qr_scan", "ios": "https://dc.lft.to/lastmile_qr_scan"}, "fusion_lon": 0.0, "is_reserved": 0}, {"lat": 38.91717766666667, "fusion_lat": 0.0, "type": "electric_scooter", "name": "32172d39aac7b29fc54f95bb5426c28a", "is_disabled": 0, "bike_id": "32172d39aac7b29fc54f95bb5426c28a", "lon": -77.03857266666667, "rental_uris": {"android": "https://dc.lft.to/lastmile_qr_scan", "ios": "https://dc.lft.to/lastmile_qr_scan"}, "fusion_lon": 0.0, "is_reserved": 0}, {"lat": 38.899642166666666, "fusion_lat": 0.0, "type": "electric_scooter", "name": "fd040917c7136e4e999ff92c8754387e", "is_disabled": 0, "bike_id": "fd040917c7136e4e999ff92c8754387e", "lon": -77.0451455, "rental_uris": {"android": "https://dc.lft.to/lastmile_qr_scan", "ios": "https://dc.lft.to/lastmile_qr_scan"}, "fusion_lon": 0.0, "is_reserved": 0}, {"lat": 38.9169755, "fusion_lat": 0.0, "type": "electric_scooter", "name": "2f1635d306d51db5fbcfc965dbbbc451", "is_disabled": 0, "bike_id": "2f1635d306d51db5fbcfc965dbbbc451", "lon": -77.02905233333334, "rental_uris": {"android": "https://dc.lft.to/lastmile_qr_scan", "ios": "https://dc.lft.to/lastmile_qr_scan"}, "fusion_lon": 0.0, "is_reserved": 0}, {"lat": 38.88323116666667, "fusion_lat": 0.0, "type": "electric_scooter", "name": "add3cb59d1890cc47fda3a9b9eb8ca5d", "is_disabled": 0, "bike_id": "add3cb59d1890cc47fda3a9b9eb8ca5d", "lon": -77.03104333333333, "rental_uris": {"android": "https://dc.lft.to/lastmile_qr_scan", "ios": "https://dc.lft.to/lastmile_qr_scan"}, "fusion_lon": 0.0, "is_reserved": 0}, {"lat": 38.906515666666664, "fusion_lat": 0.0, "type": "electric_scooter", "name": "24279a97a071ecd7d0b2651b3f080d68", "is_disabled": 0, "bike_id": "24279a97a071ecd7d0b2651b3f080d68", "lon": -77.04254366666666, "rental_uris": {"android": "https://dc.lft.to/lastmile_qr_scan", "ios": "https://dc.lft.to/lastmile_qr_scan"}, "fusion_lon": 0.0, "is_reserved": 0}, {"lat": 38.906871333333335, "fusion_lat": 0.0, "type": "electric_scooter", "name": "bb1c99885e8f58b1827bf3fb7a1a2e49", "is_disabled": 0, "bike_id": "bb1c99885e8f58b1827bf3fb7a1a2e49", "lon": -77.03647266666667, "rental_uris": {"android": "https://dc.lft.to/lastmile_qr_scan", "ios": "https://dc.lft.to/lastmile_qr_scan"}, "fusion_lon": 0.0, "is_reserved": 0}, {"lat": 38.925375833333334, "fusion_lat": 0.0, "type": "electric_scooter", "name": "2f364b71bc616068c346990643e3b06d", "is_disabled": 0, "bike_id": "2f364b71bc616068c346990643e3b06d", "lon": -77.03527433333333, "rental_uris": {"android": "https://dc.lft.to/lastmile_qr_scan", "ios": "https://dc.lft.to/lastmile_qr_scan"}, "fusion_lon": 0.0, "is_reserved": 0}, {"lat": 38.93876216666666, "fusion_lat": 0.0, "type": "electric_scooter", "name": "21076f40ac4074b84345473bf906e81b", "is_disabled": 0, "bike_id": "21076f40ac4074b84345473bf906e81b", "lon": -77.029175, "rental_uris": {"android": "https://dc.lft.to/lastmile_qr_scan", "ios": "https://dc.lft.to/lastmile_qr_scan"}, "fusion_lon": 0.0, "is_reserved": 0}, {"lat": 38.925143, "fusion_lat": 0.0, "type": "electric_scooter", "name": "4f261acf02b734ad6708980b393cce59", "is_disabled": 0, "bike_id": "4f261acf02b734ad6708980b393cce59", "lon": -77.02360033333333, "rental_uris": {"android": "https://dc.lft.to/lastmile_qr_scan", "ios": "https://dc.lft.to/lastmile_qr_scan"}, "fusion_lon": 0.0, "is_reserved": 0}, {"lat": 38.91346033333333, "fusion_lat": 0.0, "type": "electric_scooter", "name": "a2944d994ca22e3d7806131d310b838d", "is_disabled": 0, "bike_id": "a2944d994ca22e3d7806131d310b838d", "lon": -77.0121785, "rental_uris": {"android": "https://dc.lft.to/lastmile_qr_scan", "ios": "https://dc.lft.to/lastmile_qr_scan"}, "fusion_lon": 0.0, "is_reserved": 0}, {"lat": 38.878345, "fusion_lat": 0.0, "type": "electric_scooter", "name": "106ab88b56006407effc29e090f5983a", "is_disabled": 0, "bike_id": "106ab88b56006407effc29e090f5983a", "lon": -77.0072685, "rental_uris": {"android": "https://dc.lft.to/lastmile_qr_scan", "ios": "https://dc.lft.to/lastmile_qr_scan"}, "fusion_lon": 0.0, "is_reserved": 0}, {"lat": 38.9176725, "fusion_lat": 0.0, "type": "electric_scooter", "name": "4083b78268864cf2c63a4c9f2554a85a", "is_disabled": 0, "bike_id": "4083b78268864cf2c63a4c9f2554a85a", "lon": -77.045545, "rental_uris": {"android": "https://dc.lft.to/lastmile_qr_scan", "ios": "https://dc.lft.to/lastmile_qr_scan"}, "fusion_lon": 0.0, "is_reserved": 0}, {"lat": 38.9028015, "fusion_lat": 0.0, "type": "electric_scooter", "name": "d11a64aee35ddbf39465dd1b43aa35f6", "is_disabled": 0, "bike_id": "d11a64aee35ddbf39465dd1b43aa35f6", "lon": -77.03837916666667, "rental_uris": {"android": "https://dc.lft.to/lastmile_qr_scan", "ios": "https://dc.lft.to/lastmile_qr_scan"}, "fusion_lon": 0.0, "is_reserved": 0}, {"lat": 38.94414366666667, "fusion_lat": 0.0, "type": "electric_scooter", "name": "ab949a26224cc4f1b6e6566625a0e1b2", "is_disabled": 0, "bike_id": "ab949a26224cc4f1b6e6566625a0e1b2", "lon": -77.05516133333333, "rental_uris": {"android": "https://dc.lft.to/lastmile_qr_scan", "ios": "https://dc.lft.to/lastmile_qr_scan"}, "fusion_lon": 0.0, "is_reserved": 0}, {"lat": 38.79986483333333, "fusion_lat": 0.0, "type": "electric_bike", "name": "2b15fb2b16ce7f94e5c5859b336a52cc", "is_disabled": 0, "bike_id": "2b15fb2b16ce7f94e5c5859b336a52cc", "lon": -77.12976566666667, "rental_uris": {"android": "https://dc.lft.to/lastmile_qr_scan", "ios": "https://dc.lft.to/lastmile_qr_scan"}, "fusion_lon": 0.0, "is_reserved": 0}, {"lat": 38.933582333333334, "fusion_lat": 0.0, "type": "electric_scooter", "name": "d782a50ec52cfdf8447ad44446686a86", "is_disabled": 0, "bike_id": "d782a50ec52cfdf8447ad44446686a86", "lon": -77.04124116666667, "rental_uris": {"android": "https://dc.lft.to/lastmile_qr_scan", "ios": "https://dc.lft.to/lastmile_qr_scan"}, "fusion_lon": 0.0, "is_reserved": 0}, {"lat": 38.91737233333333, "fusion_lat": 0.0, "type": "electric_scooter", "name": "46851e3c135b708c34dbd8f60054ae5f", "is_disabled": 0, "bike_id": "46851e3c135b708c34dbd8f60054ae5f", "lon": -77.03639966666667, "rental_uris": {"android": "https://dc.lft.to/lastmile_qr_scan", "ios": "https://dc.lft.to/lastmile_qr_scan"}, "fusion_lon": 0.0, "is_reserved": 0}, {"lat": 38.906556, "fusion_lat": 0.0, "type": "electric_scooter", "name": "06fbf3d44b2b1d22f79a3f215617ebbe", "is_disabled": 0, "bike_id": "06fbf3d44b2b1d22f79a3f215617ebbe", "lon": -77.0390115, "rental_uris": {"android": "https://dc.lft.to/lastmile_qr_scan", "ios": "https://dc.lft.to/lastmile_qr_scan"}, "fusion_lon": 0.0, "is_reserved": 0}, {"lat": 38.865656333333334, "fusion_lat": 0.0, "type": "electric_scooter", "name": "ffdfb440862a6e54a218eb50d3db6815", "is_disabled": 0, "bike_id": "ffdfb440862a6e54a218eb50d3db6815", "lon": -76.98337533333333, "rental_uris": {"android": "https://dc.lft.to/lastmile_qr_scan", "ios": "https://dc.lft.to/lastmile_qr_scan"}, "fusion_lon": 0.0, "is_reserved": 0}, {"lat": 38.920964, "fusion_lat": 0.0, "type": "electric_scooter", "name": "e8bd43306c0819322deb9b1f7352d9de", "is_disabled": 0, "bike_id": "e8bd43306c0819322deb9b1f7352d9de", "lon": -77.01776283333334, "rental_uris": {"android": "https://dc.lft.to/lastmile_qr_scan", "ios": "https://dc.lft.to/lastmile_qr_scan"}, "fusion_lon": 0.0, "is_reserved": 0}, {"lat": 38.903641, "fusion_lat": 0.0, "type": "electric_scooter", "name": "f078c2dada320039ecee94622a24c5c7", "is_disabled": 0, "bike_id": "f078c2dada320039ecee94622a24c5c7", "lon": -77.047608, "rental_uris": {"android": "https://dc.lft.to/lastmile_qr_scan", "ios": "https://dc.lft.to/lastmile_qr_scan"}, "fusion_lon": 0.0, "is_reserved": 0}, {"lat": 38.94293566666666, "fusion_lat": 0.0, "type": "electric_scooter", "name": "308aa8faff0469f36c3d53fb7302a144", "is_disabled": 0, "bike_id": "308aa8faff0469f36c3d53fb7302a144", "lon": -77.02168666666667, "rental_uris": {"android": "https://dc.lft.to/lastmile_qr_scan", "ios": "https://dc.lft.to/lastmile_qr_scan"}, "fusion_lon": 0.0, "is_reserved": 0}, {"lat": 38.9246665, "fusion_lat": 0.0, "type": "electric_scooter", "name": "9c779022432968e7eca0a1d918b2297e", "is_disabled": 0, "bike_id": "9c779022432968e7eca0a1d918b2297e", "lon": -77.02239733333333, "rental_uris": {"android": "https://dc.lft.to/lastmile_qr_scan", "ios": "https://dc.lft.to/lastmile_qr_scan"}, "fusion_lon": 0.0, "is_reserved": 0}, {"lat": 38.901430500000004, "fusion_lat": 0.0, "type": "electric_scooter", "name": "a8eccc5d77375f9d2bff8b7960fc3e38", "is_disabled": 0, "bike_id": "a8eccc5d77375f9d2bff8b7960fc3e38", "lon": -77.04236733333333, "rental_uris": {"android": "https://dc.lft.to/lastmile_qr_scan", "ios": "https://dc.lft.to/lastmile_qr_scan"}, "fusion_lon": 0.0, "is_reserved": 0}, {"lat": 38.922653, "fusion_lat": 0.0, "type": "electric_scooter", "name": "2a75ff71cbdeb524fb6c01e1b9666c72", "is_disabled": 0, "bike_id": "2a75ff71cbdeb524fb6c01e1b9666c72", "lon": -77.02966233333333, "rental_uris": {"android": "https://dc.lft.to/lastmile_qr_scan", "ios": "https://dc.lft.to/lastmile_qr_scan"}, "fusion_lon": 0.0, "is_reserved": 0}, {"lat": 38.92134166666666, "fusion_lat": 0.0, "type": "electric_scooter", "name": "f511e4165dbcc0cd93c9990dfe7879ce", "is_disabled": 0, "bike_id": "f511e4165dbcc0cd93c9990dfe7879ce", "lon": -77.0187475, "rental_uris": {"android": "https://dc.lft.to/lastmile_qr_scan", "ios": "https://dc.lft.to/lastmile_qr_scan"}, "fusion_lon": 0.0, "is_reserved": 0}, {"lat": 38.899028333333334, "fusion_lat": 0.0, "type": "electric_scooter", "name": "ce2aa574712d862871b7a8199f38c0aa", "is_disabled": 0, "bike_id": "ce2aa574712d862871b7a8199f38c0aa", "lon": -77.0466775, "rental_uris": {"android": "https://dc.lft.to/lastmile_qr_scan", "ios": "https://dc.lft.to/lastmile_qr_scan"}, "fusion_lon": 0.0, "is_reserved": 0}, {"lat": 38.905069833333336, "fusion_lat": 0.0, "type": "electric_scooter", "name": "adde06da3779288c59b673b8878f1de1", "is_disabled": 0, "bike_id": "adde06da3779288c59b673b8878f1de1", "lon": -77.04330516666667, "rental_uris": {"android": "https://dc.lft.to/lastmile_qr_scan", "ios": "https://dc.lft.to/lastmile_qr_scan"}, "fusion_lon": 0.0, "is_reserved": 0}, {"lat": 38.9572385, "fusion_lat": 0.0, "type": "electric_scooter", "name": "5ddff3b0c0fd3918d0e5acf5f3d54904", "is_disabled": 0, "bike_id": "5ddff3b0c0fd3918d0e5acf5f3d54904", "lon": -77.02874133333333, "rental_uris": {"android": "https://dc.lft.to/lastmile_qr_scan", "ios": "https://dc.lft.to/lastmile_qr_scan"}, "fusion_lon": 0.0, "is_reserved": 0}, {"lat": 38.87687966666667, "fusion_lat": 0.0, "type": "electric_scooter", "name": "2dd542792a376c709d01edf997317051", "is_disabled": 0, "bike_id": "2dd542792a376c709d01edf997317051", "lon": -77.00062133333333, "rental_uris": {"android": "https://dc.lft.to/lastmile_qr_scan", "ios": "https://dc.lft.to/lastmile_qr_scan"}, "fusion_lon": 0.0, "is_reserved": 0}, {"lat": 38.92184016666667, "fusion_lat": 0.0, "type": "electric_scooter", "name": "ac9197115d01b1074abde3b2c4c4955e", "is_disabled": 0, "bike_id": "ac9197115d01b1074abde3b2c4c4955e", "lon": -77.04230433333333, "rental_uris": {"android": "https://dc.lft.to/lastmile_qr_scan", "ios": "https://dc.lft.to/lastmile_qr_scan"}, "fusion_lon": 0.0, "is_reserved": 0}, {"lat": 38.897432333333334, "fusion_lat": 0.0, "type": "electric_scooter", "name": "98af65171dba4b34accc30a7d14e8393", "is_disabled": 0, "bike_id": "98af65171dba4b34accc30a7d14e8393", "lon": -77.0470885, "rental_uris": {"android": "https://dc.lft.to/lastmile_qr_scan", "ios": "https://dc.lft.to/lastmile_qr_scan"}, "fusion_lon": 0.0, "is_reserved": 0}, {"lat": 39.03427516666667, "fusion_lat": 0.0, "type": "electric_bike", "name": "b4634b88ec2f72ecdefb97b7fb5e7b16", "is_disabled": 0, "bike_id": "b4634b88ec2f72ecdefb97b7fb5e7b16", "lon": -77.04298316666667, "rental_uris": {"android": "https://dc.lft.to/lastmile_qr_scan", "ios": "https://dc.lft.to/lastmile_qr_scan"}, "fusion_lon": 0.0, "is_reserved": 0}, {"lat": 38.905583166666666, "fusion_lat": 0.0, "type": "electric_scooter", "name": "5c209172c7823eefc0e29c8f56058086", "is_disabled": 0, "bike_id": "5c209172c7823eefc0e29c8f56058086", "lon": -77.04281, "rental_uris": {"android": "https://dc.lft.to/lastmile_qr_scan", "ios": "https://dc.lft.to/lastmile_qr_scan"}, "fusion_lon": 0.0, "is_reserved": 0}, {"lat": 38.9028115, "fusion_lat": 0.0, "type": "electric_scooter", "name": "781b975a74cc276fb874aa955c7656ae", "is_disabled": 0, "bike_id": "781b975a74cc276fb874aa955c7656ae", "lon": -77.03836583333333, "rental_uris": {"android": "https://dc.lft.to/lastmile_qr_scan", "ios": "https://dc.lft.to/lastmile_qr_scan"}, "fusion_lon": 0.0, "is_reserved": 0}, {"lat": 38.88474633333333, "fusion_lat": 0.0, "type": "electric_bike", "name": "aae4ccdc8d0b2ff4901f903b8d3f2594", "is_disabled": 0, "bike_id": "aae4ccdc8d0b2ff4901f903b8d3f2594", "lon": -76.9566225, "rental_uris": {"android": "https://dc.lft.to/lastmile_qr_scan", "ios": "https://dc.lft.to/lastmile_qr_scan"}, "fusion_lon": 0.0, "is_reserved": 0}, {"lat": 38.9056825, "fusion_lat": 0.0, "type": "electric_scooter", "name": "68ca532a2b204580c4164d2a2df4c095", "is_disabled": 0, "bike_id": "68ca532a2b204580c4164d2a2df4c095", "lon": -76.97783516666667, "rental_uris": {"android": "https://dc.lft.to/lastmile_qr_scan", "ios": "https://dc.lft.to/lastmile_qr_scan"}, "fusion_lon": 0.0, "is_reserved": 0}, {"lat": 38.900604666666666, "fusion_lat": 0.0, "type": "electric_scooter", "name": "de823afa87db2a09c5147c7c0cde6b0a", "is_disabled": 0, "bike_id": "de823afa87db2a09c5147c7c0cde6b0a", "lon": -76.9962915, "rental_uris": {"android": "https://dc.lft.to/lastmile_qr_scan", "ios": "https://dc.lft.to/lastmile_qr_scan"}, "fusion_lon": 0.0, "is_reserved": 0}, {"lat": 39.0423695, "fusion_lat": 0.0, "type": "electric_bike", "name": "7f2fcea6f9dce78f9671dad485906c7c", "is_disabled": 0, "bike_id": "7f2fcea6f9dce78f9671dad485906c7c", "lon": -76.99734083333334, "rental_uris": {"android": "https://dc.lft.to/lastmile_qr_scan", "ios": "https://dc.lft.to/lastmile_qr_scan"}, "fusion_lon": 0.0, "is_reserved": 0}, {"lat": 38.919510833333334, "fusion_lat": 0.0, "type": "electric_scooter", "name": "27c293da6dcd2eba6e5cd9b77f47ef49", "is_disabled": 0, "bike_id": "27c293da6dcd2eba6e5cd9b77f47ef49", "lon": -77.01356916666667, "rental_uris": {"android": "https://dc.lft.to/lastmile_qr_scan", "ios": "https://dc.lft.to/lastmile_qr_scan"}, "fusion_lon": 0.0, "is_reserved": 0}, {"lat": 38.904276, "fusion_lat": 0.0, "type": "electric_scooter", "name": "71ce9b618c540d7f6c17c770de4d3f34", "is_disabled": 0, "bike_id": "71ce9b618c540d7f6c17c770de4d3f34", "lon": -77.025066, "rental_uris": {"android": "https://dc.lft.to/lastmile_qr_scan", "ios": "https://dc.lft.to/lastmile_qr_scan"}, "fusion_lon": 0.0, "is_reserved": 0}, {"lat": 38.90346233333333, "fusion_lat": 0.0, "type": "electric_scooter", "name": "2417993bf07b420dfa6055a2ffb9cf48", "is_disabled": 0, "bike_id": "2417993bf07b420dfa6055a2ffb9cf48", "lon": -77.03455416666667, "rental_uris": {"android": "https://dc.lft.to/lastmile_qr_scan", "ios": "https://dc.lft.to/lastmile_qr_scan"}, "fusion_lon": 0.0, "is_reserved": 0}, {"lat": 38.90396783333333, "fusion_lat": 0.0, "type": "electric_scooter", "name": "fffc88a6df0a46bc5430d60535a52e05", "is_disabled": 0, "bike_id": "fffc88a6df0a46bc5430d60535a52e05", "lon": -76.98463816666667, "rental_uris": {"android": "https://dc.lft.to/lastmile_qr_scan", "ios": "https://dc.lft.to/lastmile_qr_scan"}, "fusion_lon": 0.0, "is_reserved": 0}, {"lat": 38.91677216666667, "fusion_lat": 0.0, "type": "electric_scooter", "name": "cc0c93b30726653885f4a6a28bfe9969", "is_disabled": 0, "bike_id": "cc0c93b30726653885f4a6a28bfe9969", "lon": -77.03213816666667, "rental_uris": {"android": "https://dc.lft.to/lastmile_qr_scan", "ios": "https://dc.lft.to/lastmile_qr_scan"}, "fusion_lon": 0.0, "is_reserved": 0}, {"lat": 38.89083483333334, "fusion_lat": 0.0, "type": "electric_scooter", "name": "c4ae1d0aa20f6a0c3a5613368b350289", "is_disabled": 0, "bike_id": "c4ae1d0aa20f6a0c3a5613368b350289", "lon": -76.98817666666666, "rental_uris": {"android": "https://dc.lft.to/lastmile_qr_scan", "ios": "https://dc.lft.to/lastmile_qr_scan"}, "fusion_lon": 0.0, "is_reserved": 0}, {"lat": 38.89967033333333, "fusion_lat": 0.0, "type": "electric_scooter", "name": "7cb187aa3bce1e4d7c6b834f6bae8d7f", "is_disabled": 0, "bike_id": "7cb187aa3bce1e4d7c6b834f6bae8d7f", "lon": -77.05561666666667, "rental_uris": {"android": "https://dc.lft.to/lastmile_qr_scan", "ios": "https://dc.lft.to/lastmile_qr_scan"}, "fusion_lon": 0.0, "is_reserved": 0}, {"lat": 38.91558, "fusion_lat": 0.0, "type": "electric_scooter", "name": "b3b925decf7e559d592690ad5edb8bcb", "is_disabled": 0, "bike_id": "b3b925decf7e559d592690ad5edb8bcb", "lon": -77.03255733333333, "rental_uris": {"android": "https://dc.lft.to/lastmile_qr_scan", "ios": "https://dc.lft.to/lastmile_qr_scan"}, "fusion_lon": 0.0, "is_reserved": 0}, {"lat": 38.874829, "fusion_lat": 0.0, "type": "electric_scooter", "name": "395c18b30e897a8b53444a14d0500162", "is_disabled": 0, "bike_id": "395c18b30e897a8b53444a14d0500162", "lon": -77.0011945, "rental_uris": {"android": "https://dc.lft.to/lastmile_qr_scan", "ios": "https://dc.lft.to/lastmile_qr_scan"}, "fusion_lon": 0.0, "is_reserved": 0}, {"lat": 38.887701166666666, "fusion_lat": 0.0, "type": "electric_scooter", "name": "4bc22d664220234fb0362b9b43241609", "is_disabled": 0, "bike_id": "4bc22d664220234fb0362b9b43241609", "lon": -77.02229466666667, "rental_uris": {"android": "https://dc.lft.to/lastmile_qr_scan", "ios": "https://dc.lft.to/lastmile_qr_scan"}, "fusion_lon": 0.0, "is_reserved": 0}, {"lat": 38.92310466666667, "fusion_lat": 0.0, "type": "electric_scooter", "name": "10e104cfd5f780c7a651610fa833830f", "is_disabled": 0, "bike_id": "10e104cfd5f780c7a651610fa833830f", "lon": -77.0474115, "rental_uris": {"android": "https://dc.lft.to/lastmile_qr_scan", "ios": "https://dc.lft.to/lastmile_qr_scan"}, "fusion_lon": 0.0, "is_reserved": 0}, {"lat": 38.8651185, "fusion_lat": 0.0, "type": "electric_scooter", "name": "d1ff6e55194291cb5791c39e4b8a2f67", "is_disabled": 0, "bike_id": "d1ff6e55194291cb5791c39e4b8a2f67", "lon": -76.97342216666667, "rental_uris": {"android": "https://dc.lft.to/lastmile_qr_scan", "ios": "https://dc.lft.to/lastmile_qr_scan"}, "fusion_lon": 0.0, "is_reserved": 0}, {"lat": 38.90826283333333, "fusion_lat": 0.0, "type": "electric_scooter", "name": "c46921ef85d7563464caba838bff11f5", "is_disabled": 0, "bike_id": "c46921ef85d7563464caba838bff11f5", "lon": -77.0396505, "rental_uris": {"android": "https://dc.lft.to/lastmile_qr_scan", "ios": "https://dc.lft.to/lastmile_qr_scan"}, "fusion_lon": 0.0, "is_reserved": 0}, {"lat": 38.88770733333333, "fusion_lat": 0.0, "type": "electric_scooter", "name": "aeab3f57f3f044927388c2012ab66f28", "is_disabled": 0, "bike_id": "aeab3f57f3f044927388c2012ab66f28", "lon": -77.026269, "rental_uris": {"android": "https://dc.lft.to/lastmile_qr_scan", "ios": "https://dc.lft.to/lastmile_qr_scan"}, "fusion_lon": 0.0, "is_reserved": 0}, {"lat": 38.9236245, "fusion_lat": 0.0, "type": "electric_scooter", "name": "84dd71c741c4c01f11bbfe5365e660f5", "is_disabled": 0, "bike_id": "84dd71c741c4c01f11bbfe5365e660f5", "lon": -77.050467, "rental_uris": {"android": "https://dc.lft.to/lastmile_qr_scan", "ios": "https://dc.lft.to/lastmile_qr_scan"}, "fusion_lon": 0.0, "is_reserved": 0}, {"lat": 38.92725766666667, "fusion_lat": 0.0, "type": "electric_scooter", "name": "5a7bc5638812b0ef1314a3bed2031203", "is_disabled": 0, "bike_id": "5a7bc5638812b0ef1314a3bed2031203", "lon": -77.03242816666666, "rental_uris": {"android": "https://dc.lft.to/lastmile_qr_scan", "ios": "https://dc.lft.to/lastmile_qr_scan"}, "fusion_lon": 0.0, "is_reserved": 0}, {"lat": 38.885076, "fusion_lat": 0.0, "type": "electric_scooter", "name": "f6e12658a884e3398a31335ab9d4e62f", "is_disabled": 0, "bike_id": "f6e12658a884e3398a31335ab9d4e62f", "lon": -77.00448783333333, "rental_uris": {"android": "https://dc.lft.to/lastmile_qr_scan", "ios": "https://dc.lft.to/lastmile_qr_scan"}, "fusion_lon": 0.0, "is_reserved": 0}, {"lat": 38.866852333333334, "fusion_lat": 0.0, "type": "electric_scooter", "name": "0a1d9256a5dfbcb5b36a5d1c46bae4eb", "is_disabled": 0, "bike_id": "0a1d9256a5dfbcb5b36a5d1c46bae4eb", "lon": -76.9856965, "rental_uris": {"android": "https://dc.lft.to/lastmile_qr_scan", "ios": "https://dc.lft.to/lastmile_qr_scan"}, "fusion_lon": 0.0, "is_reserved": 0}, {"lat": 38.91873283333334, "fusion_lat": 0.0, "type": "electric_scooter", "name": "190edc5bb9b74fc18b54a07b737a6cb1", "is_disabled": 0, "bike_id": "190edc5bb9b74fc18b54a07b737a6cb1", "lon": -76.96331566666667, "rental_uris": {"android": "https://dc.lft.to/lastmile_qr_scan", "ios": "https://dc.lft.to/lastmile_qr_scan"}, "fusion_lon": 0.0, "is_reserved": 0}, {"lat": 38.897365666666666, "fusion_lat": 0.0, "type": "electric_bike", "name": "2070350e6238b187291b4015a0b3d554", "is_disabled": 0, "bike_id": "2070350e6238b187291b4015a0b3d554", "lon": -76.942555, "rental_uris": {"android": "https://dc.lft.to/lastmile_qr_scan", "ios": "https://dc.lft.to/lastmile_qr_scan"}, "fusion_lon": 0.0, "is_reserved": 0}, {"lat": 38.90685833333333, "fusion_lat": 0.0, "type": "electric_scooter", "name": "8125bf776cc2941d35db539471d6c077", "is_disabled": 0, "bike_id": "8125bf776cc2941d35db539471d6c077", "lon": -77.02381533333333, "rental_uris": {"android": "https://dc.lft.to/lastmile_qr_scan", "ios": "https://dc.lft.to/lastmile_qr_scan"}, "fusion_lon": 0.0, "is_reserved": 0}, {"lat": 38.90859283333333, "fusion_lat": 0.0, "type": "electric_scooter", "name": "268389d4aafc312a7e636899b6b48a48", "is_disabled": 0, "bike_id": "268389d4aafc312a7e636899b6b48a48", "lon": -77.02354216666667, "rental_uris": {"android": "https://dc.lft.to/lastmile_qr_scan", "ios": "https://dc.lft.to/lastmile_qr_scan"}, "fusion_lon": 0.0, "is_reserved": 0}, {"lat": 38.902527666666664, "fusion_lat": 0.0, "type": "electric_scooter", "name": "5272d15fdb1e1e7c56adc4739feb4d69", "is_disabled": 0, "bike_id": "5272d15fdb1e1e7c56adc4739feb4d69", "lon": -77.03835666666667, "rental_uris": {"android": "https://dc.lft.to/lastmile_qr_scan", "ios": "https://dc.lft.to/lastmile_qr_scan"}, "fusion_lon": 0.0, "is_reserved": 0}, {"lat": 38.926841333333336, "fusion_lat": 0.0, "type": "electric_scooter", "name": "f66911eb6d5523a49cfc7bc68cc0b9c8", "is_disabled": 0, "bike_id": "f66911eb6d5523a49cfc7bc68cc0b9c8", "lon": -77.015702, "rental_uris": {"android": "https://dc.lft.to/lastmile_qr_scan", "ios": "https://dc.lft.to/lastmile_qr_scan"}, "fusion_lon": 0.0, "is_reserved": 0}, {"lat": 38.88610466666667, "fusion_lat": 0.0, "type": "electric_scooter", "name": "ea1097ae09826fedfc23de972163437b", "is_disabled": 0, "bike_id": "ea1097ae09826fedfc23de972163437b", "lon": -77.0124985, "rental_uris": {"android": "https://dc.lft.to/lastmile_qr_scan", "ios": "https://dc.lft.to/lastmile_qr_scan"}, "fusion_lon": 0.0, "is_reserved": 0}, {"lat": 38.866299, "fusion_lat": 0.0, "type": "electric_scooter", "name": "f0727bc2461d17b962b429eac36acd19", "is_disabled": 0, "bike_id": "f0727bc2461d17b962b429eac36acd19", "lon": -76.9871785, "rental_uris": {"android": "https://dc.lft.to/lastmile_qr_scan", "ios": "https://dc.lft.to/lastmile_qr_scan"}, "fusion_lon": 0.0, "is_reserved": 0}, {"lat": 38.93901133333333, "fusion_lat": 0.0, "type": "electric_scooter", "name": "f417fa9e6d4128ec9169885a88cdbd82", "is_disabled": 0, "bike_id": "f417fa9e6d4128ec9169885a88cdbd82", "lon": -77.024874, "rental_uris": {"android": "https://dc.lft.to/lastmile_qr_scan", "ios": "https://dc.lft.to/lastmile_qr_scan"}, "fusion_lon": 0.0, "is_reserved": 0}, {"lat": 38.8580685, "fusion_lat": 0.0, "type": "electric_scooter", "name": "3ca6c33da0abe065c7db4cbab39e4b5a", "is_disabled": 0, "bike_id": "3ca6c33da0abe065c7db4cbab39e4b5a", "lon": -76.98656183333334, "rental_uris": {"android": "https://dc.lft.to/lastmile_qr_scan", "ios": "https://dc.lft.to/lastmile_qr_scan"}, "fusion_lon": 0.0, "is_reserved": 0}, {"lat": 38.9081335, "fusion_lat": 0.0, "type": "electric_scooter", "name": "b0b04f34480d586a347165207d0abeb7", "is_disabled": 0, "bike_id": "b0b04f34480d586a347165207d0abeb7", "lon": -77.03564816666666, "rental_uris": {"android": "https://dc.lft.to/lastmile_qr_scan", "ios": "https://dc.lft.to/lastmile_qr_scan"}, "fusion_lon": 0.0, "is_reserved": 0}, {"lat": 38.86626283333333, "fusion_lat": 0.0, "type": "electric_scooter", "name": "33bcbfebfb1a6bfe51f4f20aca86855f", "is_disabled": 0, "bike_id": "33bcbfebfb1a6bfe51f4f20aca86855f", "lon": -76.98716266666666, "rental_uris": {"android": "https://dc.lft.to/lastmile_qr_scan", "ios": "https://dc.lft.to/lastmile_qr_scan"}, "fusion_lon": 0.0, "is_reserved": 0}, {"lat": 38.9233975, "fusion_lat": 0.0, "type": "electric_scooter", "name": "3091b929b89e6d5213d0a4e41c51d34f", "is_disabled": 0, "bike_id": "3091b929b89e6d5213d0a4e41c51d34f", "lon": -77.02149216666666, "rental_uris": {"android": "https://dc.lft.to/lastmile_qr_scan", "ios": "https://dc.lft.to/lastmile_qr_scan"}, "fusion_lon": 0.0, "is_reserved": 0}, {"lat": 38.90023816666667, "fusion_lat": 0.0, "type": "electric_scooter", "name": "faad5bbcfc18b1373f16597eb9c2c401", "is_disabled": 0, "bike_id": "faad5bbcfc18b1373f16597eb9c2c401", "lon": -77.000214, "rental_uris": {"android": "https://dc.lft.to/lastmile_qr_scan", "ios": "https://dc.lft.to/lastmile_qr_scan"}, "fusion_lon": 0.0, "is_reserved": 0}, {"lat": 38.874713166666666, "fusion_lat": 0.0, "type": "electric_scooter", "name": "edeab00fe878d79a9801f0c583eade6f", "is_disabled": 0, "bike_id": "edeab00fe878d79a9801f0c583eade6f", "lon": -77.0049005, "rental_uris": {"android": "https://dc.lft.to/lastmile_qr_scan", "ios": "https://dc.lft.to/lastmile_qr_scan"}, "fusion_lon": 0.0, "is_reserved": 0}, {"lat": 38.897398333333335, "fusion_lat": 0.0, "type": "electric_scooter", "name": "b9f46ae99c0fe005b503646ed51723e9", "is_disabled": 0, "bike_id": "b9f46ae99c0fe005b503646ed51723e9", "lon": -77.00950933333333, "rental_uris": {"android": "https://dc.lft.to/lastmile_qr_scan", "ios": "https://dc.lft.to/lastmile_qr_scan"}, "fusion_lon": 0.0, "is_reserved": 0}, {"lat": 38.922654333333334, "fusion_lat": 0.0, "type": "electric_scooter", "name": "f63963ec26cfaff4484d03b15ac2e589", "is_disabled": 0, "bike_id": "f63963ec26cfaff4484d03b15ac2e589", "lon": -77.02438433333333, "rental_uris": {"android": "https://dc.lft.to/lastmile_qr_scan", "ios": "https://dc.lft.to/lastmile_qr_scan"}, "fusion_lon": 0.0, "is_reserved": 0}, {"lat": 38.904264833333336, "fusion_lat": 0.0, "type": "electric_scooter", "name": "dfcaf8985911b18e93005c35b5d2f24c", "is_disabled": 0, "bike_id": "dfcaf8985911b18e93005c35b5d2f24c", "lon": -77.04356683333333, "rental_uris": {"android": "https://dc.lft.to/lastmile_qr_scan", "ios": "https://dc.lft.to/lastmile_qr_scan"}, "fusion_lon": 0.0, "is_reserved": 0}, {"lat": 38.957359833333335, "fusion_lat": 0.0, "type": "electric_scooter", "name": "b64b42196b81493348b50e47f843c9b3", "is_disabled": 0, "bike_id": "b64b42196b81493348b50e47f843c9b3", "lon": -77.00218516666666, "rental_uris": {"android": "https://dc.lft.to/lastmile_qr_scan", "ios": "https://dc.lft.to/lastmile_qr_scan"}, "fusion_lon": 0.0, "is_reserved": 0}, {"lat": 38.92375116666667, "fusion_lat": 0.0, "type": "electric_bike", "name": "25aff225a229119cc8e36d6af8cd64c2", "is_disabled": 0, "bike_id": "25aff225a229119cc8e36d6af8cd64c2", "lon": -77.04022933333333, "rental_uris": {"android": "https://dc.lft.to/lastmile_qr_scan", "ios": "https://dc.lft.to/lastmile_qr_scan"}, "fusion_lon": 0.0, "is_reserved": 0}, {"lat": 38.920504666666666, "fusion_lat": 0.0, "type": "electric_scooter", "name": "8d70ed2e0fd87676e144045bea93ecb0", "is_disabled": 0, "bike_id": "8d70ed2e0fd87676e144045bea93ecb0", "lon": -77.04191016666667, "rental_uris": {"android": "https://dc.lft.to/lastmile_qr_scan", "ios": "https://dc.lft.to/lastmile_qr_scan"}, "fusion_lon": 0.0, "is_reserved": 0}, {"lat": 38.9396755, "fusion_lat": 0.0, "type": "electric_scooter", "name": "475fb18326facb87f7bd747c28c98dc1", "is_disabled": 0, "bike_id": "475fb18326facb87f7bd747c28c98dc1", "lon": -77.024857, "rental_uris": {"android": "https://dc.lft.to/lastmile_qr_scan", "ios": "https://dc.lft.to/lastmile_qr_scan"}, "fusion_lon": 0.0, "is_reserved": 0}, {"lat": 38.918553, "fusion_lat": 0.0, "type": "electric_scooter", "name": "041d79fe187df04523bfe8fb5d0d27cd", "is_disabled": 0, "bike_id": "041d79fe187df04523bfe8fb5d0d27cd", "lon": -77.06193616666667, "rental_uris": {"android": "https://dc.lft.to/lastmile_qr_scan", "ios": "https://dc.lft.to/lastmile_qr_scan"}, "fusion_lon": 0.0, "is_reserved": 0}, {"lat": 38.94254866666667, "fusion_lat": 0.0, "type": "electric_scooter", "name": "87352898205a9bd99899fccd55c9279f", "is_disabled": 0, "bike_id": "87352898205a9bd99899fccd55c9279f", "lon": -77.09053933333334, "rental_uris": {"android": "https://dc.lft.to/lastmile_qr_scan", "ios": "https://dc.lft.to/lastmile_qr_scan"}, "fusion_lon": 0.0, "is_reserved": 0}, {"lat": 38.926724166666666, "fusion_lat": 0.0, "type": "electric_scooter", "name": "59de046665ffcb28e8ac890a2bf16bae", "is_disabled": 0, "bike_id": "59de046665ffcb28e8ac890a2bf16bae", "lon": -77.0269045, "rental_uris": {"android": "https://dc.lft.to/lastmile_qr_scan", "ios": "https://dc.lft.to/lastmile_qr_scan"}, "fusion_lon": 0.0, "is_reserved": 0}, {"lat": 38.924807, "fusion_lat": 0.0, "type": "electric_scooter", "name": "b694847251f45f27f8158c6608bf79eb", "is_disabled": 0, "bike_id": "b694847251f45f27f8158c6608bf79eb", "lon": -77.022366, "rental_uris": {"android": "https://dc.lft.to/lastmile_qr_scan", "ios": "https://dc.lft.to/lastmile_qr_scan"}, "fusion_lon": 0.0, "is_reserved": 0}, {"lat": 38.86691533333333, "fusion_lat": 0.0, "type": "electric_scooter", "name": "873788ad041dd8db0cdc702efb4fadb1", "is_disabled": 0, "bike_id": "873788ad041dd8db0cdc702efb4fadb1", "lon": -76.98543733333334, "rental_uris": {"android": "https://dc.lft.to/lastmile_qr_scan", "ios": "https://dc.lft.to/lastmile_qr_scan"}, "fusion_lon": 0.0, "is_reserved": 0}, {"lat": 38.90459233333333, "fusion_lat": 0.0, "type": "electric_scooter", "name": "64104f577419c1da4a2dbd8d8629b526", "is_disabled": 0, "bike_id": "64104f577419c1da4a2dbd8d8629b526", "lon": -77.03133416666667, "rental_uris": {"android": "https://dc.lft.to/lastmile_qr_scan", "ios": "https://dc.lft.to/lastmile_qr_scan"}, "fusion_lon": 0.0, "is_reserved": 0}, {"lat": 38.920878, "fusion_lat": 0.0, "type": "electric_scooter", "name": "eca7667028484cc093b10167819dfe9b", "is_disabled": 0, "bike_id": "eca7667028484cc093b10167819dfe9b", "lon": -77.02039316666666, "rental_uris": {"android": "https://dc.lft.to/lastmile_qr_scan", "ios": "https://dc.lft.to/lastmile_qr_scan"}, "fusion_lon": 0.0, "is_reserved": 0}, {"lat": 38.903624, "fusion_lat": 0.0, "type": "electric_scooter", "name": "4d4cbdf4b462d4d59293bbcbc9abc485", "is_disabled": 0, "bike_id": "4d4cbdf4b462d4d59293bbcbc9abc485", "lon": -77.04490683333333, "rental_uris": {"android": "https://dc.lft.to/lastmile_qr_scan", "ios": "https://dc.lft.to/lastmile_qr_scan"}, "fusion_lon": 0.0, "is_reserved": 0}, {"lat": 38.897334, "fusion_lat": 0.0, "type": "electric_scooter", "name": "53df365149aafda90e98dfed76f9702c", "is_disabled": 0, "bike_id": "53df365149aafda90e98dfed76f9702c", "lon": -77.0217035, "rental_uris": {"android": "https://dc.lft.to/lastmile_qr_scan", "ios": "https://dc.lft.to/lastmile_qr_scan"}, "fusion_lon": 0.0, "is_reserved": 0}, {"lat": 38.87359566666667, "fusion_lat": 0.0, "type": "electric_scooter", "name": "ee54d19ac80df44f6ca94ac4126ce234", "is_disabled": 0, "bike_id": "ee54d19ac80df44f6ca94ac4126ce234", "lon": -76.97028583333334, "rental_uris": {"android": "https://dc.lft.to/lastmile_qr_scan", "ios": "https://dc.lft.to/lastmile_qr_scan"}, "fusion_lon": 0.0, "is_reserved": 0}, {"lat": 38.874686, "fusion_lat": 0.0, "type": "electric_scooter", "name": "1617905a5e27a11b0e5e7bc6a5de1e24", "is_disabled": 0, "bike_id": "1617905a5e27a11b0e5e7bc6a5de1e24", "lon": -77.00487883333334, "rental_uris": {"android": "https://dc.lft.to/lastmile_qr_scan", "ios": "https://dc.lft.to/lastmile_qr_scan"}, "fusion_lon": 0.0, "is_reserved": 0}, {"lat": 38.91680866666667, "fusion_lat": 0.0, "type": "electric_scooter", "name": "4f901ead7ceecbc2fdb4ea4faef5e10a", "is_disabled": 0, "bike_id": "4f901ead7ceecbc2fdb4ea4faef5e10a", "lon": -77.046118, "rental_uris": {"android": "https://dc.lft.to/lastmile_qr_scan", "ios": "https://dc.lft.to/lastmile_qr_scan"}, "fusion_lon": 0.0, "is_reserved": 0}, {"lat": 38.894878166666665, "fusion_lat": 0.0, "type": "electric_scooter", "name": "488a8d15b28172c8bf010aee593504e7", "is_disabled": 0, "bike_id": "488a8d15b28172c8bf010aee593504e7", "lon": -77.02301316666667, "rental_uris": {"android": "https://dc.lft.to/lastmile_qr_scan", "ios": "https://dc.lft.to/lastmile_qr_scan"}, "fusion_lon": 0.0, "is_reserved": 0}, {"lat": 38.897561333333336, "fusion_lat": 0.0, "type": "electric_scooter", "name": "b8e4bbebe33a8b23fe3991c3552c5845", "is_disabled": 0, "bike_id": "b8e4bbebe33a8b23fe3991c3552c5845", "lon": -77.044818, "rental_uris": {"android": "https://dc.lft.to/lastmile_qr_scan", "ios": "https://dc.lft.to/lastmile_qr_scan"}, "fusion_lon": 0.0, "is_reserved": 0}, {"lat": 38.902772, "fusion_lat": 0.0, "type": "electric_scooter", "name": "e73987041b5ac5534c2b5eabaa7e7b6e", "is_disabled": 0, "bike_id": "e73987041b5ac5534c2b5eabaa7e7b6e", "lon": -77.03838883333333, "rental_uris": {"android": "https://dc.lft.to/lastmile_qr_scan", "ios": "https://dc.lft.to/lastmile_qr_scan"}, "fusion_lon": 0.0, "is_reserved": 0},