{"data": {"bikes": [{"fusion_lat": 0.0, "name": "9c4afd8e67a407df192cec1318abf688", "is_disabled": 0, "rental_uris": {"android": "https://dc.lft.to/lastmile_qr_scan", "ios": "https://dc.lft.to/lastmile_qr_scan"}, "fusion_lon": 0.0, "lat": 38.90182216666667, "bike_id": "9c4afd8e67a407df192cec1318abf688", "type": "electric_scooter", "is_reserved": 0, "lon": -77.02286466666666}, {"fusion_lat": 0.0, "name": "05b4915cadef3b2809bb8f52306f4366", "is_disabled": 0, "rental_uris": {"android": "https://dc.lft.to/lastmile_qr_scan", "ios": "https://dc.lft.to/lastmile_qr_scan"}, "fusion_lon": 0.0, "lat": 38.90844283333333, "bike_id": "05b4915cadef3b2809bb8f52306f4366", "type": "electric_scooter", "is_reserved": 0, "lon": -77.00282183333333}, {"fusion_lat": 0.0, "name": "5d886d99a82e9534f49501c4f0ade73b", "is_disabled": 0, "rental_uris": {"android": "https://dc.lft.to/lastmile_qr_scan", "ios": "https://dc.lft.to/lastmile_qr_scan"}, "fusion_lon": 0.0, "lat": 38.93080633333334, "bike_id": "5d886d99a82e9534f49501c4f0ade73b", "type": "electric_scooter", "is_reserved": 0, "lon": -77.0776405}, {"fusion_lat": 0.0, "name": "d8944fafa73f370931cbfd1c4024d043", "is_disabled": 0, "rental_uris": {"android": "https://dc.lft.to/lastmile_qr_scan", "ios": "https://dc.lft.to/lastmile_qr_scan"}, "fusion_lon": 0.0, "lat": 38.91915133333333, "bike_id": "d8944fafa73f370931cbfd1c4024d043", "type": "electric_scooter", "is_reserved": 0, "lon": -77.04159733333333}, {"fusion_lat": 0.0, "name": "547d25740b3cdbc51f0dc230438c4300", "is_disabled": 0, "rental_uris": {"android": "https://dc.lft.to/lastmile_qr_scan", "ios": "https://dc.lft.to/lastmile_qr_scan"}, "fusion_lon": 0.0, "lat": 38.904013166666665, "bike_id": "547d25740b3cdbc51f0dc230438c4300", "type": "electric_scooter", "is_reserved": 0, "lon": -76.990073}, {"fusion_lat": 0.0, "name": "b32a1db2b0d683407a829d7f7c1c9a4d", "is_disabled": 0, "rental_uris": {"android": "https://dc.lft.to/lastmile_qr_scan", "ios": "https://dc.lft.to/lastmile_qr_scan"}, "fusion_lon": 0.0, "lat": 38.9231915, "bike_id": "b32a1db2b0d683407a829d7f7c1c9a4d", "type": "electric_scooter", "is_reserved": 0, "lon": -77.02041966666667}, {"fusion_lat": 0.0, "name": "ec77172e536f09dc3e1cef38411fed97", "is_disabled": 0, "rental_uris": {"android": "https://dc.lft.to/lastmile_qr_scan", "ios": "https://dc.lft.to/lastmile_qr_scan"}, "fusion_lon": 0.0, "lat": 38.9307635, "bike_id": "ec77172e536f09dc3e1cef38411fed97", "type": "electric_scooter", "is_reserved": 0, "lon": -77.03161}, {"fusion_lat": 0.0, "name": "431a689e594868d5e9e3f170998617da", "is_disabled": 0, "rental_uris": {"android": "https://dc.lft.to/lastmile_qr_scan", "ios": "https://dc.lft.to/lastmile_qr_scan"}, "fusion_lon": 0.0, "lat": 38.935237, "bike_id": "431a689e594868d5e9e3f170998617da", "type": "electric_scooter", "is_reserved": 0, "lon": -77.03261116666667}, {"fusion_lat": 0.0, "name": "99a7e36ac565ca6a9f5c78508800cc41", "is_disabled": 0, "rental_uris": {"android": "https://dc.lft.to/lastmile_qr_scan", "ios": "https://dc.lft.to/lastmile_qr_scan"}, "fusion_lon": 0.0, "lat": 38.90260466666667, "bike_id": "99a7e36ac565ca6a9f5c78508800cc41", "type": "electric_scooter", "is_reserved": 0, "lon": -76.974539}, {"fusion_lat": 0.0, "name": "cf92d23c0290561c70c9788181c1b19f", "is_disabled": 0, "rental_uris": {"android": "https://dc.lft.to/lastmile_qr_scan", "ios": "https://dc.lft.to/lastmile_qr_scan"}, "fusion_lon": 0.0, "lat": 38.900446, "bike_id": "cf92d23c0290561c70c9788181c1b19f", "type": "electric_scooter", "is_reserved": 0, "lon": -77.02399633333333}, {"fusion_lat": 0.0, "name": "ac16f830eb488588072681ba6cba5051", "is_disabled": 0, "rental_uris": {"android": "https://dc.lft.to/lastmile_qr_scan", "ios": "https://dc.lft.to/lastmile_qr_scan"}, "fusion_lon": 0.0, "lat": 38.914089, "bike_id": "ac16f830eb488588072681ba6cba5051", "type": "electric_scooter", "is_reserved": 0, "lon": -77.0317485}, {"fusion_lat": 0.0, "name": "7621c4ec8098e4b0a55b523b590d09ac", "is_disabled": 0, "rental_uris": {"android": "https://dc.lft.to/lastmile_qr_scan", "ios": "https://dc.lft.to/lastmile_qr_scan"}, "fusion_lon": 0.0, "lat": 38.9341625, "bike_id": "7621c4ec8098e4b0a55b523b590d09ac", "type": "electric_scooter", "is_reserved": 0, "lon": -77.04160083333333}, {"fusion_lat": 0.0, "name": "f32a005d7b53d9c2432999d43beac349", "is_disabled": 0, "rental_uris": {"android": "https://dc.lft.to/lastmile_qr_scan", "ios": "https://dc.lft.to/lastmile_qr_scan"}, "fusion_lon": 0.0, "lat": 38.925737, "bike_id": "f32a005d7b53d9c2432999d43beac349", "type": "electric_scooter", "is_reserved": 0, "lon": -77.037418}, {"fusion_lat": 0.0, "name": "661d24939b0c44f532feaee03df55315", "is_disabled": 0, "rental_uris": {"android": "https://dc.lft.to/lastmile_qr_scan", "ios": "https://dc.lft.to/lastmile_qr_scan"}, "fusion_lon": 0.0, "lat": 38.8972185, "bike_id": "661d24939b0c44f532feaee03df55315", "type": "electric_scooter", "is_reserved": 0, "lon": -77.021507}, {"fusion_lat": 0.0, "name": "35ee7b9c940be4ae9b771db6275670cd", "is_disabled": 0, "rental_uris": {"android": "https://dc.lft.to/lastmile_qr_scan", "ios": "https://dc.lft.to/lastmile_qr_scan"}, "fusion_lon": 0.0, "lat": 38.899051666666665, "bike_id": "35ee7b9c940be4ae9b771db6275670cd", "type": "electric_scooter", "is_reserved": 0, "lon": -76.933577}, {"fusion_lat": 0.0, "name": "57d024278663603df7947c3d0640ec4d", "is_disabled": 0, "rental_uris": {"android": "https://dc.lft.to/lastmile_qr_scan", "ios": "https://dc.lft.to/lastmile_qr_scan"}, "fusion_lon": 0.0, "lat": 38.9036595, "bike_id": "57d024278663603df7947c3d0640ec4d", "type": "electric_scooter", "is_reserved": 0, "lon": -77.0600385}, {"fusion_lat": 0.0, "name": "3c7bc7c17ef5325c2d2438498481c9a5", "is_disabled": 0, "rental_uris": {"android": "https://dc.lft.to/lastmile_qr_scan", "ios": "https://dc.lft.to/lastmile_qr_scan"}, "fusion_lon": 0.0, "lat": 38.94087783333333, "bike_id": "3c7bc7c17ef5325c2d2438498481c9a5", "type": "electric_scooter", "is_reserved": 0, "lon": -77.0617595}, {"fusion_lat": 0.0, "name": "8d2be629156a8ed45d9fc791fe651a1a", "is_disabled": 0, "rental_uris": {"android": "https://dc.lft.to/lastmile_qr_scan", "ios": "https://dc.lft.to/lastmile_qr_scan"}, "fusion_lon": 0.0, "lat": 38.895542666666664, "bike_id": "8d2be629156a8ed45d9fc791fe651a1a", "type": "electric_scooter", "is_reserved": 0, "lon": -77.01094216666667}, {"fusion_lat": 0.0, "name": "cfdd010e89866ad38a747fcae8b0f7c0", "is_disabled": 0, "rental_uris": {"android": "https://dc.lft.to/lastmile_qr_scan", "ios": "https://dc.lft.to/lastmile_qr_scan"}, "fusion_lon": 0.0, "lat": 38.857656666666664, "bike_id": "cfdd010e89866ad38a747fcae8b0f7c0", "type": "electric_bike", "is_reserved": 0, "lon": -76.98760233333333}, {"fusion_lat": 0.0, "name": "abc0ac6f19f3ae8dd7675d82c74d0f1a", "is_disabled": 0, "rental_uris": {"android": "https://dc.lft.to/lastmile_qr_scan", "ios": "https://dc.lft.to/lastmile_qr_scan"}, "fusion_lon": 0.0, "lat": 38.89726433333333, "bike_id": "abc0ac6f19f3ae8dd7675d82c74d0f1a", "type": "electric_scooter", "is_reserved": 0, "lon": -77.055219}, {"fusion_lat": 0.0, "name": "9c10cc958ebfa3a4e779a66d71d7ce23", "is_disabled": 0, "rental_uris": {"android": "https://dc.lft.to/lastmile_qr_scan", "ios": "https://dc.lft.to/lastmile_qr_scan"}, "fusion_lon": 0.0, "lat": 38.91053316666667, "bike_id": "9c10cc958ebfa3a4e779a66d71d7ce23", "type": "electric_scooter", "is_reserved": 0, "lon": -77.04344683333333}, {"fusion_lat": 0.0, "name": "189a7531fa001c7f9bc4592028b75de0", "is_disabled": 0, "rental_uris": {"android": "https://dc.lft.to/lastmile_qr_scan", "ios": "https://dc.lft.to/lastmile_qr_scan"}, "fusion_lon": 0.0, "lat": 38.8985435, "bike_id": "189a7531fa001c7f9bc4592028b75de0", "type": "electric_scooter", "is_reserved": 0, "lon": -77.02632283333334}, {"fusion_lat": 0.0, "name": "00f3fe5600b446586771cee9a0e1ec28", "is_disabled": 0, "rental_uris": {"android": "https://dc.lft.to/lastmile_qr_scan", "ios": "https://dc.lft.to/lastmile_qr_scan"}, "fusion_lon": 0.0, "lat": 38.901902, "bike_id": "00f3fe5600b446586771cee9a0e1ec28", "type": "electric_scooter", "is_reserved": 0, "lon": -77.05008066666667}, {"fusion_lat": 0.0, "name": "e7e3c35844138458203376801f1c58e4", "is_disabled": 0, "rental_uris": {"android": "https://dc.lft.to/lastmile_qr_scan", "ios": "https://dc.lft.to/lastmile_qr_scan"}, "fusion_lon": 0.0, "lat": 38.94842366666666, "bike_id": "e7e3c35844138458203376801f1c58e4", "type": "electric_scooter", "is_reserved": 0, "lon": -77.07982383333334}, {"fusion_lat": 0.0, "name": "e90fb10af39259cbf9bfcb42a5481b52", "is_disabled": 0, "rental_uris": {"android": "https://dc.lft.to/lastmile_qr_scan", "ios": "https://dc.lft.to/lastmile_qr_scan"}, "fusion_lon": 0.0, "lat": 38.89797766666667, "bike_id": "e90fb10af39259cbf9bfcb42a5481b52", "type": "electric_scooter", "is_reserved": 0, "lon": -77.0218605}, {"fusion_lat": 0.0, "name": "c3721bae39b06f187204888de5d44dc1", "is_disabled": 0, "rental_uris": {"android": "https://dc.lft.to/lastmile_qr_scan", "ios": "https://dc.lft.to/lastmile_qr_scan"}, "fusion_lon": 0.0, "lat": 38.883886833333335, "bike_id": "c3721bae39b06f187204888de5d44dc1", "type": "electric_scooter", "is_reserved": 0, "lon": -76.9304625}, {"fusion_lat": 0.0, "name": "62c973ec462cc7d925124443dc6f1185", "is_disabled": 0, "rental_uris": {"android": "https://dc.lft.to/lastmile_qr_scan", "ios": "https://dc.lft.to/lastmile_qr_scan"}, "fusion_lon": 0.0, "lat": 38.905142833333336, "bike_id": "62c973ec462cc7d925124443dc6f1185", "type": "electric_scooter", "is_reserved": 0, "lon": -77.06378766666667}, {"fusion_lat": 0.0, "name": "4c9ee0eef9d1e320face57a60d4b22a6", "is_disabled": 0, "rental_uris": {"android": "https://dc.lft.to/lastmile_qr_scan", "ios": "https://dc.lft.to/lastmile_qr_scan"}, "fusion_lon": 0.0, "lat": 38.91701483333333, "bike_id": "4c9ee0eef9d1e320face57a60d4b22a6", "type": "electric_scooter", "is_reserved": 0, "lon": -77.03776066666667}, {"fusion_lat": 0.0, "name": "d1b0dc1790096ba806a459fa0c10949b", "is_disabled": 0, "rental_uris": {"android": "https://dc.lft.to/lastmile_qr_scan", "ios": "https://dc.lft.to/lastmile_qr_scan"}, "fusion_lon": 0.0, "lat": 38.841952166666665, "bike_id": "d1b0dc1790096ba806a459fa0c10949b", "type": "electric_bike", "is_reserved": 0, "lon": -77.07748916666667}, {"fusion_lat": 0.0, "name": "abda4d7f59b90683932145464441ba3e", "is_disabled": 0, "rental_uris": {"android": "https://dc.lft.to/lastmile_qr_scan", "ios": "https://dc.lft.to/lastmile_qr_scan"}, "fusion_lon": 0.0, "lat": 38.883851166666666, "bike_id": "abda4d7f59b90683932145464441ba3e", "type": "electric_scooter", "is_reserved": 0, "lon": -76.93039616666667}, {"fusion_lat": 0.0, "name": "70d7099d6288323eeb8f305f669bd64b", "is_disabled": 0, "rental_uris": {"android": "https://dc.lft.to/lastmile_qr_scan", "ios": "https://dc.lft.to/lastmile_qr_scan"}, "fusion_lon": 0.0, "lat": 38.905217, "bike_id": "70d7099d6288323eeb8f305f669bd64b", "type": "electric_scooter", "is_reserved": 0, "lon": -77.0652425}, {"fusion_lat": 0.0, "name": "f19d7c0b08a2fb55448ff19f4d89673c", "is_disabled": 0, "rental_uris": {"android": "https://dc.lft.to/lastmile_qr_scan", "ios": "https://dc.lft.to/lastmile_qr_scan"}, "fusion_lon": 0.0, "lat": 38.910199166666665, "bike_id": "f19d7c0b08a2fb55448ff19f4d89673c", "type": "electric_scooter", "is_reserved": 0, "lon": -77.05267883333333}, {"fusion_lat": 0.0, "name": "03a7910e76c4d1fff90513efdf4a0c47", "is_disabled": 0, "rental_uris": {"android": "https://dc.lft.to/lastmile_qr_scan", "ios": "https://dc.lft.to/lastmile_qr_scan"}, "fusion_lon": 0.0, "lat": 38.88322383333333, "bike_id": "03a7910e76c4d1fff90513efdf4a0c47", "type": "electric_scooter", "is_reserved": 0, "lon": -77.0137415}, {"fusion_lat": 0.0, "name": "ed9353ca8413e914a5df7e1269e20a38", "is_disabled": 0, "rental_uris": {"android": "https://dc.lft.to/lastmile_qr_scan", "ios": "https://dc.lft.to/lastmile_qr_scan"}, "fusion_lon": 0.0, "lat": 38.903858, "bike_id": "ed9353ca8413e914a5df7e1269e20a38", "type": "electric_scooter", "is_reserved": 0, "lon": -77.067038}, {"fusion_lat": 0.0, "name": "29d050a3b9be17d00c505d796b0ac522", "is_disabled": 0, "rental_uris": {"android": "https://dc.lft.to/lastmile_qr_scan", "ios": "https://dc.lft.to/lastmile_qr_scan"}, "fusion_lon": 0.0, "lat": 38.9879215, "bike_id": "29d050a3b9be17d00c505d796b0ac522", "type": "electric_bike", "is_reserved": 0, "lon": -77.14092783333334}, {"fusion_lat": 0.0, "name": "b3283dd1410f979332adaea6e21cc843", "is_disabled": 0, "rental_uris": {"android": "https://dc.lft.to/lastmile_qr_scan", "ios": "https://dc.lft.to/lastmile_qr_scan"}, "fusion_lon": 0.0, "lat": 38.879102, "bike_id": "b3283dd1410f979332adaea6e21cc843", "type": "electric_scooter", "is_reserved": 0, "lon": -77.005475}, {"fusion_lat": 0.0, "name": "86fb7f9737b5f3f676b8c971a32ef5de", "is_disabled": 0, "rental_uris": {"android": "https://dc.lft.to/lastmile_qr_scan", "ios": "https://dc.lft.to/lastmile_qr_scan"}, "fusion_lon": 0.0, "lat": 38.9416535, "bike_id": "86fb7f9737b5f3f676b8c971a32ef5de", "type": "electric_bike", "is_reserved": 0, "lon": -76.966436}, {"fusion_lat": 0.0, "name": "802b7d4e355334a620ebfab33c5dd0d8", "is_disabled": 0, "rental_uris": {"android": "https://dc.lft.to/lastmile_qr_scan", "ios": "https://dc.lft.to/lastmile_qr_scan"}, "fusion_lon": 0.0, "lat": 38.941535333333334, "bike_id": "802b7d4e355334a620ebfab33c5dd0d8", "type": "electric_bike", "is_reserved": 0, "lon": -77.0019325}, {"fusion_lat": 0.0, "name": "81b66ee42da45d6c4f90d3145e2c742f", "is_disabled": 0, "rental_uris": {"android": "https://dc.lft.to/lastmile_qr_scan", "ios": "https://dc.lft.to/lastmile_qr_scan"}, "fusion_lon": 0.0, "lat": 38.89219683333334, "bike_id": "81b66ee42da45d6c4f90d3145e2c742f", "type": "electric_scooter", "is_reserved": 0, "lon": -77.02412716666667}, {"fusion_lat": 0.0, "name": "c46070f84a05456464ed4a31618ddf71", "is_disabled": 0, "rental_uris": {"android": "https://dc.lft.to/lastmile_qr_scan", "ios": "https://dc.lft.to/lastmile_qr_scan"}, "fusion_lon": 0.0, "lat": 38.913875166666664, "bike_id": "c46070f84a05456464ed4a31618ddf71", "type": "electric_scooter", "is_reserved": 0, "lon": -77.0395195}, {"fusion_lat": 0.0, "name": "60d27017ff7eabec8a6f991bffa66036", "is_disabled": 0, "rental_uris": {"android": "https://dc.lft.to/lastmile_qr_scan", "ios": "https://dc.lft.to/lastmile_qr_scan"}, "fusion_lon": 0.0, "lat": 38.91708066666666, "bike_id": "60d27017ff7eabec8a6f991bffa66036", "type": "electric_scooter", "is_reserved": 0, "lon": -77.00869116666667}, {"fusion_lat": 0.0, "name": "974c118858c84e2fb66ee65dd3542309", "is_disabled": 0, "rental_uris": {"android": "https://dc.lft.to/lastmile_qr_scan", "ios": "https://dc.lft.to/lastmile_qr_scan"}, "fusion_lon": 0.0, "lat": 38.929719666666664, "bike_id": "974c118858c84e2fb66ee65dd3542309", "type": "electric_scooter", "is_reserved": 0, "lon": -77.03137533333333}, {"fusion_lat": 0.0, "name": "0cbdc01694f0bfb8aceacf1a597748be", "is_disabled": 0, "rental_uris": {"android": "https://dc.lft.to/lastmile_qr_scan", "ios": "https://dc.lft.to/lastmile_qr_scan"}, "fusion_lon": 0.0, "lat": 38.905081333333335, "bike_id": "0cbdc01694f0bfb8aceacf1a597748be", "type": "electric_scooter", "is_reserved": 0, "lon": -77.04650383333333}, {"fusion_lat": 0.0, "name": "3d2bf81af2ab6a34fc4fc426f31f55b9", "is_disabled": 0, "rental_uris": {"android": "https://dc.lft.to/lastmile_qr_scan", "ios": "https://dc.lft.to/lastmile_qr_scan"}, "fusion_lon": 0.0, "lat": 38.9574025, "bike_id": "3d2bf81af2ab6a34fc4fc426f31f55b9", "type": "electric_bike", "is_reserved": 0, "lon": -76.98083833333334}, {"fusion_lat": 0.0, "name": "c06175d78dc2752c1508dae763c5a996", "is_disabled": 0, "rental_uris": {"android": "https://dc.lft.to/lastmile_qr_scan", "ios": "https://dc.lft.to/lastmile_qr_scan"}, "fusion_lon": 0.0, "lat": 38.905304, "bike_id": "c06175d78dc2752c1508dae763c5a996", "type": "electric_scooter", "is_reserved": 0, "lon": -77.0593375}, {"fusion_lat": 0.0, "name": "8b8bc2baf381ffc658a7f2d1b86f119f", "is_disabled": 0, "rental_uris": {"android": "https://dc.lft.to/lastmile_qr_scan", "ios": "https://dc.lft.to/lastmile_qr_scan"}, "fusion_lon": 0.0, "lat": 38.887484, "bike_id": "8b8bc2baf381ffc658a7f2d1b86f119f", "type": "electric_scooter", "is_reserved": 0, "lon": -77.02443983333333}, {"fusion_lat": 0.0, "name": "98a7b2fb640f1228ea923ee2835f302e", "is_disabled": 0, "rental_uris": {"android": "https://dc.lft.to/lastmile_qr_scan", "ios": "https://dc.lft.to/lastmile_qr_scan"}, "fusion_lon": 0.0, "lat": 38.950759166666664, "bike_id": "98a7b2fb640f1228ea923ee2835f302e", "type": "electric_bike", "is_reserved": 0, "lon": -77.01199016666666}, {"fusion_lat": 0.0, "name": "00d523e4d6484c3978065cb8163ead7e", "is_disabled": 0, "rental_uris": {"android": "https://dc.lft.to/lastmile_qr_scan", "ios": "https://dc.lft.to/lastmile_qr_scan"}, "fusion_lon": 0.0, "lat": 38.911083, "bike_id": "00d523e4d6484c3978065cb8163ead7e", "type": "electric_scooter", "is_reserved": 0, "lon": -77.04177633333333}, {"fusion_lat": 0.0, "name": "7f344d5e56eacd671bbb391961f2b524", "is_disabled": 0, "rental_uris": {"android": "https://dc.lft.to/lastmile_qr_scan", "ios": "https://dc.lft.to/lastmile_qr_scan"}, "fusion_lon": 0.0, "lat": 38.899048, "bike_id": "7f344d5e56eacd671bbb391961f2b524", "type": "electric_scooter", "is_reserved": 0, "lon": -76.93349283333333}, {"fusion_lat": 0.0, "name": "3268a696d6ae7ed77592fa5b17940c00", "is_disabled": 0, "rental_uris": {"android": "https://dc.lft.to/lastmile_qr_scan", "ios": "https://dc.lft.to/lastmile_qr_scan"}, "fusion_lon": 0.0, "lat": 38.9219975, "bike_id": "3268a696d6ae7ed77592fa5b17940c00", "type": "electric_scooter", "is_reserved": 0, "lon": -77.08074266666667}, {"fusion_lat": 0.0, "name": "08f4b35992a1e3fda2288913508b3496", "is_disabled": 0, "rental_uris": {"android": "https://dc.lft.to/lastmile_qr_scan", "ios": "https://dc.lft.to/lastmile_qr_scan"}, "fusion_lon": 0.0, "lat": 38.9361135, "bike_id": "08f4b35992a1e3fda2288913508b3496", "type": "electric_scooter", "is_reserved": 0, "lon": -77.03193866666666}, {"fusion_lat": 0.0, "name": "9046e6359e4c70a0580573f73ba56fb1", "is_disabled": 0, "rental_uris": {"android": "https://dc.lft.to/lastmile_qr_scan", "ios": "https://dc.lft.to/lastmile_qr_scan"}, "fusion_lon": 0.0, "lat": 38.92871366666667, "bike_id": "9046e6359e4c70a0580573f73ba56fb1", "type": "electric_scooter", "is_reserved": 0, "lon": -77.03319166666667}, {"fusion_lat": 0.0, "name": "2a820025ef88c7ede78c22f406e7650b", "is_disabled": 0, "rental_uris": {"android": "https://dc.lft.to/lastmile_qr_scan", "ios": "https://dc.lft.to/lastmile_qr_scan"}, "fusion_lon": 0.0, "lat": 38.926955166666666, "bike_id": "2a820025ef88c7ede78c22f406e7650b", "type": "electric_scooter", "is_reserved": 0, "lon": -77.02428516666667}, {"fusion_lat": 0.0, "name": "b2772ff3eab4ff3352d2e1bd6492bcd3", "is_disabled": 0, "rental_uris": {"android": "https://dc.lft.to/lastmile_qr_scan", "ios": "https://dc.lft.to/lastmile_qr_scan"}, "fusion_lon": 0.0, "lat": 38.8923465, "bike_id": "b2772ff3eab4ff3352d2e1bd6492bcd3", "type": "electric_scooter", "is_reserved": 0, "lon": -77.03176333333333}, {"fusion_lat": 0.0, "name": "cbdd666591524ee4d29e63becf34541f", "is_disabled": 0, "rental_uris": {"android": "https://dc.lft.to/lastmile_qr_scan", "ios": "https://dc.lft.to/lastmile_qr_scan"}, "fusion_lon": 0.0, "lat": 38.922253, "bike_id": "cbdd666591524ee4d29e63becf34541f", "type": "electric_scooter", "is_reserved": 0, "lon": -77.04336283333333}, {"fusion_lat": 0.0, "name": "84e648b1da3c2283f8754c9fa1618758", "is_disabled": 0, "rental_uris": {"android": "https://dc.lft.to/lastmile_qr_scan", "ios": "https://dc.lft.to/lastmile_qr_scan"}, "fusion_lon": 0.0, "lat": 38.900278, "bike_id": "84e648b1da3c2283f8754c9fa1618758", "type": "electric_scooter", "is_reserved": 0, "lon": -77.0020335}, {"fusion_lat": 0.0, "name": "5cfc6996ab8084810bbbf16bd0c33f1c", "is_disabled": 0, "rental_uris": {"android": "https://dc.lft.to/lastmile_qr_scan", "ios": "https://dc.lft.to/lastmile_qr_scan"}, "fusion_lon": 0.0, "lat": 38.86516016666667, "bike_id": "5cfc6996ab8084810bbbf16bd0c33f1c", "type": "electric_bike", "is_reserved": 0, "lon": -77.12935133333333}, {"fusion_lat": 0.0, "name": "005f972bd74f5fcfb8d5583bf08dd2af", "is_disabled": 0, "rental_uris": {"android": "https://dc.lft.to/lastmile_qr_scan", "ios": "https://dc.lft.to/lastmile_qr_scan"}, "fusion_lon": 0.0, "lat": 38.88452566666667, "bike_id": "005f972bd74f5fcfb8d5583bf08dd2af", "type": "electric_scooter", "is_reserved": 0, "lon": -77.03352833333334}, {"fusion_lat": 0.0, "name": "2e8681da57cc0e5db806a8912944f6db", "is_disabled": 0, "rental_uris": {"android": "https://dc.lft.to/lastmile_qr_scan", "ios": "https://dc.lft.to/lastmile_qr_scan"}, "fusion_lon": 0.0, "lat": 38.92730233333333, "bike_id": "2e8681da57cc0e5db806a8912944f6db", "type": "electric_scooter", "is_reserved": 0, "lon": -77.02710483333334}, {"fusion_lat": 0.0, "name": "ff572ae5925052e63665f16fe212e56b", "is_disabled": 0, "rental_uris": {"android": "https://dc.lft.to/lastmile_qr_scan", "ios": "https://dc.lft.to/lastmile_qr_scan"}, "fusion_lon": 0.0, "lat": 38.95278866666666, "bike_id": "ff572ae5925052e63665f16fe212e56b", "type": "electric_scooter", "is_reserved": 0, "lon": -77.06900683333333}, {"fusion_lat": 0.0, "name": "866d378d2aeb0feff27a92d733fb3edb", "is_disabled": 0, "rental_uris": {"android": "https://dc.lft.to/lastmile_qr_scan", "ios": "https://dc.lft.to/lastmile_qr_scan"}, "fusion_lon": 0.0, "lat": 38.90435266666667, "bike_id": "866d378d2aeb0feff27a92d733fb3edb", "type": "electric_scooter", "is_reserved": 0, "lon": -76.98281466666667}, {"fusion_lat": 0.0, "name": "e62be6fc15923e32af2fd9e21c5055fb", "is_disabled": 0, "rental_uris": {"android": "https://dc.lft.to/lastmile_qr_scan", "ios": "https://dc.lft.to/lastmile_qr_scan"}, "fusion_lon": 0.0, "lat": 38.909437833333335, "bike_id": "e62be6fc15923e32af2fd9e21c5055fb", "type": "electric_scooter", "is_reserved": 0, "lon": -77.04671783333333}, {"fusion_lat": 0.0, "name": "17b8a1403ed32a52f06bb901957d38e8", "is_disabled": 0, "rental_uris": {"android": "https://dc.lft.to/lastmile_qr_scan", "ios": "https://dc.lft.to/lastmile_qr_scan"}, "fusion_lon": 0.0, "lat": 38.919577, "bike_id": "17b8a1403ed32a52f06bb901957d38e8", "type": "electric_scooter", "is_reserved": 0, "lon": -77.02330216666667}, {"fusion_lat": 0.0, "name": "1e6674670991b9d4a49ca1ab981a7441", "is_disabled": 0, "rental_uris": {"android": "https://dc.lft.to/lastmile_qr_scan", "ios": "https://dc.lft.to/lastmile_qr_scan"}, "fusion_lon": 0.0, "lat": 38.92339533333333, "bike_id": "1e6674670991b9d4a49ca1ab981a7441", "type": "electric_scooter", "is_reserved": 0, "lon": -77.0419855}, {"fusion_lat": 0.0, "name": "e29217ff06e97b624e4c41df5048051b", "is_disabled": 0, "rental_uris": {"android": "https://dc.lft.to/lastmile_qr_scan", "ios": "https://dc.lft.to/lastmile_qr_scan"}, "fusion_lon": 0.0, "lat": 38.92878016666667, "bike_id": "e29217ff06e97b624e4c41df5048051b", "type": "electric_scooter", "is_reserved": 0, "lon": -77.03355133333334}, {"fusion_lat": 0.0, "name": "6d0ac46eafa4a86a340202b06f597206", "is_disabled": 0, "rental_uris": {"android": "https://dc.lft.to/lastmile_qr_scan", "ios": "https://dc.lft.to/lastmile_qr_scan"}, "fusion_lon": 0.0, "lat": 38.874705, "bike_id": "6d0ac46eafa4a86a340202b06f597206", "type": "electric_scooter", "is_reserved": 0, "lon": -77.01700233333334}, {"fusion_lat": 0.0, "name": "ec5cde739e930e7125369b1f6fe26959", "is_disabled": 0, "rental_uris": {"android": "https://dc.lft.to/lastmile_qr_scan", "ios": "https://dc.lft.to/lastmile_qr_scan"}, "fusion_lon": 0.0, "lat": 38.878467, "bike_id": "ec5cde739e930e7125369b1f6fe26959", "type": "electric_bike", "is_reserved": 0, "lon": -77.03020283333333}, {"fusion_lat": 0.0, "name": "5eea0444e51c19ff43e719d8a2e5dd07", "is_disabled": 0, "rental_uris": {"android": "https://dc.lft.to/lastmile_qr_scan", "ios": "https://dc.lft.to/lastmile_qr_scan"}, "fusion_lon": 0.0, "lat": 38.99521083333333, "bike_id": "5eea0444e51c19ff43e719d8a2e5dd07", "type": "electric_bike", "is_reserved": 0, "lon": -77.029044}, {"fusion_lat": 0.0, "name": "c074ec53d3abdffdd8a3eef0929ea464", "is_disabled": 0, "rental_uris": {"android": "https://dc.lft.to/lastmile_qr_scan", "ios": "https://dc.lft.to/lastmile_qr_scan"}, "fusion_lon": 0.0, "lat": 38.91933733333333, "bike_id": "c074ec53d3abdffdd8a3eef0929ea464", "type": "electric_scooter", "is_reserved": 0, "lon": -77.03178483333333}, {"fusion_lat": 0.0, "name": "675a96abf86dd20be642d5a5bd4f09e6", "is_disabled": 0, "rental_uris": {"android": "https://dc.lft.to/lastmile_qr_scan", "ios": "https://dc.lft.to/lastmile_qr_scan"}, "fusion_lon": 0.0, "lat": 38.900537, "bike_id": "675a96abf86dd20be642d5a5bd4f09e6", "type": "electric_scooter", "is_reserved": 0, "lon": -77.00067866666667}, {"fusion_lat": 0.0, "name": "c93b0bec32cda172cfe1b63e06eacfb0", "is_disabled": 0, "rental_uris": {"android": "https://dc.lft.to/lastmile_qr_scan", "ios": "https://dc.lft.to/lastmile_qr_scan"}, "fusion_lon": 0.0, "lat": 38.919802833333335, "bike_id": "c93b0bec32cda172cfe1b63e06eacfb0", "type": "electric_scooter", "is_reserved": 0, "lon": -77.0417035}, {"fusion_lat": 0.0, "name": "0d1d8ddeff97185137ea28296423b302", "is_disabled": 0, "rental_uris": {"android": "https://dc.lft.to/lastmile_qr_scan", "ios": "https://dc.lft.to/lastmile_qr_scan"}, "fusion_lon": 0.0, "lat": 38.902898, "bike_id": "0d1d8ddeff97185137ea28296423b302", "type": "electric_scooter", "is_reserved": 0, "lon": -76.99036633333333}, {"fusion_lat": 0.0, "name": "eae9e408592bbde5e56a7ad283bd6d20", "is_disabled": 0, "rental_uris": {"android": "https://dc.lft.to/lastmile_qr_scan", "ios": "https://dc.lft.to/lastmile_qr_scan"}, "fusion_lon": 0.0, "lat": 38.90826666666667, "bike_id": "eae9e408592bbde5e56a7ad283bd6d20", "type": "electric_scooter", "is_reserved": 0, "lon": -77.03369116666667}, {"fusion_lat": 0.0, "name": "2851f58083e9c718a36d5fcf71a0dfd5", "is_disabled": 0, "rental_uris": {"android": "https://dc.lft.to/lastmile_qr_scan", "ios": "https://dc.lft.to/lastmile_qr_scan"}, "fusion_lon": 0.0, "lat": 38.9229115, "bike_id": "2851f58083e9c718a36d5fcf71a0dfd5", "type": "electric_scooter", "is_reserved": 0, "lon": -77.07326383333333}, {"fusion_lat": 0.0, "name": "78c049816437585aa56829d17c05aad0", "is_disabled": 0, "rental_uris": {"android": "https://dc.lft.to/lastmile_qr_scan", "ios": "https://dc.lft.to/lastmile_qr_scan"}, "fusion_lon": 0.0, "lat": 38.91813883333333, "bike_id": "78c049816437585aa56829d17c05aad0", "type": "electric_scooter", "is_reserved": 0, "lon": -77.01146816666666}, {"fusion_lat": 0.0, "name": "2ebcc63d3a345ab786c0b635af5ff38a", "is_disabled": 0, "rental_uris": {"android": "https://dc.lft.to/lastmile_qr_scan", "ios": "https://dc.lft.to/lastmile_qr_scan"}, "fusion_lon": 0.0, "lat": 38.895771, "bike_id": "2ebcc63d3a345ab786c0b635af5ff38a", "type": "electric_bike", "is_reserved": 0, "lon": -77.02176333333334}, {"fusion_lat": 0.0, "name": "4713e63c5afcdd648dc73228ea23c2ce", "is_disabled": 0, "rental_uris": {"android": "https://dc.lft.to/lastmile_qr_scan", "ios": "https://dc.lft.to/lastmile_qr_scan"}, "fusion_lon": 0.0, "lat": 38.956343333333336, "bike_id": "4713e63c5afcdd648dc73228ea23c2ce", "type": "electric_scooter", "is_reserved": 0, "lon": -77.03304633333333}, {"fusion_lat": 0.0, "name": "04ab5fa65a6aad11cd09370ecafa1842", "is_disabled": 0, "rental_uris": {"android": "https://dc.lft.to/lastmile_qr_scan", "ios": "https://dc.lft.to/lastmile_qr_scan"}, "fusion_lon": 0.0, "lat": 38.958746833333336, "bike_id": "04ab5fa65a6aad11cd09370ecafa1842", "type": "electric_bike", "is_reserved": 0, "lon": -76.97060233333333}, {"fusion_lat": 0.0, "name": "b7868f31f54b1a622f0af8273bcece0b", "is_disabled": 0, "rental_uris": {"android": "https://dc.lft.to/lastmile_qr_scan", "ios": "https://dc.lft.to/lastmile_qr_scan"}, "fusion_lon": 0.0, "lat": 38.903872666666665, "bike_id": "b7868f31f54b1a622f0af8273bcece0b", "type": "electric_scooter", "is_reserved": 0, "lon": -77.04047783333333}, {"fusion_lat": 0.0, "name": "f2445ac90cd456c8935c8bcc0e067c6c", "is_disabled": 0, "rental_uris": {"android": "https://dc.lft.to/lastmile_qr_scan", "ios": "https://dc.lft.to/lastmile_qr_scan"}, "fusion_lon": 0.0, "lat": 38.95575616666667, "bike_id": "f2445ac90cd456c8935c8bcc0e067c6c", "type": "electric_bike", "is_reserved": 0, "lon": -77.01005533333333}, {"fusion_lat": 0.0, "name": "bbafddd1e4b54615dd8cbc5225fed9d6", "is_disabled": 0, "rental_uris": {"android": "https://dc.lft.to/lastmile_qr_scan", "ios": "https://dc.lft.to/lastmile_qr_scan"}, "fusion_lon": 0.0, "lat": 38.921865833333335, "bike_id": "bbafddd1e4b54615dd8cbc5225fed9d6", "type": "electric_scooter", "is_reserved": 0, "lon": -77.04347266666667}, {"fusion_lat": 0.0, "name": "481b25aeb70475518c274b80fc4564dc", "is_disabled": 0, "rental_uris": {"android": "https://dc.lft.to/lastmile_qr_scan", "ios": "https://dc.lft.to/lastmile_qr_scan"}, "fusion_lon": 0.0, "lat": 38.903695166666665, "bike_id": "481b25aeb70475518c274b80fc4564dc", "type": "electric_scooter", "is_reserved": 0, "lon": -77.05004233333334}, {"fusion_lat": 0.0, "name": "63f705a5efc157261eb5c8dc863d9aad", "is_disabled": 0, "rental_uris": {"android": "https://dc.lft.to/lastmile_qr_scan", "ios": "https://dc.lft.to/lastmile_qr_scan"}, "fusion_lon": 0.0, "lat": 38.9260055, "bike_id": "63f705a5efc157261eb5c8dc863d9aad", "type": "electric_scooter", "is_reserved": 0, "lon": -77.02154966666667}, {"fusion_lat": 0.0, "name": "b99bef5348b399d36f3e8787710eb99f", "is_disabled": 0, "rental_uris": {"android": "https://dc.lft.to/lastmile_qr_scan", "ios": "https://dc.lft.to/lastmile_qr_scan"}, "fusion_lon": 0.0, "lat": 38.92902516666667, "bike_id": "b99bef5348b399d36f3e8787710eb99f", "type": "electric_scooter", "is_reserved": 0, "lon": -77.032544}, {"fusion_lat": 0.0, "name": "ea776907c0477b1a4d62ebfb37d565ca", "is_disabled": 0, "rental_uris": {"android": "https://dc.lft.to/lastmile_qr_scan", "ios": "https://dc.lft.to/lastmile_qr_scan"}, "fusion_lon": 0.0, "lat": 38.930795333333336, "bike_id": "ea776907c0477b1a4d62ebfb37d565ca", "type": "electric_scooter", "is_reserved": 0, "lon": -77.03285966666667}, {"fusion_lat": 0.0, "name": "41c0c25581c3e2238821d9856d4b7abd", "is_disabled": 0, "rental_uris": {"android": "https://dc.lft.to/lastmile_qr_scan", "ios": "https://dc.lft.to/lastmile_qr_scan"}, "fusion_lon": 0.0, "lat": 38.91991683333333, "bike_id": "41c0c25581c3e2238821d9856d4b7abd", "type": "electric_scooter", "is_reserved": 0, "lon": -77.0332405}, {"fusion_lat": 0.0, "name": "59fbd67cee1445660735d6103504a1f8", "is_disabled": 0, "rental_uris": {"android": "https://dc.lft.to/lastmile_qr_scan", "ios": "https://dc.lft.to/lastmile_qr_scan"}, "fusion_lon": 0.0, "lat": 38.922232666666666, "bike_id": "59fbd67cee1445660735d6103504a1f8", "type": "electric_scooter", "is_reserved": 0, "lon": -77.04238533333333}, {"fusion_lat": 0.0, "name": "04b9f3139f0799453005a7012ccc1ff8", "is_disabled": 0, "rental_uris": {"android": "https://dc.lft.to/lastmile_qr_scan", "ios": "https://dc.lft.to/lastmile_qr_scan"}, "fusion_lon": 0.0, "lat": 38.9156915, "bike_id": "04b9f3139f0799453005a7012ccc1ff8", "type": "electric_scooter", "is_reserved": 0, "lon": -77.03847466666667}, {"fusion_lat": 0.0, "name": "dbc9dd7c5746a43f6c57c004da57ae15", "is_disabled": 0, "rental_uris": {"android": "https://dc.lft.to/lastmile_qr_scan", "ios": "https://dc.lft.to/lastmile_qr_scan"}, "fusion_lon": 0.0, "lat": 38.92559116666666, "bike_id": "dbc9dd7c5746a43f6c57c004da57ae15", "type": "electric_scooter", "is_reserved": 0, "lon": -77.038266}, {"fusion_lat": 0.0, "name": "c5c87996d9e3ab524d49d87c31d73ae4", "is_disabled": 0, "rental_uris": {"android": "https://dc.lft.to/lastmile_qr_scan", "ios": "https://dc.lft.to/lastmile_qr_scan"}, "fusion_lon": 0.0, "lat": 38.90639633333333, "bike_id": "c5c87996d9e3ab524d49d87c31d73ae4", "type": "electric_scooter", "is_reserved": 0, "lon": -77.0371245}, {"fusion_lat": 0.0, "name": "60e2d8213e1681320ffbe60467743534", "is_disabled": 0, "rental_uris": {"android": "https://dc.lft.to/lastmile_qr_scan", "ios": "https://dc.lft.to/lastmile_qr_scan"}, "fusion_lon": 0.0, "lat": 38.938737333333336, "bike_id": "60e2d8213e1681320ffbe60467743534", "type": "electric_scooter", "is_reserved": 0, "lon": -77.0247095}, {"fusion_lat": 0.0, "name": "b92b962ea53100ca973b3374c0633a5b", "is_disabled": 0, "rental_uris": {"android": "https://dc.lft.to/lastmile_qr_scan", "ios": "https://dc.lft.to/lastmile_qr_scan"}, "fusion_lon": 0.0, "lat": 38.89899033333333, "bike_id": "b92b962ea53100ca973b3374c0633a5b", "type": "electric_scooter", "is_reserved": 0, "lon": -77.01522566666667}, {"fusion_lat": 0.0, "name": "a30ca522db249d84a106181fe440fb55", "is_disabled": 0, "rental_uris": {"android": "https://dc.lft.to/lastmile_qr_scan", "ios": "https://dc.lft.to/lastmile_qr_scan"}, "fusion_lon": 0.0, "lat": 38.892222333333336, "bike_id": "a30ca522db249d84a106181fe440fb55", "type": "electric_scooter", "is_reserved": 0, "lon": -77.03142433333333}, {"fusion_lat": 0.0, "name": "e348c5f8e0e26b65a96cd30e35d7a5a5", "is_disabled": 0, "rental_uris": {"android": "https://dc.lft.to/lastmile_qr_scan", "ios": "https://dc.lft.to/lastmile_qr_scan"}, "fusion_lon": 0.0, "lat": 38.90088816666667, "bike_id": "e348c5f8e0e26b65a96cd30e35d7a5a5", "type": "electric_scooter", "is_reserved": 0, "lon": -76.983355}, {"fusion_lat": 0.0, "name": "1707d9904c4a07f06c6a78737f90cf9c", "is_disabled": 0, "rental_uris": {"android": "https://dc.lft.to/lastmile_qr_scan", "ios": "https://dc.lft.to/lastmile_qr_scan"}, "fusion_lon": 0.0, "lat": 38.910407666666664, "bike_id": "1707d9904c4a07f06c6a78737f90cf9c", "type": "electric_scooter", "is_reserved": 0, "lon": -77.008328}, {"fusion_lat": 0.0, "name": "88493388bea1ed2e7851578af501ebd2", "is_disabled": 0, "rental_uris": {"android": "https://dc.lft.to/lastmile_qr_scan", "ios": "https://dc.lft.to/lastmile_qr_scan"}, "fusion_lon": 0.0, "lat": 38.90892866666667, "bike_id": "88493388bea1ed2e7851578af501ebd2", "type": "electric_scooter", "is_reserved": 0, "lon": -77.03658566666667}, {"fusion_lat": 0.0, "name": "5f941ca7ca4b3b1f485050fbc1a030a5", "is_disabled": 0, "rental_uris": {"android": "https://dc.lft.to/lastmile_qr_scan", "ios": "https://dc.lft.to/lastmile_qr_scan"}, "fusion_lon": 0.0, "lat": 38.8884795, "bike_id": "5f941ca7ca4b3b1f485050fbc1a030a5", "type": "electric_scooter", "is_reserved": 0, "lon": -76.9268095}, {"fusion_lat": 0.0, "name": "037845d335f8a7e6ca46fa2f70d4e8d1", "is_disabled": 0, "rental_uris": {"android": "https://dc.lft.to/lastmile_qr_scan", "ios": "https://dc.lft.to/lastmile_qr_scan"}, "fusion_lon": 0.0, "lat": 38.9152045, "bike_id": "037845d335f8a7e6ca46fa2f70d4e8d1", "type": "electric_scooter", "is_reserved": 0, "lon": -77.04599466666667}, {"fusion_lat": 0.0, "name": "25501d6e11968c61337d748924541550", "is_disabled": 0, "rental_uris": {"android": "https://dc.lft.to/lastmile_qr_scan", "ios": "https://dc.lft.to/lastmile_qr_scan"}, "fusion_lon": 0.0, "lat": 38.914251166666666, "bike_id": "25501d6e11968c61337d748924541550", "type": "electric_scooter", "is_reserved": 0, "lon": -77.045387}, {"fusion_lat": 0.0, "name": "8ddc87a5ec5f1ffd5e87dcdb489c1079", "is_disabled": 0, "rental_uris": {"android": "https://dc.lft.to/lastmile_qr_scan", "ios": "https://dc.lft.to/lastmile_qr_scan"}, "fusion_lon": 0.0, "lat": 38.89485483333333, "bike_id": "8ddc87a5ec5f1ffd5e87dcdb489c1079", "type": "electric_scooter", "is_reserved": 0, "lon": -77.02120016666667}, {"fusion_lat": 0.0, "name": "1202737f25cef67d9dcd24772748fee0", "is_disabled": 0, "rental_uris": {"android": "https://dc.lft.to/lastmile_qr_scan", "ios": "https://dc.lft.to/lastmile_qr_scan"}, "fusion_lon": 0.0, "lat": 38.91597933333333, "bike_id": "1202737f25cef67d9dcd24772748fee0", "type": "electric_scooter", "is_reserved": 0, "lon": -77.01114116666666}, {"fusion_lat": 0.0, "name": "1c142579cf678af13aa0643022356633", "is_disabled": 0, "rental_uris": {"android": "https://dc.lft.to/lastmile_qr_scan", "ios": "https://dc.lft.to/lastmile_qr_scan"}, "fusion_lon": 0.0, "lat": 38.8849455, "bike_id": "1c142579cf678af13aa0643022356633", "type": "electric_scooter", "is_reserved": 0, "lon": -77.01083533333333}, {"fusion_lat": 0.0, "name": "2ec26cbedb2cc032f59290c6e77a6063", "is_disabled": 0, "rental_uris": {"android": "https://dc.lft.to/lastmile_qr_scan", "ios": "https://dc.lft.to/lastmile_qr_scan"}, "fusion_lon": 0.0, "lat": 38.89622116666666, "bike_id": "2ec26cbedb2cc032f59290c6e77a6063", "type": "electric_scooter", "is_reserved": 0, "lon": -77.02279816666666}, {"fusion_lat": 0.0, "name": "48567c78510c66cf905fc93e512b3043", "is_disabled": 0, "rental_uris": {"android": "https://dc.lft.to/lastmile_qr_scan", "ios": "https://dc.lft.to/lastmile_qr_scan"}, "fusion_lon": 0.0, "lat": 38.91113383333333, "bike_id": "48567c78510c66cf905fc93e512b3043", "type": "electric_scooter", "is_reserved": 0, "lon": -77.010008}, {"fusion_lat": 0.0, "name": "77cd54ce3089455259ab02a01b7dce4d", "is_disabled": 0, "rental_uris": {"android": "https://dc.lft.to/lastmile_qr_scan", "ios": "https://dc.lft.to/lastmile_qr_scan"}, "fusion_lon": 0.0, "lat": 38.93981983333333, "bike_id": "77cd54ce3089455259ab02a01b7dce4d", "type": "electric_scooter", "is_reserved": 0, "lon": -77.02871833333333}, {"fusion_lat": 0.0, "name": "d5fde0ca666247e464e7d2f27aad32b8", "is_disabled": 0, "rental_uris": {"android": "https://dc.lft.to/lastmile_qr_scan", "ios": "https://dc.lft.to/lastmile_qr_scan"}, "fusion_lon": 0.0, "lat": 38.90723116666667, "bike_id": "d5fde0ca666247e464e7d2f27aad32b8", "type": "electric_scooter", "is_reserved": 0, "lon": -77.04772316666667}, {"fusion_lat": 0.0, "name": "2bd981b7396680bae6ba51d995790011", "is_disabled": 0, "rental_uris": {"android": "https://dc.lft.to/lastmile_qr_scan", "ios": "https://dc.lft.to/lastmile_qr_scan"}, "fusion_lon": 0.0, "lat": 38.89022, "bike_id": "2bd981b7396680bae6ba51d995790011", "type": "electric_scooter", "is_reserved": 0, "lon": -76.93743333333333}, {"fusion_lat": 0.0, "name": "ce661aa50152111b88a25a5d590d0da7", "is_disabled": 0, "rental_uris": {"android": "https://dc.lft.to/lastmile_qr_scan", "ios": "https://dc.lft.to/lastmile_qr_scan"}, "fusion_lon": 0.0, "lat": 38.887283, "bike_id": "ce661aa50152111b88a25a5d590d0da7", "type": "electric_scooter", "is_reserved": 0, "lon": -77.02213966666666}, {"fusion_lat": 0.0, "name": "8af765dfa7b601d58e93174002b6f578", "is_disabled": 0, "rental_uris": {"android": "https://dc.lft.to/lastmile_qr_scan", "ios": "https://dc.lft.to/lastmile_qr_scan"}, "fusion_lon": 0.0, "lat": 38.92290666666667, "bike_id": "8af765dfa7b601d58e93174002b6f578", "type": "electric_scooter", "is_reserved": 0, "lon": -77.0224285}, {"fusion_lat": 0.0, "name": "64da0d1cb600e6786f08ad65b6debc01", "is_disabled": 0, "rental_uris": {"android": "https://dc.lft.to/lastmile_qr_scan", "ios": "https://dc.lft.to/lastmile_qr_scan"}, "fusion_lon": 0.0, "lat": 38.908571333333335, "bike_id": "64da0d1cb600e6786f08ad65b6debc01", "type": "electric_scooter", "is_reserved": 0, "lon": -77.00084566666666}, {"fusion_lat": 0.0, "name": "87a7be4eb38d15ef19bd979fc7dd6204", "is_disabled": 0, "rental_uris": {"android": "https://dc.lft.to/lastmile_qr_scan", "ios": "https://dc.lft.to/lastmile_qr_scan"}, "fusion_lon": 0.0, "lat": 38.897202, "bike_id": "87a7be4eb38d15ef19bd979fc7dd6204", "type": "electric_scooter", "is_reserved": 0, "lon": -77.0275885}, {"fusion_lat": 0.0, "name": "8e68341dc104b3a75bb98b02c9ffb2b9", "is_disabled": 0, "rental_uris": {"android": "https://dc.lft.to/lastmile_qr_scan", "ios": "https://dc.lft.to/lastmile_qr_scan"}, "fusion_lon": 0.0, "lat": 38.896097833333336, "bike_id": "8e68341dc104b3a75bb98b02c9ffb2b9", "type": "electric_scooter", "is_reserved": 0, "lon": -76.981076}, {"fusion_lat": 0.0, "name": "94540606bc60826741858db6965bd85b", "is_disabled": 0, "rental_uris": {"android": "https://dc.lft.to/lastmile_qr_scan", "ios": "https://dc.lft.to/lastmile_qr_scan"}, "fusion_lon": 0.0, "lat": 38.89256666666667, "bike_id": "94540606bc60826741858db6965bd85b", "type": "electric_bike", "is_reserved": 0, "lon": -76.95116516666667}, {"fusion_lat": 0.0, "name": "cd928c175f7772c64a4a609446c1cce3", "is_disabled": 0, "rental_uris": {"android": "https://dc.lft.to/lastmile_qr_scan", "ios": "https://dc.lft.to/lastmile_qr_scan"}, "fusion_lon": 0.0, "lat": 38.931876833333334, "bike_id": "cd928c175f7772c64a4a609446c1cce3", "type": "electric_scooter", "is_reserved": 0, "lon": -77.0196405}, {"fusion_lat": 0.0, "name": "9321cdd236e4d98abbb5c9a712c7b9f1", "is_disabled": 0, "rental_uris": {"android": "https://dc.lft.to/lastmile_qr_scan", "ios": "https://dc.lft.to/lastmile_qr_scan"}, "fusion_lon": 0.0, "lat": 38.913844833333336, "bike_id": "9321cdd236e4d98abbb5c9a712c7b9f1", "type": "electric_scooter", "is_reserved": 0, "lon": -77.0180225}, {"fusion_lat": 0.0, "name": "6a5bb99820461ffb4edc4e5efa70d241", "is_disabled": 0, "rental_uris": {"android": "https://dc.lft.to/lastmile_qr_scan", "ios": "https://dc.lft.to/lastmile_qr_scan"}, "fusion_lon": 0.0, "lat": 38.9195525, "bike_id": "6a5bb99820461ffb4edc4e5efa70d241", "type": "electric_scooter", "is_reserved": 0, "lon": -77.04169566666667}, {"fusion_lat": 0.0, "name": "c6f8adca391d738d271c481c7861b9c6", "is_disabled": 0, "rental_uris": {"android": "https://dc.lft.to/lastmile_qr_scan", "ios": "https://dc.lft.to/lastmile_qr_scan"}, "fusion_lon": 0.0, "lat": 38.87937383333333, "bike_id": "c6f8adca391d738d271c481c7861b9c6", "type": "electric_scooter", "is_reserved": 0, "lon": -77.0041665}, {"fusion_lat": 0.0, "name": "aface99484dad7aea5c12e5ca7f6bf4a", "is_disabled": 0, "rental_uris": {"android": "https://dc.lft.to/lastmile_qr_scan", "ios": "https://dc.lft.to/lastmile_qr_scan"}, "fusion_lon": 0.0, "lat": 38.9297605, "bike_id": "aface99484dad7aea5c12e5ca7f6bf4a", "type": "electric_scooter", "is_reserved": 0, "lon": -77.0418675}, {"fusion_lat": 0.0, "name": "21cb944100b5046d231664e0278ee2f9", "is_disabled": 0, "rental_uris": {"android": "https://dc.lft.to/lastmile_qr_scan", "ios": "https://dc.lft.to/lastmile_qr_scan"}, "fusion_lon": 0.0, "lat": 38.9347765, "bike_id": "21cb944100b5046d231664e0278ee2f9", "type": "electric_scooter", "is_reserved": 0, "lon": -77.07347433333334}, {"fusion_lat": 0.0, "name": "34072e583170fbcb5c1b9da0c0224819", "is_disabled": 0, "rental_uris": {"android": "https://dc.lft.to/lastmile_qr_scan", "ios": "https://dc.lft.to/lastmile_qr_scan"}, "fusion_lon": 0.0, "lat": 38.88506233333333, "bike_id": "34072e583170fbcb5c1b9da0c0224819", "type": "electric_scooter", "is_reserved": 0, "lon": -76.99763416666667}, {"fusion_lat": 0.0, "name": "639048319cb3d0c1f41fd90b14f075c7", "is_disabled": 0, "rental_uris": {"android": "https://dc.lft.to/lastmile_qr_scan", "ios": "https://dc.lft.to/lastmile_qr_scan"}, "fusion_lon": 0.0, "lat": 38.952457833333334, "bike_id": "639048319cb3d0c1f41fd90b14f075c7", "type": "electric_scooter", "is_reserved": 0, "lon": -77.02378983333334}, {"fusion_lat": 0.0, "name": "8e16586176ecd0d037789096b9af3847", "is_disabled": 0, "rental_uris": {"android": "https://dc.lft.to/lastmile_qr_scan", "ios": "https://dc.lft.to/lastmile_qr_scan"}, "fusion_lon": 0.0, "lat": 38.887352166666666, "bike_id": "8e16586176ecd0d037789096b9af3847", "type": "electric_scooter", "is_reserved": 0, "lon": -77.02206433333333}, {"fusion_lat": 0.0, "name": "9847022e4e90b12075ad59dcce609e16", "is_disabled": 0, "rental_uris": {"android": "https://dc.lft.to/lastmile_qr_scan", "ios": "https://dc.lft.to/lastmile_qr_scan"}, "fusion_lon": 0.0, "lat": 38.90080733333333, "bike_id": "9847022e4e90b12075ad59dcce609e16", "type": "electric_scooter", "is_reserved": 0, "lon": -77.0502445}, {"fusion_lat": 0.0, "name": "b2af7979c301a7b8f3954c52519ee56b", "is_disabled": 0, "rental_uris": {"android": "https://dc.lft.to/lastmile_qr_scan", "ios": "https://dc.lft.to/lastmile_qr_scan"}, "fusion_lon": 0.0, "lat": 38.926792, "bike_id": "b2af7979c301a7b8f3954c52519ee56b", "type": "electric_scooter", "is_reserved": 0, "lon": -77.03100816666667}, {"fusion_lat": 0.0, "name": "996c335f6525c22d99356045416d6e17", "is_disabled": 0, "rental_uris": {"android": "https://dc.lft.to/lastmile_qr_scan", "ios": "https://dc.lft.to/lastmile_qr_scan"}, "fusion_lon": 0.0, "lat": 38.908291166666665, "bike_id": "996c335f6525c22d99356045416d6e17", "type": "electric_scooter", "is_reserved": 0, "lon": -77.02003116666667}, {"fusion_lat": 0.0, "name": "efc7c91c488191817bcb2a0f2c74d97c", "is_disabled": 0, "rental_uris": {"android": "https://dc.lft.to/lastmile_qr_scan", "ios": "https://dc.lft.to/lastmile_qr_scan"}, "fusion_lon": 0.0, "lat": 38.90709533333333, "bike_id": "efc7c91c488191817bcb2a0f2c74d97c", "type": "electric_scooter", "is_reserved": 0, "lon": -77.0505885}, {"fusion_lat": 0.0, "name": "ed3a980d3e12fb96a3e426c3f17bd3fc", "is_disabled": 0, "rental_uris": {"android": "https://dc.lft.to/lastmile_qr_scan", "ios": "https://dc.lft.to/lastmile_qr_scan"}, "fusion_lon": 0.0, "lat": 38.909339833333334, "bike_id": "ed3a980d3e12fb96a3e426c3f17bd3fc", "type": "electric_scooter", "is_reserved": 0, "lon": -77.064154}, {"fusion_lat": 0.0, "name": "9215c26ee5145c5114b3d20dd78d8a8b", "is_disabled": 0, "rental_uris": {"android": "https://dc.lft.to/lastmile_qr_scan", "ios": "https://dc.lft.to/lastmile_qr_scan"}, "fusion_lon": 0.0, "lat": 38.896215, "bike_id": "9215c26ee5145c5114b3d20dd78d8a8b", "type": "electric_scooter", "is_reserved": 0, "lon": -77.04496916666666}, {"fusion_lat": 0.0, "name": "71e629b3ffe8af5324e6dc370c944afb", "is_disabled": 0, "rental_uris": {"android": "https://dc.lft.to/lastmile_qr_scan", "ios": "https://dc.lft.to/lastmile_qr_scan"}, "fusion_lon": 0.0, "lat": 38.91084333333333, "bike_id": "71e629b3ffe8af5324e6dc370c944afb", "type": "electric_scooter", "is_reserved": 0, "lon": -77.00880533333333}, {"fusion_lat": 0.0, "name": "b5cd61a74c94744e5d83bd33a407bf66", "is_disabled": 0, "rental_uris": {"android": "https://dc.lft.to/lastmile_qr_scan", "ios": "https://dc.lft.to/lastmile_qr_scan"}, "fusion_lon": 0.0, "lat": 38.89735566666667, "bike_id": "b5cd61a74c94744e5d83bd33a407bf66", "type": "electric_scooter", "is_reserved": 0, "lon": -77.01962}, {"fusion_lat": 0.0, "name": "9772855fee4425ff37fd3e7053ff63ed", "is_disabled": 0, "rental_uris": {"android": "https://dc.lft.to/lastmile_qr_scan", "ios": "https://dc.lft.to/lastmile_qr_scan"}, "fusion_lon": 0.0, "lat": 38.80684733333333, "bike_id": "9772855fee4425ff37fd3e7053ff63ed", "type": "electric_bike", "is_reserved": 0, "lon": -77.06918216666666}, {"fusion_lat": 0.0, "name": "0accf3a843272bb385667ba475fc9d20", "is_disabled": 0, "rental_uris": {"android": "https://dc.lft.to/lastmile_qr_scan", "ios": "https://dc.lft.to/lastmile_qr_scan"}, "fusion_lon": 0.0, "lat": 38.900460833333334, "bike_id": "0accf3a843272bb385667ba475fc9d20", "type": "electric_scooter", "is_reserved": 0, "lon": -77.020044}, {"fusion_lat": 0.0, "name": "12b700ec0df1a8ee0cd31b039cc68ad2", "is_disabled": 0, "rental_uris": {"android": "https://dc.lft.to/lastmile_qr_scan", "ios": "https://dc.lft.to/lastmile_qr_scan"}, "fusion_lon": 0.0, "lat": 38.93752116666667, "bike_id": "12b700ec0df1a8ee0cd31b039cc68ad2", "type": "electric_scooter", "is_reserved": 0, "lon": -77.03592883333333}, {"fusion_lat": 0.0, "name": "52fb20a09cd722187d8b9f0c40e10038", "is_disabled": 0, "rental_uris": {"android": "https://dc.lft.to/lastmile_qr_scan", "ios": "https://dc.lft.to/lastmile_qr_scan"}, "fusion_lon": 0.0, "lat": 38.88451366666666, "bike_id": "52fb20a09cd722187d8b9f0c40e10038", "type": "electric_scooter", "is_reserved": 0, "lon": -76.993866}, {"fusion_lat": 0.0, "name": "191a00e5b37bf553aee8467c2c3961ed", "is_disabled": 0, "rental_uris": {"android": "https://dc.lft.to/lastmile_qr_scan", "ios": "https://dc.lft.to/lastmile_qr_scan"}, "fusion_lon": 0.0, "lat": 38.921604, "bike_id": "191a00e5b37bf553aee8467c2c3961ed", "type": "electric_scooter", "is_reserved": 0, "lon": -77.03398316666667}, {"fusion_lat": 0.0, "name": "51e6088ec1c4e2bd2a0325f7d2da3094", "is_disabled": 0, "rental_uris": {"android": "https://dc.lft.to/lastmile_qr_scan", "ios": "https://dc.lft.to/lastmile_qr_scan"}, "fusion_lon": 0.0, "lat": 38.913286666666664, "bike_id": "51e6088ec1c4e2bd2a0325f7d2da3094", "type": "electric_scooter", "is_reserved": 0, "lon": -77.01034666666666}, {"fusion_lat": 0.0, "name": "810b8e8f81610dd6f7ab86ccba386dda", "is_disabled": 0, "rental_uris": {"android": "https://dc.lft.to/lastmile_qr_scan", "ios": "https://dc.lft.to/lastmile_qr_scan"}, "fusion_lon": 0.0, "lat": 38.90511816666667, "bike_id": "810b8e8f81610dd6f7ab86ccba386dda", "type": "electric_bike", "is_reserved": 0, "lon": -77.060183}, {"fusion_lat": 0.0, "name": "9abc21a3efe33131c022c299afe1394a", "is_disabled": 0, "rental_uris": {"android": "https://dc.lft.to/lastmile_qr_scan", "ios": "https://dc.lft.to/lastmile_qr_scan"}, "fusion_lon": 0.0, "lat": 38.855076333333336, "bike_id": "9abc21a3efe33131c022c299afe1394a", "type": "electric_scooter", "is_reserved": 0, "lon": -76.96534416666667}, {"fusion_lat": 0.0, "name": "e511ba32773dac275b4f10f8b20349fe", "is_disabled": 0, "rental_uris": {"android": "https://dc.lft.to/lastmile_qr_scan", "ios": "https://dc.lft.to/lastmile_qr_scan"}, "fusion_lon": 0.0, "lat": 38.885093499999996, "bike_id": "e511ba32773dac275b4f10f8b20349fe", "type": "electric_scooter", "is_reserved": 0, "lon": -77.00058666666666}, {"fusion_lat": 0.0, "name": "2cd3506de4dbd1aec38694639bbeeb77", "is_disabled": 0, "rental_uris": {"android": "https://dc.lft.to/lastmile_qr_scan", "ios": "https://dc.lft.to/lastmile_qr_scan"}, "fusion_lon": 0.0, "lat": 38.9169785, "bike_id": "2cd3506de4dbd1aec38694639bbeeb77", "type": "electric_scooter", "is_reserved": 0, "lon": -77.0415905}, {"fusion_lat": 0.0, "name": "cc53360a1f64d36f5651dadf6a5e5fa7", "is_disabled": 0, "rental_uris": {"android": "https://dc.lft.to/lastmile_qr_scan", "ios": "https://dc.lft.to/lastmile_qr_scan"}, "fusion_lon": 0.0, "lat": 38.99212966666666, "bike_id": "cc53360a1f64d36f5651dadf6a5e5fa7", "type": "electric_bike", "is_reserved": 0, "lon": -76.94463933333333}, {"fusion_lat": 0.0, "name": "0eda0fec7994c6af73f66a1fc70aa990", "is_disabled": 0, "rental_uris": {"android": "https://dc.lft.to/lastmile_qr_scan", "ios": "https://dc.lft.to/lastmile_qr_scan"}, "fusion_lon": 0.0, "lat": 38.9531055, "bike_id": "0eda0fec7994c6af73f66a1fc70aa990", "type": "electric_scooter", "is_reserved": 0, "lon": -77.02253333333333}, {"fusion_lat": 0.0, "name": "f33ceff7e807f3892d7bdd446c7e5947", "is_disabled": 0, "rental_uris": {"android": "https://dc.lft.to/lastmile_qr_scan", "ios": "https://dc.lft.to/lastmile_qr_scan"}, "fusion_lon": 0.0, "lat": 38.91695516666667, "bike_id": "f33ceff7e807f3892d7bdd446c7e5947", "type": "electric_scooter", "is_reserved": 0, "lon": -77.0312405}, {"fusion_lat": 0.0, "name": "b9df39b4d8bf0cbc2e6e77abacb73fe0", "is_disabled": 0, "rental_uris": {"android": "https://dc.lft.to/lastmile_qr_scan", "ios": "https://dc.lft.to/lastmile_qr_scan"}, "fusion_lon": 0.0, "lat": 38.917192166666666, "bike_id": "b9df39b4d8bf0cbc2e6e77abacb73fe0", "type": "electric_scooter", "is_reserved": 0, "lon": -77.030463}, {"fusion_lat": 0.0, "name": "acaa1a5812b9e955fe5d807f42844fdb", "is_disabled": 0, "rental_uris": {"android": "https://dc.lft.to/lastmile_qr_scan", "ios": "https://dc.lft.to/lastmile_qr_scan"}, "fusion_lon": 0.0, "lat": 38.935343833333334, "bike_id": "acaa1a5812b9e955fe5d807f42844fdb", "type": "electric_scooter", "is_reserved": 0, "lon": -77.02352233333333}, {"fusion_lat": 0.0, "name": "64d6a2f99161172a2350e81295aaf6d3", "is_disabled": 0, "rental_uris": {"android": "https://dc.lft.to/lastmile_qr_scan", "ios": "https://dc.lft.to/lastmile_qr_scan"}, "fusion_lon": 0.0, "lat": 38.922820333333334, "bike_id": "64d6a2f99161172a2350e81295aaf6d3", "type": "electric_scooter", "is_reserved": 0, "lon": -77.04230483333333}, {"fusion_lat": 0.0, "name": "c04db03b460d2d86668e820ae388c33e", "is_disabled": 0, "rental_uris": {"android": "https://dc.lft.to/lastmile_qr_scan", "ios": "https://dc.lft.to/lastmile_qr_scan"}, "fusion_lon": 0.0, "lat": 38.930883333333334, "bike_id": "c04db03b460d2d86668e820ae388c33e", "type": "electric_scooter", "is_reserved": 0, "lon": -77.03748883333333}, {"fusion_lat": 0.0, "name": "ff9ecd2531001d35dedb213bbd8b3913", "is_disabled": 0, "rental_uris": {"android": "https://dc.lft.to/lastmile_qr_scan", "ios": "https://dc.lft.to/lastmile_qr_scan"}, "fusion_lon": 0.0, "lat": 38.892226666666666, "bike_id": "ff9ecd2531001d35dedb213bbd8b3913", "type": "electric_scooter", "is_reserved": 0, "lon": -77.03144183333333}, {"fusion_lat": 0.0, "name": "a73c13c9871991bc634070fcd7331479", "is_disabled": 0, "rental_uris": {"android": "https://dc.lft.to/lastmile_qr_scan", "ios": "https://dc.lft.to/lastmile_qr_scan"}, "fusion_lon": 0.0, "lat": 38.918182, "bike_id": "a73c13c9871991bc634070fcd7331479", "type": "electric_scooter", "is_reserved": 0, "lon": -77.02819833333334}, {"fusion_lat": 0.0, "name": "c18985cfc661ecb884b024ad73a3342f", "is_disabled": 0, "rental_uris": {"android": "https://dc.lft.to/lastmile_qr_scan", "ios": "https://dc.lft.to/lastmile_qr_scan"}, "fusion_lon": 0.0, "lat": 38.882243833333334, "bike_id": "c18985cfc661ecb884b024ad73a3342f", "type": "electric_scooter", "is_reserved": 0, "lon": -77.02937316666667}, {"fusion_lat": 0.0, "name": "26f50b65a462ae01ffc2677033f756fe", "is_disabled": 0, "rental_uris": {"android": "https://dc.lft.to/lastmile_qr_scan", "ios": "https://dc.lft.to/lastmile_qr_scan"}, "fusion_lon": 0.0, "lat": 38.9019525, "bike_id": "26f50b65a462ae01ffc2677033f756fe", "type": "electric_scooter", "is_reserved": 0, "lon": -77.0612035}, {"fusion_lat": 0.0, "name": "900ad93af7bcdf7b899ef8b81573a5f5", "is_disabled": 0, "rental_uris": {"android": "https://dc.lft.to/lastmile_qr_scan", "ios": "https://dc.lft.to/lastmile_qr_scan"}, "fusion_lon": 0.0, "lat": 38.88893183333333, "bike_id": "900ad93af7bcdf7b899ef8b81573a5f5", "type": "electric_bike", "is_reserved": 0, "lon": -77.11523833333334}, {"fusion_lat": 0.0, "name": "ea23e2906bb674063c13340c36a5334f", "is_disabled": 0, "rental_uris": {"android": "https://dc.lft.to/lastmile_qr_scan", "ios": "https://dc.lft.to/lastmile_qr_scan"}, "fusion_lon": 0.0, "lat": 38.935383333333334, "bike_id": "ea23e2906bb674063c13340c36a5334f", "type": "electric_scooter", "is_reserved": 0, "lon": -77.03090833333333}, {"fusion_lat": 0.0, "name": "e626e1c6bc92cab6f97322f6b8c5a6ae", "is_disabled": 0, "rental_uris": {"android": "https://dc.lft.to/lastmile_qr_scan", "ios": "https://dc.lft.to/lastmile_qr_scan"}, "fusion_lon": 0.0, "lat": 38.8953535, "bike_id": "e626e1c6bc92cab6f97322f6b8c5a6ae", "type": "electric_scooter", "is_reserved": 0, "lon": -77.03056783333334}, {"fusion_lat": 0.0, "name": "fb2c92a3726fba3217ef3bcdf9b3ab9d", "is_disabled": 0, "rental_uris": {"android": "https://dc.lft.to/lastmile_qr_scan", "ios": "https://dc.lft.to/lastmile_qr_scan"}, "fusion_lon": 0.0, "lat": 38.90749916666667, "bike_id": "fb2c92a3726fba3217ef3bcdf9b3ab9d", "type": "electric_scooter", "is_reserved": 0, "lon": -77.06338316666667}, {"fusion_lat": 0.0, "name": "8235b0138c9c20238795d1bf00103e4b", "is_disabled": 0, "rental_uris": {"android": "https://dc.lft.to/lastmile_qr_scan", "ios": "https://dc.lft.to/lastmile_qr_scan"}, "fusion_lon": 0.0, "lat": 38.934197, "bike_id": "8235b0138c9c20238795d1bf00103e4b", "type": "electric_scooter", "is_reserved": 0, "lon": -76.97962583333333}, {"fusion_lat": 0.0, "name": "6ebc5a01eae448bf237b5c668ca5ae9a", "is_disabled": 0, "rental_uris": {"android": "https://dc.lft.to/lastmile_qr_scan", "ios": "https://dc.lft.to/lastmile_qr_scan"}, "fusion_lon": 0.0, "lat": 38.907712833333335, "bike_id": "6ebc5a01eae448bf237b5c668ca5ae9a", "type": "electric_scooter", "is_reserved": 0, "lon": -77.06230183333334}, {"fusion_lat": 0.0, "name": "e079c1e96929adad451e331edb33436d", "is_disabled": 0, "rental_uris": {"android": "https://dc.lft.to/lastmile_qr_scan", "ios": "https://dc.lft.to/lastmile_qr_scan"}, "fusion_lon": 0.0, "lat": 38.904849166666665, "bike_id": "e079c1e96929adad451e331edb33436d", "type": "electric_scooter", "is_reserved": 0, "lon": -76.949682}, {"fusion_lat": 0.0, "name": "65b6d027f6e2799491db9cafa3b145ce", "is_disabled": 0, "rental_uris": {"android": "https://dc.lft.to/lastmile_qr_scan", "ios": "https://dc.lft.to/lastmile_qr_scan"}, "fusion_lon": 0.0, "lat": 38.949224, "bike_id": "65b6d027f6e2799491db9cafa3b145ce", "type": "electric_scooter", "is_reserved": 0, "lon": -77.018544}, {"fusion_lat": 0.0, "name": "d2aaa7202ad6c722745303f16c403af3", "is_disabled": 0, "rental_uris": {"android": "https://dc.lft.to/lastmile_qr_scan", "ios": "https://dc.lft.to/lastmile_qr_scan"}, "fusion_lon": 0.0, "lat": 38.917693666666665, "bike_id": "d2aaa7202ad6c722745303f16c403af3", "type": "electric_scooter", "is_reserved": 0, "lon": -77.03635883333334}, {"fusion_lat": 0.0, "name": "a8d69a501f982db08686a0e7fd1e514b", "is_disabled": 0, "rental_uris": {"android": "https://dc.lft.to/lastmile_qr_scan", "ios": "https://dc.lft.to/lastmile_qr_scan"}, "fusion_lon": 0.0, "lat": 38.9277355, "bike_id": "a8d69a501f982db08686a0e7fd1e514b", "type": "electric_scooter", "is_reserved": 0, "lon": -77.03619466666666}, {"fusion_lat": 0.0, "name": "69fa1f8847fa3c5d38e37cdd61f33145", "is_disabled": 0, "rental_uris": {"android": "https://dc.lft.to/lastmile_qr_scan", "ios": "https://dc.lft.to/lastmile_qr_scan"}, "fusion_lon": 0.0, "lat": 38.930603833333336, "bike_id": "69fa1f8847fa3c5d38e37cdd61f33145", "type": "electric_scooter", "is_reserved": 0, "lon": -77.03947583333333}, {"fusion_lat": 0.0, "name": "3b4163272286b5fdfd9ec1220c771852", "is_disabled": 0, "rental_uris": {"android": "https://dc.lft.to/lastmile_qr_scan", "ios": "https://dc.lft.to/lastmile_qr_scan"}, "fusion_lon": 0.0, "lat": 38.92797366666667, "bike_id": "3b4163272286b5fdfd9ec1220c771852", "type": "electric_scooter", "is_reserved": 0, "lon": -76.955543}, {"fusion_lat": 0.0, "name": "fb2a9d0b3b9ee4b0f9661c48a9d46ff8", "is_disabled": 0, "rental_uris": {"android": "https://dc.lft.to/lastmile_qr_scan", "ios": "https://dc.lft.to/lastmile_qr_scan"}, "fusion_lon": 0.0, "lat": 38.91618883333334, "bike_id": "fb2a9d0b3b9ee4b0f9661c48a9d46ff8", "type": "electric_scooter", "is_reserved": 0, "lon": -77.03184383333334}, {"fusion_lat": 0.0, "name": "60e65b6893da40f658a1d25f70881037", "is_disabled": 0, "rental_uris": {"android": "https://dc.lft.to/lastmile_qr_scan", "ios": "https://dc.lft.to/lastmile_qr_scan"}, "fusion_lon": 0.0, "lat": 38.923976333333336, "bike_id": "60e65b6893da40f658a1d25f70881037", "type": "electric_scooter", "is_reserved": 0, "lon": -77.04280066666666}, {"fusion_lat": 0.0, "name": "814fe07a0bcd8608c5257f7f2facfb0c", "is_disabled": 0, "rental_uris": {"android": "https://dc.lft.to/lastmile_qr_scan", "ios": "https://dc.lft.to/lastmile_qr_scan"}, "fusion_lon": 0.0, "lat": 38.90646916666667, "bike_id": "814fe07a0bcd8608c5257f7f2facfb0c", "type": "electric_scooter", "is_reserved": 0, "lon": -77.00661483333333}, {"fusion_lat": 0.0, "name": "60774904ba0c70a04190d7698f66c226", "is_disabled": 0, "rental_uris": {"android": "https://dc.lft.to/lastmile_qr_scan", "ios": "https://dc.lft.to/lastmile_qr_scan"}, "fusion_lon": 0.0, "lat": 38.966686, "bike_id": "60774904ba0c70a04190d7698f66c226", "type": "electric_scooter", "is_reserved": 0, "lon": -77.02549383333333}, {"fusion_lat": 0.0, "name": "44ab856a9a1b19fca06102cf26fd6ac4", "is_disabled": 0, "rental_uris": {"android": "https://dc.lft.to/lastmile_qr_scan", "ios": "https://dc.lft.to/lastmile_qr_scan"}, "fusion_lon": 0.0, "lat": 38.913125, "bike_id": "44ab856a9a1b19fca06102cf26fd6ac4", "type": "electric_scooter", "is_reserved": 0, "lon": -77.03655216666667}, {"fusion_lat": 0.0, "name": "78c422e12a8d919582e418e72e1c259c", "is_disabled": 0, "rental_uris": {"android": "https://dc.lft.to/lastmile_qr_scan", "ios": "https://dc.lft.to/lastmile_qr_scan"}, "fusion_lon": 0.0, "lat": 38.900682833333335, "bike_id": "78c422e12a8d919582e418e72e1c259c", "type": "electric_scooter", "is_reserved": 0, "lon": -77.05685766666667}, {"fusion_lat": 0.0, "name": "20df6ee7595154d12b3f737da018a539", "is_disabled": 0, "rental_uris": {"android": "https://dc.lft.to/lastmile_qr_scan", "ios": "https://dc.lft.to/lastmile_qr_scan"}, "fusion_lon": 0.0, "lat": 38.8814705, "bike_id": "20df6ee7595154d12b3f737da018a539", "type": "electric_scooter", "is_reserved": 0, "lon": -76.99505216666667}, {"fusion_lat": 0.0, "name": "1227efd38350d385cd1f5f44ff17d144", "is_disabled": 0, "rental_uris": {"android": "https://dc.lft.to/lastmile_qr_scan", "ios": "https://dc.lft.to/lastmile_qr_scan"}, "fusion_lon": 0.0, "lat": 38.886092166666664, "bike_id": "1227efd38350d385cd1f5f44ff17d144", "type": "electric_scooter", "is_reserved": 0, "lon": -77.00334916666667}, {"fusion_lat": 0.0, "name": "8e25e5b074c38128c8cc4a3216f3f1f5", "is_disabled": 0, "rental_uris": {"android": "https://dc.lft.to/lastmile_qr_scan", "ios": "https://dc.lft.to/lastmile_qr_scan"}, "fusion_lon": 0.0, "lat": 38.89685, "bike_id": "8e25e5b074c38128c8cc4a3216f3f1f5", "type": "electric_scooter", "is_reserved": 0, "lon": -77.00550533333333}, {"fusion_lat": 0.0, "name": "bb7860055b1c51df02e096aac47f0797", "is_disabled": 0, "rental_uris": {"android": "https://dc.lft.to/lastmile_qr_scan", "ios": "https://dc.lft.to/lastmile_qr_scan"}, "fusion_lon": 0.0, "lat": 38.9140635, "bike_id": "bb7860055b1c51df02e096aac47f0797", "type": "electric_scooter", "is_reserved": 0, "lon": -77.0409765}, {"fusion_lat": 0.0, "name": "b73e64466ec37fef96d86254e6042a30", "is_disabled": 0, "rental_uris": {"android": "https://dc.lft.to/lastmile_qr_scan", "ios": "https://dc.lft.to/lastmile_qr_scan"}, "fusion_lon": 0.0, "lat": 38.9249515, "bike_id": "b73e64466ec37fef96d86254e6042a30", "type": "electric_bike", "is_reserved": 0, "lon": -77.23344816666666}, {"fusion_lat": 0.0, "name": "f2e90b529749b52bbb14a3103557ea53", "is_disabled": 0, "rental_uris": {"android": "https://dc.lft.to/lastmile_qr_scan", "ios": "https://dc.lft.to/lastmile_qr_scan"}, "fusion_lon": 0.0, "lat": 38.9348745, "bike_id": "f2e90b529749b52bbb14a3103557ea53", "type": "electric_scooter", "is_reserved": 0, "lon": -77.04530816666667}, {"fusion_lat": 0.0, "name": "934637cefb0accc2810b5a0c71e941dd", "is_disabled": 0, "rental_uris": {"android": "https://dc.lft.to/lastmile_qr_scan", "ios": "https://dc.lft.to/lastmile_qr_scan"}, "fusion_lon": 0.0, "lat": 38.8871475, "bike_id": "934637cefb0accc2810b5a0c71e941dd", "type": "electric_scooter", "is_reserved": 0, "lon": -77.01773183333333}, {"fusion_lat": 0.0, "name": "7767e7c5f1f6aea32cb80ab241ec88f3", "is_disabled": 0, "rental_uris": {"android": "https://dc.lft.to/lastmile_qr_scan", "ios": "https://dc.lft.to/lastmile_qr_scan"}, "fusion_lon": 0.0, "lat": 38.932558666666665, "bike_id": "7767e7c5f1f6aea32cb80ab241ec88f3", "type": "electric_scooter", "is_reserved": 0, "lon": -77.01915033333333}, {"fusion_lat": 0.0, "name": "a4f4ff2fa48d0d0da3b0ddd47486d719", "is_disabled": 0, "rental_uris": {"android": "https://dc.lft.to/lastmile_qr_scan", "ios": "https://dc.lft.to/lastmile_qr_scan"}, "fusion_lon": 0.0, "lat": 38.927117833333334, "bike_id": "a4f4ff2fa48d0d0da3b0ddd47486d719", "type": "electric_scooter", "is_reserved": 0, "lon": -77.02101666666667}, {"fusion_lat": 0.0, "name": "5b41eb43135ac84591e612a0224e33b7", "is_disabled": 0, "rental_uris": {"android": "https://dc.lft.to/lastmile_qr_scan", "ios": "https://dc.lft.to/lastmile_qr_scan"}, "fusion_lon": 0.0, "lat": 38.93962466666667, "bike_id": "5b41eb43135ac84591e612a0224e33b7", "type": "electric_scooter", "is_reserved": 0, "lon": -77.032835}, {"fusion_lat": 0.0, "name": "f6413ae25c5b15a0aefe2d24e89a0a91", "is_disabled": 0, "rental_uris": {"android": "https://dc.lft.to/lastmile_qr_scan", "ios": "https://dc.lft.to/lastmile_qr_scan"}, "fusion_lon": 0.0, "lat": 38.9311925, "bike_id": "f6413ae25c5b15a0aefe2d24e89a0a91", "type": "electric_scooter", "is_reserved": 0, "lon": -77.02085316666667}, {"fusion_lat": 0.0, "name": "33f34e5a761eda4cb2d476b131fe7cc9", "is_disabled": 0, "rental_uris": {"android": "https://dc.lft.to/lastmile_qr_scan", "ios": "https://dc.lft.to/lastmile_qr_scan"}, "fusion_lon": 0.0, "lat": 38.915262166666665, "bike_id": "33f34e5a761eda4cb2d476b131fe7cc9", "type": "electric_scooter", "is_reserved": 0, "lon": -77.07275366666667}, {"fusion_lat": 0.0, "name": "2082d05c693828186abc9660127aa2e3", "is_disabled": 0, "rental_uris": {"android": "https://dc.lft.to/lastmile_qr_scan", "ios": "https://dc.lft.to/lastmile_qr_scan"}, "fusion_lon": 0.0, "lat": 38.909374666666665, "bike_id": "2082d05c693828186abc9660127aa2e3", "type": "electric_scooter", "is_reserved": 0, "lon": -77.06273683333333}, {"fusion_lat": 0.0, "name": "1ab1ec6df32fd8b06f89177053eb1001", "is_disabled": 0, "rental_uris": {"android": "https://dc.lft.to/lastmile_qr_scan", "ios": "https://dc.lft.to/lastmile_qr_scan"}, "fusion_lon": 0.0, "lat": 38.89669266666667, "bike_id": "1ab1ec6df32fd8b06f89177053eb1001", "type": "electric_scooter", "is_reserved": 0, "lon": -76.93212016666666}, {"fusion_lat": 0.0, "name": "ffe6fbfbb6341fcadd7c592832e6af50", "is_disabled": 0, "rental_uris": {"android": "https://dc.lft.to/lastmile_qr_scan", "ios": "https://dc.lft.to/lastmile_qr_scan"}, "fusion_lon": 0.0, "lat": 38.93659233333333, "bike_id": "ffe6fbfbb6341fcadd7c592832e6af50", "type": "electric_scooter", "is_reserved": 0, "lon": -77.03661233333334}, {"fusion_lat": 0.0, "name": "32765fbc4cedce071603b2060e773384", "is_disabled": 0, "rental_uris": {"android": "https://dc.lft.to/lastmile_qr_scan", "ios": "https://dc.lft.to/lastmile_qr_scan"}, "fusion_lon": 0.0, "lat": 38.9050185, "bike_id": "32765fbc4cedce071603b2060e773384", "type": "electric_scooter", "is_reserved": 0, "lon": -77.06706}, {"fusion_lat": 0.0, "name": "f646966222df2ce3c2c331d94ad97947", "is_disabled": 0, "rental_uris": {"android": "https://dc.lft.to/lastmile_qr_scan", "ios": "https://dc.lft.to/lastmile_qr_scan"}, "fusion_lon": 0.0, "lat": 38.92842983333333, "bike_id": "f646966222df2ce3c2c331d94ad97947", "type": "electric_scooter", "is_reserved": 0, "lon": -77.01577666666667}, {"fusion_lat": 0.0, "name": "7b6eac15fc229a68209bb86a28b16c09", "is_disabled": 0, "rental_uris": {"android": "https://dc.lft.to/lastmile_qr_scan", "ios": "https://dc.lft.to/lastmile_qr_scan"}, "fusion_lon": 0.0, "lat": 38.93028233333333, "bike_id": "7b6eac15fc229a68209bb86a28b16c09", "type": "electric_scooter", "is_reserved": 0, "lon": -77.033064}, {"fusion_lat": 0.0, "name": "c4c19361865bc6b36420ba0f93aa6523", "is_disabled": 0, "rental_uris": {"android": "https://dc.lft.to/lastmile_qr_scan", "ios": "https://dc.lft.to/lastmile_qr_scan"}, "fusion_lon": 0.0, "lat": 38.93531633333333, "bike_id": "c4c19361865bc6b36420ba0f93aa6523", "type": "electric_scooter", "is_reserved": 0, "lon": -77.0235995}, {"fusion_lat": 0.0, "name": "3af2ca31a9bef1fc55be35dcd90c5e2d", "is_disabled": 0, "rental_uris": {"android": "https://dc.lft.to/lastmile_qr_scan", "ios": "https://dc.lft.to/lastmile_qr_scan"}, "fusion_lon": 0.0, "lat": 38.89912066666667, "bike_id": "3af2ca31a9bef1fc55be35dcd90c5e2d", "type": "electric_scooter", "is_reserved": 0, "lon": -76.93351783333334}, {"fusion_lat": 0.0, "name": "fbc71f4d6482134ddab9219ccf17d0e3", "is_disabled": 0, "rental_uris": {"android": "https://dc.lft.to/lastmile_qr_scan", "ios": "https://dc.lft.to/lastmile_qr_scan"}, "fusion_lon": 0.0, "lat": 38.8991245, "bike_id": "fbc71f4d6482134ddab9219ccf17d0e3", "type": "electric_scooter", "is_reserved": 0, "lon": -76.9458615}, {"fusion_lat": 0.0, "name": "63e2c21b602a191652ac97b4fe17dd77", "is_disabled": 0, "rental_uris": {"android": "https://dc.lft.to/lastmile_qr_scan", "ios": "https://dc.lft.to/lastmile_qr_scan"}, "fusion_lon": 0.0, "lat": 38.93292, "bike_id": "63e2c21b602a191652ac97b4fe17dd77", "type": "electric_scooter", "is_reserved": 0, "lon": -77.02835466666667}, {"fusion_lat": 0.0, "name": "418f680f284429834cfa5c145979cf03", "is_disabled": 0, "rental_uris": {"android": "https://dc.lft.to/lastmile_qr_scan", "ios": "https://dc.lft.to/lastmile_qr_scan"}, "fusion_lon": 0.0, "lat": 38.88523333333333, "bike_id": "418f680f284429834cfa5c145979cf03", "type": "electric_scooter", "is_reserved": 0, "lon": -76.92929866666667}, {"fusion_lat": 0.0, "name": "cb2a9881ddc814420b1b720473934062", "is_disabled": 0, "rental_uris": {"android": "https://dc.lft.to/lastmile_qr_scan", "ios": "https://dc.lft.to/lastmile_qr_scan"}, "fusion_lon": 0.0, "lat": 38.9156195, "bike_id": "cb2a9881ddc814420b1b720473934062", "type": "electric_scooter", "is_reserved": 0, "lon": -77.03157233333333}, {"fusion_lat": 0.0, "name": "081b32556950870a0a15989dd2b3b5cb", "is_disabled": 0, "rental_uris": {"android": "https://dc.lft.to/lastmile_qr_scan", "ios": "https://dc.lft.to/lastmile_qr_scan"}, "fusion_lon": 0.0, "lat": 38.91624483333333, "bike_id": "081b32556950870a0a15989dd2b3b5cb", "type": "electric_scooter", "is_reserved": 0, "lon": -77.00334966666667}, {"fusion_lat": 0.0, "name": "680fa82d9df1c1a62fdf118e8c854f66", "is_disabled": 0, "rental_uris": {"android": "https://dc.lft.to/lastmile_qr_scan", "ios": "https://dc.lft.to/lastmile_qr_scan"}, "fusion_lon": 0.0, "lat": 38.875811666666664, "bike_id": "680fa82d9df1c1a62fdf118e8c854f66", "type": "electric_bike", "is_reserved": 0, "lon": -77.2340805}, {"fusion_lat": 0.0, "name": "620d48fa5c639d516cb6200205ba80b5", "is_disabled": 0, "rental_uris": {"android": "https://dc.lft.to/lastmile_qr_scan", "ios": "https://dc.lft.to/lastmile_qr_scan"}, "fusion_lon": 0.0, "lat": 38.93583533333333, "bike_id": "620d48fa5c639d516cb6200205ba80b5", "type": "electric_scooter", "is_reserved": 0, "lon": -77.02844216666666}, {"fusion_lat": 0.0, "name": "05e72d68a9c55014134c79bac5d6d065", "is_disabled": 0, "rental_uris": {"android": "https://dc.lft.to/lastmile_qr_scan", "ios": "https://dc.lft.to/lastmile_qr_scan"}, "fusion_lon": 0.0, "lat": 38.876267, "bike_id": "05e72d68a9c55014134c79bac5d6d065", "type": "electric_scooter", "is_reserved": 0, "lon": -77.00126733333333}, {"fusion_lat": 0.0, "name": "c553662f081f869c2fd35af46ec60d4d", "is_disabled": 0, "rental_uris": {"android": "https://dc.lft.to/lastmile_qr_scan", "ios": "https://dc.lft.to/lastmile_qr_scan"}, "fusion_lon": 0.0, "lat": 38.91728466666667, "bike_id": "c553662f081f869c2fd35af46ec60d4d", "type": "electric_scooter", "is_reserved": 0, "lon": -77.03109116666667}, {"fusion_lat": 0.0, "name": "ce55e50b636b3374d56b0d21ea916c46", "is_disabled": 0, "rental_uris": {"android": "https://dc.lft.to/lastmile_qr_scan", "ios": "https://dc.lft.to/lastmile_qr_scan"}, "fusion_lon": 0.0, "lat": 38.885053166666665, "bike_id": "ce55e50b636b3374d56b0d21ea916c46", "type": "electric_scooter", "is_reserved": 0, "lon": -77.00566166666667}, {"fusion_lat": 0.0, "name": "a4fe3277bf395bc84cde8374056f817b", "is_disabled": 0, "rental_uris": {"android": "https://dc.lft.to/lastmile_qr_scan", "ios": "https://dc.lft.to/lastmile_qr_scan"}, "fusion_lon": 0.0, "lat": 38.91959966666667, "bike_id": "a4fe3277bf395bc84cde8374056f817b", "type": "electric_bike", "is_reserved": 0, "lon": -77.10107766666667}, {"fusion_lat": 0.0, "name": "a43302b57f4f9bceb1e46030fbe352d7", "is_disabled": 0, "rental_uris": {"android": "https://dc.lft.to/lastmile_qr_scan", "ios": "https://dc.lft.to/lastmile_qr_scan"}, "fusion_lon": 0.0, "lat": 38.9274885, "bike_id": "a43302b57f4f9bceb1e46030fbe352d7", "type": "electric_scooter", "is_reserved": 0, "lon": -77.02143566666666}, {"fusion_lat": 0.0, "name": "2a4581025b8c922c6284dfee22c34730", "is_disabled": 0, "rental_uris": {"android": "https://dc.lft.to/lastmile_qr_scan", "ios": "https://dc.lft.to/lastmile_qr_scan"}, "fusion_lon": 0.0, "lat": 38.887461333333334, "bike_id": "2a4581025b8c922c6284dfee22c34730", "type": "electric_scooter", "is_reserved": 0, "lon": -77.02569216666667}, {"fusion_lat": 0.0, "name": "b4c9576edb4035ff536e36e4acac6c1e", "is_disabled": 0, "rental_uris": {"android": "https://dc.lft.to/lastmile_qr_scan", "ios": "https://dc.lft.to/lastmile_qr_scan"}, "fusion_lon": 0.0, "lat": 38.907968833333335, "bike_id": "b4c9576edb4035ff536e36e4acac6c1e", "type": "electric_scooter", "is_reserved": 0, "lon": -77.04349333333333}, {"fusion_lat": 0.0, "name": "27400d1a35ce2aed7cfaf9dd9fa486a5", "is_disabled": 0, "rental_uris": {"android": "https://dc.lft.to/lastmile_qr_scan", "ios": "https://dc.lft.to/lastmile_qr_scan"}, "fusion_lon": 0.0, "lat": 38.922424, "bike_id": "27400d1a35ce2aed7cfaf9dd9fa486a5", "type": "electric_scooter", "is_reserved": 0, "lon": -77.03167283333333}, {"fusion_lat": 0.0, "name": "14e80c158034e36e98c812e6cc64e76a", "is_disabled": 0, "rental_uris": {"android": "https://dc.lft.to/lastmile_qr_scan", "ios": "https://dc.lft.to/lastmile_qr_scan"}, "fusion_lon": 0.0, "lat": 38.9331015, "bike_id": "14e80c158034e36e98c812e6cc64e76a", "type": "electric_scooter", "is_reserved": 0, "lon": -77.02664266666666}, {"fusion_lat": 0.0, "name": "1befcfc8a2671e8c36c4c1944d812610", "is_disabled": 0, "rental_uris": {"android": "https://dc.lft.to/lastmile_qr_scan", "ios": "https://dc.lft.to/lastmile_qr_scan"}, "fusion_lon": 0.0, "lat": 38.89221666666667, "bike_id": "1befcfc8a2671e8c36c4c1944d812610", "type": "electric_scooter", "is_reserved": 0, "lon": -77.02716966666667}, {"fusion_lat": 0.0, "name": "2af27163ed74d7ca3e92b296056cd620", "is_disabled": 0, "rental_uris": {"android": "https://dc.lft.to/lastmile_qr_scan", "ios": "https://dc.lft.to/lastmile_qr_scan"}, "fusion_lon": 0.0, "lat": 38.81939166666667, "bike_id": "2af27163ed74d7ca3e92b296056cd620", "type": "electric_bike", "is_reserved": 0, "lon": -77.0020355}, {"fusion_lat": 0.0, "name": "bb30d9ab7493329ec651178ae040d1d9", "is_disabled": 0, "rental_uris": {"android": "https://dc.lft.to/lastmile_qr_scan", "ios": "https://dc.lft.to/lastmile_qr_scan"}, "fusion_lon": 0.0, "lat": 38.919104, "bike_id": "bb30d9ab7493329ec651178ae040d1d9", "type": "electric_scooter", "is_reserved": 0, "lon": -77.03446733333334}, {"fusion_lat": 0.0, "name": "1dbd95f7cce09cd0110253d505c036a4", "is_disabled": 0, "rental_uris": {"android": "https://dc.lft.to/lastmile_qr_scan", "ios": "https://dc.lft.to/lastmile_qr_scan"}, "fusion_lon": 0.0, "lat": 38.90726333333333, "bike_id": "1dbd95f7cce09cd0110253d505c036a4", "type": "electric_scooter", "is_reserved": 0, "lon": -77.02543366666667}, {"fusion_lat": 0.0, "name": "1660c16e67127f05462f54b817d31ec4", "is_disabled": 0, "rental_uris": {"android": "https://dc.lft.to/lastmile_qr_scan", "ios": "https://dc.lft.to/lastmile_qr_scan"}, "fusion_lon": 0.0, "lat": 38.9526325, "bike_id": "1660c16e67127f05462f54b817d31ec4", "type": "electric_bike", "is_reserved": 0, "lon": -76.999606}, {"fusion_lat": 0.0, "name": "98c22e7a3b64bb22a6bc4ff7221ce20e", "is_disabled": 0, "rental_uris": {"android": "https://dc.lft.to/lastmile_qr_scan", "ios": "https://dc.lft.to/lastmile_qr_scan"}, "fusion_lon": 0.0, "lat": 38.931534166666665, "bike_id": "98c22e7a3b64bb22a6bc4ff7221ce20e", "type": "electric_scooter", "is_reserved": 0, "lon": -77.0396585}, {"fusion_lat": 0.0, "name": "f3b82ac0f88752e367df0ea1a7a2cb1a", "is_disabled": 0, "rental_uris": {"android": "https://dc.lft.to/lastmile_qr_scan", "ios": "https://dc.lft.to/lastmile_qr_scan"}, "fusion_lon": 0.0, "lat": 38.887055, "bike_id": "f3b82ac0f88752e367df0ea1a7a2cb1a", "type": "electric_scooter", "is_reserved": 0, "lon": -76.9961005}, {"fusion_lat": 0.0, "name": "bd4ccf238756b00a565c4a7ff39277a2", "is_disabled": 0, "rental_uris": {"android": "https://dc.lft.to/lastmile_qr_scan", "ios": "https://dc.lft.to/lastmile_qr_scan"}, "fusion_lon": 0.0, "lat": 38.91386633333333, "bike_id": "bd4ccf238756b00a565c4a7ff39277a2", "type": "electric_scooter", "is_reserved": 0, "lon": -77.0321755}, {"fusion_lat": 0.0, "name": "0c444158c6a454042cb7568a2bce12de", "is_disabled": 0, "rental_uris": {"android": "https://dc.lft.to/lastmile_qr_scan", "ios": "https://dc.lft.to/lastmile_qr_scan"}, "fusion_lon": 0.0, "lat": 38.916107, "bike_id": "0c444158c6a454042cb7568a2bce12de", "type": "electric_scooter", "is_reserved": 0, "lon": -77.0230845}, {"fusion_lat": 0.0, "name": "c9ed9ed9357a5ad34dc10c953638fb86", "is_disabled": 0, "rental_uris": {"android": "https://dc.lft.to/lastmile_qr_scan", "ios": "https://dc.lft.to/lastmile_qr_scan"}, "fusion_lon": 0.0, "lat": 38.911112333333335, "bike_id": "c9ed9ed9357a5ad34dc10c953638fb86", "type": "electric_scooter", "is_reserved": 0, "lon": -77.04479983333333}, {"fusion_lat": 0.0, "name": "781d1366d5710c04df3be86f9f41190f", "is_disabled": 0, "rental_uris": {"android": "https://dc.lft.to/lastmile_qr_scan", "ios": "https://dc.lft.to/lastmile_qr_scan"}, "fusion_lon": 0.0, "lat": 38.971267833333336, "bike_id": "781d1366d5710c04df3be86f9f41190f", "type": "electric_bike", "is_reserved": 0, "lon": -77.020854}, {"fusion_lat": 0.0, "name": "e9da7a5c6d43f1e763f096187cc195fc", "is_disabled": 0, "rental_uris": {"android": "https://dc.lft.to/lastmile_qr_scan", "ios": "https://dc.lft.to/lastmile_qr_scan"}, "fusion_lon": 0.0, "lat": 38.919624166666665, "bike_id": "e9da7a5c6d43f1e763f096187cc195fc", "type": "electric_scooter", "is_reserved": 0, "lon": -77.01843683333334}, {"fusion_lat": 0.0, "name": "d1d0b3895d7bbdfbe983130dd8f1a17b", "is_disabled": 0, "rental_uris": {"android": "https://dc.lft.to/lastmile_qr_scan", "ios": "https://dc.lft.to/lastmile_qr_scan"}, "fusion_lon": 0.0, "lat": 38.92787466666667, "bike_id": "d1d0b3895d7bbdfbe983130dd8f1a17b", "type": "electric_scooter", "is_reserved": 0, "lon": -77.03148066666667}, {"fusion_lat": 0.0, "name": "1a4d682c4fa265217a45496be11d6381", "is_disabled": 0, "rental_uris": {"android": "https://dc.lft.to/lastmile_qr_scan", "ios": "https://dc.lft.to/lastmile_qr_scan"}, "fusion_lon": 0.0, "lat": 38.93384133333333, "bike_id": "1a4d682c4fa265217a45496be11d6381", "type": "electric_scooter", "is_reserved": 0, "lon": -77.02413116666666}, {"fusion_lat": 0.0, "name": "5bd71dc0af166d0c33d33947ba3ea285", "is_disabled": 0, "rental_uris": {"android": "https://dc.lft.to/lastmile_qr_scan", "ios": "https://dc.lft.to/lastmile_qr_scan"}, "fusion_lon": 0.0, "lat": 38.90974, "bike_id": "5bd71dc0af166d0c33d33947ba3ea285", "type": "electric_scooter", "is_reserved": 0, "lon": -77.0449865}, {"fusion_lat": 0.0, "name": "838fdafb9fcc0c57ca5d9436d85a6cb1", "is_disabled": 0, "rental_uris": {"android": "https://dc.lft.to/lastmile_qr_scan", "ios": "https://dc.lft.to/lastmile_qr_scan"}, "fusion_lon": 0.0, "lat": 38.941217, "bike_id": "838fdafb9fcc0c57ca5d9436d85a6cb1", "type": "electric_bike", "is_reserved": 0, "lon": -76.99030166666667}, {"fusion_lat": 0.0, "name": "7a3f2fdb75eed0cbeed2957c14c913dd", "is_disabled": 0, "rental_uris": {"android": "https://dc.lft.to/lastmile_qr_scan", "ios": "https://dc.lft.to/lastmile_qr_scan"}, "fusion_lon": 0.0, "lat": 38.917061, "bike_id": "7a3f2fdb75eed0cbeed2957c14c913dd", "type": "electric_scooter", "is_reserved": 0, "lon": -77.04170333333333}, {"fusion_lat": 0.0, "name": "86eb07172c715b9a86ff0b3d2af1bc88", "is_disabled": 0, "rental_uris": {"android": "https://dc.lft.to/lastmile_qr_scan", "ios": "https://dc.lft.to/lastmile_qr_scan"}, "fusion_lon": 0.0, "lat": 38.9006555, "bike_id": "86eb07172c715b9a86ff0b3d2af1bc88", "type": "electric_scooter", "is_reserved": 0, "lon": -77.01356766666666}, {"fusion_lat": 0.0, "name": "aa6d7e8bf62045b612ec65b1e62f4253", "is_disabled": 0, "rental_uris": {"android": "https://dc.lft.to/lastmile_qr_scan", "ios": "https://dc.lft.to/lastmile_qr_scan"}, "fusion_lon": 0.0, "lat": 38.93365566666667, "bike_id": "aa6d7e8bf62045b612ec65b1e62f4253", "type": "electric_scooter", "is_reserved": 0, "lon": -77.02425866666667}, {"fusion_lat": 0.0, "name": "8271c2ec3fd1ee37d485ef120b718e66", "is_disabled": 0, "rental_uris": {"android": "https://dc.lft.to/lastmile_qr_scan", "ios": "https://dc.lft.to/lastmile_qr_scan"}, "fusion_lon": 0.0, "lat": 38.90770366666667, "bike_id": "8271c2ec3fd1ee37d485ef120b718e66", "type": "electric_scooter", "is_reserved": 0, "lon": -77.05591766666667}, {"fusion_lat": 0.0, "name": "6cdd794b3d7799f0e6af35841ff68b21", "is_disabled": 0, "rental_uris": {"android": "https://dc.lft.to/lastmile_qr_scan", "ios": "https://dc.lft.to/lastmile_qr_scan"}, "fusion_lon": 0.0, "lat": 38.88673933333333, "bike_id": "6cdd794b3d7799f0e6af35841ff68b21", "type": "electric_scooter", "is_reserved": 0, "lon": -77.0135965}, {"fusion_lat": 0.0, "name": "b367defbbb31687b77c7bf0d6471d282", "is_disabled": 0, "rental_uris": {"android": "https://dc.lft.to/lastmile_qr_scan", "ios": "https://dc.lft.to/lastmile_qr_scan"}, "fusion_lon": 0.0, "lat": 38.942704666666664, "bike_id": "b367defbbb31687b77c7bf0d6471d282", "type": "electric_scooter", "is_reserved": 0, "lon": -77.03255366666667}, {"fusion_lat": 0.0, "name": "d0da24b1ef6732db9ab7dbaa6487c03f", "is_disabled": 0, "rental_uris": {"android": "https://dc.lft.to/lastmile_qr_scan", "ios": "https://dc.lft.to/lastmile_qr_scan"}, "fusion_lon": 0.0, "lat": 38.91158983333333, "bike_id": "d0da24b1ef6732db9ab7dbaa6487c03f", "type": "electric_scooter", "is_reserved": 0, "lon": -77.07268883333333}, {"fusion_lat": 0.0, "name": "f9e33c60833f09f9fa1f3ac637472def", "is_disabled": 0, "rental_uris": {"android": "https://dc.lft.to/lastmile_qr_scan", "ios": "https://dc.lft.to/lastmile_qr_scan"}, "fusion_lon": 0.0, "lat": 38.915554166666666, "bike_id": "f9e33c60833f09f9fa1f3ac637472def", "type": "electric_scooter", "is_reserved": 0, "lon": -77.011299}, {"fusion_lat": 0.0, "name": "6daf2ea4269c94a5a1a87275ca97b0b6", "is_disabled": 0, "rental_uris": {"android": "https://dc.lft.to/lastmile_qr_scan", "ios": "https://dc.lft.to/lastmile_qr_scan"}, "fusion_lon": 0.0, "lat": 38.90249516666667, "bike_id": "6daf2ea4269c94a5a1a87275ca97b0b6", "type": "electric_scooter", "is_reserved": 0, "lon": -77.017395}, {"fusion_lat": 0.0, "name": "332f1c9a9753c51754a99bf4c59223bb", "is_disabled": 0, "rental_uris": {"android": "https://dc.lft.to/lastmile_qr_scan", "ios": "https://dc.lft.to/lastmile_qr_scan"}, "fusion_lon": 0.0, "lat": 38.8971405, "bike_id": "332f1c9a9753c51754a99bf4c59223bb", "type": "electric_scooter", "is_reserved": 0, "lon": -77.02143266666667}, {"fusion_lat": 0.0, "name": "af6db057fcbf2c9acc1f51472d3be27f", "is_disabled": 0, "rental_uris": {"android": "https://dc.lft.to/lastmile_qr_scan", "ios": "https://dc.lft.to/lastmile_qr_scan"}, "fusion_lon": 0.0, "lat": 38.9400865, "bike_id": "af6db057fcbf2c9acc1f51472d3be27f", "type": "electric_scooter", "is_reserved": 0, "lon": -77.08414816666667}, {"fusion_lat": 0.0, "name": "c57bcf7ae74cae3d7be1e04fd32243fb", "is_disabled": 0, "rental_uris": {"android": "https://dc.lft.to/lastmile_qr_scan", "ios": "https://dc.lft.to/lastmile_qr_scan"}, "fusion_lon": 0.0, "lat": 38.835103333333336, "bike_id": "c57bcf7ae74cae3d7be1e04fd32243fb", "type": "electric_bike", "is_reserved": 0, "lon": -76.98672816666667}, {"fusion_lat": 0.0, "name": "37e847ac2592bea4dd5a67ca02c994e4", "is_disabled": 0, "rental_uris": {"android": "https://dc.lft.to/lastmile_qr_scan", "ios": "https://dc.lft.to/lastmile_qr_scan"}, "fusion_lon": 0.0, "lat": 38.900344, "bike_id": "37e847ac2592bea4dd5a67ca02c994e4", "type": "electric_scooter", "is_reserved": 0, "lon": -77.016135}, {"fusion_lat": 0.0, "name": "ccdae7a81c5c4fedaa0bc83e1425ea80", "is_disabled": 0, "rental_uris": {"android": "https://dc.lft.to/lastmile_qr_scan", "ios": "https://dc.lft.to/lastmile_qr_scan"}, "fusion_lon": 0.0, "lat": 38.887333, "bike_id": "ccdae7a81c5c4fedaa0bc83e1425ea80", "type": "electric_scooter", "is_reserved": 0, "lon": -77.03176783333333}, {"fusion_lat": 0.0, "name": "a7e8f339ffa55c49afab36a12d44c0d6", "is_disabled": 0, "rental_uris": {"android": "https://dc.lft.to/lastmile_qr_scan", "ios": "https://dc.lft.to/lastmile_qr_scan"}, "fusion_lon": 0.0, "lat": 38.900624, "bike_id": "a7e8f339ffa55c49afab36a12d44c0d6", "type": "electric_scooter", "is_reserved": 0, "lon": -76.9338625}, {"fusion_lat": 0.0, "name": "27d2637ec807ed478ea2209e6b9eda3c", "is_disabled": 0, "rental_uris": {"android": "https://dc.lft.to/lastmile_qr_scan", "ios": "https://dc.lft.to/lastmile_qr_scan"}, "fusion_lon": 0.0, "lat": 38.92724883333333, "bike_id": "27d2637ec807ed478ea2209e6b9eda3c", "type": "electric_scooter", "is_reserved": 0, "lon": -77.02085}, {"fusion_lat": 0.0, "name": "5f40cb5506500fedbfcd0f499e48851c", "is_disabled": 0, "rental_uris": {"android": "https://dc.lft.to/lastmile_qr_scan", "ios": "https://dc.lft.to/lastmile_qr_scan"}, "fusion_lon": 0.0, "lat": 38.931217, "bike_id": "5f40cb5506500fedbfcd0f499e48851c", "type": "electric_scooter", "is_reserved": 0, "lon": -77.0352755}, {"fusion_lat": 0.0, "name": "7df951cb665cbf58d70f714d8234a374", "is_disabled": 0, "rental_uris": {"android": "https://dc.lft.to/lastmile_qr_scan", "ios": "https://dc.lft.to/lastmile_qr_scan"}, "fusion_lon": 0.0, "lat": 38.904532833333334, "bike_id": "7df951cb665cbf58d70f714d8234a374", "type": "electric_scooter", "is_reserved": 0, "lon": -76.98259616666667}, {"fusion_lat": 0.0, "name": "235696c17c9e3149121c3cd0a75e21b1", "is_disabled": 0, "rental_uris": {"android": "https://dc.lft.to/lastmile_qr_scan", "ios": "https://dc.lft.to/lastmile_qr_scan"}, "fusion_lon": 0.0, "lat": 38.89311933333333, "bike_id": "235696c17c9e3149121c3cd0a75e21b1", "type": "electric_scooter", "is_reserved": 0, "lon": -77.055901}, {"fusion_lat": 0.0, "name": "837bf5b455c54c3bb84f9c031c6a11f8", "is_disabled": 0, "rental_uris": {"android": "https://dc.lft.to/lastmile_qr_scan", "ios": "https://dc.lft.to/lastmile_qr_scan"}, "fusion_lon": 0.0, "lat": 38.94983116666667, "bike_id": "837bf5b455c54c3bb84f9c031c6a11f8", "type": "electric_scooter", "is_reserved": 0, "lon": -77.02700283333333}, {"fusion_lat": 0.0, "name": "fe3c7c9ddd1bf077bbbd6d246c5fb76c", "is_disabled": 0, "rental_uris": {"android": "https://dc.lft.to/lastmile_qr_scan", "ios": "https://dc.lft.to/lastmile_qr_scan"}, "fusion_lon": 0.0, "lat": 38.91860833333333, "bike_id": "fe3c7c9ddd1bf077bbbd6d246c5fb76c", "type": "electric_scooter", "is_reserved": 0, "lon": -77.04589683333333}, {"fusion_lat": 0.0, "name": "2c1a2ced87af6b0fd1ae4fa9334dec75", "is_disabled": 0, "rental_uris": {"android": "https://dc.lft.to/lastmile_qr_scan", "ios": "https://dc.lft.to/lastmile_qr_scan"}, "fusion_lon": 0.0, "lat": 38.92872766666667, "bike_id": "2c1a2ced87af6b0fd1ae4fa9334dec75", "type": "electric_scooter", "is_reserved": 0, "lon": -77.03277233333333}, {"fusion_lat": 0.0, "name": "eceb0dba0a132d3690536d53efffb782", "is_disabled": 0, "rental_uris": {"android": "https://dc.lft.to/lastmile_qr_scan", "ios": "https://dc.lft.to/lastmile_qr_scan"}, "fusion_lon": 0.0, "lat": 38.911733, "bike_id": "eceb0dba0a132d3690536d53efffb782", "type": "electric_scooter", "is_reserved": 0, "lon": -77.06863333333334}, {"fusion_lat": 0.0, "name": "b18439654516a273af12aa7622326736", "is_disabled": 0, "rental_uris": {"android": "https://dc.lft.to/lastmile_qr_scan", "ios": "https://dc.lft.to/lastmile_qr_scan"}, "fusion_lon": 0.0, "lat": 38.86141816666667, "bike_id": "b18439654516a273af12aa7622326736", "type": "electric_bike", "is_reserved": 0, "lon": -76.9716675}, {"fusion_lat": 0.0, "name": "0d589230b960928ac5636b088dccfcb3", "is_disabled": 0, "rental_uris": {"android": "https://dc.lft.to/lastmile_qr_scan", "ios": "https://dc.lft.to/lastmile_qr_scan"}, "fusion_lon": 0.0, "lat": 38.94496566666667, "bike_id": "0d589230b960928ac5636b088dccfcb3", "type": "electric_bike", "is_reserved": 0, "lon": -77.00542716666666}, {"fusion_lat": 0.0, "name": "1411558f80229d6be844c1bcd2d9910f", "is_disabled": 0, "rental_uris": {"android": "https://dc.lft.to/lastmile_qr_scan", "ios": "https://dc.lft.to/lastmile_qr_scan"}, "fusion_lon": 0.0, "lat": 38.89840916666667, "bike_id": "1411558f80229d6be844c1bcd2d9910f", "type": "electric_scooter", "is_reserved": 0, "lon": -77.027813}, {"fusion_lat": 0.0, "name": "f83c0de4ef7d11a76716d1301dfe1a00", "is_disabled": 0, "rental_uris": {"android": "https://dc.lft.to/lastmile_qr_scan", "ios": "https://dc.lft.to/lastmile_qr_scan"}, "fusion_lon": 0.0, "lat": 38.876502333333335, "bike_id": "f83c0de4ef7d11a76716d1301dfe1a00", "type": "electric_scooter", "is_reserved": 0, "lon": -77.00842416666667}, {"fusion_lat": 0.0, "name": "acfd83cb62e43a406091ee85d96ed927", "is_disabled": 0, "rental_uris": {"android": "https://dc.lft.to/lastmile_qr_scan", "ios": "https://dc.lft.to/lastmile_qr_scan"}, "fusion_lon": 0.0, "lat": 38.934113333333336, "bike_id": "acfd83cb62e43a406091ee85d96ed927", "type": "electric_scooter", "is_reserved": 0, "lon": -77.03256683333333}, {"fusion_lat": 0.0, "name": "e153ff477a43f4a7bb13b15368684059", "is_disabled": 0, "rental_uris": {"android": "https://dc.lft.to/lastmile_qr_scan", "ios": "https://dc.lft.to/lastmile_qr_scan"}, "fusion_lon": 0.0, "lat": 38.92296316666667, "bike_id": "e153ff477a43f4a7bb13b15368684059", "type": "electric_scooter", "is_reserved": 0, "lon": -77.04144316666667}, {"fusion_lat": 0.0, "name": "b079d921299013cd98741f100bb13330", "is_disabled": 0, "rental_uris": {"android": "https://dc.lft.to/lastmile_qr_scan", "ios": "https://dc.lft.to/lastmile_qr_scan"}, "fusion_lon": 0.0, "lat": 38.88635716666667, "bike_id": "b079d921299013cd98741f100bb13330", "type": "electric_scooter", "is_reserved": 0, "lon": -77.01964283333334}, {"fusion_lat": 0.0, "name": "3524284fbf0a6429631bafeb42b6a346", "is_disabled": 0, "rental_uris": {"android": "https://dc.lft.to/lastmile_qr_scan", "ios": "https://dc.lft.to/lastmile_qr_scan"}, "fusion_lon": 0.0, "lat": 38.89229133333333, "bike_id": "3524284fbf0a6429631bafeb42b6a346", "type": "electric_scooter", "is_reserved": 0, "lon": -77.050052}, {"fusion_lat": 0.0, "name": "f3cde07ce4fdb90d7a8261141cc01867", "is_disabled": 0, "rental_uris": {"android": "https://dc.lft.to/lastmile_qr_scan", "ios": "https://dc.lft.to/lastmile_qr_scan"}, "fusion_lon": 0.0, "lat": 38.902734333333335, "bike_id": "f3cde07ce4fdb90d7a8261141cc01867", "type": "electric_scooter", "is_reserved": 0, "lon": -77.02754016666667}, {"fusion_lat": 0.0, "name": "d789d41d1a8476e0ace8c092125bd85e", "is_disabled": 0, "rental_uris": {"android": "https://dc.lft.to/lastmile_qr_scan", "ios": "https://dc.lft.to/lastmile_qr_scan"}, "fusion_lon": 0.0, "lat": 38.92867366666667, "bike_id": "d789d41d1a8476e0ace8c092125bd85e", "type": "electric_scooter", "is_reserved": 0, "lon": -77.013494}, {"fusion_lat": 0.0, "name": "75f33b9fce1d12be4001e82da3a1f717", "is_disabled": 0, "rental_uris": {"android": "https://dc.lft.to/lastmile_qr_scan", "ios": "https://dc.lft.to/lastmile_qr_scan"}, "fusion_lon": 0.0, "lat": 38.9331915, "bike_id": "75f33b9fce1d12be4001e82da3a1f717", "type": "electric_scooter", "is_reserved": 0, "lon": -77.02744333333334}, {"fusion_lat": 0.0, "name": "c2bad5fe671b106ea864e04fde44d949", "is_disabled": 0, "rental_uris": {"android": "https://dc.lft.to/lastmile_qr_scan", "ios": "https://dc.lft.to/lastmile_qr_scan"}, "fusion_lon": 0.0, "lat": 38.916517, "bike_id": "c2bad5fe671b106ea864e04fde44d949", "type": "electric_scooter", "is_reserved": 0, "lon": -77.028069}, {"fusion_lat": 0.0, "name": "0ea609a213eb5c2b21232465af45d42b", "is_disabled": 0, "rental_uris": {"android": "https://dc.lft.to/lastmile_qr_scan", "ios": "https://dc.lft.to/lastmile_qr_scan"}, "fusion_lon": 0.0, "lat": 38.90198016666667, "bike_id": "0ea609a213eb5c2b21232465af45d42b", "type": "electric_scooter", "is_reserved": 0, "lon": -76.97859216666667}, {"fusion_lat": 0.0, "name": "e523f675766cb8b6e71553f9381716d9", "is_disabled": 0, "rental_uris": {"android": "https://dc.lft.to/lastmile_qr_scan", "ios": "https://dc.lft.to/lastmile_qr_scan"}, "fusion_lon": 0.0, "lat": 38.9163005, "bike_id": "e523f675766cb8b6e71553f9381716d9", "type": "electric_scooter", "is_reserved": 0, "lon": -77.031342}, {"fusion_lat": 0.0, "name": "b028a39eb45997bc706c2eb767a8fe50", "is_disabled": 0, "rental_uris": {"android": "https://dc.lft.to/lastmile_qr_scan", "ios": "https://dc.lft.to/lastmile_qr_scan"}, "fusion_lon": 0.0, "lat": 38.9008705, "bike_id": "b028a39eb45997bc706c2eb767a8fe50", "type": "electric_scooter", "is_reserved": 0, "lon": -77.02711783333334}, {"fusion_lat": 0.0, "name": "db93aad6dc6a87e68dbd9b7a50cb3cae", "is_disabled": 0, "rental_uris": {"android": "https://dc.lft.to/lastmile_qr_scan", "ios": "https://dc.lft.to/lastmile_qr_scan"}, "fusion_lon": 0.0, "lat": 38.897305, "bike_id": "db93aad6dc6a87e68dbd9b7a50cb3cae", "type": "electric_scooter", "is_reserved": 0, "lon": -76.94702766666667}, {"fusion_lat": 0.0, "name": "8796d1ea96c7b0c12d1a1ac8e3cd8040", "is_disabled": 0, "rental_uris": {"android": "https://dc.lft.to/lastmile_qr_scan", "ios": "https://dc.lft.to/lastmile_qr_scan"}, "fusion_lon": 0.0, "lat": 38.90851716666667, "bike_id": "8796d1ea96c7b0c12d1a1ac8e3cd8040", "type": "electric_scooter", "is_reserved": 0, "lon": -77.0639725}, {"fusion_lat": 0.0, "name": "8f10df1085f1fafeceb1eb01dfacf224", "is_disabled": 0, "rental_uris": {"android": "https://dc.lft.to/lastmile_qr_scan", "ios": "https://dc.lft.to/lastmile_qr_scan"}, "fusion_lon": 0.0, "lat": 38.960725, "bike_id": "8f10df1085f1fafeceb1eb01dfacf224", "type": "electric_scooter", "is_reserved": 0, "lon": -77.00096183333333}, {"fusion_lat": 0.0, "name": "af1e49dede1df289beeb0f7d6af4bf58", "is_disabled": 0, "rental_uris": {"android": "https://dc.lft.to/lastmile_qr_scan", "ios": "https://dc.lft.to/lastmile_qr_scan"}, "fusion_lon": 0.0, "lat": 38.85563916666667, "bike_id": "af1e49dede1df289beeb0f7d6af4bf58", "type": "electric_bike", "is_reserved": 0, "lon": -77.11315666666667}, {"fusion_lat": 0.0, "name": "93ba55b623d9bb81587e15e4a6e1c6dd", "is_disabled": 0, "rental_uris": {"android": "https://dc.lft.to/lastmile_qr_scan", "ios": "https://dc.lft.to/lastmile_qr_scan"}, "fusion_lon": 0.0, "lat": 38.914827, "bike_id": "93ba55b623d9bb81587e15e4a6e1c6dd", "type": "electric_scooter", "is_reserved": 0, "lon": -77.03215383333334}, {"fusion_lat": 0.0, "name": "cb796d5f4ba5f27db0481688b4075b97", "is_disabled": 0, "rental_uris": {"android": "https://dc.lft.to/lastmile_qr_scan", "ios": "https://dc.lft.to/lastmile_qr_scan"}, "fusion_lon": 0.0, "lat": 38.917182833333335, "bike_id": "cb796d5f4ba5f27db0481688b4075b97", "type": "electric_scooter", "is_reserved": 0, "lon": -76.96869116666667}, {"fusion_lat": 0.0, "name": "25032502e5889a088cc8279235b52d5d", "is_disabled": 0, "rental_uris": {"android": "https://dc.lft.to/lastmile_qr_scan", "ios": "https://dc.lft.to/lastmile_qr_scan"}, "fusion_lon": 0.0, "lat": 38.90646666666667, "bike_id": "25032502e5889a088cc8279235b52d5d", "type": "electric_scooter", "is_reserved": 0, "lon": -77.02499416666667}, {"fusion_lat": 0.0, "name": "7683a8daf406656f42ede68ec8e4751f", "is_disabled": 0, "rental_uris": {"android": "https://dc.lft.to/lastmile_qr_scan", "ios": "https://dc.lft.to/lastmile_qr_scan"}, "fusion_lon": 0.0, "lat": 38.9052455, "bike_id": "7683a8daf406656f42ede68ec8e4751f", "type": "electric_scooter", "is_reserved": 0, "lon": -77.06136083333334}, {"fusion_lat": 0.0, "name": "d930db502bb570c1cfed0c17f5ff53ce", "is_disabled": 0, "rental_uris": {"android": "https://dc.lft.to/lastmile_qr_scan", "ios": "https://dc.lft.to/lastmile_qr_scan"}, "fusion_lon": 0.0, "lat": 38.913215, "bike_id": "d930db502bb570c1cfed0c17f5ff53ce", "type": "electric_scooter", "is_reserved": 0, "lon": -77.04709666666666}, {"fusion_lat": 0.0, "name": "4722c0d1bda4f6ec50bbd215c410d455", "is_disabled": 0, "rental_uris": {"android": "https://dc.lft.to/lastmile_qr_scan", "ios": "https://dc.lft.to/lastmile_qr_scan"}, "fusion_lon": 0.0, "lat": 38.887582333333334, "bike_id": "4722c0d1bda4f6ec50bbd215c410d455", "type": "electric_scooter", "is_reserved": 0, "lon": -77.00169183333334}, {"fusion_lat": 0.0, "name": "d79b66280c0cacffd98eb2398d85d96d", "is_disabled": 0, "rental_uris": {"android": "https://dc.lft.to/lastmile_qr_scan", "ios": "https://dc.lft.to/lastmile_qr_scan"}, "fusion_lon": 0.0, "lat": 38.928664, "bike_id": "d79b66280c0cacffd98eb2398d85d96d", "type": "electric_scooter", "is_reserved": 0, "lon": -77.032909}, {"fusion_lat": 0.0, "name": "5abbb4bf5c80bcbd784c7fce0c307c3c", "is_disabled": 0, "rental_uris": {"android": "https://dc.lft.to/lastmile_qr_scan", "ios": "https://dc.lft.to/lastmile_qr_scan"}, "fusion_lon": 0.0, "lat": 38.910295833333336, "bike_id": "5abbb4bf5c80bcbd784c7fce0c307c3c", "type": "electric_scooter", "is_reserved": 0, "lon": -77.0075925}, {"fusion_lat": 0.0, "name": "b4fcbcc14d5069f0663f92c33ddb950c", "is_disabled": 0, "rental_uris": {"android": "https://dc.lft.to/lastmile_qr_scan", "ios": "https://dc.lft.to/lastmile_qr_scan"}, "fusion_lon": 0.0, "lat": 38.91796466666667, "bike_id": "b4fcbcc14d5069f0663f92c33ddb950c", "type": "electric_scooter", "is_reserved": 0, "lon": -77.04526133333333}, {"fusion_lat": 0.0, "name": "4602672cbb560cccd7ea5de5934ef64e", "is_disabled": 0, "rental_uris": {"android": "https://dc.lft.to/lastmile_qr_scan", "ios": "https://dc.lft.to/lastmile_qr_scan"}, "fusion_lon": 0.0, "lat": 38.90876016666667, "bike_id": "4602672cbb560cccd7ea5de5934ef64e", "type": "electric_scooter", "is_reserved": 0, "lon": -77.06747933333334}, {"fusion_lat": 0.0, "name": "80f1e21a59ba22e89b64d623b7908a99", "is_disabled": 0, "rental_uris": {"android": "https://dc.lft.to/lastmile_qr_scan", "ios": "https://dc.lft.to/lastmile_qr_scan"}, "fusion_lon": 0.0, "lat": 38.887966, "bike_id": "80f1e21a59ba22e89b64d623b7908a99", "type": "electric_bike", "is_reserved": 0, "lon": -76.92994883333333}, {"fusion_lat": 0.0, "name": "f15cc48852b6ddf28ef74e5fb79832a9", "is_disabled": 0, "rental_uris": {"android": "https://dc.lft.to/lastmile_qr_scan", "ios": "https://dc.lft.to/lastmile_qr_scan"}, "fusion_lon": 0.0, "lat": 38.85702766666667, "bike_id": "f15cc48852b6ddf28ef74e5fb79832a9", "type": "electric_scooter", "is_reserved": 0, "lon": -76.995888}, {"fusion_lat": 0.0, "name": "07bbc57b4cef55609e343e6901d6aed6", "is_disabled": 0, "rental_uris": {"android": "https://dc.lft.to/lastmile_qr_scan", "ios": "https://dc.lft.to/lastmile_qr_scan"}, "fusion_lon": 0.0, "lat": 38.917069166666664, "bike_id": "07bbc57b4cef55609e343e6901d6aed6", "type": "electric_scooter", "is_reserved": 0, "lon": -77.037515}, {"fusion_lat": 0.0, "name": "5e8651d73ba5a890d97f17b3b0e1ea6d", "is_disabled": 0, "rental_uris": {"android": "https://dc.lft.to/lastmile_qr_scan", "ios": "https://dc.lft.to/lastmile_qr_scan"}, "fusion_lon": 0.0, "lat": 38.91425233333333, "bike_id": "5e8651d73ba5a890d97f17b3b0e1ea6d", "type": "electric_scooter", "is_reserved": 0, "lon": -77.03206533333334}, {"fusion_lat": 0.0, "name": "796ab875c134597a585820d8c8816e66", "is_disabled": 0, "rental_uris": {"android": "https://dc.lft.to/lastmile_qr_scan", "ios": "https://dc.lft.to/lastmile_qr_scan"}, "fusion_lon": 0.0, "lat": 38.895585833333335, "bike_id": "796ab875c134597a585820d8c8816e66", "type": "electric_scooter", "is_reserved": 0, "lon": -77.01087283333334}, {"fusion_lat": 0.0, "name": "30583e620d0d34fb0bc9685f45b729a6", "is_disabled": 0, "rental_uris": {"android": "https://dc.lft.to/lastmile_qr_scan", "ios": "https://dc.lft.to/lastmile_qr_scan"}, "fusion_lon": 0.0, "lat": 38.919569333333335, "bike_id": "30583e620d0d34fb0bc9685f45b729a6", "type": "electric_scooter", "is_reserved": 0, "lon": -77.02343266666666}, {"fusion_lat": 0.0, "name": "6bae4a3448e73a158e81d1e507e80bd5", "is_disabled": 0, "rental_uris": {"android": "https://dc.lft.to/lastmile_qr_scan", "ios": "https://dc.lft.to/lastmile_qr_scan"}, "fusion_lon": 0.0, "lat": 38.9218115, "bike_id": "6bae4a3448e73a158e81d1e507e80bd5", "type": "electric_scooter", "is_reserved": 0, "lon": -77.02659183333333}, {"fusion_lat": 0.0, "name": "7e3916807d0b54cdb459779bbdbbd3aa", "is_disabled": 0, "rental_uris": {"android": "https://dc.lft.to/lastmile_qr_scan", "ios": "https://dc.lft.to/lastmile_qr_scan"}, "fusion_lon": 0.0, "lat": 38.90273666666667, "bike_id": "7e3916807d0b54cdb459779bbdbbd3aa", "type": "electric_scooter", "is_reserved": 0, "lon": -77.01690733333334}, {"fusion_lat": 0.0, "name": "aab4bd8ff8bd0eee919bc9afd5cc43f7", "is_disabled": 0, "rental_uris": {"android": "https://dc.lft.to/lastmile_qr_scan", "ios": "https://dc.lft.to/lastmile_qr_scan"}, "fusion_lon": 0.0, "lat": 38.8360025, "bike_id": "aab4bd8ff8bd0eee919bc9afd5cc43f7", "type": "electric_bike", "is_reserved": 0, "lon": -77.003789}, {"fusion_lat": 0.0, "name": "d2a4e8caf37584970e311d339465a5fc", "is_disabled": 0, "rental_uris": {"android": "https://dc.lft.to/lastmile_qr_scan", "ios": "https://dc.lft.to/lastmile_qr_scan"},