{"data": {"bikes": [{"type": "electric_scooter", "fusion_lon": 0.0, "fusion_lat": 0.0, "rental_uris": {"android": "https://dc.lft.to/lastmile_qr_scan", "ios": "https://dc.lft.to/lastmile_qr_scan"}, "bike_id": "1e86e4151c641cbd0c1b369086c15733", "is_reserved": 0, "lon": -77.03183833333334, "name": "1e86e4151c641cbd0c1b369086c15733", "is_disabled": 0, "lat": 38.91471083333333}, {"type": "electric_scooter", "fusion_lon": 0.0, "fusion_lat": 0.0, "rental_uris": {"android": "https://dc.lft.to/lastmile_qr_scan", "ios": "https://dc.lft.to/lastmile_qr_scan"}, "bike_id": "c36048e6a84729f7c0ee7fa81ae201d9", "is_reserved": 0, "lon": -77.03858133333334, "name": "c36048e6a84729f7c0ee7fa81ae201d9", "is_disabled": 0, "lat": 38.9175235}, {"type": "electric_scooter", "fusion_lon": 0.0, "fusion_lat": 0.0, "rental_uris": {"android": "https://dc.lft.to/lastmile_qr_scan", "ios": "https://dc.lft.to/lastmile_qr_scan"}, "bike_id": "f859651e1b2cc62ca12ada3a59f8e9c7", "is_reserved": 0, "lon": -77.06302666666667, "name": "f859651e1b2cc62ca12ada3a59f8e9c7", "is_disabled": 0, "lat": 38.944286}, {"type": "electric_scooter", "fusion_lon": 0.0, "fusion_lat": 0.0, "rental_uris": {"android": "https://dc.lft.to/lastmile_qr_scan", "ios": "https://dc.lft.to/lastmile_qr_scan"}, "bike_id": "9d8cd1b85cdf87fbee7efb209f1c6390", "is_reserved": 0, "lon": -77.02197483333333, "name": "9d8cd1b85cdf87fbee7efb209f1c6390", "is_disabled": 0, "lat": 38.9167985}, {"type": "electric_scooter", "fusion_lon": 0.0, "fusion_lat": 0.0, "rental_uris": {"android": "https://dc.lft.to/lastmile_qr_scan", "ios": "https://dc.lft.to/lastmile_qr_scan"}, "bike_id": "53103f4a10910b527e369e903cf4e235", "is_reserved": 0, "lon": -77.03744316666666, "name": "53103f4a10910b527e369e903cf4e235", "is_disabled": 0, "lat": 38.9228355}, {"type": "electric_scooter", "fusion_lon": 0.0, "fusion_lat": 0.0, "rental_uris": {"android": "https://dc.lft.to/lastmile_qr_scan", "ios": "https://dc.lft.to/lastmile_qr_scan"}, "bike_id": "87485ec7daf52fc69a336034891f18a7", "is_reserved": 0, "lon": -77.02812483333334, "name": "87485ec7daf52fc69a336034891f18a7", "is_disabled": 0, "lat": 38.892449666666664}, {"type": "electric_scooter", "fusion_lon": 0.0, "fusion_lat": 0.0, "rental_uris": {"android": "https://dc.lft.to/lastmile_qr_scan", "ios": "https://dc.lft.to/lastmile_qr_scan"}, "bike_id": "0a335da44b4e75475029db70b8726bd4", "is_reserved": 0, "lon": -76.98715033333333, "name": "0a335da44b4e75475029db70b8726bd4", "is_disabled": 0, "lat": 38.866293}, {"type": "electric_scooter", "fusion_lon": 0.0, "fusion_lat": 0.0, "rental_uris": {"android": "https://dc.lft.to/lastmile_qr_scan", "ios": "https://dc.lft.to/lastmile_qr_scan"}, "bike_id": "5f41f53a48d339da2984f859f46d72f5", "is_reserved": 0, "lon": -77.03193066666667, "name": "5f41f53a48d339da2984f859f46d72f5", "is_disabled": 0, "lat": 38.921212833333335}, {"type": "electric_scooter", "fusion_lon": 0.0, "fusion_lat": 0.0, "rental_uris": {"android": "https://dc.lft.to/lastmile_qr_scan", "ios": "https://dc.lft.to/lastmile_qr_scan"}, "bike_id": "6419f23b1bd410e180358f79f22d3557", "is_reserved": 0, "lon": -77.02950633333333, "name": "6419f23b1bd410e180358f79f22d3557", "is_disabled": 0, "lat": 38.89533383333333}, {"type": "electric_bike", "fusion_lon": 0.0, "fusion_lat": 0.0, "rental_uris": {"android": "https://dc.lft.to/lastmile_qr_scan", "ios": "https://dc.lft.to/lastmile_qr_scan"}, "bike_id": "6d5aed9e60ebc6467f5fd4ac52fe77c0", "is_reserved": 0, "lon": -76.9388345, "name": "6d5aed9e60ebc6467f5fd4ac52fe77c0", "is_disabled": 0, "lat": 38.956305666666665}, {"type": "electric_scooter", "fusion_lon": 0.0, "fusion_lat": 0.0, "rental_uris": {"android": "https://dc.lft.to/lastmile_qr_scan", "ios": "https://dc.lft.to/lastmile_qr_scan"}, "bike_id": "388cd18bdaac1567866cd47fa6515e72", "is_reserved": 0, "lon": -77.05679766666667, "name": "388cd18bdaac1567866cd47fa6515e72", "is_disabled": 0, "lat": 38.9052705}, {"type": "electric_scooter", "fusion_lon": 0.0, "fusion_lat": 0.0, "rental_uris": {"android": "https://dc.lft.to/lastmile_qr_scan", "ios": "https://dc.lft.to/lastmile_qr_scan"}, "bike_id": "e68cb45b0db295c1315bff1e5dda5c65", "is_reserved": 0, "lon": -77.06419616666666, "name": "e68cb45b0db295c1315bff1e5dda5c65", "is_disabled": 0, "lat": 38.929100166666665}, {"type": "electric_scooter", "fusion_lon": 0.0, "fusion_lat": 0.0, "rental_uris": {"android": "https://dc.lft.to/lastmile_qr_scan", "ios": "https://dc.lft.to/lastmile_qr_scan"}, "bike_id": "c752c1ed0396922d08d3e233fa0e3006", "is_reserved": 0, "lon": -77.0253835, "name": "c752c1ed0396922d08d3e233fa0e3006", "is_disabled": 0, "lat": 38.90085466666667}, {"type": "electric_scooter", "fusion_lon": 0.0, "fusion_lat": 0.0, "rental_uris": {"android": "https://dc.lft.to/lastmile_qr_scan", "ios": "https://dc.lft.to/lastmile_qr_scan"}, "bike_id": "a8b18f4c2f90bb27d069f341672ec369", "is_reserved": 0, "lon": -77.00753383333333, "name": "a8b18f4c2f90bb27d069f341672ec369", "is_disabled": 0, "lat": 38.90373616666667}, {"type": "electric_scooter", "fusion_lon": 0.0, "fusion_lat": 0.0, "rental_uris": {"android": "https://dc.lft.to/lastmile_qr_scan", "ios": "https://dc.lft.to/lastmile_qr_scan"}, "bike_id": "1f034317b3cfc3999eb49c493abe4061", "is_reserved": 0, "lon": -77.00876616666666, "name": "1f034317b3cfc3999eb49c493abe4061", "is_disabled": 0, "lat": 38.900103333333334}, {"type": "electric_scooter", "fusion_lon": 0.0, "fusion_lat": 0.0, "rental_uris": {"android": "https://dc.lft.to/lastmile_qr_scan", "ios": "https://dc.lft.to/lastmile_qr_scan"}, "bike_id": "d779ddc6c4ff5e8d264e60ff3ee0bcb0", "is_reserved": 0, "lon": -77.00567466666666, "name": "d779ddc6c4ff5e8d264e60ff3ee0bcb0", "is_disabled": 0, "lat": 38.8850265}, {"type": "electric_bike", "fusion_lon": 0.0, "fusion_lat": 0.0, "rental_uris": {"android": "https://dc.lft.to/lastmile_qr_scan", "ios": "https://dc.lft.to/lastmile_qr_scan"}, "bike_id": "d3bb14179a9abeda3ef42210729c03e0", "is_reserved": 0, "lon": -76.90442633333333, "name": "d3bb14179a9abeda3ef42210729c03e0", "is_disabled": 0, "lat": 38.8978005}, {"type": "electric_scooter", "fusion_lon": 0.0, "fusion_lat": 0.0, "rental_uris": {"android": "https://dc.lft.to/lastmile_qr_scan", "ios": "https://dc.lft.to/lastmile_qr_scan"}, "bike_id": "31cc0acb5ec2221338f801287e80d30c", "is_reserved": 0, "lon": -77.03337066666667, "name": "31cc0acb5ec2221338f801287e80d30c", "is_disabled": 0, "lat": 38.898990833333336}, {"type": "electric_bike", "fusion_lon": 0.0, "fusion_lat": 0.0, "rental_uris": {"android": "https://dc.lft.to/lastmile_qr_scan", "ios": "https://dc.lft.to/lastmile_qr_scan"}, "bike_id": "74af8fd6ad9f01938ed6b5e3ac278fe7", "is_reserved": 0, "lon": -76.98845216666666, "name": "74af8fd6ad9f01938ed6b5e3ac278fe7", "is_disabled": 0, "lat": 38.84275683333333}, {"type": "electric_bike", "fusion_lon": 0.0, "fusion_lat": 0.0, "rental_uris": {"android": "https://dc.lft.to/lastmile_qr_scan", "ios": "https://dc.lft.to/lastmile_qr_scan"}, "bike_id": "4814983828fcacc8eba01e912f478d7e", "is_reserved": 0, "lon": -76.94840833333333, "name": "4814983828fcacc8eba01e912f478d7e", "is_disabled": 0, "lat": 38.89469783333333}, {"type": "electric_scooter", "fusion_lon": 0.0, "fusion_lat": 0.0, "rental_uris": {"android": "https://dc.lft.to/lastmile_qr_scan", "ios": "https://dc.lft.to/lastmile_qr_scan"}, "bike_id": "ea4b22f4f5f771eba568dd6b3bf9c500", "is_reserved": 0, "lon": -77.03378583333334, "name": "ea4b22f4f5f771eba568dd6b3bf9c500", "is_disabled": 0, "lat": 38.90966133333333}, {"type": "electric_scooter", "fusion_lon": 0.0, "fusion_lat": 0.0, "rental_uris": {"android": "https://dc.lft.to/lastmile_qr_scan", "ios": "https://dc.lft.to/lastmile_qr_scan"}, "bike_id": "3d5a1a09e28bbfddf39b95be8e8cc661", "is_reserved": 0, "lon": -77.01340466666667, "name": "3d5a1a09e28bbfddf39b95be8e8cc661", "is_disabled": 0, "lat": 38.92640733333333}, {"type": "electric_scooter", "fusion_lon": 0.0, "fusion_lat": 0.0, "rental_uris": {"android": "https://dc.lft.to/lastmile_qr_scan", "ios": "https://dc.lft.to/lastmile_qr_scan"}, "bike_id": "b3c5674deb56eee13567e4985d6f0751", "is_reserved": 0, "lon": -77.03724433333333, "name": "b3c5674deb56eee13567e4985d6f0751", "is_disabled": 0, "lat": 38.906272}, {"type": "electric_scooter", "fusion_lon": 0.0, "fusion_lat": 0.0, "rental_uris": {"android": "https://dc.lft.to/lastmile_qr_scan", "ios": "https://dc.lft.to/lastmile_qr_scan"}, "bike_id": "3b400d6a99a42889d92b5e850c0d4af7", "is_reserved": 0, "lon": -77.03214283333334, "name": "3b400d6a99a42889d92b5e850c0d4af7", "is_disabled": 0, "lat": 38.92599466666667}, {"type": "electric_scooter", "fusion_lon": 0.0, "fusion_lat": 0.0, "rental_uris": {"android": "https://dc.lft.to/lastmile_qr_scan", "ios": "https://dc.lft.to/lastmile_qr_scan"}, "bike_id": "7bb1411c7ec838eee5e5026c0eb68bd2", "is_reserved": 0, "lon": -77.00749916666666, "name": "7bb1411c7ec838eee5e5026c0eb68bd2", "is_disabled": 0, "lat": 38.8990495}, {"type": "electric_scooter", "fusion_lon": 0.0, "fusion_lat": 0.0, "rental_uris": {"android": "https://dc.lft.to/lastmile_qr_scan", "ios": "https://dc.lft.to/lastmile_qr_scan"}, "bike_id": "096f25edd74cf89b583c0cf1c0d96e09", "is_reserved": 0, "lon": -77.041782, "name": "096f25edd74cf89b583c0cf1c0d96e09", "is_disabled": 0, "lat": 38.91730366666667}, {"type": "electric_scooter", "fusion_lon": 0.0, "fusion_lat": 0.0, "rental_uris": {"android": "https://dc.lft.to/lastmile_qr_scan", "ios": "https://dc.lft.to/lastmile_qr_scan"}, "bike_id": "dc410c0906a2680779f0b0c5ecf4e4eb", "is_reserved": 0, "lon": -77.04500033333333, "name": "dc410c0906a2680779f0b0c5ecf4e4eb", "is_disabled": 0, "lat": 38.9080455}, {"type": "electric_scooter", "fusion_lon": 0.0, "fusion_lat": 0.0, "rental_uris": {"android": "https://dc.lft.to/lastmile_qr_scan", "ios": "https://dc.lft.to/lastmile_qr_scan"}, "bike_id": "c5a9ef395eacbeeb978bb8dbe3517a4b", "is_reserved": 0, "lon": -77.03208933333333, "name": "c5a9ef395eacbeeb978bb8dbe3517a4b", "is_disabled": 0, "lat": 38.919611833333335}, {"type": "electric_scooter", "fusion_lon": 0.0, "fusion_lat": 0.0, "rental_uris": {"android": "https://dc.lft.to/lastmile_qr_scan", "ios": "https://dc.lft.to/lastmile_qr_scan"}, "bike_id": "6441f2dfc3d1c0e49262c75df29408c7", "is_reserved": 0, "lon": -77.02261216666666, "name": "6441f2dfc3d1c0e49262c75df29408c7", "is_disabled": 0, "lat": 38.93063716666666}, {"type": "electric_scooter", "fusion_lon": 0.0, "fusion_lat": 0.0, "rental_uris": {"android": "https://dc.lft.to/lastmile_qr_scan", "ios": "https://dc.lft.to/lastmile_qr_scan"}, "bike_id": "ee543ffa88c53dc6305d2708ed6ac367", "is_reserved": 0, "lon": -77.02910583333333, "name": "ee543ffa88c53dc6305d2708ed6ac367", "is_disabled": 0, "lat": 38.916980833333334}, {"type": "electric_scooter", "fusion_lon": 0.0, "fusion_lat": 0.0, "rental_uris": {"android": "https://dc.lft.to/lastmile_qr_scan", "ios": "https://dc.lft.to/lastmile_qr_scan"}, "bike_id": "c3d54e9afef2c64fe30f4ad83720d307", "is_reserved": 0, "lon": -77.05688166666667, "name": "c3d54e9afef2c64fe30f4ad83720d307", "is_disabled": 0, "lat": 38.9260145}, {"type": "electric_scooter", "fusion_lon": 0.0, "fusion_lat": 0.0, "rental_uris": {"android": "https://dc.lft.to/lastmile_qr_scan", "ios": "https://dc.lft.to/lastmile_qr_scan"}, "bike_id": "c2becccfa44fcb2c3b748ef144fde18a", "is_reserved": 0, "lon": -77.03891416666667, "name": "c2becccfa44fcb2c3b748ef144fde18a", "is_disabled": 0, "lat": 38.923224833333336}, {"type": "electric_scooter", "fusion_lon": 0.0, "fusion_lat": 0.0, "rental_uris": {"android": "https://dc.lft.to/lastmile_qr_scan", "ios": "https://dc.lft.to/lastmile_qr_scan"}, "bike_id": "089da456c8e5358a351c2edae93c3237", "is_reserved": 0, "lon": -77.04156716666667, "name": "089da456c8e5358a351c2edae93c3237", "is_disabled": 0, "lat": 38.919863}, {"type": "electric_scooter", "fusion_lon": 0.0, "fusion_lat": 0.0, "rental_uris": {"android": "https://dc.lft.to/lastmile_qr_scan", "ios": "https://dc.lft.to/lastmile_qr_scan"}, "bike_id": "1fc285bc1cc46422405e9ac979f72870", "is_reserved": 0, "lon": -76.98786333333334, "name": "1fc285bc1cc46422405e9ac979f72870", "is_disabled": 0, "lat": 38.8673285}, {"type": "electric_scooter", "fusion_lon": 0.0, "fusion_lat": 0.0, "rental_uris": {"android": "https://dc.lft.to/lastmile_qr_scan", "ios": "https://dc.lft.to/lastmile_qr_scan"}, "bike_id": "1649f5da141bf78773e58bdddeecd887", "is_reserved": 0, "lon": -77.0927015, "name": "1649f5da141bf78773e58bdddeecd887", "is_disabled": 0, "lat": 38.940506666666664}, {"type": "electric_scooter", "fusion_lon": 0.0, "fusion_lat": 0.0, "rental_uris": {"android": "https://dc.lft.to/lastmile_qr_scan", "ios": "https://dc.lft.to/lastmile_qr_scan"}, "bike_id": "47bb64cbeb651b9b7fd529a156ab1479", "is_reserved": 0, "lon": -77.006642, "name": "47bb64cbeb651b9b7fd529a156ab1479", "is_disabled": 0, "lat": 38.916673333333335}, {"type": "electric_scooter", "fusion_lon": 0.0, "fusion_lat": 0.0, "rental_uris": {"android": "https://dc.lft.to/lastmile_qr_scan", "ios": "https://dc.lft.to/lastmile_qr_scan"}, "bike_id": "8f5896125bf4c95ee4d35416bf099f9b", "is_reserved": 0, "lon": -77.04744666666667, "name": "8f5896125bf4c95ee4d35416bf099f9b", "is_disabled": 0, "lat": 38.90548016666666}, {"type": "electric_scooter", "fusion_lon": 0.0, "fusion_lat": 0.0, "rental_uris": {"android": "https://dc.lft.to/lastmile_qr_scan", "ios": "https://dc.lft.to/lastmile_qr_scan"}, "bike_id": "18c1dc22d829037c9118d578d1493a3d", "is_reserved": 0, "lon": -77.04198533333333, "name": "18c1dc22d829037c9118d578d1493a3d", "is_disabled": 0, "lat": 38.89224016666667}, {"type": "electric_scooter", "fusion_lon": 0.0, "fusion_lat": 0.0, "rental_uris": {"android": "https://dc.lft.to/lastmile_qr_scan", "ios": "https://dc.lft.to/lastmile_qr_scan"}, "bike_id": "e4044c30e995fc41eac794a110a15531", "is_reserved": 0, "lon": -77.02142683333334, "name": "e4044c30e995fc41eac794a110a15531", "is_disabled": 0, "lat": 38.9020345}, {"type": "electric_scooter", "fusion_lon": 0.0, "fusion_lat": 0.0, "rental_uris": {"android": "https://dc.lft.to/lastmile_qr_scan", "ios": "https://dc.lft.to/lastmile_qr_scan"}, "bike_id": "1fa0d3b2d3de05955109caab6728ece1", "is_reserved": 0, "lon": -76.99945416666667, "name": "1fa0d3b2d3de05955109caab6728ece1", "is_disabled": 0, "lat": 38.84292933333333}, {"type": "electric_scooter", "fusion_lon": 0.0, "fusion_lat": 0.0, "rental_uris": {"android": "https://dc.lft.to/lastmile_qr_scan", "ios": "https://dc.lft.to/lastmile_qr_scan"}, "bike_id": "025890911fe623f31c5392816d71599c", "is_reserved": 0, "lon": -77.01865383333333, "name": "025890911fe623f31c5392816d71599c", "is_disabled": 0, "lat": 38.973664166666666}, {"type": "electric_scooter", "fusion_lon": 0.0, "fusion_lat": 0.0, "rental_uris": {"android": "https://dc.lft.to/lastmile_qr_scan", "ios": "https://dc.lft.to/lastmile_qr_scan"}, "bike_id": "8f1b345f44edeb92175343639cacc707", "is_reserved": 0, "lon": -77.01980516666667, "name": "8f1b345f44edeb92175343639cacc707", "is_disabled": 0, "lat": 38.91520633333333}, {"type": "electric_bike", "fusion_lon": 0.0, "fusion_lat": 0.0, "rental_uris": {"android": "https://dc.lft.to/lastmile_qr_scan", "ios": "https://dc.lft.to/lastmile_qr_scan"}, "bike_id": "828c41e99a4af55db348445ee647c395", "is_reserved": 0, "lon": -77.06967566666667, "name": "828c41e99a4af55db348445ee647c395", "is_disabled": 0, "lat": 38.970908333333334}, {"type": "electric_scooter", "fusion_lon": 0.0, "fusion_lat": 0.0, "rental_uris": {"android": "https://dc.lft.to/lastmile_qr_scan", "ios": "https://dc.lft.to/lastmile_qr_scan"}, "bike_id": "4054e02f50de8c524e057922f5eb8231", "is_reserved": 0, "lon": -76.97796816666667, "name": "4054e02f50de8c524e057922f5eb8231", "is_disabled": 0, "lat": 38.90314333333333}, {"type": "electric_scooter", "fusion_lon": 0.0, "fusion_lat": 0.0, "rental_uris": {"android": "https://dc.lft.to/lastmile_qr_scan", "ios": "https://dc.lft.to/lastmile_qr_scan"}, "bike_id": "0f8c1bdbb037f7f58fba23fba699157d", "is_reserved": 0, "lon": -77.02510083333334, "name": "0f8c1bdbb037f7f58fba23fba699157d", "is_disabled": 0, "lat": 38.91917566666667}, {"type": "electric_scooter", "fusion_lon": 0.0, "fusion_lat": 0.0, "rental_uris": {"android": "https://dc.lft.to/lastmile_qr_scan", "ios": "https://dc.lft.to/lastmile_qr_scan"}, "bike_id": "0e64e9ee58c3619c6eaada0e9f479a3a", "is_reserved": 0, "lon": -77.04236433333334, "name": "0e64e9ee58c3619c6eaada0e9f479a3a", "is_disabled": 0, "lat": 38.9219555}, {"type": "electric_scooter", "fusion_lon": 0.0, "fusion_lat": 0.0, "rental_uris": {"android": "https://dc.lft.to/lastmile_qr_scan", "ios": "https://dc.lft.to/lastmile_qr_scan"}, "bike_id": "0e37416ae20de3c247d3fe707f3f9a89", "is_reserved": 0, "lon": -77.00476116666667, "name": "0e37416ae20de3c247d3fe707f3f9a89", "is_disabled": 0, "lat": 38.9259235}, {"type": "electric_scooter", "fusion_lon": 0.0, "fusion_lat": 0.0, "rental_uris": {"android": "https://dc.lft.to/lastmile_qr_scan", "ios": "https://dc.lft.to/lastmile_qr_scan"}, "bike_id": "b6e359411cbb62cb4d4e2364fb19d60e", "is_reserved": 0, "lon": -77.01551716666667, "name": "b6e359411cbb62cb4d4e2364fb19d60e", "is_disabled": 0, "lat": 38.88507116666667}, {"type": "electric_scooter", "fusion_lon": 0.0, "fusion_lat": 0.0, "rental_uris": {"android": "https://dc.lft.to/lastmile_qr_scan", "ios": "https://dc.lft.to/lastmile_qr_scan"}, "bike_id": "2a4eecc872ccdd90a80f964230feeb96", "is_reserved": 0, "lon": -77.02375966666666, "name": "2a4eecc872ccdd90a80f964230feeb96", "is_disabled": 0, "lat": 38.91704466666667}, {"type": "electric_scooter", "fusion_lon": 0.0, "fusion_lat": 0.0, "rental_uris": {"android": "https://dc.lft.to/lastmile_qr_scan", "ios": "https://dc.lft.to/lastmile_qr_scan"}, "bike_id": "694293102892d3ded6851599fe956ab8", "is_reserved": 0, "lon": -77.0279625, "name": "694293102892d3ded6851599fe956ab8", "is_disabled": 0, "lat": 38.8984145}, {"type": "electric_scooter", "fusion_lon": 0.0, "fusion_lat": 0.0, "rental_uris": {"android": "https://dc.lft.to/lastmile_qr_scan", "ios": "https://dc.lft.to/lastmile_qr_scan"}, "bike_id": "821ad2704f4b9061d1e4bcc67a4416c1", "is_reserved": 0, "lon": -77.02675066666667, "name": "821ad2704f4b9061d1e4bcc67a4416c1", "is_disabled": 0, "lat": 38.900046}, {"type": "electric_scooter", "fusion_lon": 0.0, "fusion_lat": 0.0, "rental_uris": {"android": "https://dc.lft.to/lastmile_qr_scan", "ios": "https://dc.lft.to/lastmile_qr_scan"}, "bike_id": "51aa62077b93b5e55e95e989fdacc066", "is_reserved": 0, "lon": -77.03975483333333, "name": "51aa62077b93b5e55e95e989fdacc066", "is_disabled": 0, "lat": 38.899121}, {"type": "electric_scooter", "fusion_lon": 0.0, "fusion_lat": 0.0, "rental_uris": {"android": "https://dc.lft.to/lastmile_qr_scan", "ios": "https://dc.lft.to/lastmile_qr_scan"}, "bike_id": "78240dd685c2db0ce8f5cf71fa78b4ae", "is_reserved": 0, "lon": -77.03224383333334, "name": "78240dd685c2db0ce8f5cf71fa78b4ae", "is_disabled": 0, "lat": 38.925948}, {"type": "electric_scooter", "fusion_lon": 0.0, "fusion_lat": 0.0, "rental_uris": {"android": "https://dc.lft.to/lastmile_qr_scan", "ios": "https://dc.lft.to/lastmile_qr_scan"}, "bike_id": "9f7563be0ad3db38c028822e9626f6e9", "is_reserved": 0, "lon": -77.02723683333333, "name": "9f7563be0ad3db38c028822e9626f6e9", "is_disabled": 0, "lat": 38.89615766666667}, {"type": "electric_bike", "fusion_lon": 0.0, "fusion_lat": 0.0, "rental_uris": {"android": "https://dc.lft.to/lastmile_qr_scan", "ios": "https://dc.lft.to/lastmile_qr_scan"}, "bike_id": "2ae153bd986c260fffbdfd09a6ad86dc", "is_reserved": 0, "lon": -76.98951716666667, "name": "2ae153bd986c260fffbdfd09a6ad86dc", "is_disabled": 0, "lat": 38.86708333333333}, {"type": "electric_scooter", "fusion_lon": 0.0, "fusion_lat": 0.0, "rental_uris": {"android": "https://dc.lft.to/lastmile_qr_scan", "ios": "https://dc.lft.to/lastmile_qr_scan"}, "bike_id": "6828a428650e8a95e682117eacbf1b8d", "is_reserved": 0, "lon": -77.00495283333333, "name": "6828a428650e8a95e682117eacbf1b8d", "is_disabled": 0, "lat": 38.90578816666667}, {"type": "electric_scooter", "fusion_lon": 0.0, "fusion_lat": 0.0, "rental_uris": {"android": "https://dc.lft.to/lastmile_qr_scan", "ios": "https://dc.lft.to/lastmile_qr_scan"}, "bike_id": "f9332052e847f7a34f5e3b78609ac1bb", "is_reserved": 0, "lon": -76.93180966666667, "name": "f9332052e847f7a34f5e3b78609ac1bb", "is_disabled": 0, "lat": 38.89877383333334}, {"type": "electric_scooter", "fusion_lon": 0.0, "fusion_lat": 0.0, "rental_uris": {"android": "https://dc.lft.to/lastmile_qr_scan", "ios": "https://dc.lft.to/lastmile_qr_scan"}, "bike_id": "b58b59ff6604b5116cb7526f7bff1918", "is_reserved": 0, "lon": -76.9897975, "name": "b58b59ff6604b5116cb7526f7bff1918", "is_disabled": 0, "lat": 38.856917833333334}, {"type": "electric_scooter", "fusion_lon": 0.0, "fusion_lat": 0.0, "rental_uris": {"android": "https://dc.lft.to/lastmile_qr_scan", "ios": "https://dc.lft.to/lastmile_qr_scan"}, "bike_id": "9718c6c335841406519ab518048c09b3", "is_reserved": 0, "lon": -77.0298405, "name": "9718c6c335841406519ab518048c09b3", "is_disabled": 0, "lat": 38.922415666666666}, {"type": "electric_scooter", "fusion_lon": 0.0, "fusion_lat": 0.0, "rental_uris": {"android": "https://dc.lft.to/lastmile_qr_scan", "ios": "https://dc.lft.to/lastmile_qr_scan"}, "bike_id": "32783e24c0eb0fc7420f40fcf6819f5f", "is_reserved": 0, "lon": -77.04611216666666, "name": "32783e24c0eb0fc7420f40fcf6819f5f", "is_disabled": 0, "lat": 38.902369}, {"type": "electric_scooter", "fusion_lon": 0.0, "fusion_lat": 0.0, "rental_uris": {"android": "https://dc.lft.to/lastmile_qr_scan", "ios": "https://dc.lft.to/lastmile_qr_scan"}, "bike_id": "b44078f14182157a724582185d5177c8", "is_reserved": 0, "lon": -77.04528466666666, "name": "b44078f14182157a724582185d5177c8", "is_disabled": 0, "lat": 38.89749116666667}, {"type": "electric_scooter", "fusion_lon": 0.0, "fusion_lat": 0.0, "rental_uris": {"android": "https://dc.lft.to/lastmile_qr_scan", "ios": "https://dc.lft.to/lastmile_qr_scan"}, "bike_id": "067517830a31b386641935298df8290b", "is_reserved": 0, "lon": -76.98994166666667, "name": "067517830a31b386641935298df8290b", "is_disabled": 0, "lat": 38.85813016666667}, {"type": "electric_scooter", "fusion_lon": 0.0, "fusion_lat": 0.0, "rental_uris": {"android": "https://dc.lft.to/lastmile_qr_scan", "ios": "https://dc.lft.to/lastmile_qr_scan"}, "bike_id": "b72332d8cf2c52aac705fe765b2ebb42", "is_reserved": 0, "lon": -77.03206733333333, "name": "b72332d8cf2c52aac705fe765b2ebb42", "is_disabled": 0, "lat": 38.897642}, {"type": "electric_scooter", "fusion_lon": 0.0, "fusion_lat": 0.0, "rental_uris": {"android": "https://dc.lft.to/lastmile_qr_scan", "ios": "https://dc.lft.to/lastmile_qr_scan"}, "bike_id": "94561b24da11f48221388ea1595e536a", "is_reserved": 0, "lon": -77.0358855, "name": "94561b24da11f48221388ea1595e536a", "is_disabled": 0, "lat": 38.9038565}, {"type": "electric_scooter", "fusion_lon": 0.0, "fusion_lat": 0.0, "rental_uris": {"android": "https://dc.lft.to/lastmile_qr_scan", "ios": "https://dc.lft.to/lastmile_qr_scan"}, "bike_id": "17367ef21413ae438418ace49a71ccba", "is_reserved": 0, "lon": -77.03347883333333, "name": "17367ef21413ae438418ace49a71ccba", "is_disabled": 0, "lat": 38.885212833333334}, {"type": "electric_scooter", "fusion_lon": 0.0, "fusion_lat": 0.0, "rental_uris": {"android": "https://dc.lft.to/lastmile_qr_scan", "ios": "https://dc.lft.to/lastmile_qr_scan"}, "bike_id": "73627bf716f5209b4557efb4f9e85b36", "is_reserved": 0, "lon": -77.07176516666667, "name": "73627bf716f5209b4557efb4f9e85b36", "is_disabled": 0, "lat": 38.94013833333333}, {"type": "electric_scooter", "fusion_lon": 0.0, "fusion_lat": 0.0, "rental_uris": {"android": "https://dc.lft.to/lastmile_qr_scan", "ios": "https://dc.lft.to/lastmile_qr_scan"}, "bike_id": "a7be9f55684ff55cd64d34f93f78010c", "is_reserved": 0, "lon": -77.04350233333334, "name": "a7be9f55684ff55cd64d34f93f78010c", "is_disabled": 0, "lat": 38.8986095}, {"type": "electric_scooter", "fusion_lon": 0.0, "fusion_lat": 0.0, "rental_uris": {"android": "https://dc.lft.to/lastmile_qr_scan", "ios": "https://dc.lft.to/lastmile_qr_scan"}, "bike_id": "2cd2f7aad73a62887569af3b0db012e3", "is_reserved": 0, "lon": -77.02385066666666, "name": "2cd2f7aad73a62887569af3b0db012e3", "is_disabled": 0, "lat": 38.891943}, {"type": "electric_scooter", "fusion_lon": 0.0, "fusion_lat": 0.0, "rental_uris": {"android": "https://dc.lft.to/lastmile_qr_scan", "ios": "https://dc.lft.to/lastmile_qr_scan"}, "bike_id": "b2f9fdf96b2a82a8bfef055da9998e41", "is_reserved": 0, "lon": -77.02239033333333, "name": "b2f9fdf96b2a82a8bfef055da9998e41", "is_disabled": 0, "lat": 38.92418216666667}, {"type": "electric_scooter", "fusion_lon": 0.0, "fusion_lat": 0.0, "rental_uris": {"android": "https://dc.lft.to/lastmile_qr_scan", "ios": "https://dc.lft.to/lastmile_qr_scan"}, "bike_id": "e55a01b2fc7795be09232eb71f085357", "is_reserved": 0, "lon": -76.93355666666666, "name": "e55a01b2fc7795be09232eb71f085357", "is_disabled": 0, "lat": 38.899009166666666}, {"type": "electric_scooter", "fusion_lon": 0.0, "fusion_lat": 0.0, "rental_uris": {"android": "https://dc.lft.to/lastmile_qr_scan", "ios": "https://dc.lft.to/lastmile_qr_scan"}, "bike_id": "f3487a9ceff0262d312477392468bf33", "is_reserved": 0, "lon": -77.02085283333334, "name": "f3487a9ceff0262d312477392468bf33", "is_disabled": 0, "lat": 38.904043}, {"type": "electric_scooter", "fusion_lon": 0.0, "fusion_lat": 0.0, "rental_uris": {"android": "https://dc.lft.to/lastmile_qr_scan", "ios": "https://dc.lft.to/lastmile_qr_scan"}, "bike_id": "f3af0894b857d20689a5fa1c56e77071", "is_reserved": 0, "lon": -76.99577966666666, "name": "f3af0894b857d20689a5fa1c56e77071", "is_disabled": 0, "lat": 38.8517775}, {"type": "electric_scooter", "fusion_lon": 0.0, "fusion_lat": 0.0, "rental_uris": {"android": "https://dc.lft.to/lastmile_qr_scan", "ios": "https://dc.lft.to/lastmile_qr_scan"}, "bike_id": "7314619b825cbcf2491306f370464e6f", "is_reserved": 0, "lon": -77.03967183333333, "name": "7314619b825cbcf2491306f370464e6f", "is_disabled": 0, "lat": 38.899033}, {"type": "electric_scooter", "fusion_lon": 0.0, "fusion_lat": 0.0, "rental_uris": {"android": "https://dc.lft.to/lastmile_qr_scan", "ios": "https://dc.lft.to/lastmile_qr_scan"}, "bike_id": "e354bcceaa2107b7093045e8a75ffb19", "is_reserved": 0, "lon": -77.02177733333333, "name": "e354bcceaa2107b7093045e8a75ffb19", "is_disabled": 0, "lat": 38.90975616666667}, {"type": "electric_scooter", "fusion_lon": 0.0, "fusion_lat": 0.0, "rental_uris": {"android": "https://dc.lft.to/lastmile_qr_scan", "ios": "https://dc.lft.to/lastmile_qr_scan"}, "bike_id": "6ea1f813eef27678213f5df0e93a4057", "is_reserved": 0, "lon": -77.00581683333333, "name": "6ea1f813eef27678213f5df0e93a4057", "is_disabled": 0, "lat": 38.90569633333333}, {"type": "electric_scooter", "fusion_lon": 0.0, "fusion_lat": 0.0, "rental_uris": {"android": "https://dc.lft.to/lastmile_qr_scan", "ios": "https://dc.lft.to/lastmile_qr_scan"}, "bike_id": "9ebeb7e6303c31ea70f568ec25983b65", "is_reserved": 0, "lon": -77.00937833333333, "name": "9ebeb7e6303c31ea70f568ec25983b65", "is_disabled": 0, "lat": 38.874692333333336}, {"type": "electric_scooter", "fusion_lon": 0.0, "fusion_lat": 0.0, "rental_uris": {"android": "https://dc.lft.to/lastmile_qr_scan", "ios": "https://dc.lft.to/lastmile_qr_scan"}, "bike_id": "8ed654c5284efa978329edc79c98041a", "is_reserved": 0, "lon": -77.008951, "name": "8ed654c5284efa978329edc79c98041a", "is_disabled": 0, "lat": 38.89813866666667}, {"type": "electric_scooter", "fusion_lon": 0.0, "fusion_lat": 0.0, "rental_uris": {"android": "https://dc.lft.to/lastmile_qr_scan", "ios": "https://dc.lft.to/lastmile_qr_scan"}, "bike_id": "79a28c401f83be1093e8d4c3813dcd16", "is_reserved": 0, "lon": -77.0343085, "name": "79a28c401f83be1093e8d4c3813dcd16", "is_disabled": 0, "lat": 38.928744}, {"type": "electric_scooter", "fusion_lon": 0.0, "fusion_lat": 0.0, "rental_uris": {"android": "https://dc.lft.to/lastmile_qr_scan", "ios": "https://dc.lft.to/lastmile_qr_scan"}, "bike_id": "be226125fc861b35ef409443e294fc3b", "is_reserved": 0, "lon": -77.04055566666666, "name": "be226125fc861b35ef409443e294fc3b", "is_disabled": 0, "lat": 38.90497766666667}, {"type": "electric_scooter", "fusion_lon": 0.0, "fusion_lat": 0.0, "rental_uris": {"android": "https://dc.lft.to/lastmile_qr_scan", "ios": "https://dc.lft.to/lastmile_qr_scan"}, "bike_id": "ad304f5b986b540cdbdfd8796b42b47f", "is_reserved": 0, "lon": -77.04173183333333, "name": "ad304f5b986b540cdbdfd8796b42b47f", "is_disabled": 0, "lat": 38.9173175}, {"type": "electric_scooter", "fusion_lon": 0.0, "fusion_lat": 0.0, "rental_uris": {"android": "https://dc.lft.to/lastmile_qr_scan", "ios": "https://dc.lft.to/lastmile_qr_scan"}, "bike_id": "2bd186eeffca4bd7b81d879ad445a56b", "is_reserved": 0, "lon": -76.9463365, "name": "2bd186eeffca4bd7b81d879ad445a56b", "is_disabled": 0, "lat": 38.8983485}, {"type": "electric_scooter", "fusion_lon": 0.0, "fusion_lat": 0.0, "rental_uris": {"android": "https://dc.lft.to/lastmile_qr_scan", "ios": "https://dc.lft.to/lastmile_qr_scan"}, "bike_id": "645fc5270a18eeff03ee220d688e4ecc", "is_reserved": 0, "lon": -77.036386, "name": "645fc5270a18eeff03ee220d688e4ecc", "is_disabled": 0, "lat": 38.91828433333333}, {"type": "electric_scooter", "fusion_lon": 0.0, "fusion_lat": 0.0, "rental_uris": {"android": "https://dc.lft.to/lastmile_qr_scan", "ios": "https://dc.lft.to/lastmile_qr_scan"}, "bike_id": "87aec3c2367b24117c6641a12d2f6497", "is_reserved": 0, "lon": -77.04868516666667, "name": "87aec3c2367b24117c6641a12d2f6497", "is_disabled": 0, "lat": 38.90424316666667}, {"type": "electric_scooter", "fusion_lon": 0.0, "fusion_lat": 0.0, "rental_uris": {"android": "https://dc.lft.to/lastmile_qr_scan", "ios": "https://dc.lft.to/lastmile_qr_scan"}, "bike_id": "27b9ca95126c2a4f52f1e022cb5800ae", "is_reserved": 0, "lon": -77.075945, "name": "27b9ca95126c2a4f52f1e022cb5800ae", "is_disabled": 0, "lat": 38.91214566666667}, {"type": "electric_scooter", "fusion_lon": 0.0, "fusion_lat": 0.0, "rental_uris": {"android": "https://dc.lft.to/lastmile_qr_scan", "ios": "https://dc.lft.to/lastmile_qr_scan"}, "bike_id": "c9ea5ff751afbda192d3a66e2eac3656", "is_reserved": 0, "lon": -77.03582666666667, "name": "c9ea5ff751afbda192d3a66e2eac3656", "is_disabled": 0, "lat": 38.9177695}, {"type": "electric_scooter", "fusion_lon": 0.0, "fusion_lat": 0.0, "rental_uris": {"android": "https://dc.lft.to/lastmile_qr_scan", "ios": "https://dc.lft.to/lastmile_qr_scan"}, "bike_id": "ac008cce5e55fd939863d1a6691a5202", "is_reserved": 0, "lon": -77.06382633333334, "name": "ac008cce5e55fd939863d1a6691a5202", "is_disabled": 0, "lat": 38.9051115}, {"type": "electric_bike", "fusion_lon": 0.0, "fusion_lat": 0.0, "rental_uris": {"android": "https://dc.lft.to/lastmile_qr_scan", "ios": "https://dc.lft.to/lastmile_qr_scan"}, "bike_id": "d981a35386565b3965c7e4a6651b38b2", "is_reserved": 0, "lon": -77.10913466666666, "name": "d981a35386565b3965c7e4a6651b38b2", "is_disabled": 0, "lat": 39.0520365}, {"type": "electric_scooter", "fusion_lon": 0.0, "fusion_lat": 0.0, "rental_uris": {"android": "https://dc.lft.to/lastmile_qr_scan", "ios": "https://dc.lft.to/lastmile_qr_scan"}, "bike_id": "b9707108e95be738f6252f4e67e8a7b8", "is_reserved": 0, "lon": -77.034399, "name": "b9707108e95be738f6252f4e67e8a7b8", "is_disabled": 0, "lat": 38.90729833333333}, {"type": "electric_scooter", "fusion_lon": 0.0, "fusion_lat": 0.0, "rental_uris": {"android": "https://dc.lft.to/lastmile_qr_scan", "ios": "https://dc.lft.to/lastmile_qr_scan"}, "bike_id": "62660d92731ca7772f7b040257a33688", "is_reserved": 0, "lon": -77.00956566666666, "name": "62660d92731ca7772f7b040257a33688", "is_disabled": 0, "lat": 38.915574}, {"type": "electric_scooter", "fusion_lon": 0.0, "fusion_lat": 0.0, "rental_uris": {"android": "https://dc.lft.to/lastmile_qr_scan", "ios": "https://dc.lft.to/lastmile_qr_scan"}, "bike_id": "990e96b6b6a1d3561c7c1318fd805988", "is_reserved": 0, "lon": -77.03855066666667, "name": "990e96b6b6a1d3561c7c1318fd805988", "is_disabled": 0, "lat": 38.9078295}, {"type": "electric_scooter", "fusion_lon": 0.0, "fusion_lat": 0.0, "rental_uris": {"android": "https://dc.lft.to/lastmile_qr_scan", "ios": "https://dc.lft.to/lastmile_qr_scan"}, "bike_id": "ae8435d18ab2f1aadc7eef42d7234627", "is_reserved": 0, "lon": -77.04647466666667, "name": "ae8435d18ab2f1aadc7eef42d7234627", "is_disabled": 0, "lat": 38.89534716666667}, {"type": "electric_scooter", "fusion_lon": 0.0, "fusion_lat": 0.0, "rental_uris": {"android": "https://dc.lft.to/lastmile_qr_scan", "ios": "https://dc.lft.to/lastmile_qr_scan"}, "bike_id": "424a5cfa9e12c9c1e5e5efb1ca1b492b", "is_reserved": 0, "lon": -77.0311165, "name": "424a5cfa9e12c9c1e5e5efb1ca1b492b", "is_disabled": 0, "lat": 38.9169755}, {"type": "electric_scooter", "fusion_lon": 0.0, "fusion_lat": 0.0, "rental_uris": {"android": "https://dc.lft.to/lastmile_qr_scan", "ios": "https://dc.lft.to/lastmile_qr_scan"}, "bike_id": "36b58b5275468961fe595accd4c75337", "is_reserved": 0, "lon": -77.04572433333334, "name": "36b58b5275468961fe595accd4c75337", "is_disabled": 0, "lat": 38.90582283333333}, {"type": "electric_scooter", "fusion_lon": 0.0, "fusion_lat": 0.0, "rental_uris": {"android": "https://dc.lft.to/lastmile_qr_scan", "ios": "https://dc.lft.to/lastmile_qr_scan"}, "bike_id": "383f2faa4eb51b1c8a765d86c5c50b6d", "is_reserved": 0, "lon": -77.04107283333333, "name": "383f2faa4eb51b1c8a765d86c5c50b6d", "is_disabled": 0, "lat": 38.910539166666666}, {"type": "electric_bike", "fusion_lon": 0.0, "fusion_lat": 0.0, "rental_uris": {"android": "https://dc.lft.to/lastmile_qr_scan", "ios": "https://dc.lft.to/lastmile_qr_scan"}, "bike_id": "0c7ddd2eac17da520fd0ae7c380a53ef", "is_reserved": 0, "lon": -77.131014, "name": "0c7ddd2eac17da520fd0ae7c380a53ef", "is_disabled": 0, "lat": 39.02432833333334}, {"type": "electric_scooter", "fusion_lon": 0.0, "fusion_lat": 0.0, "rental_uris": {"android": "https://dc.lft.to/lastmile_qr_scan", "ios": "https://dc.lft.to/lastmile_qr_scan"}, "bike_id": "3f159632ef0c1cd5bf3a2f50b2efcd48", "is_reserved": 0, "lon": -77.01223283333333, "name": "3f159632ef0c1cd5bf3a2f50b2efcd48", "is_disabled": 0, "lat": 38.885826333333334}, {"type": "electric_scooter", "fusion_lon": 0.0, "fusion_lat": 0.0, "rental_uris": {"android": "https://dc.lft.to/lastmile_qr_scan", "ios": "https://dc.lft.to/lastmile_qr_scan"}, "bike_id": "7f6cb8f8d11d969dfa132513e9133cdc", "is_reserved": 0, "lon": -77.03838833333333, "name": "7f6cb8f8d11d969dfa132513e9133cdc", "is_disabled": 0, "lat": 38.91822166666667}, {"type": "electric_scooter", "fusion_lon": 0.0, "fusion_lat": 0.0, "rental_uris": {"android": "https://dc.lft.to/lastmile_qr_scan", "ios": "https://dc.lft.to/lastmile_qr_scan"}, "bike_id": "44d1b0a8ad21a88f6f097e7703db5169", "is_reserved": 0, "lon": -77.02255033333333, "name": "44d1b0a8ad21a88f6f097e7703db5169", "is_disabled": 0, "lat": 38.9282815}, {"type": "electric_scooter", "fusion_lon": 0.0, "fusion_lat": 0.0, "rental_uris": {"android": "https://dc.lft.to/lastmile_qr_scan", "ios": "https://dc.lft.to/lastmile_qr_scan"}, "bike_id": "1b5939baf663d6f5872ebde5121fe2ad", "is_reserved": 0, "lon": -77.041764, "name": "1b5939baf663d6f5872ebde5121fe2ad", "is_disabled": 0, "lat": 38.91731983333333}, {"type": "electric_bike", "fusion_lon": 0.0, "fusion_lat": 0.0, "rental_uris": {"android": "https://dc.lft.to/lastmile_qr_scan", "ios": "https://dc.lft.to/lastmile_qr_scan"}, "bike_id": "7e7738f835aecbcec8d72eede5a2a762", "is_reserved": 0, "lon": -77.09476783333334, "name": "7e7738f835aecbcec8d72eede5a2a762", "is_disabled": 0, "lat": 39.03043866666667}, {"type": "electric_scooter", "fusion_lon": 0.0, "fusion_lat": 0.0, "rental_uris": {"android": "https://dc.lft.to/lastmile_qr_scan", "ios": "https://dc.lft.to/lastmile_qr_scan"}, "bike_id": "76fec8f1cf29f7f6d89feef00be1bd58", "is_reserved": 0, "lon": -76.96718366666667, "name": "76fec8f1cf29f7f6d89feef00be1bd58", "is_disabled": 0, "lat": 38.93087116666667}, {"type": "electric_scooter", "fusion_lon": 0.0, "fusion_lat": 0.0, "rental_uris": {"android": "https://dc.lft.to/lastmile_qr_scan", "ios": "https://dc.lft.to/lastmile_qr_scan"}, "bike_id": "77f1e1763cf2807b208032c433c1453f", "is_reserved": 0, "lon": -77.0691575, "name": "77f1e1763cf2807b208032c433c1453f", "is_disabled": 0, "lat": 38.90768283333333}, {"type": "electric_bike", "fusion_lon": 0.0, "fusion_lat": 0.0, "rental_uris": {"android": "https://dc.lft.to/lastmile_qr_scan", "ios": "https://dc.lft.to/lastmile_qr_scan"}, "bike_id": "aa49283c14a45f8696a47d04670b1190", "is_reserved": 0, "lon": -76.9384545, "name": "aa49283c14a45f8696a47d04670b1190", "is_disabled": 0, "lat": 38.9649195}, {"type": "electric_scooter", "fusion_lon": 0.0, "fusion_lat": 0.0, "rental_uris": {"android": "https://dc.lft.to/lastmile_qr_scan", "ios": "https://dc.lft.to/lastmile_qr_scan"}, "bike_id": "b3ac813723699cdaae39774c235fb55a", "is_reserved": 0, "lon": -77.03211683333333, "name": "b3ac813723699cdaae39774c235fb55a", "is_disabled": 0, "lat": 38.93616333333333}, {"type": "electric_scooter", "fusion_lon": 0.0, "fusion_lat": 0.0, "rental_uris": {"android": "https://dc.lft.to/lastmile_qr_scan", "ios": "https://dc.lft.to/lastmile_qr_scan"}, "bike_id": "dff230577f07a84266906ee874237a57", "is_reserved": 0, "lon": -77.0486105, "name": "dff230577f07a84266906ee874237a57", "is_disabled": 0, "lat": 38.90240383333333}, {"type": "electric_scooter", "fusion_lon": 0.0, "fusion_lat": 0.0, "rental_uris": {"android": "https://dc.lft.to/lastmile_qr_scan", "ios": "https://dc.lft.to/lastmile_qr_scan"}, "bike_id": "a77f62064ff1f8616db68aed71c4d313", "is_reserved": 0, "lon": -77.02884266666666, "name": "a77f62064ff1f8616db68aed71c4d313", "is_disabled": 0, "lat": 38.90317666666667}, {"type": "electric_scooter", "fusion_lon": 0.0, "fusion_lat": 0.0, "rental_uris": {"android": "https://dc.lft.to/lastmile_qr_scan", "ios": "https://dc.lft.to/lastmile_qr_scan"}, "bike_id": "7c7ed32414c9c769677da8ef0ff3f22b", "is_reserved": 0, "lon": -77.04259483333334, "name": "7c7ed32414c9c769677da8ef0ff3f22b", "is_disabled": 0, "lat": 38.915585}, {"type": "electric_scooter", "fusion_lon": 0.0, "fusion_lat": 0.0, "rental_uris": {"android": "https://dc.lft.to/lastmile_qr_scan", "ios": "https://dc.lft.to/lastmile_qr_scan"}, "bike_id": "13c52a23317c236cb05a0f8c093e158b", "is_reserved": 0, "lon": -77.02050116666666, "name": "13c52a23317c236cb05a0f8c093e158b", "is_disabled": 0, "lat": 38.894223}, {"type": "electric_bike", "fusion_lon": 0.0, "fusion_lat": 0.0, "rental_uris": {"android": "https://dc.lft.to/lastmile_qr_scan", "ios": "https://dc.lft.to/lastmile_qr_scan"}, "bike_id": "0f9d1e2bc91603065efb201b57e09361", "is_reserved": 0, "lon": -76.980922, "name": "0f9d1e2bc91603065efb201b57e09361", "is_disabled": 0, "lat": 38.881337}, {"type": "electric_scooter", "fusion_lon": 0.0, "fusion_lat": 0.0, "rental_uris": {"android": "https://dc.lft.to/lastmile_qr_scan", "ios": "https://dc.lft.to/lastmile_qr_scan"}, "bike_id": "1fc51bd84279b81bd81442c6fe82f31d", "is_reserved": 0, "lon": -77.0282795, "name": "1fc51bd84279b81bd81442c6fe82f31d", "is_disabled": 0, "lat": 38.892329333333336}, {"type": "electric_scooter", "fusion_lon": 0.0, "fusion_lat": 0.0, "rental_uris": {"android": "https://dc.lft.to/lastmile_qr_scan", "ios": "https://dc.lft.to/lastmile_qr_scan"}, "bike_id": "319508794a9dd3914de2789930183a93", "is_reserved": 0, "lon": -76.990172, "name": "319508794a9dd3914de2789930183a93", "is_disabled": 0, "lat": 38.866592833333335}, {"type": "electric_scooter", "fusion_lon": 0.0, "fusion_lat": 0.0, "rental_uris": {"android": "https://dc.lft.to/lastmile_qr_scan", "ios": "https://dc.lft.to/lastmile_qr_scan"}, "bike_id": "b7296b62991270646a38b3bc46f0d3cf", "is_reserved": 0, "lon": -77.05238816666666, "name": "b7296b62991270646a38b3bc46f0d3cf", "is_disabled": 0, "lat": 38.89990383333333}, {"type": "electric_bike", "fusion_lon": 0.0, "fusion_lat": 0.0, "rental_uris": {"android": "https://dc.lft.to/lastmile_qr_scan", "ios": "https://dc.lft.to/lastmile_qr_scan"}, "bike_id": "c7fa909a43d45d74b56872cd34215dfe", "is_reserved": 0, "lon": -77.00564816666666, "name": "c7fa909a43d45d74b56872cd34215dfe", "is_disabled": 0, "lat": 38.83982316666667}, {"type": "electric_scooter", "fusion_lon": 0.0, "fusion_lat": 0.0, "rental_uris": {"android": "https://dc.lft.to/lastmile_qr_scan", "ios": "https://dc.lft.to/lastmile_qr_scan"}, "bike_id": "eb1e2eee41e3624fa554ba317ce5fe19", "is_reserved": 0, "lon": -77.0317885, "name": "eb1e2eee41e3624fa554ba317ce5fe19", "is_disabled": 0, "lat": 38.9098365}, {"type": "electric_scooter", "fusion_lon": 0.0, "fusion_lat": 0.0, "rental_uris": {"android": "https://dc.lft.to/lastmile_qr_scan", "ios": "https://dc.lft.to/lastmile_qr_scan"}, "bike_id": "b6fcc2d0cfd8a0a36067631538bdb25e", "is_reserved": 0, "lon": -77.0191115, "name": "b6fcc2d0cfd8a0a36067631538bdb25e", "is_disabled": 0, "lat": 38.92367683333333}, {"type": "electric_scooter", "fusion_lon": 0.0, "fusion_lat": 0.0, "rental_uris": {"android": "https://dc.lft.to/lastmile_qr_scan", "ios": "https://dc.lft.to/lastmile_qr_scan"}, "bike_id": "ecea95b760ad22e2c20ced14e0d5b286", "is_reserved": 0, "lon": -76.98784066666667, "name": "ecea95b760ad22e2c20ced14e0d5b286", "is_disabled": 0, "lat": 38.906709166666666}, {"type": "electric_scooter", "fusion_lon": 0.0, "fusion_lat": 0.0, "rental_uris": {"android": "https://dc.lft.to/lastmile_qr_scan", "ios": "https://dc.lft.to/lastmile_qr_scan"}, "bike_id": "b60a7c28e424538a51bdf3675344dae4", "is_reserved": 0, "lon": -77.05231033333334, "name": "b60a7c28e424538a51bdf3675344dae4", "is_disabled": 0, "lat": 38.899985}, {"type": "electric_scooter", "fusion_lon": 0.0, "fusion_lat": 0.0, "rental_uris": {"android": "https://dc.lft.to/lastmile_qr_scan", "ios": "https://dc.lft.to/lastmile_qr_scan"}, "bike_id": "eaed146cd6204b33ef880e7cb0f0f45b", "is_reserved": 0, "lon": -77.047191, "name": "eaed146cd6204b33ef880e7cb0f0f45b", "is_disabled": 0, "lat": 38.8996695}, {"type": "electric_scooter", "fusion_lon": 0.0, "fusion_lat": 0.0, "rental_uris": {"android": "https://dc.lft.to/lastmile_qr_scan", "ios": "https://dc.lft.to/lastmile_qr_scan"}, "bike_id": "d8a5dd93ed4e4a36b2242653f0b4ca55", "is_reserved": 0, "lon": -77.03658533333333, "name": "d8a5dd93ed4e4a36b2242653f0b4ca55", "is_disabled": 0, "lat": 38.92554716666667}, {"type": "electric_scooter", "fusion_lon": 0.0, "fusion_lat": 0.0, "rental_uris": {"android": "https://dc.lft.to/lastmile_qr_scan", "ios": "https://dc.lft.to/lastmile_qr_scan"}, "bike_id": "10f6a8eb736d4f87b7969cacca9d0c7a", "is_reserved": 0, "lon": -77.042452, "name": "10f6a8eb736d4f87b7969cacca9d0c7a", "is_disabled": 0, "lat": 38.906551666666665}, {"type": "electric_scooter", "fusion_lon": 0.0, "fusion_lat": 0.0, "rental_uris": {"android": "https://dc.lft.to/lastmile_qr_scan", "ios": "https://dc.lft.to/lastmile_qr_scan"}, "bike_id": "4f0202b6e061a974a1d8b17c74a55cbb", "is_reserved": 0, "lon": -76.98141266666667, "name": "4f0202b6e061a974a1d8b17c74a55cbb", "is_disabled": 0, "lat": 38.905657}, {"type": "electric_scooter", "fusion_lon": 0.0, "fusion_lat": 0.0, "rental_uris": {"android": "https://dc.lft.to/lastmile_qr_scan", "ios": "https://dc.lft.to/lastmile_qr_scan"}, "bike_id": "5910d05b828a2c526307fba5392ff936", "is_reserved": 0, "lon": -77.03220733333333, "name": "5910d05b828a2c526307fba5392ff936", "is_disabled": 0, "lat": 38.93039683333333}, {"type": "electric_scooter", "fusion_lon": 0.0, "fusion_lat": 0.0, "rental_uris": {"android": "https://dc.lft.to/lastmile_qr_scan", "ios": "https://dc.lft.to/lastmile_qr_scan"}, "bike_id": "7edb07c0bdfc3ed878d38ccb3a492d8c", "is_reserved": 0, "lon": -77.04842733333334, "name": "7edb07c0bdfc3ed878d38ccb3a492d8c", "is_disabled": 0, "lat": 38.895434}, {"type": "electric_scooter", "fusion_lon": 0.0, "fusion_lat": 0.0, "rental_uris": {"android": "https://dc.lft.to/lastmile_qr_scan", "ios": "https://dc.lft.to/lastmile_qr_scan"}, "bike_id": "acf2904aa545a934c176f478ad0eb30e", "is_reserved": 0, "lon": -77.04326983333333, "name": "acf2904aa545a934c176f478ad0eb30e", "is_disabled": 0, "lat": 38.91037083333333}, {"type": "electric_scooter", "fusion_lon": 0.0, "fusion_lat": 0.0, "rental_uris": {"android": "https://dc.lft.to/lastmile_qr_scan", "ios": "https://dc.lft.to/lastmile_qr_scan"}, "bike_id": "24a3de018a57ffcf33896524ca91ba1b", "is_reserved": 0, "lon": -77.05036133333333, "name": "24a3de018a57ffcf33896524ca91ba1b", "is_disabled": 0, "lat": 38.8927915}, {"type": "electric_bike", "fusion_lon": 0.0, "fusion_lat": 0.0, "rental_uris": {"android": "https://dc.lft.to/lastmile_qr_scan", "ios": "https://dc.lft.to/lastmile_qr_scan"}, "bike_id": "a726ac709435813e1b029ab0d6aab61a", "is_reserved": 0, "lon": -76.92494616666667, "name": "a726ac709435813e1b029ab0d6aab61a", "is_disabled": 0, "lat": 38.9588315}, {"type": "electric_scooter", "fusion_lon": 0.0, "fusion_lat": 0.0, "rental_uris": {"android": "https://dc.lft.to/lastmile_qr_scan", "ios": "https://dc.lft.to/lastmile_qr_scan"}, "bike_id": "f72ee4c75c1fa25ddfba33d91cc744b8", "is_reserved": 0, "lon": -76.94070833333333, "name": "f72ee4c75c1fa25ddfba33d91cc744b8", "is_disabled": 0, "lat": 38.89042033333333}, {"type": "electric_scooter", "fusion_lon": 0.0, "fusion_lat": 0.0, "rental_uris": {"android": "https://dc.lft.to/lastmile_qr_scan", "ios": "https://dc.lft.to/lastmile_qr_scan"}, "bike_id": "128647264cbdbef32fc324e51244ccb2", "is_reserved": 0, "lon": -77.02384333333333, "name": "128647264cbdbef32fc324e51244ccb2", "is_disabled": 0, "lat": 38.91762283333333}, {"type": "electric_scooter", "fusion_lon": 0.0, "fusion_lat": 0.0, "rental_uris": {"android": "https://dc.lft.to/lastmile_qr_scan", "ios": "https://dc.lft.to/lastmile_qr_scan"}, "bike_id": "6bac1576e8abf3790c84522e6a467e19", "is_reserved": 0, "lon": -76.97380916666667, "name": "6bac1576e8abf3790c84522e6a467e19", "is_disabled": 0, "lat": 38.87184933333333}, {"type": "electric_scooter", "fusion_lon": 0.0, "fusion_lat": 0.0, "rental_uris": {"android": "https://dc.lft.to/lastmile_qr_scan", "ios": "https://dc.lft.to/lastmile_qr_scan"}, "bike_id": "bf57a8c01be75be6b74716491df5597b", "is_reserved": 0, "lon": -77.04344266666666, "name": "bf57a8c01be75be6b74716491df5597b", "is_disabled": 0, "lat": 38.905627833333334}, {"type": "electric_scooter", "fusion_lon": 0.0, "fusion_lat": 0.0, "rental_uris": {"android": "https://dc.lft.to/lastmile_qr_scan", "ios": "https://dc.lft.to/lastmile_qr_scan"}, "bike_id": "5994ae07b9477bdd13d9d197ee1e0b43", "is_reserved": 0, "lon": -77.04331133333334, "name": "5994ae07b9477bdd13d9d197ee1e0b43", "is_disabled": 0, "lat": 38.908149}, {"type": "electric_scooter", "fusion_lon": 0.0, "fusion_lat": 0.0, "rental_uris": {"android": "https://dc.lft.to/lastmile_qr_scan", "ios": "https://dc.lft.to/lastmile_qr_scan"}, "bike_id": "b5014fa2fb6ebbf30c3f26ce7141c27a", "is_reserved": 0, "lon": -77.0344335, "name": "b5014fa2fb6ebbf30c3f26ce7141c27a", "is_disabled": 0, "lat": 38.9081945}, {"type": "electric_scooter", "fusion_lon": 0.0, "fusion_lat": 0.0, "rental_uris": {"android": "https://dc.lft.to/lastmile_qr_scan", "ios": "https://dc.lft.to/lastmile_qr_scan"}, "bike_id": "9c86b57bbad0b8d1c0d9b9e5654e4844", "is_reserved": 0, "lon": -77.04676016666667, "name": "9c86b57bbad0b8d1c0d9b9e5654e4844", "is_disabled": 0, "lat": 38.8945755}, {"type": "electric_scooter", "fusion_lon": 0.0, "fusion_lat": 0.0, "rental_uris": {"android": "https://dc.lft.to/lastmile_qr_scan", "ios": "https://dc.lft.to/lastmile_qr_scan"}, "bike_id": "94d9abcf79af09758c0daa41317d249e", "is_reserved": 0, "lon": -77.02821583333333, "name": "94d9abcf79af09758c0daa41317d249e", "is_disabled": 0, "lat": 38.89246883333333}, {"type": "electric_bike", "fusion_lon": 0.0, "fusion_lat": 0.0, "rental_uris": {"android": "https://dc.lft.to/lastmile_qr_scan", "ios": "https://dc.lft.to/lastmile_qr_scan"}, "bike_id": "9c8db437307e4533323403bfd606e5b1", "is_reserved": 0, "lon": -77.0995985, "name": "9c8db437307e4533323403bfd606e5b1", "is_disabled": 0, "lat": 38.857896}, {"type": "electric_scooter", "fusion_lon": 0.0, "fusion_lat": 0.0, "rental_uris": {"android": "https://dc.lft.to/lastmile_qr_scan", "ios": "https://dc.lft.to/lastmile_qr_scan"}, "bike_id": "0b1e39e8555d3786ff0b48d2f1a67e22", "is_reserved": 0, "lon": -76.94184516666667, "name": "0b1e39e8555d3786ff0b48d2f1a67e22", "is_disabled": 0, "lat": 38.897574666666664}, {"type": "electric_scooter", "fusion_lon": 0.0, "fusion_lat": 0.0, "rental_uris": {"android": "https://dc.lft.to/lastmile_qr_scan", "ios": "https://dc.lft.to/lastmile_qr_scan"}, "bike_id": "627e77fc2e14f841b96c6261e1d10646", "is_reserved": 0, "lon": -76.9575765, "name": "627e77fc2e14f841b96c6261e1d10646", "is_disabled": 0, "lat": 38.88433166666667}, {"type": "electric_scooter", "fusion_lon": 0.0, "fusion_lat": 0.0, "rental_uris": {"android": "https://dc.lft.to/lastmile_qr_scan", "ios": "https://dc.lft.to/lastmile_qr_scan"}, "bike_id": "71bda54b299ca6c888774e6353c86349", "is_reserved": 0, "lon": -77.03212416666666, "name": "71bda54b299ca6c888774e6353c86349", "is_disabled": 0, "lat": 38.8977945}, {"type": "electric_bike", "fusion_lon": 0.0, "fusion_lat": 0.0, "rental_uris": {"android": "https://dc.lft.to/lastmile_qr_scan", "ios": "https://dc.lft.to/lastmile_qr_scan"}, "bike_id": "3d6d0575dd700c8212037997d40f9295", "is_reserved": 0, "lon": -76.9843425, "name": "3d6d0575dd700c8212037997d40f9295", "is_disabled": 0, "lat": 38.85514533333333}, {"type": "electric_scooter", "fusion_lon": 0.0, "fusion_lat": 0.0, "rental_uris": {"android": "https://dc.lft.to/lastmile_qr_scan", "ios": "https://dc.lft.to/lastmile_qr_scan"}, "bike_id": "3438ec529d92c9cdf9eca2d701df4655", "is_reserved": 0, "lon": -77.04349583333334, "name": "3438ec529d92c9cdf9eca2d701df4655", "is_disabled": 0, "lat": 38.90612816666667}, {"type": "electric_scooter", "fusion_lon": 0.0, "fusion_lat": 0.0, "rental_uris": {"android": "https://dc.lft.to/lastmile_qr_scan", "ios": "https://dc.lft.to/lastmile_qr_scan"}, "bike_id": "abb8cc8974b64dca569fe2764c37ec05", "is_reserved": 0, "lon": -77.0386375, "name": "abb8cc8974b64dca569fe2764c37ec05", "is_disabled": 0, "lat": 38.9125815}, {"type": "electric_scooter", "fusion_lon": 0.0, "fusion_lat": 0.0, "rental_uris": {"android": "https://dc.lft.to/lastmile_qr_scan", "ios": "https://dc.lft.to/lastmile_qr_scan"}, "bike_id": "7843cb5bb43fe0081184df1c5235373e", "is_reserved": 0, "lon": -76.93739266666667, "name": "7843cb5bb43fe0081184df1c5235373e", "is_disabled": 0, "lat": 38.890489}, {"type": "electric_scooter", "fusion_lon": 0.0, "fusion_lat": 0.0, "rental_uris": {"android": "https://dc.lft.to/lastmile_qr_scan", "ios": "https://dc.lft.to/lastmile_qr_scan"}, "bike_id": "8c3ca197fcb297f30bda61efc080eeec", "is_reserved": 0, "lon": -77.06518283333334, "name": "8c3ca197fcb297f30bda61efc080eeec", "is_disabled": 0, "lat": 38.905280166666664}, {"type": "electric_scooter", "fusion_lon": 0.0, "fusion_lat": 0.0, "rental_uris": {"android": "https://dc.lft.to/lastmile_qr_scan", "ios": "https://dc.lft.to/lastmile_qr_scan"}, "bike_id": "fe1e9fec47fb5f95c3d7eea803f8ae02", "is_reserved": 0, "lon": -77.042194, "name": "fe1e9fec47fb5f95c3d7eea803f8ae02", "is_disabled": 0, "lat": 38.92627566666667}, {"type": "electric_bike", "fusion_lon": 0.0, "fusion_lat": 0.0, "rental_uris": {"android": "https://dc.lft.to/lastmile_qr_scan", "ios": "https://dc.lft.to/lastmile_qr_scan"}, "bike_id": "94f78ac95c2970480b9696c449e47890", "is_reserved": 0, "lon": -76.92111616666666, "name": "94f78ac95c2970480b9696c449e47890", "is_disabled": 0, "lat": 38.893297833333335}, {"type": "electric_scooter", "fusion_lon": 0.0, "fusion_lat": 0.0, "rental_uris": {"android": "https://dc.lft.to/lastmile_qr_scan", "ios": "https://dc.lft.to/lastmile_qr_scan"}, "bike_id": "363554b191a98b85a72b1d1534d9504a", "is_reserved": 0, "lon": -77.034235, "name": "363554b191a98b85a72b1d1534d9504a", "is_disabled": 0, "lat": 38.919236}, {"type": "electric_scooter", "fusion_lon": 0.0, "fusion_lat": 0.0, "rental_uris": {"android": "https://dc.lft.to/lastmile_qr_scan", "ios": "https://dc.lft.to/lastmile_qr_scan"}, "bike_id": "2408398b4c084fb623ad0533ea919a98", "is_reserved": 0, "lon": -77.02989366666667, "name": "2408398b4c084fb623ad0533ea919a98", "is_disabled": 0, "lat": 38.9167565}, {"type": "electric_scooter", "fusion_lon": 0.0, "fusion_lat": 0.0, "rental_uris": {"android": "https://dc.lft.to/lastmile_qr_scan", "ios": "https://dc.lft.to/lastmile_qr_scan"}, "bike_id": "f6c432d7403140d3cbf2f08cc4376696", "is_reserved": 0, "lon": -77.05799816666666, "name": "f6c432d7403140d3cbf2f08cc4376696", "is_disabled": 0, "lat": 38.903794}, {"type": "electric_scooter", "fusion_lon": 0.0, "fusion_lat": 0.0, "rental_uris": {"android": "https://dc.lft.to/lastmile_qr_scan", "ios": "https://dc.lft.to/lastmile_qr_scan"}, "bike_id": "c2ba33ff444d416faff3090f27532b47", "is_reserved": 0, "lon": -77.03816983333333, "name": "c2ba33ff444d416faff3090f27532b47", "is_disabled": 0, "lat": 38.90972933333333}, {"type": "electric_scooter", "fusion_lon": 0.0, "fusion_lat": 0.0, "rental_uris": {"android": "https://dc.lft.to/lastmile_qr_scan", "ios": "https://dc.lft.to/lastmile_qr_scan"}, "bike_id": "3d1b8ea288a7eaf762bde632d2369d13", "is_reserved": 0, "lon": -77.01178083333333, "name": "3d1b8ea288a7eaf762bde632d2369d13", "is_disabled": 0, "lat": 38.90008866666667}, {"type": "electric_scooter", "fusion_lon": 0.0, "fusion_lat": 0.0, "rental_uris": {"android": "https://dc.lft.to/lastmile_qr_scan", "ios": "https://dc.lft.to/lastmile_qr_scan"}, "bike_id": "2046ec16261a558331b6bc0536a5f352", "is_reserved": 0, "lon": -77.04223483333334, "name": "2046ec16261a558331b6bc0536a5f352", "is_disabled": 0, "lat": 38.93156366666667}, {"type": "electric_scooter", "fusion_lon": 0.0, "fusion_lat": 0.0, "rental_uris": {"android": "https://dc.lft.to/lastmile_qr_scan", "ios": "https://dc.lft.to/lastmile_qr_scan"}, "bike_id": "1c28cc4218caaf74be1c50bd18edf08e", "is_reserved": 0, "lon": -77.04152366666666, "name": "1c28cc4218caaf74be1c50bd18edf08e", "is_disabled": 0, "lat": 38.8993515}, {"type": "electric_scooter", "fusion_lon": 0.0, "fusion_lat": 0.0, "rental_uris": {"android": "https://dc.lft.to/lastmile_qr_scan", "ios": "https://dc.lft.to/lastmile_qr_scan"}, "bike_id": "5eda3008fd407e4f38744cbc18f02b97", "is_reserved": 0, "lon": -76.947221, "name": "5eda3008fd407e4f38744cbc18f02b97", "is_disabled": 0, "lat": 38.89735266666667}, {"type": "electric_scooter", "fusion_lon": 0.0, "fusion_lat": 0.0, "rental_uris": {"android": "https://dc.lft.to/lastmile_qr_scan", "ios": "https://dc.lft.to/lastmile_qr_scan"}, "bike_id": "f2fc95caaec24a926199610691151f94", "is_reserved": 0, "lon": -77.03666416666667, "name": "f2fc95caaec24a926199610691151f94", "is_disabled": 0, "lat": 38.9143905}, {"type": "electric_scooter", "fusion_lon": 0.0, "fusion_lat": 0.0, "rental_uris": {"android": "https://dc.lft.to/lastmile_qr_scan", "ios": "https://dc.lft.to/lastmile_qr_scan"}, "bike_id": "f3082c77f069912a1f4d800c0a57b1cc", "is_reserved": 0, "lon": -77.0328005, "name": "f3082c77f069912a1f4d800c0a57b1cc", "is_disabled": 0, "lat": 38.91713933333333}, {"type": "electric_scooter", "fusion_lon": 0.0, "fusion_lat": 0.0, "rental_uris": {"android": "https://dc.lft.to/lastmile_qr_scan", "ios": "https://dc.lft.to/lastmile_qr_scan"}, "bike_id": "9f51ba9377c642eb3ca93660be693694", "is_reserved": 0, "lon": -76.99842066666666, "name": "9f51ba9377c642eb3ca93660be693694", "is_disabled": 0, "lat": 38.908102}, {"type": "electric_scooter", "fusion_lon": 0.0, "fusion_lat": 0.0, "rental_uris": {"android": "https://dc.lft.to/lastmile_qr_scan", "ios": "https://dc.lft.to/lastmile_qr_scan"}, "bike_id": "c5add20dad01c46afeb9b79d8a4e6cb3", "is_reserved": 0, "lon": -76.986227, "name": "c5add20dad01c46afeb9b79d8a4e6cb3", "is_disabled": 0, "lat": 38.905889}, {"type": "electric_scooter", "fusion_lon": 0.0, "fusion_lat": 0.0, "rental_uris": {"android": "https://dc.lft.to/lastmile_qr_scan", "ios": "https://dc.lft.to/lastmile_qr_scan"}, "bike_id": "bfebd70c4f2929e920a720b422750e48", "is_reserved": 0, "lon": -77.0199325, "name": "bfebd70c4f2929e920a720b422750e48", "is_disabled": 0, "lat": 38.88595683333333}, {"type": "electric_scooter", "fusion_lon": 0.0, "fusion_lat": 0.0, "rental_uris": {"android": "https://dc.lft.to/lastmile_qr_scan", "ios": "https://dc.lft.to/lastmile_qr_scan"}, "bike_id": "f85456ca79759e27f0915c11ebabf655", "is_reserved": 0, "lon": -77.04547033333333, "name": "f85456ca79759e27f0915c11ebabf655", "is_disabled": 0, "lat": 38.920731}, {"type": "electric_scooter", "fusion_lon": 0.0, "fusion_lat": 0.0, "rental_uris": {"android": "https://dc.lft.to/lastmile_qr_scan", "ios": "https://dc.lft.to/lastmile_qr_scan"}, "bike_id": "3afaa5323139c10d0f30a279fe66ecac", "is_reserved": 0, "lon": -77.04682316666667, "name": "3afaa5323139c10d0f30a279fe66ecac", "is_disabled": 0, "lat": 38.897379666666666}, {"type": "electric_scooter", "fusion_lon": 0.0, "fusion_lat": 0.0, "rental_uris": {"android": "https://dc.lft.to/lastmile_qr_scan", "ios": "https://dc.lft.to/lastmile_qr_scan"}, "bike_id": "9ef8c33489d4af1dae2d819d44f297d0", "is_reserved": 0, "lon": -77.032173, "name": "9ef8c33489d4af1dae2d819d44f297d0", "is_disabled": 0, "lat": 38.9206435}, {"type": "electric_scooter", "fusion_lon": 0.0, "fusion_lat": 0.0, "rental_uris": {"android": "https://dc.lft.to/lastmile_qr_scan", "ios": "https://dc.lft.to/lastmile_qr_scan"}, "bike_id": "774d10ae2e85d5b57ee1dd27f0c75d66", "is_reserved": 0, "lon": -77.0397935, "name": "774d10ae2e85d5b57ee1dd27f0c75d66", "is_disabled": 0, "lat": 38.932849}, {"type": "electric_scooter", "fusion_lon": 0.0, "fusion_lat": 0.0, "rental_uris": {"android": "https://dc.lft.to/lastmile_qr_scan", "ios": "https://dc.lft.to/lastmile_qr_scan"}, "bike_id": "37770353b72328a5e3aeea209f1ab6e0", "is_reserved": 0, "lon": -77.05435183333333, "name": "37770353b72328a5e3aeea209f1ab6e0", "is_disabled": 0, "lat": 38.928498833333336}, {"type": "electric_scooter", "fusion_lon": 0.0, "fusion_lat": 0.0, "rental_uris": {"android": "https://dc.lft.to/lastmile_qr_scan", "ios": "https://dc.lft.to/lastmile_qr_scan"}, "bike_id": "bca0fe014b2fa4771778b2fcb6442a2a", "is_reserved": 0, "lon": -77.03141266666667, "name": "bca0fe014b2fa4771778b2fcb6442a2a", "is_disabled": 0, "lat": 38.9202255}, {"type": "electric_scooter", "fusion_lon": 0.0, "fusion_lat": 0.0, "rental_uris": {"android": "https://dc.lft.to/lastmile_qr_scan", "ios": "https://dc.lft.to/lastmile_qr_scan"}, "bike_id": "53e805e6a4e4859c9b8d6c82559f8d8f", "is_reserved": 0, "lon": -77.03220283333333, "name": "53e805e6a4e4859c9b8d6c82559f8d8f", "is_disabled": 0, "lat": 38.92596233333333}, {"type": "electric_scooter", "fusion_lon": 0.0, "fusion_lat": 0.0, "rental_uris": {"android": "https://dc.lft.to/lastmile_qr_scan", "ios": "https://dc.lft.to/lastmile_qr_scan"}, "bike_id": "1b1d313d922f0a66d97e014c962f807a", "is_reserved": 0, "lon": -77.022768, "name": "1b1d313d922f0a66d97e014c962f807a", "is_disabled": 0, "lat": 38.8950055}, {"type": "electric_scooter", "fusion_lon": 0.0, "fusion_lat": 0.0, "rental_uris": {"android": "https://dc.lft.to/lastmile_qr_scan", "ios": "https://dc.lft.to/lastmile_qr_scan"}, "bike_id": "adda4bffb5bab365866003f8a0f2c7ca", "is_reserved": 0, "lon": -77.02668716666666, "name": "adda4bffb5bab365866003f8a0f2c7ca", "is_disabled": 0, "lat": 38.89623366666667}, {"type": "electric_bike", "fusion_lon": 0.0, "fusion_lat": 0.0, "rental_uris": {"android": "https://dc.lft.to/lastmile_qr_scan", "ios": "https://dc.lft.to/lastmile_qr_scan"}, "bike_id": "1466aaa63a5a51d235e9eea91f52ecaf", "is_reserved": 0, "lon": -76.97930816666667, "name": "1466aaa63a5a51d235e9eea91f52ecaf", "is_disabled": 0, "lat": 38.846580333333335}, {"type": "electric_bike", "fusion_lon": 0.0, "fusion_lat": 0.0, "rental_uris": {"android": "https://dc.lft.to/lastmile_qr_scan", "ios": "https://dc.lft.to/lastmile_qr_scan"}, "bike_id": "5036719d72e17903fca2d15dd92b4ec0", "is_reserved": 0, "lon": -77.13180983333334, "name": "5036719d72e17903fca2d15dd92b4ec0", "is_disabled": 0, "lat": 38.869099166666665}, {"type": "electric_scooter", "fusion_lon": 0.0, "fusion_lat": 0.0, "rental_uris": {"android": "https://dc.lft.to/lastmile_qr_scan", "ios": "https://dc.lft.to/lastmile_qr_scan"}, "bike_id": "644635710e8251f5528a72b7876953bb", "is_reserved": 0, "lon": -77.02644933333333, "name": "644635710e8251f5528a72b7876953bb", "is_disabled": 0, "lat": 38.93863783333333}, {"type": "electric_scooter", "fusion_lon": 0.0, "fusion_lat": 0.0, "rental_uris": {"android": "https://dc.lft.to/lastmile_qr_scan", "ios": "https://dc.lft.to/lastmile_qr_scan"}, "bike_id": "b36e7004f91df2b228ef3cf2cc686ec3", "is_reserved": 0, "lon": -77.048426, "name": "b36e7004f91df2b228ef3cf2cc686ec3", "is_disabled": 0, "lat": 38.91111866666667}, {"type": "electric_bike", "fusion_lon": 0.0, "fusion_lat": 0.0, "rental_uris": {"android": "https://dc.lft.to/lastmile_qr_scan", "ios": "https://dc.lft.to/lastmile_qr_scan"}, "bike_id": "cde86d18fea64cfaaea82267d562c10c", "is_reserved": 0, "lon": -77.08403616666666, "name": "cde86d18fea64cfaaea82267d562c10c", "is_disabled": 0, "lat": 38.8718725}, {"type": "electric_scooter", "fusion_lon": 0.0, "fusion_lat": 0.0, "rental_uris": {"android": "https://dc.lft.to/lastmile_qr_scan", "ios": "https://dc.lft.to/lastmile_qr_scan"}, "bike_id": "9bbdcd12c58fbff899dd362aeeb2aaac", "is_reserved": 0, "lon": -77.0317645, "name": "9bbdcd12c58fbff899dd362aeeb2aaac", "is_disabled": 0, "lat": 38.915540166666666}, {"type": "electric_scooter", "fusion_lon": 0.0, "fusion_lat": 0.0, "rental_uris": {"android": "https://dc.lft.to/lastmile_qr_scan", "ios": "https://dc.lft.to/lastmile_qr_scan"}, "bike_id": "d0489209dd89d5eef2d869ea40ed0a8e", "is_reserved": 0, "lon": -77.04644066666667, "name": "d0489209dd89d5eef2d869ea40ed0a8e", "is_disabled": 0, "lat": 38.8922435}, {"type": "electric_scooter", "fusion_lon": 0.0, "fusion_lat": 0.0, "rental_uris": {"android": "https://dc.lft.to/lastmile_qr_scan", "ios": "https://dc.lft.to/lastmile_qr_scan"}, "bike_id": "81e76cc5f9eff6d9bbb6bffc3b0bd2e9", "is_reserved": 0, "lon": -77.02150466666667, "name": "81e76cc5f9eff6d9bbb6bffc3b0bd2e9", "is_disabled": 0, "lat": 38.925121}, {"type": "electric_scooter", "fusion_lon": 0.0, "fusion_lat": 0.0, "rental_uris": {"android": "https://dc.lft.to/lastmile_qr_scan", "ios": "https://dc.lft.to/lastmile_qr_scan"}, "bike_id": "bab85f35e4859117a81df71ac2443793", "is_reserved": 0, "lon": -77.03335883333334, "name": "bab85f35e4859117a81df71ac2443793", "is_disabled": 0, "lat": 38.898382166666664}, {"type": "electric_scooter", "fusion_lon": 0.0, "fusion_lat": 0.0, "rental_uris": {"android": "https://dc.lft.to/lastmile_qr_scan", "ios": "https://dc.lft.to/lastmile_qr_scan"}, "bike_id": "f813d1addd9e427d2a726ec4bafa0973", "is_reserved": 0, "lon": -76.9984745, "name": "f813d1addd9e427d2a726ec4bafa0973", "is_disabled": 0, "lat": 38.896222}, {"type": "electric_scooter", "fusion_lon": 0.0, "fusion_lat": 0.0, "rental_uris": {"android": "https://dc.lft.to/lastmile_qr_scan", "ios": "https://dc.lft.to/lastmile_qr_scan"}, "bike_id": "04eb616a3d5180d7dd78716499a7f944", "is_reserved": 0, "lon": -76.94960233333333, "name": "04eb616a3d5180d7dd78716499a7f944", "is_disabled": 0, "lat": 38.89366116666667}, {"type": "electric_scooter", "fusion_lon": 0.0, "fusion_lat": 0.0, "rental_uris": {"android": "https://dc.lft.to/lastmile_qr_scan", "ios": "https://dc.lft.to/lastmile_qr_scan"}, "bike_id": "f37bb2b9f307af2b52c3851d4d65cd53", "is_reserved": 0, "lon": -77.02590966666666, "name": "f37bb2b9f307af2b52c3851d4d65cd53", "is_disabled": 0, "lat": 38.89676216666667}, {"type": "electric_scooter", "fusion_lon": 0.0, "fusion_lat": 0.0, "rental_uris": {"android": "https://dc.lft.to/lastmile_qr_scan", "ios": "https://dc.lft.to/lastmile_qr_scan"}, "bike_id": "ca3905398ec7203eed8fce4f2443f899", "is_reserved": 0, "lon": -77.03346, "name": "ca3905398ec7203eed8fce4f2443f899", "is_disabled": 0, "lat": 38.92051683333333}, {"type": "electric_scooter", "fusion_lon": 0.0, "fusion_lat": 0.0, "rental_uris": {"android": "https://dc.lft.to/lastmile_qr_scan", "ios": "https://dc.lft.to/lastmile_qr_scan"}, "bike_id": "4d7d4b7d27e143a0a16933dc7a45d4fc", "is_reserved": 0, "lon": -77.030708, "name": "4d7d4b7d27e143a0a16933dc7a45d4fc", "is_disabled": 0, "lat": 38.90574683333333}, {"type": "electric_scooter", "fusion_lon": 0.0, "fusion_lat": 0.0, "rental_uris": {"android": "https://dc.lft.to/lastmile_qr_scan", "ios": "https://dc.lft.to/lastmile_qr_scan"}, "bike_id": "4e84034a555f023d09f5e08ce6d4c9a4", "is_reserved": 0, "lon": -77.04638983333334, "name": "4e84034a555f023d09f5e08ce6d4c9a4", "is_disabled": 0, "lat": 38.89226216666667}, {"type": "electric_scooter", "fusion_lon": 0.0, "fusion_lat": 0.0, "rental_uris": {"android": "https://dc.lft.to/lastmile_qr_scan", "ios": "https://dc.lft.to/lastmile_qr_scan"}, "bike_id": "251d551d106cd2e7f1653d02303a2856", "is_reserved": 0, "lon": -77.01807816666667, "name": "251d551d106cd2e7f1653d02303a2856", "is_disabled": 0, "lat": 38.92116216666667}, {"type": "electric_scooter", "fusion_lon": 0.0, "fusion_lat": 0.0, "rental_uris": {"android": "https://dc.lft.to/lastmile_qr_scan", "ios": "https://dc.lft.to/lastmile_qr_scan"}, "bike_id": "2f548e4e73d013924eb4dfdd4d42b014", "is_reserved": 0, "lon": -76.96724633333334, "name": "2f548e4e73d013924eb4dfdd4d42b014", "is_disabled": 0, "lat": 38.931009833333334}, {"type": "electric_scooter", "fusion_lon": 0.0, "fusion_lat": 0.0, "rental_uris": {"android": "https://dc.lft.to/lastmile_qr_scan", "ios": "https://dc.lft.to/lastmile_qr_scan"}, "bike_id": "05556bf5ef672ab16053027a94e73f81", "is_reserved": 0, "lon": -77.01378683333333, "name": "05556bf5ef672ab16053027a94e73f81", "is_disabled": 0, "lat": 38.90063516666667}, {"type": "electric_scooter", "fusion_lon": 0.0, "fusion_lat": 0.0, "rental_uris": {"android": "https://dc.lft.to/lastmile_qr_scan", "ios": "https://dc.lft.to/lastmile_qr_scan"}, "bike_id": "555dab4cf1c8e1386bcf204ca3fcb084", "is_reserved": 0, "lon": -77.041555, "name": "555dab4cf1c8e1386bcf204ca3fcb084", "is_disabled": 0, "lat": 38.9189735}, {"type": "electric_scooter", "fusion_lon": 0.0, "fusion_lat": 0.0, "rental_uris": {"android": "https://dc.lft.to/lastmile_qr_scan", "ios": "https://dc.lft.to/lastmile_qr_scan"}, "bike_id": "711c3ab6aef45ecfc41a1bed2a296dcd", "is_reserved": 0, "lon": -77.06279883333333, "name": "711c3ab6aef45ecfc41a1bed2a296dcd", "is_disabled": 0, "lat": 38.904975}, {"type": "electric_scooter", "fusion_lon": 0.0, "fusion_lat": 0.0, "rental_uris": {"android": "https://dc.lft.to/lastmile_qr_scan", "ios": "https://dc.lft.to/lastmile_qr_scan"}, "bike_id": "872d7e457628735c970749ca3e522013", "is_reserved": 0, "lon": -76.9923575, "name": "872d7e457628735c970749ca3e522013", "is_disabled": 0, "lat": 38.86280816666667}, {"type": "electric_scooter", "fusion_lon": 0.0, "fusion_lat": 0.0, "rental_uris": {"android": "https://dc.lft.to/lastmile_qr_scan", "ios": "https://dc.lft.to/lastmile_qr_scan"}, "bike_id": "a75d9eaf99e64c2feb36ac79f1eb4a89", "is_reserved": 0, "lon": -77.03660616666667, "name": "a75d9eaf99e64c2feb36ac79f1eb4a89", "is_disabled": 0, "lat": 38.92286033333333}, {"type": "electric_scooter", "fusion_lon": 0.0, "fusion_lat": 0.0, "rental_uris": {"android": "https://dc.lft.to/lastmile_qr_scan", "ios": "https://dc.lft.to/lastmile_qr_scan"}, "bike_id": "caa0cc9d7c336258e0b24a6172b5ada9", "is_reserved": 0, "lon": -77.02824, "name": "caa0cc9d7c336258e0b24a6172b5ada9", "is_disabled": 0, "lat": 38.896164}, {"type": "electric_scooter", "fusion_lon": 0.0, "fusion_lat": 0.0, "rental_uris": {"android": "https://dc.lft.to/lastmile_qr_scan", "ios": "https://dc.lft.to/lastmile_qr_scan"}, "bike_id": "fa30d281f41a70c4eb42c4fcfc6e7299", "is_reserved": 0, "lon": -77.01387366666667, "name": "fa30d281f41a70c4eb42c4fcfc6e7299", "is_disabled": 0, "lat": 38.88734316666667}, {"type": "electric_scooter", "fusion_lon": 0.0, "fusion_lat": 0.0, "rental_uris": {"android": "https://dc.lft.to/lastmile_qr_scan", "ios": "https://dc.lft.to/lastmile_qr_scan"}, "bike_id": "ecac10e8a7355e5b9abd487483416cb5", "is_reserved": 0, "lon": -77.0224355, "name": "ecac10e8a7355e5b9abd487483416cb5", "is_disabled": 0, "lat": 38.9230235}, {"type": "electric_scooter", "fusion_lon": 0.0, "fusion_lat": 0.0, "rental_uris": {"android": "https://dc.lft.to/lastmile_qr_scan", "ios": "https://dc.lft.to/lastmile_qr_scan"}, "bike_id": "5f96c705f2192f552d5ec811e8e17130", "is_reserved": 0, "lon": -77.0317875, "name": "5f96c705f2192f552d5ec811e8e17130", "is_disabled": 0, "lat": 38.91925916666667}, {"type": "electric_scooter", "fusion_lon": 0.0, "fusion_lat": 0.0, "rental_uris": {"android": "https://dc.lft.to/lastmile_qr_scan", "ios": "https://dc.lft.to/lastmile_qr_scan"}, "bike_id": "1515d2463a5df8cf8f1c24b322de8e4a", "is_reserved": 0, "lon": -77.0327765, "name": "1515d2463a5df8cf8f1c24b322de8e4a", "is_disabled": 0, "lat": 38.917205}, {"type": "electric_scooter", "fusion_lon": 0.0, "fusion_lat": 0.0, "rental_uris": {"android": "https://dc.lft.to/lastmile_qr_scan", "ios": "https://dc.lft.to/lastmile_qr_scan"}, "bike_id": "2ba023b12a5eae5048a3eb2d1f1c7496", "is_reserved": 0, "lon": -77.025345, "name": "2ba023b12a5eae5048a3eb2d1f1c7496", "is_disabled": 0, "lat": 38.9417115}, {"type": "electric_scooter", "fusion_lon": 0.0, "fusion_lat": 0.0, "rental_uris": {"android": "https://dc.lft.to/lastmile_qr_scan", "ios": "https://dc.lft.to/lastmile_qr_scan"}, "bike_id": "6e4e8f28f62bb19d26aef176858099c0", "is_reserved": 0, "lon": -77.0234, "name": "6e4e8f28f62bb19d26aef176858099c0", "is_disabled": 0, "lat": 38.94172916666667}, {"type": "electric_scooter", "fusion_lon": 0.0, "fusion_lat": 0.0, "rental_uris": {"android": "https://dc.lft.to/lastmile_qr_scan", "ios": "https://dc.lft.to/lastmile_qr_scan"}, "bike_id": "6281f05b05408866d2171489f1fc190e", "is_reserved": 0, "lon": -77.031874, "name": "6281f05b05408866d2171489f1fc190e", "is_disabled": 0, "lat": 38.917511833333336}, {"type": "electric_bike", "fusion_lon": 0.0, "fusion_lat": 0.0, "rental_uris": {"android": "https://dc.lft.to/lastmile_qr_scan", "ios": "https://dc.lft.to/lastmile_qr_scan"}, "bike_id": "341646ebbd9e87be67b6f79fa3403438", "is_reserved": 0, "lon": -76.946309, "name": "341646ebbd9e87be67b6f79fa3403438", "is_disabled": 0, "lat": 38.832420166666665}, {"type": "electric_scooter", "fusion_lon": 0.0, "fusion_lat": 0.0, "rental_uris": {"android": "https://dc.lft.to/lastmile_qr_scan", "ios": "https://dc.lft.to/lastmile_qr_scan"}, "bike_id": "6ea4f08a3cd1a5d1702e021c74ce949d", "is_reserved": 0, "lon": -77.02981533333333, "name": "6ea4f08a3cd1a5d1702e021c74ce949d", "is_disabled": 0, "lat": 38.900844}, {"type": "electric_scooter", "fusion_lon": 0.0, "fusion_lat": 0.0, "rental_uris": {"android": "https://dc.lft.to/lastmile_qr_scan", "ios": "https://dc.lft.to/lastmile_qr_scan"}, "bike_id": "f16f53d28a0ebb9cf52843141ade8d25", "is_reserved": 0, "lon": -77.020331, "name": "f16f53d28a0ebb9cf52843141ade8d25", "is_disabled": 0, "lat": 38.92445716666667}, {"type": "electric_scooter", "fusion_lon": 0.0, "fusion_lat": 0.0, "rental_uris": {"android": "https://dc.lft.to/lastmile_qr_scan", "ios": "https://dc.lft.to/lastmile_qr_scan"}, "bike_id": "4216f22206bfa44e5e581569d59fc585", "is_reserved": 0, "lon": -76.99243633333333, "name": "4216f22206bfa44e5e581569d59fc585", "is_disabled": 0, "lat": 38.863880333333334}, {"type": "electric_scooter", "fusion_lon": 0.0, "fusion_lat": 0.0, "rental_uris": {"android": "https://dc.lft.to/lastmile_qr_scan", "ios": "https://dc.lft.to/lastmile_qr_scan"}, "bike_id": "52ea9b5ed37557ec6e3bb1ab48f9ad88", "is_reserved": 0, "lon": -77.02173683333334, "name": "52ea9b5ed37557ec6e3bb1ab48f9ad88", "is_disabled": 0, "lat": 38.9156315}, {"type": "electric_scooter", "fusion_lon": 0.0, "fusion_lat": 0.0, "rental_uris": {"android": "https://dc.lft.to/lastmile_qr_scan", "ios": "https://dc.lft.to/lastmile_qr_scan"}, "bike_id": "bc8293d64a86c191b1e959005dd152f9", "is_reserved": 0, "lon": -77.03558566666666, "name": "bc8293d64a86c191b1e959005dd152f9", "is_disabled": 0, "lat": 38.92742033333333}, {"type": "electric_scooter", "fusion_lon": 0.0, "fusion_lat": 0.0, "rental_uris": {"android": "https://dc.lft.to/lastmile_qr_scan", "ios": "https://dc.lft.to/lastmile_qr_scan"}, "bike_id": "0cb8199097c1baa83b4666851755aab5", "is_reserved": 0, "lon": -77.04507783333334, "name": "0cb8199097c1baa83b4666851755aab5", "is_disabled": 0, "lat": 38.91277516666667}, {"type": "electric_scooter", "fusion_lon": 0.0, "fusion_lat": 0.0, "rental_uris": {"android": "https://dc.lft.to/lastmile_qr_scan", "ios": "https://dc.lft.to/lastmile_qr_scan"}, "bike_id": "0cb818c57802b5482d644b6d7d910f10", "is_reserved": 0, "lon": -77.045004, "name": "0cb818c57802b5482d644b6d7d910f10", "is_disabled": 0, "lat": 38.91109383333333}, {"type": "electric_scooter", "fusion_lon": 0.0, "fusion_lat": 0.0, "rental_uris": {"android": "https://dc.lft.to/lastmile_qr_scan", "ios": "https://dc.lft.to/lastmile_qr_scan"}, "bike_id": "90a0d0897d2fabed34efcbcbe8c70ecb", "is_reserved": 0, "lon": -77.047012, "name": "90a0d0897d2fabed34efcbcbe8c70ecb", "is_disabled": 0, "lat": 38.915847666666664}, {"type": "electric_scooter", "fusion_lon": 0.0, "fusion_lat": 0.0, "rental_uris": {"android": "https://dc.lft.to/lastmile_qr_scan", "ios": "https://dc.lft.to/lastmile_qr_scan"}, "bike_id": "2547ace76038232659b3ba2383b8c33a", "is_reserved": 0, "lon": -76.94702816666667, "name": "2547ace76038232659b3ba2383b8c33a", "is_disabled": 0, "lat": 38.889967}, {"type": "electric_scooter", "fusion_lon": 0.0, "fusion_lat": 0.0, "rental_uris": {"android": "https://dc.lft.to/lastmile_qr_scan", "ios": "https://dc.lft.to/lastmile_qr_scan"}, "bike_id": "50d0b37e5e028b5561c90be612a62160", "is_reserved": 0, "lon": -77.02551166666667, "name": "50d0b37e5e028b5561c90be612a62160", "is_disabled": 0, "lat": 38.978820166666665}, {"type": "electric_scooter", "fusion_lon": 0.0, "fusion_lat": 0.0, "rental_uris": {"android": "https://dc.lft.to/lastmile_qr_scan", "ios": "https://dc.lft.to/lastmile_qr_scan"}, "bike_id": "f6364a21c7624e8ffd2d404d17b13184", "is_reserved": 0, "lon": -77.0232125, "name": "f6364a21c7624e8ffd2d404d17b13184", "is_disabled": 0, "lat": 38.929451666666665}, {"type": "electric_scooter", "fusion_lon": 0.0, "fusion_lat": 0.0, "rental_uris": {"android": "https://dc.lft.to/lastmile_qr_scan", "ios": "https://dc.lft.to/lastmile_qr_scan"}, "bike_id": "2174b05cba6eec1dbd97fae88eea8f7f", "is_reserved": 0, "lon": -77.038292, "name": "2174b05cba6eec1dbd97fae88eea8f7f", "is_disabled": 0, "lat": 38.907790166666665}, {"type": "electric_scooter", "fusion_lon": 0.0, "fusion_lat": 0.0, "rental_uris": {"android": "https://dc.lft.to/lastmile_qr_scan", "ios": "https://dc.lft.to/lastmile_qr_scan"}, "bike_id": "d1b15aac3e01b856369098c79a09ef8d", "is_reserved": 0, "lon": -77.02783283333333, "name": "d1b15aac3e01b856369098c79a09ef8d", "is_disabled": 0, "lat": 38.961444}, {"type": "electric_scooter", "fusion_lon": 0.0, "fusion_lat": 0.0, "rental_uris": {"android": "https://dc.lft.to/lastmile_qr_scan", "ios": "https://dc.lft.to/lastmile_qr_scan"}, "bike_id": "b1daae02ed8a472cf1bbefb0f4ced048", "is_reserved": 0, "lon": -77.0254905, "name": "b1daae02ed8a472cf1bbefb0f4ced048", "is_disabled": 0, "lat": 38.9309765}, {"type": "electric_bike", "fusion_lon": 0.0, "fusion_lat": 0.0, "rental_uris": {"android": "https://dc.lft.to/lastmile_qr_scan", "ios": "https://dc.lft.to/lastmile_qr_scan"}, "bike_id": "b9dd67d454348c9f6dc5c0564a6f513e", "is_reserved": 0, "lon": -76.95467033333334, "name": "b9dd67d454348c9f6dc5c0564a6f513e", "is_disabled": 0, "lat": 38.88643116666667}, {"type": "electric_scooter", "fusion_lon": 0.0, "fusion_lat": 0.0, "rental_uris": {"android": "https://dc.lft.to/lastmile_qr_scan", "ios": "https://dc.lft.to/lastmile_qr_scan"}, "bike_id": "9820b359b6f16b77ac248dd5e77df111", "is_reserved": 0, "lon": -76.99695316666667, "name": "9820b359b6f16b77ac248dd5e77df111", "is_disabled": 0, "lat": 38.89821233333333}, {"type": "electric_scooter", "fusion_lon": 0.0, "fusion_lat": 0.0, "rental_uris": {"android": "https://dc.lft.to/lastmile_qr_scan", "ios": "https://dc.lft.to/lastmile_qr_scan"}, "bike_id": "bf85301d77b4fe10fb4d0826a2f2e714", "is_reserved": 0, "lon": -77.03924683333334, "name": "bf85301d77b4fe10fb4d0826a2f2e714", "is_disabled": 0, "lat": 38.9140135}, {"type": "electric_scooter", "fusion_lon": 0.0, "fusion_lat": 0.0, "rental_uris": {"android": "https://dc.lft.to/lastmile_qr_scan", "ios": "https://dc.lft.to/lastmile_qr_scan"}, "bike_id": "645dd8197dbc9e28b72eacf92bfe4182", "is_reserved": 0, "lon": -77.0290365, "name": "645dd8197dbc9e28b72eacf92bfe4182", "is_disabled": 0, "lat": 38.90140683333333}, {"type": "electric_scooter", "fusion_lon": 0.0, "fusion_lat": 0.0, "rental_uris": {"android": "https://dc.lft.to/lastmile_qr_scan", "ios": "https://dc.lft.to/lastmile_qr_scan"}, "bike_id": "98a7c536023f92deca136e16913802ed", "is_reserved": 0, "lon": -77.03730433333334, "name": "98a7c536023f92deca136e16913802ed", "is_disabled": 0, "lat": 38.930712}, {"type": "electric_scooter", "fusion_lon": 0.0, "fusion_lat": 0.0, "rental_uris": {"android": "https://dc.lft.to/lastmile_qr_scan", "ios": "https://dc.lft.to/lastmile_qr_scan"}, "bike_id": "86ce68c546890970dec98748a9dd530d", "is_reserved": 0, "lon": -77.0613855, "name": "86ce68c546890970dec98748a9dd530d", "is_disabled": 0, "lat": 38.905262666666665}, {"type": "electric_scooter", "fusion_lon": 0.0, "fusion_lat": 0.0, "rental_uris": {"android": "https://dc.lft.to/lastmile_qr_scan", "ios": "https://dc.lft.to/lastmile_qr_scan"}, "bike_id": "f5f2ab96be6c2b7ba0d891e96bd960b6", "is_reserved": 0, "lon": -77.0413315, "name": "f5f2ab96be6c2b7ba0d891e96bd960b6", "is_disabled": 0, "lat": 38.92365133333333}, {"type": "electric_bike", "fusion_lon": 0.0, "fusion_lat": 0.0, "rental_uris": {"android": "https://dc.lft.to/lastmile_qr_scan", "ios": "https://dc.lft.to/lastmile_qr_scan"}, "bike_id": "1b172ba845f5b8cab915963817d107ff", "is_reserved": 0, "lon": -77.12522933333334, "name": "1b172ba845f5b8cab915963817d107ff", "is_disabled": 0, "lat": 39.05636916666667}, {"type": "electric_scooter", "fusion_lon": 0.0, "fusion_lat": 0.0, "rental_uris": {"android": "https://dc.lft.to/lastmile_qr_scan", "ios": "https://dc.lft.to/lastmile_qr_scan"}, "bike_id": "32dfda6a8151ab4e667312a5eff76346", "is_reserved": 0, "lon": -77.00569583333333, "name": "32dfda6a8151ab4e667312a5eff76346", "is_disabled": 0, "lat": 38.88513283333333}, {"type": "electric_scooter", "fusion_lon": 0.0, "fusion_lat": 0.0, "rental_uris": {"android": "https://dc.lft.to/lastmile_qr_scan", "ios": "https://dc.lft.to/lastmile_qr_scan"}, "bike_id": "7b967ad39243f98c51f8a5ef73c2ec71", "is_reserved": 0, "lon": -77.03180866666666, "name": "7b967ad39243f98c51f8a5ef73c2ec71", "is_disabled": 0, "lat": 38.919205833333336}, {"type": "electric_scooter", "fusion_lon": 0.0, "fusion_lat": 0.0, "rental_uris": {"android": "https://dc.lft.to/lastmile_qr_scan", "ios": "https://dc.lft.to/lastmile_qr_scan"}, "bike_id": "0febad349373ec4b685b8659021c8168", "is_reserved": 0, "lon": -77.027273, "name": "0febad349373ec4b685b8659021c8168", "is_disabled": 0, "lat": 38.89871566666667}, {"type": "electric_scooter", "fusion_lon": 0.0, "fusion_lat": 0.0, "rental_uris": {"android": "https://dc.lft.to/lastmile_qr_scan", "ios": "https://dc.lft.to/lastmile_qr_scan"}, "bike_id": "32ce9461655041680e663b224a47684f", "is_reserved": 0, "lon": -77.04669283333334, "name": "32ce9461655041680e663b224a47684f", "is_disabled": 0, "lat": 38.9114305}, {"type": "electric_scooter", "fusion_lon": 0.0, "fusion_lat": 0.0, "rental_uris": {"android": "https://dc.lft.to/lastmile_qr_scan", "ios": "https://dc.lft.to/lastmile_qr_scan"}, "bike_id": "dcb11144ef3fad144d8ae20bd24696cb", "is_reserved": 0, "lon": -77.04610583333333, "name": "dcb11144ef3fad144d8ae20bd24696cb", "is_disabled": 0, "lat": 38.91697583333333}, {"type": "electric_scooter", "fusion_lon": 0.0, "fusion_lat": 0.0, "rental_uris": {"android": "https://dc.lft.to/lastmile_qr_scan", "ios": "https://dc.lft.to/lastmile_qr_scan"}, "bike_id": "40c4477f48c957776847348bcf734564", "is_reserved": 0, "lon": -77.03303533333333, "name": "40c4477f48c957776847348bcf734564", "is_disabled": 0, "lat": 38.91811933333334}, {"type": "electric_scooter", "fusion_lon": 0.0, "fusion_lat": 0.0, "rental_uris": {"android": "https://dc.lft.to/lastmile_qr_scan", "ios": "https://dc.lft.to/lastmile_qr_scan"}, "bike_id": "4328a57efdc08cbc861c1218e9087cfb", "is_reserved": 0, "lon": -77.04653566666667, "name": "4328a57efdc08cbc861c1218e9087cfb", "is_disabled": 0, "lat": 38.89223716666667}, {"type": "electric_scooter", "fusion_lon": 0.0, "fusion_lat": 0.0, "rental_uris": {"android": "https://dc.lft.to/lastmile_qr_scan", "ios": "https://dc.lft.to/lastmile_qr_scan"}, "bike_id": "9312f99f04ec410d10044b9c46d0c19d", "is_reserved": 0, "lon": -77.038464, "name": "9312f99f04ec410d10044b9c46d0c19d", "is_disabled": 0, "lat": 38.931951}, {"type": "electric_scooter", "fusion_lon": 0.0, "fusion_lat": 0.0, "rental_uris": {"android": "https://dc.lft.to/lastmile_qr_scan", "ios": "https://dc.lft.to/lastmile_qr_scan"}, "bike_id": "c80895dc427830abf8969e26e54c036c", "is_reserved": 0, "lon": -77.038353, "name": "c80895dc427830abf8969e26e54c036c", "is_disabled": 0, "lat": 38.917212166666665}, {"type": "electric_scooter", "fusion_lon": 0.0, "fusion_lat": 0.0, "rental_uris": {"android": "https://dc.lft.to/lastmile_qr_scan", "ios": "https://dc.lft.to/lastmile_qr_scan"}, "bike_id": "1743026fd866ce4bfb71a201638f9cfe", "is_reserved": 0, "lon": -77.02573116666667, "name": "1743026fd866ce4bfb71a201638f9cfe", "is_disabled": 0, "lat": 38.88746966666667}, {"type": "electric_scooter", "fusion_lon": 0.0, "fusion_lat": 0.0, "rental_uris": {"android": "https://dc.lft.to/lastmile_qr_scan", "ios": "https://dc.lft.to/lastmile_qr_scan"}, "bike_id": "20c6ccbd07314f4cfca64f99ba49d6a8", "is_reserved": 0, "lon": -77.02629683333333, "name": "20c6ccbd07314f4cfca64f99ba49d6a8", "is_disabled": 0, "lat": 38.9247845}, {"type": "electric_scooter", "fusion_lon": 0.0, "fusion_lat": 0.0, "rental_uris": {"android": "https://dc.lft.to/lastmile_qr_scan", "ios": "https://dc.lft.to/lastmile_qr_scan"}, "bike_id": "5636c090158b9a5608c540a11ab7694b", "is_reserved": 0, "lon": -77.02892083333333, "name": "5636c090158b9a5608c540a11ab7694b", "is_disabled": 0, "lat": 38.939788}, {"type": "electric_scooter", "fusion_lon": 0.0, "fusion_lat": 0.0, "rental_uris": {"android": "https://dc.lft.to/lastmile_qr_scan", "ios": "https://dc.lft.to/lastmile_qr_scan"}, "bike_id": "c88a1b129151d889c9472511188a975b", "is_reserved": 0, "lon": -76.991097, "name": "c88a1b129151d889c9472511188a975b", "is_disabled": 0, "lat": 38.859594333333334}, {"type": "electric_scooter", "fusion_lon": 0.0, "fusion_lat": 0.0, "rental_uris": {"android": "https://dc.lft.to/lastmile_qr_scan", "ios": "https://dc.lft.to/lastmile_qr_scan"}, "bike_id": "4020de214487c2ae262e66bd36cb6c8a", "is_reserved": 0, "lon": -77.037903, "name": "4020de214487c2ae262e66bd36cb6c8a", "is_disabled": 0, "lat": 38.926371333333336}, {"type": "electric_scooter", "fusion_lon": 0.0, "fusion_lat": 0.0, "rental_uris": {"android": "https://dc.lft.to/lastmile_qr_scan", "ios": "https://dc.lft.to/lastmile_qr_scan"}, "bike_id": "c2d4483a9b33d695fcdbc580e1e3a2ea", "is_reserved": 0, "lon": -77.04683633333333, "name": "c2d4483a9b33d695fcdbc580e1e3a2ea", "is_disabled": 0, "lat": 38.89739933333333}, {"type": "electric_scooter", "fusion_lon": 0.0, "fusion_lat": 0.0, "rental_uris": {"android": "https://dc.lft.to/lastmile_qr_scan", "ios": "https://dc.lft.to/lastmile_qr_scan"}, "bike_id": "4cd2fd55d1e83ef60c5460b22756a8c3", "is_reserved": 0, "lon": -77.034033, "name": "4cd2fd55d1e83ef60c5460b22756a8c3", "is_disabled": 0, "lat": 38.92256366666667}, {"type": "electric_scooter", "fusion_lon": 0.0, "fusion_lat": 0.0, "rental_uris": {"android": "https://dc.lft.to/lastmile_qr_scan", "ios": "https://dc.lft.to/lastmile_qr_scan"}, "bike_id": "a6ed8b4073db0608e37d6d9ff4b1f50c", "is_reserved": 0, "lon": -77.02648166666667, "name": "a6ed8b4073db0608e37d6d9ff4b1f50c", "is_disabled": 0, "lat": 38.89219966666667}, {"type": "electric_scooter", "fusion_lon": 0.0, "fusion_lat": 0.0, "rental_uris": {"android": "https://dc.lft.to/lastmile_qr_scan", "ios": "https://dc.lft.to/lastmile_qr_scan"}, "bike_id": "872ad12a8128e0a87112ab7ce0e68b97", "is_reserved": 0, "lon": -77.0395805, "name": "872ad12a8128e0a87112ab7ce0e68b97", "is_disabled": 0, "lat": 38.91611116666667}, {"type": "electric_scooter", "fusion_lon": 0.0, "fusion_lat": 0.0, "rental_uris": {"android": "https://dc.lft.to/lastmile_qr_scan", "ios": "https://dc.lft.to/lastmile_qr_scan"}, "bike_id": "c0fa576cc63cd8436ebc536f0c288446", "is_reserved": 0, "lon": -77.04498533333333, "name": "c0fa576cc63cd8436ebc536f0c288446", "is_disabled": 0, "lat": 38.89612866666667}, {"type": "electric_scooter", "fusion_lon": 0.0, "fusion_lat": 0.0, "rental_uris": {"android": "https://dc.lft.to/lastmile_qr_scan", "ios": "https://dc.lft.to/lastmile_qr_scan"}, "bike_id": "d9f78061c61cf1b2044f04c18df06b22", "is_reserved": 0, "lon": -77.041447, "name": "d9f78061c61cf1b2044f04c18df06b22", "is_disabled": 0, "lat": 38.922590166666666}, {"type": "electric_scooter", "fusion_lon": 0.0, "fusion_lat": 0.0, "rental_uris": {"android": "https://dc.lft.to/lastmile_qr_scan", "ios": "https://dc.lft.to/lastmile_qr_scan"}, "bike_id": "2035aeb9c0f625de12ec3b7d7e4c1ebf", "is_reserved": 0, "lon": -76.94157366666667, "name": "2035aeb9c0f625de12ec3b7d7e4c1ebf", "is_disabled": 0, "lat": 38.89264083333333}, {"type": "electric_scooter", "fusion_lon": 0.0, "fusion_lat": 0.0, "rental_uris": {"android": "https://dc.lft.to/lastmile_qr_scan", "ios": "https://dc.lft.to/lastmile_qr_scan"}, "bike_id": "7f1133eddd09944ae86e66faa49173c3", "is_reserved": 0, "lon": -77.0106875, "name": "7f1133eddd09944ae86e66faa49173c3", "is_disabled": 0, "lat": 38.8747625}, {"type": "electric_scooter", "fusion_lon": 0.0, "fusion_lat": 0.0, "rental_uris": {"android": "https://dc.lft.to/lastmile_qr_scan", "ios": "https://dc.lft.to/lastmile_qr_scan"}, "bike_id": "2b50ca4e7cc2539fa2df787a9604fe8a", "is_reserved": 0, "lon": -76.97370533333333, "name": "2b50ca4e7cc2539fa2df787a9604fe8a", "is_disabled": 0, "lat": 38.864473333333336}, {"type": "electric_scooter", "fusion_lon": 0.0, "fusion_lat": 0.0, "rental_uris": {"android": "https://dc.lft.to/lastmile_qr_scan", "ios": "https://dc.lft.to/lastmile_qr_scan"}, "bike_id": "b1d254fd01c350ef15080a85229643c7", "is_reserved": 0, "lon": -77.03886016666667, "name": "b1d254fd01c350ef15080a85229643c7", "is_disabled": 0, "lat": 38.90266183333333}, {"type": "electric_scooter", "fusion_lon": 0.0, "fusion_lat": 0.0, "rental_uris": {"android": "https://dc.lft.to/lastmile_qr_scan", "ios": "https://dc.lft.to/lastmile_qr_scan"}, "bike_id": "38f13b8e1a563519eaa384526d6c1ff3", "is_reserved": 0, "lon": -77.01809333333334, "name": "38f13b8e1a563519eaa384526d6c1ff3", "is_disabled": 0, "lat": 38.92025316666667}, {"type": "electric_scooter", "fusion_lon": 0.0, "fusion_lat": 0.0, "rental_uris": {"android": "https://dc.lft.to/lastmile_qr_scan", "ios": "https://dc.lft.to/lastmile_qr_scan"}, "bike_id": "7cfe27c63e0a9a51106e8c6203bfd02f", "is_reserved": 0, "lon": -77.00439383333334, "name": "7cfe27c63e0a9a51106e8c6203bfd02f", "is_disabled": 0, "lat": 38.87663833333333}, {"type": "electric_scooter", "fusion_lon": 0.0, "fusion_lat": 0.0, "rental_uris": {"android": "https://dc.lft.to/lastmile_qr_scan", "ios": "https://dc.lft.to/lastmile_qr_scan"}, "bike_id": "5215d09f4f93880b9200ed54c484d218", "is_reserved": 0, "lon": -77.05170816666667, "name": "5215d09f4f93880b9200ed54c484d218", "is_disabled": 0, "lat": 38.89957033333334}, {"type": "electric_scooter", "fusion_lon": 0.0, "fusion_lat": 0.0, "rental_uris": {"android": "https://dc.lft.to/lastmile_qr_scan", "ios": "https://dc.lft.to/lastmile_qr_scan"}, "bike_id": "7c5d2c7a92674b44d00b2e421a2b9f73", "is_reserved": 0, "lon": -77.0503385, "name": "7c5d2c7a92674b44d00b2e421a2b9f73", "is_disabled": 0, "lat": 38.900542}, {"type": "electric_bike", "fusion_lon": 0.0, "fusion_lat": 0.0, "rental_uris": {"android": "https://dc.lft.to/lastmile_qr_scan", "ios": "https://dc.lft.to/lastmile_qr_scan"}, "bike_id": "8bfd56d9f17e92e7165a6af5dd77a62a", "is_reserved": 0, "lon": -77.102233, "name": "8bfd56d9f17e92e7165a6af5dd77a62a", "is_disabled": 0, "lat": 38.9670525}, {"type": "electric_bike", "fusion_lon": 0.0, "fusion_lat": 0.0, "rental_uris": {"android": "https://dc.lft.to/lastmile_qr_scan", "ios": "https://dc.lft.to/lastmile_qr_scan"}, "bike_id": "8965977d3b1e21587dc399bd8e2bc01d", "is_reserved": 0, "lon": -77.13093, "name": "8965977d3b1e21587dc399bd8e2bc01d", "is_disabled": 0, "lat": 38.8616295}, {"type": "electric_scooter", "fusion_lon": 0.0, "fusion_lat": 0.0, "rental_uris": {"android": "https://dc.lft.to/lastmile_qr_scan", "ios": "https://dc.lft.to/lastmile_qr_scan"}, "bike_id": "c3ea59b1fe232c70e2412a5b9297976e", "is_reserved": 0, "lon": -77.0418245, "name": "c3ea59b1fe232c70e2412a5b9297976e", "is_disabled": 0, "lat": 38.90369883333334}, {"type": "electric_scooter", "fusion_lon": 0.0, "fusion_lat": 0.0, "rental_uris": {"android": "https://dc.lft.to/lastmile_qr_scan", "ios": "https://dc.lft.to/lastmile_qr_scan"}, "bike_id": "22d68d9059e84ad89c507132f19d739a", "is_reserved": 0, "lon": -77.04221833333334, "name": "22d68d9059e84ad89c507132f19d739a", "is_disabled": 0, "lat": 38.9211065}, {"type": "electric_scooter", "fusion_lon": 0.0, "fusion_lat": 0.0, "rental_uris": {"android": "https://dc.lft.to/lastmile_qr_scan", "ios": "https://dc.lft.to/lastmile_qr_scan"}, "bike_id": "f3bec462b4dc20c0b3b83f5669867ab4", "is_reserved": 0, "lon": -77.02122766666666, "name": "f3bec462b4dc20c0b3b83f5669867ab4", "is_disabled": 0, "lat": 38.9034965}, {"type": "electric_scooter", "fusion_lon": 0.0, "fusion_lat": 0.0, "rental_uris": {"android": "https://dc.lft.to/lastmile_qr_scan", "ios": "https://dc.lft.to/lastmile_qr_scan"}, "bike_id": "01849e37539473921f4925c75423ac78", "is_reserved": 0, "lon": -77.01379833333333, "name": "01849e37539473921f4925c75423ac78", "is_disabled": 0, "lat": 38.88721533333333}, {"type": "electric_scooter", "fusion_lon": 0.0, "fusion_lat": 0.0, "rental_uris": {"android": "https://dc.lft.to/lastmile_qr_scan", "ios": "https://dc.lft.to/lastmile_qr_scan"}, "bike_id": "9184d169eaba053a3a2ac3a118206a0d", "is_reserved": 0, "lon": -77.02954216666667, "name": "9184d169eaba053a3a2ac3a118206a0d", "is_disabled": 0, "lat": 38.914041166666664}, {"type": "electric_bike", "fusion_lon": 0.0, "fusion_lat": 0.0, "rental_uris": {"android": "https://dc.lft.to/lastmile_qr_scan", "ios": "https://dc.lft.to/lastmile_qr_scan"}, "bike_id": "f9f4066d95f2d7b0290f1818b52deea5", "is_reserved": 0, "lon": -76.97421616666666, "name": "f9f4066d95f2d7b0290f1818b52deea5", "is_disabled": 0, "lat": 38.9323975}, {"type": "electric_scooter", "fusion_lon": 0.0, "fusion_lat": 0.0, "rental_uris": {"android": "https://dc.lft.to/lastmile_qr_scan", "ios": "https://dc.lft.to/lastmile_qr_scan"}, "bike_id": "57024a2002fbbced29b619570b322ba7", "is_reserved": 0, "lon": -77.0205025, "name": "57024a2002fbbced29b619570b322ba7", "is_disabled": 0, "lat": 38.914052166666664}, {"type": "electric_scooter", "fusion_lon": 0.0, "fusion_lat": 0.0, "rental_uris": {"android": "https://dc.lft.to/lastmile_qr_scan", "ios": "https://dc.lft.to/lastmile_qr_scan"}, "bike_id": "f0566e4e7ab2a07cce07c3916ca085ad", "is_reserved": 0, "lon": -77.03885716666667, "name": "f0566e4e7ab2a07cce07c3916ca085ad", "is_disabled": 0, "lat": 38.917111166666665}, {"type": "electric_scooter", "fusion_lon": 0.0, "fusion_lat": 0.0, "rental_uris": {"android": "https://dc.lft.to/lastmile_qr_scan", "ios": "https://dc.lft.to/lastmile_qr_scan"}, "bike_id": "f64a4534c200aa8a61d0e377840e7855", "is_reserved": 0, "lon": -77.04156033333334, "name": "f64a4534c200aa8a61d0e377840e7855", "is_disabled": 0, "lat": 38.9198725}, {"type": "electric_scooter", "fusion_lon": 0.0, "fusion_lat": 0.0, "rental_uris": {"android": "https://dc.lft.to/lastmile_qr_scan", "ios": "https://dc.lft.to/lastmile_qr_scan"}, "bike_id": "2a03e03ac1f88f06b15253a4fdeed71b", "is_reserved": 0, "lon": -76.9737485, "name": "2a03e03ac1f88f06b15253a4fdeed71b", "is_disabled": 0, "lat": 38.889267833333335}, {"type": "electric_scooter", "fusion_lon": 0.0, "fusion_lat": 0.0, "rental_uris": {"android": "https://dc.lft.to/lastmile_qr_scan", "ios": "https://dc.lft.to/lastmile_qr_scan"}, "bike_id": "a2877cd54650176b14372cc3fb858c0f", "is_reserved": 0, "lon": -77.02686683333333, "name": "a2877cd54650176b14372cc3fb858c0f", "is_disabled": 0, "lat": 38.8975735}, {"type": "electric_scooter", "fusion_lon": 0.0, "fusion_lat": 0.0, "rental_uris": {"android": "https://dc.lft.to/lastmile_qr_scan", "ios": "https://dc.lft.to/lastmile_qr_scan"}, "bike_id": "3ba9c184d5afc631d1865065da40b941", "is_reserved": 0, "lon": -77.040254, "name": "3ba9c184d5afc631d1865065da40b941", "is_disabled": 0, "lat": 38.917849333333336}, {"type": "electric_scooter", "fusion_lon": 0.0, "fusion_lat": 0.0, "rental_uris": {"android": "https://dc.lft.to/lastmile_qr_scan", "ios": "https://dc.lft.to/lastmile_qr_scan"}, "bike_id": "e1ad821f05a64643ae8a9bc09fa7ba45", "is_reserved": 0, "lon": -76.9895085, "name": "e1ad821f05a64643ae8a9bc09fa7ba45", "is_disabled": 0, "lat": 38.86559916666667}, {"type": "electric_scooter", "fusion_lon": 0.0, "fusion_lat": 0.0, "rental_uris": {"android": "https://dc.lft.to/lastmile_qr_scan", "ios": "https://dc.lft.to/lastmile_qr_scan"}, "bike_id": "9cb8e30a358a205d6947893f3b1c0244", "is_reserved": 0, "lon": -77.02553516666667, "name": "9cb8e30a358a205d6947893f3b1c0244", "is_disabled": 0, "lat": 38.9483345}, {"type": "electric_scooter", "fusion_lon": 0.0, "fusion_lat": 0.0, "rental_uris": {"android": "https://dc.lft.to/lastmile_qr_scan", "ios": "https://dc.lft.to/lastmile_qr_scan"}, "bike_id": "73f6b7641d18330235ec2425cb58be18", "is_reserved": 0, "lon": -77.04337766666667, "name": "73f6b7641d18330235ec2425cb58be18", "is_disabled": 0, "lat": 38.9005885}, {"type": "electric_scooter", "fusion_lon": 0.0, "fusion_lat": 0.0, "rental_uris": {"android": "https://dc.lft.to/lastmile_qr_scan", "ios": "https://dc.lft.to/lastmile_qr_scan"}, "bike_id": "60598a4dc431933a4e1c99b5960d38a0", "is_reserved": 0, "lon": -77.02822016666667, "name": "60598a4dc431933a4e1c99b5960d38a0", "is_disabled": 0, "lat": 38.89229983333333}, {"type": "electric_scooter", "fusion_lon": 0.0, "fusion_lat": 0.0, "rental_uris": {"android": "https://dc.lft.to/lastmile_qr_scan", "ios": "https://dc.lft.to/lastmile_qr_scan"}, "bike_id": "262360c69c9882b68fb3ac566472e4c7", "is_reserved": 0, "lon": -77.02696516666667, "name": "262360c69c9882b68fb3ac566472e4c7", "is_disabled": 0, "lat": 38.949783}, {"type": "electric_scooter", "fusion_lon": 0.0, "fusion_lat": 0.0, "rental_uris": {"android": "https://dc.lft.to/lastmile_qr_scan", "ios": "https://dc.lft.to/lastmile_qr_scan"}, "bike_id": "ef7817dffe9e82014a5496ee6b65b770", "is_reserved": 0, "lon": -77.00190916666666, "name": "ef7817dffe9e82014a5496ee6b65b770", "is_disabled": 0, "lat": 38.891028}, {"type": "electric_scooter", "fusion_lon": 0.0, "fusion_lat": 0.0, "rental_uris": {"android": "https://dc.lft.to/lastmile_qr_scan", "ios": "https://dc.lft.to/lastmile_qr_scan"}, "bike_id": "d22b4551a277e95fbfe21c41edbc52ea", "is_reserved": 0, "lon": -77.031869, "name": "d22b4551a277e95fbfe21c41edbc52ea", "is_disabled": 0, "lat": 38.917701666666666}, {"type": "electric_scooter", "fusion_lon": 0.0, "fusion_lat": 0.0, "rental_uris": {"android": "https://dc.lft.to/lastmile_qr_scan", "ios": "https://dc.lft.to/lastmile_qr_scan"}, "bike_id": "83fe6c2816cc1157024b0794dccbb16e", "is_reserved": 0, "lon": -77.02171266666667, "name": "83fe6c2816cc1157024b0794dccbb16e", "is_disabled": 0, "lat": 38.88748}, {"type": "electric_scooter", "fusion_lon": 0.0, "fusion_lat": 0.0, "rental_uris": {"android": "https://dc.lft.to/lastmile_qr_scan", "ios": "https://dc.lft.to/lastmile_qr_scan"}, "bike_id": "8de9d70c9d2470381e9cc50a777c1474", "is_reserved": 0, "lon": -77.02778283333333, "name": "8de9d70c9d2470381e9cc50a777c1474", "is_disabled": 0, "lat": 38.961595}, {"type": "electric_scooter", "fusion_lon": 0.0, "fusion_lat": 0.0, "rental_uris": {"android": "https://dc.lft.to/lastmile_qr_scan", "ios": "https://dc.lft.to/lastmile_qr_scan"}, "bike_id": "64fc27c3519562f84385ca2fd0b4c20c", "is_reserved": 0, "lon": -77.03038483333333, "name": "64fc27c3519562f84385ca2fd0b4c20c", "is_disabled": 0, "lat": 38.88439266666666}, {"type": "electric_scooter", "fusion_lon": 0.0, "fusion_lat": 0.0, "rental_uris": {"android": "https://dc.lft.to/lastmile_qr_scan", "ios": "https://dc.lft.to/lastmile_qr_scan"}, "bike_id": "34d92be0fba26af76e4c9dfd79acb265", "is_reserved": 0, "lon": -77.03995683333333, "name": "34d92be0fba26af76e4c9dfd79acb265", "is_disabled": 0, "lat": 38.895351833333336}, {"type": "electric_bike", "fusion_lon": 0.0, "fusion_lat": 0.0, "rental_uris": {"android": "https://dc.lft.to/lastmile_qr_scan", "ios": "https://dc.lft.to/lastmile_qr_scan"}, "bike_id": "d50348539cedd3d4e8bbbcaf628219e5", "is_reserved": 0, "lon": -77.10095116666666, "name": "d50348539cedd3d4e8bbbcaf628219e5", "is_disabled": 0, "lat": 38.9595655}, {"type": "electric_scooter", "fusion_lon": 0.0, "fusion_lat": 0.0, "rental_uris": {"android": "https://dc.lft.to/lastmile_qr_scan", "ios": "https://dc.lft.to/lastmile_qr_scan"}, "bike_id": "f943458dd71d9540830c028284a33d82", "is_reserved": 0, "lon": -77.04086866666667, "name": "f943458dd71d9540830c028284a33d82", "is_disabled": 0, "lat": 38.9251485}, {"type": "electric_scooter", "fusion_lon": 0.0, "fusion_lat": 0.0, "rental_uris": {"android": "https://dc.lft.to/lastmile_qr_scan", "ios": "https://dc.lft.to/lastmile_qr_scan"}, "bike_id": "ceb8d5d16a3d783073f74cf7b29875a1", "is_reserved": 0, "lon": -77.03367583333333, "name": "ceb8d5d16a3d783073f74cf7b29875a1", "is_disabled": 0, "lat": 38.91555783333333}, {"type": "electric_scooter", "fusion_lon": 0.0, "fusion_lat": 0.0, "rental_uris": {"android": "https://dc.lft.to/lastmile_qr_scan", "ios": "https://dc.lft.to/lastmile_qr_scan"}, "bike_id": "67716631827bf29274b04a8baf56d9ce", "is_reserved": 0, "lon": -77.05697816666667, "name": "67716631827bf29274b04a8baf56d9ce", "is_disabled": 0, "lat": 38.90539716666667}, {"type": "electric_scooter", "fusion_lon": 0.0, "fusion_lat": 0.0, "rental_uris": {"android": "https://dc.lft.to/lastmile_qr_scan", "ios": "https://dc.lft.to/lastmile_qr_scan"}, "bike_id": "71d5d1b8d577ec3db9dce3f4356d6dd0", "is_reserved": 0, "lon": -77.05109416666667, "name": "71d5d1b8d577ec3db9dce3f4356d6dd0", "is_disabled": 0, "lat": 38.905043}, {"type": "electric_scooter", "fusion_lon": 0.0, "fusion_lat": 0.0, "rental_uris": {"android": "https://dc.lft.to/lastmile_qr_scan", "ios": "https://dc.lft.to/lastmile_qr_scan"}, "bike_id": "f43380c59e3ca5a4950b19b896e5b87c", "is_reserved": 0, "lon": -77.02220816666667, "name": "f43380c59e3ca5a4950b19b896e5b87c", "is_disabled": 0, "lat": 38.89219083333333}, {"type": "electric_bike", "fusion_lon": 0.0, "fusion_lat": 0.0, "rental_uris": {"android": "https://dc.lft.to/lastmile_qr_scan", "ios": "https://dc.lft.to/lastmile_qr_scan"}, "bike_id": "b0f5fee9e057557f792e552f3ff016bc", "is_reserved": 0, "lon": -77.025903, "name": "b0f5fee9e057557f792e552f3ff016bc", "is_disabled": 0, "lat": 38.88773233333333}, {"type": "electric_scooter", "fusion_lon": 0.0, "fusion_lat": 0.0, "rental_uris": {"android": "https://dc.lft.to/lastmile_qr_scan", "ios": "https://dc.lft.to/lastmile_qr_scan"}, "bike_id": "b3e986627269b7fbab4f95f7efa0eb53", "is_reserved": 0, "lon": -77.03313216666666, "name": "b3e986627269b7fbab4f95f7efa0eb53", "is_disabled": 0, "lat": 38.90954833333333}, {"type": "electric_scooter", "fusion_lon": 0.0, "fusion_lat": 0.0, "rental_uris": {"android": "https://dc.lft.to/lastmile_qr_scan", "ios": "https://dc.lft.to/lastmile_qr_scan"}, "bike_id": "69b395237d1e245e8519d0cbce0dee25", "is_reserved": 0, "lon": -77.0569005, "name": "69b395237d1e245e8519d0cbce0dee25", "is_disabled": 0, "lat": 38.905583166666666}, {"type": "electric_scooter", "fusion_lon": 0.0, "fusion_lat": 0.0, "rental_uris": {"android": "https://dc.lft.to/lastmile_qr_scan", "ios": "https://dc.lft.to/lastmile_qr_scan"},