{"data": {"bikes": [{"is_reserved": 0, "bike_id": "69bf3add1c5f28f031b1971fbe399503", "type": "electric_scooter", "name": "69bf3add1c5f28f031b1971fbe399503", "is_disabled": 0, "fusion_lon": 0.0, "rental_uris": {"android": "https://dc.lft.to/lastmile_qr_scan", "ios": "https://dc.lft.to/lastmile_qr_scan"}, "lat": 38.9174075, "lon": -77.021151, "fusion_lat": 0.0}, {"is_reserved": 0, "bike_id": "86f2aed5ba5f66876b2a894d990b9132", "type": "electric_scooter", "name": "86f2aed5ba5f66876b2a894d990b9132", "is_disabled": 0, "fusion_lon": 0.0, "rental_uris": {"android": "https://dc.lft.to/lastmile_qr_scan", "ios": "https://dc.lft.to/lastmile_qr_scan"}, "lat": 38.9318765, "lon": -77.03868316666667, "fusion_lat": 0.0}, {"is_reserved": 0, "bike_id": "ed79a4c0580c12e48f2b7a76e58e5b08", "type": "electric_scooter", "name": "ed79a4c0580c12e48f2b7a76e58e5b08", "is_disabled": 0, "fusion_lon": 0.0, "rental_uris": {"android": "https://dc.lft.to/lastmile_qr_scan", "ios": "https://dc.lft.to/lastmile_qr_scan"}, "lat": 38.919254333333335, "lon": -77.03420916666667, "fusion_lat": 0.0}, {"is_reserved": 0, "bike_id": "a0a78cab90d789b0fd8f589ecfc16157", "type": "electric_scooter", "name": "a0a78cab90d789b0fd8f589ecfc16157", "is_disabled": 0, "fusion_lon": 0.0, "rental_uris": {"android": "https://dc.lft.to/lastmile_qr_scan", "ios": "https://dc.lft.to/lastmile_qr_scan"}, "lat": 38.897416, "lon": -77.026925, "fusion_lat": 0.0}, {"is_reserved": 0, "bike_id": "6119a2110c3f471a534889858dcbf275", "type": "electric_scooter", "name": "6119a2110c3f471a534889858dcbf275", "is_disabled": 0, "fusion_lon": 0.0, "rental_uris": {"android": "https://dc.lft.to/lastmile_qr_scan", "ios": "https://dc.lft.to/lastmile_qr_scan"}, "lat": 38.915811833333336, "lon": -77.014596, "fusion_lat": 0.0}, {"is_reserved": 0, "bike_id": "67b744cbc3a784fe5d6e648e33ebda79", "type": "electric_scooter", "name": "67b744cbc3a784fe5d6e648e33ebda79", "is_disabled": 0, "fusion_lon": 0.0, "rental_uris": {"android": "https://dc.lft.to/lastmile_qr_scan", "ios": "https://dc.lft.to/lastmile_qr_scan"}, "lat": 38.917105, "lon": -77.03854933333334, "fusion_lat": 0.0}, {"is_reserved": 0, "bike_id": "1e3cd5a62f710f3653dc5ff26a58b72a", "type": "electric_scooter", "name": "1e3cd5a62f710f3653dc5ff26a58b72a", "is_disabled": 0, "fusion_lon": 0.0, "rental_uris": {"android": "https://dc.lft.to/lastmile_qr_scan", "ios": "https://dc.lft.to/lastmile_qr_scan"}, "lat": 38.96648866666666, "lon": -77.02748816666667, "fusion_lat": 0.0}, {"is_reserved": 0, "bike_id": "ef20f373289947eb6e2fa7df3096b740", "type": "electric_scooter", "name": "ef20f373289947eb6e2fa7df3096b740", "is_disabled": 0, "fusion_lon": 0.0, "rental_uris": {"android": "https://dc.lft.to/lastmile_qr_scan", "ios": "https://dc.lft.to/lastmile_qr_scan"}, "lat": 38.915691, "lon": -77.01992583333333, "fusion_lat": 0.0}, {"is_reserved": 0, "bike_id": "1f4c2104bf2cf0edaead983b55363058", "type": "electric_bike", "name": "1f4c2104bf2cf0edaead983b55363058", "is_disabled": 0, "fusion_lon": 0.0, "rental_uris": {"android": "https://dc.lft.to/lastmile_qr_scan", "ios": "https://dc.lft.to/lastmile_qr_scan"}, "lat": 38.838107666666666, "lon": -77.0027385, "fusion_lat": 0.0}, {"is_reserved": 0, "bike_id": "7553c60381ab2e5076ae2bc2c39a5799", "type": "electric_scooter", "name": "7553c60381ab2e5076ae2bc2c39a5799", "is_disabled": 0, "fusion_lon": 0.0, "rental_uris": {"android": "https://dc.lft.to/lastmile_qr_scan", "ios": "https://dc.lft.to/lastmile_qr_scan"}, "lat": 38.947358666666666, "lon": -77.02372166666666, "fusion_lat": 0.0}, {"is_reserved": 0, "bike_id": "5afd5405414db1b0e1bf0cb2f55955a2", "type": "electric_scooter", "name": "5afd5405414db1b0e1bf0cb2f55955a2", "is_disabled": 0, "fusion_lon": 0.0, "rental_uris": {"android": "https://dc.lft.to/lastmile_qr_scan", "ios": "https://dc.lft.to/lastmile_qr_scan"}, "lat": 38.904674166666666, "lon": -77.01632866666667, "fusion_lat": 0.0}, {"is_reserved": 0, "bike_id": "8cc57dc9182783eebb88e820b6919ce9", "type": "electric_bike", "name": "8cc57dc9182783eebb88e820b6919ce9", "is_disabled": 0, "fusion_lon": 0.0, "rental_uris": {"android": "https://dc.lft.to/lastmile_qr_scan", "ios": "https://dc.lft.to/lastmile_qr_scan"}, "lat": 38.99224316666667, "lon": -77.03591083333333, "fusion_lat": 0.0}, {"is_reserved": 0, "bike_id": "4943002a9f422101aa6b190932589384", "type": "electric_scooter", "name": "4943002a9f422101aa6b190932589384", "is_disabled": 0, "fusion_lon": 0.0, "rental_uris": {"android": "https://dc.lft.to/lastmile_qr_scan", "ios": "https://dc.lft.to/lastmile_qr_scan"}, "lat": 38.899368333333335, "lon": -77.02809483333333, "fusion_lat": 0.0}, {"is_reserved": 0, "bike_id": "20e491222bf3e9d0473c55825e16ab38", "type": "electric_bike", "name": "20e491222bf3e9d0473c55825e16ab38", "is_disabled": 0, "fusion_lon": 0.0, "rental_uris": {"android": "https://dc.lft.to/lastmile_qr_scan", "ios": "https://dc.lft.to/lastmile_qr_scan"}, "lat": 38.8361235, "lon": -77.00384083333333, "fusion_lat": 0.0}, {"is_reserved": 0, "bike_id": "5788adae1aa1f8b8777ebbcaf3608adc", "type": "electric_scooter", "name": "5788adae1aa1f8b8777ebbcaf3608adc", "is_disabled": 0, "fusion_lon": 0.0, "rental_uris": {"android": "https://dc.lft.to/lastmile_qr_scan", "ios": "https://dc.lft.to/lastmile_qr_scan"}, "lat": 38.897299333333336, "lon": -77.00774583333333, "fusion_lat": 0.0}, {"is_reserved": 0, "bike_id": "0b2a45a344640561f9ae559db7dc8917", "type": "electric_scooter", "name": "0b2a45a344640561f9ae559db7dc8917", "is_disabled": 0, "fusion_lon": 0.0, "rental_uris": {"android": "https://dc.lft.to/lastmile_qr_scan", "ios": "https://dc.lft.to/lastmile_qr_scan"}, "lat": 38.89636466666666, "lon": -76.92965866666667, "fusion_lat": 0.0}, {"is_reserved": 0, "bike_id": "7a679e10e15a02710eb5df3190be3849", "type": "electric_scooter", "name": "7a679e10e15a02710eb5df3190be3849", "is_disabled": 0, "fusion_lon": 0.0, "rental_uris": {"android": "https://dc.lft.to/lastmile_qr_scan", "ios": "https://dc.lft.to/lastmile_qr_scan"}, "lat": 38.898556666666664, "lon": -77.01999216666667, "fusion_lat": 0.0}, {"is_reserved": 0, "bike_id": "d63c608bd94fd09d7c50fe0892dcc353", "type": "electric_scooter", "name": "d63c608bd94fd09d7c50fe0892dcc353", "is_disabled": 0, "fusion_lon": 0.0, "rental_uris": {"android": "https://dc.lft.to/lastmile_qr_scan", "ios": "https://dc.lft.to/lastmile_qr_scan"}, "lat": 38.9035065, "lon": -76.986111, "fusion_lat": 0.0}, {"is_reserved": 0, "bike_id": "66e26131f7c63b436b6166a6f3d2858f", "type": "electric_scooter", "name": "66e26131f7c63b436b6166a6f3d2858f", "is_disabled": 0, "fusion_lon": 0.0, "rental_uris": {"android": "https://dc.lft.to/lastmile_qr_scan", "ios": "https://dc.lft.to/lastmile_qr_scan"}, "lat": 38.905588333333334, "lon": -77.006053, "fusion_lat": 0.0}, {"is_reserved": 0, "bike_id": "295d52714d501057580e0646249b2939", "type": "electric_scooter", "name": "295d52714d501057580e0646249b2939", "is_disabled": 0, "fusion_lon": 0.0, "rental_uris": {"android": "https://dc.lft.to/lastmile_qr_scan", "ios": "https://dc.lft.to/lastmile_qr_scan"}, "lat": 38.91706833333333, "lon": -77.00404583333334, "fusion_lat": 0.0}, {"is_reserved": 0, "bike_id": "731803c7af56ef7ddc98c141e6186263", "type": "electric_bike", "name": "731803c7af56ef7ddc98c141e6186263", "is_disabled": 0, "fusion_lon": 0.0, "rental_uris": {"android": "https://dc.lft.to/lastmile_qr_scan", "ios": "https://dc.lft.to/lastmile_qr_scan"}, "lat": 38.86575283333333, "lon": -77.12932266666667, "fusion_lat": 0.0}, {"is_reserved": 0, "bike_id": "9c83b3521e85a098221934e1fd9afddc", "type": "electric_scooter", "name": "9c83b3521e85a098221934e1fd9afddc", "is_disabled": 0, "fusion_lon": 0.0, "rental_uris": {"android": "https://dc.lft.to/lastmile_qr_scan", "ios": "https://dc.lft.to/lastmile_qr_scan"}, "lat": 38.9295095, "lon": -77.02782983333333, "fusion_lat": 0.0}, {"is_reserved": 0, "bike_id": "2b45873591f62b1050e22d566bcc9fca", "type": "electric_scooter", "name": "2b45873591f62b1050e22d566bcc9fca", "is_disabled": 0, "fusion_lon": 0.0, "rental_uris": {"android": "https://dc.lft.to/lastmile_qr_scan", "ios": "https://dc.lft.to/lastmile_qr_scan"}, "lat": 38.91977033333333, "lon": -77.03789, "fusion_lat": 0.0}, {"is_reserved": 0, "bike_id": "6b29a02659e254144c7a0b258bbcfb49", "type": "electric_scooter", "name": "6b29a02659e254144c7a0b258bbcfb49", "is_disabled": 0, "fusion_lon": 0.0, "rental_uris": {"android": "https://dc.lft.to/lastmile_qr_scan", "ios": "https://dc.lft.to/lastmile_qr_scan"}, "lat": 38.918303333333334, "lon": -77.03444066666667, "fusion_lat": 0.0}, {"is_reserved": 0, "bike_id": "21efa0bbfc0ff34ddccd438cf07547eb", "type": "electric_scooter", "name": "21efa0bbfc0ff34ddccd438cf07547eb", "is_disabled": 0, "fusion_lon": 0.0, "rental_uris": {"android": "https://dc.lft.to/lastmile_qr_scan", "ios": "https://dc.lft.to/lastmile_qr_scan"}, "lat": 38.92478083333334, "lon": -77.02997633333334, "fusion_lat": 0.0}, {"is_reserved": 0, "bike_id": "d1eefe397dd5a7d8a95f6e127f38609c", "type": "electric_bike", "name": "d1eefe397dd5a7d8a95f6e127f38609c", "is_disabled": 0, "fusion_lon": 0.0, "rental_uris": {"android": "https://dc.lft.to/lastmile_qr_scan", "ios": "https://dc.lft.to/lastmile_qr_scan"}, "lat": 38.950751333333336, "lon": -76.99604016666666, "fusion_lat": 0.0}, {"is_reserved": 0, "bike_id": "3b0f270d94fdf43973ae17905464b560", "type": "electric_scooter", "name": "3b0f270d94fdf43973ae17905464b560", "is_disabled": 0, "fusion_lon": 0.0, "rental_uris": {"android": "https://dc.lft.to/lastmile_qr_scan", "ios": "https://dc.lft.to/lastmile_qr_scan"}, "lat": 38.901670833333334, "lon": -77.041805, "fusion_lat": 0.0}, {"is_reserved": 0, "bike_id": "d04ea3c31ae78b3d6416b6c56eb60aeb", "type": "electric_scooter", "name": "d04ea3c31ae78b3d6416b6c56eb60aeb", "is_disabled": 0, "fusion_lon": 0.0, "rental_uris": {"android": "https://dc.lft.to/lastmile_qr_scan", "ios": "https://dc.lft.to/lastmile_qr_scan"}, "lat": 38.9040465, "lon": -77.06855983333334, "fusion_lat": 0.0}, {"is_reserved": 0, "bike_id": "cde5226c237a579380f36a1175a7f83d", "type": "electric_scooter", "name": "cde5226c237a579380f36a1175a7f83d", "is_disabled": 0, "fusion_lon": 0.0, "rental_uris": {"android": "https://dc.lft.to/lastmile_qr_scan", "ios": "https://dc.lft.to/lastmile_qr_scan"}, "lat": 38.90648233333334, "lon": -77.01104066666667, "fusion_lat": 0.0}, {"is_reserved": 0, "bike_id": "e534da8ce7cbb04cbb5f486c765d2696", "type": "electric_scooter", "name": "e534da8ce7cbb04cbb5f486c765d2696", "is_disabled": 0, "fusion_lon": 0.0, "rental_uris": {"android": "https://dc.lft.to/lastmile_qr_scan", "ios": "https://dc.lft.to/lastmile_qr_scan"}, "lat": 38.916413666666664, "lon": -77.02882966666667, "fusion_lat": 0.0}, {"is_reserved": 0, "bike_id": "6d10c77c1e74db6480026673bffb7e8c", "type": "electric_bike", "name": "6d10c77c1e74db6480026673bffb7e8c", "is_disabled": 0, "fusion_lon": 0.0, "rental_uris": {"android": "https://dc.lft.to/lastmile_qr_scan", "ios": "https://dc.lft.to/lastmile_qr_scan"}, "lat": 38.898187666666665, "lon": -76.9907615, "fusion_lat": 0.0}, {"is_reserved": 0, "bike_id": "d4ff6fffa7cd6ca0098ebad87624d443", "type": "electric_scooter", "name": "d4ff6fffa7cd6ca0098ebad87624d443", "is_disabled": 0, "fusion_lon": 0.0, "rental_uris": {"android": "https://dc.lft.to/lastmile_qr_scan", "ios": "https://dc.lft.to/lastmile_qr_scan"}, "lat": 38.924470666666664, "lon": -77.03318866666666, "fusion_lat": 0.0}, {"is_reserved": 0, "bike_id": "c51132aae0ab08ab1f6dde3cbe6799f6", "type": "electric_scooter", "name": "c51132aae0ab08ab1f6dde3cbe6799f6", "is_disabled": 0, "fusion_lon": 0.0, "rental_uris": {"android": "https://dc.lft.to/lastmile_qr_scan", "ios": "https://dc.lft.to/lastmile_qr_scan"}, "lat": 38.908278, "lon": -76.99446016666667, "fusion_lat": 0.0}, {"is_reserved": 0, "bike_id": "2ca4ae7aefa3c81444289be3d33fcbae", "type": "electric_scooter", "name": "2ca4ae7aefa3c81444289be3d33fcbae", "is_disabled": 0, "fusion_lon": 0.0, "rental_uris": {"android": "https://dc.lft.to/lastmile_qr_scan", "ios": "https://dc.lft.to/lastmile_qr_scan"}, "lat": 38.90635016666667, "lon": -77.0058635, "fusion_lat": 0.0}, {"is_reserved": 0, "bike_id": "69ceb15c31c93a9e47ddba92e4f4aa7d", "type": "electric_scooter", "name": "69ceb15c31c93a9e47ddba92e4f4aa7d", "is_disabled": 0, "fusion_lon": 0.0, "rental_uris": {"android": "https://dc.lft.to/lastmile_qr_scan", "ios": "https://dc.lft.to/lastmile_qr_scan"}, "lat": 38.912747333333336, "lon": -77.02387666666667, "fusion_lat": 0.0}, {"is_reserved": 0, "bike_id": "2e430bd8764aeabece2f394cb55575ec", "type": "electric_scooter", "name": "2e430bd8764aeabece2f394cb55575ec", "is_disabled": 0, "fusion_lon": 0.0, "rental_uris": {"android": "https://dc.lft.to/lastmile_qr_scan", "ios": "https://dc.lft.to/lastmile_qr_scan"}, "lat": 38.92341616666667, "lon": -77.03612266666667, "fusion_lat": 0.0}, {"is_reserved": 0, "bike_id": "25e1ecd062181ae5b96e38849bfaefbd", "type": "electric_scooter", "name": "25e1ecd062181ae5b96e38849bfaefbd", "is_disabled": 0, "fusion_lon": 0.0, "rental_uris": {"android": "https://dc.lft.to/lastmile_qr_scan", "ios": "https://dc.lft.to/lastmile_qr_scan"}, "lat": 38.8874955, "lon": -77.03154283333333, "fusion_lat": 0.0}, {"is_reserved": 0, "bike_id": "daeb49216971e67bc0cd1062431b8501", "type": "electric_scooter", "name": "daeb49216971e67bc0cd1062431b8501", "is_disabled": 0, "fusion_lon": 0.0, "rental_uris": {"android": "https://dc.lft.to/lastmile_qr_scan", "ios": "https://dc.lft.to/lastmile_qr_scan"}, "lat": 38.90413016666667, "lon": -77.06286433333334, "fusion_lat": 0.0}, {"is_reserved": 0, "bike_id": "adcada3a986b3a49a65376eff4db9fb8", "type": "electric_scooter", "name": "adcada3a986b3a49a65376eff4db9fb8", "is_disabled": 0, "fusion_lon": 0.0, "rental_uris": {"android": "https://dc.lft.to/lastmile_qr_scan", "ios": "https://dc.lft.to/lastmile_qr_scan"}, "lat": 38.926115833333334, "lon": -77.02163466666667, "fusion_lat": 0.0}, {"is_reserved": 0, "bike_id": "23a28446f33a945df1b0fbabedd708be", "type": "electric_scooter", "name": "23a28446f33a945df1b0fbabedd708be", "is_disabled": 0, "fusion_lon": 0.0, "rental_uris": {"android": "https://dc.lft.to/lastmile_qr_scan", "ios": "https://dc.lft.to/lastmile_qr_scan"}, "lat": 38.9215405, "lon": -77.03387466666666, "fusion_lat": 0.0}, {"is_reserved": 0, "bike_id": "ba86598d4a0aff85d3996e2845257363", "type": "electric_scooter", "name": "ba86598d4a0aff85d3996e2845257363", "is_disabled": 0, "fusion_lon": 0.0, "rental_uris": {"android": "https://dc.lft.to/lastmile_qr_scan", "ios": "https://dc.lft.to/lastmile_qr_scan"}, "lat": 38.926113666666666, "lon": -77.02158416666667, "fusion_lat": 0.0}, {"is_reserved": 0, "bike_id": "6971cb827093c7dc2b44ee4758609548", "type": "electric_scooter", "name": "6971cb827093c7dc2b44ee4758609548", "is_disabled": 0, "fusion_lon": 0.0, "rental_uris": {"android": "https://dc.lft.to/lastmile_qr_scan", "ios": "https://dc.lft.to/lastmile_qr_scan"}, "lat": 38.921668333333336, "lon": -77.02088233333333, "fusion_lat": 0.0}, {"is_reserved": 0, "bike_id": "3e2ee9a5d50cbb08145606dba6a0f5cc", "type": "electric_bike", "name": "3e2ee9a5d50cbb08145606dba6a0f5cc", "is_disabled": 0, "fusion_lon": 0.0, "rental_uris": {"android": "https://dc.lft.to/lastmile_qr_scan", "ios": "https://dc.lft.to/lastmile_qr_scan"}, "lat": 38.79985166666667, "lon": -77.1298135, "fusion_lat": 0.0}, {"is_reserved": 0, "bike_id": "d79d21611d5b32241c6aa81d56ae700e", "type": "electric_scooter", "name": "d79d21611d5b32241c6aa81d56ae700e", "is_disabled": 0, "fusion_lon": 0.0, "rental_uris": {"android": "https://dc.lft.to/lastmile_qr_scan", "ios": "https://dc.lft.to/lastmile_qr_scan"}, "lat": 38.935521666666666, "lon": -77.081928, "fusion_lat": 0.0}, {"is_reserved": 0, "bike_id": "343ecbdf92e2b38d1dad883758855947", "type": "electric_scooter", "name": "343ecbdf92e2b38d1dad883758855947", "is_disabled": 0, "fusion_lon": 0.0, "rental_uris": {"android": "https://dc.lft.to/lastmile_qr_scan", "ios": "https://dc.lft.to/lastmile_qr_scan"}, "lat": 38.8842065, "lon": -77.02777116666667, "fusion_lat": 0.0}, {"is_reserved": 0, "bike_id": "d22bf30aa4a45a716d703a1b5e20eded", "type": "electric_scooter", "name": "d22bf30aa4a45a716d703a1b5e20eded", "is_disabled": 0, "fusion_lon": 0.0, "rental_uris": {"android": "https://dc.lft.to/lastmile_qr_scan", "ios": "https://dc.lft.to/lastmile_qr_scan"}, "lat": 38.936848, "lon": -77.03596233333333, "fusion_lat": 0.0}, {"is_reserved": 0, "bike_id": "fb6cb88bc9e152a33405b429b2ddfe95", "type": "electric_scooter", "name": "fb6cb88bc9e152a33405b429b2ddfe95", "is_disabled": 0, "fusion_lon": 0.0, "rental_uris": {"android": "https://dc.lft.to/lastmile_qr_scan", "ios": "https://dc.lft.to/lastmile_qr_scan"}, "lat": 38.933098333333334, "lon": -77.02136416666667, "fusion_lat": 0.0}, {"is_reserved": 0, "bike_id": "0eb534b12c104f8c9e4e7c057b2e8d3f", "type": "electric_scooter", "name": "0eb534b12c104f8c9e4e7c057b2e8d3f", "is_disabled": 0, "fusion_lon": 0.0, "rental_uris": {"android": "https://dc.lft.to/lastmile_qr_scan", "ios": "https://dc.lft.to/lastmile_qr_scan"}, "lat": 38.878884, "lon": -77.00052416666666, "fusion_lat": 0.0}, {"is_reserved": 0, "bike_id": "5df5453e4fc81a29ba4517b7d5498cca", "type": "electric_scooter", "name": "5df5453e4fc81a29ba4517b7d5498cca", "is_disabled": 0, "fusion_lon": 0.0, "rental_uris": {"android": "https://dc.lft.to/lastmile_qr_scan", "ios": "https://dc.lft.to/lastmile_qr_scan"}, "lat": 38.923099, "lon": -77.03813916666667, "fusion_lat": 0.0}, {"is_reserved": 0, "bike_id": "213386faa8df1d825aa68d6b5b66b2d1", "type": "electric_scooter", "name": "213386faa8df1d825aa68d6b5b66b2d1", "is_disabled": 0, "fusion_lon": 0.0, "rental_uris": {"android": "https://dc.lft.to/lastmile_qr_scan", "ios": "https://dc.lft.to/lastmile_qr_scan"}, "lat": 38.904093, "lon": -76.97335266666667, "fusion_lat": 0.0}, {"is_reserved": 0, "bike_id": "f299e549264594cbe508bb67d8569568", "type": "electric_scooter", "name": "f299e549264594cbe508bb67d8569568", "is_disabled": 0, "fusion_lon": 0.0, "rental_uris": {"android": "https://dc.lft.to/lastmile_qr_scan", "ios": "https://dc.lft.to/lastmile_qr_scan"}, "lat": 38.90106633333333, "lon": -77.04992983333334, "fusion_lat": 0.0}, {"is_reserved": 0, "bike_id": "12ccdb4fbd55aaa157353cb9c262764b", "type": "electric_bike", "name": "12ccdb4fbd55aaa157353cb9c262764b", "is_disabled": 0, "fusion_lon": 0.0, "rental_uris": {"android": "https://dc.lft.to/lastmile_qr_scan", "ios": "https://dc.lft.to/lastmile_qr_scan"}, "lat": 38.85766233333333, "lon": -76.98765, "fusion_lat": 0.0}, {"is_reserved": 0, "bike_id": "3bc6406fbb17c867bc6e4059bfa5ecbf", "type": "electric_scooter", "name": "3bc6406fbb17c867bc6e4059bfa5ecbf", "is_disabled": 0, "fusion_lon": 0.0, "rental_uris": {"android": "https://dc.lft.to/lastmile_qr_scan", "ios": "https://dc.lft.to/lastmile_qr_scan"}, "lat": 38.920563666666666, "lon": -77.02585416666666, "fusion_lat": 0.0}, {"is_reserved": 0, "bike_id": "5e09688af0807db2d69d8a2d8f9dfbd4", "type": "electric_bike", "name": "5e09688af0807db2d69d8a2d8f9dfbd4", "is_disabled": 0, "fusion_lon": 0.0, "rental_uris": {"android": "https://dc.lft.to/lastmile_qr_scan", "ios": "https://dc.lft.to/lastmile_qr_scan"}, "lat": 38.9304695, "lon": -77.073519, "fusion_lat": 0.0}, {"is_reserved": 0, "bike_id": "a60f406e27d8aa2da9b0ac05becf56b7", "type": "electric_scooter", "name": "a60f406e27d8aa2da9b0ac05becf56b7", "is_disabled": 0, "fusion_lon": 0.0, "rental_uris": {"android": "https://dc.lft.to/lastmile_qr_scan", "ios": "https://dc.lft.to/lastmile_qr_scan"}, "lat": 38.94931483333333, "lon": -77.01848316666667, "fusion_lat": 0.0}, {"is_reserved": 0, "bike_id": "cb41884c6b05af356bcbfc09250c75ce", "type": "electric_scooter", "name": "cb41884c6b05af356bcbfc09250c75ce", "is_disabled": 0, "fusion_lon": 0.0, "rental_uris": {"android": "https://dc.lft.to/lastmile_qr_scan", "ios": "https://dc.lft.to/lastmile_qr_scan"}, "lat": 38.90030633333333, "lon": -76.99518133333333, "fusion_lat": 0.0}, {"is_reserved": 0, "bike_id": "3dc35e30236d60a5dfd80cbddd836e26", "type": "electric_scooter", "name": "3dc35e30236d60a5dfd80cbddd836e26", "is_disabled": 0, "fusion_lon": 0.0, "rental_uris": {"android": "https://dc.lft.to/lastmile_qr_scan", "ios": "https://dc.lft.to/lastmile_qr_scan"}, "lat": 38.921287, "lon": -77.018009, "fusion_lat": 0.0}, {"is_reserved": 0, "bike_id": "d3494272142789e4d075f9582d54e602", "type": "electric_scooter", "name": "d3494272142789e4d075f9582d54e602", "is_disabled": 0, "fusion_lon": 0.0, "rental_uris": {"android": "https://dc.lft.to/lastmile_qr_scan", "ios": "https://dc.lft.to/lastmile_qr_scan"}, "lat": 38.9290175, "lon": -77.05459766666667, "fusion_lat": 0.0}, {"is_reserved": 0, "bike_id": "7224b1beed50221849781dce728e3ed5", "type": "electric_scooter", "name": "7224b1beed50221849781dce728e3ed5", "is_disabled": 0, "fusion_lon": 0.0, "rental_uris": {"android": "https://dc.lft.to/lastmile_qr_scan", "ios": "https://dc.lft.to/lastmile_qr_scan"}, "lat": 38.921238333333335, "lon": -77.02516433333334, "fusion_lat": 0.0}, {"is_reserved": 0, "bike_id": "946b45f5f3239f1257f7cef090f2f16c", "type": "electric_scooter", "name": "946b45f5f3239f1257f7cef090f2f16c", "is_disabled": 0, "fusion_lon": 0.0, "rental_uris": {"android": "https://dc.lft.to/lastmile_qr_scan", "ios": "https://dc.lft.to/lastmile_qr_scan"}, "lat": 38.949541833333335, "lon": -77.06649283333333, "fusion_lat": 0.0}, {"is_reserved": 0, "bike_id": "1ae19da0af047ade213d3927eb134644", "type": "electric_scooter", "name": "1ae19da0af047ade213d3927eb134644", "is_disabled": 0, "fusion_lon": 0.0, "rental_uris": {"android": "https://dc.lft.to/lastmile_qr_scan", "ios": "https://dc.lft.to/lastmile_qr_scan"}, "lat": 38.897288333333336, "lon": -77.0416195, "fusion_lat": 0.0}, {"is_reserved": 0, "bike_id": "75b49771da8a748d39751572c0fb4643", "type": "electric_scooter", "name": "75b49771da8a748d39751572c0fb4643", "is_disabled": 0, "fusion_lon": 0.0, "rental_uris": {"android": "https://dc.lft.to/lastmile_qr_scan", "ios": "https://dc.lft.to/lastmile_qr_scan"}, "lat": 38.879223333333336, "lon": -77.02154883333333, "fusion_lat": 0.0}, {"is_reserved": 0, "bike_id": "568af718692f24ec2baf147fa7595805", "type": "electric_scooter", "name": "568af718692f24ec2baf147fa7595805", "is_disabled": 0, "fusion_lon": 0.0, "rental_uris": {"android": "https://dc.lft.to/lastmile_qr_scan", "ios": "https://dc.lft.to/lastmile_qr_scan"}, "lat": 38.89891183333334, "lon": -77.00523783333334, "fusion_lat": 0.0}, {"is_reserved": 0, "bike_id": "2e0e47d86ae7f62b536653fa39b43871", "type": "electric_scooter", "name": "2e0e47d86ae7f62b536653fa39b43871", "is_disabled": 0, "fusion_lon": 0.0, "rental_uris": {"android": "https://dc.lft.to/lastmile_qr_scan", "ios": "https://dc.lft.to/lastmile_qr_scan"}, "lat": 38.92261933333333, "lon": -77.0034585, "fusion_lat": 0.0}, {"is_reserved": 0, "bike_id": "1ff9ca4cba822f2b42c9f8a447ad1cf7", "type": "electric_scooter", "name": "1ff9ca4cba822f2b42c9f8a447ad1cf7", "is_disabled": 0, "fusion_lon": 0.0, "rental_uris": {"android": "https://dc.lft.to/lastmile_qr_scan", "ios": "https://dc.lft.to/lastmile_qr_scan"}, "lat": 38.90422516666667, "lon": -77.02639333333333, "fusion_lat": 0.0}, {"is_reserved": 0, "bike_id": "7b00a271393971b9dbae04e60339a412", "type": "electric_scooter", "name": "7b00a271393971b9dbae04e60339a412", "is_disabled": 0, "fusion_lon": 0.0, "rental_uris": {"android": "https://dc.lft.to/lastmile_qr_scan", "ios": "https://dc.lft.to/lastmile_qr_scan"}, "lat": 38.89548683333334, "lon": -76.9833815, "fusion_lat": 0.0}, {"is_reserved": 0, "bike_id": "241d4ed59bc85f1b8640acc67c898ac6", "type": "electric_scooter", "name": "241d4ed59bc85f1b8640acc67c898ac6", "is_disabled": 0, "fusion_lon": 0.0, "rental_uris": {"android": "https://dc.lft.to/lastmile_qr_scan", "ios": "https://dc.lft.to/lastmile_qr_scan"}, "lat": 38.91344316666667, "lon": -77.00923183333333, "fusion_lat": 0.0}, {"is_reserved": 0, "bike_id": "161ea4041a8404b597b285c085d3703a", "type": "electric_scooter", "name": "161ea4041a8404b597b285c085d3703a", "is_disabled": 0, "fusion_lon": 0.0, "rental_uris": {"android": "https://dc.lft.to/lastmile_qr_scan", "ios": "https://dc.lft.to/lastmile_qr_scan"}, "lat": 38.924423833333336, "lon": -77.020378, "fusion_lat": 0.0}, {"is_reserved": 0, "bike_id": "585c037d6da6d8e51d933fe9110995c7", "type": "electric_scooter", "name": "585c037d6da6d8e51d933fe9110995c7", "is_disabled": 0, "fusion_lon": 0.0, "rental_uris": {"android": "https://dc.lft.to/lastmile_qr_scan", "ios": "https://dc.lft.to/lastmile_qr_scan"}, "lat": 38.8984995, "lon": -76.99033516666667, "fusion_lat": 0.0}, {"is_reserved": 0, "bike_id": "a2f718457320fb4c77e85a2233a33dee", "type": "electric_scooter", "name": "a2f718457320fb4c77e85a2233a33dee", "is_disabled": 0, "fusion_lon": 0.0, "rental_uris": {"android": "https://dc.lft.to/lastmile_qr_scan", "ios": "https://dc.lft.to/lastmile_qr_scan"}, "lat": 38.918494833333334, "lon": -77.03888816666667, "fusion_lat": 0.0}, {"is_reserved": 0, "bike_id": "08acb7fa5208c93be56b01d44d96201f", "type": "electric_scooter", "name": "08acb7fa5208c93be56b01d44d96201f", "is_disabled": 0, "fusion_lon": 0.0, "rental_uris": {"android": "https://dc.lft.to/lastmile_qr_scan", "ios": "https://dc.lft.to/lastmile_qr_scan"}, "lat": 38.91546483333333, "lon": -77.03854383333334, "fusion_lat": 0.0}, {"is_reserved": 0, "bike_id": "468c434aeeaa0727b2d144dbecdbc16d", "type": "electric_bike", "name": "468c434aeeaa0727b2d144dbecdbc16d", "is_disabled": 0, "fusion_lon": 0.0, "rental_uris": {"android": "https://dc.lft.to/lastmile_qr_scan", "ios": "https://dc.lft.to/lastmile_qr_scan"}, "lat": 38.87324016666667, "lon": -77.11413716666667, "fusion_lat": 0.0}, {"is_reserved": 0, "bike_id": "6d3e9017c4cb3ec3c799b6cd55af2126", "type": "electric_scooter", "name": "6d3e9017c4cb3ec3c799b6cd55af2126", "is_disabled": 0, "fusion_lon": 0.0, "rental_uris": {"android": "https://dc.lft.to/lastmile_qr_scan", "ios": "https://dc.lft.to/lastmile_qr_scan"}, "lat": 38.91597266666667, "lon": -77.0319685, "fusion_lat": 0.0}, {"is_reserved": 0, "bike_id": "ae6074bb22fdbdc4c0b57e6209a0c8e9", "type": "electric_scooter", "name": "ae6074bb22fdbdc4c0b57e6209a0c8e9", "is_disabled": 0, "fusion_lon": 0.0, "rental_uris": {"android": "https://dc.lft.to/lastmile_qr_scan", "ios": "https://dc.lft.to/lastmile_qr_scan"}, "lat": 38.89405683333333, "lon": -77.022144, "fusion_lat": 0.0}, {"is_reserved": 0, "bike_id": "01c2eb6a11599339f19862906d3390cf", "type": "electric_scooter", "name": "01c2eb6a11599339f19862906d3390cf", "is_disabled": 0, "fusion_lon": 0.0, "rental_uris": {"android": "https://dc.lft.to/lastmile_qr_scan", "ios": "https://dc.lft.to/lastmile_qr_scan"}, "lat": 38.92317883333333, "lon": -77.043423, "fusion_lat": 0.0}, {"is_reserved": 0, "bike_id": "15d0b5497c22eddd1663d660f8f3f47b", "type": "electric_scooter", "name": "15d0b5497c22eddd1663d660f8f3f47b", "is_disabled": 0, "fusion_lon": 0.0, "rental_uris": {"android": "https://dc.lft.to/lastmile_qr_scan", "ios": "https://dc.lft.to/lastmile_qr_scan"}, "lat": 38.9009135, "lon": -77.05003516666666, "fusion_lat": 0.0}, {"is_reserved": 0, "bike_id": "7f690819e766720546901629dc1d2125", "type": "electric_scooter", "name": "7f690819e766720546901629dc1d2125", "is_disabled": 0, "fusion_lon": 0.0, "rental_uris": {"android": "https://dc.lft.to/lastmile_qr_scan", "ios": "https://dc.lft.to/lastmile_qr_scan"}, "lat": 38.905192666666665, "lon": -77.05147783333334, "fusion_lat": 0.0}, {"is_reserved": 0, "bike_id": "a9479bc2b3cd5b7a5a9734d11a92231e", "type": "electric_scooter", "name": "a9479bc2b3cd5b7a5a9734d11a92231e", "is_disabled": 0, "fusion_lon": 0.0, "rental_uris": {"android": "https://dc.lft.to/lastmile_qr_scan", "ios": "https://dc.lft.to/lastmile_qr_scan"}, "lat": 38.9236305, "lon": -77.04321883333333, "fusion_lat": 0.0}, {"is_reserved": 0, "bike_id": "758dd21292438776d91b7a7c3c07f6bd", "type": "electric_bike", "name": "758dd21292438776d91b7a7c3c07f6bd", "is_disabled": 0, "fusion_lon": 0.0, "rental_uris": {"android": "https://dc.lft.to/lastmile_qr_scan", "ios": "https://dc.lft.to/lastmile_qr_scan"}, "lat": 39.001893833333334, "lon": -76.9018255, "fusion_lat": 0.0}, {"is_reserved": 0, "bike_id": "9975c61279a0be2d6bafd19ed86dfb62", "type": "electric_scooter", "name": "9975c61279a0be2d6bafd19ed86dfb62", "is_disabled": 0, "fusion_lon": 0.0, "rental_uris": {"android": "https://dc.lft.to/lastmile_qr_scan", "ios": "https://dc.lft.to/lastmile_qr_scan"}, "lat": 38.949765, "lon": -77.02450233333333, "fusion_lat": 0.0}, {"is_reserved": 0, "bike_id": "0ddf69dbf4ac963dc6c2b41e8bcf4fd0", "type": "electric_scooter", "name": "0ddf69dbf4ac963dc6c2b41e8bcf4fd0", "is_disabled": 0, "fusion_lon": 0.0, "rental_uris": {"android": "https://dc.lft.to/lastmile_qr_scan", "ios": "https://dc.lft.to/lastmile_qr_scan"}, "lat": 38.90030333333333, "lon": -77.01173066666667, "fusion_lat": 0.0}, {"is_reserved": 0, "bike_id": "22e3c2b3f7ced40daebacd0d9c60ab90", "type": "electric_scooter", "name": "22e3c2b3f7ced40daebacd0d9c60ab90", "is_disabled": 0, "fusion_lon": 0.0, "rental_uris": {"android": "https://dc.lft.to/lastmile_qr_scan", "ios": "https://dc.lft.to/lastmile_qr_scan"}, "lat": 38.92415333333334, "lon": -77.01946116666667, "fusion_lat": 0.0}, {"is_reserved": 0, "bike_id": "dc5fe2305925470a941ae303d79c2a89", "type": "electric_bike", "name": "dc5fe2305925470a941ae303d79c2a89", "is_disabled": 0, "fusion_lon": 0.0, "rental_uris": {"android": "https://dc.lft.to/lastmile_qr_scan", "ios": "https://dc.lft.to/lastmile_qr_scan"}, "lat": 38.98526533333333, "lon": -77.00410816666667, "fusion_lat": 0.0}, {"is_reserved": 0, "bike_id": "1bc84130a0d179328680c490f78d63da", "type": "electric_scooter", "name": "1bc84130a0d179328680c490f78d63da", "is_disabled": 0, "fusion_lon": 0.0, "rental_uris": {"android": "https://dc.lft.to/lastmile_qr_scan", "ios": "https://dc.lft.to/lastmile_qr_scan"}, "lat": 38.939368, "lon": -77.0326545, "fusion_lat": 0.0}, {"is_reserved": 0, "bike_id": "809ae1f34cf255f54692a7bd0d254601", "type": "electric_scooter", "name": "809ae1f34cf255f54692a7bd0d254601", "is_disabled": 0, "fusion_lon": 0.0, "rental_uris": {"android": "https://dc.lft.to/lastmile_qr_scan", "ios": "https://dc.lft.to/lastmile_qr_scan"}, "lat": 38.92053533333333, "lon": -77.0158355, "fusion_lat": 0.0}, {"is_reserved": 0, "bike_id": "1c60bda32524013878274c61534d0521", "type": "electric_scooter", "name": "1c60bda32524013878274c61534d0521", "is_disabled": 0, "fusion_lon": 0.0, "rental_uris": {"android": "https://dc.lft.to/lastmile_qr_scan", "ios": "https://dc.lft.to/lastmile_qr_scan"}, "lat": 38.901810166666664, "lon": -76.93467933333334, "fusion_lat": 0.0}, {"is_reserved": 0, "bike_id": "2ba69f514d23dbfb9b00cc2b63ec0679", "type": "electric_scooter", "name": "2ba69f514d23dbfb9b00cc2b63ec0679", "is_disabled": 0, "fusion_lon": 0.0, "rental_uris": {"android": "https://dc.lft.to/lastmile_qr_scan", "ios": "https://dc.lft.to/lastmile_qr_scan"}, "lat": 38.9180965, "lon": -77.03877116666666, "fusion_lat": 0.0}, {"is_reserved": 0, "bike_id": "b9c5397b7ad16c6c39aa2c8c4743b083", "type": "electric_scooter", "name": "b9c5397b7ad16c6c39aa2c8c4743b083", "is_disabled": 0, "fusion_lon": 0.0, "rental_uris": {"android": "https://dc.lft.to/lastmile_qr_scan", "ios": "https://dc.lft.to/lastmile_qr_scan"}, "lat": 38.8994455, "lon": -77.04682616666666, "fusion_lat": 0.0}, {"is_reserved": 0, "bike_id": "eb44ee54b51488d6d2788a934300dd96", "type": "electric_scooter", "name": "eb44ee54b51488d6d2788a934300dd96", "is_disabled": 0, "fusion_lon": 0.0, "rental_uris": {"android": "https://dc.lft.to/lastmile_qr_scan", "ios": "https://dc.lft.to/lastmile_qr_scan"}, "lat": 38.899483833333335, "lon": -77.01595783333333, "fusion_lat": 0.0}, {"is_reserved": 0, "bike_id": "dabe1dbcf79d5de03cdfeb0fd5897bdf", "type": "electric_scooter", "name": "dabe1dbcf79d5de03cdfeb0fd5897bdf", "is_disabled": 0, "fusion_lon": 0.0, "rental_uris": {"android": "https://dc.lft.to/lastmile_qr_scan", "ios": "https://dc.lft.to/lastmile_qr_scan"}, "lat": 38.91635516666667, "lon": -77.03200983333333, "fusion_lat": 0.0}, {"is_reserved": 0, "bike_id": "dfed094a6370eb75bc0a1d9517eca9f1", "type": "electric_scooter", "name": "dfed094a6370eb75bc0a1d9517eca9f1", "is_disabled": 0, "fusion_lon": 0.0, "rental_uris": {"android": "https://dc.lft.to/lastmile_qr_scan", "ios": "https://dc.lft.to/lastmile_qr_scan"}, "lat": 38.89629083333333, "lon": -77.033257, "fusion_lat": 0.0}, {"is_reserved": 0, "bike_id": "ee118c798a8029becb485c411827bc49", "type": "electric_scooter", "name": "ee118c798a8029becb485c411827bc49", "is_disabled": 0, "fusion_lon": 0.0, "rental_uris": {"android": "https://dc.lft.to/lastmile_qr_scan", "ios": "https://dc.lft.to/lastmile_qr_scan"}, "lat": 38.92054916666667, "lon": -77.02582566666666, "fusion_lat": 0.0}, {"is_reserved": 0, "bike_id": "caef3f8bf8039214cff987dfe0a520f6", "type": "electric_scooter", "name": "caef3f8bf8039214cff987dfe0a520f6", "is_disabled": 0, "fusion_lon": 0.0, "rental_uris": {"android": "https://dc.lft.to/lastmile_qr_scan", "ios": "https://dc.lft.to/lastmile_qr_scan"}, "lat": 38.906469, "lon": -77.01694166666667, "fusion_lat": 0.0}, {"is_reserved": 0, "bike_id": "703b9b663bd6c595f5cece85a6a34edf", "type": "electric_scooter", "name": "703b9b663bd6c595f5cece85a6a34edf", "is_disabled": 0, "fusion_lon": 0.0, "rental_uris": {"android": "https://dc.lft.to/lastmile_qr_scan", "ios": "https://dc.lft.to/lastmile_qr_scan"}, "lat": 38.91126933333334, "lon": -77.02198266666667, "fusion_lat": 0.0}, {"is_reserved": 0, "bike_id": "42773fe968f644d547c42ec0da8acd89", "type": "electric_scooter", "name": "42773fe968f644d547c42ec0da8acd89", "is_disabled": 0, "fusion_lon": 0.0, "rental_uris": {"android": "https://dc.lft.to/lastmile_qr_scan", "ios": "https://dc.lft.to/lastmile_qr_scan"}, "lat": 38.910955666666666, "lon": -77.02548283333333, "fusion_lat": 0.0}, {"is_reserved": 0, "bike_id": "9dfb415ad60b29d9d0fd6334aafae937", "type": "electric_scooter", "name": "9dfb415ad60b29d9d0fd6334aafae937", "is_disabled": 0, "fusion_lon": 0.0, "rental_uris": {"android": "https://dc.lft.to/lastmile_qr_scan", "ios": "https://dc.lft.to/lastmile_qr_scan"}, "lat": 38.948933833333335, "lon": -77.06449616666667, "fusion_lat": 0.0}, {"is_reserved": 0, "bike_id": "29b8696122d7ad4da67faf2920ac8d44", "type": "electric_scooter", "name": "29b8696122d7ad4da67faf2920ac8d44", "is_disabled": 0, "fusion_lon": 0.0, "rental_uris": {"android": "https://dc.lft.to/lastmile_qr_scan", "ios": "https://dc.lft.to/lastmile_qr_scan"}, "lat": 38.885959, "lon": -76.92505066666666, "fusion_lat": 0.0}, {"is_reserved": 0, "bike_id": "2d3163940db4704ca1d6e8333530e3fb", "type": "electric_scooter", "name": "2d3163940db4704ca1d6e8333530e3fb", "is_disabled": 0, "fusion_lon": 0.0, "rental_uris": {"android": "https://dc.lft.to/lastmile_qr_scan", "ios": "https://dc.lft.to/lastmile_qr_scan"}, "lat": 38.912931, "lon": -77.0426565, "fusion_lat": 0.0}, {"is_reserved": 0, "bike_id": "fa866949a7833212b52b2fa7fcfcb185", "type": "electric_scooter", "name": "fa866949a7833212b52b2fa7fcfcb185", "is_disabled": 0, "fusion_lon": 0.0, "rental_uris": {"android": "https://dc.lft.to/lastmile_qr_scan", "ios": "https://dc.lft.to/lastmile_qr_scan"}, "lat": 38.91753933333333, "lon": -77.04761266666667, "fusion_lat": 0.0}, {"is_reserved": 0, "bike_id": "d56d07838598312af37dc15160cfc0cc", "type": "electric_scooter", "name": "d56d07838598312af37dc15160cfc0cc", "is_disabled": 0, "fusion_lon": 0.0, "rental_uris": {"android": "https://dc.lft.to/lastmile_qr_scan", "ios": "https://dc.lft.to/lastmile_qr_scan"}, "lat": 38.903628, "lon": -77.01879816666667, "fusion_lat": 0.0}, {"is_reserved": 0, "bike_id": "a8a6e70138aaba636512f959e54f16a3", "type": "electric_scooter", "name": "a8a6e70138aaba636512f959e54f16a3", "is_disabled": 0, "fusion_lon": 0.0, "rental_uris": {"android": "https://dc.lft.to/lastmile_qr_scan", "ios": "https://dc.lft.to/lastmile_qr_scan"}, "lat": 38.904345666666664, "lon": -77.02840283333333, "fusion_lat": 0.0}, {"is_reserved": 0, "bike_id": "ee2ad3269ef107dd830426af2738f7eb", "type": "electric_scooter", "name": "ee2ad3269ef107dd830426af2738f7eb", "is_disabled": 0, "fusion_lon": 0.0, "rental_uris": {"android": "https://dc.lft.to/lastmile_qr_scan", "ios": "https://dc.lft.to/lastmile_qr_scan"}, "lat": 38.92077283333333, "lon": -77.03153683333333, "fusion_lat": 0.0}, {"is_reserved": 0, "bike_id": "dbfc964047d631bfd720ae1b44ebb88c", "type": "electric_scooter", "name": "dbfc964047d631bfd720ae1b44ebb88c", "is_disabled": 0, "fusion_lon": 0.0, "rental_uris": {"android": "https://dc.lft.to/lastmile_qr_scan", "ios": "https://dc.lft.to/lastmile_qr_scan"}, "lat": 38.9352135, "lon": -77.03689383333334, "fusion_lat": 0.0}, {"is_reserved": 0, "bike_id": "a744f15fc40c8b47175396fcba544bb6", "type": "electric_scooter", "name": "a744f15fc40c8b47175396fcba544bb6", "is_disabled": 0, "fusion_lon": 0.0, "rental_uris": {"android": "https://dc.lft.to/lastmile_qr_scan", "ios": "https://dc.lft.to/lastmile_qr_scan"}, "lat": 38.92289616666667, "lon": -77.04289633333333, "fusion_lat": 0.0}, {"is_reserved": 0, "bike_id": "373fc92c6a3c1969e851b199b7d6c9ce", "type": "electric_scooter", "name": "373fc92c6a3c1969e851b199b7d6c9ce", "is_disabled": 0, "fusion_lon": 0.0, "rental_uris": {"android": "https://dc.lft.to/lastmile_qr_scan", "ios": "https://dc.lft.to/lastmile_qr_scan"}, "lat": 38.902992, "lon": -77.030497, "fusion_lat": 0.0}, {"is_reserved": 0, "bike_id": "95b84d0b9e4f0486c7e1de5addcb6dc2", "type": "electric_scooter", "name": "95b84d0b9e4f0486c7e1de5addcb6dc2", "is_disabled": 0, "fusion_lon": 0.0, "rental_uris": {"android": "https://dc.lft.to/lastmile_qr_scan", "ios": "https://dc.lft.to/lastmile_qr_scan"}, "lat": 38.93725416666667, "lon": -77.01910883333333, "fusion_lat": 0.0}, {"is_reserved": 0, "bike_id": "133b4a5d27d5c0e40850fca509c1abf2", "type": "electric_scooter", "name": "133b4a5d27d5c0e40850fca509c1abf2", "is_disabled": 0, "fusion_lon": 0.0, "rental_uris": {"android": "https://dc.lft.to/lastmile_qr_scan", "ios": "https://dc.lft.to/lastmile_qr_scan"}, "lat": 38.89527233333333, "lon": -77.033481, "fusion_lat": 0.0}, {"is_reserved": 0, "bike_id": "7d03db7ca8cf7a1e891236ad87e8efbf", "type": "electric_scooter", "name": "7d03db7ca8cf7a1e891236ad87e8efbf", "is_disabled": 0, "fusion_lon": 0.0, "rental_uris": {"android": "https://dc.lft.to/lastmile_qr_scan", "ios": "https://dc.lft.to/lastmile_qr_scan"}, "lat": 38.91816133333333, "lon": -77.024769, "fusion_lat": 0.0}, {"is_reserved": 0, "bike_id": "9294418eadfc11bc4a95b89ab93592a4", "type": "electric_scooter", "name": "9294418eadfc11bc4a95b89ab93592a4", "is_disabled": 0, "fusion_lon": 0.0, "rental_uris": {"android": "https://dc.lft.to/lastmile_qr_scan", "ios": "https://dc.lft.to/lastmile_qr_scan"}, "lat": 38.91627066666667, "lon": -77.0223425, "fusion_lat": 0.0}, {"is_reserved": 0, "bike_id": "79ffc415e0d5d67aa38cbe459cbe7a97", "type": "electric_scooter", "name": "79ffc415e0d5d67aa38cbe459cbe7a97", "is_disabled": 0, "fusion_lon": 0.0, "rental_uris": {"android": "https://dc.lft.to/lastmile_qr_scan", "ios": "https://dc.lft.to/lastmile_qr_scan"}, "lat": 38.9025645, "lon": -77.0615805, "fusion_lat": 0.0}, {"is_reserved": 0, "bike_id": "1f57e1a92fed107d2056c64d1c0974f3", "type": "electric_scooter", "name": "1f57e1a92fed107d2056c64d1c0974f3", "is_disabled": 0, "fusion_lon": 0.0, "rental_uris": {"android": "https://dc.lft.to/lastmile_qr_scan", "ios": "https://dc.lft.to/lastmile_qr_scan"}, "lat": 38.90304283333333, "lon": -77.03678416666666, "fusion_lat": 0.0}, {"is_reserved": 0, "bike_id": "551bcb084a71ab98417895f105abb333", "type": "electric_scooter", "name": "551bcb084a71ab98417895f105abb333", "is_disabled": 0, "fusion_lon": 0.0, "rental_uris": {"android": "https://dc.lft.to/lastmile_qr_scan", "ios": "https://dc.lft.to/lastmile_qr_scan"}, "lat": 38.8919165, "lon": -76.98839333333333, "fusion_lat": 0.0}, {"is_reserved": 0, "bike_id": "5675fa93a5d7e6b6b981802ddb4754bc", "type": "electric_scooter", "name": "5675fa93a5d7e6b6b981802ddb4754bc", "is_disabled": 0, "fusion_lon": 0.0, "rental_uris": {"android": "https://dc.lft.to/lastmile_qr_scan", "ios": "https://dc.lft.to/lastmile_qr_scan"}, "lat": 38.91004133333333, "lon": -77.04012233333333, "fusion_lat": 0.0}, {"is_reserved": 0, "bike_id": "60ee68a903b771cf2047b5a1944139a0", "type": "electric_scooter", "name": "60ee68a903b771cf2047b5a1944139a0", "is_disabled": 0, "fusion_lon": 0.0, "rental_uris": {"android": "https://dc.lft.to/lastmile_qr_scan", "ios": "https://dc.lft.to/lastmile_qr_scan"}, "lat": 38.938285, "lon": -76.9861625, "fusion_lat": 0.0}, {"is_reserved": 0, "bike_id": "883541a5d83767071af562735857e558", "type": "electric_scooter", "name": "883541a5d83767071af562735857e558", "is_disabled": 0, "fusion_lon": 0.0, "rental_uris": {"android": "https://dc.lft.to/lastmile_qr_scan", "ios": "https://dc.lft.to/lastmile_qr_scan"}, "lat": 38.88122666666667, "lon": -77.01659733333334, "fusion_lat": 0.0}, {"is_reserved": 0, "bike_id": "a5e6a894f296e0514fa5f52492fd0236", "type": "electric_scooter", "name": "a5e6a894f296e0514fa5f52492fd0236", "is_disabled": 0, "fusion_lon": 0.0, "rental_uris": {"android": "https://dc.lft.to/lastmile_qr_scan", "ios": "https://dc.lft.to/lastmile_qr_scan"}, "lat": 38.87894083333333, "lon": -77.0138725, "fusion_lat": 0.0}, {"is_reserved": 0, "bike_id": "644b02ad29975191a7237dd4fc045d64", "type": "electric_scooter", "name": "644b02ad29975191a7237dd4fc045d64", "is_disabled": 0, "fusion_lon": 0.0, "rental_uris": {"android": "https://dc.lft.to/lastmile_qr_scan", "ios": "https://dc.lft.to/lastmile_qr_scan"}, "lat": 38.9194105, "lon": -77.0180145, "fusion_lat": 0.0}, {"is_reserved": 0, "bike_id": "e652c86b85ff7fab8568b18889978f87", "type": "electric_scooter", "name": "e652c86b85ff7fab8568b18889978f87", "is_disabled": 0, "fusion_lon": 0.0, "rental_uris": {"android": "https://dc.lft.to/lastmile_qr_scan", "ios": "https://dc.lft.to/lastmile_qr_scan"}, "lat": 38.92500066666667, "lon": -77.05254816666667, "fusion_lat": 0.0}, {"is_reserved": 0, "bike_id": "a4e961931f1b8f3f1ccb862d9c9d2456", "type": "electric_bike", "name": "a4e961931f1b8f3f1ccb862d9c9d2456", "is_disabled": 0, "fusion_lon": 0.0, "rental_uris": {"android": "https://dc.lft.to/lastmile_qr_scan", "ios": "https://dc.lft.to/lastmile_qr_scan"}, "lat": 38.86486516666667, "lon": -76.9774375, "fusion_lat": 0.0}, {"is_reserved": 0, "bike_id": "698ad41f5dee846c771c4615d6633b31", "type": "electric_scooter", "name": "698ad41f5dee846c771c4615d6633b31", "is_disabled": 0, "fusion_lon": 0.0, "rental_uris": {"android": "https://dc.lft.to/lastmile_qr_scan", "ios": "https://dc.lft.to/lastmile_qr_scan"}, "lat": 38.8760875, "lon": -77.02080316666667, "fusion_lat": 0.0}, {"is_reserved": 0, "bike_id": "0574a97f6300fe892aff8284023963ee", "type": "electric_scooter", "name": "0574a97f6300fe892aff8284023963ee", "is_disabled": 0, "fusion_lon": 0.0, "rental_uris": {"android": "https://dc.lft.to/lastmile_qr_scan", "ios": "https://dc.lft.to/lastmile_qr_scan"}, "lat": 38.88426583333333, "lon": -77.00138566666666, "fusion_lat": 0.0}, {"is_reserved": 0, "bike_id": "26208a275fe55356debdef17b9397597", "type": "electric_scooter", "name": "26208a275fe55356debdef17b9397597", "is_disabled": 0, "fusion_lon": 0.0, "rental_uris": {"android": "https://dc.lft.to/lastmile_qr_scan", "ios": "https://dc.lft.to/lastmile_qr_scan"}, "lat": 38.8916345, "lon": -76.9914905, "fusion_lat": 0.0}, {"is_reserved": 0, "bike_id": "8e6ff90230055728b2a950cb58c72572", "type": "electric_scooter", "name": "8e6ff90230055728b2a950cb58c72572", "is_disabled": 0, "fusion_lon": 0.0, "rental_uris": {"android": "https://dc.lft.to/lastmile_qr_scan", "ios": "https://dc.lft.to/lastmile_qr_scan"}, "lat": 38.89929216666667, "lon": -76.94581966666667, "fusion_lat": 0.0}, {"is_reserved": 0, "bike_id": "cb80f08c4c8ebfb579c540dc42ca7478", "type": "electric_scooter", "name": "cb80f08c4c8ebfb579c540dc42ca7478", "is_disabled": 0, "fusion_lon": 0.0, "rental_uris": {"android": "https://dc.lft.to/lastmile_qr_scan", "ios": "https://dc.lft.to/lastmile_qr_scan"}, "lat": 38.91533883333334, "lon": -77.04472966666667, "fusion_lat": 0.0}, {"is_reserved": 0, "bike_id": "f7ae6332c7ec2ce4408b30286a39a210", "type": "electric_scooter", "name": "f7ae6332c7ec2ce4408b30286a39a210", "is_disabled": 0, "fusion_lon": 0.0, "rental_uris": {"android": "https://dc.lft.to/lastmile_qr_scan", "ios": "https://dc.lft.to/lastmile_qr_scan"}, "lat": 38.90377566666667, "lon": -77.008838, "fusion_lat": 0.0}, {"is_reserved": 0, "bike_id": "1d907988bb8fd7054fc0388b9ae1be82", "type": "electric_bike", "name": "1d907988bb8fd7054fc0388b9ae1be82", "is_disabled": 0, "fusion_lon": 0.0, "rental_uris": {"android": "https://dc.lft.to/lastmile_qr_scan", "ios": "https://dc.lft.to/lastmile_qr_scan"}, "lat": 38.8956515, "lon": -77.12738283333333, "fusion_lat": 0.0}, {"is_reserved": 0, "bike_id": "496f5192aec5b4a1ec5af83fea512cd9", "type": "electric_scooter", "name": "496f5192aec5b4a1ec5af83fea512cd9", "is_disabled": 0, "fusion_lon": 0.0, "rental_uris": {"android": "https://dc.lft.to/lastmile_qr_scan", "ios": "https://dc.lft.to/lastmile_qr_scan"}, "lat": 38.89200366666667, "lon": -77.02383633333334, "fusion_lat": 0.0}, {"is_reserved": 0, "bike_id": "418862be3739e3d5cca446de355c732d", "type": "electric_bike", "name": "418862be3739e3d5cca446de355c732d", "is_disabled": 0, "fusion_lon": 0.0, "rental_uris": {"android": "https://dc.lft.to/lastmile_qr_scan", "ios": "https://dc.lft.to/lastmile_qr_scan"}, "lat": 38.911193833333336, "lon": -77.04475583333334, "fusion_lat": 0.0}, {"is_reserved": 0, "bike_id": "fde23862c374495cc26b5d3510b9cff5", "type": "electric_scooter", "name": "fde23862c374495cc26b5d3510b9cff5", "is_disabled": 0, "fusion_lon": 0.0, "rental_uris": {"android": "https://dc.lft.to/lastmile_qr_scan", "ios": "https://dc.lft.to/lastmile_qr_scan"}, "lat": 38.89777133333333, "lon": -77.00925433333333, "fusion_lat": 0.0}, {"is_reserved": 0, "bike_id": "18a7e30af0a9a588ca5c0830ff99e8f2", "type": "electric_bike", "name": "18a7e30af0a9a588ca5c0830ff99e8f2", "is_disabled": 0, "fusion_lon": 0.0, "rental_uris": {"android": "https://dc.lft.to/lastmile_qr_scan", "ios": "https://dc.lft.to/lastmile_qr_scan"}, "lat": 38.9552785, "lon": -76.956766, "fusion_lat": 0.0}, {"is_reserved": 0, "bike_id": "1a332475fdc2ccd0be380c3f3bde388f", "type": "electric_scooter", "name": "1a332475fdc2ccd0be380c3f3bde388f", "is_disabled": 0, "fusion_lon": 0.0, "rental_uris": {"android": "https://dc.lft.to/lastmile_qr_scan", "ios": "https://dc.lft.to/lastmile_qr_scan"}, "lat": 38.90128633333333, "lon": -77.045425, "fusion_lat": 0.0}, {"is_reserved": 0, "bike_id": "8d0f79d58e2e1ee13256c0cb6d0f8d18", "type": "electric_scooter", "name": "8d0f79d58e2e1ee13256c0cb6d0f8d18", "is_disabled": 0, "fusion_lon": 0.0, "rental_uris": {"android": "https://dc.lft.to/lastmile_qr_scan", "ios": "https://dc.lft.to/lastmile_qr_scan"}, "lat": 38.91968333333333, "lon": -77.03187533333333, "fusion_lat": 0.0}, {"is_reserved": 0, "bike_id": "4ce3cdeb5a86291cc28190fdf2c0065c", "type": "electric_scooter", "name": "4ce3cdeb5a86291cc28190fdf2c0065c", "is_disabled": 0, "fusion_lon": 0.0, "rental_uris": {"android": "https://dc.lft.to/lastmile_qr_scan", "ios": "https://dc.lft.to/lastmile_qr_scan"}, "lat": 38.90213583333333, "lon": -77.04832366666666, "fusion_lat": 0.0}, {"is_reserved": 0, "bike_id": "a3a197c4023de5d3598370e909ddb229", "type": "electric_bike", "name": "a3a197c4023de5d3598370e909ddb229", "is_disabled": 0, "fusion_lon": 0.0, "rental_uris": {"android": "https://dc.lft.to/lastmile_qr_scan", "ios": "https://dc.lft.to/lastmile_qr_scan"}, "lat": 39.0262445, "lon": -77.03878583333334, "fusion_lat": 0.0}, {"is_reserved": 0, "bike_id": "3f5594dca066cc051d578a69742cfce0", "type": "electric_scooter", "name": "3f5594dca066cc051d578a69742cfce0", "is_disabled": 0, "fusion_lon": 0.0, "rental_uris": {"android": "https://dc.lft.to/lastmile_qr_scan", "ios": "https://dc.lft.to/lastmile_qr_scan"}, "lat": 38.90637816666667, "lon": -77.02963333333334, "fusion_lat": 0.0}, {"is_reserved": 0, "bike_id": "ed2871f26265bbad6387d8550ba4653b", "type": "electric_scooter", "name": "ed2871f26265bbad6387d8550ba4653b", "is_disabled": 0, "fusion_lon": 0.0, "rental_uris": {"android": "https://dc.lft.to/lastmile_qr_scan", "ios": "https://dc.lft.to/lastmile_qr_scan"}, "lat": 38.8988605, "lon": -77.0395385, "fusion_lat": 0.0}, {"is_reserved": 0, "bike_id": "7778bcaf1500ee54432a40a339f988f9", "type": "electric_scooter", "name": "7778bcaf1500ee54432a40a339f988f9", "is_disabled": 0, "fusion_lon": 0.0, "rental_uris": {"android": "https://dc.lft.to/lastmile_qr_scan", "ios": "https://dc.lft.to/lastmile_qr_scan"}, "lat": 38.935143, "lon": -77.0328605, "fusion_lat": 0.0}, {"is_reserved": 0, "bike_id": "cf266001055b15a8dddc81c8ee406eb2", "type": "electric_bike", "name": "cf266001055b15a8dddc81c8ee406eb2", "is_disabled": 0, "fusion_lon": 0.0, "rental_uris": {"android": "https://dc.lft.to/lastmile_qr_scan", "ios": "https://dc.lft.to/lastmile_qr_scan"}, "lat": 38.90967633333333, "lon": -77.08822683333334, "fusion_lat": 0.0}, {"is_reserved": 0, "bike_id": "afd256bcfb2021e3adbc5aa3e1deff0d", "type": "electric_scooter", "name": "afd256bcfb2021e3adbc5aa3e1deff0d", "is_disabled": 0, "fusion_lon": 0.0, "rental_uris": {"android": "https://dc.lft.to/lastmile_qr_scan", "ios": "https://dc.lft.to/lastmile_qr_scan"}, "lat": 38.908252833333336, "lon": -77.04353466666667, "fusion_lat": 0.0}, {"is_reserved": 0, "bike_id": "44611011ff5e835e7e12a499f922a7e3", "type": "electric_scooter", "name": "44611011ff5e835e7e12a499f922a7e3", "is_disabled": 0, "fusion_lon": 0.0, "rental_uris": {"android": "https://dc.lft.to/lastmile_qr_scan", "ios": "https://dc.lft.to/lastmile_qr_scan"}, "lat": 38.921480333333335, "lon": -77.0337345, "fusion_lat": 0.0}, {"is_reserved": 0, "bike_id": "7e710d70d7b640837002d39bbfeaec88", "type": "electric_scooter", "name": "7e710d70d7b640837002d39bbfeaec88", "is_disabled": 0, "fusion_lon": 0.0, "rental_uris": {"android": "https://dc.lft.to/lastmile_qr_scan", "ios": "https://dc.lft.to/lastmile_qr_scan"}, "lat": 38.886453833333334, "lon": -77.00099516666667, "fusion_lat": 0.0}, {"is_reserved": 0, "bike_id": "ff7bc54401009d17df2640f3262339a9", "type": "electric_scooter", "name": "ff7bc54401009d17df2640f3262339a9", "is_disabled": 0, "fusion_lon": 0.0, "rental_uris": {"android": "https://dc.lft.to/lastmile_qr_scan", "ios": "https://dc.lft.to/lastmile_qr_scan"}, "lat": 38.92196883333333, "lon": -77.03520333333333, "fusion_lat": 0.0}, {"is_reserved": 0, "bike_id": "254ab73414decf4edf1f0022a33576ac", "type": "electric_scooter", "name": "254ab73414decf4edf1f0022a33576ac", "is_disabled": 0, "fusion_lon": 0.0, "rental_uris": {"android": "https://dc.lft.to/lastmile_qr_scan", "ios": "https://dc.lft.to/lastmile_qr_scan"}, "lat": 38.9581145, "lon": -77.01452333333333, "fusion_lat": 0.0}, {"is_reserved": 0, "bike_id": "d7e48f4693b23a6fa65dadc16fed7d7b", "type": "electric_bike", "name": "d7e48f4693b23a6fa65dadc16fed7d7b", "is_disabled": 0, "fusion_lon": 0.0, "rental_uris": {"android": "https://dc.lft.to/lastmile_qr_scan", "ios": "https://dc.lft.to/lastmile_qr_scan"}, "lat": 38.83140066666667, "lon": -77.11323066666667, "fusion_lat": 0.0}, {"is_reserved": 0, "bike_id": "063716e79ff63ed299b4b07fdb06133d", "type": "electric_scooter", "name": "063716e79ff63ed299b4b07fdb06133d", "is_disabled": 0, "fusion_lon": 0.0, "rental_uris": {"android": "https://dc.lft.to/lastmile_qr_scan", "ios": "https://dc.lft.to/lastmile_qr_scan"}, "lat": 38.90127833333333, "lon": -77.04339416666667, "fusion_lat": 0.0}, {"is_reserved": 0, "bike_id": "58e390781f881cd4e6555499c201b0a9", "type": "electric_scooter", "name": "58e390781f881cd4e6555499c201b0a9", "is_disabled": 0, "fusion_lon": 0.0, "rental_uris": {"android": "https://dc.lft.to/lastmile_qr_scan", "ios": "https://dc.lft.to/lastmile_qr_scan"}, "lat": 38.92095616666667, "lon": -77.02238666666666, "fusion_lat": 0.0}, {"is_reserved": 0, "bike_id": "010a777f71b930d8ce1522e522cb2a46", "type": "electric_scooter", "name": "010a777f71b930d8ce1522e522cb2a46", "is_disabled": 0, "fusion_lon": 0.0, "rental_uris": {"android": "https://dc.lft.to/lastmile_qr_scan", "ios": "https://dc.lft.to/lastmile_qr_scan"}, "lat": 38.90014133333333, "lon": -77.02293283333333, "fusion_lat": 0.0}, {"is_reserved": 0, "bike_id": "f2b92b9b8edb9f266281806b9d31d2ef", "type": "electric_scooter", "name": "f2b92b9b8edb9f266281806b9d31d2ef", "is_disabled": 0, "fusion_lon": 0.0, "rental_uris": {"android": "https://dc.lft.to/lastmile_qr_scan", "ios": "https://dc.lft.to/lastmile_qr_scan"}, "lat": 38.9353335, "lon": -77.02353116666667, "fusion_lat": 0.0}, {"is_reserved": 0, "bike_id": "434447464a431150e1c22a9b0ca0b86d", "type": "electric_scooter", "name": "434447464a431150e1c22a9b0ca0b86d", "is_disabled": 0, "fusion_lon": 0.0, "rental_uris": {"android": "https://dc.lft.to/lastmile_qr_scan", "ios": "https://dc.lft.to/lastmile_qr_scan"}, "lat": 38.90978783333333, "lon": -77.0090735, "fusion_lat": 0.0}, {"is_reserved": 0, "bike_id": "05856d0488c0779f33003d7fca78ff69", "type": "electric_bike", "name": "05856d0488c0779f33003d7fca78ff69", "is_disabled": 0, "fusion_lon": 0.0, "rental_uris": {"android": "https://dc.lft.to/lastmile_qr_scan", "ios": "https://dc.lft.to/lastmile_qr_scan"}, "lat": 38.83831683333333, "lon": -77.07915366666667, "fusion_lat": 0.0}, {"is_reserved": 0, "bike_id": "26677bb58715985f07037fcb97259904", "type": "electric_bike", "name": "26677bb58715985f07037fcb97259904", "is_disabled": 0, "fusion_lon": 0.0, "rental_uris": {"android": "https://dc.lft.to/lastmile_qr_scan", "ios": "https://dc.lft.to/lastmile_qr_scan"}, "lat": 38.92893616666667, "lon": -77.2317665, "fusion_lat": 0.0}, {"is_reserved": 0, "bike_id": "d0c49da6192011d5625f80687b8f32bc", "type": "electric_scooter", "name": "d0c49da6192011d5625f80687b8f32bc", "is_disabled": 0, "fusion_lon": 0.0, "rental_uris": {"android": "https://dc.lft.to/lastmile_qr_scan", "ios": "https://dc.lft.to/lastmile_qr_scan"}, "lat": 38.91817866666667, "lon": -77.04171366666667, "fusion_lat": 0.0}, {"is_reserved": 0, "bike_id": "6eccff8fdcf0a1f9705c998180f2e191", "type": "electric_scooter", "name": "6eccff8fdcf0a1f9705c998180f2e191", "is_disabled": 0, "fusion_lon": 0.0, "rental_uris": {"android": "https://dc.lft.to/lastmile_qr_scan", "ios": "https://dc.lft.to/lastmile_qr_scan"}, "lat": 38.92650666666667, "lon": -77.037117, "fusion_lat": 0.0}, {"is_reserved": 0, "bike_id": "4dc7f915b156a786780c9c8082e7f973", "type": "electric_scooter", "name": "4dc7f915b156a786780c9c8082e7f973", "is_disabled": 0, "fusion_lon": 0.0, "rental_uris": {"android": "https://dc.lft.to/lastmile_qr_scan", "ios": "https://dc.lft.to/lastmile_qr_scan"}, "lat": 38.92253983333333, "lon": -77.03074266666667, "fusion_lat": 0.0}, {"is_reserved": 0, "bike_id": "830766d11f88dc07395dafac108cab97", "type": "electric_scooter", "name": "830766d11f88dc07395dafac108cab97", "is_disabled": 0, "fusion_lon": 0.0, "rental_uris": {"android": "https://dc.lft.to/lastmile_qr_scan", "ios": "https://dc.lft.to/lastmile_qr_scan"}, "lat": 38.93607316666667, "lon": -77.05895116666667, "fusion_lat": 0.0}, {"is_reserved": 0, "bike_id": "d619b24b8f90279d96a9ef944fd7460f", "type": "electric_scooter", "name": "d619b24b8f90279d96a9ef944fd7460f", "is_disabled": 0, "fusion_lon": 0.0, "rental_uris": {"android": "https://dc.lft.to/lastmile_qr_scan", "ios": "https://dc.lft.to/lastmile_qr_scan"}, "lat": 38.927632333333335, "lon": -77.02784083333333, "fusion_lat": 0.0}, {"is_reserved": 0, "bike_id": "bfb8548165ae3a8e94bb89fc0c2f412a", "type": "electric_scooter", "name": "bfb8548165ae3a8e94bb89fc0c2f412a", "is_disabled": 0, "fusion_lon": 0.0, "rental_uris": {"android": "https://dc.lft.to/lastmile_qr_scan", "ios": "https://dc.lft.to/lastmile_qr_scan"}, "lat": 38.911178166666666, "lon": -77.03826016666666, "fusion_lat": 0.0}, {"is_reserved": 0, "bike_id": "3f8438d260df5b921be1bab86f33b214", "type": "electric_scooter", "name": "3f8438d260df5b921be1bab86f33b214", "is_disabled": 0, "fusion_lon": 0.0, "rental_uris": {"android": "https://dc.lft.to/lastmile_qr_scan", "ios": "https://dc.lft.to/lastmile_qr_scan"}, "lat": 38.91609583333333, "lon": -77.02205983333333, "fusion_lat": 0.0}, {"is_reserved": 0, "bike_id": "518e5b7bcf4ec6c2668d5315aaaf25e8", "type": "electric_scooter", "name": "518e5b7bcf4ec6c2668d5315aaaf25e8", "is_disabled": 0, "fusion_lon": 0.0, "rental_uris": {"android": "https://dc.lft.to/lastmile_qr_scan", "ios": "https://dc.lft.to/lastmile_qr_scan"}, "lat": 38.9202215, "lon": -76.9956425, "fusion_lat": 0.0}, {"is_reserved": 0, "bike_id": "ea79d53941f030be9824e154edc6620a", "type": "electric_scooter", "name": "ea79d53941f030be9824e154edc6620a", "is_disabled": 0, "fusion_lon": 0.0, "rental_uris": {"android": "https://dc.lft.to/lastmile_qr_scan", "ios": "https://dc.lft.to/lastmile_qr_scan"}, "lat": 38.9073255, "lon": -77.02949883333334, "fusion_lat": 0.0}, {"is_reserved": 0, "bike_id": "9df7ba2c6b9cf0f6823a7539d5c93c54", "type": "electric_scooter", "name": "9df7ba2c6b9cf0f6823a7539d5c93c54", "is_disabled": 0, "fusion_lon": 0.0, "rental_uris": {"android": "https://dc.lft.to/lastmile_qr_scan", "ios": "https://dc.lft.to/lastmile_qr_scan"}, "lat": 38.899615, "lon": -77.04884483333333, "fusion_lat": 0.0}, {"is_reserved": 0, "bike_id": "51944976f520eb9c4a29aeda76aa8046", "type": "electric_scooter", "name": "51944976f520eb9c4a29aeda76aa8046", "is_disabled": 0, "fusion_lon": 0.0, "rental_uris": {"android": "https://dc.lft.to/lastmile_qr_scan", "ios": "https://dc.lft.to/lastmile_qr_scan"}, "lat": 38.918144166666664, "lon": -77.02476516666667, "fusion_lat": 0.0}, {"is_reserved": 0, "bike_id": "ed149be373bf9af397dae234c97be4e5", "type": "electric_scooter", "name": "ed149be373bf9af397dae234c97be4e5", "is_disabled": 0, "fusion_lon": 0.0, "rental_uris": {"android": "https://dc.lft.to/lastmile_qr_scan", "ios": "https://dc.lft.to/lastmile_qr_scan"}, "lat": 38.89869783333333, "lon": -76.946663, "fusion_lat": 0.0}, {"is_reserved": 0, "bike_id": "3aff16b648f87b4b162e044766facb78", "type": "electric_scooter", "name": "3aff16b648f87b4b162e044766facb78", "is_disabled": 0, "fusion_lon": 0.0, "rental_uris": {"android": "https://dc.lft.to/lastmile_qr_scan", "ios": "https://dc.lft.to/lastmile_qr_scan"}, "lat": 38.86882466666667, "lon": -76.9823025, "fusion_lat": 0.0}, {"is_reserved": 0, "bike_id": "c6367b3089763cb7b6282b63390f9833", "type": "electric_scooter", "name": "c6367b3089763cb7b6282b63390f9833", "is_disabled": 0, "fusion_lon": 0.0, "rental_uris": {"android": "https://dc.lft.to/lastmile_qr_scan", "ios": "https://dc.lft.to/lastmile_qr_scan"}, "lat": 38.90498733333333, "lon": -77.02600216666667, "fusion_lat": 0.0}, {"is_reserved": 0, "bike_id": "38744cd5e3753fbcf9d30e63e5f7d485", "type": "electric_scooter", "name": "38744cd5e3753fbcf9d30e63e5f7d485", "is_disabled": 0, "fusion_lon": 0.0, "rental_uris": {"android": "https://dc.lft.to/lastmile_qr_scan", "ios": "https://dc.lft.to/lastmile_qr_scan"}, "lat": 38.91534983333333, "lon": -77.044687, "fusion_lat": 0.0}, {"is_reserved": 0, "bike_id": "1d519904cc61a27c1a687de06a27b0ef", "type": "electric_scooter", "name": "1d519904cc61a27c1a687de06a27b0ef", "is_disabled": 0, "fusion_lon": 0.0, "rental_uris": {"android": "https://dc.lft.to/lastmile_qr_scan", "ios": "https://dc.lft.to/lastmile_qr_scan"}, "lat": 38.92023783333333, "lon": -77.031231, "fusion_lat": 0.0}, {"is_reserved": 0, "bike_id": "180f7e0d31c5270e261b6af93045f4ca", "type": "electric_scooter", "name": "180f7e0d31c5270e261b6af93045f4ca", "is_disabled": 0, "fusion_lon": 0.0, "rental_uris": {"android": "https://dc.lft.to/lastmile_qr_scan", "ios": "https://dc.lft.to/lastmile_qr_scan"}, "lat": 38.92055416666667, "lon": -77.02586666666667, "fusion_lat": 0.0}, {"is_reserved": 0, "bike_id": "07d0ede307efb05a0affbc9c46b074a3", "type": "electric_scooter", "name": "07d0ede307efb05a0affbc9c46b074a3", "is_disabled": 0, "fusion_lon": 0.0, "rental_uris": {"android": "https://dc.lft.to/lastmile_qr_scan", "ios": "https://dc.lft.to/lastmile_qr_scan"}, "lat": 38.9462285, "lon": -77.03060166666667, "fusion_lat": 0.0}, {"is_reserved": 0, "bike_id": "0bf128d7d108299c0b5f6034744df5d4", "type": "electric_scooter", "name": "0bf128d7d108299c0b5f6034744df5d4", "is_disabled": 0, "fusion_lon": 0.0, "rental_uris": {"android": "https://dc.lft.to/lastmile_qr_scan", "ios": "https://dc.lft.to/lastmile_qr_scan"}, "lat": 38.911935166666666, "lon": -77.0375555, "fusion_lat": 0.0}, {"is_reserved": 0, "bike_id": "6780cee612c20379f22c04d80d4de053", "type": "electric_scooter", "name": "6780cee612c20379f22c04d80d4de053", "is_disabled": 0, "fusion_lon": 0.0, "rental_uris": {"android": "https://dc.lft.to/lastmile_qr_scan", "ios": "https://dc.lft.to/lastmile_qr_scan"}, "lat": 38.9019365, "lon": -77.02176033333333, "fusion_lat": 0.0}, {"is_reserved": 0, "bike_id": "0090616657fc60ee33dbb56e251b5b4c", "type": "electric_scooter", "name": "0090616657fc60ee33dbb56e251b5b4c", "is_disabled": 0, "fusion_lon": 0.0, "rental_uris": {"android": "https://dc.lft.to/lastmile_qr_scan", "ios": "https://dc.lft.to/lastmile_qr_scan"}, "lat": 38.92611133333333, "lon": -77.0571155, "fusion_lat": 0.0}, {"is_reserved": 0, "bike_id": "dd6d72750157760c82459e7a9050daf0", "type": "electric_scooter", "name": "dd6d72750157760c82459e7a9050daf0", "is_disabled": 0, "fusion_lon": 0.0, "rental_uris": {"android": "https://dc.lft.to/lastmile_qr_scan", "ios": "https://dc.lft.to/lastmile_qr_scan"}, "lat": 38.926906333333335, "lon": -77.0257365, "fusion_lat": 0.0}, {"is_reserved": 0, "bike_id": "afb63708fbf93c7078eb75bd9c4a40f2", "type": "electric_scooter", "name": "afb63708fbf93c7078eb75bd9c4a40f2", "is_disabled": 0, "fusion_lon": 0.0, "rental_uris": {"android": "https://dc.lft.to/lastmile_qr_scan", "ios": "https://dc.lft.to/lastmile_qr_scan"}, "lat": 38.9266385, "lon": -77.03731183333333, "fusion_lat": 0.0}, {"is_reserved": 0, "bike_id": "036ee8df07732af03eb01d8836bfc89d", "type": "electric_scooter", "name": "036ee8df07732af03eb01d8836bfc89d", "is_disabled": 0, "fusion_lon": 0.0, "rental_uris": {"android": "https://dc.lft.to/lastmile_qr_scan", "ios": "https://dc.lft.to/lastmile_qr_scan"}, "lat": 38.91695933333333, "lon": -77.01170783333333, "fusion_lat": 0.0}, {"is_reserved": 0, "bike_id": "cf33a9fd95e4ca8afcc936a5c6192bf2", "type": "electric_scooter", "name": "cf33a9fd95e4ca8afcc936a5c6192bf2", "is_disabled": 0, "fusion_lon": 0.0, "rental_uris": {"android": "https://dc.lft.to/lastmile_qr_scan", "ios": "https://dc.lft.to/lastmile_qr_scan"}, "lat": 38.935319666666665, "lon": -77.023552, "fusion_lat": 0.0}, {"is_reserved": 0, "bike_id": "4e82c39aa175853a38052ff69fede75a", "type": "electric_scooter", "name": "4e82c39aa175853a38052ff69fede75a", "is_disabled": 0, "fusion_lon": 0.0, "rental_uris": {"android": "https://dc.lft.to/lastmile_qr_scan", "ios": "https://dc.lft.to/lastmile_qr_scan"}, "lat": 38.918487166666665, "lon": -77.038867, "fusion_lat": 0.0}, {"is_reserved": 0, "bike_id": "3b93f7b11610837e94318e1fa8af21c0", "type": "electric_scooter", "name": "3b93f7b11610837e94318e1fa8af21c0", "is_disabled": 0, "fusion_lon": 0.0, "rental_uris": {"android": "https://dc.lft.to/lastmile_qr_scan", "ios": "https://dc.lft.to/lastmile_qr_scan"}, "lat": 38.892330666666666, "lon": -77.05003233333333, "fusion_lat": 0.0}, {"is_reserved": 0, "bike_id": "09b29ce5f969a23f7dd29a43d523fa08", "type": "electric_scooter", "name": "09b29ce5f969a23f7dd29a43d523fa08", "is_disabled": 0, "fusion_lon": 0.0, "rental_uris": {"android": "https://dc.lft.to/lastmile_qr_scan", "ios": "https://dc.lft.to/lastmile_qr_scan"}, "lat": 38.91404933333333, "lon": -77.0220745, "fusion_lat": 0.0}, {"is_reserved": 0, "bike_id": "01e3e9bded3a8055bf2b1bb2e13273b3", "type": "electric_scooter", "name": "01e3e9bded3a8055bf2b1bb2e13273b3", "is_disabled": 0, "fusion_lon": 0.0, "rental_uris": {"android": "https://dc.lft.to/lastmile_qr_scan", "ios": "https://dc.lft.to/lastmile_qr_scan"}, "lat": 38.918796666666665, "lon": -77.0446525, "fusion_lat": 0.0}, {"is_reserved": 0, "bike_id": "419f6e78090f95d0f4bba566cf546c60", "type": "electric_scooter", "name": "419f6e78090f95d0f4bba566cf546c60", "is_disabled": 0, "fusion_lon": 0.0, "rental_uris": {"android": "https://dc.lft.to/lastmile_qr_scan", "ios": "https://dc.lft.to/lastmile_qr_scan"}, "lat": 38.916385166666664, "lon": -77.0320715, "fusion_lat": 0.0}, {"is_reserved": 0, "bike_id": "96dda1dee4f3d2be589988ec9c6f4b5b", "type": "electric_bike", "name": "96dda1dee4f3d2be589988ec9c6f4b5b", "is_disabled": 0, "fusion_lon": 0.0, "rental_uris": {"android": "https://dc.lft.to/lastmile_qr_scan", "ios": "https://dc.lft.to/lastmile_qr_scan"}, "lat": 38.92038566666667, "lon": -77.00353133333333, "fusion_lat": 0.0}, {"is_reserved": 0, "bike_id": "4978f907a5a8778931fcbceb4f377769", "type": "electric_scooter", "name": "4978f907a5a8778931fcbceb4f377769", "is_disabled": 0, "fusion_lon": 0.0, "rental_uris": {"android": "https://dc.lft.to/lastmile_qr_scan", "ios": "https://dc.lft.to/lastmile_qr_scan"}, "lat": 38.9199645, "lon": -77.01777183333333, "fusion_lat": 0.0}, {"is_reserved": 0, "bike_id": "e8fd87034ca9567500928a99020031a8", "type": "electric_scooter", "name": "e8fd87034ca9567500928a99020031a8", "is_disabled": 0, "fusion_lon": 0.0, "rental_uris": {"android": "https://dc.lft.to/lastmile_qr_scan", "ios": "https://dc.lft.to/lastmile_qr_scan"}, "lat": 38.87366133333333, "lon": -77.00135083333333, "fusion_lat": 0.0}, {"is_reserved": 0, "bike_id": "86f2557d4f9139a4bdcae890f626c363", "type": "electric_scooter", "name": "86f2557d4f9139a4bdcae890f626c363", "is_disabled": 0, "fusion_lon": 0.0, "rental_uris": {"android": "https://dc.lft.to/lastmile_qr_scan", "ios": "https://dc.lft.to/lastmile_qr_scan"}, "lat": 38.902839166666666, "lon": -77.02847, "fusion_lat": 0.0}, {"is_reserved": 0, "bike_id": "f08ef4f74fafafea4d997e0eb5966f9b", "type": "electric_bike", "name": "f08ef4f74fafafea4d997e0eb5966f9b", "is_disabled": 0, "fusion_lon": 0.0, "rental_uris": {"android": "https://dc.lft.to/lastmile_qr_scan", "ios": "https://dc.lft.to/lastmile_qr_scan"}, "lat": 39.03424116666667, "lon": -77.04294183333333, "fusion_lat": 0.0}, {"is_reserved": 0, "bike_id": "a234e7e3688272f1f7d60a3b16b2d268", "type": "electric_scooter", "name": "a234e7e3688272f1f7d60a3b16b2d268", "is_disabled": 0, "fusion_lon": 0.0, "rental_uris": {"android": "https://dc.lft.to/lastmile_qr_scan", "ios": "https://dc.lft.to/lastmile_qr_scan"}, "lat": 38.90488416666667, "lon": -77.05159333333333, "fusion_lat": 0.0}, {"is_reserved": 0, "bike_id": "e0ebfe26aeb1899d057e7e75fea8b71b", "type": "electric_scooter", "name": "e0ebfe26aeb1899d057e7e75fea8b71b", "is_disabled": 0, "fusion_lon": 0.0, "rental_uris": {"android": "https://dc.lft.to/lastmile_qr_scan", "ios": "https://dc.lft.to/lastmile_qr_scan"}, "lat": 38.929096666666666, "lon": -77.018587, "fusion_lat": 0.0}, {"is_reserved": 0, "bike_id": "d625827888418f1413486a91284bf44e", "type": "electric_bike", "name": "d625827888418f1413486a91284bf44e", "is_disabled": 0, "fusion_lon": 0.0, "rental_uris": {"android": "https://dc.lft.to/lastmile_qr_scan", "ios": "https://dc.lft.to/lastmile_qr_scan"}, "lat": 38.922547333333334, "lon": -76.9831805, "fusion_lat": 0.0}, {"is_reserved": 0, "bike_id": "4ac8d94f844be43fd38a73f4049fb317", "type": "electric_scooter", "name": "4ac8d94f844be43fd38a73f4049fb317", "is_disabled": 0, "fusion_lon": 0.0, "rental_uris": {"android": "https://dc.lft.to/lastmile_qr_scan", "ios": "https://dc.lft.to/lastmile_qr_scan"}, "lat": 38.8996975, "lon": -77.01605, "fusion_lat": 0.0}, {"is_reserved": 0, "bike_id": "1313c90ab083ad4e52cc471c982f778d", "type": "electric_scooter", "name": "1313c90ab083ad4e52cc471c982f778d", "is_disabled": 0, "fusion_lon": 0.0, "rental_uris": {"android": "https://dc.lft.to/lastmile_qr_scan", "ios": "https://dc.lft.to/lastmile_qr_scan"}, "lat": 38.914845166666666, "lon": -77.02178233333333, "fusion_lat": 0.0}, {"is_reserved": 0, "bike_id": "fb15cf8f6fc98bf5f577a7984d1b6fc2", "type": "electric_scooter", "name": "fb15cf8f6fc98bf5f577a7984d1b6fc2", "is_disabled": 0, "fusion_lon": 0.0, "rental_uris": {"android": "https://dc.lft.to/lastmile_qr_scan", "ios": "https://dc.lft.to/lastmile_qr_scan"}, "lat": 38.911963666666665, "lon": -77.03176816666667, "fusion_lat": 0.0}, {"is_reserved": 0, "bike_id": "024a4fd0dafd6f2297adb753de5c6e93", "type": "electric_scooter", "name": "024a4fd0dafd6f2297adb753de5c6e93", "is_disabled": 0, "fusion_lon": 0.0, "rental_uris": {"android": "https://dc.lft.to/lastmile_qr_scan", "ios": "https://dc.lft.to/lastmile_qr_scan"}, "lat": 38.888737, "lon": -76.99037966666667, "fusion_lat": 0.0}, {"is_reserved": 0, "bike_id": "21b906b28e346d9f30ea5d5184f0d3c0", "type": "electric_scooter", "name": "21b906b28e346d9f30ea5d5184f0d3c0", "is_disabled": 0, "fusion_lon": 0.0, "rental_uris": {"android": "https://dc.lft.to/lastmile_qr_scan", "ios": "https://dc.lft.to/lastmile_qr_scan"}, "lat": 38.91549066666666, "lon": -77.0220785, "fusion_lat": 0.0}, {"is_reserved": 0, "bike_id": "d7f9defcc641768461991489d886b651", "type": "electric_scooter", "name": "d7f9defcc641768461991489d886b651", "is_disabled": 0, "fusion_lon": 0.0, "rental_uris": {"android": "https://dc.lft.to/lastmile_qr_scan", "ios": "https://dc.lft.to/lastmile_qr_scan"}, "lat": 38.89471866666667, "lon": -76.95837516666667, "fusion_lat": 0.0}, {"is_reserved": 0, "bike_id": "c8af5bcedaefd6aa8a5202571b09c978", "type": "electric_scooter", "name": "c8af5bcedaefd6aa8a5202571b09c978", "is_disabled": 0, "fusion_lon": 0.0, "rental_uris": {"android": "https://dc.lft.to/lastmile_qr_scan", "ios": "https://dc.lft.to/lastmile_qr_scan"}, "lat": 38.9284305, "lon": -77.02014266666667, "fusion_lat": 0.0}, {"is_reserved": 0, "bike_id": "da71289cc9fa8293fd70ce32a2d6d72f", "type": "electric_scooter", "name": "da71289cc9fa8293fd70ce32a2d6d72f", "is_disabled": 0, "fusion_lon": 0.0, "rental_uris": {"android": "https://dc.lft.to/lastmile_qr_scan", "ios": "https://dc.lft.to/lastmile_qr_scan"}, "lat": 38.897290166666664, "lon": -77.02704066666666, "fusion_lat": 0.0}, {"is_reserved": 0, "bike_id": "1c8ac6445d686693e6ea5c281f7e6fab", "type": "electric_scooter", "name": "1c8ac6445d686693e6ea5c281f7e6fab", "is_disabled": 0, "fusion_lon": 0.0, "rental_uris": {"android": "https://dc.lft.to/lastmile_qr_scan", "ios": "https://dc.lft.to/lastmile_qr_scan"}, "lat": 38.915766833333336, "lon": -77.03191966666667, "fusion_lat": 0.0}, {"is_reserved": 0, "bike_id": "d17641f58200920dfbb8f29ae280a14c", "type": "electric_scooter", "name": "d17641f58200920dfbb8f29ae280a14c", "is_disabled": 0, "fusion_lon": 0.0, "rental_uris": {"android": "https://dc.lft.to/lastmile_qr_scan", "ios": "https://dc.lft.to/lastmile_qr_scan"}, "lat": 38.900328, "lon": -77.0020025, "fusion_lat": 0.0}, {"is_reserved": 0, "bike_id": "1ee31a298e005edd3ed0867fce286f84", "type": "electric_scooter", "name": "1ee31a298e005edd3ed0867fce286f84", "is_disabled": 0, "fusion_lon": 0.0, "rental_uris": {"android": "https://dc.lft.to/lastmile_qr_scan", "ios": "https://dc.lft.to/lastmile_qr_scan"}, "lat": 38.907466, "lon": -77.0000345, "fusion_lat": 0.0}, {"is_reserved": 0, "bike_id": "ace3245fa0dce1eb949920d1dc4a75ab", "type": "electric_scooter", "name": "ace3245fa0dce1eb949920d1dc4a75ab", "is_disabled": 0, "fusion_lon": 0.0, "rental_uris": {"android": "https://dc.lft.to/lastmile_qr_scan", "ios": "https://dc.lft.to/lastmile_qr_scan"}, "lat": 38.90376216666667, "lon": -77.04311783333333, "fusion_lat": 0.0}, {"is_reserved": 0, "bike_id": "69eb60861c348f97b1cc6fc48eb35b39", "type": "electric_bike", "name": "69eb60861c348f97b1cc6fc48eb35b39", "is_disabled": 0, "fusion_lon": 0.0, "rental_uris": {"android": "https://dc.lft.to/lastmile_qr_scan", "ios": "https://dc.lft.to/lastmile_qr_scan"}, "lat": 38.926319166666666, "lon": -77.03321833333334, "fusion_lat": 0.0}, {"is_reserved": 0, "bike_id": "6bd3921ecbcb2d96c427a2fcf6d7c351", "type": "electric_scooter", "name": "6bd3921ecbcb2d96c427a2fcf6d7c351", "is_disabled": 0, "fusion_lon": 0.0, "rental_uris": {"android": "https://dc.lft.to/lastmile_qr_scan", "ios": "https://dc.lft.to/lastmile_qr_scan"}, "lat": 38.919892, "lon": -77.0180055, "fusion_lat": 0.0}, {"is_reserved": 0, "bike_id": "c98806d470f309a2cef97a8a6d838b6f", "type": "electric_scooter", "name": "c98806d470f309a2cef97a8a6d838b6f", "is_disabled": 0, "fusion_lon": 0.0, "rental_uris": {"android": "https://dc.lft.to/lastmile_qr_scan", "ios": "https://dc.lft.to/lastmile_qr_scan"}, "lat": 38.91455633333333, "lon": -77.02195466666667, "fusion_lat": 0.0}, {"is_reserved": 0, "bike_id": "14e712cb2afeb00cc7e9aa9d655d86c8", "type": "electric_scooter", "name": "14e712cb2afeb00cc7e9aa9d655d86c8", "is_disabled": 0, "fusion_lon": 0.0, "rental_uris": {"android": "https://dc.lft.to/lastmile_qr_scan", "ios": "https://dc.lft.to/lastmile_qr_scan"}, "lat": 38.91540916666667, "lon": -77.01227666666666, "fusion_lat": 0.0}, {"is_reserved": 0, "bike_id": "618d643a0228f68e3f5a32668fd094f5", "type": "electric_scooter", "name": "618d643a0228f68e3f5a32668fd094f5", "is_disabled": 0, "fusion_lon": 0.0, "rental_uris": {"android": "https://dc.lft.to/lastmile_qr_scan", "ios": "https://dc.lft.to/lastmile_qr_scan"}, "lat": 38.918363, "lon": -77.0343905, "fusion_lat": 0.0}, {"is_reserved": 0, "bike_id": "016299ab5a0af9a155b635028808db62", "type": "electric_scooter", "name": "016299ab5a0af9a155b635028808db62", "is_disabled": 0, "fusion_lon": 0.0, "rental_uris": {"android": "https://dc.lft.to/lastmile_qr_scan", "ios": "https://dc.lft.to/lastmile_qr_scan"}, "lat": 38.94062133333333, "lon": -77.03286016666667, "fusion_lat": 0.0}, {"is_reserved": 0, "bike_id": "3f6fb92cbd91eae514d7571c8aa9cbac", "type": "electric_scooter", "name": "3f6fb92cbd91eae514d7571c8aa9cbac", "is_disabled": 0, "fusion_lon": 0.0, "rental_uris": {"android": "https://dc.lft.to/lastmile_qr_scan", "ios": "https://dc.lft.to/lastmile_qr_scan"}, "lat": 38.906649, "lon": -76.986081, "fusion_lat": 0.0}, {"is_reserved": 0, "bike_id": "f2119aa65fb87a4d186bb9c16e2fcb79", "type": "electric_scooter", "name": "f2119aa65fb87a4d186bb9c16e2fcb79", "is_disabled": 0, "fusion_lon": 0.0, "rental_uris": {"android": "https://dc.lft.to/lastmile_qr_scan", "ios": "https://dc.lft.to/lastmile_qr_scan"}, "lat": 38.898902666666665, "lon": -77.03287266666666, "fusion_lat": 0.0}, {"is_reserved": 0, "bike_id": "d7ef60913753bf7167026b110152d30f", "type": "electric_scooter", "name": "d7ef60913753bf7167026b110152d30f", "is_disabled": 0, "fusion_lon": 0.0, "rental_uris": {"android": "https://dc.lft.to/lastmile_qr_scan", "ios": "https://dc.lft.to/lastmile_qr_scan"}, "lat": 38.92494266666667, "lon": -77.0217725, "fusion_lat": 0.0}, {"is_reserved": 0, "bike_id": "ec7142e6a2a8ddfb6f20a1030b0b91d0", "type": "electric_scooter", "name": "ec7142e6a2a8ddfb6f20a1030b0b91d0", "is_disabled": 0, "fusion_lon": 0.0, "rental_uris": {"android": "https://dc.lft.to/lastmile_qr_scan", "ios": "https://dc.lft.to/lastmile_qr_scan"}, "lat": 38.9261095, "lon": -77.02965, "fusion_lat": 0.0}, {"is_reserved": 0, "bike_id": "43689336708e331e8b09b950db733d3f", "type": "electric_scooter", "name": "43689336708e331e8b09b950db733d3f", "is_disabled": 0, "fusion_lon": 0.0, "rental_uris": {"android": "https://dc.lft.to/lastmile_qr_scan", "ios": "https://dc.lft.to/lastmile_qr_scan"}, "lat": 38.91200516666667, "lon": -77.00205783333334, "fusion_lat": 0.0}, {"is_reserved": 0, "bike_id": "f9a93bd78f2fb83eeaede9c85b917704", "type": "electric_bike", "name": "f9a93bd78f2fb83eeaede9c85b917704", "is_disabled": 0, "fusion_lon": 0.0, "rental_uris": {"android": "https://dc.lft.to/lastmile_qr_scan", "ios": "https://dc.lft.to/lastmile_qr_scan"}, "lat": 38.998226, "lon": -76.99770216666667, "fusion_lat": 0.0}, {"is_reserved": 0, "bike_id": "46bf9dd34549f2e6aff7c336afe754b1", "type": "electric_scooter", "name": "46bf9dd34549f2e6aff7c336afe754b1", "is_disabled": 0, "fusion_lon": 0.0, "rental_uris": {"android": "https://dc.lft.to/lastmile_qr_scan", "ios": "https://dc.lft.to/lastmile_qr_scan"}, "lat": 38.906502333333336, "lon": -76.9837775, "fusion_lat": 0.0}, {"is_reserved": 0, "bike_id": "8e92a328c131a6a992e468a4294cda10", "type": "electric_scooter", "name": "8e92a328c131a6a992e468a4294cda10", "is_disabled": 0, "fusion_lon": 0.0, "rental_uris": {"android": "https://dc.lft.to/lastmile_qr_scan", "ios": "https://dc.lft.to/lastmile_qr_scan"}, "lat": 38.9232935, "lon": -77.01954633333334, "fusion_lat": 0.0}, {"is_reserved": 0, "bike_id": "6422b7ace1b62bdd53e57b2500c19918", "type": "electric_scooter", "name": "6422b7ace1b62bdd53e57b2500c19918", "is_disabled": 0, "fusion_lon": 0.0, "rental_uris": {"android": "https://dc.lft.to/lastmile_qr_scan", "ios": "https://dc.lft.to/lastmile_qr_scan"}, "lat": 38.9297355, "lon": -77.03174066666666, "fusion_lat": 0.0}, {"is_reserved": 0, "bike_id": "1ae27cc7c7b830c5cedbddc8d0bac350", "type": "electric_scooter", "name": "1ae27cc7c7b830c5cedbddc8d0bac350", "is_disabled": 0, "fusion_lon": 0.0, "rental_uris": {"android": "https://dc.lft.to/lastmile_qr_scan", "ios": "https://dc.lft.to/lastmile_qr_scan"}, "lat": 38.92016233333333, "lon": -77.06360733333334, "fusion_lat": 0.0}, {"is_reserved": 0, "bike_id": "505f8013d6cc309697831af5ced672f3", "type": "electric_scooter", "name": "505f8013d6cc309697831af5ced672f3", "is_disabled": 0, "fusion_lon": 0.0, "rental_uris": {"android": "https://dc.lft.to/lastmile_qr_scan", "ios": "https://dc.lft.to/lastmile_qr_scan"}, "lat": 38.94082933333333, "lon": -77.06148516666667, "fusion_lat": 0.0}, {"is_reserved": 0, "bike_id": "a0488dbc8f13a887166e095e3d1484e2", "type": "electric_scooter", "name": "a0488dbc8f13a887166e095e3d1484e2", "is_disabled": 0, "fusion_lon": 0.0, "rental_uris": {"android": "https://dc.lft.to/lastmile_qr_scan", "ios": "https://dc.lft.to/lastmile_qr_scan"}, "lat": 38.899902, "lon": -77.02763116666667, "fusion_lat": 0.0}, {"is_reserved": 0, "bike_id": "fbfe97af84d726e477e701ae0bb80ba2", "type": "electric_scooter", "name": "fbfe97af84d726e477e701ae0bb80ba2", "is_disabled": 0, "fusion_lon": 0.0, "rental_uris": {"android": "https://dc.lft.to/lastmile_qr_scan", "ios": "https://dc.lft.to/lastmile_qr_scan"}, "lat": 38.941937333333335, "lon": -77.0234595, "fusion_lat": 0.0}, {"is_reserved": 0, "bike_id": "31d33295ebf809103e6620eb771cb4bc", "type": "electric_scooter", "name": "31d33295ebf809103e6620eb771cb4bc", "is_disabled": 0, "fusion_lon": 0.0, "rental_uris": {"android": "https://dc.lft.to/lastmile_qr_scan", "ios": "https://dc.lft.to/lastmile_qr_scan"}, "lat": 38.93102183333333, "lon": -77.03480633333334, "fusion_lat": 0.0}, {"is_reserved": 0, "bike_id": "319a8b8efe9b696fe697baa92746f250", "type": "electric_scooter", "name": "319a8b8efe9b696fe697baa92746f250", "is_disabled": 0, "fusion_lon": 0.0, "rental_uris": {"android": "https://dc.lft.to/lastmile_qr_scan", "ios": "https://dc.lft.to/lastmile_qr_scan"}, "lat": 38.91417916666666, "lon": -77.0258645, "fusion_lat": 0.0}, {"is_reserved": 0, "bike_id": "6ea3fdc185bac58fb70f767295429a95", "type": "electric_scooter", "name": "6ea3fdc185bac58fb70f767295429a95", "is_disabled": 0, "fusion_lon": 0.0, "rental_uris": {"android": "https://dc.lft.to/lastmile_qr_scan", "ios": "https://dc.lft.to/lastmile_qr_scan"}, "lat": 38.877229166666666, "lon": -77.0059915, "fusion_lat": 0.0}, {"is_reserved": 0, "bike_id": "fe498aa3e766f1d0cdb86af650049749", "type": "electric_scooter", "name": "fe498aa3e766f1d0cdb86af650049749", "is_disabled": 0, "fusion_lon": 0.0, "rental_uris": {"android": "https://dc.lft.to/lastmile_qr_scan", "ios": "https://dc.lft.to/lastmile_qr_scan"}, "lat": 38.918343166666666, "lon": -77.03186283333334, "fusion_lat": 0.0}, {"is_reserved": 0, "bike_id": "de76042a7a432a5a3a3c9d49a88d6056", "type": "electric_scooter", "name": "de76042a7a432a5a3a3c9d49a88d6056", "is_disabled": 0, "fusion_lon": 0.0, "rental_uris": {"android": "https://dc.lft.to/lastmile_qr_scan", "ios": "https://dc.lft.to/lastmile_qr_scan"}, "lat": 38.944198, "lon": -77.01779833333333, "fusion_lat": 0.0}, {"is_reserved": 0, "bike_id": "a7f301f1be0cf5320b57ba59c234aac2", "type": "electric_bike", "name": "a7f301f1be0cf5320b57ba59c234aac2", "is_disabled": 0, "fusion_lon": 0.0, "rental_uris": {"android": "https://dc.lft.to/lastmile_qr_scan", "ios": "https://dc.lft.to/lastmile_qr_scan"}, "lat": 38.90360033333333, "lon": -76.981033, "fusion_lat": 0.0}, {"is_reserved": 0, "bike_id": "3b4ad15d82140350e3d82f7e2be1dbb5", "type": "electric_scooter", "name": "3b4ad15d82140350e3d82f7e2be1dbb5", "is_disabled": 0, "fusion_lon": 0.0, "rental_uris": {"android": "https://dc.lft.to/lastmile_qr_scan", "ios": "https://dc.lft.to/lastmile_qr_scan"}, "lat": 38.90157683333334, "lon": -77.00894766666667, "fusion_lat": 0.0}, {"is_reserved": 0, "bike_id": "77acfab36fb802de2e973e24f2bb0a42", "type": "electric_scooter", "name": "77acfab36fb802de2e973e24f2bb0a42", "is_disabled": 0, "fusion_lon": 0.0, "rental_uris": {"android": "https://dc.lft.to/lastmile_qr_scan", "ios": "https://dc.lft.to/lastmile_qr_scan"}, "lat": 38.907894666666664, "lon": -77.01083366666667, "fusion_lat": 0.0}, {"is_reserved": 0, "bike_id": "9f4998fdb05e22bd80137a42321a0033", "type": "electric_scooter", "name": "9f4998fdb05e22bd80137a42321a0033", "is_disabled": 0, "fusion_lon": 0.0, "rental_uris": {"android": "https://dc.lft.to/lastmile_qr_scan", "ios": "https://dc.lft.to/lastmile_qr_scan"}, "lat": 38.8923055, "lon": -77.04363283333333, "fusion_lat": 0.0}, {"is_reserved": 0, "bike_id": "8c77a4fc3ef1746a4d64406ce4243436", "type": "electric_scooter", "name": "8c77a4fc3ef1746a4d64406ce4243436", "is_disabled": 0, "fusion_lon": 0.0, "rental_uris": {"android": "https://dc.lft.to/lastmile_qr_scan", "ios": "https://dc.lft.to/lastmile_qr_scan"}, "lat": 38.92205583333333, "lon": -77.020274, "fusion_lat": 0.0}, {"is_reserved": 0, "bike_id": "94a79f9dab3640f5628188270e81b23e", "type": "electric_scooter", "name": "94a79f9dab3640f5628188270e81b23e", "is_disabled": 0, "fusion_lon": 0.0, "rental_uris": {"android": "https://dc.lft.to/lastmile_qr_scan", "ios": "https://dc.lft.to/lastmile_qr_scan"}, "lat": 38.905573833333335, "lon": -77.00598866666667, "fusion_lat": 0.0}, {"is_reserved": 0, "bike_id": "1ae5acd2d6af75055c171ff2553c77ef", "type": "electric_scooter", "name": "1ae5acd2d6af75055c171ff2553c77ef", "is_disabled": 0, "fusion_lon": 0.0, "rental_uris": {"android": "https://dc.lft.to/lastmile_qr_scan", "ios": "https://dc.lft.to/lastmile_qr_scan"}, "lat": 38.935957333333334, "lon": -77.035215, "fusion_lat": 0.0}, {"is_reserved": 0, "bike_id": "e286f439ae0eece31a13c3a28a9d1213", "type": "electric_scooter", "name": "e286f439ae0eece31a13c3a28a9d1213", "is_disabled": 0, "fusion_lon": 0.0, "rental_uris": {"android": "https://dc.lft.to/lastmile_qr_scan", "ios": "https://dc.lft.to/lastmile_qr_scan"}, "lat": 38.91270183333334, "lon": -77.03927416666667, "fusion_lat": 0.0}, {"is_reserved": 0, "bike_id": "6dfbc08213e43a52dadfb79c0ffd2366", "type": "electric_scooter", "name": "6dfbc08213e43a52dadfb79c0ffd2366", "is_disabled": 0, "fusion_lon": 0.0, "rental_uris": {"android": "https://dc.lft.to/lastmile_qr_scan", "ios": "https://dc.lft.to/lastmile_qr_scan"}, "lat": 38.88428733333333, "lon": -77.03043516666666, "fusion_lat": 0.0}, {"is_reserved": 0, "bike_id": "36a503a380992408c9ca2d8dfd7fc487", "type": "electric_bike", "name": "36a503a380992408c9ca2d8dfd7fc487", "is_disabled": 0, "fusion_lon": 0.0, "rental_uris": {"android": "https://dc.lft.to/lastmile_qr_scan", "ios": "https://dc.lft.to/lastmile_qr_scan"}, "lat": 38.958761833333334, "lon": -76.97052183333334, "fusion_lat": 0.0}, {"is_reserved": 0, "bike_id": "63b26cc899f3191e970827f5fef31e60", "type": "electric_scooter", "name": "63b26cc899f3191e970827f5fef31e60", "is_disabled": 0, "fusion_lon": 0.0, "rental_uris": {"android": "https://dc.lft.to/lastmile_qr_scan", "ios": "https://dc.lft.to/lastmile_qr_scan"}, "lat": 38.896195666666664, "lon": -76.9855785, "fusion_lat": 0.0}, {"is_reserved": 0, "bike_id": "68c3e425735fea536e825558fc28c5bb", "type": "electric_scooter", "name": "68c3e425735fea536e825558fc28c5bb", "is_disabled": 0, "fusion_lon": 0.0, "rental_uris": {"android": "https://dc.lft.to/lastmile_qr_scan", "ios": "https://dc.lft.to/lastmile_qr_scan"}, "lat": 38.906428166666664, "lon": -77.0533965, "fusion_lat": 0.0}, {"is_reserved": 0, "bike_id": "ab193c2a6656ed2cb8e277563e2c8d5b", "type": "electric_scooter", "name": "ab193c2a6656ed2cb8e277563e2c8d5b", "is_disabled": 0, "fusion_lon": 0.0, "rental_uris": {"android": "https://dc.lft.to/lastmile_qr_scan", "ios": "https://dc.lft.to/lastmile_qr_scan"}, "lat": 38.91404566666667, "lon": -77.0101525, "fusion_lat": 0.0}, {"is_reserved": 0, "bike_id": "72ae6081c16bc8cf21a52f75d982adda", "type": "electric_scooter", "name": "72ae6081c16bc8cf21a52f75d982adda", "is_disabled": 0, "fusion_lon": 0.0, "rental_uris": {"android": "https://dc.lft.to/lastmile_qr_scan", "ios": "https://dc.lft.to/lastmile_qr_scan"}, "lat": 38.92326933333333, "lon": -77.056819, "fusion_lat": 0.0}, {"is_reserved": 0, "bike_id": "c791da5df97faf5c2a402ca2fd48abec", "type": "electric_scooter", "name": "c791da5df97faf5c2a402ca2fd48abec", "is_disabled": 0, "fusion_lon": 0.0, "rental_uris": {"android": "https://dc.lft.to/lastmile_qr_scan", "ios": "https://dc.lft.to/lastmile_qr_scan"}, "lat": 38.95419066666667, "lon": -77.02765, "fusion_lat": 0.0}, {"is_reserved": 0, "bike_id": "23e5141317377f3c0b54a097ed412b85", "type": "electric_scooter", "name": "23e5141317377f3c0b54a097ed412b85", "is_disabled": 0, "fusion_lon": 0.0, "rental_uris": {"android": "https://dc.lft.to/lastmile_qr_scan", "ios": "https://dc.lft.to/lastmile_qr_scan"}, "lat": 38.92264616666667, "lon": -77.02960316666666, "fusion_lat": 0.0}, {"is_reserved": 0, "bike_id": "b7772022cb44fa97b70ed6360e5c22d0", "type": "electric_scooter", "name": "b7772022cb44fa97b70ed6360e5c22d0", "is_disabled": 0, "fusion_lon": 0.0, "rental_uris": {"android": "https://dc.lft.to/lastmile_qr_scan", "ios": "https://dc.lft.to/lastmile_qr_scan"}, "lat": 38.91266983333333, "lon": -77.022097, "fusion_lat": 0.0}, {"is_reserved": 0, "bike_id": "2857feaea110e57825da97c8fc39db8b", "type": "electric_scooter", "name": "2857feaea110e57825da97c8fc39db8b", "is_disabled": 0, "fusion_lon": 0.0, "rental_uris": {"android": "https://dc.lft.to/lastmile_qr_scan", "ios": "https://dc.lft.to/lastmile_qr_scan"}, "lat": 38.931787166666666, "lon": -77.03700766666667, "fusion_lat": 0.0}, {"is_reserved": 0, "bike_id": "2264adf3f924470d97c34352376800ca", "type": "electric_scooter", "name": "2264adf3f924470d97c34352376800ca", "is_disabled": 0, "fusion_lon": 0.0, "rental_uris": {"android": "https://dc.lft.to/lastmile_qr_scan", "ios": "https://dc.lft.to/lastmile_qr_scan"}, "lat": 38.9213135, "lon": -77.04130516666666, "fusion_lat": 0.0}, {"is_reserved": 0, "bike_id": "eb5ea7291dfb0bdb2f8b4221a74bf298", "type": "electric_scooter", "name": "eb5ea7291dfb0bdb2f8b4221a74bf298", "is_disabled": 0, "fusion_lon": 0.0, "rental_uris": {"android": "https://dc.lft.to/lastmile_qr_scan", "ios": "https://dc.lft.to/lastmile_qr_scan"}, "lat": 38.92441733333333, "lon": -77.02037666666666, "fusion_lat": 0.0}, {"is_reserved": 0, "bike_id": "80966d67afffc2b8b5fe79a481c59233", "type": "electric_scooter", "name": "80966d67afffc2b8b5fe79a481c59233", "is_disabled": 0, "fusion_lon": 0.0, "rental_uris": {"android": "https://dc.lft.to/lastmile_qr_scan", "ios": "https://dc.lft.to/lastmile_qr_scan"}, "lat": 38.9242585, "lon": -77.01950283333333, "fusion_lat": 0.0}, {"is_reserved": 0, "bike_id": "a7464582f3cc5cec57dce673bef90982", "type": "electric_bike", "name": "a7464582f3cc5cec57dce673bef90982", "is_disabled": 0, "fusion_lon": 0.0, "rental_uris": {"android": "https://dc.lft.to/lastmile_qr_scan", "ios": "https://dc.lft.to/lastmile_qr_scan"}, "lat": 38.953227166666665, "lon": -77.027399, "fusion_lat": 0.0}, {"is_reserved": 0, "bike_id": "8f0b176e62347236f0d79debf22d645b", "type": "electric_scooter", "name": "8f0b176e62347236f0d79debf22d645b", "is_disabled": 0, "fusion_lon": 0.0, "rental_uris": {"android": "https://dc.lft.to/lastmile_qr_scan", "ios": "https://dc.lft.to/lastmile_qr_scan"}, "lat": 38.875366, "lon": -77.005726, "fusion_lat": 0.0}, {"is_reserved": 0, "bike_id": "9950142ad43c15c3cd996dda115ddf27", "type": "electric_scooter", "name": "9950142ad43c15c3cd996dda115ddf27", "is_disabled": 0, "fusion_lon": 0.0, "rental_uris": {"android": "https://dc.lft.to/lastmile_qr_scan", "ios": "https://dc.lft.to/lastmile_qr_scan"}, "lat": 38.922146, "lon": -77.03192316666667, "fusion_lat": 0.0}, {"is_reserved": 0, "bike_id": "9ed66f75903f3dcb4157fa47986cb962", "type": "electric_bike", "name": "9ed66f75903f3dcb4157fa47986cb962", "is_disabled": 0, "fusion_lon": 0.0, "rental_uris": {"android": "https://dc.lft.to/lastmile_qr_scan", "ios": "https://dc.lft.to/lastmile_qr_scan"}, "lat": 38.9850315, "lon": -76.982015, "fusion_lat": 0.0}, {"is_reserved": 0, "bike_id": "83872d9167ba3c9a311041af2fa5066a", "type": "electric_scooter", "name": "83872d9167ba3c9a311041af2fa5066a", "is_disabled": 0, "fusion_lon": 0.0, "rental_uris": {"android": "https://dc.lft.to/lastmile_qr_scan", "ios": "https://dc.lft.to/lastmile_qr_scan"}, "lat": 38.949799, "lon": -77.02448066666666, "fusion_lat": 0.0}, {"is_reserved": 0, "bike_id": "2e367a51ba574dc108f8a6ef4a118e80", "type": "electric_scooter", "name": "2e367a51ba574dc108f8a6ef4a118e80", "is_disabled": 0, "fusion_lon": 0.0, "rental_uris": {"android": "https://dc.lft.to/lastmile_qr_scan", "ios": "https://dc.lft.to/lastmile_qr_scan"}, "lat": 38.91133266666667, "lon": -77.021795, "fusion_lat": 0.0}, {"is_reserved": 0, "bike_id": "df1bee75ae93c6a4db942220fcf282bf", "type": "electric_scooter", "name": "df1bee75ae93c6a4db942220fcf282bf", "is_disabled": 0, "fusion_lon": 0.0, "rental_uris": {"android": "https://dc.lft.to/lastmile_qr_scan", "ios": "https://dc.lft.to/lastmile_qr_scan"}, "lat": 38.917755666666665, "lon": -77.02290566666667, "fusion_lat": 0.0}, {"is_reserved": 0, "bike_id": "26b23fd6d14acc4bdfea7b008016e93d", "type": "electric_scooter", "name": "26b23fd6d14acc4bdfea7b008016e93d", "is_disabled": 0, "fusion_lon": 0.0, "rental_uris": {"android": "https://dc.lft.to/lastmile_qr_scan", "ios": "https://dc.lft.to/lastmile_qr_scan"}, "lat": 38.92655833333333, "lon": -77.03711266666667, "fusion_lat": 0.0}, {"is_reserved": 0, "bike_id": "b58ffa25bc0c865f5d5ba3ee39e96f51", "type": "electric_scooter", "name": "b58ffa25bc0c865f5d5ba3ee39e96f51", "is_disabled": 0, "fusion_lon": 0.0, "rental_uris": {"android": "https://dc.lft.to/lastmile_qr_scan", "ios": "https://dc.lft.to/lastmile_qr_scan"}, "lat": 38.92459016666667, "lon": -76.99912466666666, "fusion_lat": 0.0}, {"is_reserved": 0, "bike_id": "31ab820304cdf6775968106d540ce4e9", "type": "electric_scooter", "name": "31ab820304cdf6775968106d540ce4e9", "is_disabled": 0, "fusion_lon": 0.0, "rental_uris": {"android": "https://dc.lft.to/lastmile_qr_scan", "ios": "https://dc.lft.to/lastmile_qr_scan"}, "lat": 38.938221, "lon": -76.99048433333333, "fusion_lat": 0.0}, {"is_reserved": 0, "bike_id": "0ec46c70f4a08ae58976cacda087184a", "type": "electric_bike", "name": "0ec46c70f4a08ae58976cacda087184a", "is_disabled": 0, "fusion_lon": 0.0, "rental_uris": {"android": "https://dc.lft.to/lastmile_qr_scan", "ios": "https://dc.lft.to/lastmile_qr_scan"}, "lat": 38.876732833333335, "lon": -77.01460366666667, "fusion_lat": 0.0}, {"is_reserved": 0, "bike_id": "2378a7fc37a35e4288d8d0595a4a0710", "type": "electric_scooter", "name": "2378a7fc37a35e4288d8d0595a4a0710", "is_disabled": 0, "fusion_lon": 0.0, "rental_uris": {"android": "https://dc.lft.to/lastmile_qr_scan", "ios": "https://dc.lft.to/lastmile_qr_scan"}, "lat": 38.92099133333333, "lon": -77.0220195, "fusion_lat": 0.0}, {"is_reserved": 0, "bike_id": "30bab5db2322d55c53f378a01d8a6ce5", "type": "electric_scooter", "name": "30bab5db2322d55c53f378a01d8a6ce5", "is_disabled": 0, "fusion_lon": 0.0, "rental_uris": {"android": "https://dc.lft.to/lastmile_qr_scan", "ios": "https://dc.lft.to/lastmile_qr_scan"}, "lat": 38.904756666666664, "lon": -77.048575, "fusion_lat": 0.0}, {"is_reserved": 0, "bike_id": "e52705fef24d46336a00359245da470b", "type": "electric_scooter", "name": "e52705fef24d46336a00359245da470b", "is_disabled": 0, "fusion_lon": 0.0, "rental_uris": {"android": "https://dc.lft.to/lastmile_qr_scan", "ios": "https://dc.lft.to/lastmile_qr_scan"}, "lat": 38.9224145, "lon": -77.04617716666667, "fusion_lat": 0.0}, {"is_reserved": 0, "bike_id": "ef8feb65d5239b5d2f18174b9745ac64", "type": "electric_scooter", "name": "ef8feb65d5239b5d2f18174b9745ac64", "is_disabled": 0, "fusion_lon": 0.0, "rental_uris": {"android": "https://dc.lft.to/lastmile_qr_scan", "ios": "https://dc.lft.to/lastmile_qr_scan"}, "lat": 38.88730783333333, "lon": -76.98356866666667, "fusion_lat": 0.0}, {"is_reserved": 0, "bike_id": "b4e55bf84fa0a9923322cb830b398c57", "type": "electric_scooter", "name": "b4e55bf84fa0a9923322cb830b398c57", "is_disabled": 0, "fusion_lon": 0.0, "rental_uris": {"android": "https://dc.lft.to/lastmile_qr_scan", "ios": "https://dc.lft.to/lastmile_qr_scan"}, "lat": 38.90513083333333, "lon": -77.06035633333333, "fusion_lat": 0.0}, {"is_reserved": 0, "bike_id": "d8dc696637966589bde87b320c2ca3ce", "type": "electric_scooter", "name": "d8dc696637966589bde87b320c2ca3ce", "is_disabled": 0, "fusion_lon": 0.0, "rental_uris": {"android": "https://dc.lft.to/lastmile_qr_scan", "ios": "https://dc.lft.to/lastmile_qr_scan"}, "lat": 38.926671666666664, "lon": -77.0147415, "fusion_lat": 0.0}, {"is_reserved": 0, "bike_id": "07b6a2f255093baaad8c2f2209d6fa0d", "type": "electric_scooter", "name": "07b6a2f255093baaad8c2f2209d6fa0d", "is_disabled": 0, "fusion_lon": 0.0, "rental_uris": {"android": "https://dc.lft.to/lastmile_qr_scan", "ios": "https://dc.lft.to/lastmile_qr_scan"}, "lat": 38.91913683333333, "lon": -77.02518616666667, "fusion_lat": 0.0}, {"is_reserved": 0, "bike_id": "1af7cd9f236307ce9223659c57351bfa", "type": "electric_scooter", "name": "1af7cd9f236307ce9223659c57351bfa", "is_disabled": 0, "fusion_lon": 0.0, "rental_uris": {"android": "https://dc.lft.to/lastmile_qr_scan", "ios": "https://dc.lft.to/lastmile_qr_scan"}, "lat": 38.91545983333334, "lon": -77.04461083333334, "fusion_lat": 0.0}, {"is_reserved": 0, "bike_id": "093bc0104da6d6265ce7175045899ccb", "type": "electric_bike", "name": "093bc0104da6d6265ce7175045899ccb", "is_disabled": 0, "fusion_lon": 0.0, "rental_uris": {"android": "https://dc.lft.to/lastmile_qr_scan", "ios": "https://dc.lft.to/lastmile_qr_scan"}, "lat": 38.888776666666665, "lon": -76.957031, "fusion_lat": 0.0}, {"is_reserved": 0, "bike_id": "e612cc664252b9cfde7dbfd00ac31721", "type": "electric_bike", "name": "e612cc664252b9cfde7dbfd00ac31721", "is_disabled": 0, "fusion_lon": 0.0, "rental_uris": {"android": "https://dc.lft.to/lastmile_qr_scan", "ios": "https://dc.lft.to/lastmile_qr_scan"}, "lat": 38.927641666666666, "lon": -77.07012366666666, "fusion_lat": 0.0}, {"is_reserved": 0, "bike_id": "5a9228fb32e56001406f8b3c2d35fbc8", "type": "electric_scooter", "name": "5a9228fb32e56001406f8b3c2d35fbc8", "is_disabled": 0, "fusion_lon": 0.0, "rental_uris": {"android": "https://dc.lft.to/lastmile_qr_scan", "ios": "https://dc.lft.to/lastmile_qr_scan"}, "lat": 38.921194, "lon": -77.041191, "fusion_lat": 0.0}, {"is_reserved": 0, "bike_id": "edc7331a04b1e0ef1e198279a69e84bb", "type": "electric_scooter", "name": "edc7331a04b1e0ef1e198279a69e84bb", "is_disabled": 0, "fusion_lon": 0.0, "rental_uris": {"android": "https://dc.lft.to/lastmile_qr_scan", "ios": "https://dc.lft.to/lastmile_qr_scan"}, "lat": 38.90513633333333, "lon": -77.06239616666667, "fusion_lat": 0.0}, {"is_reserved": 0, "bike_id": "a8fd239ca16a53b680b59cfc26bb62c8", "type": "electric_scooter", "name": "a8fd239ca16a53b680b59cfc26bb62c8", "is_disabled": 0, "fusion_lon": 0.0, "rental_uris": {"android": "https://dc.lft.to/lastmile_qr_scan", "ios": "https://dc.lft.to/lastmile_qr_scan"}, "lat": 38.9136165, "lon": -77.02051483333334, "fusion_lat": 0.0}, {"is_reserved": 0, "bike_id": "532ce5b431b1c3e96efab22999711a20", "type": "electric_scooter", "name": "532ce5b431b1c3e96efab22999711a20", "is_disabled": 0, "fusion_lon": 0.0, "rental_uris": {"android": "https://dc.lft.to/lastmile_qr_scan", "ios": "https://dc.lft.to/lastmile_qr_scan"}, "lat": 38.904677166666666, "lon": -77.03552566666667, "fusion_lat": 0.0}, {"is_reserved": 0, "bike_id": "f3ec802e652f810b1d3b18d4246f7fec", "type": "electric_scooter", "name": "f3ec802e652f810b1d3b18d4246f7fec", "is_disabled": 0, "fusion_lon": 0.0, "rental_uris": {"android": "https://dc.lft.to/lastmile_qr_scan", "ios": "https://dc.lft.to/lastmile_qr_scan"}, "lat": 38.907265, "lon": -77.007703, "fusion_lat": 0.0}, {"is_reserved": 0, "bike_id": "4ebd25aaea7ac279b00d3026e1d4ac7e", "type": "electric_scooter", "name": "4ebd25aaea7ac279b00d3026e1d4ac7e", "is_disabled": 0, "fusion_lon": 0.0, "rental_uris": {"android": "https://dc.lft.to/lastmile_qr_scan", "ios": "https://dc.lft.to/lastmile_qr_scan"}, "lat": 38.89892283333333, "lon": -77.04561083333333, "fusion_lat": 0.0}, {"is_reserved": 0, "bike_id": "a9e49078cc16ad9876a285b6d969d1ba", "type": "electric_scooter", "name": "a9e49078cc16ad9876a285b6d969d1ba", "is_disabled": 0, "fusion_lon": 0.0, "rental_uris": {"android": "https://dc.lft.to/lastmile_qr_scan", "ios": "https://dc.lft.to/lastmile_qr_scan"}, "lat": 38.899923666666666, "lon": -76.99012766666667, "fusion_lat": 0.0}, {"is_reserved": 0, "bike_id": "4ea4e8299ca27759440c57820d96f43e", "type": "electric_bike", "name": "4ea4e8299ca27759440c57820d96f43e", "is_disabled": 0, "fusion_lon": 0.0, "rental_uris": {"android": "https://dc.lft.to/lastmile_qr_scan", "ios": "https://dc.lft.to/lastmile_qr_scan"}, "lat": 38.952949333333336, "lon": -77.06872783333333, "fusion_lat": 0.0}, {"is_reserved": 0, "bike_id": "81ae5973bcd0aac918c73a59b3398768", "type": "electric_scooter", "name": "81ae5973bcd0aac918c73a59b3398768", "is_disabled": 0, "fusion_lon": 0.0, "rental_uris": {"android": "https://dc.lft.to/lastmile_qr_scan", "ios": "https://dc.lft.to/lastmile_qr_scan"}, "lat": 38.897439, "lon": -77.02698533333333, "fusion_lat": 0.0}, {"is_reserved": 0, "bike_id": "83fcc1cbd9f7d5b7a8d7242a2e77b6e4", "type": "electric_scooter", "name": "83fcc1cbd9f7d5b7a8d7242a2e77b6e4", "is_disabled": 0, "fusion_lon": 0.0, "rental_uris": {"android": "https://dc.lft.to/lastmile_qr_scan", "ios": "https://dc.lft.to/lastmile_qr_scan"}, "lat": 38.89217566666667, "lon": -77.0241675, "fusion_lat": 0.0}, {"is_reserved": 0, "bike_id": "fc7782f8141017f55b73f61c938e5d64", "type": "electric_scooter", "name": "fc7782f8141017f55b73f61c938e5d64", "is_disabled": 0, "fusion_lon": 0.0, "rental_uris": {"android": "https://dc.lft.to/lastmile_qr_scan", "ios": "https://dc.lft.to/lastmile_qr_scan"}, "lat": 38.900071, "lon": -77.04643883333334, "fusion_lat": 0.0}, {"is_reserved": 0, "bike_id": "981495c52241ea2ebeb7d90adeae6ffe", "type": "electric_scooter", "name": "981495c52241ea2ebeb7d90adeae6ffe", "is_disabled": 0, "fusion_lon": 0.0, "rental_uris": {"android": "https://dc.lft.to/lastmile_qr_scan", "ios": "https://dc.lft.to/lastmile_qr_scan"}, "lat": 38.9258385, "lon": -77.04420866666666, "fusion_lat": 0.0}, {"is_reserved": 0, "bike_id": "1b35fc09d7750dcb059cd1068bc25771", "type": "electric_scooter", "name": "1b35fc09d7750dcb059cd1068bc25771", "is_disabled": 0, "fusion_lon": 0.0, "rental_uris": {"android": "https://dc.lft.to/lastmile_qr_scan", "ios": "https://dc.lft.to/lastmile_qr_scan"}, "lat": 38.92496583333333, "lon": -77.05255166666667, "fusion_lat": 0.0}, {"is_reserved": 0, "bike_id": "14744408c21160726052f01a929b1e3d", "type": "electric_bike", "name": "14744408c21160726052f01a929b1e3d", "is_disabled": 0, "fusion_lon": 0.0, "rental_uris": {"android": "https://dc.lft.to/lastmile_qr_scan", "ios": "https://dc.lft.to/lastmile_qr_scan"}, "lat": 38.888652666666665, "lon": -77.08179216666667, "fusion_lat": 0.0}, {"is_reserved": 0, "bike_id": "c3528b0aa6e80e237798ba64cb4d4698", "type": "electric_scooter", "name": "c3528b0aa6e80e237798ba64cb4d4698", "is_disabled": 0, "fusion_lon": 0.0, "rental_uris": {"android": "https://dc.lft.to/lastmile_qr_scan", "ios": "https://dc.lft.to/lastmile_qr_scan"}, "lat": 38.88320566666667, "lon": -77.02990216666667, "fusion_lat": 0.0},