{"data": {"bikes": [{"name": "d8bb7417019f2d5ce33a743765b70188", "fusion_lon": 0.0, "lat": 38.90646316666667, "is_reserved": 0, "type": "electric_scooter", "bike_id": "d8bb7417019f2d5ce33a743765b70188", "is_disabled": 0, "rental_uris": {"android": "https://dc.lft.to/lastmile_qr_scan", "ios": "https://dc.lft.to/lastmile_qr_scan"}, "lon": -77.0113845, "fusion_lat": 0.0}, {"name": "dd2a7a6bc7fbbc1adde03edbb3f57e44", "fusion_lon": 0.0, "lat": 38.916854666666666, "is_reserved": 0, "type": "electric_scooter", "bike_id": "dd2a7a6bc7fbbc1adde03edbb3f57e44", "is_disabled": 0, "rental_uris": {"android": "https://dc.lft.to/lastmile_qr_scan", "ios": "https://dc.lft.to/lastmile_qr_scan"}, "lon": -77.015767, "fusion_lat": 0.0}, {"name": "b2fdf28d4367545e90263113ae6c28a2", "fusion_lon": 0.0, "lat": 38.91410833333333, "is_reserved": 0, "type": "electric_scooter", "bike_id": "b2fdf28d4367545e90263113ae6c28a2", "is_disabled": 0, "rental_uris": {"android": "https://dc.lft.to/lastmile_qr_scan", "ios": "https://dc.lft.to/lastmile_qr_scan"}, "lon": -77.04913516666667, "fusion_lat": 0.0}, {"name": "cb3496d9f8a91fec0fd06f4a59c148b8", "fusion_lon": 0.0, "lat": 38.881160666666666, "is_reserved": 0, "type": "electric_scooter", "bike_id": "cb3496d9f8a91fec0fd06f4a59c148b8", "is_disabled": 0, "rental_uris": {"android": "https://dc.lft.to/lastmile_qr_scan", "ios": "https://dc.lft.to/lastmile_qr_scan"}, "lon": -77.01659533333333, "fusion_lat": 0.0}, {"name": "1f9f6b259cdbecb3abd9b9bf61bdf28a", "fusion_lon": 0.0, "lat": 38.90240683333333, "is_reserved": 0, "type": "electric_scooter", "bike_id": "1f9f6b259cdbecb3abd9b9bf61bdf28a", "is_disabled": 0, "rental_uris": {"android": "https://dc.lft.to/lastmile_qr_scan", "ios": "https://dc.lft.to/lastmile_qr_scan"}, "lon": -77.0019605, "fusion_lat": 0.0}, {"name": "07193507f52ceed373ab9503447b437a", "fusion_lon": 0.0, "lat": 38.87470783333333, "is_reserved": 0, "type": "electric_scooter", "bike_id": "07193507f52ceed373ab9503447b437a", "is_disabled": 0, "rental_uris": {"android": "https://dc.lft.to/lastmile_qr_scan", "ios": "https://dc.lft.to/lastmile_qr_scan"}, "lon": -77.00554733333334, "fusion_lat": 0.0}, {"name": "678be7c254959ff8b5c8411625255a2e", "fusion_lon": 0.0, "lat": 38.9016705, "is_reserved": 0, "type": "electric_scooter", "bike_id": "678be7c254959ff8b5c8411625255a2e", "is_disabled": 0, "rental_uris": {"android": "https://dc.lft.to/lastmile_qr_scan", "ios": "https://dc.lft.to/lastmile_qr_scan"}, "lon": -76.93022533333334, "fusion_lat": 0.0}, {"name": "07e4a3da5df80cdd0a8de6c7c4c1e17f", "fusion_lon": 0.0, "lat": 38.966311833333336, "is_reserved": 0, "type": "electric_scooter", "bike_id": "07e4a3da5df80cdd0a8de6c7c4c1e17f", "is_disabled": 0, "rental_uris": {"android": "https://dc.lft.to/lastmile_qr_scan", "ios": "https://dc.lft.to/lastmile_qr_scan"}, "lon": -77.019907, "fusion_lat": 0.0}, {"name": "aeabef21258278eab564db65857dd519", "fusion_lon": 0.0, "lat": 38.95755533333333, "is_reserved": 0, "type": "electric_bike", "bike_id": "aeabef21258278eab564db65857dd519", "is_disabled": 0, "rental_uris": {"android": "https://dc.lft.to/lastmile_qr_scan", "ios": "https://dc.lft.to/lastmile_qr_scan"}, "lon": -77.0205385, "fusion_lat": 0.0}, {"name": "e4bc241a8943dd316d8fae0b305e9078", "fusion_lon": 0.0, "lat": 38.874819, "is_reserved": 0, "type": "electric_bike", "bike_id": "e4bc241a8943dd316d8fae0b305e9078", "is_disabled": 0, "rental_uris": {"android": "https://dc.lft.to/lastmile_qr_scan", "ios": "https://dc.lft.to/lastmile_qr_scan"}, "lon": -76.96517216666666, "fusion_lat": 0.0}, {"name": "3cfda625a02c728824bf83254e7085a0", "fusion_lon": 0.0, "lat": 38.907266, "is_reserved": 0, "type": "electric_scooter", "bike_id": "3cfda625a02c728824bf83254e7085a0", "is_disabled": 0, "rental_uris": {"android": "https://dc.lft.to/lastmile_qr_scan", "ios": "https://dc.lft.to/lastmile_qr_scan"}, "lon": -77.04012916666667, "fusion_lat": 0.0}, {"name": "ede0555323a37b0a9656d8164aaaf686", "fusion_lon": 0.0, "lat": 38.924151333333334, "is_reserved": 0, "type": "electric_scooter", "bike_id": "ede0555323a37b0a9656d8164aaaf686", "is_disabled": 0, "rental_uris": {"android": "https://dc.lft.to/lastmile_qr_scan", "ios": "https://dc.lft.to/lastmile_qr_scan"}, "lon": -77.05057266666667, "fusion_lat": 0.0}, {"name": "9eeda6aadfa1a993fa0052adebe6c622", "fusion_lon": 0.0, "lat": 38.91248233333334, "is_reserved": 0, "type": "electric_scooter", "bike_id": "9eeda6aadfa1a993fa0052adebe6c622", "is_disabled": 0, "rental_uris": {"android": "https://dc.lft.to/lastmile_qr_scan", "ios": "https://dc.lft.to/lastmile_qr_scan"}, "lon": -77.03395566666667, "fusion_lat": 0.0}, {"name": "e7e6b6e4c9ef995c77055f30f392c219", "fusion_lon": 0.0, "lat": 38.90506083333333, "is_reserved": 0, "type": "electric_scooter", "bike_id": "e7e6b6e4c9ef995c77055f30f392c219", "is_disabled": 0, "rental_uris": {"android": "https://dc.lft.to/lastmile_qr_scan", "ios": "https://dc.lft.to/lastmile_qr_scan"}, "lon": -77.0384785, "fusion_lat": 0.0}, {"name": "473ec074ada0279b3743ff792f4234d7", "fusion_lon": 0.0, "lat": 38.91549333333333, "is_reserved": 0, "type": "electric_scooter", "bike_id": "473ec074ada0279b3743ff792f4234d7", "is_disabled": 0, "rental_uris": {"android": "https://dc.lft.to/lastmile_qr_scan", "ios": "https://dc.lft.to/lastmile_qr_scan"}, "lon": -77.025488, "fusion_lat": 0.0}, {"name": "38b6c355954f84cca276d47ea6ed3174", "fusion_lon": 0.0, "lat": 38.907588833333335, "is_reserved": 0, "type": "electric_scooter", "bike_id": "38b6c355954f84cca276d47ea6ed3174", "is_disabled": 0, "rental_uris": {"android": "https://dc.lft.to/lastmile_qr_scan", "ios": "https://dc.lft.to/lastmile_qr_scan"}, "lon": -77.04327983333333, "fusion_lat": 0.0}, {"name": "babaf42645aca52830b3fb6cb15e0711", "fusion_lon": 0.0, "lat": 38.920665, "is_reserved": 0, "type": "electric_scooter", "bike_id": "babaf42645aca52830b3fb6cb15e0711", "is_disabled": 0, "rental_uris": {"android": "https://dc.lft.to/lastmile_qr_scan", "ios": "https://dc.lft.to/lastmile_qr_scan"}, "lon": -77.0321335, "fusion_lat": 0.0}, {"name": "38398280242dbf3751335b5f5142bdae", "fusion_lon": 0.0, "lat": 38.896298333333334, "is_reserved": 0, "type": "electric_scooter", "bike_id": "38398280242dbf3751335b5f5142bdae", "is_disabled": 0, "rental_uris": {"android": "https://dc.lft.to/lastmile_qr_scan", "ios": "https://dc.lft.to/lastmile_qr_scan"}, "lon": -77.02592533333333, "fusion_lat": 0.0}, {"name": "5695d1b2ed66490971a4b19c72707a13", "fusion_lon": 0.0, "lat": 38.91430783333333, "is_reserved": 0, "type": "electric_scooter", "bike_id": "5695d1b2ed66490971a4b19c72707a13", "is_disabled": 0, "rental_uris": {"android": "https://dc.lft.to/lastmile_qr_scan", "ios": "https://dc.lft.to/lastmile_qr_scan"}, "lon": -77.04499933333334, "fusion_lat": 0.0}, {"name": "3a9dabdc8a1d406eebfe855d69f40717", "fusion_lon": 0.0, "lat": 38.91989866666667, "is_reserved": 0, "type": "electric_scooter", "bike_id": "3a9dabdc8a1d406eebfe855d69f40717", "is_disabled": 0, "rental_uris": {"android": "https://dc.lft.to/lastmile_qr_scan", "ios": "https://dc.lft.to/lastmile_qr_scan"}, "lon": -77.03215133333333, "fusion_lat": 0.0}, {"name": "f96e2d2dca1cb0480fd6ca7e82ebfad0", "fusion_lon": 0.0, "lat": 38.917047833333335, "is_reserved": 0, "type": "electric_scooter", "bike_id": "f96e2d2dca1cb0480fd6ca7e82ebfad0", "is_disabled": 0, "rental_uris": {"android": "https://dc.lft.to/lastmile_qr_scan", "ios": "https://dc.lft.to/lastmile_qr_scan"}, "lon": -77.03474983333334, "fusion_lat": 0.0}, {"name": "ca58c83cee4929b2a9fe39d901239c54", "fusion_lon": 0.0, "lat": 38.86404016666667, "is_reserved": 0, "type": "electric_scooter", "bike_id": "ca58c83cee4929b2a9fe39d901239c54", "is_disabled": 0, "rental_uris": {"android": "https://dc.lft.to/lastmile_qr_scan", "ios": "https://dc.lft.to/lastmile_qr_scan"}, "lon": -76.97433016666666, "fusion_lat": 0.0}, {"name": "732678a85f5056014992e793caff0bfb", "fusion_lon": 0.0, "lat": 38.947812166666665, "is_reserved": 0, "type": "electric_bike", "bike_id": "732678a85f5056014992e793caff0bfb", "is_disabled": 0, "rental_uris": {"android": "https://dc.lft.to/lastmile_qr_scan", "ios": "https://dc.lft.to/lastmile_qr_scan"}, "lon": -76.97212383333333, "fusion_lat": 0.0}, {"name": "8226f7ae860fd19dae7e9271eaf7ff83", "fusion_lon": 0.0, "lat": 38.88765266666667, "is_reserved": 0, "type": "electric_scooter", "bike_id": "8226f7ae860fd19dae7e9271eaf7ff83", "is_disabled": 0, "rental_uris": {"android": "https://dc.lft.to/lastmile_qr_scan", "ios": "https://dc.lft.to/lastmile_qr_scan"}, "lon": -76.95592966666666, "fusion_lat": 0.0}, {"name": "dc45ca487491eab4d4afb4d7babb1747", "fusion_lon": 0.0, "lat": 38.870116833333334, "is_reserved": 0, "type": "electric_bike", "bike_id": "dc45ca487491eab4d4afb4d7babb1747", "is_disabled": 0, "rental_uris": {"android": "https://dc.lft.to/lastmile_qr_scan", "ios": "https://dc.lft.to/lastmile_qr_scan"}, "lon": -77.2297315, "fusion_lat": 0.0}, {"name": "d510537ec409277d86bcde7da4a65c1d", "fusion_lon": 0.0, "lat": 38.9055345, "is_reserved": 0, "type": "electric_scooter", "bike_id": "d510537ec409277d86bcde7da4a65c1d", "is_disabled": 0, "rental_uris": {"android": "https://dc.lft.to/lastmile_qr_scan", "ios": "https://dc.lft.to/lastmile_qr_scan"}, "lon": -77.04463266666667, "fusion_lat": 0.0}, {"name": "b12e894bb5374b51d0a4f08a27098b5d", "fusion_lon": 0.0, "lat": 38.90246483333333, "is_reserved": 0, "type": "electric_scooter", "bike_id": "b12e894bb5374b51d0a4f08a27098b5d", "is_disabled": 0, "rental_uris": {"android": "https://dc.lft.to/lastmile_qr_scan", "ios": "https://dc.lft.to/lastmile_qr_scan"}, "lon": -77.01762383333333, "fusion_lat": 0.0}, {"name": "06bdb747e7ed0049b7c1538368ae0883", "fusion_lon": 0.0, "lat": 38.93526633333333, "is_reserved": 0, "type": "electric_scooter", "bike_id": "06bdb747e7ed0049b7c1538368ae0883", "is_disabled": 0, "rental_uris": {"android": "https://dc.lft.to/lastmile_qr_scan", "ios": "https://dc.lft.to/lastmile_qr_scan"}, "lon": -77.032588, "fusion_lat": 0.0}, {"name": "0d0fed2d7a28be1f4f003d1802c26b73", "fusion_lon": 0.0, "lat": 39.024358666666664, "is_reserved": 0, "type": "electric_bike", "bike_id": "0d0fed2d7a28be1f4f003d1802c26b73", "is_disabled": 0, "rental_uris": {"android": "https://dc.lft.to/lastmile_qr_scan", "ios": "https://dc.lft.to/lastmile_qr_scan"}, "lon": -77.13095516666667, "fusion_lat": 0.0}, {"name": "0d266e0622c2ea209f59cf0a2c8c3ae0", "fusion_lon": 0.0, "lat": 38.905421833333335, "is_reserved": 0, "type": "electric_scooter", "bike_id": "0d266e0622c2ea209f59cf0a2c8c3ae0", "is_disabled": 0, "rental_uris": {"android": "https://dc.lft.to/lastmile_qr_scan", "ios": "https://dc.lft.to/lastmile_qr_scan"}, "lon": -77.046474, "fusion_lat": 0.0}, {"name": "3ac8dfc42bfa36437a411da73c0714c1", "fusion_lon": 0.0, "lat": 38.92231916666667, "is_reserved": 0, "type": "electric_scooter", "bike_id": "3ac8dfc42bfa36437a411da73c0714c1", "is_disabled": 0, "rental_uris": {"android": "https://dc.lft.to/lastmile_qr_scan", "ios": "https://dc.lft.to/lastmile_qr_scan"}, "lon": -77.02331383333333, "fusion_lat": 0.0}, {"name": "283a4a5c0c08563457b0a310ca02f9c5", "fusion_lon": 0.0, "lat": 38.897184333333335, "is_reserved": 0, "type": "electric_scooter", "bike_id": "283a4a5c0c08563457b0a310ca02f9c5", "is_disabled": 0, "rental_uris": {"android": "https://dc.lft.to/lastmile_qr_scan", "ios": "https://dc.lft.to/lastmile_qr_scan"}, "lon": -77.0215615, "fusion_lat": 0.0}, {"name": "cb8539a8703f2286fed0a554ebd717fa", "fusion_lon": 0.0, "lat": 38.918052833333334, "is_reserved": 0, "type": "electric_scooter", "bike_id": "cb8539a8703f2286fed0a554ebd717fa", "is_disabled": 0, "rental_uris": {"android": "https://dc.lft.to/lastmile_qr_scan", "ios": "https://dc.lft.to/lastmile_qr_scan"}, "lon": -77.0343285, "fusion_lat": 0.0}, {"name": "d56fceb4d60ba596efb313586063a1dc", "fusion_lon": 0.0, "lat": 38.920253833333334, "is_reserved": 0, "type": "electric_scooter", "bike_id": "d56fceb4d60ba596efb313586063a1dc", "is_disabled": 0, "rental_uris": {"android": "https://dc.lft.to/lastmile_qr_scan", "ios": "https://dc.lft.to/lastmile_qr_scan"}, "lon": -77.03150883333333, "fusion_lat": 0.0}, {"name": "f19937a9d0fadb600f58fb61f4e574a5", "fusion_lon": 0.0, "lat": 38.90113566666667, "is_reserved": 0, "type": "electric_scooter", "bike_id": "f19937a9d0fadb600f58fb61f4e574a5", "is_disabled": 0, "rental_uris": {"android": "https://dc.lft.to/lastmile_qr_scan", "ios": "https://dc.lft.to/lastmile_qr_scan"}, "lon": -77.04982733333334, "fusion_lat": 0.0}, {"name": "306a3ded048310ba85829ce9aacbe912", "fusion_lon": 0.0, "lat": 38.911322166666665, "is_reserved": 0, "type": "electric_scooter", "bike_id": "306a3ded048310ba85829ce9aacbe912", "is_disabled": 0, "rental_uris": {"android": "https://dc.lft.to/lastmile_qr_scan", "ios": "https://dc.lft.to/lastmile_qr_scan"}, "lon": -77.06537916666667, "fusion_lat": 0.0}, {"name": "22996bca540dccf2bc384c366ae89faa", "fusion_lon": 0.0, "lat": 38.905545333333336, "is_reserved": 0, "type": "electric_scooter", "bike_id": "22996bca540dccf2bc384c366ae89faa", "is_disabled": 0, "rental_uris": {"android": "https://dc.lft.to/lastmile_qr_scan", "ios": "https://dc.lft.to/lastmile_qr_scan"}, "lon": -77.03447383333334, "fusion_lat": 0.0}, {"name": "1e4f15c2873892888b294c688536024a", "fusion_lon": 0.0, "lat": 38.91565816666667, "is_reserved": 0, "type": "electric_scooter", "bike_id": "1e4f15c2873892888b294c688536024a", "is_disabled": 0, "rental_uris": {"android": "https://dc.lft.to/lastmile_qr_scan", "ios": "https://dc.lft.to/lastmile_qr_scan"}, "lon": -77.04278316666667, "fusion_lat": 0.0}, {"name": "2d8de31ccfd963de3b9e0b25bbe590c2", "fusion_lon": 0.0, "lat": 38.89290066666667, "is_reserved": 0, "type": "electric_bike", "bike_id": "2d8de31ccfd963de3b9e0b25bbe590c2", "is_disabled": 0, "rental_uris": {"android": "https://dc.lft.to/lastmile_qr_scan", "ios": "https://dc.lft.to/lastmile_qr_scan"}, "lon": -76.9761525, "fusion_lat": 0.0}, {"name": "1c327be255dbbd9867e8f22258aff6a1", "fusion_lon": 0.0, "lat": 38.9177345, "is_reserved": 0, "type": "electric_scooter", "bike_id": "1c327be255dbbd9867e8f22258aff6a1", "is_disabled": 0, "rental_uris": {"android": "https://dc.lft.to/lastmile_qr_scan", "ios": "https://dc.lft.to/lastmile_qr_scan"}, "lon": -77.01489366666667, "fusion_lat": 0.0}, {"name": "a7932c709f07fee92b76842c75e85fec", "fusion_lon": 0.0, "lat": 38.8848925, "is_reserved": 0, "type": "electric_scooter", "bike_id": "a7932c709f07fee92b76842c75e85fec", "is_disabled": 0, "rental_uris": {"android": "https://dc.lft.to/lastmile_qr_scan", "ios": "https://dc.lft.to/lastmile_qr_scan"}, "lon": -77.00712833333333, "fusion_lat": 0.0}, {"name": "c2d3c19ec176ac858a3479db4a3f3a27", "fusion_lon": 0.0, "lat": 38.924602, "is_reserved": 0, "type": "electric_scooter", "bike_id": "c2d3c19ec176ac858a3479db4a3f3a27", "is_disabled": 0, "rental_uris": {"android": "https://dc.lft.to/lastmile_qr_scan", "ios": "https://dc.lft.to/lastmile_qr_scan"}, "lon": -77.02708833333334, "fusion_lat": 0.0}, {"name": "3c25a08c97ff37a6a0a9ff95c3402955", "fusion_lon": 0.0, "lat": 38.8874375, "is_reserved": 0, "type": "electric_scooter", "bike_id": "3c25a08c97ff37a6a0a9ff95c3402955", "is_disabled": 0, "rental_uris": {"android": "https://dc.lft.to/lastmile_qr_scan", "ios": "https://dc.lft.to/lastmile_qr_scan"}, "lon": -77.02839583333333, "fusion_lat": 0.0}, {"name": "cd2523f2d0654d154e50ea1efcda5b16", "fusion_lon": 0.0, "lat": 38.922297666666665, "is_reserved": 0, "type": "electric_scooter", "bike_id": "cd2523f2d0654d154e50ea1efcda5b16", "is_disabled": 0, "rental_uris": {"android": "https://dc.lft.to/lastmile_qr_scan", "ios": "https://dc.lft.to/lastmile_qr_scan"}, "lon": -77.04490383333334, "fusion_lat": 0.0}, {"name": "26a064f9a6b3eb751b096fab77f8182b", "fusion_lon": 0.0, "lat": 38.926983, "is_reserved": 0, "type": "electric_scooter", "bike_id": "26a064f9a6b3eb751b096fab77f8182b", "is_disabled": 0, "rental_uris": {"android": "https://dc.lft.to/lastmile_qr_scan", "ios": "https://dc.lft.to/lastmile_qr_scan"}, "lon": -77.02102333333333, "fusion_lat": 0.0}, {"name": "3aab9ac1254d905d71ca1b6dfbc9aa84", "fusion_lon": 0.0, "lat": 38.912634833333335, "is_reserved": 0, "type": "electric_scooter", "bike_id": "3aab9ac1254d905d71ca1b6dfbc9aa84", "is_disabled": 0, "rental_uris": {"android": "https://dc.lft.to/lastmile_qr_scan", "ios": "https://dc.lft.to/lastmile_qr_scan"}, "lon": -77.03830433333333, "fusion_lat": 0.0}, {"name": "cc724f3dc62ecb239e3cbbb53945cecc", "fusion_lon": 0.0, "lat": 38.91686, "is_reserved": 0, "type": "electric_scooter", "bike_id": "cc724f3dc62ecb239e3cbbb53945cecc", "is_disabled": 0, "rental_uris": {"android": "https://dc.lft.to/lastmile_qr_scan", "ios": "https://dc.lft.to/lastmile_qr_scan"}, "lon": -77.033384, "fusion_lat": 0.0}, {"name": "2d3fbbaaa9b1645c5a7b4720dafa3711", "fusion_lon": 0.0, "lat": 38.892269666666664, "is_reserved": 0, "type": "electric_scooter", "bike_id": "2d3fbbaaa9b1645c5a7b4720dafa3711", "is_disabled": 0, "rental_uris": {"android": "https://dc.lft.to/lastmile_qr_scan", "ios": "https://dc.lft.to/lastmile_qr_scan"}, "lon": -77.04650516666666, "fusion_lat": 0.0}, {"name": "fce9543a553c2506b6155e8c2338b6db", "fusion_lon": 0.0, "lat": 38.90271466666667, "is_reserved": 0, "type": "electric_scooter", "bike_id": "fce9543a553c2506b6155e8c2338b6db", "is_disabled": 0, "rental_uris": {"android": "https://dc.lft.to/lastmile_qr_scan", "ios": "https://dc.lft.to/lastmile_qr_scan"}, "lon": -77.01733166666666, "fusion_lat": 0.0}, {"name": "d1d894b858da4efccfde3b0dd3a27e63", "fusion_lon": 0.0, "lat": 38.92935466666667, "is_reserved": 0, "type": "electric_scooter", "bike_id": "d1d894b858da4efccfde3b0dd3a27e63", "is_disabled": 0, "rental_uris": {"android": "https://dc.lft.to/lastmile_qr_scan", "ios": "https://dc.lft.to/lastmile_qr_scan"}, "lon": -77.03270183333333, "fusion_lat": 0.0}, {"name": "278e85ab6fce5891eda40dcf1ad252f2", "fusion_lon": 0.0, "lat": 38.875781333333336, "is_reserved": 0, "type": "electric_scooter", "bike_id": "278e85ab6fce5891eda40dcf1ad252f2", "is_disabled": 0, "rental_uris": {"android": "https://dc.lft.to/lastmile_qr_scan", "ios": "https://dc.lft.to/lastmile_qr_scan"}, "lon": -77.00578533333334, "fusion_lat": 0.0}, {"name": "d1e99c22150c4bb1b6559e1776325d22", "fusion_lon": 0.0, "lat": 38.9169655, "is_reserved": 0, "type": "electric_scooter", "bike_id": "d1e99c22150c4bb1b6559e1776325d22", "is_disabled": 0, "rental_uris": {"android": "https://dc.lft.to/lastmile_qr_scan", "ios": "https://dc.lft.to/lastmile_qr_scan"}, "lon": -77.03145033333334, "fusion_lat": 0.0}, {"name": "8b48a57c3e346003e004b1d46b400fd1", "fusion_lon": 0.0, "lat": 38.906040833333336, "is_reserved": 0, "type": "electric_scooter", "bike_id": "8b48a57c3e346003e004b1d46b400fd1", "is_disabled": 0, "rental_uris": {"android": "https://dc.lft.to/lastmile_qr_scan", "ios": "https://dc.lft.to/lastmile_qr_scan"}, "lon": -77.02218333333333, "fusion_lat": 0.0}, {"name": "db2605a7c889871522bc95acc2cb5b1a", "fusion_lon": 0.0, "lat": 38.908965333333335, "is_reserved": 0, "type": "electric_scooter", "bike_id": "db2605a7c889871522bc95acc2cb5b1a", "is_disabled": 0, "rental_uris": {"android": "https://dc.lft.to/lastmile_qr_scan", "ios": "https://dc.lft.to/lastmile_qr_scan"}, "lon": -76.99852683333333, "fusion_lat": 0.0}, {"name": "1c0c731ed8eb13eba743d09611ecae19", "fusion_lon": 0.0, "lat": 38.900254833333335, "is_reserved": 0, "type": "electric_scooter", "bike_id": "1c0c731ed8eb13eba743d09611ecae19", "is_disabled": 0, "rental_uris": {"android": "https://dc.lft.to/lastmile_qr_scan", "ios": "https://dc.lft.to/lastmile_qr_scan"}, "lon": -76.99293716666666, "fusion_lat": 0.0}, {"name": "eb25c72675faca0e63965989a9bfae83", "fusion_lon": 0.0, "lat": 38.923551333333336, "is_reserved": 0, "type": "electric_scooter", "bike_id": "eb25c72675faca0e63965989a9bfae83", "is_disabled": 0, "rental_uris": {"android": "https://dc.lft.to/lastmile_qr_scan", "ios": "https://dc.lft.to/lastmile_qr_scan"}, "lon": -77.03217083333334, "fusion_lat": 0.0}, {"name": "9d8b58ca25dba9bf9dd89676c13d920f", "fusion_lon": 0.0, "lat": 38.92240433333333, "is_reserved": 0, "type": "electric_scooter", "bike_id": "9d8b58ca25dba9bf9dd89676c13d920f", "is_disabled": 0, "rental_uris": {"android": "https://dc.lft.to/lastmile_qr_scan", "ios": "https://dc.lft.to/lastmile_qr_scan"}, "lon": -77.03893, "fusion_lat": 0.0}, {"name": "69d4509755276cc982e8d6ddecbf3b7d", "fusion_lon": 0.0, "lat": 38.91930583333333, "is_reserved": 0, "type": "electric_scooter", "bike_id": "69d4509755276cc982e8d6ddecbf3b7d", "is_disabled": 0, "rental_uris": {"android": "https://dc.lft.to/lastmile_qr_scan", "ios": "https://dc.lft.to/lastmile_qr_scan"}, "lon": -77.03414116666667, "fusion_lat": 0.0}, {"name": "6592789fdd5bd9edc396920e2470452e", "fusion_lon": 0.0, "lat": 38.906315, "is_reserved": 0, "type": "electric_scooter", "bike_id": "6592789fdd5bd9edc396920e2470452e", "is_disabled": 0, "rental_uris": {"android": "https://dc.lft.to/lastmile_qr_scan", "ios": "https://dc.lft.to/lastmile_qr_scan"}, "lon": -77.02377783333333, "fusion_lat": 0.0}, {"name": "06c65c5cfd08516c58219bfdf4f280f2", "fusion_lon": 0.0, "lat": 38.9035815, "is_reserved": 0, "type": "electric_scooter", "bike_id": "06c65c5cfd08516c58219bfdf4f280f2", "is_disabled": 0, "rental_uris": {"android": "https://dc.lft.to/lastmile_qr_scan", "ios": "https://dc.lft.to/lastmile_qr_scan"}, "lon": -77.040771, "fusion_lat": 0.0}, {"name": "fbcd51cc7e214438e38f1efcd2827d7a", "fusion_lon": 0.0, "lat": 38.90264716666667, "is_reserved": 0, "type": "electric_scooter", "bike_id": "fbcd51cc7e214438e38f1efcd2827d7a", "is_disabled": 0, "rental_uris": {"android": "https://dc.lft.to/lastmile_qr_scan", "ios": "https://dc.lft.to/lastmile_qr_scan"}, "lon": -77.0340225, "fusion_lat": 0.0}, {"name": "1fe60dbb6a9d254c99cbff59b634e312", "fusion_lon": 0.0, "lat": 38.92051216666667, "is_reserved": 0, "type": "electric_scooter", "bike_id": "1fe60dbb6a9d254c99cbff59b634e312", "is_disabled": 0, "rental_uris": {"android": "https://dc.lft.to/lastmile_qr_scan", "ios": "https://dc.lft.to/lastmile_qr_scan"}, "lon": -77.023915, "fusion_lat": 0.0}, {"name": "9623924ffbf4c4d56c35d678cda8f8c6", "fusion_lon": 0.0, "lat": 38.9388315, "is_reserved": 0, "type": "electric_scooter", "bike_id": "9623924ffbf4c4d56c35d678cda8f8c6", "is_disabled": 0, "rental_uris": {"android": "https://dc.lft.to/lastmile_qr_scan", "ios": "https://dc.lft.to/lastmile_qr_scan"}, "lon": -77.0248055, "fusion_lat": 0.0}, {"name": "96fd199fe6009da682da81032336b9da", "fusion_lon": 0.0, "lat": 39.014764166666666, "is_reserved": 0, "type": "electric_bike", "bike_id": "96fd199fe6009da682da81032336b9da", "is_disabled": 0, "rental_uris": {"android": "https://dc.lft.to/lastmile_qr_scan", "ios": "https://dc.lft.to/lastmile_qr_scan"}, "lon": -77.054911, "fusion_lat": 0.0}, {"name": "fdd5a57e901b6495177bd3d1f6c538ae", "fusion_lon": 0.0, "lat": 38.918407, "is_reserved": 0, "type": "electric_scooter", "bike_id": "fdd5a57e901b6495177bd3d1f6c538ae", "is_disabled": 0, "rental_uris": {"android": "https://dc.lft.to/lastmile_qr_scan", "ios": "https://dc.lft.to/lastmile_qr_scan"}, "lon": -77.02249333333333, "fusion_lat": 0.0}, {"name": "cb4f2090bcbb46b70087da1dffdad976", "fusion_lon": 0.0, "lat": 38.928771833333336, "is_reserved": 0, "type": "electric_scooter", "bike_id": "cb4f2090bcbb46b70087da1dffdad976", "is_disabled": 0, "rental_uris": {"android": "https://dc.lft.to/lastmile_qr_scan", "ios": "https://dc.lft.to/lastmile_qr_scan"}, "lon": -77.02644666666667, "fusion_lat": 0.0}, {"name": "5977dabd1be364909f0f64c0cc4b46c7", "fusion_lon": 0.0, "lat": 38.91412, "is_reserved": 0, "type": "electric_scooter", "bike_id": "5977dabd1be364909f0f64c0cc4b46c7", "is_disabled": 0, "rental_uris": {"android": "https://dc.lft.to/lastmile_qr_scan", "ios": "https://dc.lft.to/lastmile_qr_scan"}, "lon": -77.04179716666667, "fusion_lat": 0.0}, {"name": "359ba90d7a77e4b92cf7baeef84d3942", "fusion_lon": 0.0, "lat": 38.924669, "is_reserved": 0, "type": "electric_scooter", "bike_id": "359ba90d7a77e4b92cf7baeef84d3942", "is_disabled": 0, "rental_uris": {"android": "https://dc.lft.to/lastmile_qr_scan", "ios": "https://dc.lft.to/lastmile_qr_scan"}, "lon": -77.0283345, "fusion_lat": 0.0}, {"name": "8e6179f89c874933c106f69735e82931", "fusion_lon": 0.0, "lat": 38.94439533333333, "is_reserved": 0, "type": "electric_scooter", "bike_id": "8e6179f89c874933c106f69735e82931", "is_disabled": 0, "rental_uris": {"android": "https://dc.lft.to/lastmile_qr_scan", "ios": "https://dc.lft.to/lastmile_qr_scan"}, "lon": -77.06342616666667, "fusion_lat": 0.0}, {"name": "69880e5c18d0b6c43a6b90ae34feea09", "fusion_lon": 0.0, "lat": 38.91274133333334, "is_reserved": 0, "type": "electric_scooter", "bike_id": "69880e5c18d0b6c43a6b90ae34feea09", "is_disabled": 0, "rental_uris": {"android": "https://dc.lft.to/lastmile_qr_scan", "ios": "https://dc.lft.to/lastmile_qr_scan"}, "lon": -77.02685633333333, "fusion_lat": 0.0}, {"name": "772ca60fe0be40c87a484391b9e637bf", "fusion_lon": 0.0, "lat": 38.9014415, "is_reserved": 0, "type": "electric_scooter", "bike_id": "772ca60fe0be40c87a484391b9e637bf", "is_disabled": 0, "rental_uris": {"android": "https://dc.lft.to/lastmile_qr_scan", "ios": "https://dc.lft.to/lastmile_qr_scan"}, "lon": -77.03974233333334, "fusion_lat": 0.0}, {"name": "be5e0601806cba33dfff999febd23db3", "fusion_lon": 0.0, "lat": 38.91766966666667, "is_reserved": 0, "type": "electric_scooter", "bike_id": "be5e0601806cba33dfff999febd23db3", "is_disabled": 0, "rental_uris": {"android": "https://dc.lft.to/lastmile_qr_scan", "ios": "https://dc.lft.to/lastmile_qr_scan"}, "lon": -77.01466966666666, "fusion_lat": 0.0}, {"name": "520c47658c7d7529aa3ca4efd7d21a90", "fusion_lon": 0.0, "lat": 38.9160665, "is_reserved": 0, "type": "electric_scooter", "bike_id": "520c47658c7d7529aa3ca4efd7d21a90", "is_disabled": 0, "rental_uris": {"android": "https://dc.lft.to/lastmile_qr_scan", "ios": "https://dc.lft.to/lastmile_qr_scan"}, "lon": -77.03194916666666, "fusion_lat": 0.0}, {"name": "ad50c88514b829a3632fc13aac0e958a", "fusion_lon": 0.0, "lat": 38.90370816666667, "is_reserved": 0, "type": "electric_scooter", "bike_id": "ad50c88514b829a3632fc13aac0e958a", "is_disabled": 0, "rental_uris": {"android": "https://dc.lft.to/lastmile_qr_scan", "ios": "https://dc.lft.to/lastmile_qr_scan"}, "lon": -76.9375005, "fusion_lat": 0.0}, {"name": "5df6ca003b3053d9c9885f93a1790ff6", "fusion_lon": 0.0, "lat": 38.90152466666667, "is_reserved": 0, "type": "electric_scooter", "bike_id": "5df6ca003b3053d9c9885f93a1790ff6", "is_disabled": 0, "rental_uris": {"android": "https://dc.lft.to/lastmile_qr_scan", "ios": "https://dc.lft.to/lastmile_qr_scan"}, "lon": -76.930578, "fusion_lat": 0.0}, {"name": "624499626f09cfaa5d9ab31fcafe0a31", "fusion_lon": 0.0, "lat": 39.06294116666667, "is_reserved": 0, "type": "electric_bike", "bike_id": "624499626f09cfaa5d9ab31fcafe0a31", "is_disabled": 0, "rental_uris": {"android": "https://dc.lft.to/lastmile_qr_scan", "ios": "https://dc.lft.to/lastmile_qr_scan"}, "lon": -77.04977633333333, "fusion_lat": 0.0}, {"name": "88bdbe56228f40d2f1209b50ba1e9062", "fusion_lon": 0.0, "lat": 38.91330583333333, "is_reserved": 0, "type": "electric_scooter", "bike_id": "88bdbe56228f40d2f1209b50ba1e9062", "is_disabled": 0, "rental_uris": {"android": "https://dc.lft.to/lastmile_qr_scan", "ios": "https://dc.lft.to/lastmile_qr_scan"}, "lon": -77.03166016666667, "fusion_lat": 0.0}, {"name": "3c1eebd0bedab97a1066c19153c07400", "fusion_lon": 0.0, "lat": 38.89222383333333, "is_reserved": 0, "type": "electric_scooter", "bike_id": "3c1eebd0bedab97a1066c19153c07400", "is_disabled": 0, "rental_uris": {"android": "https://dc.lft.to/lastmile_qr_scan", "ios": "https://dc.lft.to/lastmile_qr_scan"}, "lon": -77.04082566666666, "fusion_lat": 0.0}, {"name": "56b5b31d2a3d80bfb2320e89e7fc2d64", "fusion_lon": 0.0, "lat": 38.9053135, "is_reserved": 0, "type": "electric_scooter", "bike_id": "56b5b31d2a3d80bfb2320e89e7fc2d64", "is_disabled": 0, "rental_uris": {"android": "https://dc.lft.to/lastmile_qr_scan", "ios": "https://dc.lft.to/lastmile_qr_scan"}, "lon": -77.04162633333334, "fusion_lat": 0.0}, {"name": "eeb8f2769fd092ebd12a123d0ae6f2f7", "fusion_lon": 0.0, "lat": 38.95656283333334, "is_reserved": 0, "type": "electric_scooter", "bike_id": "eeb8f2769fd092ebd12a123d0ae6f2f7", "is_disabled": 0, "rental_uris": {"android": "https://dc.lft.to/lastmile_qr_scan", "ios": "https://dc.lft.to/lastmile_qr_scan"}, "lon": -77.03320866666667, "fusion_lat": 0.0}, {"name": "59ea9b1a6ce3bbcf35ca41c90118d3b3", "fusion_lon": 0.0, "lat": 38.949126166666666, "is_reserved": 0, "type": "electric_bike", "bike_id": "59ea9b1a6ce3bbcf35ca41c90118d3b3", "is_disabled": 0, "rental_uris": {"android": "https://dc.lft.to/lastmile_qr_scan", "ios": "https://dc.lft.to/lastmile_qr_scan"}, "lon": -77.02413816666666, "fusion_lat": 0.0}, {"name": "a1f3b6aa2378e98d31dfe20ead97ef9e", "fusion_lon": 0.0, "lat": 38.92159866666667, "is_reserved": 0, "type": "electric_scooter", "bike_id": "a1f3b6aa2378e98d31dfe20ead97ef9e", "is_disabled": 0, "rental_uris": {"android": "https://dc.lft.to/lastmile_qr_scan", "ios": "https://dc.lft.to/lastmile_qr_scan"}, "lon": -77.0252945, "fusion_lat": 0.0}, {"name": "67460eca233bff504206d6d6c9ac054b", "fusion_lon": 0.0, "lat": 38.93582833333333, "is_reserved": 0, "type": "electric_scooter", "bike_id": "67460eca233bff504206d6d6c9ac054b", "is_disabled": 0, "rental_uris": {"android": "https://dc.lft.to/lastmile_qr_scan", "ios": "https://dc.lft.to/lastmile_qr_scan"}, "lon": -77.0210335, "fusion_lat": 0.0}, {"name": "069f34169ad153b6476b67ff0716d7ff", "fusion_lon": 0.0, "lat": 38.92100466666667, "is_reserved": 0, "type": "electric_scooter", "bike_id": "069f34169ad153b6476b67ff0716d7ff", "is_disabled": 0, "rental_uris": {"android": "https://dc.lft.to/lastmile_qr_scan", "ios": "https://dc.lft.to/lastmile_qr_scan"}, "lon": -77.03174933333334, "fusion_lat": 0.0}, {"name": "10cd19afe742b02dcf61702d09a75e18", "fusion_lon": 0.0, "lat": 38.919905166666666, "is_reserved": 0, "type": "electric_scooter", "bike_id": "10cd19afe742b02dcf61702d09a75e18", "is_disabled": 0, "rental_uris": {"android": "https://dc.lft.to/lastmile_qr_scan", "ios": "https://dc.lft.to/lastmile_qr_scan"}, "lon": -77.023798, "fusion_lat": 0.0}, {"name": "56945e497d544b34374ca850962aad9f", "fusion_lon": 0.0, "lat": 38.9156485, "is_reserved": 0, "type": "electric_scooter", "bike_id": "56945e497d544b34374ca850962aad9f", "is_disabled": 0, "rental_uris": {"android": "https://dc.lft.to/lastmile_qr_scan", "ios": "https://dc.lft.to/lastmile_qr_scan"}, "lon": -77.0385515, "fusion_lat": 0.0}, {"name": "ebc7690d88142c6cacbd8080bd33bcc1", "fusion_lon": 0.0, "lat": 38.91497783333333, "is_reserved": 0, "type": "electric_scooter", "bike_id": "ebc7690d88142c6cacbd8080bd33bcc1", "is_disabled": 0, "rental_uris": {"android": "https://dc.lft.to/lastmile_qr_scan", "ios": "https://dc.lft.to/lastmile_qr_scan"}, "lon": -76.98369266666667, "fusion_lat": 0.0}, {"name": "12ed8feb814b498d894afebb711abcad", "fusion_lon": 0.0, "lat": 38.95201983333333, "is_reserved": 0, "type": "electric_scooter", "bike_id": "12ed8feb814b498d894afebb711abcad", "is_disabled": 0, "rental_uris": {"android": "https://dc.lft.to/lastmile_qr_scan", "ios": "https://dc.lft.to/lastmile_qr_scan"}, "lon": -77.02730083333333, "fusion_lat": 0.0}, {"name": "421c8e3723582bdd94a135d4de6f42a8", "fusion_lon": 0.0, "lat": 38.90158433333333, "is_reserved": 0, "type": "electric_scooter", "bike_id": "421c8e3723582bdd94a135d4de6f42a8", "is_disabled": 0, "rental_uris": {"android": "https://dc.lft.to/lastmile_qr_scan", "ios": "https://dc.lft.to/lastmile_qr_scan"}, "lon": -77.00853466666666, "fusion_lat": 0.0}, {"name": "7b82ccff4d7ce84eebd543681a5c5896", "fusion_lon": 0.0, "lat": 38.890460833333336, "is_reserved": 0, "type": "electric_scooter", "bike_id": "7b82ccff4d7ce84eebd543681a5c5896", "is_disabled": 0, "rental_uris": {"android": "https://dc.lft.to/lastmile_qr_scan", "ios": "https://dc.lft.to/lastmile_qr_scan"}, "lon": -76.990588, "fusion_lat": 0.0}, {"name": "cf68beb8321e82b538633931c5652ec8", "fusion_lon": 0.0, "lat": 38.86192583333333, "is_reserved": 0, "type": "electric_bike", "bike_id": "cf68beb8321e82b538633931c5652ec8", "is_disabled": 0, "rental_uris": {"android": "https://dc.lft.to/lastmile_qr_scan", "ios": "https://dc.lft.to/lastmile_qr_scan"}, "lon": -76.94797933333334, "fusion_lat": 0.0}, {"name": "226afaa987dd652130ae6908ccf0ce25", "fusion_lon": 0.0, "lat": 38.892218, "is_reserved": 0, "type": "electric_scooter", "bike_id": "226afaa987dd652130ae6908ccf0ce25", "is_disabled": 0, "rental_uris": {"android": "https://dc.lft.to/lastmile_qr_scan", "ios": "https://dc.lft.to/lastmile_qr_scan"}, "lon": -77.02224, "fusion_lat": 0.0}, {"name": "ccec853aa328e423e6f3dde082515a42", "fusion_lon": 0.0, "lat": 38.9403615, "is_reserved": 0, "type": "electric_scooter", "bike_id": "ccec853aa328e423e6f3dde082515a42", "is_disabled": 0, "rental_uris": {"android": "https://dc.lft.to/lastmile_qr_scan", "ios": "https://dc.lft.to/lastmile_qr_scan"}, "lon": -77.029024, "fusion_lat": 0.0}, {"name": "b66fd566298ec9d6fcffdd18f4592db2", "fusion_lon": 0.0, "lat": 38.9083855, "is_reserved": 0, "type": "electric_bike", "bike_id": "b66fd566298ec9d6fcffdd18f4592db2", "is_disabled": 0, "rental_uris": {"android": "https://dc.lft.to/lastmile_qr_scan", "ios": "https://dc.lft.to/lastmile_qr_scan"}, "lon": -76.93310166666667, "fusion_lat": 0.0}, {"name": "b5d24a2232aee11e0c7d71932fad1b24", "fusion_lon": 0.0, "lat": 38.94036, "is_reserved": 0, "type": "electric_scooter", "bike_id": "b5d24a2232aee11e0c7d71932fad1b24", "is_disabled": 0, "rental_uris": {"android": "https://dc.lft.to/lastmile_qr_scan", "ios": "https://dc.lft.to/lastmile_qr_scan"}, "lon": -77.02903183333333, "fusion_lat": 0.0}, {"name": "219572d3a512c497f4461b1f86655cca", "fusion_lon": 0.0, "lat": 38.910662333333335, "is_reserved": 0, "type": "electric_scooter", "bike_id": "219572d3a512c497f4461b1f86655cca", "is_disabled": 0, "rental_uris": {"android": "https://dc.lft.to/lastmile_qr_scan", "ios": "https://dc.lft.to/lastmile_qr_scan"}, "lon": -77.03835366666667, "fusion_lat": 0.0}, {"name": "3c5074f108f227da0ceef7f363419ddf", "fusion_lon": 0.0, "lat": 38.88658566666667, "is_reserved": 0, "type": "electric_scooter", "bike_id": "3c5074f108f227da0ceef7f363419ddf", "is_disabled": 0, "rental_uris": {"android": "https://dc.lft.to/lastmile_qr_scan", "ios": "https://dc.lft.to/lastmile_qr_scan"}, "lon": -76.999821, "fusion_lat": 0.0}, {"name": "6ebf66860bdc2e1910caaec0b5f38be4", "fusion_lon": 0.0, "lat": 38.907919166666666, "is_reserved": 0, "type": "electric_scooter", "bike_id": "6ebf66860bdc2e1910caaec0b5f38be4", "is_disabled": 0, "rental_uris": {"android": "https://dc.lft.to/lastmile_qr_scan", "ios": "https://dc.lft.to/lastmile_qr_scan"}, "lon": -77.03861583333334, "fusion_lat": 0.0}, {"name": "029cd445941872e2001abc02f8b9d121", "fusion_lon": 0.0, "lat": 38.83827333333333, "is_reserved": 0, "type": "electric_bike", "bike_id": "029cd445941872e2001abc02f8b9d121", "is_disabled": 0, "rental_uris": {"android": "https://dc.lft.to/lastmile_qr_scan", "ios": "https://dc.lft.to/lastmile_qr_scan"}, "lon": -77.07901866666667, "fusion_lat": 0.0}, {"name": "a9abe28473c1697b373d6db21401e893", "fusion_lon": 0.0, "lat": 38.948269, "is_reserved": 0, "type": "electric_bike", "bike_id": "a9abe28473c1697b373d6db21401e893", "is_disabled": 0, "rental_uris": {"android": "https://dc.lft.to/lastmile_qr_scan", "ios": "https://dc.lft.to/lastmile_qr_scan"}, "lon": -77.03377416666666, "fusion_lat": 0.0}, {"name": "376fae6ca507b029b6cd60cd1ee7ff51", "fusion_lon": 0.0, "lat": 38.924595833333335, "is_reserved": 0, "type": "electric_scooter", "bike_id": "376fae6ca507b029b6cd60cd1ee7ff51", "is_disabled": 0, "rental_uris": {"android": "https://dc.lft.to/lastmile_qr_scan", "ios": "https://dc.lft.to/lastmile_qr_scan"}, "lon": -77.0270585, "fusion_lat": 0.0}, {"name": "7ee6ece587c5b6b99042f6176f8c25fd", "fusion_lon": 0.0, "lat": 38.924506, "is_reserved": 0, "type": "electric_scooter", "bike_id": "7ee6ece587c5b6b99042f6176f8c25fd", "is_disabled": 0, "rental_uris": {"android": "https://dc.lft.to/lastmile_qr_scan", "ios": "https://dc.lft.to/lastmile_qr_scan"}, "lon": -77.03961966666667, "fusion_lat": 0.0}, {"name": "08efe7a67a5412623b719597b98afafe", "fusion_lon": 0.0, "lat": 38.875507166666665, "is_reserved": 0, "type": "electric_scooter", "bike_id": "08efe7a67a5412623b719597b98afafe", "is_disabled": 0, "rental_uris": {"android": "https://dc.lft.to/lastmile_qr_scan", "ios": "https://dc.lft.to/lastmile_qr_scan"}, "lon": -77.00560066666667, "fusion_lat": 0.0}, {"name": "668062612b2ac701cc0704c52343371a", "fusion_lon": 0.0, "lat": 38.90376216666667, "is_reserved": 0, "type": "electric_scooter", "bike_id": "668062612b2ac701cc0704c52343371a", "is_disabled": 0, "rental_uris": {"android": "https://dc.lft.to/lastmile_qr_scan", "ios": "https://dc.lft.to/lastmile_qr_scan"}, "lon": -77.03629433333333, "fusion_lat": 0.0}, {"name": "84917bda3ad0c820cbd2f8140309bda7", "fusion_lon": 0.0, "lat": 38.8840615, "is_reserved": 0, "type": "electric_scooter", "bike_id": "84917bda3ad0c820cbd2f8140309bda7", "is_disabled": 0, "rental_uris": {"android": "https://dc.lft.to/lastmile_qr_scan", "ios": "https://dc.lft.to/lastmile_qr_scan"}, "lon": -76.95395466666666, "fusion_lat": 0.0}, {"name": "a6a3502386f73f7e463de3896cb816b2", "fusion_lon": 0.0, "lat": 38.934070166666665, "is_reserved": 0, "type": "electric_bike", "bike_id": "a6a3502386f73f7e463de3896cb816b2", "is_disabled": 0, "rental_uris": {"android": "https://dc.lft.to/lastmile_qr_scan", "ios": "https://dc.lft.to/lastmile_qr_scan"}, "lon": -77.02893066666667, "fusion_lat": 0.0}, {"name": "f58a488a2790f96bd6d35b0405ff159e", "fusion_lon": 0.0, "lat": 38.9287795, "is_reserved": 0, "type": "electric_scooter", "bike_id": "f58a488a2790f96bd6d35b0405ff159e", "is_disabled": 0, "rental_uris": {"android": "https://dc.lft.to/lastmile_qr_scan", "ios": "https://dc.lft.to/lastmile_qr_scan"}, "lon": -77.04044183333333, "fusion_lat": 0.0}, {"name": "ca04de44a356af067c2c33842216b68e", "fusion_lon": 0.0, "lat": 38.9285965, "is_reserved": 0, "type": "electric_scooter", "bike_id": "ca04de44a356af067c2c33842216b68e", "is_disabled": 0, "rental_uris": {"android": "https://dc.lft.to/lastmile_qr_scan", "ios": "https://dc.lft.to/lastmile_qr_scan"}, "lon": -77.03186133333334, "fusion_lat": 0.0}, {"name": "b26603cf910dbc26171670dcadd842dd", "fusion_lon": 0.0, "lat": 38.9345395, "is_reserved": 0, "type": "electric_scooter", "bike_id": "b26603cf910dbc26171670dcadd842dd", "is_disabled": 0, "rental_uris": {"android": "https://dc.lft.to/lastmile_qr_scan", "ios": "https://dc.lft.to/lastmile_qr_scan"}, "lon": -77.027218, "fusion_lat": 0.0}, {"name": "4e38de5455abab785af7694aad82a254", "fusion_lon": 0.0, "lat": 38.85067766666667, "is_reserved": 0, "type": "electric_scooter", "bike_id": "4e38de5455abab785af7694aad82a254", "is_disabled": 0, "rental_uris": {"android": "https://dc.lft.to/lastmile_qr_scan", "ios": "https://dc.lft.to/lastmile_qr_scan"}, "lon": -76.97009916666667, "fusion_lat": 0.0}, {"name": "bb9c9217c3eb57df07813fe73354f4e7", "fusion_lon": 0.0, "lat": 38.9044595, "is_reserved": 0, "type": "electric_scooter", "bike_id": "bb9c9217c3eb57df07813fe73354f4e7", "is_disabled": 0, "rental_uris": {"android": "https://dc.lft.to/lastmile_qr_scan", "ios": "https://dc.lft.to/lastmile_qr_scan"}, "lon": -77.06289316666667, "fusion_lat": 0.0}, {"name": "84dd8892ffdca0319a044206179f212f", "fusion_lon": 0.0, "lat": 38.89310716666667, "is_reserved": 0, "type": "electric_scooter", "bike_id": "84dd8892ffdca0319a044206179f212f", "is_disabled": 0, "rental_uris": {"android": "https://dc.lft.to/lastmile_qr_scan", "ios": "https://dc.lft.to/lastmile_qr_scan"}, "lon": -76.939728, "fusion_lat": 0.0}, {"name": "3842b3d4618c8eb175538ec7b65c01e3", "fusion_lon": 0.0, "lat": 38.934217333333336, "is_reserved": 0, "type": "electric_scooter", "bike_id": "3842b3d4618c8eb175538ec7b65c01e3", "is_disabled": 0, "rental_uris": {"android": "https://dc.lft.to/lastmile_qr_scan", "ios": "https://dc.lft.to/lastmile_qr_scan"}, "lon": -77.0424785, "fusion_lat": 0.0}, {"name": "c4a2af0bb0fe133fbe82e491f3422306", "fusion_lon": 0.0, "lat": 38.928463, "is_reserved": 0, "type": "electric_scooter", "bike_id": "c4a2af0bb0fe133fbe82e491f3422306", "is_disabled": 0, "rental_uris": {"android": "https://dc.lft.to/lastmile_qr_scan", "ios": "https://dc.lft.to/lastmile_qr_scan"}, "lon": -77.03311483333333, "fusion_lat": 0.0}, {"name": "a5bc308a0f3ac9a5b6411b66d6ae9b62", "fusion_lon": 0.0, "lat": 38.90131683333333, "is_reserved": 0, "type": "electric_scooter", "bike_id": "a5bc308a0f3ac9a5b6411b66d6ae9b62", "is_disabled": 0, "rental_uris": {"android": "https://dc.lft.to/lastmile_qr_scan", "ios": "https://dc.lft.to/lastmile_qr_scan"}, "lon": -77.01319616666666, "fusion_lat": 0.0}, {"name": "fe533a2848afa426f8af75493a9c8e3c", "fusion_lon": 0.0, "lat": 38.880577333333335, "is_reserved": 0, "type": "electric_bike", "bike_id": "fe533a2848afa426f8af75493a9c8e3c", "is_disabled": 0, "rental_uris": {"android": "https://dc.lft.to/lastmile_qr_scan", "ios": "https://dc.lft.to/lastmile_qr_scan"}, "lon": -76.96230883333334, "fusion_lat": 0.0}, {"name": "d1a6ea627641f5fa799ca7993a8226ba", "fusion_lon": 0.0, "lat": 38.906008, "is_reserved": 0, "type": "electric_scooter", "bike_id": "d1a6ea627641f5fa799ca7993a8226ba", "is_disabled": 0, "rental_uris": {"android": "https://dc.lft.to/lastmile_qr_scan", "ios": "https://dc.lft.to/lastmile_qr_scan"}, "lon": -77.05684666666667, "fusion_lat": 0.0}, {"name": "ba4e66c27a5d12e6adfb322b9862705a", "fusion_lon": 0.0, "lat": 38.86951283333333, "is_reserved": 0, "type": "electric_scooter", "bike_id": "ba4e66c27a5d12e6adfb322b9862705a", "is_disabled": 0, "rental_uris": {"android": "https://dc.lft.to/lastmile_qr_scan", "ios": "https://dc.lft.to/lastmile_qr_scan"}, "lon": -76.9816785, "fusion_lat": 0.0}, {"name": "486925e8d87281656b88fab52d8d9605", "fusion_lon": 0.0, "lat": 38.893206166666666, "is_reserved": 0, "type": "electric_scooter", "bike_id": "486925e8d87281656b88fab52d8d9605", "is_disabled": 0, "rental_uris": {"android": "https://dc.lft.to/lastmile_qr_scan", "ios": "https://dc.lft.to/lastmile_qr_scan"}, "lon": -77.048674, "fusion_lat": 0.0}, {"name": "d7a669c579cc818ffe84fdb31690cc24", "fusion_lon": 0.0, "lat": 38.924005666666666, "is_reserved": 0, "type": "electric_scooter", "bike_id": "d7a669c579cc818ffe84fdb31690cc24", "is_disabled": 0, "rental_uris": {"android": "https://dc.lft.to/lastmile_qr_scan", "ios": "https://dc.lft.to/lastmile_qr_scan"}, "lon": -77.0214805, "fusion_lat": 0.0}, {"name": "0327e2cec40c08fb05d6ca628791e929", "fusion_lon": 0.0, "lat": 38.91618, "is_reserved": 0, "type": "electric_scooter", "bike_id": "0327e2cec40c08fb05d6ca628791e929", "is_disabled": 0, "rental_uris": {"android": "https://dc.lft.to/lastmile_qr_scan", "ios": "https://dc.lft.to/lastmile_qr_scan"}, "lon": -77.04850266666666, "fusion_lat": 0.0}, {"name": "7b10fb18416c611d7953ded6c1733f72", "fusion_lon": 0.0, "lat": 38.923128166666665, "is_reserved": 0, "type": "electric_scooter", "bike_id": "7b10fb18416c611d7953ded6c1733f72", "is_disabled": 0, "rental_uris": {"android": "https://dc.lft.to/lastmile_qr_scan", "ios": "https://dc.lft.to/lastmile_qr_scan"}, "lon": -77.02751783333333, "fusion_lat": 0.0}, {"name": "0b067dcbf6f16483f80169f4d5e571da", "fusion_lon": 0.0, "lat": 38.87612333333333, "is_reserved": 0, "type": "electric_scooter", "bike_id": "0b067dcbf6f16483f80169f4d5e571da", "is_disabled": 0, "rental_uris": {"android": "https://dc.lft.to/lastmile_qr_scan", "ios": "https://dc.lft.to/lastmile_qr_scan"}, "lon": -77.000782, "fusion_lat": 0.0}, {"name": "49bed7ca0d9f69f0f53d866464c93d09", "fusion_lon": 0.0, "lat": 38.942097833333335, "is_reserved": 0, "type": "electric_scooter", "bike_id": "49bed7ca0d9f69f0f53d866464c93d09", "is_disabled": 0, "rental_uris": {"android": "https://dc.lft.to/lastmile_qr_scan", "ios": "https://dc.lft.to/lastmile_qr_scan"}, "lon": -77.0250935, "fusion_lat": 0.0}, {"name": "ccb928811441110b6e0ab644e1ea25b9", "fusion_lon": 0.0, "lat": 38.898346333333336, "is_reserved": 0, "type": "electric_scooter", "bike_id": "ccb928811441110b6e0ab644e1ea25b9", "is_disabled": 0, "rental_uris": {"android": "https://dc.lft.to/lastmile_qr_scan", "ios": "https://dc.lft.to/lastmile_qr_scan"}, "lon": -77.03320783333334, "fusion_lat": 0.0}, {"name": "c802f0a56c0ce2c4e8d23e5e6ca43f0c", "fusion_lon": 0.0, "lat": 38.910149, "is_reserved": 0, "type": "electric_bike", "bike_id": "c802f0a56c0ce2c4e8d23e5e6ca43f0c", "is_disabled": 0, "rental_uris": {"android": "https://dc.lft.to/lastmile_qr_scan", "ios": "https://dc.lft.to/lastmile_qr_scan"}, "lon": -77.22801766666667, "fusion_lat": 0.0}, {"name": "53cd4b6dc6aee73e1fb4b555fc448318", "fusion_lon": 0.0, "lat": 38.8727885, "is_reserved": 0, "type": "electric_bike", "bike_id": "53cd4b6dc6aee73e1fb4b555fc448318", "is_disabled": 0, "rental_uris": {"android": "https://dc.lft.to/lastmile_qr_scan", "ios": "https://dc.lft.to/lastmile_qr_scan"}, "lon": -77.23318433333333, "fusion_lat": 0.0}, {"name": "fb98a03dcd0ad45b6a7535db287be3cd", "fusion_lon": 0.0, "lat": 38.863551333333334, "is_reserved": 0, "type": "electric_scooter", "bike_id": "fb98a03dcd0ad45b6a7535db287be3cd", "is_disabled": 0, "rental_uris": {"android": "https://dc.lft.to/lastmile_qr_scan", "ios": "https://dc.lft.to/lastmile_qr_scan"}, "lon": -76.98704883333333, "fusion_lat": 0.0}, {"name": "ef329c833d34967e544120a7f763e08d", "fusion_lon": 0.0, "lat": 38.900165, "is_reserved": 0, "type": "electric_scooter", "bike_id": "ef329c833d34967e544120a7f763e08d", "is_disabled": 0, "rental_uris": {"android": "https://dc.lft.to/lastmile_qr_scan", "ios": "https://dc.lft.to/lastmile_qr_scan"}, "lon": -77.01185833333334, "fusion_lat": 0.0}, {"name": "dfd2f21f17927b12c42f6e7d55c20692", "fusion_lon": 0.0, "lat": 38.90391433333333, "is_reserved": 0, "type": "electric_scooter", "bike_id": "dfd2f21f17927b12c42f6e7d55c20692", "is_disabled": 0, "rental_uris": {"android": "https://dc.lft.to/lastmile_qr_scan", "ios": "https://dc.lft.to/lastmile_qr_scan"}, "lon": -77.03815066666667, "fusion_lat": 0.0}, {"name": "82d0fe66c61ffbc5cb49dc5f21854037", "fusion_lon": 0.0, "lat": 38.915236166666666, "is_reserved": 0, "type": "electric_scooter", "bike_id": "82d0fe66c61ffbc5cb49dc5f21854037", "is_disabled": 0, "rental_uris": {"android": "https://dc.lft.to/lastmile_qr_scan", "ios": "https://dc.lft.to/lastmile_qr_scan"}, "lon": -77.03179616666667, "fusion_lat": 0.0}, {"name": "1a87c43a1c6d3df077e51db9f34ce9b6", "fusion_lon": 0.0, "lat": 38.9146, "is_reserved": 0, "type": "electric_scooter", "bike_id": "1a87c43a1c6d3df077e51db9f34ce9b6", "is_disabled": 0, "rental_uris": {"android": "https://dc.lft.to/lastmile_qr_scan", "ios": "https://dc.lft.to/lastmile_qr_scan"}, "lon": -77.0713545, "fusion_lat": 0.0}, {"name": "6821d3229f8e1e24bff58d7d28da36a1", "fusion_lon": 0.0, "lat": 38.916424166666665, "is_reserved": 0, "type": "electric_scooter", "bike_id": "6821d3229f8e1e24bff58d7d28da36a1", "is_disabled": 0, "rental_uris": {"android": "https://dc.lft.to/lastmile_qr_scan", "ios": "https://dc.lft.to/lastmile_qr_scan"}, "lon": -77.03987483333333, "fusion_lat": 0.0}, {"name": "854ae83903e780d6082eee60bac22aab", "fusion_lon": 0.0, "lat": 38.922755333333335, "is_reserved": 0, "type": "electric_scooter", "bike_id": "854ae83903e780d6082eee60bac22aab", "is_disabled": 0, "rental_uris": {"android": "https://dc.lft.to/lastmile_qr_scan", "ios": "https://dc.lft.to/lastmile_qr_scan"}, "lon": -77.03664566666667, "fusion_lat": 0.0}, {"name": "1da5693f073c7e7f846bc7b16690ef69", "fusion_lon": 0.0, "lat": 38.9237155, "is_reserved": 0, "type": "electric_scooter", "bike_id": "1da5693f073c7e7f846bc7b16690ef69", "is_disabled": 0, "rental_uris": {"android": "https://dc.lft.to/lastmile_qr_scan", "ios": "https://dc.lft.to/lastmile_qr_scan"}, "lon": -77.030453, "fusion_lat": 0.0}, {"name": "e6cd8556aeecc88cc0eb5b5bd38e2bb3", "fusion_lon": 0.0, "lat": 38.88266383333333, "is_reserved": 0, "type": "electric_scooter", "bike_id": "e6cd8556aeecc88cc0eb5b5bd38e2bb3", "is_disabled": 0, "rental_uris": {"android": "https://dc.lft.to/lastmile_qr_scan", "ios": "https://dc.lft.to/lastmile_qr_scan"}, "lon": -76.99248533333333, "fusion_lat": 0.0}, {"name": "c0a560cf175c30b19a9fbc42815add7b", "fusion_lon": 0.0, "lat": 38.905935, "is_reserved": 0, "type": "electric_scooter", "bike_id": "c0a560cf175c30b19a9fbc42815add7b", "is_disabled": 0, "rental_uris": {"android": "https://dc.lft.to/lastmile_qr_scan", "ios": "https://dc.lft.to/lastmile_qr_scan"}, "lon": -77.005874, "fusion_lat": 0.0}, {"name": "3a386baa7047fc37fc2e243c8f99b8c1", "fusion_lon": 0.0, "lat": 38.908307666666666, "is_reserved": 0, "type": "electric_scooter", "bike_id": "3a386baa7047fc37fc2e243c8f99b8c1", "is_disabled": 0, "rental_uris": {"android": "https://dc.lft.to/lastmile_qr_scan", "ios": "https://dc.lft.to/lastmile_qr_scan"}, "lon": -77.0238125, "fusion_lat": 0.0}, {"name": "996e035563c1aa0037dc97768d438700", "fusion_lon": 0.0, "lat": 38.9072655, "is_reserved": 0, "type": "electric_scooter", "bike_id": "996e035563c1aa0037dc97768d438700", "is_disabled": 0, "rental_uris": {"android": "https://dc.lft.to/lastmile_qr_scan", "ios": "https://dc.lft.to/lastmile_qr_scan"}, "lon": -77.042223, "fusion_lat": 0.0}, {"name": "f5de981ed4730f26a51756e7372ce419", "fusion_lon": 0.0, "lat": 38.9180775, "is_reserved": 0, "type": "electric_scooter", "bike_id": "f5de981ed4730f26a51756e7372ce419", "is_disabled": 0, "rental_uris": {"android": "https://dc.lft.to/lastmile_qr_scan", "ios": "https://dc.lft.to/lastmile_qr_scan"}, "lon": -77.0344435, "fusion_lat": 0.0}, {"name": "fb8ad8177ecdc1e7044683a0f673aa99", "fusion_lon": 0.0, "lat": 38.894806, "is_reserved": 0, "type": "electric_scooter", "bike_id": "fb8ad8177ecdc1e7044683a0f673aa99", "is_disabled": 0, "rental_uris": {"android": "https://dc.lft.to/lastmile_qr_scan", "ios": "https://dc.lft.to/lastmile_qr_scan"}, "lon": -77.04651116666666, "fusion_lat": 0.0}, {"name": "549e8522242e7f7496013712a87f6467", "fusion_lon": 0.0, "lat": 38.91116133333333, "is_reserved": 0, "type": "electric_scooter", "bike_id": "549e8522242e7f7496013712a87f6467", "is_disabled": 0, "rental_uris": {"android": "https://dc.lft.to/lastmile_qr_scan", "ios": "https://dc.lft.to/lastmile_qr_scan"}, "lon": -77.02237116666667, "fusion_lat": 0.0}, {"name": "e9e3d50fc09223e6e7b66cd9fb4615f9", "fusion_lon": 0.0, "lat": 38.892365833333336, "is_reserved": 0, "type": "electric_scooter", "bike_id": "e9e3d50fc09223e6e7b66cd9fb4615f9", "is_disabled": 0, "rental_uris": {"android": "https://dc.lft.to/lastmile_qr_scan", "ios": "https://dc.lft.to/lastmile_qr_scan"}, "lon": -77.02406416666666, "fusion_lat": 0.0}, {"name": "06c4bf0bd81ed70d6b2994d6f50164b0", "fusion_lon": 0.0, "lat": 38.89220566666667, "is_reserved": 0, "type": "electric_scooter", "bike_id": "06c4bf0bd81ed70d6b2994d6f50164b0", "is_disabled": 0, "rental_uris": {"android": "https://dc.lft.to/lastmile_qr_scan", "ios": "https://dc.lft.to/lastmile_qr_scan"}, "lon": -77.048653, "fusion_lat": 0.0}, {"name": "eaa2dc0bd4355a62858bbfa497d5d541", "fusion_lon": 0.0, "lat": 38.87829, "is_reserved": 0, "type": "electric_scooter", "bike_id": "eaa2dc0bd4355a62858bbfa497d5d541", "is_disabled": 0, "rental_uris": {"android": "https://dc.lft.to/lastmile_qr_scan", "ios": "https://dc.lft.to/lastmile_qr_scan"}, "lon": -77.015963, "fusion_lat": 0.0}, {"name": "84dec7c9eebdc18101ebc605d8f8c0ae", "fusion_lon": 0.0, "lat": 38.89298133333333, "is_reserved": 0, "type": "electric_scooter", "bike_id": "84dec7c9eebdc18101ebc605d8f8c0ae", "is_disabled": 0, "rental_uris": {"android": "https://dc.lft.to/lastmile_qr_scan", "ios": "https://dc.lft.to/lastmile_qr_scan"}, "lon": -76.93926783333333, "fusion_lat": 0.0}, {"name": "b7a05555efecd973fd0e0aa000e1d5a6", "fusion_lon": 0.0, "lat": 38.92033166666667, "is_reserved": 0, "type": "electric_scooter", "bike_id": "b7a05555efecd973fd0e0aa000e1d5a6", "is_disabled": 0, "rental_uris": {"android": "https://dc.lft.to/lastmile_qr_scan", "ios": "https://dc.lft.to/lastmile_qr_scan"}, "lon": -77.02584516666667, "fusion_lat": 0.0}, {"name": "64bc9227c3c7b958dda26d7e1ac24c90", "fusion_lon": 0.0, "lat": 38.92378716666666, "is_reserved": 0, "type": "electric_scooter", "bike_id": "64bc9227c3c7b958dda26d7e1ac24c90", "is_disabled": 0, "rental_uris": {"android": "https://dc.lft.to/lastmile_qr_scan", "ios": "https://dc.lft.to/lastmile_qr_scan"}, "lon": -77.02912416666666, "fusion_lat": 0.0}, {"name": "16167628e3bc0fd157716d5e65564a04", "fusion_lon": 0.0, "lat": 38.9038445, "is_reserved": 0, "type": "electric_scooter", "bike_id": "16167628e3bc0fd157716d5e65564a04", "is_disabled": 0, "rental_uris": {"android": "https://dc.lft.to/lastmile_qr_scan", "ios": "https://dc.lft.to/lastmile_qr_scan"}, "lon": -77.025798, "fusion_lat": 0.0}, {"name": "b5c5aa262dde91c7ba11cef6a816decc", "fusion_lon": 0.0, "lat": 38.92156216666667, "is_reserved": 0, "type": "electric_scooter", "bike_id": "b5c5aa262dde91c7ba11cef6a816decc", "is_disabled": 0, "rental_uris": {"android": "https://dc.lft.to/lastmile_qr_scan", "ios": "https://dc.lft.to/lastmile_qr_scan"}, "lon": -77.034651, "fusion_lat": 0.0}, {"name": "ac7b8ac2a3d4c5ad2144ef66a4dd6323", "fusion_lon": 0.0, "lat": 38.9456695, "is_reserved": 0, "type": "electric_bike", "bike_id": "ac7b8ac2a3d4c5ad2144ef66a4dd6323", "is_disabled": 0, "rental_uris": {"android": "https://dc.lft.to/lastmile_qr_scan", "ios": "https://dc.lft.to/lastmile_qr_scan"}, "lon": -76.96682083333333, "fusion_lat": 0.0}, {"name": "59466ce6733ff626df300270589f705b", "fusion_lon": 0.0, "lat": 38.92879883333333, "is_reserved": 0, "type": "electric_scooter", "bike_id": "59466ce6733ff626df300270589f705b", "is_disabled": 0, "rental_uris": {"android": "https://dc.lft.to/lastmile_qr_scan", "ios": "https://dc.lft.to/lastmile_qr_scan"}, "lon": -77.04228866666666, "fusion_lat": 0.0}, {"name": "524dca50c4caf976dedbf08b493c2a5a", "fusion_lon": 0.0, "lat": 38.9066055, "is_reserved": 0, "type": "electric_scooter", "bike_id": "524dca50c4caf976dedbf08b493c2a5a", "is_disabled": 0, "rental_uris": {"android": "https://dc.lft.to/lastmile_qr_scan", "ios": "https://dc.lft.to/lastmile_qr_scan"}, "lon": -77.03855716666666, "fusion_lat": 0.0}, {"name": "5c8a4fb8e64a4a6899325f30e25e198f", "fusion_lon": 0.0, "lat": 38.87227083333333, "is_reserved": 0, "type": "electric_scooter", "bike_id": "5c8a4fb8e64a4a6899325f30e25e198f", "is_disabled": 0, "rental_uris": {"android": "https://dc.lft.to/lastmile_qr_scan", "ios": "https://dc.lft.to/lastmile_qr_scan"}, "lon": -77.01157466666666, "fusion_lat": 0.0}, {"name": "e4d39d1f4a5e61772e9dcf0f850b255c", "fusion_lon": 0.0, "lat": 38.900084, "is_reserved": 0, "type": "electric_scooter", "bike_id": "e4d39d1f4a5e61772e9dcf0f850b255c", "is_disabled": 0, "rental_uris": {"android": "https://dc.lft.to/lastmile_qr_scan", "ios": "https://dc.lft.to/lastmile_qr_scan"}, "lon": -77.00145483333333, "fusion_lat": 0.0}, {"name": "cd24f7210d4b12bc9f3e87e6c9d86aaf", "fusion_lon": 0.0, "lat": 38.970587, "is_reserved": 0, "type": "electric_bike", "bike_id": "cd24f7210d4b12bc9f3e87e6c9d86aaf", "is_disabled": 0, "rental_uris": {"android": "https://dc.lft.to/lastmile_qr_scan", "ios": "https://dc.lft.to/lastmile_qr_scan"}, "lon": -76.936091, "fusion_lat": 0.0}, {"name": "b14a6b4425f5cd689c5333c690012844", "fusion_lon": 0.0, "lat": 38.98432583333334, "is_reserved": 0, "type": "electric_scooter", "bike_id": "b14a6b4425f5cd689c5333c690012844", "is_disabled": 0, "rental_uris": {"android": "https://dc.lft.to/lastmile_qr_scan", "ios": "https://dc.lft.to/lastmile_qr_scan"}, "lon": -77.02666916666666, "fusion_lat": 0.0}, {"name": "0b1126107a513cc45e8c0bd96e8d3e06", "fusion_lon": 0.0, "lat": 38.8764775, "is_reserved": 0, "type": "electric_scooter", "bike_id": "0b1126107a513cc45e8c0bd96e8d3e06", "is_disabled": 0, "rental_uris": {"android": "https://dc.lft.to/lastmile_qr_scan", "ios": "https://dc.lft.to/lastmile_qr_scan"}, "lon": -76.96503483333333, "fusion_lat": 0.0}, {"name": "e5ef893345a88c9a0c81dd9b255b15ec", "fusion_lon": 0.0, "lat": 38.914134, "is_reserved": 0, "type": "electric_scooter", "bike_id": "e5ef893345a88c9a0c81dd9b255b15ec", "is_disabled": 0, "rental_uris": {"android": "https://dc.lft.to/lastmile_qr_scan", "ios": "https://dc.lft.to/lastmile_qr_scan"}, "lon": -77.04179766666667, "fusion_lat": 0.0}, {"name": "f1fe63090c869cc030902ef9c8479f38", "fusion_lon": 0.0, "lat": 38.9194555, "is_reserved": 0, "type": "electric_scooter", "bike_id": "f1fe63090c869cc030902ef9c8479f38", "is_disabled": 0, "rental_uris": {"android": "https://dc.lft.to/lastmile_qr_scan", "ios": "https://dc.lft.to/lastmile_qr_scan"}, "lon": -77.02888116666666, "fusion_lat": 0.0}, {"name": "1f89ebb2c598131192583112f03ffa17", "fusion_lon": 0.0, "lat": 38.95836933333333, "is_reserved": 0, "type": "electric_scooter", "bike_id": "1f89ebb2c598131192583112f03ffa17", "is_disabled": 0, "rental_uris": {"android": "https://dc.lft.to/lastmile_qr_scan", "ios": "https://dc.lft.to/lastmile_qr_scan"}, "lon": -77.01506583333334, "fusion_lat": 0.0}, {"name": "8a87f7a991fbe1dbb6df7b79660290b6", "fusion_lon": 0.0, "lat": 38.892208333333336, "is_reserved": 0, "type": "electric_scooter", "bike_id": "8a87f7a991fbe1dbb6df7b79660290b6", "is_disabled": 0, "rental_uris": {"android": "https://dc.lft.to/lastmile_qr_scan", "ios": "https://dc.lft.to/lastmile_qr_scan"}, "lon": -77.04312316666666, "fusion_lat": 0.0}, {"name": "0b70670bcebaf031858bf2b1542937ee", "fusion_lon": 0.0, "lat": 38.8811705, "is_reserved": 0, "type": "electric_bike", "bike_id": "0b70670bcebaf031858bf2b1542937ee", "is_disabled": 0, "rental_uris": {"android": "https://dc.lft.to/lastmile_qr_scan", "ios": "https://dc.lft.to/lastmile_qr_scan"}, "lon": -77.0167525, "fusion_lat": 0.0}, {"name": "645075ce03512b7d3532efae2aedbc56", "fusion_lon": 0.0, "lat": 38.924470166666666, "is_reserved": 0, "type": "electric_scooter", "bike_id": "645075ce03512b7d3532efae2aedbc56", "is_disabled": 0, "rental_uris": {"android": "https://dc.lft.to/lastmile_qr_scan", "ios": "https://dc.lft.to/lastmile_qr_scan"}, "lon": -77.02241966666666, "fusion_lat": 0.0}, {"name": "0485091f1213bb55736e9a8e77418786", "fusion_lon": 0.0, "lat": 38.869783, "is_reserved": 0, "type": "electric_scooter", "bike_id": "0485091f1213bb55736e9a8e77418786", "is_disabled": 0, "rental_uris": {"android": "https://dc.lft.to/lastmile_qr_scan", "ios": "https://dc.lft.to/lastmile_qr_scan"}, "lon": -77.0121005, "fusion_lat": 0.0}, {"name": "659b630d47c61ff57fd609c97b3703c9", "fusion_lon": 0.0, "lat": 38.90058166666667, "is_reserved": 0, "type": "electric_scooter", "bike_id": "659b630d47c61ff57fd609c97b3703c9", "is_disabled": 0, "rental_uris": {"android": "https://dc.lft.to/lastmile_qr_scan", "ios": "https://dc.lft.to/lastmile_qr_scan"}, "lon": -76.990137, "fusion_lat": 0.0}, {"name": "d7d38df1d5b0bd8f544c459b2974b438", "fusion_lon": 0.0, "lat": 38.927573833333334, "is_reserved": 0, "type": "electric_scooter", "bike_id": "d7d38df1d5b0bd8f544c459b2974b438", "is_disabled": 0, "rental_uris": {"android": "https://dc.lft.to/lastmile_qr_scan", "ios": "https://dc.lft.to/lastmile_qr_scan"}, "lon": -77.02284583333334, "fusion_lat": 0.0}, {"name": "d1f1f95f1014d54c4a392a32e80dee28", "fusion_lon": 0.0, "lat": 39.03926666666667, "is_reserved": 0, "type": "electric_bike", "bike_id": "d1f1f95f1014d54c4a392a32e80dee28", "is_disabled": 0, "rental_uris": {"android": "https://dc.lft.to/lastmile_qr_scan", "ios": "https://dc.lft.to/lastmile_qr_scan"}, "lon": -77.02851766666667, "fusion_lat": 0.0}, {"name": "521c2469f7bbef1d773206a6a8159a16", "fusion_lon": 0.0, "lat": 38.957312333333334, "is_reserved": 0, "type": "electric_scooter", "bike_id": "521c2469f7bbef1d773206a6a8159a16", "is_disabled": 0, "rental_uris": {"android": "https://dc.lft.to/lastmile_qr_scan", "ios": "https://dc.lft.to/lastmile_qr_scan"}, "lon": -77.02425483333333, "fusion_lat": 0.0}, {"name": "3190fa6bd9288f5118b45d1447ea6a16", "fusion_lon": 0.0, "lat": 38.9550345, "is_reserved": 0, "type": "electric_bike", "bike_id": "3190fa6bd9288f5118b45d1447ea6a16", "is_disabled": 0, "rental_uris": {"android": "https://dc.lft.to/lastmile_qr_scan", "ios": "https://dc.lft.to/lastmile_qr_scan"}, "lon": -76.99353516666666, "fusion_lat": 0.0}, {"name": "410b92c668aa8964988d41176de801e9", "fusion_lon": 0.0, "lat": 38.9002055, "is_reserved": 0, "type": "electric_scooter", "bike_id": "410b92c668aa8964988d41176de801e9", "is_disabled": 0, "rental_uris": {"android": "https://dc.lft.to/lastmile_qr_scan", "ios": "https://dc.lft.to/lastmile_qr_scan"}, "lon": -76.99527433333333, "fusion_lat": 0.0}, {"name": "c754282931d1689fbf80667cca1d0804", "fusion_lon": 0.0, "lat": 38.9513415, "is_reserved": 0, "type": "electric_scooter", "bike_id": "c754282931d1689fbf80667cca1d0804", "is_disabled": 0, "rental_uris": {"android": "https://dc.lft.to/lastmile_qr_scan", "ios": "https://dc.lft.to/lastmile_qr_scan"}, "lon": -77.027181, "fusion_lat": 0.0}, {"name": "d564ca0efe5953d97adc8e686925f81b", "fusion_lon": 0.0, "lat": 38.89391416666667, "is_reserved": 0, "type": "electric_scooter", "bike_id": "d564ca0efe5953d97adc8e686925f81b", "is_disabled": 0, "rental_uris": {"android": "https://dc.lft.to/lastmile_qr_scan", "ios": "https://dc.lft.to/lastmile_qr_scan"}, "lon": -77.031749, "fusion_lat": 0.0}, {"name": "29233f48c0b8eac633209fc9f96199c8", "fusion_lon": 0.0, "lat": 38.894729, "is_reserved": 0, "type": "electric_scooter", "bike_id": "29233f48c0b8eac633209fc9f96199c8", "is_disabled": 0, "rental_uris": {"android": "https://dc.lft.to/lastmile_qr_scan", "ios": "https://dc.lft.to/lastmile_qr_scan"}, "lon": -77.02771883333334, "fusion_lat": 0.0}, {"name": "5a8c503e48b7486b9e847ca33be37064", "fusion_lon": 0.0, "lat": 38.905375, "is_reserved": 0, "type": "electric_scooter", "bike_id": "5a8c503e48b7486b9e847ca33be37064", "is_disabled": 0, "rental_uris": {"android": "https://dc.lft.to/lastmile_qr_scan", "ios": "https://dc.lft.to/lastmile_qr_scan"}, "lon": -76.98103716666667, "fusion_lat": 0.0}, {"name": "69d8d1dfc8c173fb1ec14cf7d60c97f8", "fusion_lon": 0.0, "lat": 38.876375833333334, "is_reserved": 0, "type": "electric_scooter", "bike_id": "69d8d1dfc8c173fb1ec14cf7d60c97f8", "is_disabled": 0, "rental_uris": {"android": "https://dc.lft.to/lastmile_qr_scan", "ios": "https://dc.lft.to/lastmile_qr_scan"}, "lon": -77.00451466666667, "fusion_lat": 0.0}, {"name": "69e3fcc7688c1b301f8704f2073954ea", "fusion_lon": 0.0, "lat": 38.860604, "is_reserved": 0, "type": "electric_scooter", "bike_id": "69e3fcc7688c1b301f8704f2073954ea", "is_disabled": 0, "rental_uris": {"android": "https://dc.lft.to/lastmile_qr_scan", "ios": "https://dc.lft.to/lastmile_qr_scan"}, "lon": -76.984215, "fusion_lat": 0.0}, {"name": "f54e7dfa696dbe613c8a7fe9787ec70b", "fusion_lon": 0.0, "lat": 38.87581016666667, "is_reserved": 0, "type": "electric_scooter", "bike_id": "f54e7dfa696dbe613c8a7fe9787ec70b", "is_disabled": 0, "rental_uris": {"android": "https://dc.lft.to/lastmile_qr_scan", "ios": "https://dc.lft.to/lastmile_qr_scan"}, "lon": -77.00588283333333, "fusion_lat": 0.0}, {"name": "e20b58403d4e41afc7912f3127f42b6e", "fusion_lon": 0.0, "lat": 38.899535166666666, "is_reserved": 0, "type": "electric_scooter", "bike_id": "e20b58403d4e41afc7912f3127f42b6e", "is_disabled": 0, "rental_uris": {"android": "https://dc.lft.to/lastmile_qr_scan", "ios": "https://dc.lft.to/lastmile_qr_scan"}, "lon": -77.0159985, "fusion_lat": 0.0}, {"name": "8a21704d87dcdaac0fd436529765d133", "fusion_lon": 0.0, "lat": 38.93089883333333, "is_reserved": 0, "type": "electric_scooter", "bike_id": "8a21704d87dcdaac0fd436529765d133", "is_disabled": 0, "rental_uris": {"android": "https://dc.lft.to/lastmile_qr_scan", "ios": "https://dc.lft.to/lastmile_qr_scan"}, "lon": -77.034409, "fusion_lat": 0.0}, {"name": "6dd90ef3574f99e0bcdafd53f4d5ca23", "fusion_lon": 0.0, "lat": 38.893525333333336, "is_reserved": 0, "type": "electric_scooter", "bike_id": "6dd90ef3574f99e0bcdafd53f4d5ca23", "is_disabled": 0, "rental_uris": {"android": "https://dc.lft.to/lastmile_qr_scan", "ios": "https://dc.lft.to/lastmile_qr_scan"}, "lon": -77.00325433333333, "fusion_lat": 0.0}, {"name": "d72c64471875669b64db75f7ffebf5b2", "fusion_lon": 0.0, "lat": 38.91685016666667, "is_reserved": 0, "type": "electric_scooter", "bike_id": "d72c64471875669b64db75f7ffebf5b2", "is_disabled": 0, "rental_uris": {"android": "https://dc.lft.to/lastmile_qr_scan", "ios": "https://dc.lft.to/lastmile_qr_scan"}, "lon": -77.02523933333333, "fusion_lat": 0.0}, {"name": "d3dd34a047063838750ec792966391fd", "fusion_lon": 0.0, "lat": 38.903896, "is_reserved": 0, "type": "electric_scooter", "bike_id": "d3dd34a047063838750ec792966391fd", "is_disabled": 0, "rental_uris": {"android": "https://dc.lft.to/lastmile_qr_scan", "ios": "https://dc.lft.to/lastmile_qr_scan"}, "lon": -77.03823583333333, "fusion_lat": 0.0}, {"name": "5c0063f8b50f75c46cd0b82facc6cf27", "fusion_lon": 0.0, "lat": 38.905704, "is_reserved": 0, "type": "electric_scooter", "bike_id": "5c0063f8b50f75c46cd0b82facc6cf27", "is_disabled": 0, "rental_uris": {"android": "https://dc.lft.to/lastmile_qr_scan", "ios": "https://dc.lft.to/lastmile_qr_scan"}, "lon": -77.00582316666667, "fusion_lat": 0.0}, {"name": "4ed54de58cec7a12369ee9d5a6fa823e", "fusion_lon": 0.0, "lat": 38.918791, "is_reserved": 0, "type": "electric_scooter", "bike_id": "4ed54de58cec7a12369ee9d5a6fa823e", "is_disabled": 0, "rental_uris": {"android": "https://dc.lft.to/lastmile_qr_scan", "ios": "https://dc.lft.to/lastmile_qr_scan"}, "lon": -77.0348385, "fusion_lat": 0.0}, {"name": "0bd6f48cf568fbf25fb978e0643c3696", "fusion_lon": 0.0, "lat": 38.88785983333333, "is_reserved": 0, "type": "electric_scooter", "bike_id": "0bd6f48cf568fbf25fb978e0643c3696", "is_disabled": 0, "rental_uris": {"android": "https://dc.lft.to/lastmile_qr_scan", "ios": "https://dc.lft.to/lastmile_qr_scan"}, "lon": -76.955289, "fusion_lat": 0.0}, {"name": "92aeb6cfe9380a3e3dae6cf5b0064126", "fusion_lon": 0.0, "lat": 38.86241966666667, "is_reserved": 0, "type": "electric_scooter", "bike_id": "92aeb6cfe9380a3e3dae6cf5b0064126", "is_disabled": 0, "rental_uris": {"android": "https://dc.lft.to/lastmile_qr_scan", "ios": "https://dc.lft.to/lastmile_qr_scan"}, "lon": -76.994942, "fusion_lat": 0.0}, {"name": "d7ce88ccdd664b51eed6eec8794bddd0", "fusion_lon": 0.0, "lat": 38.92457066666667, "is_reserved": 0, "type": "electric_scooter", "bike_id": "d7ce88ccdd664b51eed6eec8794bddd0", "is_disabled": 0, "rental_uris": {"android": "https://dc.lft.to/lastmile_qr_scan", "ios": "https://dc.lft.to/lastmile_qr_scan"}, "lon": -77.04000566666667, "fusion_lat": 0.0}, {"name": "99af8ca281a908d1d143ea52765729d6", "fusion_lon": 0.0, "lat": 38.900478166666666, "is_reserved": 0, "type": "electric_scooter", "bike_id": "99af8ca281a908d1d143ea52765729d6", "is_disabled": 0, "rental_uris": {"android": "https://dc.lft.to/lastmile_qr_scan", "ios": "https://dc.lft.to/lastmile_qr_scan"}, "lon": -76.98829683333334, "fusion_lat": 0.0}, {"name": "23fcc8ea061df3251070de09a74ae941", "fusion_lon": 0.0, "lat": 38.928911666666664, "is_reserved": 0, "type": "electric_bike", "bike_id": "23fcc8ea061df3251070de09a74ae941", "is_disabled": 0, "rental_uris": {"android": "https://dc.lft.to/lastmile_qr_scan", "ios": "https://dc.lft.to/lastmile_qr_scan"}, "lon": -77.083931, "fusion_lat": 0.0}, {"name": "52a97fb0ff9e0e66c9c8f9e4e8d228b2", "fusion_lon": 0.0, "lat": 38.946002666666665, "is_reserved": 0, "type": "electric_bike", "bike_id": "52a97fb0ff9e0e66c9c8f9e4e8d228b2", "is_disabled": 0, "rental_uris": {"android": "https://dc.lft.to/lastmile_qr_scan", "ios": "https://dc.lft.to/lastmile_qr_scan"}, "lon": -77.00706416666667, "fusion_lat": 0.0}, {"name": "e1301545d8fbcdf3f65e5e24327de519", "fusion_lon": 0.0, "lat": 38.8939205, "is_reserved": 0, "type": "electric_scooter", "bike_id": "e1301545d8fbcdf3f65e5e24327de519", "is_disabled": 0, "rental_uris": {"android": "https://dc.lft.to/lastmile_qr_scan", "ios": "https://dc.lft.to/lastmile_qr_scan"}, "lon": -77.019557, "fusion_lat": 0.0}, {"name": "590c633edbd365aa2f8613fba54cb477", "fusion_lon": 0.0, "lat": 38.9188895, "is_reserved": 0, "type": "electric_scooter", "bike_id": "590c633edbd365aa2f8613fba54cb477", "is_disabled": 0, "rental_uris": {"android": "https://dc.lft.to/lastmile_qr_scan", "ios": "https://dc.lft.to/lastmile_qr_scan"}, "lon": -77.0482365, "fusion_lat": 0.0}, {"name": "1f2425c13740229b690601b710446eaf", "fusion_lon": 0.0, "lat": 38.92239883333333, "is_reserved": 0, "type": "electric_scooter", "bike_id": "1f2425c13740229b690601b710446eaf", "is_disabled": 0, "rental_uris": {"android": "https://dc.lft.to/lastmile_qr_scan", "ios": "https://dc.lft.to/lastmile_qr_scan"}, "lon": -77.02234016666667, "fusion_lat": 0.0}, {"name": "a7c08430ce304bf50732a62b2f82a566", "fusion_lon": 0.0, "lat": 38.902135666666666, "is_reserved": 0, "type": "electric_scooter", "bike_id": "a7c08430ce304bf50732a62b2f82a566", "is_disabled": 0, "rental_uris": {"android": "https://dc.lft.to/lastmile_qr_scan", "ios": "https://dc.lft.to/lastmile_qr_scan"}, "lon": -77.02368533333333, "fusion_lat": 0.0}, {"name": "c491d12bbfb238f2830178b3b2133e9c", "fusion_lon": 0.0, "lat": 38.952466, "is_reserved": 0, "type": "electric_bike", "bike_id": "c491d12bbfb238f2830178b3b2133e9c", "is_disabled": 0, "rental_uris": {"android": "https://dc.lft.to/lastmile_qr_scan", "ios": "https://dc.lft.to/lastmile_qr_scan"}, "lon": -76.976697, "fusion_lat": 0.0}, {"name": "fff4a53a6943f5187db8235454c686a5", "fusion_lon": 0.0, "lat": 38.927006666666664, "is_reserved": 0, "type": "electric_scooter", "bike_id": "fff4a53a6943f5187db8235454c686a5", "is_disabled": 0, "rental_uris": {"android": "https://dc.lft.to/lastmile_qr_scan", "ios": "https://dc.lft.to/lastmile_qr_scan"}, "lon": -77.02068683333333, "fusion_lat": 0.0}, {"name": "05d96de45fffa18d3453f3e0f1f75f33", "fusion_lon": 0.0, "lat": 38.9064075, "is_reserved": 0, "type": "electric_scooter", "bike_id": "05d96de45fffa18d3453f3e0f1f75f33", "is_disabled": 0, "rental_uris": {"android": "https://dc.lft.to/lastmile_qr_scan", "ios": "https://dc.lft.to/lastmile_qr_scan"}, "lon": -77.00980333333334, "fusion_lat": 0.0}, {"name": "7c1e3c746f4e26cbe276807e65d25a65", "fusion_lon": 0.0, "lat": 38.9157475, "is_reserved": 0, "type": "electric_scooter", "bike_id": "7c1e3c746f4e26cbe276807e65d25a65", "is_disabled": 0, "rental_uris": {"android": "https://dc.lft.to/lastmile_qr_scan", "ios": "https://dc.lft.to/lastmile_qr_scan"}, "lon": -77.01243216666667, "fusion_lat": 0.0}, {"name": "8a5eba6d95aad6a5c4d2e470a2ca11b5", "fusion_lon": 0.0, "lat": 38.90676216666667, "is_reserved": 0, "type": "electric_scooter", "bike_id": "8a5eba6d95aad6a5c4d2e470a2ca11b5", "is_disabled": 0, "rental_uris": {"android": "https://dc.lft.to/lastmile_qr_scan", "ios": "https://dc.lft.to/lastmile_qr_scan"}, "lon": -77.07164916666666, "fusion_lat": 0.0}, {"name": "a695690adb2cf09b7f974bd5a9b4812f", "fusion_lon": 0.0, "lat": 38.89223116666667, "is_reserved": 0, "type": "electric_scooter", "bike_id": "a695690adb2cf09b7f974bd5a9b4812f", "is_disabled": 0, "rental_uris": {"android": "https://dc.lft.to/lastmile_qr_scan", "ios": "https://dc.lft.to/lastmile_qr_scan"}, "lon": -77.04682016666666, "fusion_lat": 0.0}, {"name": "2484eb2ab5bbaa5c530a4978e2711a30", "fusion_lon": 0.0, "lat": 38.854448833333336, "is_reserved": 0, "type": "electric_scooter", "bike_id": "2484eb2ab5bbaa5c530a4978e2711a30", "is_disabled": 0, "rental_uris": {"android": "https://dc.lft.to/lastmile_qr_scan", "ios": "https://dc.lft.to/lastmile_qr_scan"}, "lon": -76.9860545, "fusion_lat": 0.0}, {"name": "80e32674a5120df0bf94adc2e5ede4d5", "fusion_lon": 0.0, "lat": 39.056352, "is_reserved": 0, "type": "electric_bike", "bike_id": "80e32674a5120df0bf94adc2e5ede4d5", "is_disabled": 0, "rental_uris": {"android": "https://dc.lft.to/lastmile_qr_scan", "ios": "https://dc.lft.to/lastmile_qr_scan"}, "lon": -77.12528266666666, "fusion_lat": 0.0}, {"name": "0f7c14b3a580ca18885a6263163832d5", "fusion_lon": 0.0, "lat": 38.9118535, "is_reserved": 0, "type": "electric_scooter", "bike_id": "0f7c14b3a580ca18885a6263163832d5", "is_disabled": 0, "rental_uris": {"android": "https://dc.lft.to/lastmile_qr_scan", "ios": "https://dc.lft.to/lastmile_qr_scan"}, "lon": -77.03496066666666, "fusion_lat": 0.0}, {"name": "6cd323e0dafd8a8b257a7d3bb0e49c38", "fusion_lon": 0.0, "lat": 38.905624833333334, "is_reserved": 0, "type": "electric_scooter", "bike_id": "6cd323e0dafd8a8b257a7d3bb0e49c38", "is_disabled": 0, "rental_uris": {"android": "https://dc.lft.to/lastmile_qr_scan", "ios": "https://dc.lft.to/lastmile_qr_scan"}, "lon": -77.034376, "fusion_lat": 0.0}, {"name": "7c730d39137d68c5f96f1b5de23a5a6e", "fusion_lon": 0.0, "lat": 38.909715, "is_reserved": 0, "type": "electric_scooter", "bike_id": "7c730d39137d68c5f96f1b5de23a5a6e", "is_disabled": 0, "rental_uris": {"android": "https://dc.lft.to/lastmile_qr_scan", "ios": "https://dc.lft.to/lastmile_qr_scan"}, "lon": -77.00932966666667, "fusion_lat": 0.0}, {"name": "82c4f68ca13dd51e5006013a04ec6db4", "fusion_lon": 0.0, "lat": 38.9322465, "is_reserved": 0, "type": "electric_scooter", "bike_id": "82c4f68ca13dd51e5006013a04ec6db4", "is_disabled": 0, "rental_uris": {"android": "https://dc.lft.to/lastmile_qr_scan", "ios": "https://dc.lft.to/lastmile_qr_scan"}, "lon": -76.99607816666666, "fusion_lat": 0.0}, {"name": "cad91b924a97d9cbc303b900799b4fe6", "fusion_lon": 0.0, "lat": 38.923093, "is_reserved": 0, "type": "electric_scooter", "bike_id": "cad91b924a97d9cbc303b900799b4fe6", "is_disabled": 0, "rental_uris": {"android": "https://dc.lft.to/lastmile_qr_scan", "ios": "https://dc.lft.to/lastmile_qr_scan"}, "lon": -77.029514, "fusion_lat": 0.0}, {"name": "8de8102c75d766412212b90d1558a5c7", "fusion_lon": 0.0, "lat": 38.966257666666664, "is_reserved": 0, "type": "electric_scooter", "bike_id": "8de8102c75d766412212b90d1558a5c7", "is_disabled": 0, "rental_uris": {"android": "https://dc.lft.to/lastmile_qr_scan", "ios": "https://dc.lft.to/lastmile_qr_scan"}, "lon": -77.02251383333333, "fusion_lat": 0.0}, {"name": "92cb655aba598f0804b6aa00327b77dd", "fusion_lon": 0.0, "lat": 38.93704116666667, "is_reserved": 0, "type": "electric_scooter", "bike_id": "92cb655aba598f0804b6aa00327b77dd", "is_disabled": 0, "rental_uris": {"android": "https://dc.lft.to/lastmile_qr_scan", "ios": "https://dc.lft.to/lastmile_qr_scan"}, "lon": -77.0609515, "fusion_lat": 0.0}, {"name": "a45a127a8be4259dd8225e5bcda74174", "fusion_lon": 0.0, "lat": 38.925805833333335, "is_reserved": 0, "type": "electric_scooter", "bike_id": "a45a127a8be4259dd8225e5bcda74174", "is_disabled": 0, "rental_uris": {"android": "https://dc.lft.to/lastmile_qr_scan", "ios": "https://dc.lft.to/lastmile_qr_scan"}, "lon": -77.03910966666666, "fusion_lat": 0.0}, {"name": "0a5c0747e787b73fd5d8cea0a38e3471", "fusion_lon": 0.0, "lat": 38.8624295, "is_reserved": 0, "type": "electric_scooter", "bike_id": "0a5c0747e787b73fd5d8cea0a38e3471", "is_disabled": 0, "rental_uris": {"android": "https://dc.lft.to/lastmile_qr_scan", "ios": "https://dc.lft.to/lastmile_qr_scan"}, "lon": -76.9949045, "fusion_lat": 0.0}, {"name": "fd1820e389effe81214b6837929d492f", "fusion_lon": 0.0, "lat": 38.917379833333335, "is_reserved": 0, "type": "electric_scooter", "bike_id": "fd1820e389effe81214b6837929d492f", "is_disabled": 0, "rental_uris": {"android": "https://dc.lft.to/lastmile_qr_scan", "ios": "https://dc.lft.to/lastmile_qr_scan"}, "lon": -77.0146465, "fusion_lat": 0.0}, {"name": "018b842c5bcd9dae7f55a78a215868ac", "fusion_lon": 0.0, "lat": 38.9027665, "is_reserved": 0, "type": "electric_scooter", "bike_id": "018b842c5bcd9dae7f55a78a215868ac", "is_disabled": 0, "rental_uris": {"android": "https://dc.lft.to/lastmile_qr_scan", "ios": "https://dc.lft.to/lastmile_qr_scan"}, "lon": -77.03981866666666, "fusion_lat": 0.0}, {"name": "40b9c33f77fdc31bb17675ce6d1db2e9", "fusion_lon": 0.0, "lat": 38.95747333333333, "is_reserved": 0, "type": "electric_scooter", "bike_id": "40b9c33f77fdc31bb17675ce6d1db2e9", "is_disabled": 0, "rental_uris": {"android": "https://dc.lft.to/lastmile_qr_scan", "ios": "https://dc.lft.to/lastmile_qr_scan"}, "lon": -77.020634, "fusion_lat": 0.0}, {"name": "0e7fb7ebca20161ee112b0666a441afb", "fusion_lon": 0.0, "lat": 38.83148466666667, "is_reserved": 0, "type": "electric_scooter", "bike_id": "0e7fb7ebca20161ee112b0666a441afb", "is_disabled": 0, "rental_uris": {"android": "https://dc.lft.to/lastmile_qr_scan", "ios": "https://dc.lft.to/lastmile_qr_scan"}, "lon": -77.05118466666667, "fusion_lat": 0.0}, {"name": "7c3a69e24db07e9c55dda6b4cb21866f", "fusion_lon": 0.0, "lat": 38.897166, "is_reserved": 0, "type": "electric_scooter", "bike_id": "7c3a69e24db07e9c55dda6b4cb21866f", "is_disabled": 0, "rental_uris": {"android": "https://dc.lft.to/lastmile_qr_scan", "ios": "https://dc.lft.to/lastmile_qr_scan"}, "lon": -76.97341083333333, "fusion_lat": 0.0}, {"name": "abeeb4d2d0076b672d4f7e1d7078eee5", "fusion_lon": 0.0, "lat": 38.91822633333334, "is_reserved": 0, "type": "electric_scooter", "bike_id": "abeeb4d2d0076b672d4f7e1d7078eee5", "is_disabled": 0, "rental_uris": {"android": "https://dc.lft.to/lastmile_qr_scan", "ios": "https://dc.lft.to/lastmile_qr_scan"}, "lon": -77.02706333333333, "fusion_lat": 0.0}, {"name": "afaff671afc98b0a8ac0c75f8666403f", "fusion_lon": 0.0, "lat": 38.93151183333333, "is_reserved": 0, "type": "electric_bike", "bike_id": "afaff671afc98b0a8ac0c75f8666403f", "is_disabled": 0, "rental_uris": {"android": "https://dc.lft.to/lastmile_qr_scan", "ios": "https://dc.lft.to/lastmile_qr_scan"}, "lon": -77.02716316666667, "fusion_lat": 0.0}, {"name": "b4902532749c2d824e4cb0996e8d3eec", "fusion_lon": 0.0, "lat": 38.9836085, "is_reserved": 0, "type": "electric_bike", "bike_id": "b4902532749c2d824e4cb0996e8d3eec", "is_disabled": 0, "rental_uris": {"android": "https://dc.lft.to/lastmile_qr_scan", "ios": "https://dc.lft.to/lastmile_qr_scan"}, "lon": -76.97210166666666, "fusion_lat": 0.0}, {"name": "c61de89e8adb2f4555a9d9e1e23b43b6", "fusion_lon": 0.0, "lat": 38.9234025, "is_reserved": 0, "type": "electric_scooter", "bike_id": "c61de89e8adb2f4555a9d9e1e23b43b6", "is_disabled": 0, "rental_uris": {"android": "https://dc.lft.to/lastmile_qr_scan", "ios": "https://dc.lft.to/lastmile_qr_scan"}, "lon": -77.05076033333333, "fusion_lat": 0.0}, {"name": "6f3749398e14287cb890591fd6028ca0", "fusion_lon": 0.0, "lat": 38.92414566666667, "is_reserved": 0, "type": "electric_scooter", "bike_id": "6f3749398e14287cb890591fd6028ca0", "is_disabled": 0, "rental_uris": {"android": "https://dc.lft.to/lastmile_qr_scan", "ios": "https://dc.lft.to/lastmile_qr_scan"}, "lon": -77.05059166666666, "fusion_lat": 0.0}, {"name": "4b69ef92f55837ae08097e3b33a25a78", "fusion_lon": 0.0, "lat": 38.884350166666664, "is_reserved": 0, "type": "electric_scooter", "bike_id": "4b69ef92f55837ae08097e3b33a25a78", "is_disabled": 0, "rental_uris": {"android": "https://dc.lft.to/lastmile_qr_scan", "ios": "https://dc.lft.to/lastmile_qr_scan"}, "lon": -77.0296195, "fusion_lat": 0.0}, {"name": "7fcf9e73a8d3565c27b35cf5acd00aed", "fusion_lon": 0.0, "lat": 38.93958216666667, "is_reserved": 0, "type": "electric_scooter", "bike_id": "7fcf9e73a8d3565c27b35cf5acd00aed", "is_disabled": 0, "rental_uris": {"android": "https://dc.lft.to/lastmile_qr_scan", "ios": "https://dc.lft.to/lastmile_qr_scan"}, "lon": -77.02744616666666, "fusion_lat": 0.0}, {"name": "0000e87117c8f1d650e03a9a85fa06e8", "fusion_lon": 0.0, "lat": 38.93720783333333, "is_reserved": 0, "type": "electric_scooter", "bike_id": "0000e87117c8f1d650e03a9a85fa06e8", "is_disabled": 0, "rental_uris": {"android": "https://dc.lft.to/lastmile_qr_scan", "ios": "https://dc.lft.to/lastmile_qr_scan"}, "lon": -77.03256166666667, "fusion_lat": 0.0}, {"name": "e08767e78f5f16187d7209aad1d6385e", "fusion_lon": 0.0, "lat": 38.935381666666665, "is_reserved": 0, "type": "electric_scooter", "bike_id": "e08767e78f5f16187d7209aad1d6385e", "is_disabled": 0, "rental_uris": {"android": "https://dc.lft.to/lastmile_qr_scan", "ios": "https://dc.lft.to/lastmile_qr_scan"}, "lon": -77.0574005, "fusion_lat": 0.0}, {"name": "9ffa816566e90c1824bcd50f53cb03fe", "fusion_lon": 0.0, "lat": 38.88599216666667, "is_reserved": 0, "type": "electric_scooter", "bike_id": "9ffa816566e90c1824bcd50f53cb03fe", "is_disabled": 0, "rental_uris": {"android": "https://dc.lft.to/lastmile_qr_scan", "ios": "https://dc.lft.to/lastmile_qr_scan"}, "lon": -76.99617983333333, "fusion_lat": 0.0}, {"name": "23e1348f4fd8f8f46f4e30f73e3e8708", "fusion_lon": 0.0, "lat": 38.89219666666666, "is_reserved": 0, "type": "electric_scooter", "bike_id": "23e1348f4fd8f8f46f4e30f73e3e8708", "is_disabled": 0, "rental_uris": {"android": "https://dc.lft.to/lastmile_qr_scan", "ios": "https://dc.lft.to/lastmile_qr_scan"}, "lon": -77.04261566666666, "fusion_lat": 0.0}, {"name": "e3b84bd3d865fac6bc665900f4358ff1", "fusion_lon": 0.0, "lat": 38.911961166666664, "is_reserved": 0, "type": "electric_scooter", "bike_id": "e3b84bd3d865fac6bc665900f4358ff1", "is_disabled": 0, "rental_uris": {"android": "https://dc.lft.to/lastmile_qr_scan", "ios": "https://dc.lft.to/lastmile_qr_scan"}, "lon": -77.045248, "fusion_lat": 0.0}, {"name": "cae547d440c093ba5e185464bda62301", "fusion_lon": 0.0, "lat": 38.931628, "is_reserved": 0, "type": "electric_scooter", "bike_id": "cae547d440c093ba5e185464bda62301", "is_disabled": 0, "rental_uris": {"android": "https://dc.lft.to/lastmile_qr_scan", "ios": "https://dc.lft.to/lastmile_qr_scan"}, "lon": -77.0560175, "fusion_lat": 0.0}, {"name": "59b925f1d504a383a36cbda427899210", "fusion_lon": 0.0, "lat": 38.877867, "is_reserved": 0, "type": "electric_scooter", "bike_id": "59b925f1d504a383a36cbda427899210", "is_disabled": 0, "rental_uris": {"android": "https://dc.lft.to/lastmile_qr_scan", "ios": "https://dc.lft.to/lastmile_qr_scan"}, "lon": -76.93089666666667, "fusion_lat": 0.0}, {"name": "22f6400b296cf0f8fec6ec701fb707ff", "fusion_lon": 0.0, "lat": 38.944361666666666, "is_reserved": 0, "type": "electric_scooter", "bike_id": "22f6400b296cf0f8fec6ec701fb707ff", "is_disabled": 0, "rental_uris": {"android": "https://dc.lft.to/lastmile_qr_scan", "ios": "https://dc.lft.to/lastmile_qr_scan"}, "lon": -77.06344483333334, "fusion_lat": 0.0}, {"name": "fa5c63aeb5b20c26e67448511774ee1b", "fusion_lon": 0.0, "lat": 38.91734833333334, "is_reserved": 0, "type": "electric_scooter", "bike_id": "fa5c63aeb5b20c26e67448511774ee1b", "is_disabled": 0, "rental_uris": {"android": "https://dc.lft.to/lastmile_qr_scan", "ios": "https://dc.lft.to/lastmile_qr_scan"}, "lon": -77.0363625, "fusion_lat": 0.0}, {"name": "01b45a4671faf82b9ecae036f6069219", "fusion_lon": 0.0, "lat": 38.932515, "is_reserved": 0, "type": "electric_scooter", "bike_id": "01b45a4671faf82b9ecae036f6069219", "is_disabled": 0, "rental_uris": {"android": "https://dc.lft.to/lastmile_qr_scan", "ios": "https://dc.lft.to/lastmile_qr_scan"}, "lon": -77.03248683333334, "fusion_lat": 0.0}, {"name": "5a53ed13688ca71b07996f9662fc31db", "fusion_lon": 0.0, "lat": 38.932494166666665, "is_reserved": 0, "type": "electric_scooter", "bike_id": "5a53ed13688ca71b07996f9662fc31db", "is_disabled": 0, "rental_uris": {"android": "https://dc.lft.to/lastmile_qr_scan", "ios": "https://dc.lft.to/lastmile_qr_scan"}, "lon": -77.03263933333334, "fusion_lat": 0.0}, {"name": "aa8da59841f5ae394f18d2dc4ebae6b0", "fusion_lon": 0.0, "lat": 38.931012, "is_reserved": 0, "type": "electric_scooter", "bike_id": "aa8da59841f5ae394f18d2dc4ebae6b0", "is_disabled": 0, "rental_uris": {"android": "https://dc.lft.to/lastmile_qr_scan", "ios": "https://dc.lft.to/lastmile_qr_scan"}, "lon": -77.02663516666667, "fusion_lat": 0.0}, {"name": "04c26f0b4f52cdf70283b4d1f9037b44", "fusion_lon": 0.0, "lat": 38.9258945, "is_reserved": 0, "type": "electric_scooter", "bike_id": "04c26f0b4f52cdf70283b4d1f9037b44", "is_disabled": 0, "rental_uris": {"android": "https://dc.lft.to/lastmile_qr_scan", "ios": "https://dc.lft.to/lastmile_qr_scan"}, "lon": -77.04403083333334, "fusion_lat": 0.0}, {"name": "d3fc612059a06e91e671e153616219d6", "fusion_lon": 0.0, "lat": 38.91929233333333, "is_reserved": 0, "type": "electric_scooter", "bike_id": "d3fc612059a06e91e671e153616219d6", "is_disabled": 0, "rental_uris": {"android": "https://dc.lft.to/lastmile_qr_scan", "ios": "https://dc.lft.to/lastmile_qr_scan"}, "lon": -77.04550683333333, "fusion_lat": 0.0}, {"name": "a07c1892393c2ab2f639c03743deecd5", "fusion_lon": 0.0, "lat": 38.90569383333333, "is_reserved": 0, "type": "electric_scooter", "bike_id": "a07c1892393c2ab2f639c03743deecd5", "is_disabled": 0, "rental_uris": {"android": "https://dc.lft.to/lastmile_qr_scan", "ios": "https://dc.lft.to/lastmile_qr_scan"}, "lon": -77.005784, "fusion_lat": 0.0}, {"name": "4e16ac47fd817965c4a080da3963bdf2", "fusion_lon": 0.0, "lat": 38.915180666666664, "is_reserved": 0, "type": "electric_scooter", "bike_id": "4e16ac47fd817965c4a080da3963bdf2", "is_disabled": 0, "rental_uris": {"android": "https://dc.lft.to/lastmile_qr_scan", "ios": "https://dc.lft.to/lastmile_qr_scan"}, "lon": -77.01217016666666, "fusion_lat": 0.0}, {"name": "c0a1c9c51ca3acfea11a9477663def25", "fusion_lon": 0.0, "lat": 38.91723066666667, "is_reserved": 0, "type": "electric_scooter", "bike_id": "c0a1c9c51ca3acfea11a9477663def25", "is_disabled": 0, "rental_uris": {"android": "https://dc.lft.to/lastmile_qr_scan", "ios": "https://dc.lft.to/lastmile_qr_scan"}, "lon": -77.02965783333333, "fusion_lat": 0.0}, {"name": "0bbba8cf9da41dd5b1332e21875572c4", "fusion_lon": 0.0, "lat": 38.92094433333333, "is_reserved": 0, "type": "electric_scooter", "bike_id": "0bbba8cf9da41dd5b1332e21875572c4", "is_disabled": 0, "rental_uris": {"android": "https://dc.lft.to/lastmile_qr_scan", "ios": "https://dc.lft.to/lastmile_qr_scan"}, "lon": -77.0239375, "fusion_lat": 0.0}, {"name": "299ad5650b390e9a2cb0770b56586443", "fusion_lon": 0.0, "lat": 38.92388233333333, "is_reserved": 0, "type": "electric_scooter", "bike_id": "299ad5650b390e9a2cb0770b56586443", "is_disabled": 0, "rental_uris": {"android": "https://dc.lft.to/lastmile_qr_scan", "ios": "https://dc.lft.to/lastmile_qr_scan"}, "lon": -77.03654166666666, "fusion_lat": 0.0}, {"name": "16c18ccd004946d500d6da525c64daca", "fusion_lon": 0.0, "lat": 38.9244905, "is_reserved": 0, "type": "electric_scooter", "bike_id": "16c18ccd004946d500d6da525c64daca", "is_disabled": 0, "rental_uris": {"android": "https://dc.lft.to/lastmile_qr_scan", "ios": "https://dc.lft.to/lastmile_qr_scan"}, "lon": -77.0411405, "fusion_lat": 0.0}, {"name": "bf7f730a710a1612219350abcc8603fa", "fusion_lon": 0.0, "lat": 38.87204716666667, "is_reserved": 0, "type": "electric_scooter", "bike_id": "bf7f730a710a1612219350abcc8603fa", "is_disabled": 0, "rental_uris": {"android": "https://dc.lft.to/lastmile_qr_scan", "ios": "https://dc.lft.to/lastmile_qr_scan"}, "lon": -77.0165, "fusion_lat": 0.0}, {"name": "11dd75555999e434794ba184048985e2", "fusion_lon": 0.0, "lat": 38.90032716666666, "is_reserved": 0, "type": "electric_scooter", "bike_id": "11dd75555999e434794ba184048985e2", "is_disabled": 0, "rental_uris": {"android": "https://dc.lft.to/lastmile_qr_scan", "ios": "https://dc.lft.to/lastmile_qr_scan"}, "lon": -77.00688566666666, "fusion_lat": 0.0}, {"name": "bce52bf0f9a34eb3ff7f7c1b3addfca5", "fusion_lon": 0.0, "lat": 38.919117, "is_reserved": 0, "type": "electric_scooter", "bike_id": "bce52bf0f9a34eb3ff7f7c1b3addfca5", "is_disabled": 0, "rental_uris": {"android": "https://dc.lft.to/lastmile_qr_scan", "ios": "https://dc.lft.to/lastmile_qr_scan"}, "lon": -77.02611566666667, "fusion_lat": 0.0}, {"name": "709496e1a991febc009d1919cd6d06ea", "fusion_lon": 0.0, "lat": 38.902674, "is_reserved": 0, "type": "electric_scooter", "bike_id": "709496e1a991febc009d1919cd6d06ea", "is_disabled": 0, "rental_uris": {"android": "https://dc.lft.to/lastmile_qr_scan", "ios": "https://dc.lft.to/lastmile_qr_scan"}, "lon": -77.01753916666667, "fusion_lat": 0.0}, {"name": "64918f4908fca60278e9797b0e39719d", "fusion_lon": 0.0, "lat": 38.90138433333333, "is_reserved": 0, "type": "electric_scooter", "bike_id": "64918f4908fca60278e9797b0e39719d", "is_disabled": 0, "rental_uris": {"android": "https://dc.lft.to/lastmile_qr_scan", "ios": "https://dc.lft.to/lastmile_qr_scan"}, "lon": -77.0247575, "fusion_lat": 0.0}, {"name": "e9a672326e36962b394f7e20cf0db555", "fusion_lon": 0.0, "lat": 38.8934515, "is_reserved": 0, "type": "electric_scooter", "bike_id": "e9a672326e36962b394f7e20cf0db555", "is_disabled": 0, "rental_uris": {"android": "https://dc.lft.to/lastmile_qr_scan", "ios": "https://dc.lft.to/lastmile_qr_scan"}, "lon": -77.0120145, "fusion_lat": 0.0}, {"name": "b200891abd4b44597a677f50b1dc2b9a", "fusion_lon": 0.0, "lat": 38.88207633333333, "is_reserved": 0, "type": "electric_scooter", "bike_id": "b200891abd4b44597a677f50b1dc2b9a", "is_disabled": 0, "rental_uris": {"android": "https://dc.lft.to/lastmile_qr_scan", "ios": "https://dc.lft.to/lastmile_qr_scan"}, "lon": -76.989221, "fusion_lat": 0.0}, {"name": "0d1e4510142168cd1b5a9bcff53b585f", "fusion_lon": 0.0, "lat": 38.91850766666667, "is_reserved": 0, "type": "electric_scooter", "bike_id": "0d1e4510142168cd1b5a9bcff53b585f", "is_disabled": 0, "rental_uris": {"android": "https://dc.lft.to/lastmile_qr_scan", "ios": "https://dc.lft.to/lastmile_qr_scan"}, "lon": -77.02296083333333, "fusion_lat": 0.0}, {"name": "71a232a66b34652915d5925da61f3839", "fusion_lon": 0.0, "lat": 38.8771045, "is_reserved": 0, "type": "electric_scooter", "bike_id": "71a232a66b34652915d5925da61f3839", "is_disabled": 0, "rental_uris": {"android": "https://dc.lft.to/lastmile_qr_scan", "ios": "https://dc.lft.to/lastmile_qr_scan"}, "lon": -77.004316, "fusion_lat": 0.0}, {"name": "13d3fa87d6d7568082179bc8a1ac29c4", "fusion_lon": 0.0, "lat": 38.90091683333333, "is_reserved": 0, "type": "electric_scooter", "bike_id": "13d3fa87d6d7568082179bc8a1ac29c4", "is_disabled": 0, "rental_uris": {"android": "https://dc.lft.to/lastmile_qr_scan", "ios": "https://dc.lft.to/lastmile_qr_scan"}, "lon": -76.97638666666667, "fusion_lat": 0.0}, {"name": "32d74c52ece830582d7b87b513214742", "fusion_lon": 0.0, "lat": 38.899205, "is_reserved": 0, "type": "electric_scooter", "bike_id": "32d74c52ece830582d7b87b513214742", "is_disabled": 0, "rental_uris": {"android": "https://dc.lft.to/lastmile_qr_scan", "ios": "https://dc.lft.to/lastmile_qr_scan"}, "lon": -76.93363116666667, "fusion_lat": 0.0}, {"name": "6e02bfb3304c3c4990145526f38c892e", "fusion_lon": 0.0, "lat": 38.865019, "is_reserved": 0, "type": "electric_scooter", "bike_id": "6e02bfb3304c3c4990145526f38c892e", "is_disabled": 0, "rental_uris": {"android": "https://dc.lft.to/lastmile_qr_scan", "ios": "https://dc.lft.to/lastmile_qr_scan"}, "lon": -76.98999733333333, "fusion_lat": 0.0}, {"name": "05feacb5b9f8201e46016caa579566c7", "fusion_lon": 0.0, "lat": 38.924869666666666, "is_reserved": 0, "type": "electric_scooter", "bike_id": "05feacb5b9f8201e46016caa579566c7", "is_disabled": 0, "rental_uris": {"android": "https://dc.lft.to/lastmile_qr_scan", "ios": "https://dc.lft.to/lastmile_qr_scan"}, "lon": -77.021367, "fusion_lat": 0.0}, {"name": "729697e36486b5397862d959d60325d8", "fusion_lon": 0.0, "lat": 38.897170333333335, "is_reserved": 0, "type": "electric_scooter", "bike_id": "729697e36486b5397862d959d60325d8", "is_disabled": 0, "rental_uris": {"android": "https://dc.lft.to/lastmile_qr_scan", "ios": "https://dc.lft.to/lastmile_qr_scan"}, "lon": -77.02149933333334, "fusion_lat": 0.0}, {"name": "dd4fa939884d56f4aeff9a84d23e6569", "fusion_lon": 0.0, "lat": 38.8744335, "is_reserved": 0, "type": "electric_scooter", "bike_id": "dd4fa939884d56f4aeff9a84d23e6569", "is_disabled": 0, "rental_uris": {"android": "https://dc.lft.to/lastmile_qr_scan", "ios": "https://dc.lft.to/lastmile_qr_scan"}, "lon": -77.00561583333334, "fusion_lat": 0.0}, {"name": "8922fa0cd65ad17c43a5570006515246", "fusion_lon": 0.0, "lat": 38.94202283333333, "is_reserved": 0, "type": "electric_scooter", "bike_id": "8922fa0cd65ad17c43a5570006515246", "is_disabled": 0, "rental_uris": {"android": "https://dc.lft.to/lastmile_qr_scan", "ios": "https://dc.lft.to/lastmile_qr_scan"}, "lon": -77.02514583333334, "fusion_lat": 0.0}, {"name": "07cd0e3d01475d2c4ce2e8b618ac782d", "fusion_lon": 0.0, "lat": 38.934439166666664, "is_reserved": 0, "type": "electric_scooter", "bike_id": "07cd0e3d01475d2c4ce2e8b618ac782d", "is_disabled": 0, "rental_uris": {"android": "https://dc.lft.to/lastmile_qr_scan", "ios": "https://dc.lft.to/lastmile_qr_scan"}, "lon": -77.032841, "fusion_lat": 0.0}, {"name": "5a59466121cc7435f9b2c4f07b83c6a1", "fusion_lon": 0.0, "lat": 38.909396, "is_reserved": 0, "type": "electric_scooter", "bike_id": "5a59466121cc7435f9b2c4f07b83c6a1", "is_disabled": 0, "rental_uris": {"android": "https://dc.lft.to/lastmile_qr_scan", "ios": "https://dc.lft.to/lastmile_qr_scan"}, "lon": -77.034493, "fusion_lat": 0.0}, {"name": "006c2d110a784ca09e662251728cc565", "fusion_lon": 0.0, "lat": 38.90001, "is_reserved": 0, "type": "electric_scooter", "bike_id": "006c2d110a784ca09e662251728cc565", "is_disabled": 0, "rental_uris": {"android": "https://dc.lft.to/lastmile_qr_scan", "ios": "https://dc.lft.to/lastmile_qr_scan"}, "lon": -76.99619733333333, "fusion_lat": 0.0}, {"name": "f69684acaa2cea904b2e095c70d0d1e2", "fusion_lon": 0.0, "lat": 38.91705783333333, "is_reserved": 0, "type": "electric_scooter", "bike_id": "f69684acaa2cea904b2e095c70d0d1e2", "is_disabled": 0, "rental_uris": {"android": "https://dc.lft.to/lastmile_qr_scan", "ios": "https://dc.lft.to/lastmile_qr_scan"}, "lon": -77.013289, "fusion_lat": 0.0}, {"name": "b585e7ead60a341e42fbb1c5b0666a1a", "fusion_lon": 0.0, "lat": 38.896151, "is_reserved": 0, "type": "electric_scooter", "bike_id": "b585e7ead60a341e42fbb1c5b0666a1a", "is_disabled": 0, "rental_uris": {"android": "https://dc.lft.to/lastmile_qr_scan", "ios": "https://dc.lft.to/lastmile_qr_scan"}, "lon": -76.9810415, "fusion_lat": 0.0}, {"name": "72f3aa0b651c9ff3954f4304227b29a9", "fusion_lon": 0.0, "lat": 38.912917, "is_reserved": 0, "type": "electric_scooter", "bike_id": "72f3aa0b651c9ff3954f4304227b29a9", "is_disabled": 0, "rental_uris": {"android": "https://dc.lft.to/lastmile_qr_scan", "ios": "https://dc.lft.to/lastmile_qr_scan"}, "lon": -77.02381966666667, "fusion_lat": 0.0}, {"name": "9a8a14dad38603152c50dfd2b6d167c3", "fusion_lon": 0.0, "lat": 38.8962185, "is_reserved": 0, "type": "electric_scooter", "bike_id": "9a8a14dad38603152c50dfd2b6d167c3", "is_disabled": 0, "rental_uris": {"android": "https://dc.lft.to/lastmile_qr_scan", "ios": "https://dc.lft.to/lastmile_qr_scan"}, "lon": -77.01601283333333, "fusion_lat": 0.0}, {"name": "f2554248c3d6a8af6d91f56e91bfc146", "fusion_lon": 0.0, "lat": 38.89623983333333, "is_reserved": 0, "type": "electric_scooter", "bike_id": "f2554248c3d6a8af6d91f56e91bfc146", "is_disabled": 0, "rental_uris": {"android": "https://dc.lft.to/lastmile_qr_scan", "ios": "https://dc.lft.to/lastmile_qr_scan"}, "lon": -77.02202383333334, "fusion_lat": 0.0}, {"name": "64a61cd44eed15c1d06d6d0fdd0d113e", "fusion_lon": 0.0, "lat": 38.9101925, "is_reserved": 0, "type": "electric_scooter", "bike_id": "64a61cd44eed15c1d06d6d0fdd0d113e", "is_disabled": 0, "rental_uris": {"android": "https://dc.lft.to/lastmile_qr_scan", "ios": "https://dc.lft.to/lastmile_qr_scan"}, "lon": -77.05266116666667, "fusion_lat": 0.0}, {"name": "1ffef43a59c4c1f98d59fb28e469ac3d", "fusion_lon": 0.0, "lat": 38.91928016666667, "is_reserved": 0, "type": "electric_bike", "bike_id": "1ffef43a59c4c1f98d59fb28e469ac3d", "is_disabled": 0, "rental_uris": {"android": "https://dc.lft.to/lastmile_qr_scan", "ios": "https://dc.lft.to/lastmile_qr_scan"}, "lon": -77.07376866666667, "fusion_lat": 0.0}, {"name": "7e7bce90fe36bfb4531223a79dc12ef2", "fusion_lon": 0.0, "lat": 38.9308465, "is_reserved": 0, "type": "electric_scooter", "bike_id": "7e7bce90fe36bfb4531223a79dc12ef2", "is_disabled": 0, "rental_uris": {"android": "https://dc.lft.to/lastmile_qr_scan", "ios": "https://dc.lft.to/lastmile_qr_scan"}, "lon": -77.025344, "fusion_lat": 0.0}, {"name": "f9f47c899234d19362b295f72f8989e7", "fusion_lon": 0.0, "lat": 38.900374166666666, "is_reserved": 0, "type": "electric_scooter", "bike_id": "f9f47c899234d19362b295f72f8989e7", "is_disabled": 0, "rental_uris": {"android": "https://dc.lft.to/lastmile_qr_scan", "ios": "https://dc.lft.to/lastmile_qr_scan"}, "lon": -77.00192683333333, "fusion_lat": 0.0}, {"name": "142f96c12889100e7b4301289bf35eda", "fusion_lon": 0.0, "lat": 38.89220816666667, "is_reserved": 0, "type": "electric_scooter", "bike_id": "142f96c12889100e7b4301289bf35eda", "is_disabled": 0, "rental_uris": {"android": "https://dc.lft.to/lastmile_qr_scan", "ios": "https://dc.lft.to/lastmile_qr_scan"}, "lon": -77.0480275, "fusion_lat": 0.0}, {"name": "236fd64b3689e197020b2f818cbcc7fb", "fusion_lon": 0.0, "lat": 38.916108333333334, "is_reserved": 0, "type": "electric_scooter", "bike_id": "236fd64b3689e197020b2f818cbcc7fb", "is_disabled": 0, "rental_uris": {"android": "https://dc.lft.to/lastmile_qr_scan", "ios": "https://dc.lft.to/lastmile_qr_scan"}, "lon": -77.0006035, "fusion_lat": 0.0}, {"name": "715a2ee399c0a721423173712f9c6b76", "fusion_lon": 0.0, "lat": 38.94277733333333, "is_reserved": 0, "type": "electric_bike", "bike_id": "715a2ee399c0a721423173712f9c6b76", "is_disabled": 0, "rental_uris": {"android": "https://dc.lft.to/lastmile_qr_scan", "ios": "https://dc.lft.to/lastmile_qr_scan"}, "lon": -76.98784133333334, "fusion_lat": 0.0}, {"name": "333fdc446237f6960e6b7749fade6567", "fusion_lon": 0.0, "lat": 38.882171, "is_reserved": 0, "type": "electric_scooter", "bike_id": "333fdc446237f6960e6b7749fade6567", "is_disabled": 0, "rental_uris": {"android": "https://dc.lft.to/lastmile_qr_scan", "ios": "https://dc.lft.to/lastmile_qr_scan"}, "lon": -77.008335, "fusion_lat": 0.0}, {"name": "8e0cf66b6dc722018413bdb608c9ca94", "fusion_lon": 0.0, "lat": 38.91774133333333, "is_reserved": 0, "type": "electric_scooter", "bike_id": "8e0cf66b6dc722018413bdb608c9ca94", "is_disabled": 0, "rental_uris": {"android": "https://dc.lft.to/lastmile_qr_scan", "ios": "https://dc.lft.to/lastmile_qr_scan"}, "lon": -77.01786016666667, "fusion_lat": 0.0}, {"name": "a9c77c86ab2ddc9329e1703c2e9bcdeb", "fusion_lon": 0.0, "lat": 38.923205333333335, "is_reserved": 0, "type": "electric_scooter", "bike_id": "a9c77c86ab2ddc9329e1703c2e9bcdeb", "is_disabled": 0, "rental_uris": {"android": "https://dc.lft.to/lastmile_qr_scan", "ios": "https://dc.lft.to/lastmile_qr_scan"}, "lon": -77.041793, "fusion_lat": 0.0}, {"name": "3d18c2e6d688ec1ba634741ee1703d2a", "fusion_lon": 0.0, "lat": 38.91105783333333, "is_reserved": 0, "type": "electric_scooter", "bike_id": "3d18c2e6d688ec1ba634741ee1703d2a", "is_disabled": 0, "rental_uris": {"android": "https://dc.lft.to/lastmile_qr_scan", "ios": "https://dc.lft.to/lastmile_qr_scan"}, "lon": -77.0479635, "fusion_lat": 0.0}, {"name": "adbbb83b733c14d10b08a6103f0eecd2", "fusion_lon": 0.0, "lat": 38.91688116666667, "is_reserved": 0, "type": "electric_scooter", "bike_id": "adbbb83b733c14d10b08a6103f0eecd2", "is_disabled": 0, "rental_uris": {"android": "https://dc.lft.to/lastmile_qr_scan", "ios": "https://dc.lft.to/lastmile_qr_scan"}, "lon": -77.02351616666667, "fusion_lat": 0.0}, {"name": "4d92be22146c0e6c26fe909cb07fb6f9", "fusion_lon": 0.0, "lat": 38.919640666666666, "is_reserved": 0, "type": "electric_scooter", "bike_id": "4d92be22146c0e6c26fe909cb07fb6f9", "is_disabled": 0, "rental_uris": {"android": "https://dc.lft.to/lastmile_qr_scan", "ios": "https://dc.lft.to/lastmile_qr_scan"}, "lon": -77.03848816666667, "fusion_lat": 0.0}, {"name": "c59197e1543d6aad4799e3a621af2399", "fusion_lon": 0.0, "lat": 38.888744833333334, "is_reserved": 0, "type": "electric_scooter", "bike_id": "c59197e1543d6aad4799e3a621af2399", "is_disabled": 0, "rental_uris": {"android": "https://dc.lft.to/lastmile_qr_scan", "ios": "https://dc.lft.to/lastmile_qr_scan"}, "lon": -76.99026716666667, "fusion_lat": 0.0},