{"data": {"bikes": [{"is_reserved": 0, "type": "electric_scooter", "bike_id": "38410bb7429fb8aa91f90112fa29f930", "lat": 38.91403366666667, "lon": -77.031814, "rental_uris": {"android": "https://dc.lft.to/lastmile_qr_scan", "ios": "https://dc.lft.to/lastmile_qr_scan"}, "is_disabled": 0, "fusion_lat": 0.0, "name": "38410bb7429fb8aa91f90112fa29f930", "fusion_lon": 0.0}, {"is_reserved": 0, "type": "electric_scooter", "bike_id": "4094aaa25fb3fc5460dbd797351f7adb", "lat": 38.91289783333333, "lon": -77.02301416666667, "rental_uris": {"android": "https://dc.lft.to/lastmile_qr_scan", "ios": "https://dc.lft.to/lastmile_qr_scan"}, "is_disabled": 0, "fusion_lat": 0.0, "name": "4094aaa25fb3fc5460dbd797351f7adb", "fusion_lon": 0.0}, {"is_reserved": 0, "type": "electric_scooter", "bike_id": "b518d1c01075e7787ad5977dd33c3788", "lat": 38.93638283333333, "lon": -77.08321133333334, "rental_uris": {"android": "https://dc.lft.to/lastmile_qr_scan", "ios": "https://dc.lft.to/lastmile_qr_scan"}, "is_disabled": 0, "fusion_lat": 0.0, "name": "b518d1c01075e7787ad5977dd33c3788", "fusion_lon": 0.0}, {"is_reserved": 0, "type": "electric_scooter", "bike_id": "1c52b047ffcd03a4e2b5cd826b632607", "lat": 38.90871833333333, "lon": -77.0640785, "rental_uris": {"android": "https://dc.lft.to/lastmile_qr_scan", "ios": "https://dc.lft.to/lastmile_qr_scan"}, "is_disabled": 0, "fusion_lat": 0.0, "name": "1c52b047ffcd03a4e2b5cd826b632607", "fusion_lon": 0.0}, {"is_reserved": 0, "type": "electric_scooter", "bike_id": "2e1c79cc3017083a63d91afac1637acf", "lat": 38.92415033333333, "lon": -77.04024633333333, "rental_uris": {"android": "https://dc.lft.to/lastmile_qr_scan", "ios": "https://dc.lft.to/lastmile_qr_scan"}, "is_disabled": 0, "fusion_lat": 0.0, "name": "2e1c79cc3017083a63d91afac1637acf", "fusion_lon": 0.0}, {"is_reserved": 0, "type": "electric_scooter", "bike_id": "3d82120f30ee67f3c7b78bfc8762012e", "lat": 38.90546766666667, "lon": -77.05920416666666, "rental_uris": {"android": "https://dc.lft.to/lastmile_qr_scan", "ios": "https://dc.lft.to/lastmile_qr_scan"}, "is_disabled": 0, "fusion_lat": 0.0, "name": "3d82120f30ee67f3c7b78bfc8762012e", "fusion_lon": 0.0}, {"is_reserved": 0, "type": "electric_scooter", "bike_id": "9f5492b26c5cd92410fff56926268328", "lat": 38.90539783333333, "lon": -77.05815883333334, "rental_uris": {"android": "https://dc.lft.to/lastmile_qr_scan", "ios": "https://dc.lft.to/lastmile_qr_scan"}, "is_disabled": 0, "fusion_lat": 0.0, "name": "9f5492b26c5cd92410fff56926268328", "fusion_lon": 0.0}, {"is_reserved": 0, "type": "electric_scooter", "bike_id": "f6bb581c5742e8cd74209f3234e4ed0b", "lat": 38.85223666666667, "lon": -76.99424266666666, "rental_uris": {"android": "https://dc.lft.to/lastmile_qr_scan", "ios": "https://dc.lft.to/lastmile_qr_scan"}, "is_disabled": 0, "fusion_lat": 0.0, "name": "f6bb581c5742e8cd74209f3234e4ed0b", "fusion_lon": 0.0}, {"is_reserved": 0, "type": "electric_scooter", "bike_id": "b79a977ac242952f46f114f742476763", "lat": 38.90291716666667, "lon": -77.00213583333333, "rental_uris": {"android": "https://dc.lft.to/lastmile_qr_scan", "ios": "https://dc.lft.to/lastmile_qr_scan"}, "is_disabled": 0, "fusion_lat": 0.0, "name": "b79a977ac242952f46f114f742476763", "fusion_lon": 0.0}, {"is_reserved": 0, "type": "electric_scooter", "bike_id": "6e50c8d0ceee71f1c3830e7bb9c81967", "lat": 38.90611216666667, "lon": -77.00916, "rental_uris": {"android": "https://dc.lft.to/lastmile_qr_scan", "ios": "https://dc.lft.to/lastmile_qr_scan"}, "is_disabled": 0, "fusion_lat": 0.0, "name": "6e50c8d0ceee71f1c3830e7bb9c81967", "fusion_lon": 0.0}, {"is_reserved": 0, "type": "electric_scooter", "bike_id": "910dc53f3f276f115669805ac5c09f51", "lat": 38.884228, "lon": -77.00002616666667, "rental_uris": {"android": "https://dc.lft.to/lastmile_qr_scan", "ios": "https://dc.lft.to/lastmile_qr_scan"}, "is_disabled": 0, "fusion_lat": 0.0, "name": "910dc53f3f276f115669805ac5c09f51", "fusion_lon": 0.0}, {"is_reserved": 0, "type": "electric_scooter", "bike_id": "8184c108d3f9ca8a7e4b713d07aa0c7b", "lat": 38.9085935, "lon": -77.06344033333333, "rental_uris": {"android": "https://dc.lft.to/lastmile_qr_scan", "ios": "https://dc.lft.to/lastmile_qr_scan"}, "is_disabled": 0, "fusion_lat": 0.0, "name": "8184c108d3f9ca8a7e4b713d07aa0c7b", "fusion_lon": 0.0}, {"is_reserved": 0, "type": "electric_scooter", "bike_id": "0a30145311b163af1539894ad1ef81ff", "lat": 38.899111, "lon": -76.93363033333333, "rental_uris": {"android": "https://dc.lft.to/lastmile_qr_scan", "ios": "https://dc.lft.to/lastmile_qr_scan"}, "is_disabled": 0, "fusion_lat": 0.0, "name": "0a30145311b163af1539894ad1ef81ff", "fusion_lon": 0.0}, {"is_reserved": 0, "type": "electric_scooter", "bike_id": "0316513a4e9eb1fb754e0dfdb766dd3e", "lat": 38.93886333333333, "lon": -77.0325915, "rental_uris": {"android": "https://dc.lft.to/lastmile_qr_scan", "ios": "https://dc.lft.to/lastmile_qr_scan"}, "is_disabled": 0, "fusion_lat": 0.0, "name": "0316513a4e9eb1fb754e0dfdb766dd3e", "fusion_lon": 0.0}, {"is_reserved": 0, "type": "electric_scooter", "bike_id": "6219cd4531f77c657fcbf951daab0a4d", "lat": 38.900381333333335, "lon": -76.9914945, "rental_uris": {"android": "https://dc.lft.to/lastmile_qr_scan", "ios": "https://dc.lft.to/lastmile_qr_scan"}, "is_disabled": 0, "fusion_lat": 0.0, "name": "6219cd4531f77c657fcbf951daab0a4d", "fusion_lon": 0.0}, {"is_reserved": 0, "type": "electric_scooter", "bike_id": "e42c67626b624e098aa36ef3ceba937b", "lat": 38.917548333333336, "lon": -77.01493866666667, "rental_uris": {"android": "https://dc.lft.to/lastmile_qr_scan", "ios": "https://dc.lft.to/lastmile_qr_scan"}, "is_disabled": 0, "fusion_lat": 0.0, "name": "e42c67626b624e098aa36ef3ceba937b", "fusion_lon": 0.0}, {"is_reserved": 0, "type": "electric_scooter", "bike_id": "5f68315309445bcec1a95fc71b43dff6", "lat": 38.91416983333333, "lon": -77.04051766666667, "rental_uris": {"android": "https://dc.lft.to/lastmile_qr_scan", "ios": "https://dc.lft.to/lastmile_qr_scan"}, "is_disabled": 0, "fusion_lat": 0.0, "name": "5f68315309445bcec1a95fc71b43dff6", "fusion_lon": 0.0}, {"is_reserved": 0, "type": "electric_scooter", "bike_id": "d923d0b9835bf6764c32452329ef3401", "lat": 38.946596666666665, "lon": -77.03281116666666, "rental_uris": {"android": "https://dc.lft.to/lastmile_qr_scan", "ios": "https://dc.lft.to/lastmile_qr_scan"}, "is_disabled": 0, "fusion_lat": 0.0, "name": "d923d0b9835bf6764c32452329ef3401", "fusion_lon": 0.0}, {"is_reserved": 0, "type": "electric_scooter", "bike_id": "a71c13acca0e7bd0789013fdd943d036", "lat": 38.909652, "lon": -77.04399783333334, "rental_uris": {"android": "https://dc.lft.to/lastmile_qr_scan", "ios": "https://dc.lft.to/lastmile_qr_scan"}, "is_disabled": 0, "fusion_lat": 0.0, "name": "a71c13acca0e7bd0789013fdd943d036", "fusion_lon": 0.0}, {"is_reserved": 0, "type": "electric_scooter", "bike_id": "deb7bf4486993b7a3b389bfe80d0cb82", "lat": 38.94183816666666, "lon": -77.02564916666667, "rental_uris": {"android": "https://dc.lft.to/lastmile_qr_scan", "ios": "https://dc.lft.to/lastmile_qr_scan"}, "is_disabled": 0, "fusion_lat": 0.0, "name": "deb7bf4486993b7a3b389bfe80d0cb82", "fusion_lon": 0.0}, {"is_reserved": 0, "type": "electric_scooter", "bike_id": "d9411456132c37c74ea65d9fec0cae90", "lat": 38.9242885, "lon": -77.01933266666667, "rental_uris": {"android": "https://dc.lft.to/lastmile_qr_scan", "ios": "https://dc.lft.to/lastmile_qr_scan"}, "is_disabled": 0, "fusion_lat": 0.0, "name": "d9411456132c37c74ea65d9fec0cae90", "fusion_lon": 0.0}, {"is_reserved": 0, "type": "electric_bike", "bike_id": "485063dba07db1fb8181d314de9d8c6a", "lat": 38.921145, "lon": -76.9888075, "rental_uris": {"android": "https://dc.lft.to/lastmile_qr_scan", "ios": "https://dc.lft.to/lastmile_qr_scan"}, "is_disabled": 0, "fusion_lat": 0.0, "name": "485063dba07db1fb8181d314de9d8c6a", "fusion_lon": 0.0}, {"is_reserved": 0, "type": "electric_scooter", "bike_id": "088d8a6c9ca11f7c2b48155f894e98ea", "lat": 38.89715983333333, "lon": -77.02699433333333, "rental_uris": {"android": "https://dc.lft.to/lastmile_qr_scan", "ios": "https://dc.lft.to/lastmile_qr_scan"}, "is_disabled": 0, "fusion_lat": 0.0, "name": "088d8a6c9ca11f7c2b48155f894e98ea", "fusion_lon": 0.0}, {"is_reserved": 0, "type": "electric_scooter", "bike_id": "575b6e5a24169907372b1a3a2ea8cdf7", "lat": 38.90745033333334, "lon": -77.00761083333333, "rental_uris": {"android": "https://dc.lft.to/lastmile_qr_scan", "ios": "https://dc.lft.to/lastmile_qr_scan"}, "is_disabled": 0, "fusion_lat": 0.0, "name": "575b6e5a24169907372b1a3a2ea8cdf7", "fusion_lon": 0.0}, {"is_reserved": 0, "type": "electric_scooter", "bike_id": "3efff8cfc59344ac233d4b5a84e6b142", "lat": 38.924402666666666, "lon": -77.02026383333333, "rental_uris": {"android": "https://dc.lft.to/lastmile_qr_scan", "ios": "https://dc.lft.to/lastmile_qr_scan"}, "is_disabled": 0, "fusion_lat": 0.0, "name": "3efff8cfc59344ac233d4b5a84e6b142", "fusion_lon": 0.0}, {"is_reserved": 0, "type": "electric_bike", "bike_id": "588846f73cbe4a8be31a9dea29cc3369", "lat": 38.95852983333333, "lon": -76.9861045, "rental_uris": {"android": "https://dc.lft.to/lastmile_qr_scan", "ios": "https://dc.lft.to/lastmile_qr_scan"}, "is_disabled": 0, "fusion_lat": 0.0, "name": "588846f73cbe4a8be31a9dea29cc3369", "fusion_lon": 0.0}, {"is_reserved": 0, "type": "electric_scooter", "bike_id": "7a12fd5bda61efd8ae4f731b766af6c6", "lat": 38.911386, "lon": -77.02409083333333, "rental_uris": {"android": "https://dc.lft.to/lastmile_qr_scan", "ios": "https://dc.lft.to/lastmile_qr_scan"}, "is_disabled": 0, "fusion_lat": 0.0, "name": "7a12fd5bda61efd8ae4f731b766af6c6", "fusion_lon": 0.0}, {"is_reserved": 0, "type": "electric_scooter", "bike_id": "69bb87e42af09e044e994bc95a0c1497", "lat": 38.88754683333333, "lon": -76.99615, "rental_uris": {"android": "https://dc.lft.to/lastmile_qr_scan", "ios": "https://dc.lft.to/lastmile_qr_scan"}, "is_disabled": 0, "fusion_lat": 0.0, "name": "69bb87e42af09e044e994bc95a0c1497", "fusion_lon": 0.0}, {"is_reserved": 0, "type": "electric_scooter", "bike_id": "7d438c39abb52ee4d646b42e25180842", "lat": 38.90547866666667, "lon": -76.9914065, "rental_uris": {"android": "https://dc.lft.to/lastmile_qr_scan", "ios": "https://dc.lft.to/lastmile_qr_scan"}, "is_disabled": 0, "fusion_lat": 0.0, "name": "7d438c39abb52ee4d646b42e25180842", "fusion_lon": 0.0}, {"is_reserved": 0, "type": "electric_scooter", "bike_id": "5992cc003ef423150001634c4cade36d", "lat": 38.91317566666667, "lon": -77.01604816666666, "rental_uris": {"android": "https://dc.lft.to/lastmile_qr_scan", "ios": "https://dc.lft.to/lastmile_qr_scan"}, "is_disabled": 0, "fusion_lat": 0.0, "name": "5992cc003ef423150001634c4cade36d", "fusion_lon": 0.0}, {"is_reserved": 0, "type": "electric_scooter", "bike_id": "ad0e066134cb6f2ac140705f257d604d", "lat": 38.910085333333335, "lon": -77.0238655, "rental_uris": {"android": "https://dc.lft.to/lastmile_qr_scan", "ios": "https://dc.lft.to/lastmile_qr_scan"}, "is_disabled": 0, "fusion_lat": 0.0, "name": "ad0e066134cb6f2ac140705f257d604d", "fusion_lon": 0.0}, {"is_reserved": 0, "type": "electric_scooter", "bike_id": "5f2969f9d5c90191a46871e4f6177e6a", "lat": 38.89833, "lon": -77.02784216666667, "rental_uris": {"android": "https://dc.lft.to/lastmile_qr_scan", "ios": "https://dc.lft.to/lastmile_qr_scan"}, "is_disabled": 0, "fusion_lat": 0.0, "name": "5f2969f9d5c90191a46871e4f6177e6a", "fusion_lon": 0.0}, {"is_reserved": 0, "type": "electric_scooter", "bike_id": "c888ce4adda897d8344f4f71183b52c5", "lat": 38.92094566666667, "lon": -77.07180683333333, "rental_uris": {"android": "https://dc.lft.to/lastmile_qr_scan", "ios": "https://dc.lft.to/lastmile_qr_scan"}, "is_disabled": 0, "fusion_lat": 0.0, "name": "c888ce4adda897d8344f4f71183b52c5", "fusion_lon": 0.0}, {"is_reserved": 0, "type": "electric_scooter", "bike_id": "a387953f90ba9f0dcb20354fa5c34a99", "lat": 38.90594683333333, "lon": -77.0641935, "rental_uris": {"android": "https://dc.lft.to/lastmile_qr_scan", "ios": "https://dc.lft.to/lastmile_qr_scan"}, "is_disabled": 0, "fusion_lat": 0.0, "name": "a387953f90ba9f0dcb20354fa5c34a99", "fusion_lon": 0.0}, {"is_reserved": 0, "type": "electric_scooter", "bike_id": "e7c993d221a6dc4ce9a40877dd9b936d", "lat": 38.877614, "lon": -76.99530683333333, "rental_uris": {"android": "https://dc.lft.to/lastmile_qr_scan", "ios": "https://dc.lft.to/lastmile_qr_scan"}, "is_disabled": 0, "fusion_lat": 0.0, "name": "e7c993d221a6dc4ce9a40877dd9b936d", "fusion_lon": 0.0}, {"is_reserved": 0, "type": "electric_scooter", "bike_id": "af1a2e8246bf0d150b7efd41c19ac591", "lat": 38.952936, "lon": -77.06851483333334, "rental_uris": {"android": "https://dc.lft.to/lastmile_qr_scan", "ios": "https://dc.lft.to/lastmile_qr_scan"}, "is_disabled": 0, "fusion_lat": 0.0, "name": "af1a2e8246bf0d150b7efd41c19ac591", "fusion_lon": 0.0}, {"is_reserved": 0, "type": "electric_scooter", "bike_id": "b91216eabf5f66257608517bc06dbc8c", "lat": 38.92457916666667, "lon": -77.0089245, "rental_uris": {"android": "https://dc.lft.to/lastmile_qr_scan", "ios": "https://dc.lft.to/lastmile_qr_scan"}, "is_disabled": 0, "fusion_lat": 0.0, "name": "b91216eabf5f66257608517bc06dbc8c", "fusion_lon": 0.0}, {"is_reserved": 0, "type": "electric_scooter", "bike_id": "2048e6919d0b577ed3144dd3a11470a1", "lat": 38.907520833333336, "lon": -77.00319483333334, "rental_uris": {"android": "https://dc.lft.to/lastmile_qr_scan", "ios": "https://dc.lft.to/lastmile_qr_scan"}, "is_disabled": 0, "fusion_lat": 0.0, "name": "2048e6919d0b577ed3144dd3a11470a1", "fusion_lon": 0.0}, {"is_reserved": 0, "type": "electric_scooter", "bike_id": "484f67c6f13da91c95a7143ab67c429f", "lat": 38.89366716666667, "lon": -77.0298605, "rental_uris": {"android": "https://dc.lft.to/lastmile_qr_scan", "ios": "https://dc.lft.to/lastmile_qr_scan"}, "is_disabled": 0, "fusion_lat": 0.0, "name": "484f67c6f13da91c95a7143ab67c429f", "fusion_lon": 0.0}, {"is_reserved": 0, "type": "electric_scooter", "bike_id": "021921e5c28a37b2bb85835978af146f", "lat": 38.89346333333334, "lon": -77.01169383333334, "rental_uris": {"android": "https://dc.lft.to/lastmile_qr_scan", "ios": "https://dc.lft.to/lastmile_qr_scan"}, "is_disabled": 0, "fusion_lat": 0.0, "name": "021921e5c28a37b2bb85835978af146f", "fusion_lon": 0.0}, {"is_reserved": 0, "type": "electric_scooter", "bike_id": "40f29384c504d15255133159fe7f4012", "lat": 38.93326783333333, "lon": -77.0291265, "rental_uris": {"android": "https://dc.lft.to/lastmile_qr_scan", "ios": "https://dc.lft.to/lastmile_qr_scan"}, "is_disabled": 0, "fusion_lat": 0.0, "name": "40f29384c504d15255133159fe7f4012", "fusion_lon": 0.0}, {"is_reserved": 0, "type": "electric_scooter", "bike_id": "c3e3432ea436d2649ab4be1ffa67f3fd", "lat": 38.8766325, "lon": -77.0076265, "rental_uris": {"android": "https://dc.lft.to/lastmile_qr_scan", "ios": "https://dc.lft.to/lastmile_qr_scan"}, "is_disabled": 0, "fusion_lat": 0.0, "name": "c3e3432ea436d2649ab4be1ffa67f3fd", "fusion_lon": 0.0}, {"is_reserved": 0, "type": "electric_scooter", "bike_id": "055c582ede8c7fa420ae20c13efa1d5a", "lat": 38.949756666666666, "lon": -77.024469, "rental_uris": {"android": "https://dc.lft.to/lastmile_qr_scan", "ios": "https://dc.lft.to/lastmile_qr_scan"}, "is_disabled": 0, "fusion_lat": 0.0, "name": "055c582ede8c7fa420ae20c13efa1d5a", "fusion_lon": 0.0}, {"is_reserved": 0, "type": "electric_scooter", "bike_id": "11c05095679620b494a09f9d86ba7514", "lat": 38.93308966666667, "lon": -76.9960385, "rental_uris": {"android": "https://dc.lft.to/lastmile_qr_scan", "ios": "https://dc.lft.to/lastmile_qr_scan"}, "is_disabled": 0, "fusion_lat": 0.0, "name": "11c05095679620b494a09f9d86ba7514", "fusion_lon": 0.0}, {"is_reserved": 0, "type": "electric_scooter", "bike_id": "840cede1fd67ea62adb4629d5400116b", "lat": 38.909501, "lon": -77.032117, "rental_uris": {"android": "https://dc.lft.to/lastmile_qr_scan", "ios": "https://dc.lft.to/lastmile_qr_scan"}, "is_disabled": 0, "fusion_lat": 0.0, "name": "840cede1fd67ea62adb4629d5400116b", "fusion_lon": 0.0}, {"is_reserved": 0, "type": "electric_scooter", "bike_id": "5641457838ddea64c3f34ee78ba6d5af", "lat": 38.900699833333334, "lon": -77.04883416666667, "rental_uris": {"android": "https://dc.lft.to/lastmile_qr_scan", "ios": "https://dc.lft.to/lastmile_qr_scan"}, "is_disabled": 0, "fusion_lat": 0.0, "name": "5641457838ddea64c3f34ee78ba6d5af", "fusion_lon": 0.0}, {"is_reserved": 0, "type": "electric_scooter", "bike_id": "3bc18a1dba51963085c6af9f57ca7d2e", "lat": 38.90523783333333, "lon": -77.05995616666667, "rental_uris": {"android": "https://dc.lft.to/lastmile_qr_scan", "ios": "https://dc.lft.to/lastmile_qr_scan"}, "is_disabled": 0, "fusion_lat": 0.0, "name": "3bc18a1dba51963085c6af9f57ca7d2e", "fusion_lon": 0.0}, {"is_reserved": 0, "type": "electric_scooter", "bike_id": "79b10c94d3eb17a5c7165af041b00309", "lat": 38.92590083333333, "lon": -77.04404099999999, "rental_uris": {"android": "https://dc.lft.to/lastmile_qr_scan", "ios": "https://dc.lft.to/lastmile_qr_scan"}, "is_disabled": 0, "fusion_lat": 0.0, "name": "79b10c94d3eb17a5c7165af041b00309", "fusion_lon": 0.0}, {"is_reserved": 0, "type": "electric_bike", "bike_id": "33e188cc6c40ff20e8afa03605328cbc", "lat": 38.8717315, "lon": -77.00683383333333, "rental_uris": {"android": "https://dc.lft.to/lastmile_qr_scan", "ios": "https://dc.lft.to/lastmile_qr_scan"}, "is_disabled": 0, "fusion_lat": 0.0, "name": "33e188cc6c40ff20e8afa03605328cbc", "fusion_lon": 0.0}, {"is_reserved": 0, "type": "electric_scooter", "bike_id": "f283d136c689ea30da5978bac99d03bf", "lat": 38.91757166666667, "lon": -77.00450233333333, "rental_uris": {"android": "https://dc.lft.to/lastmile_qr_scan", "ios": "https://dc.lft.to/lastmile_qr_scan"}, "is_disabled": 0, "fusion_lat": 0.0, "name": "f283d136c689ea30da5978bac99d03bf", "fusion_lon": 0.0}, {"is_reserved": 0, "type": "electric_bike", "bike_id": "461b0829f38fc9b46c4c2866330c8cb4", "lat": 38.92133583333333, "lon": -77.0040025, "rental_uris": {"android": "https://dc.lft.to/lastmile_qr_scan", "ios": "https://dc.lft.to/lastmile_qr_scan"}, "is_disabled": 0, "fusion_lat": 0.0, "name": "461b0829f38fc9b46c4c2866330c8cb4", "fusion_lon": 0.0}, {"is_reserved": 0, "type": "electric_scooter", "bike_id": "e9a39669cc43e11f8222940f53b06524", "lat": 38.905648166666666, "lon": -77.04198366666667, "rental_uris": {"android": "https://dc.lft.to/lastmile_qr_scan", "ios": "https://dc.lft.to/lastmile_qr_scan"}, "is_disabled": 0, "fusion_lat": 0.0, "name": "e9a39669cc43e11f8222940f53b06524", "fusion_lon": 0.0}, {"is_reserved": 0, "type": "electric_scooter", "bike_id": "f5440138983fc2088428c26bf7a988cd", "lat": 38.88044633333333, "lon": -77.00559066666666, "rental_uris": {"android": "https://dc.lft.to/lastmile_qr_scan", "ios": "https://dc.lft.to/lastmile_qr_scan"}, "is_disabled": 0, "fusion_lat": 0.0, "name": "f5440138983fc2088428c26bf7a988cd", "fusion_lon": 0.0}, {"is_reserved": 0, "type": "electric_scooter", "bike_id": "2bf916372389ce8bfe1e7644357be531", "lat": 38.9388025, "lon": -77.03282233333333, "rental_uris": {"android": "https://dc.lft.to/lastmile_qr_scan", "ios": "https://dc.lft.to/lastmile_qr_scan"}, "is_disabled": 0, "fusion_lat": 0.0, "name": "2bf916372389ce8bfe1e7644357be531", "fusion_lon": 0.0}, {"is_reserved": 0, "type": "electric_scooter", "bike_id": "16af16ed67b5fd65c8a8850bfecc780d", "lat": 38.932759833333336, "lon": -77.039479, "rental_uris": {"android": "https://dc.lft.to/lastmile_qr_scan", "ios": "https://dc.lft.to/lastmile_qr_scan"}, "is_disabled": 0, "fusion_lat": 0.0, "name": "16af16ed67b5fd65c8a8850bfecc780d", "fusion_lon": 0.0}, {"is_reserved": 0, "type": "electric_scooter", "bike_id": "8a779c0d6c2ab07d2ffc589cf27539a5", "lat": 38.916252, "lon": -77.03172766666667, "rental_uris": {"android": "https://dc.lft.to/lastmile_qr_scan", "ios": "https://dc.lft.to/lastmile_qr_scan"}, "is_disabled": 0, "fusion_lat": 0.0, "name": "8a779c0d6c2ab07d2ffc589cf27539a5", "fusion_lon": 0.0}, {"is_reserved": 0, "type": "electric_scooter", "bike_id": "f5a642fdc799fdfabd872bad5ef06cae", "lat": 38.94315866666667, "lon": -77.06173866666667, "rental_uris": {"android": "https://dc.lft.to/lastmile_qr_scan", "ios": "https://dc.lft.to/lastmile_qr_scan"}, "is_disabled": 0, "fusion_lat": 0.0, "name": "f5a642fdc799fdfabd872bad5ef06cae", "fusion_lon": 0.0}, {"is_reserved": 0, "type": "electric_scooter", "bike_id": "7edead1bd2ba758b8b656943b86e5c63", "lat": 38.931201, "lon": -77.0231785, "rental_uris": {"android": "https://dc.lft.to/lastmile_qr_scan", "ios": "https://dc.lft.to/lastmile_qr_scan"}, "is_disabled": 0, "fusion_lat": 0.0, "name": "7edead1bd2ba758b8b656943b86e5c63", "fusion_lon": 0.0}, {"is_reserved": 0, "type": "electric_scooter", "bike_id": "6f246191e6856dc71c0d2656c2111b68", "lat": 38.903778833333334, "lon": -77.0356105, "rental_uris": {"android": "https://dc.lft.to/lastmile_qr_scan", "ios": "https://dc.lft.to/lastmile_qr_scan"}, "is_disabled": 0, "fusion_lat": 0.0, "name": "6f246191e6856dc71c0d2656c2111b68", "fusion_lon": 0.0}, {"is_reserved": 0, "type": "electric_scooter", "bike_id": "14bf4d638d55a8bf9446cb4b3bb96dbe", "lat": 38.87894216666667, "lon": -77.02202183333333, "rental_uris": {"android": "https://dc.lft.to/lastmile_qr_scan", "ios": "https://dc.lft.to/lastmile_qr_scan"}, "is_disabled": 0, "fusion_lat": 0.0, "name": "14bf4d638d55a8bf9446cb4b3bb96dbe", "fusion_lon": 0.0}, {"is_reserved": 0, "type": "electric_scooter", "bike_id": "802e7fe2dfcd729e2c923142d0f6eb79", "lat": 38.917646166666664, "lon": -77.04157166666667, "rental_uris": {"android": "https://dc.lft.to/lastmile_qr_scan", "ios": "https://dc.lft.to/lastmile_qr_scan"}, "is_disabled": 0, "fusion_lat": 0.0, "name": "802e7fe2dfcd729e2c923142d0f6eb79", "fusion_lon": 0.0}, {"is_reserved": 0, "type": "electric_scooter", "bike_id": "daa4a874f7702411ac9e779fa3c36c46", "lat": 38.92656916666667, "lon": -77.0268755, "rental_uris": {"android": "https://dc.lft.to/lastmile_qr_scan", "ios": "https://dc.lft.to/lastmile_qr_scan"}, "is_disabled": 0, "fusion_lat": 0.0, "name": "daa4a874f7702411ac9e779fa3c36c46", "fusion_lon": 0.0}, {"is_reserved": 0, "type": "electric_scooter", "bike_id": "931548778b2c1c6d88b22b4005ec8b90", "lat": 38.934120666666665, "lon": -77.04536666666667, "rental_uris": {"android": "https://dc.lft.to/lastmile_qr_scan", "ios": "https://dc.lft.to/lastmile_qr_scan"}, "is_disabled": 0, "fusion_lat": 0.0, "name": "931548778b2c1c6d88b22b4005ec8b90", "fusion_lon": 0.0}, {"is_reserved": 0, "type": "electric_scooter", "bike_id": "cf1c924d2f07ea52974a869b159220eb", "lat": 38.945081333333334, "lon": -77.03360533333333, "rental_uris": {"android": "https://dc.lft.to/lastmile_qr_scan", "ios": "https://dc.lft.to/lastmile_qr_scan"}, "is_disabled": 0, "fusion_lat": 0.0, "name": "cf1c924d2f07ea52974a869b159220eb", "fusion_lon": 0.0}, {"is_reserved": 0, "type": "electric_bike", "bike_id": "7f1524c84bc7ffc0655b17b63e5fba6c", "lat": 38.962429666666665, "lon": -76.99680216666667, "rental_uris": {"android": "https://dc.lft.to/lastmile_qr_scan", "ios": "https://dc.lft.to/lastmile_qr_scan"}, "is_disabled": 0, "fusion_lat": 0.0, "name": "7f1524c84bc7ffc0655b17b63e5fba6c", "fusion_lon": 0.0}, {"is_reserved": 0, "type": "electric_scooter", "bike_id": "2d71b4b2496f14d52793950d399c77a9", "lat": 38.9056435, "lon": -77.0627505, "rental_uris": {"android": "https://dc.lft.to/lastmile_qr_scan", "ios": "https://dc.lft.to/lastmile_qr_scan"}, "is_disabled": 0, "fusion_lat": 0.0, "name": "2d71b4b2496f14d52793950d399c77a9", "fusion_lon": 0.0}, {"is_reserved": 0, "type": "electric_scooter", "bike_id": "d7fb395c23700b231612c6ddf78f9b65", "lat": 38.907934166666664, "lon": -77.04782633333333, "rental_uris": {"android": "https://dc.lft.to/lastmile_qr_scan", "ios": "https://dc.lft.to/lastmile_qr_scan"}, "is_disabled": 0, "fusion_lat": 0.0, "name": "d7fb395c23700b231612c6ddf78f9b65", "fusion_lon": 0.0}, {"is_reserved": 0, "type": "electric_scooter", "bike_id": "2525cf354dcd5ca5700bf2794ff0c7cd", "lat": 38.887266333333336, "lon": -76.98370966666667, "rental_uris": {"android": "https://dc.lft.to/lastmile_qr_scan", "ios": "https://dc.lft.to/lastmile_qr_scan"}, "is_disabled": 0, "fusion_lat": 0.0, "name": "2525cf354dcd5ca5700bf2794ff0c7cd", "fusion_lon": 0.0}, {"is_reserved": 0, "type": "electric_scooter", "bike_id": "c07707dda50ec593b07e915991a2f886", "lat": 38.898352, "lon": -77.0250145, "rental_uris": {"android": "https://dc.lft.to/lastmile_qr_scan", "ios": "https://dc.lft.to/lastmile_qr_scan"}, "is_disabled": 0, "fusion_lat": 0.0, "name": "c07707dda50ec593b07e915991a2f886", "fusion_lon": 0.0}, {"is_reserved": 0, "type": "electric_scooter", "bike_id": "35210bb02917a24140cf929514183025", "lat": 38.93209233333333, "lon": -77.03262283333333, "rental_uris": {"android": "https://dc.lft.to/lastmile_qr_scan", "ios": "https://dc.lft.to/lastmile_qr_scan"}, "is_disabled": 0, "fusion_lat": 0.0, "name": "35210bb02917a24140cf929514183025", "fusion_lon": 0.0}, {"is_reserved": 0, "type": "electric_scooter", "bike_id": "ca9b3a0e42642f47895b4f21f491aa61", "lat": 38.927792, "lon": -77.05411816666667, "rental_uris": {"android": "https://dc.lft.to/lastmile_qr_scan", "ios": "https://dc.lft.to/lastmile_qr_scan"}, "is_disabled": 0, "fusion_lat": 0.0, "name": "ca9b3a0e42642f47895b4f21f491aa61", "fusion_lon": 0.0}, {"is_reserved": 0, "type": "electric_bike", "bike_id": "b68cd0b367a61f12e2f5717688a9060d", "lat": 38.86259883333334, "lon": -76.98349, "rental_uris": {"android": "https://dc.lft.to/lastmile_qr_scan", "ios": "https://dc.lft.to/lastmile_qr_scan"}, "is_disabled": 0, "fusion_lat": 0.0, "name": "b68cd0b367a61f12e2f5717688a9060d", "fusion_lon": 0.0}, {"is_reserved": 0, "type": "electric_scooter", "bike_id": "b5f809e1f8199d04e0a62cbe76f7f1b7", "lat": 38.90975916666667, "lon": -77.0077535, "rental_uris": {"android": "https://dc.lft.to/lastmile_qr_scan", "ios": "https://dc.lft.to/lastmile_qr_scan"}, "is_disabled": 0, "fusion_lat": 0.0, "name": "b5f809e1f8199d04e0a62cbe76f7f1b7", "fusion_lon": 0.0}, {"is_reserved": 0, "type": "electric_scooter", "bike_id": "2172764b50798155e26588cc2a260923", "lat": 38.918570833333334, "lon": -77.035644, "rental_uris": {"android": "https://dc.lft.to/lastmile_qr_scan", "ios": "https://dc.lft.to/lastmile_qr_scan"}, "is_disabled": 0, "fusion_lat": 0.0, "name": "2172764b50798155e26588cc2a260923", "fusion_lon": 0.0}, {"is_reserved": 0, "type": "electric_scooter", "bike_id": "cf782739f21a96c6ea2069ab3bdc7bc7", "lat": 38.917506, "lon": -77.04154333333334, "rental_uris": {"android": "https://dc.lft.to/lastmile_qr_scan", "ios": "https://dc.lft.to/lastmile_qr_scan"}, "is_disabled": 0, "fusion_lat": 0.0, "name": "cf782739f21a96c6ea2069ab3bdc7bc7", "fusion_lon": 0.0}, {"is_reserved": 0, "type": "electric_scooter", "bike_id": "401850b3719c59676d07650b85f38f36", "lat": 38.886097, "lon": -76.996608, "rental_uris": {"android": "https://dc.lft.to/lastmile_qr_scan", "ios": "https://dc.lft.to/lastmile_qr_scan"}, "is_disabled": 0, "fusion_lat": 0.0, "name": "401850b3719c59676d07650b85f38f36", "fusion_lon": 0.0}, {"is_reserved": 0, "type": "electric_scooter", "bike_id": "773eac1d3fdd94c17c764925bd8bbf1a", "lat": 38.920921, "lon": -77.031672, "rental_uris": {"android": "https://dc.lft.to/lastmile_qr_scan", "ios": "https://dc.lft.to/lastmile_qr_scan"}, "is_disabled": 0, "fusion_lat": 0.0, "name": "773eac1d3fdd94c17c764925bd8bbf1a", "fusion_lon": 0.0}, {"is_reserved": 0, "type": "electric_scooter", "bike_id": "b424ed1c8a89dc0ef6557c38a08c4953", "lat": 38.90765916666667, "lon": -77.04210716666667, "rental_uris": {"android": "https://dc.lft.to/lastmile_qr_scan", "ios": "https://dc.lft.to/lastmile_qr_scan"}, "is_disabled": 0, "fusion_lat": 0.0, "name": "b424ed1c8a89dc0ef6557c38a08c4953", "fusion_lon": 0.0}, {"is_reserved": 0, "type": "electric_scooter", "bike_id": "c8e741af31cf0b73c0b46daac1b68315", "lat": 38.87303216666667, "lon": -77.01559366666666, "rental_uris": {"android": "https://dc.lft.to/lastmile_qr_scan", "ios": "https://dc.lft.to/lastmile_qr_scan"}, "is_disabled": 0, "fusion_lat": 0.0, "name": "c8e741af31cf0b73c0b46daac1b68315", "fusion_lon": 0.0}, {"is_reserved": 0, "type": "electric_scooter", "bike_id": "b2ecd691290353ed2f862609f3974ff7", "lat": 38.887840833333335, "lon": -76.97714516666667, "rental_uris": {"android": "https://dc.lft.to/lastmile_qr_scan", "ios": "https://dc.lft.to/lastmile_qr_scan"}, "is_disabled": 0, "fusion_lat": 0.0, "name": "b2ecd691290353ed2f862609f3974ff7", "fusion_lon": 0.0}, {"is_reserved": 0, "type": "electric_scooter", "bike_id": "b29570d15bd0368c65fe313343a905a5", "lat": 38.9245825, "lon": -77.0395395, "rental_uris": {"android": "https://dc.lft.to/lastmile_qr_scan", "ios": "https://dc.lft.to/lastmile_qr_scan"}, "is_disabled": 0, "fusion_lat": 0.0, "name": "b29570d15bd0368c65fe313343a905a5", "fusion_lon": 0.0}, {"is_reserved": 0, "type": "electric_scooter", "bike_id": "a9b9abb1b3b0896b4ff2157fb5a6682c", "lat": 38.921666, "lon": -77.03640716666666, "rental_uris": {"android": "https://dc.lft.to/lastmile_qr_scan", "ios": "https://dc.lft.to/lastmile_qr_scan"}, "is_disabled": 0, "fusion_lat": 0.0, "name": "a9b9abb1b3b0896b4ff2157fb5a6682c", "fusion_lon": 0.0}, {"is_reserved": 0, "type": "electric_scooter", "bike_id": "bdf259eb188dff0eeb51d402caf29dff", "lat": 38.918328333333335, "lon": -77.02298683333333, "rental_uris": {"android": "https://dc.lft.to/lastmile_qr_scan", "ios": "https://dc.lft.to/lastmile_qr_scan"}, "is_disabled": 0, "fusion_lat": 0.0, "name": "bdf259eb188dff0eeb51d402caf29dff", "fusion_lon": 0.0}, {"is_reserved": 0, "type": "electric_scooter", "bike_id": "f5d86aafc37b280f6ba723ea01e1d936", "lat": 38.944404666666664, "lon": -77.02912966666666, "rental_uris": {"android": "https://dc.lft.to/lastmile_qr_scan", "ios": "https://dc.lft.to/lastmile_qr_scan"}, "is_disabled": 0, "fusion_lat": 0.0, "name": "f5d86aafc37b280f6ba723ea01e1d936", "fusion_lon": 0.0}, {"is_reserved": 0, "type": "electric_scooter", "bike_id": "e9b575055d21fd995bc01765c582decf", "lat": 38.898529833333335, "lon": -76.927558, "rental_uris": {"android": "https://dc.lft.to/lastmile_qr_scan", "ios": "https://dc.lft.to/lastmile_qr_scan"}, "is_disabled": 0, "fusion_lat": 0.0, "name": "e9b575055d21fd995bc01765c582decf", "fusion_lon": 0.0}, {"is_reserved": 0, "type": "electric_scooter", "bike_id": "82289b069d8b1f92b0fe7392e7d16e26", "lat": 38.93690016666667, "lon": -77.02714133333333, "rental_uris": {"android": "https://dc.lft.to/lastmile_qr_scan", "ios": "https://dc.lft.to/lastmile_qr_scan"}, "is_disabled": 0, "fusion_lat": 0.0, "name": "82289b069d8b1f92b0fe7392e7d16e26", "fusion_lon": 0.0}, {"is_reserved": 0, "type": "electric_scooter", "bike_id": "6c2165f8cfd003c0614973364bb3f8bb", "lat": 38.899926666666666, "lon": -76.9948595, "rental_uris": {"android": "https://dc.lft.to/lastmile_qr_scan", "ios": "https://dc.lft.to/lastmile_qr_scan"}, "is_disabled": 0, "fusion_lat": 0.0, "name": "6c2165f8cfd003c0614973364bb3f8bb", "fusion_lon": 0.0}, {"is_reserved": 0, "type": "electric_scooter", "bike_id": "14c92fd50dca70a3b6276b2cbb9bbb0d", "lat": 38.92564566666667, "lon": -76.9700045, "rental_uris": {"android": "https://dc.lft.to/lastmile_qr_scan", "ios": "https://dc.lft.to/lastmile_qr_scan"}, "is_disabled": 0, "fusion_lat": 0.0, "name": "14c92fd50dca70a3b6276b2cbb9bbb0d", "fusion_lon": 0.0}, {"is_reserved": 0, "type": "electric_scooter", "bike_id": "2ecd308a3a17f9a8ede9c55d434ba166", "lat": 38.871613833333335, "lon": -77.0135305, "rental_uris": {"android": "https://dc.lft.to/lastmile_qr_scan", "ios": "https://dc.lft.to/lastmile_qr_scan"}, "is_disabled": 0, "fusion_lat": 0.0, "name": "2ecd308a3a17f9a8ede9c55d434ba166", "fusion_lon": 0.0}, {"is_reserved": 0, "type": "electric_scooter", "bike_id": "cc086f66fd11621f2ae99eed2061850c", "lat": 38.896014, "lon": -76.98312433333334, "rental_uris": {"android": "https://dc.lft.to/lastmile_qr_scan", "ios": "https://dc.lft.to/lastmile_qr_scan"}, "is_disabled": 0, "fusion_lat": 0.0, "name": "cc086f66fd11621f2ae99eed2061850c", "fusion_lon": 0.0}, {"is_reserved": 0, "type": "electric_scooter", "bike_id": "a144a7243e593f290a9d05adbca7b6f4", "lat": 38.892199166666664, "lon": -77.03187983333333, "rental_uris": {"android": "https://dc.lft.to/lastmile_qr_scan", "ios": "https://dc.lft.to/lastmile_qr_scan"}, "is_disabled": 0, "fusion_lat": 0.0, "name": "a144a7243e593f290a9d05adbca7b6f4", "fusion_lon": 0.0}, {"is_reserved": 0, "type": "electric_bike", "bike_id": "777477b60a0c9998cbef7b320dba8cb9", "lat": 38.98176, "lon": -76.982101, "rental_uris": {"android": "https://dc.lft.to/lastmile_qr_scan", "ios": "https://dc.lft.to/lastmile_qr_scan"}, "is_disabled": 0, "fusion_lat": 0.0, "name": "777477b60a0c9998cbef7b320dba8cb9", "fusion_lon": 0.0}, {"is_reserved": 0, "type": "electric_scooter", "bike_id": "f0c87105b329b23eb770a4f510abcc51", "lat": 38.916518333333336, "lon": -77.0317785, "rental_uris": {"android": "https://dc.lft.to/lastmile_qr_scan", "ios": "https://dc.lft.to/lastmile_qr_scan"}, "is_disabled": 0, "fusion_lat": 0.0, "name": "f0c87105b329b23eb770a4f510abcc51", "fusion_lon": 0.0}, {"is_reserved": 0, "type": "electric_scooter", "bike_id": "3a538832590049b49539a1885b6ec834", "lat": 38.916350666666666, "lon": -77.03905183333333, "rental_uris": {"android": "https://dc.lft.to/lastmile_qr_scan", "ios": "https://dc.lft.to/lastmile_qr_scan"}, "is_disabled": 0, "fusion_lat": 0.0, "name": "3a538832590049b49539a1885b6ec834", "fusion_lon": 0.0}, {"is_reserved": 0, "type": "electric_scooter", "bike_id": "eb38cb9178cfb1db47202374bd21ab33", "lat": 38.916414, "lon": -77.04230083333333, "rental_uris": {"android": "https://dc.lft.to/lastmile_qr_scan", "ios": "https://dc.lft.to/lastmile_qr_scan"}, "is_disabled": 0, "fusion_lat": 0.0, "name": "eb38cb9178cfb1db47202374bd21ab33", "fusion_lon": 0.0}, {"is_reserved": 0, "type": "electric_scooter", "bike_id": "db5ce25a6c3804053a5c4ca82c357175", "lat": 38.90544716666667, "lon": -77.02206483333333, "rental_uris": {"android": "https://dc.lft.to/lastmile_qr_scan", "ios": "https://dc.lft.to/lastmile_qr_scan"}, "is_disabled": 0, "fusion_lat": 0.0, "name": "db5ce25a6c3804053a5c4ca82c357175", "fusion_lon": 0.0}, {"is_reserved": 0, "type": "electric_scooter", "bike_id": "c7fcf64d8c6da0e553e8b15e5c15d3e4", "lat": 38.909298, "lon": -76.9962845, "rental_uris": {"android": "https://dc.lft.to/lastmile_qr_scan", "ios": "https://dc.lft.to/lastmile_qr_scan"}, "is_disabled": 0, "fusion_lat": 0.0, "name": "c7fcf64d8c6da0e553e8b15e5c15d3e4", "fusion_lon": 0.0}, {"is_reserved": 0, "type": "electric_scooter", "bike_id": "c274f050b01b91683a48d287b2f05bbd", "lat": 38.92124116666667, "lon": -77.02205766666667, "rental_uris": {"android": "https://dc.lft.to/lastmile_qr_scan", "ios": "https://dc.lft.to/lastmile_qr_scan"}, "is_disabled": 0, "fusion_lat": 0.0, "name": "c274f050b01b91683a48d287b2f05bbd", "fusion_lon": 0.0}, {"is_reserved": 0, "type": "electric_scooter", "bike_id": "bbd06a98aefa0e93b58d065233264391", "lat": 38.89987983333333, "lon": -77.027126, "rental_uris": {"android": "https://dc.lft.to/lastmile_qr_scan", "ios": "https://dc.lft.to/lastmile_qr_scan"}, "is_disabled": 0, "fusion_lat": 0.0, "name": "bbd06a98aefa0e93b58d065233264391", "fusion_lon": 0.0}, {"is_reserved": 0, "type": "electric_scooter", "bike_id": "40e2ff6ec9af3dcc900b6dabfc6980b2", "lat": 38.9352745, "lon": -77.01941216666667, "rental_uris": {"android": "https://dc.lft.to/lastmile_qr_scan", "ios": "https://dc.lft.to/lastmile_qr_scan"}, "is_disabled": 0, "fusion_lat": 0.0, "name": "40e2ff6ec9af3dcc900b6dabfc6980b2", "fusion_lon": 0.0}, {"is_reserved": 0, "type": "electric_scooter", "bike_id": "6eaf721b6872124bd851fc23d84888a2", "lat": 38.899476166666666, "lon": -76.9790785, "rental_uris": {"android": "https://dc.lft.to/lastmile_qr_scan", "ios": "https://dc.lft.to/lastmile_qr_scan"}, "is_disabled": 0, "fusion_lat": 0.0, "name": "6eaf721b6872124bd851fc23d84888a2", "fusion_lon": 0.0}, {"is_reserved": 0, "type": "electric_scooter", "bike_id": "50610e6aade0bcdbeb01253712f6c234", "lat": 38.921561833333335, "lon": -77.03292416666666, "rental_uris": {"android": "https://dc.lft.to/lastmile_qr_scan", "ios": "https://dc.lft.to/lastmile_qr_scan"}, "is_disabled": 0, "fusion_lat": 0.0, "name": "50610e6aade0bcdbeb01253712f6c234", "fusion_lon": 0.0}, {"is_reserved": 0, "type": "electric_scooter", "bike_id": "8661c9993cc29fb917d83c20b9ebfc00", "lat": 38.90644283333334, "lon": -76.98377083333334, "rental_uris": {"android": "https://dc.lft.to/lastmile_qr_scan", "ios": "https://dc.lft.to/lastmile_qr_scan"}, "is_disabled": 0, "fusion_lat": 0.0, "name": "8661c9993cc29fb917d83c20b9ebfc00", "fusion_lon": 0.0}, {"is_reserved": 0, "type": "electric_scooter", "bike_id": "882fb46ea17e3f58f5547c58932c03b1", "lat": 38.88506233333333, "lon": -76.99590683333334, "rental_uris": {"android": "https://dc.lft.to/lastmile_qr_scan", "ios": "https://dc.lft.to/lastmile_qr_scan"}, "is_disabled": 0, "fusion_lat": 0.0, "name": "882fb46ea17e3f58f5547c58932c03b1", "fusion_lon": 0.0}, {"is_reserved": 0, "type": "electric_scooter", "bike_id": "4eb7ffc631d6eb901136a02bce9c478d", "lat": 38.922482333333335, "lon": -77.042525, "rental_uris": {"android": "https://dc.lft.to/lastmile_qr_scan", "ios": "https://dc.lft.to/lastmile_qr_scan"}, "is_disabled": 0, "fusion_lat": 0.0, "name": "4eb7ffc631d6eb901136a02bce9c478d", "fusion_lon": 0.0}, {"is_reserved": 0, "type": "electric_scooter", "bike_id": "b5a0d861d43867d1ffd2fa99a8a9999c", "lat": 38.92749716666667, "lon": -77.02455183333333, "rental_uris": {"android": "https://dc.lft.to/lastmile_qr_scan", "ios": "https://dc.lft.to/lastmile_qr_scan"}, "is_disabled": 0, "fusion_lat": 0.0, "name": "b5a0d861d43867d1ffd2fa99a8a9999c", "fusion_lon": 0.0}, {"is_reserved": 0, "type": "electric_scooter", "bike_id": "67af6549fac44b60ea94d4f4960e6298", "lat": 38.919228, "lon": -77.04479116666667, "rental_uris": {"android": "https://dc.lft.to/lastmile_qr_scan", "ios": "https://dc.lft.to/lastmile_qr_scan"}, "is_disabled": 0, "fusion_lat": 0.0, "name": "67af6549fac44b60ea94d4f4960e6298", "fusion_lon": 0.0}, {"is_reserved": 0, "type": "electric_scooter", "bike_id": "bf1d1931601866cb2cd822ecf2498cf5", "lat": 38.928802833333336, "lon": -77.01374483333333, "rental_uris": {"android": "https://dc.lft.to/lastmile_qr_scan", "ios": "https://dc.lft.to/lastmile_qr_scan"}, "is_disabled": 0, "fusion_lat": 0.0, "name": "bf1d1931601866cb2cd822ecf2498cf5", "fusion_lon": 0.0}, {"is_reserved": 0, "type": "electric_scooter", "bike_id": "236c4cc6d114f579d042990f8593b51f", "lat": 38.92770016666667, "lon": -77.0278355, "rental_uris": {"android": "https://dc.lft.to/lastmile_qr_scan", "ios": "https://dc.lft.to/lastmile_qr_scan"}, "is_disabled": 0, "fusion_lat": 0.0, "name": "236c4cc6d114f579d042990f8593b51f", "fusion_lon": 0.0}, {"is_reserved": 0, "type": "electric_scooter", "bike_id": "5e93d6dc0ef218d9181e618ee9a3f6d5", "lat": 38.928325, "lon": -77.05507983333334, "rental_uris": {"android": "https://dc.lft.to/lastmile_qr_scan", "ios": "https://dc.lft.to/lastmile_qr_scan"}, "is_disabled": 0, "fusion_lat": 0.0, "name": "5e93d6dc0ef218d9181e618ee9a3f6d5", "fusion_lon": 0.0}, {"is_reserved": 0, "type": "electric_scooter", "bike_id": "9a5e3d6c03676d88965b6225393599ee", "lat": 38.94075633333333, "lon": -77.05487483333333, "rental_uris": {"android": "https://dc.lft.to/lastmile_qr_scan", "ios": "https://dc.lft.to/lastmile_qr_scan"}, "is_disabled": 0, "fusion_lat": 0.0, "name": "9a5e3d6c03676d88965b6225393599ee", "fusion_lon": 0.0}, {"is_reserved": 0, "type": "electric_scooter", "bike_id": "e9a111d4b1a29e059115003190c07f99", "lat": 38.90183116666667, "lon": -77.04867833333333, "rental_uris": {"android": "https://dc.lft.to/lastmile_qr_scan", "ios": "https://dc.lft.to/lastmile_qr_scan"}, "is_disabled": 0, "fusion_lat": 0.0, "name": "e9a111d4b1a29e059115003190c07f99", "fusion_lon": 0.0}, {"is_reserved": 0, "type": "electric_scooter", "bike_id": "b92bb6337392778a451bbe94b20b9852", "lat": 38.9068515, "lon": -77.06252633333334, "rental_uris": {"android": "https://dc.lft.to/lastmile_qr_scan", "ios": "https://dc.lft.to/lastmile_qr_scan"}, "is_disabled": 0, "fusion_lat": 0.0, "name": "b92bb6337392778a451bbe94b20b9852", "fusion_lon": 0.0}, {"is_reserved": 0, "type": "electric_scooter", "bike_id": "630e3d8589df9b16594a695f696229e0", "lat": 38.9175145, "lon": -77.02788266666667, "rental_uris": {"android": "https://dc.lft.to/lastmile_qr_scan", "ios": "https://dc.lft.to/lastmile_qr_scan"}, "is_disabled": 0, "fusion_lat": 0.0, "name": "630e3d8589df9b16594a695f696229e0", "fusion_lon": 0.0}, {"is_reserved": 0, "type": "electric_scooter", "bike_id": "323b25cdf9c6790e82f45064a15d5de4", "lat": 38.90672566666667, "lon": -77.00917816666667, "rental_uris": {"android": "https://dc.lft.to/lastmile_qr_scan", "ios": "https://dc.lft.to/lastmile_qr_scan"}, "is_disabled": 0, "fusion_lat": 0.0, "name": "323b25cdf9c6790e82f45064a15d5de4", "fusion_lon": 0.0}, {"is_reserved": 0, "type": "electric_scooter", "bike_id": "9a656fc838193643081b3bfe010df355", "lat": 38.92213566666667, "lon": -77.04239283333334, "rental_uris": {"android": "https://dc.lft.to/lastmile_qr_scan", "ios": "https://dc.lft.to/lastmile_qr_scan"}, "is_disabled": 0, "fusion_lat": 0.0, "name": "9a656fc838193643081b3bfe010df355", "fusion_lon": 0.0}, {"is_reserved": 0, "type": "electric_scooter", "bike_id": "d776714baa2d0f6d299bcfcfcf9b5000", "lat": 38.898786333333334, "lon": -76.93179833333333, "rental_uris": {"android": "https://dc.lft.to/lastmile_qr_scan", "ios": "https://dc.lft.to/lastmile_qr_scan"}, "is_disabled": 0, "fusion_lat": 0.0, "name": "d776714baa2d0f6d299bcfcfcf9b5000", "fusion_lon": 0.0}, {"is_reserved": 0, "type": "electric_bike", "bike_id": "bb93c9423126554dc546b3efa2f39990", "lat": 38.92972316666667, "lon": -77.03768416666666, "rental_uris": {"android": "https://dc.lft.to/lastmile_qr_scan", "ios": "https://dc.lft.to/lastmile_qr_scan"}, "is_disabled": 0, "fusion_lat": 0.0, "name": "bb93c9423126554dc546b3efa2f39990", "fusion_lon": 0.0}, {"is_reserved": 0, "type": "electric_scooter", "bike_id": "abfb2d2fc07d0b6ad5b57854aad8ffae", "lat": 38.92042633333333, "lon": -77.04198016666666, "rental_uris": {"android": "https://dc.lft.to/lastmile_qr_scan", "ios": "https://dc.lft.to/lastmile_qr_scan"}, "is_disabled": 0, "fusion_lat": 0.0, "name": "abfb2d2fc07d0b6ad5b57854aad8ffae", "fusion_lon": 0.0}, {"is_reserved": 0, "type": "electric_scooter", "bike_id": "6b361c1c9f16cae107aca6153e12d2e6", "lat": 38.9196595, "lon": -77.0413985, "rental_uris": {"android": "https://dc.lft.to/lastmile_qr_scan", "ios": "https://dc.lft.to/lastmile_qr_scan"}, "is_disabled": 0, "fusion_lat": 0.0, "name": "6b361c1c9f16cae107aca6153e12d2e6", "fusion_lon": 0.0}, {"is_reserved": 0, "type": "electric_scooter", "bike_id": "c052f7454e29f519d660066a08616402", "lat": 38.90627816666667, "lon": -77.03144216666666, "rental_uris": {"android": "https://dc.lft.to/lastmile_qr_scan", "ios": "https://dc.lft.to/lastmile_qr_scan"}, "is_disabled": 0, "fusion_lat": 0.0, "name": "c052f7454e29f519d660066a08616402", "fusion_lon": 0.0}, {"is_reserved": 0, "type": "electric_scooter", "bike_id": "ce3d0be13a550c181eb6a4b8a6a1ac3b", "lat": 38.927907833333336, "lon": -77.02536166666667, "rental_uris": {"android": "https://dc.lft.to/lastmile_qr_scan", "ios": "https://dc.lft.to/lastmile_qr_scan"}, "is_disabled": 0, "fusion_lat": 0.0, "name": "ce3d0be13a550c181eb6a4b8a6a1ac3b", "fusion_lon": 0.0}, {"is_reserved": 0, "type": "electric_scooter", "bike_id": "9df198063dad8e32a89293767ab770ab", "lat": 38.916892, "lon": -77.03637433333333, "rental_uris": {"android": "https://dc.lft.to/lastmile_qr_scan", "ios": "https://dc.lft.to/lastmile_qr_scan"}, "is_disabled": 0, "fusion_lat": 0.0, "name": "9df198063dad8e32a89293767ab770ab", "fusion_lon": 0.0}, {"is_reserved": 0, "type": "electric_bike", "bike_id": "b72b20abd890681836a736720d06659c", "lat": 38.93204816666667, "lon": -77.02349166666667, "rental_uris": {"android": "https://dc.lft.to/lastmile_qr_scan", "ios": "https://dc.lft.to/lastmile_qr_scan"}, "is_disabled": 0, "fusion_lat": 0.0, "name": "b72b20abd890681836a736720d06659c", "fusion_lon": 0.0}, {"is_reserved": 0, "type": "electric_scooter", "bike_id": "676fb3d399d92d4a7995a86497f2abce", "lat": 38.89241, "lon": -77.04894116666667, "rental_uris": {"android": "https://dc.lft.to/lastmile_qr_scan", "ios": "https://dc.lft.to/lastmile_qr_scan"}, "is_disabled": 0, "fusion_lat": 0.0, "name": "676fb3d399d92d4a7995a86497f2abce", "fusion_lon": 0.0}, {"is_reserved": 0, "type": "electric_scooter", "bike_id": "10c4644c1785a2ec370042204d606136", "lat": 38.92549266666666, "lon": -76.99954266666667, "rental_uris": {"android": "https://dc.lft.to/lastmile_qr_scan", "ios": "https://dc.lft.to/lastmile_qr_scan"}, "is_disabled": 0, "fusion_lat": 0.0, "name": "10c4644c1785a2ec370042204d606136", "fusion_lon": 0.0}, {"is_reserved": 0, "type": "electric_scooter", "bike_id": "da1f09654bcdaa90390c7155e07a0b95", "lat": 38.90379733333333, "lon": -77.03162016666667, "rental_uris": {"android": "https://dc.lft.to/lastmile_qr_scan", "ios": "https://dc.lft.to/lastmile_qr_scan"}, "is_disabled": 0, "fusion_lat": 0.0, "name": "da1f09654bcdaa90390c7155e07a0b95", "fusion_lon": 0.0}, {"is_reserved": 0, "type": "electric_scooter", "bike_id": "f44172b834211abc628e5a4d59191a5c", "lat": 38.89670016666667, "lon": -77.01194666666666, "rental_uris": {"android": "https://dc.lft.to/lastmile_qr_scan", "ios": "https://dc.lft.to/lastmile_qr_scan"}, "is_disabled": 0, "fusion_lat": 0.0, "name": "f44172b834211abc628e5a4d59191a5c", "fusion_lon": 0.0}, {"is_reserved": 0, "type": "electric_scooter", "bike_id": "2b98e01690690f9f9c2943d6feac0b22", "lat": 38.87340733333333, "lon": -76.99168816666666, "rental_uris": {"android": "https://dc.lft.to/lastmile_qr_scan", "ios": "https://dc.lft.to/lastmile_qr_scan"}, "is_disabled": 0, "fusion_lat": 0.0, "name": "2b98e01690690f9f9c2943d6feac0b22", "fusion_lon": 0.0}, {"is_reserved": 0, "type": "electric_scooter", "bike_id": "aa0030bb6e36615f1308a949347f18f9", "lat": 38.908681666666666, "lon": -77.06407983333334, "rental_uris": {"android": "https://dc.lft.to/lastmile_qr_scan", "ios": "https://dc.lft.to/lastmile_qr_scan"}, "is_disabled": 0, "fusion_lat": 0.0, "name": "aa0030bb6e36615f1308a949347f18f9", "fusion_lon": 0.0}, {"is_reserved": 0, "type": "electric_scooter", "bike_id": "0cfedeba45f6d9d159caffe8f266cdcb", "lat": 38.91639383333333, "lon": -77.04783916666666, "rental_uris": {"android": "https://dc.lft.to/lastmile_qr_scan", "ios": "https://dc.lft.to/lastmile_qr_scan"}, "is_disabled": 0, "fusion_lat": 0.0, "name": "0cfedeba45f6d9d159caffe8f266cdcb", "fusion_lon": 0.0}, {"is_reserved": 0, "type": "electric_scooter", "bike_id": "3eba2e95989cfb0ed3c90c28a0ef0d1c", "lat": 38.884080833333336, "lon": -77.03045933333334, "rental_uris": {"android": "https://dc.lft.to/lastmile_qr_scan", "ios": "https://dc.lft.to/lastmile_qr_scan"}, "is_disabled": 0, "fusion_lat": 0.0, "name": "3eba2e95989cfb0ed3c90c28a0ef0d1c", "fusion_lon": 0.0}, {"is_reserved": 0, "type": "electric_scooter", "bike_id": "b3dfb2a25501b5244b33ef57f23a7ce8", "lat": 38.91693316666667, "lon": -77.02512033333333, "rental_uris": {"android": "https://dc.lft.to/lastmile_qr_scan", "ios": "https://dc.lft.to/lastmile_qr_scan"}, "is_disabled": 0, "fusion_lat": 0.0, "name": "b3dfb2a25501b5244b33ef57f23a7ce8", "fusion_lon": 0.0}, {"is_reserved": 0, "type": "electric_scooter", "bike_id": "6a65e918c60ae7ba90d1a6fc552f119c", "lat": 38.92950283333333, "lon": -77.00410333333333, "rental_uris": {"android": "https://dc.lft.to/lastmile_qr_scan", "ios": "https://dc.lft.to/lastmile_qr_scan"}, "is_disabled": 0, "fusion_lat": 0.0, "name": "6a65e918c60ae7ba90d1a6fc552f119c", "fusion_lon": 0.0}, {"is_reserved": 0, "type": "electric_scooter", "bike_id": "0109e716f3d74e771e2ae0b7bdb28767", "lat": 38.915472333333334, "lon": -77.02301666666666, "rental_uris": {"android": "https://dc.lft.to/lastmile_qr_scan", "ios": "https://dc.lft.to/lastmile_qr_scan"}, "is_disabled": 0, "fusion_lat": 0.0, "name": "0109e716f3d74e771e2ae0b7bdb28767", "fusion_lon": 0.0}, {"is_reserved": 0, "type": "electric_scooter", "bike_id": "dad7effbc1673f49621b623be82e0d56", "lat": 38.9039215, "lon": -77.03154516666666, "rental_uris": {"android": "https://dc.lft.to/lastmile_qr_scan", "ios": "https://dc.lft.to/lastmile_qr_scan"}, "is_disabled": 0, "fusion_lat": 0.0, "name": "dad7effbc1673f49621b623be82e0d56", "fusion_lon": 0.0}, {"is_reserved": 0, "type": "electric_scooter", "bike_id": "fe589d5f06e9451e1279bc99dde601b1", "lat": 38.905598, "lon": -77.040001, "rental_uris": {"android": "https://dc.lft.to/lastmile_qr_scan", "ios": "https://dc.lft.to/lastmile_qr_scan"}, "is_disabled": 0, "fusion_lat": 0.0, "name": "fe589d5f06e9451e1279bc99dde601b1", "fusion_lon": 0.0}, {"is_reserved": 0, "type": "electric_scooter", "bike_id": "bc77af860b57f121a6988d42a2273b5f", "lat": 38.928240333333335, "lon": -77.022566, "rental_uris": {"android": "https://dc.lft.to/lastmile_qr_scan", "ios": "https://dc.lft.to/lastmile_qr_scan"}, "is_disabled": 0, "fusion_lat": 0.0, "name": "bc77af860b57f121a6988d42a2273b5f", "fusion_lon": 0.0}, {"is_reserved": 0, "type": "electric_scooter", "bike_id": "8d85b520130cb1fdae685a8e8ed78c7b", "lat": 38.91392916666667, "lon": -77.019964, "rental_uris": {"android": "https://dc.lft.to/lastmile_qr_scan", "ios": "https://dc.lft.to/lastmile_qr_scan"}, "is_disabled": 0, "fusion_lat": 0.0, "name": "8d85b520130cb1fdae685a8e8ed78c7b", "fusion_lon": 0.0}, {"is_reserved": 0, "type": "electric_scooter", "bike_id": "6b0cc893a7a64d5ddbf0930708061d91", "lat": 38.91182666666667, "lon": -77.02716716666667, "rental_uris": {"android": "https://dc.lft.to/lastmile_qr_scan", "ios": "https://dc.lft.to/lastmile_qr_scan"}, "is_disabled": 0, "fusion_lat": 0.0, "name": "6b0cc893a7a64d5ddbf0930708061d91", "fusion_lon": 0.0}, {"is_reserved": 0, "type": "electric_scooter", "bike_id": "0e5a0dbe00d2da1349322ee631f61b37", "lat": 38.88720566666667, "lon": -77.01980933333333, "rental_uris": {"android": "https://dc.lft.to/lastmile_qr_scan", "ios": "https://dc.lft.to/lastmile_qr_scan"}, "is_disabled": 0, "fusion_lat": 0.0, "name": "0e5a0dbe00d2da1349322ee631f61b37", "fusion_lon": 0.0}, {"is_reserved": 0, "type": "electric_scooter", "bike_id": "262e35800c727076f93dc5dc58f7d1bf", "lat": 38.892667833333334, "lon": -76.92988733333334, "rental_uris": {"android": "https://dc.lft.to/lastmile_qr_scan", "ios": "https://dc.lft.to/lastmile_qr_scan"}, "is_disabled": 0, "fusion_lat": 0.0, "name": "262e35800c727076f93dc5dc58f7d1bf", "fusion_lon": 0.0}, {"is_reserved": 0, "type": "electric_scooter", "bike_id": "a638f27a6644f6e43f8ed32a8a6ba2a6", "lat": 38.88390783333333, "lon": -76.93050516666666, "rental_uris": {"android": "https://dc.lft.to/lastmile_qr_scan", "ios": "https://dc.lft.to/lastmile_qr_scan"}, "is_disabled": 0, "fusion_lat": 0.0, "name": "a638f27a6644f6e43f8ed32a8a6ba2a6", "fusion_lon": 0.0}, {"is_reserved": 0, "type": "electric_scooter", "bike_id": "ed3570908f2a6021d5da111edce2ee0f", "lat": 38.91550983333333, "lon": -77.03636116666667, "rental_uris": {"android": "https://dc.lft.to/lastmile_qr_scan", "ios": "https://dc.lft.to/lastmile_qr_scan"}, "is_disabled": 0, "fusion_lat": 0.0, "name": "ed3570908f2a6021d5da111edce2ee0f", "fusion_lon": 0.0}, {"is_reserved": 0, "type": "electric_scooter", "bike_id": "a90dde9d86a4ac10c239898ea06fa26d", "lat": 38.89643683333333, "lon": -76.99026483333333, "rental_uris": {"android": "https://dc.lft.to/lastmile_qr_scan", "ios": "https://dc.lft.to/lastmile_qr_scan"}, "is_disabled": 0, "fusion_lat": 0.0, "name": "a90dde9d86a4ac10c239898ea06fa26d", "fusion_lon": 0.0}, {"is_reserved": 0, "type": "electric_scooter", "bike_id": "144937a4d799b789697247240b249c7f", "lat": 38.9204435, "lon": -77.04196116666667, "rental_uris": {"android": "https://dc.lft.to/lastmile_qr_scan", "ios": "https://dc.lft.to/lastmile_qr_scan"}, "is_disabled": 0, "fusion_lat": 0.0, "name": "144937a4d799b789697247240b249c7f", "fusion_lon": 0.0}, {"is_reserved": 0, "type": "electric_scooter", "bike_id": "33f99c90c20a89e5fdd0322613fcbfeb", "lat": 38.89612616666667, "lon": -76.97679916666667, "rental_uris": {"android": "https://dc.lft.to/lastmile_qr_scan", "ios": "https://dc.lft.to/lastmile_qr_scan"}, "is_disabled": 0, "fusion_lat": 0.0, "name": "33f99c90c20a89e5fdd0322613fcbfeb", "fusion_lon": 0.0}, {"is_reserved": 0, "type": "electric_scooter", "bike_id": "d979c62f1f97565bae1034c406722c04", "lat": 38.90882666666667, "lon": -76.9912015, "rental_uris": {"android": "https://dc.lft.to/lastmile_qr_scan", "ios": "https://dc.lft.to/lastmile_qr_scan"}, "is_disabled": 0, "fusion_lat": 0.0, "name": "d979c62f1f97565bae1034c406722c04", "fusion_lon": 0.0}, {"is_reserved": 0, "type": "electric_scooter", "bike_id": "b39ace899aead19599e1809462600cb1", "lat": 38.897426333333335, "lon": -77.030575, "rental_uris": {"android": "https://dc.lft.to/lastmile_qr_scan", "ios": "https://dc.lft.to/lastmile_qr_scan"}, "is_disabled": 0, "fusion_lat": 0.0, "name": "b39ace899aead19599e1809462600cb1", "fusion_lon": 0.0}, {"is_reserved": 0, "type": "electric_scooter", "bike_id": "83dc05a2b187601d2ae6e3a6974a5ab1", "lat": 38.90211516666667, "lon": -77.03014116666667, "rental_uris": {"android": "https://dc.lft.to/lastmile_qr_scan", "ios": "https://dc.lft.to/lastmile_qr_scan"}, "is_disabled": 0, "fusion_lat": 0.0, "name": "83dc05a2b187601d2ae6e3a6974a5ab1", "fusion_lon": 0.0}, {"is_reserved": 0, "type": "electric_scooter", "bike_id": "b0bbefad73e99db8b57703de807dcc5d", "lat": 38.900897, "lon": -77.05737766666667, "rental_uris": {"android": "https://dc.lft.to/lastmile_qr_scan", "ios": "https://dc.lft.to/lastmile_qr_scan"}, "is_disabled": 0, "fusion_lat": 0.0, "name": "b0bbefad73e99db8b57703de807dcc5d", "fusion_lon": 0.0}, {"is_reserved": 0, "type": "electric_scooter", "bike_id": "bb55ca1585f5895a0d1c8b05c00f229e", "lat": 38.8862665, "lon": -77.0221685, "rental_uris": {"android": "https://dc.lft.to/lastmile_qr_scan", "ios": "https://dc.lft.to/lastmile_qr_scan"}, "is_disabled": 0, "fusion_lat": 0.0, "name": "bb55ca1585f5895a0d1c8b05c00f229e", "fusion_lon": 0.0}, {"is_reserved": 0, "type": "electric_bike", "bike_id": "38db561d89c3aadacf3a4907b187859b", "lat": 38.863338166666665, "lon": -76.98724466666667, "rental_uris": {"android": "https://dc.lft.to/lastmile_qr_scan", "ios": "https://dc.lft.to/lastmile_qr_scan"}, "is_disabled": 0, "fusion_lat": 0.0, "name": "38db561d89c3aadacf3a4907b187859b", "fusion_lon": 0.0}, {"is_reserved": 0, "type": "electric_scooter", "bike_id": "f516d1c0e39140c6ddfbab7b04c639ea", "lat": 38.925195333333335, "lon": -77.05054766666667, "rental_uris": {"android": "https://dc.lft.to/lastmile_qr_scan", "ios": "https://dc.lft.to/lastmile_qr_scan"}, "is_disabled": 0, "fusion_lat": 0.0, "name": "f516d1c0e39140c6ddfbab7b04c639ea", "fusion_lon": 0.0}, {"is_reserved": 0, "type": "electric_scooter", "bike_id": "8c7cea62f22d2f682492f2bf08175220", "lat": 38.8960195, "lon": -77.04476916666667, "rental_uris": {"android": "https://dc.lft.to/lastmile_qr_scan", "ios": "https://dc.lft.to/lastmile_qr_scan"}, "is_disabled": 0, "fusion_lat": 0.0, "name": "8c7cea62f22d2f682492f2bf08175220", "fusion_lon": 0.0}, {"is_reserved": 0, "type": "electric_bike", "bike_id": "d715fcc63ab474a5cd9b89821cf2766d", "lat": 38.8699965, "lon": -77.229891, "rental_uris": {"android": "https://dc.lft.to/lastmile_qr_scan", "ios": "https://dc.lft.to/lastmile_qr_scan"}, "is_disabled": 0, "fusion_lat": 0.0, "name": "d715fcc63ab474a5cd9b89821cf2766d", "fusion_lon": 0.0}, {"is_reserved": 0, "type": "electric_scooter", "bike_id": "c142fedb2d87e8a5db32fdcbbf9f393d", "lat": 38.90928483333333, "lon": -76.991108, "rental_uris": {"android": "https://dc.lft.to/lastmile_qr_scan", "ios": "https://dc.lft.to/lastmile_qr_scan"}, "is_disabled": 0, "fusion_lat": 0.0, "name": "c142fedb2d87e8a5db32fdcbbf9f393d", "fusion_lon": 0.0}, {"is_reserved": 0, "type": "electric_scooter", "bike_id": "b798e832d11b6d853c2488f854088062", "lat": 38.90848, "lon": -77.04467216666667, "rental_uris": {"android": "https://dc.lft.to/lastmile_qr_scan", "ios": "https://dc.lft.to/lastmile_qr_scan"}, "is_disabled": 0, "fusion_lat": 0.0, "name": "b798e832d11b6d853c2488f854088062", "fusion_lon": 0.0}, {"is_reserved": 0, "type": "electric_scooter", "bike_id": "8aaae1d0d7be6aed5cc829a979b45b58", "lat": 38.86638333333333, "lon": -76.9829135, "rental_uris": {"android": "https://dc.lft.to/lastmile_qr_scan", "ios": "https://dc.lft.to/lastmile_qr_scan"}, "is_disabled": 0, "fusion_lat": 0.0, "name": "8aaae1d0d7be6aed5cc829a979b45b58", "fusion_lon": 0.0}, {"is_reserved": 0, "type": "electric_bike", "bike_id": "08e16eeaa8fb7e11a0f25e7b46bd629c", "lat": 38.854192833333336, "lon": -77.0836745, "rental_uris": {"android": "https://dc.lft.to/lastmile_qr_scan", "ios": "https://dc.lft.to/lastmile_qr_scan"}, "is_disabled": 0, "fusion_lat": 0.0, "name": "08e16eeaa8fb7e11a0f25e7b46bd629c", "fusion_lon": 0.0}, {"is_reserved": 0, "type": "electric_scooter", "bike_id": "e7cf15faca49ada0d55d39cce90a883d", "lat": 38.875294333333336, "lon": -77.0005445, "rental_uris": {"android": "https://dc.lft.to/lastmile_qr_scan", "ios": "https://dc.lft.to/lastmile_qr_scan"}, "is_disabled": 0, "fusion_lat": 0.0, "name": "e7cf15faca49ada0d55d39cce90a883d", "fusion_lon": 0.0}, {"is_reserved": 0, "type": "electric_scooter", "bike_id": "845f79de87468da3ee398f0f10bce128", "lat": 38.924511, "lon": -77.05188933333334, "rental_uris": {"android": "https://dc.lft.to/lastmile_qr_scan", "ios": "https://dc.lft.to/lastmile_qr_scan"}, "is_disabled": 0, "fusion_lat": 0.0, "name": "845f79de87468da3ee398f0f10bce128", "fusion_lon": 0.0}, {"is_reserved": 0, "type": "electric_scooter", "bike_id": "71c6416b27bc1baa82f8e098e31d5821", "lat": 38.8969025, "lon": -77.0320165, "rental_uris": {"android": "https://dc.lft.to/lastmile_qr_scan", "ios": "https://dc.lft.to/lastmile_qr_scan"}, "is_disabled": 0, "fusion_lat": 0.0, "name": "71c6416b27bc1baa82f8e098e31d5821", "fusion_lon": 0.0}, {"is_reserved": 0, "type": "electric_scooter", "bike_id": "7b1b4862bc4d4ca06b5e748c3c26ac55", "lat": 38.89945133333333, "lon": -76.9770565, "rental_uris": {"android": "https://dc.lft.to/lastmile_qr_scan", "ios": "https://dc.lft.to/lastmile_qr_scan"}, "is_disabled": 0, "fusion_lat": 0.0, "name": "7b1b4862bc4d4ca06b5e748c3c26ac55", "fusion_lon": 0.0}, {"is_reserved": 0, "type": "electric_scooter", "bike_id": "35ce9eae32fb880d5b87210cca1f2981", "lat": 38.91130316666667, "lon": -77.04421733333334, "rental_uris": {"android": "https://dc.lft.to/lastmile_qr_scan", "ios": "https://dc.lft.to/lastmile_qr_scan"}, "is_disabled": 0, "fusion_lat": 0.0, "name": "35ce9eae32fb880d5b87210cca1f2981", "fusion_lon": 0.0}, {"is_reserved": 0, "type": "electric_scooter", "bike_id": "06fb3b62eb7ce2b5571ba26e2159627d", "lat": 38.89719233333334, "lon": -77.033009, "rental_uris": {"android": "https://dc.lft.to/lastmile_qr_scan", "ios": "https://dc.lft.to/lastmile_qr_scan"}, "is_disabled": 0, "fusion_lat": 0.0, "name": "06fb3b62eb7ce2b5571ba26e2159627d", "fusion_lon": 0.0}, {"is_reserved": 0, "type": "electric_bike", "bike_id": "9212adcdeefd53a7e9260f35c35fc93d", "lat": 39.00030433333333, "lon": -77.0474415, "rental_uris": {"android": "https://dc.lft.to/lastmile_qr_scan", "ios": "https://dc.lft.to/lastmile_qr_scan"}, "is_disabled": 0, "fusion_lat": 0.0, "name": "9212adcdeefd53a7e9260f35c35fc93d", "fusion_lon": 0.0}, {"is_reserved": 0, "type": "electric_scooter", "bike_id": "61cdb295332330c6ebea53012dd7f79e", "lat": 38.89610366666667, "lon": -77.0216235, "rental_uris": {"android": "https://dc.lft.to/lastmile_qr_scan", "ios": "https://dc.lft.to/lastmile_qr_scan"}, "is_disabled": 0, "fusion_lat": 0.0, "name": "61cdb295332330c6ebea53012dd7f79e", "fusion_lon": 0.0}, {"is_reserved": 0, "type": "electric_scooter", "bike_id": "00c616ebcbaa5f788019faac0ec1a822", "lat": 38.91115033333333, "lon": -77.02236916666666, "rental_uris": {"android": "https://dc.lft.to/lastmile_qr_scan", "ios": "https://dc.lft.to/lastmile_qr_scan"}, "is_disabled": 0, "fusion_lat": 0.0, "name": "00c616ebcbaa5f788019faac0ec1a822", "fusion_lon": 0.0}, {"is_reserved": 0, "type": "electric_scooter", "bike_id": "2e34ffc3592e06b80b557b39cee33eb7", "lat": 38.95377516666667, "lon": -77.001842, "rental_uris": {"android": "https://dc.lft.to/lastmile_qr_scan", "ios": "https://dc.lft.to/lastmile_qr_scan"}, "is_disabled": 0, "fusion_lat": 0.0, "name": "2e34ffc3592e06b80b557b39cee33eb7", "fusion_lon": 0.0}, {"is_reserved": 0, "type": "electric_scooter", "bike_id": "f35a16c4072fe10e8b1f4eb64bec1b7b", "lat": 38.89734683333333, "lon": -76.99772, "rental_uris": {"android": "https://dc.lft.to/lastmile_qr_scan", "ios": "https://dc.lft.to/lastmile_qr_scan"}, "is_disabled": 0, "fusion_lat": 0.0, "name": "f35a16c4072fe10e8b1f4eb64bec1b7b", "fusion_lon": 0.0}, {"is_reserved": 0, "type": "electric_bike", "bike_id": "3869963ce10d2120c7a0ed12741e7ecc", "lat": 38.9466665, "lon": -76.99334133333333, "rental_uris": {"android": "https://dc.lft.to/lastmile_qr_scan", "ios": "https://dc.lft.to/lastmile_qr_scan"}, "is_disabled": 0, "fusion_lat": 0.0, "name": "3869963ce10d2120c7a0ed12741e7ecc", "fusion_lon": 0.0}, {"is_reserved": 0, "type": "electric_scooter", "bike_id": "c6a04d3c9c5f3118fc83cbc2cfa43f8a", "lat": 38.92653816666667, "lon": -77.0406085, "rental_uris": {"android": "https://dc.lft.to/lastmile_qr_scan", "ios": "https://dc.lft.to/lastmile_qr_scan"}, "is_disabled": 0, "fusion_lat": 0.0, "name": "c6a04d3c9c5f3118fc83cbc2cfa43f8a", "fusion_lon": 0.0}, {"is_reserved": 0, "type": "electric_scooter", "bike_id": "59d5d7570950717ba2593d8e8eab9c32", "lat": 38.920803, "lon": -77.07696983333334, "rental_uris": {"android": "https://dc.lft.to/lastmile_qr_scan", "ios": "https://dc.lft.to/lastmile_qr_scan"}, "is_disabled": 0, "fusion_lat": 0.0, "name": "59d5d7570950717ba2593d8e8eab9c32", "fusion_lon": 0.0}, {"is_reserved": 0, "type": "electric_scooter", "bike_id": "753ca61d7cc292c8f5b25f503fb3911a", "lat": 38.902623166666665, "lon": -77.0272845, "rental_uris": {"android": "https://dc.lft.to/lastmile_qr_scan", "ios": "https://dc.lft.to/lastmile_qr_scan"}, "is_disabled": 0, "fusion_lat": 0.0, "name": "753ca61d7cc292c8f5b25f503fb3911a", "fusion_lon": 0.0}, {"is_reserved": 0, "type": "electric_scooter", "bike_id": "f7554b15dfd4983343d450e61a47c854", "lat": 38.92574366666667, "lon": -76.99489716666666, "rental_uris": {"android": "https://dc.lft.to/lastmile_qr_scan", "ios": "https://dc.lft.to/lastmile_qr_scan"}, "is_disabled": 0, "fusion_lat": 0.0, "name": "f7554b15dfd4983343d450e61a47c854", "fusion_lon": 0.0}, {"is_reserved": 0, "type": "electric_scooter", "bike_id": "3796cfd40b3a6e50cb914b8fc48591ff", "lat": 38.936984, "lon": -77.02114633333333, "rental_uris": {"android": "https://dc.lft.to/lastmile_qr_scan", "ios": "https://dc.lft.to/lastmile_qr_scan"}, "is_disabled": 0, "fusion_lat": 0.0, "name": "3796cfd40b3a6e50cb914b8fc48591ff", "fusion_lon": 0.0}, {"is_reserved": 0, "type": "electric_scooter", "bike_id": "361659e4eae864b01fba8a01957bae75", "lat": 38.896087666666666, "lon": -77.046866, "rental_uris": {"android": "https://dc.lft.to/lastmile_qr_scan", "ios": "https://dc.lft.to/lastmile_qr_scan"}, "is_disabled": 0, "fusion_lat": 0.0, "name": "361659e4eae864b01fba8a01957bae75", "fusion_lon": 0.0}, {"is_reserved": 0, "type": "electric_scooter", "bike_id": "a4c60a7cfc38a41c0fed0ff2f59b27fc", "lat": 38.91404633333333, "lon": -77.02223366666666, "rental_uris": {"android": "https://dc.lft.to/lastmile_qr_scan", "ios": "https://dc.lft.to/lastmile_qr_scan"}, "is_disabled": 0, "fusion_lat": 0.0, "name": "a4c60a7cfc38a41c0fed0ff2f59b27fc", "fusion_lon": 0.0}, {"is_reserved": 0, "type": "electric_scooter", "bike_id": "9d3ba073f1e58db895c5d2624f41862f", "lat": 38.914710666666664, "lon": -77.03202416666667, "rental_uris": {"android": "https://dc.lft.to/lastmile_qr_scan", "ios": "https://dc.lft.to/lastmile_qr_scan"}, "is_disabled": 0, "fusion_lat": 0.0, "name": "9d3ba073f1e58db895c5d2624f41862f", "fusion_lon": 0.0}, {"is_reserved": 0, "type": "electric_scooter", "bike_id": "b9226ed2fa0f08366c263c4937c6d926", "lat": 38.89931983333334, "lon": -76.97839116666667, "rental_uris": {"android": "https://dc.lft.to/lastmile_qr_scan", "ios": "https://dc.lft.to/lastmile_qr_scan"}, "is_disabled": 0, "fusion_lat": 0.0, "name": "b9226ed2fa0f08366c263c4937c6d926", "fusion_lon": 0.0}, {"is_reserved": 0, "type": "electric_scooter", "bike_id": "c8a18e9d8e5010d0e7d41223cb8d473b", "lat": 38.897633166666665, "lon": -77.02694366666667, "rental_uris": {"android": "https://dc.lft.to/lastmile_qr_scan", "ios": "https://dc.lft.to/lastmile_qr_scan"}, "is_disabled": 0, "fusion_lat": 0.0, "name": "c8a18e9d8e5010d0e7d41223cb8d473b", "fusion_lon": 0.0}, {"is_reserved": 0, "type": "electric_scooter", "bike_id": "c05bb63d38d13b328e82955f84f440e5", "lat": 38.911819, "lon": -77.021975, "rental_uris": {"android": "https://dc.lft.to/lastmile_qr_scan", "ios": "https://dc.lft.to/lastmile_qr_scan"}, "is_disabled": 0, "fusion_lat": 0.0, "name": "c05bb63d38d13b328e82955f84f440e5", "fusion_lon": 0.0}, {"is_reserved": 0, "type": "electric_scooter", "bike_id": "104ab75e32f3d8c785660b3b6a0e4f26", "lat": 38.920447333333335, "lon": -77.025736, "rental_uris": {"android": "https://dc.lft.to/lastmile_qr_scan", "ios": "https://dc.lft.to/lastmile_qr_scan"}, "is_disabled": 0, "fusion_lat": 0.0, "name": "104ab75e32f3d8c785660b3b6a0e4f26", "fusion_lon": 0.0}, {"is_reserved": 0, "type": "electric_scooter", "bike_id": "e2b0528ead74affd77ecc73da6033c97", "lat": 38.950897833333336, "lon": -77.02534966666667, "rental_uris": {"android": "https://dc.lft.to/lastmile_qr_scan", "ios": "https://dc.lft.to/lastmile_qr_scan"}, "is_disabled": 0, "fusion_lat": 0.0, "name": "e2b0528ead74affd77ecc73da6033c97", "fusion_lon": 0.0}, {"is_reserved": 0, "type": "electric_scooter", "bike_id": "ed65b6603b22c509f03ae5458812b5cc", "lat": 38.92356916666667, "lon": -77.0334935, "rental_uris": {"android": "https://dc.lft.to/lastmile_qr_scan", "ios": "https://dc.lft.to/lastmile_qr_scan"}, "is_disabled": 0, "fusion_lat": 0.0, "name": "ed65b6603b22c509f03ae5458812b5cc", "fusion_lon": 0.0}, {"is_reserved": 0, "type": "electric_scooter", "bike_id": "6701867dd30b99db118e9f8f2a2bfd00", "lat": 38.885108833333334, "lon": -77.01114416666667, "rental_uris": {"android": "https://dc.lft.to/lastmile_qr_scan", "ios": "https://dc.lft.to/lastmile_qr_scan"}, "is_disabled": 0, "fusion_lat": 0.0, "name": "6701867dd30b99db118e9f8f2a2bfd00", "fusion_lon": 0.0}, {"is_reserved": 0, "type": "electric_scooter", "bike_id": "a165b31bb157db9cb9abcf16e356d9a3", "lat": 38.9156855, "lon": -77.0296865, "rental_uris": {"android": "https://dc.lft.to/lastmile_qr_scan", "ios": "https://dc.lft.to/lastmile_qr_scan"}, "is_disabled": 0, "fusion_lat": 0.0, "name": "a165b31bb157db9cb9abcf16e356d9a3", "fusion_lon": 0.0}, {"is_reserved": 0, "type": "electric_scooter", "bike_id": "91d16698f81c43644659e6ff2925c323", "lat": 38.9228745, "lon": -76.99771916666667, "rental_uris": {"android": "https://dc.lft.to/lastmile_qr_scan", "ios": "https://dc.lft.to/lastmile_qr_scan"}, "is_disabled": 0, "fusion_lat": 0.0, "name": "91d16698f81c43644659e6ff2925c323", "fusion_lon": 0.0}, {"is_reserved": 0, "type": "electric_scooter", "bike_id": "487cc41e77c3076759e1985cd39be041", "lat": 38.900429833333334, "lon": -76.99153583333333, "rental_uris": {"android": "https://dc.lft.to/lastmile_qr_scan", "ios": "https://dc.lft.to/lastmile_qr_scan"}, "is_disabled": 0, "fusion_lat": 0.0, "name": "487cc41e77c3076759e1985cd39be041", "fusion_lon": 0.0}, {"is_reserved": 0, "type": "electric_scooter", "bike_id": "ab54283f30b133e3edf2f77703177c7d", "lat": 38.931834333333335, "lon": -77.02350116666666, "rental_uris": {"android": "https://dc.lft.to/lastmile_qr_scan", "ios": "https://dc.lft.to/lastmile_qr_scan"}, "is_disabled": 0, "fusion_lat": 0.0, "name": "ab54283f30b133e3edf2f77703177c7d", "fusion_lon": 0.0}, {"is_reserved": 0, "type": "electric_scooter", "bike_id": "aab86d8c4fe2be0aca26191aeea13a12", "lat": 38.8989055, "lon": -77.0161025, "rental_uris": {"android": "https://dc.lft.to/lastmile_qr_scan", "ios": "https://dc.lft.to/lastmile_qr_scan"}, "is_disabled": 0, "fusion_lat": 0.0, "name": "aab86d8c4fe2be0aca26191aeea13a12", "fusion_lon": 0.0}, {"is_reserved": 0, "type": "electric_bike", "bike_id": "31f7f0083835167d0f0ba53c3b2fc787", "lat": 38.89766516666667, "lon": -77.020012, "rental_uris": {"android": "https://dc.lft.to/lastmile_qr_scan", "ios": "https://dc.lft.to/lastmile_qr_scan"}, "is_disabled": 0, "fusion_lat": 0.0, "name": "31f7f0083835167d0f0ba53c3b2fc787", "fusion_lon": 0.0}, {"is_reserved": 0, "type": "electric_scooter", "bike_id": "e6935b692722cdce15c2c5618917d47c", "lat": 38.9297025, "lon": -77.02343616666667, "rental_uris": {"android": "https://dc.lft.to/lastmile_qr_scan", "ios": "https://dc.lft.to/lastmile_qr_scan"}, "is_disabled": 0, "fusion_lat": 0.0, "name": "e6935b692722cdce15c2c5618917d47c", "fusion_lon": 0.0}, {"is_reserved": 0, "type": "electric_scooter", "bike_id": "ce717e6ac351f25701192bbbb1fc47ce", "lat": 38.89928283333333, "lon": -77.03185333333333, "rental_uris": {"android": "https://dc.lft.to/lastmile_qr_scan", "ios": "https://dc.lft.to/lastmile_qr_scan"}, "is_disabled": 0, "fusion_lat": 0.0, "name": "ce717e6ac351f25701192bbbb1fc47ce", "fusion_lon": 0.0}, {"is_reserved": 0, "type": "electric_scooter", "bike_id": "258408445fc19a33e8e43cf3526b663b", "lat": 38.916756666666664, "lon": -77.02973733333333, "rental_uris": {"android": "https://dc.lft.to/lastmile_qr_scan", "ios": "https://dc.lft.to/lastmile_qr_scan"}, "is_disabled": 0, "fusion_lat": 0.0, "name": "258408445fc19a33e8e43cf3526b663b", "fusion_lon": 0.0}, {"is_reserved": 0, "type": "electric_scooter", "bike_id": "8bdb69ff9f8a961f1eec6c8078f457e7", "lat": 38.920465, "lon": -77.02576833333333, "rental_uris": {"android": "https://dc.lft.to/lastmile_qr_scan", "ios": "https://dc.lft.to/lastmile_qr_scan"}, "is_disabled": 0, "fusion_lat": 0.0, "name": "8bdb69ff9f8a961f1eec6c8078f457e7", "fusion_lon": 0.0}, {"is_reserved": 0, "type": "electric_scooter", "bike_id": "8521b2781feb9a524b01325bba5977e8", "lat": 38.90520083333333, "lon": -77.05996783333333, "rental_uris": {"android": "https://dc.lft.to/lastmile_qr_scan", "ios": "https://dc.lft.to/lastmile_qr_scan"}, "is_disabled": 0, "fusion_lat": 0.0, "name": "8521b2781feb9a524b01325bba5977e8", "fusion_lon": 0.0}, {"is_reserved": 0, "type": "electric_scooter", "bike_id": "38187eb00722dfdb79bd824d04c953fd", "lat": 38.94731433333333, "lon": -77.02459083333333, "rental_uris": {"android": "https://dc.lft.to/lastmile_qr_scan", "ios": "https://dc.lft.to/lastmile_qr_scan"}, "is_disabled": 0, "fusion_lat": 0.0, "name": "38187eb00722dfdb79bd824d04c953fd", "fusion_lon": 0.0}, {"is_reserved": 0, "type": "electric_scooter", "bike_id": "c20213dba879e63db5cf69a5b108d947", "lat": 38.93368733333333, "lon": -77.05727883333333, "rental_uris": {"android": "https://dc.lft.to/lastmile_qr_scan", "ios": "https://dc.lft.to/lastmile_qr_scan"}, "is_disabled": 0, "fusion_lat": 0.0, "name": "c20213dba879e63db5cf69a5b108d947", "fusion_lon": 0.0}, {"is_reserved": 0, "type": "electric_scooter", "bike_id": "76ef8d99298636750a84860428ede47f", "lat": 38.92568, "lon": -76.970017, "rental_uris": {"android": "https://dc.lft.to/lastmile_qr_scan", "ios": "https://dc.lft.to/lastmile_qr_scan"}, "is_disabled": 0, "fusion_lat": 0.0, "name": "76ef8d99298636750a84860428ede47f", "fusion_lon": 0.0}, {"is_reserved": 0, "type": "electric_scooter", "bike_id": "8aacb219e77216225a2a864307c83b29", "lat": 38.90146566666667, "lon": -77.03898516666666, "rental_uris": {"android": "https://dc.lft.to/lastmile_qr_scan", "ios": "https://dc.lft.to/lastmile_qr_scan"}, "is_disabled": 0, "fusion_lat": 0.0, "name": "8aacb219e77216225a2a864307c83b29", "fusion_lon": 0.0}, {"is_reserved": 0, "type": "electric_scooter", "bike_id": "7b8d59bcfe699024aa1f1a67ecf8cb46", "lat": 38.922331, "lon": -77.0232755, "rental_uris": {"android": "https://dc.lft.to/lastmile_qr_scan", "ios": "https://dc.lft.to/lastmile_qr_scan"}, "is_disabled": 0, "fusion_lat": 0.0, "name": "7b8d59bcfe699024aa1f1a67ecf8cb46", "fusion_lon": 0.0}, {"is_reserved": 0, "type": "electric_scooter", "bike_id": "1fce5f9808762bdf5d326b0f1de5ecce", "lat": 38.933385333333334, "lon": -77.08191566666666, "rental_uris": {"android": "https://dc.lft.to/lastmile_qr_scan", "ios": "https://dc.lft.to/lastmile_qr_scan"}, "is_disabled": 0, "fusion_lat": 0.0, "name": "1fce5f9808762bdf5d326b0f1de5ecce", "fusion_lon": 0.0}, {"is_reserved": 0, "type": "electric_scooter", "bike_id": "55738209ca0b79975bee20bef42bea24", "lat": 38.90377316666667, "lon": -77.031482, "rental_uris": {"android": "https://dc.lft.to/lastmile_qr_scan", "ios": "https://dc.lft.to/lastmile_qr_scan"}, "is_disabled": 0, "fusion_lat": 0.0, "name": "55738209ca0b79975bee20bef42bea24", "fusion_lon": 0.0}, {"is_reserved": 0, "type": "electric_scooter", "bike_id": "97473a3c28c7e036c6c463d8b7179e3f", "lat": 38.921837333333336, "lon": -77.024138, "rental_uris": {"android": "https://dc.lft.to/lastmile_qr_scan", "ios": "https://dc.lft.to/lastmile_qr_scan"}, "is_disabled": 0, "fusion_lat": 0.0, "name": "97473a3c28c7e036c6c463d8b7179e3f", "fusion_lon": 0.0}, {"is_reserved": 0, "type": "electric_scooter", "bike_id": "19cd47e6061a2b93e76f0cc431bd4ab3", "lat": 38.928335833333335, "lon": -77.02601533333333, "rental_uris": {"android": "https://dc.lft.to/lastmile_qr_scan", "ios": "https://dc.lft.to/lastmile_qr_scan"}, "is_disabled": 0, "fusion_lat": 0.0, "name": "19cd47e6061a2b93e76f0cc431bd4ab3", "fusion_lon": 0.0}, {"is_reserved": 0, "type": "electric_scooter", "bike_id": "3639260bbcbbaefc3a28ca6c306857a7", "lat": 38.899444333333335, "lon": -76.9820065, "rental_uris": {"android": "https://dc.lft.to/lastmile_qr_scan", "ios": "https://dc.lft.to/lastmile_qr_scan"}, "is_disabled": 0, "fusion_lat": 0.0, "name": "3639260bbcbbaefc3a28ca6c306857a7", "fusion_lon": 0.0}, {"is_reserved": 0, "type": "electric_scooter", "bike_id": "0899a81899c7a897c3f4512fc3aed327", "lat": 38.964117, "lon": -77.03276583333333, "rental_uris": {"android": "https://dc.lft.to/lastmile_qr_scan", "ios": "https://dc.lft.to/lastmile_qr_scan"}, "is_disabled": 0, "fusion_lat": 0.0, "name": "0899a81899c7a897c3f4512fc3aed327", "fusion_lon": 0.0}, {"is_reserved": 0, "type": "electric_scooter", "bike_id": "c68b2fb87c3a0c78227f8abb4e2968e3", "lat": 38.90361633333333, "lon": -76.9994645, "rental_uris": {"android": "https://dc.lft.to/lastmile_qr_scan", "ios": "https://dc.lft.to/lastmile_qr_scan"}, "is_disabled": 0, "fusion_lat": 0.0, "name": "c68b2fb87c3a0c78227f8abb4e2968e3", "fusion_lon": 0.0}, {"is_reserved": 0, "type": "electric_bike", "bike_id": "80f2b3e618c4f2e25e1a577f820ecb5d", "lat": 38.783952166666666, "lon": -77.1207675, "rental_uris": {"android": "https://dc.lft.to/lastmile_qr_scan", "ios": "https://dc.lft.to/lastmile_qr_scan"}, "is_disabled": 0, "fusion_lat": 0.0, "name": "80f2b3e618c4f2e25e1a577f820ecb5d", "fusion_lon": 0.0}, {"is_reserved": 0, "type": "electric_scooter", "bike_id": "c720a9b1187a35b51faf03b0c8cd1ee6", "lat": 38.916945166666665, "lon": -77.04006666666666, "rental_uris": {"android": "https://dc.lft.to/lastmile_qr_scan", "ios": "https://dc.lft.to/lastmile_qr_scan"}, "is_disabled": 0, "fusion_lat": 0.0, "name": "c720a9b1187a35b51faf03b0c8cd1ee6", "fusion_lon": 0.0}, {"is_reserved": 0, "type": "electric_scooter", "bike_id": "868bd752d14506d7a9f9b586e1ad3c79", "lat": 38.88323166666667, "lon": -77.0095345, "rental_uris": {"android": "https://dc.lft.to/lastmile_qr_scan", "ios": "https://dc.lft.to/lastmile_qr_scan"}, "is_disabled": 0, "fusion_lat": 0.0, "name": "868bd752d14506d7a9f9b586e1ad3c79", "fusion_lon": 0.0}, {"is_reserved": 0, "type": "electric_bike", "bike_id": "18c8c9bb7086a4abbe5d9e1eb2aee168", "lat": 38.884007, "lon": -76.96058333333333, "rental_uris": {"android": "https://dc.lft.to/lastmile_qr_scan", "ios": "https://dc.lft.to/lastmile_qr_scan"}, "is_disabled": 0, "fusion_lat": 0.0, "name": "18c8c9bb7086a4abbe5d9e1eb2aee168", "fusion_lon": 0.0}, {"is_reserved": 0, "type": "electric_scooter", "bike_id": "37aafc9d93b15ca780c1eaa981261ed6", "lat": 38.92736166666667, "lon": -77.02496983333333, "rental_uris": {"android": "https://dc.lft.to/lastmile_qr_scan", "ios": "https://dc.lft.to/lastmile_qr_scan"}, "is_disabled": 0, "fusion_lat": 0.0, "name": "37aafc9d93b15ca780c1eaa981261ed6", "fusion_lon": 0.0}, {"is_reserved": 0, "type": "electric_scooter", "bike_id": "cb4aaee620fd2f816a6845037a003025", "lat": 38.93125233333333, "lon": -77.03876916666667, "rental_uris": {"android": "https://dc.lft.to/lastmile_qr_scan", "ios": "https://dc.lft.to/lastmile_qr_scan"}, "is_disabled": 0, "fusion_lat": 0.0, "name": "cb4aaee620fd2f816a6845037a003025", "fusion_lon": 0.0}, {"is_reserved": 0, "type": "electric_bike", "bike_id": "7db2c41d4cc443d586fa4ed67339c226", "lat": 38.925764666666666, "lon": -76.99489916666667, "rental_uris": {"android": "https://dc.lft.to/lastmile_qr_scan", "ios": "https://dc.lft.to/lastmile_qr_scan"}, "is_disabled": 0, "fusion_lat": 0.0, "name": "7db2c41d4cc443d586fa4ed67339c226", "fusion_lon": 0.0}, {"is_reserved": 0, "type": "electric_scooter", "bike_id": "29fa456b4efaef381b800e313f972478", "lat": 38.93530833333333, "lon": -77.023463, "rental_uris": {"android": "https://dc.lft.to/lastmile_qr_scan", "ios": "https://dc.lft.to/lastmile_qr_scan"}, "is_disabled": 0, "fusion_lat": 0.0, "name": "29fa456b4efaef381b800e313f972478", "fusion_lon": 0.0}, {"is_reserved": 0, "type": "electric_scooter", "bike_id": "fe36fbff91e598f904ff2d9685086312", "lat": 38.9147535, "lon": -77.01845416666667, "rental_uris": {"android": "https://dc.lft.to/lastmile_qr_scan", "ios": "https://dc.lft.to/lastmile_qr_scan"}, "is_disabled": 0, "fusion_lat": 0.0, "name": "fe36fbff91e598f904ff2d9685086312", "fusion_lon": 0.0}, {"is_reserved": 0, "type": "electric_scooter", "bike_id": "defee54b65a38350190f4bbf13315da3", "lat": 38.95330633333333, "lon": -77.06933983333333, "rental_uris": {"android": "https://dc.lft.to/lastmile_qr_scan", "ios": "https://dc.lft.to/lastmile_qr_scan"}, "is_disabled": 0, "fusion_lat": 0.0, "name": "defee54b65a38350190f4bbf13315da3", "fusion_lon": 0.0}, {"is_reserved": 0, "type": "electric_scooter", "bike_id": "57ffd9993754362ae028a4fa23e773fc", "lat": 38.9115375, "lon": -77.06929033333333, "rental_uris": {"android": "https://dc.lft.to/lastmile_qr_scan", "ios": "https://dc.lft.to/lastmile_qr_scan"}, "is_disabled": 0, "fusion_lat": 0.0, "name": "57ffd9993754362ae028a4fa23e773fc", "fusion_lon": 0.0}, {"is_reserved": 0, "type": "electric_scooter", "bike_id": "9e974c92c06cd255b44ab26aba195b35", "lat": 38.931156, "lon": -77.0209315, "rental_uris": {"android": "https://dc.lft.to/lastmile_qr_scan", "ios": "https://dc.lft.to/lastmile_qr_scan"}, "is_disabled": 0, "fusion_lat": 0.0, "name": "9e974c92c06cd255b44ab26aba195b35", "fusion_lon": 0.0}, {"is_reserved": 0, "type": "electric_scooter", "bike_id": "f4058cbc29d0035cc3b88be362faa087", "lat": 38.921563166666665, "lon": -77.07215516666666, "rental_uris": {"android": "https://dc.lft.to/lastmile_qr_scan", "ios": "https://dc.lft.to/lastmile_qr_scan"}, "is_disabled": 0, "fusion_lat": 0.0, "name": "f4058cbc29d0035cc3b88be362faa087", "fusion_lon": 0.0}, {"is_reserved": 0, "type": "electric_bike", "bike_id": "1b902376552435d566d005d0520f00f3", "lat": 38.85880683333333, "lon": -77.09557666666667, "rental_uris": {"android": "https://dc.lft.to/lastmile_qr_scan", "ios": "https://dc.lft.to/lastmile_qr_scan"}, "is_disabled": 0, "fusion_lat": 0.0, "name": "1b902376552435d566d005d0520f00f3", "fusion_lon": 0.0}, {"is_reserved": 0, "type": "electric_scooter", "bike_id": "3a1502d403703a181c849e4a6917d380", "lat": 38.901855166666664, "lon": -76.92998683333333, "rental_uris": {"android": "https://dc.lft.to/lastmile_qr_scan", "ios": "https://dc.lft.to/lastmile_qr_scan"}, "is_disabled": 0, "fusion_lat": 0.0, "name": "3a1502d403703a181c849e4a6917d380", "fusion_lon": 0.0}, {"is_reserved": 0, "type": "electric_scooter", "bike_id": "fca545350a29ced946bdbc76965813a0", "lat": 38.9120755, "lon": -77.032086, "rental_uris": {"android": "https://dc.lft.to/lastmile_qr_scan", "ios": "https://dc.lft.to/lastmile_qr_scan"}, "is_disabled": 0, "fusion_lat": 0.0, "name": "fca545350a29ced946bdbc76965813a0", "fusion_lon": 0.0}, {"is_reserved": 0, "type": "electric_bike", "bike_id": "c40b86b9c1baecef375624734a18c13c", "lat": 38.824305833333334, "lon": -77.12036166666667, "rental_uris": {"android": "https://dc.lft.to/lastmile_qr_scan", "ios": "https://dc.lft.to/lastmile_qr_scan"}, "is_disabled": 0, "fusion_lat": 0.0, "name": "c40b86b9c1baecef375624734a18c13c", "fusion_lon": 0.0}, {"is_reserved": 0, "type": "electric_scooter", "bike_id": "c0bad4d6668676ada62c11f3070c9f43", "lat": 38.9169415, "lon": -77.02282533333333, "rental_uris": {"android": "https://dc.lft.to/lastmile_qr_scan", "ios": "https://dc.lft.to/lastmile_qr_scan"}, "is_disabled": 0, "fusion_lat": 0.0, "name": "c0bad4d6668676ada62c11f3070c9f43", "fusion_lon": 0.0}, {"is_reserved": 0, "type": "electric_scooter", "bike_id": "ee8ba7f4820343790b1e061bdf069d7f", "lat": 38.89727883333333, "lon": -76.99513716666667, "rental_uris": {"android": "https://dc.lft.to/lastmile_qr_scan", "ios": "https://dc.lft.to/lastmile_qr_scan"}, "is_disabled": 0, "fusion_lat": 0.0, "name": "ee8ba7f4820343790b1e061bdf069d7f", "fusion_lon": 0.0}, {"is_reserved": 0, "type": "electric_bike", "bike_id": "0383bad21a8cb0999c3d278335df56d5", "lat": 38.842791, "lon": -76.988413, "rental_uris": {"android": "https://dc.lft.to/lastmile_qr_scan", "ios": "https://dc.lft.to/lastmile_qr_scan"}, "is_disabled": 0, "fusion_lat": 0.0, "name": "0383bad21a8cb0999c3d278335df56d5", "fusion_lon": 0.0}, {"is_reserved": 0, "type": "electric_scooter", "bike_id": "62172f20eae59dbde6957a1b8dc35ae5", "lat": 38.90244533333333, "lon": -77.0318245, "rental_uris": {"android": "https://dc.lft.to/lastmile_qr_scan", "ios": "https://dc.lft.to/lastmile_qr_scan"}, "is_disabled": 0, "fusion_lat": 0.0, "name": "62172f20eae59dbde6957a1b8dc35ae5", "fusion_lon": 0.0}, {"is_reserved": 0, "type": "electric_scooter", "bike_id": "5e3180a87a918fa3e2ad2e9cc3dc3de4", "lat": 38.91958666666667, "lon": -77.0250475, "rental_uris": {"android": "https://dc.lft.to/lastmile_qr_scan", "ios": "https://dc.lft.to/lastmile_qr_scan"}, "is_disabled": 0, "fusion_lat": 0.0, "name": "5e3180a87a918fa3e2ad2e9cc3dc3de4", "fusion_lon": 0.0}, {"is_reserved": 0, "type": "electric_scooter", "bike_id": "f60dba2b039d9ed753002be6cdce318c", "lat": 38.898384166666666, "lon": -77.029511, "rental_uris": {"android": "https://dc.lft.to/lastmile_qr_scan", "ios": "https://dc.lft.to/lastmile_qr_scan"}, "is_disabled": 0, "fusion_lat": 0.0, "name": "f60dba2b039d9ed753002be6cdce318c", "fusion_lon": 0.0}, {"is_reserved": 0, "type": "electric_scooter", "bike_id": "d541060e3ac4e4c89d28ae173256d3bb", "lat": 38.94447666666667, "lon": -77.02799266666666, "rental_uris": {"android": "https://dc.lft.to/lastmile_qr_scan", "ios": "https://dc.lft.to/lastmile_qr_scan"}, "is_disabled": 0, "fusion_lat": 0.0, "name": "d541060e3ac4e4c89d28ae173256d3bb", "fusion_lon": 0.0}, {"is_reserved": 0, "type": "electric_scooter", "bike_id": "9f529e097c9a523d0464b8553bfefe1d", "lat": 38.90730716666667, "lon": -77.00706183333334, "rental_uris": {"android": "https://dc.lft.to/lastmile_qr_scan", "ios": "https://dc.lft.to/lastmile_qr_scan"}, "is_disabled": 0, "fusion_lat": 0.0, "name": "9f529e097c9a523d0464b8553bfefe1d", "fusion_lon": 0.0}, {"is_reserved": 0, "type": "electric_scooter", "bike_id": "9cbdf54b79eef437714c2241ac67d719", "lat": 38.9140585, "lon": -77.032265, "rental_uris": {"android": "https://dc.lft.to/lastmile_qr_scan", "ios": "https://dc.lft.to/lastmile_qr_scan"}, "is_disabled": 0, "fusion_lat": 0.0, "name": "9cbdf54b79eef437714c2241ac67d719", "fusion_lon": 0.0}, {"is_reserved": 0, "type": "electric_scooter", "bike_id": "caeec94f04af01370db3e468d6719476", "lat": 38.93506416666666, "lon": -77.02414266666666, "rental_uris": {"android": "https://dc.lft.to/lastmile_qr_scan", "ios": "https://dc.lft.to/lastmile_qr_scan"}, "is_disabled": 0, "fusion_lat": 0.0, "name": "caeec94f04af01370db3e468d6719476", "fusion_lon": 0.0}, {"is_reserved": 0, "type": "electric_scooter", "bike_id": "ee065ad7e9b363bf9793e4a69584bb93", "lat": 38.878862833333336, "lon": -77.02192933333333, "rental_uris": {"android": "https://dc.lft.to/lastmile_qr_scan", "ios": "https://dc.lft.to/lastmile_qr_scan"}, "is_disabled": 0, "fusion_lat": 0.0, "name": "ee065ad7e9b363bf9793e4a69584bb93", "fusion_lon": 0.0}, {"is_reserved": 0, "type": "electric_scooter", "bike_id": "372d6694c1d5655ef994f91fe9ec8656", "lat": 38.926285666666665, "lon": -77.03783866666667, "rental_uris": {"android": "https://dc.lft.to/lastmile_qr_scan", "ios": "https://dc.lft.to/lastmile_qr_scan"}, "is_disabled": 0, "fusion_lat": 0.0, "name": "372d6694c1d5655ef994f91fe9ec8656", "fusion_lon": 0.0}, {"is_reserved": 0, "type": "electric_scooter", "bike_id": "2b31944a145e6ceacec1e8d96ace92c3", "lat": 38.907334, "lon": -77.04879866666667, "rental_uris": {"android": "https://dc.lft.to/lastmile_qr_scan", "ios": "https://dc.lft.to/lastmile_qr_scan"}, "is_disabled": 0, "fusion_lat": 0.0, "name": "2b31944a145e6ceacec1e8d96ace92c3", "fusion_lon": 0.0}, {"is_reserved": 0, "type": "electric_scooter", "bike_id": "884601ddca7365f057142b873757973a", "lat": 38.927892166666666, "lon": -77.03716733333333, "rental_uris": {"android": "https://dc.lft.to/lastmile_qr_scan", "ios": "https://dc.lft.to/lastmile_qr_scan"}, "is_disabled": 0, "fusion_lat": 0.0, "name": "884601ddca7365f057142b873757973a", "fusion_lon": 0.0}, {"is_reserved": 0, "type": "electric_scooter", "bike_id": "1f804e5add3dfd9dce913121bce99fa3", "lat": 38.87072, "lon": -76.97983966666666, "rental_uris": {"android": "https://dc.lft.to/lastmile_qr_scan", "ios": "https://dc.lft.to/lastmile_qr_scan"}, "is_disabled": 0, "fusion_lat": 0.0, "name": "1f804e5add3dfd9dce913121bce99fa3", "fusion_lon": 0.0}, {"is_reserved": 0, "type": "electric_scooter", "bike_id": "100de304067e8a57c6f232457d5fb2df", "lat": 38.882979166666665, "lon": -76.92925783333334, "rental_uris": {"android": "https://dc.lft.to/lastmile_qr_scan", "ios": "https://dc.lft.to/lastmile_qr_scan"}, "is_disabled": 0, "fusion_lat": 0.0, "name": "100de304067e8a57c6f232457d5fb2df", "fusion_lon": 0.0}, {"is_reserved": 0, "type": "electric_scooter", "bike_id": "5e569ada80868b2d64752c6865f94f74", "lat": 38.91775233333333, "lon": -77.01454966666667, "rental_uris": {"android": "https://dc.lft.to/lastmile_qr_scan", "ios": "https://dc.lft.to/lastmile_qr_scan"}, "is_disabled": 0, "fusion_lat": 0.0, "name": "5e569ada80868b2d64752c6865f94f74", "fusion_lon": 0.0}, {"is_reserved": 0, "type": "electric_scooter", "bike_id": "89771e1cd9af12992775878101c1a0b9", "lat": 38.8482415, "lon": -76.9781315, "rental_uris": {"android": "https://dc.lft.to/lastmile_qr_scan", "ios": "https://dc.lft.to/lastmile_qr_scan"}, "is_disabled": 0, "fusion_lat": 0.0, "name": "89771e1cd9af12992775878101c1a0b9", "fusion_lon": 0.0}, {"is_reserved": 0, "type": "electric_bike", "bike_id": "d142459d1d76cc94ab570a3f498afc12", "lat": 38.803814833333334, "lon": -76.98817566666666, "rental_uris": {"android": "https://dc.lft.to/lastmile_qr_scan", "ios": "https://dc.lft.to/lastmile_qr_scan"}, "is_disabled": 0, "fusion_lat": 0.0, "name": "d142459d1d76cc94ab570a3f498afc12", "fusion_lon": 0.0}, {"is_reserved": 0, "type": "electric_scooter", "bike_id": "3127c6a998df7f675ef34a3781da3ded", "lat": 38.921222666666665, "lon": -77.021935, "rental_uris": {"android": "https://dc.lft.to/lastmile_qr_scan", "ios": "https://dc.lft.to/lastmile_qr_scan"}, "is_disabled": 0, "fusion_lat": 0.0, "name": "3127c6a998df7f675ef34a3781da3ded", "fusion_lon": 0.0}, {"is_reserved": 0, "type": "electric_scooter", "bike_id": "3643fe14a5a5b0468f7d0c12927767ce", "lat": 38.9025985, "lon": -77.054056, "rental_uris": {"android": "https://dc.lft.to/lastmile_qr_scan", "ios": "https://dc.lft.to/lastmile_qr_scan"}, "is_disabled": 0, "fusion_lat": 0.0, "name": "3643fe14a5a5b0468f7d0c12927767ce", "fusion_lon": 0.0}, {"is_reserved": 0, "type": "electric_scooter", "bike_id": "020198826fbc12766223e6a670cc8338", "lat": 38.923891166666664, "lon": -77.02965083333333, "rental_uris": {"android": "https://dc.lft.to/lastmile_qr_scan", "ios": "https://dc.lft.to/lastmile_qr_scan"}, "is_disabled": 0, "fusion_lat": 0.0, "name": "020198826fbc12766223e6a670cc8338", "fusion_lon": 0.0}, {"is_reserved": 0, "type": "electric_scooter", "bike_id": "4439f7ce55f8ee6e9cf80a8e3abe9d1a", "lat": 38.93566366666667, "lon": -77.03299683333333, "rental_uris": {"android": "https://dc.lft.to/lastmile_qr_scan", "ios": "https://dc.lft.to/lastmile_qr_scan"}, "is_disabled": 0, "fusion_lat": 0.0, "name": "4439f7ce55f8ee6e9cf80a8e3abe9d1a", "fusion_lon": 0.0}, {"is_reserved": 0, "type": "electric_scooter", "bike_id": "a74f3409cf4ecc0321f0504867f98b20", "lat": 38.8975815, "lon": -77.030049, "rental_uris": {"android": "https://dc.lft.to/lastmile_qr_scan", "ios": "https://dc.lft.to/lastmile_qr_scan"}, "is_disabled": 0, "fusion_lat": 0.0, "name": "a74f3409cf4ecc0321f0504867f98b20", "fusion_lon": 0.0}, {"is_reserved": 0, "type": "electric_scooter", "bike_id": "1b6a22382d8211d298ddec73c94bb612", "lat": 38.91747266666667, "lon": -77.04073066666666, "rental_uris": {"android": "https://dc.lft.to/lastmile_qr_scan", "ios": "https://dc.lft.to/lastmile_qr_scan"}, "is_disabled": 0, "fusion_lat": 0.0, "name": "1b6a22382d8211d298ddec73c94bb612", "fusion_lon": 0.0}, {"is_reserved": 0, "type": "electric_bike", "bike_id": "51d1484954c3959ef2be6fbe62ca0b14", "lat": 38.813358, "lon": -77.05113933333334, "rental_uris": {"android": "https://dc.lft.to/lastmile_qr_scan", "ios": "https://dc.lft.to/lastmile_qr_scan"}, "is_disabled": 0, "fusion_lat": 0.0, "name": "51d1484954c3959ef2be6fbe62ca0b14", "fusion_lon": 0.0}, {"is_reserved": 0, "type": "electric_bike", "bike_id": "c2b39e114ee9c650be9b58b3487798ec", "lat": 38.92453166666667, "lon": -77.01920266666667, "rental_uris": {"android": "https://dc.lft.to/lastmile_qr_scan", "ios": "https://dc.lft.to/lastmile_qr_scan"}, "is_disabled": 0, "fusion_lat": 0.0, "name": "c2b39e114ee9c650be9b58b3487798ec", "fusion_lon": 0.0}, {"is_reserved": 0, "type": "electric_scooter", "bike_id": "845c29d58280a574c5ad61e209be6909", "lat": 38.89609433333333, "lon": -77.02214416666666, "rental_uris": {"android": "https://dc.lft.to/lastmile_qr_scan", "ios": "https://dc.lft.to/lastmile_qr_scan"}, "is_disabled": 0, "fusion_lat": 0.0, "name": "845c29d58280a574c5ad61e209be6909", "fusion_lon": 0.0}, {"is_reserved": 0, "type": "electric_scooter", "bike_id": "d216ce53fd429ce9e71cb20a2dd88e58", "lat": 38.93529383333333, "lon": -77.02488633333333, "rental_uris": {"android": "https://dc.lft.to/lastmile_qr_scan", "ios": "https://dc.lft.to/lastmile_qr_scan"}, "is_disabled": 0, "fusion_lat": 0.0, "name": "d216ce53fd429ce9e71cb20a2dd88e58", "fusion_lon": 0.0}, {"is_reserved": 0, "type": "electric_scooter", "bike_id": "90306c4f445989fadd3a52b22390d14a", "lat": 38.9526575, "lon": -77.02393683333334, "rental_uris": {"android": "https://dc.lft.to/lastmile_qr_scan", "ios": "https://dc.lft.to/lastmile_qr_scan"}, "is_disabled": 0, "fusion_lat": 0.0, "name": "90306c4f445989fadd3a52b22390d14a", "fusion_lon": 0.0}, {"is_reserved": 0, "type": "electric_scooter", "bike_id": "69b85bda96eb2fc3b59345ae4c735ddd", "lat": 38.89723566666667, "lon": -77.0272515, "rental_uris": {"android": "https://dc.lft.to/lastmile_qr_scan", "ios": "https://dc.lft.to/lastmile_qr_scan"}, "is_disabled": 0, "fusion_lat": 0.0, "name": "69b85bda96eb2fc3b59345ae4c735ddd", "fusion_lon": 0.0}, {"is_reserved": 0, "type": "electric_scooter", "bike_id": "ba5da055cd11d32dca5f54f075afe33c", "lat": 38.96647, "lon": -77.00887783333333, "rental_uris": {"android": "https://dc.lft.to/lastmile_qr_scan", "ios": "https://dc.lft.to/lastmile_qr_scan"}, "is_disabled": 0, "fusion_lat": 0.0, "name": "ba5da055cd11d32dca5f54f075afe33c", "fusion_lon": 0.0}, {"is_reserved": 0, "type": "electric_scooter", "bike_id": "9cd02d35f1749cf62374a8b3c9bf029d", "lat": 38.899785, "lon": -77.02700316666666, "rental_uris": {"android": "https://dc.lft.to/lastmile_qr_scan", "ios": "https://dc.lft.to/lastmile_qr_scan"}, "is_disabled": 0, "fusion_lat": 0.0, "name": "9cd02d35f1749cf62374a8b3c9bf029d", "fusion_lon": 0.0}, {"is_reserved": 0, "type": "electric_scooter", "bike_id": "fde41ef4294863ab36566337e2aeb2c3", "lat": 38.91168733333333, "lon": -77.00134233333333, "rental_uris": {"android": "https://dc.lft.to/lastmile_qr_scan", "ios": "https://dc.lft.to/lastmile_qr_scan"}, "is_disabled": 0, "fusion_lat": 0.0, "name": "fde41ef4294863ab36566337e2aeb2c3", "fusion_lon": 0.0}, {"is_reserved": 0, "type": "electric_scooter", "bike_id": "86676d2a8612020c39a69d87f79083d4", "lat": 38.91635516666667, "lon": -77.01570333333333, "rental_uris": {"android": "https://dc.lft.to/lastmile_qr_scan", "ios": "https://dc.lft.to/lastmile_qr_scan"}, "is_disabled": 0, "fusion_lat": 0.0, "name": "86676d2a8612020c39a69d87f79083d4", "fusion_lon": 0.0}, {"is_reserved": 0, "type": "electric_bike", "bike_id": "a662448bba5169bb37443ef18db277b2", "lat": 38.9954855, "lon": -77.0746375, "rental_uris": {"android": "https://dc.lft.to/lastmile_qr_scan", "ios": "https://dc.lft.to/lastmile_qr_scan"}, "is_disabled": 0, "fusion_lat": 0.0, "name": "a662448bba5169bb37443ef18db277b2", "fusion_lon": 0.0}, {"is_reserved": 0, "type": "electric_scooter", "bike_id": "f139e9a4e3167b1bffbaf410433bebf2", "lat": 38.89887183333333, "lon": -76.97998133333333, "rental_uris": {"android": "https://dc.lft.to/lastmile_qr_scan", "ios": "https://dc.lft.to/lastmile_qr_scan"}, "is_disabled": 0, "fusion_lat": 0.0, "name": "f139e9a4e3167b1bffbaf410433bebf2", "fusion_lon": 0.0}, {"is_reserved": 0, "type": "electric_bike", "bike_id": "e03fea18565b39f7eab31a4f3c7fa8a7", "lat": 38.97313466666667, "lon": -76.99487633333334, "rental_uris": {"android": "https://dc.lft.to/lastmile_qr_scan", "ios": "https://dc.lft.to/lastmile_qr_scan"}, "is_disabled": 0, "fusion_lat": 0.0, "name": "e03fea18565b39f7eab31a4f3c7fa8a7", "fusion_lon": 0.0}, {"is_reserved": 0, "type": "electric_scooter", "bike_id": "b1ce2d79eb4bed831265047bf1399745", "lat": 38.909061666666666, "lon": -77.041483, "rental_uris": {"android": "https://dc.lft.to/lastmile_qr_scan", "ios": "https://dc.lft.to/lastmile_qr_scan"}, "is_disabled": 0, "fusion_lat": 0.0, "name": "b1ce2d79eb4bed831265047bf1399745", "fusion_lon": 0.0}, {"is_reserved": 0, "type": "electric_scooter", "bike_id": "da67735f658b2c5def4094a1527ae8bd", "lat": 38.91417033333333, "lon": -77.02244983333334, "rental_uris": {"android": "https://dc.lft.to/lastmile_qr_scan", "ios": "https://dc.lft.to/lastmile_qr_scan"}, "is_disabled": 0, "fusion_lat": 0.0, "name": "da67735f658b2c5def4094a1527ae8bd", "fusion_lon": 0.0}, {"is_reserved": 0, "type": "electric_scooter", "bike_id": "0e1f4380a489270b3f45efe0d6270911", "lat": 38.89772683333333, "lon": -77.03174733333333, "rental_uris": {"android": "https://dc.lft.to/lastmile_qr_scan", "ios": "https://dc.lft.to/lastmile_qr_scan"}, "is_disabled": 0, "fusion_lat": 0.0, "name": "0e1f4380a489270b3f45efe0d6270911", "fusion_lon": 0.0}, {"is_reserved": 0, "type": "electric_scooter", "bike_id": "ce4f1c959f0f118f5b5778fa54266e77", "lat": 38.9147455, "lon": -77.03186833333334, "rental_uris": {"android": "https://dc.lft.to/lastmile_qr_scan", "ios": "https://dc.lft.to/lastmile_qr_scan"}, "is_disabled": 0, "fusion_lat": 0.0, "name": "ce4f1c959f0f118f5b5778fa54266e77", "fusion_lon": 0.0}, {"is_reserved": 0, "type": "electric_scooter", "bike_id": "3674417925eb85e8d36065314198d985", "lat": 38.920101333333335, "lon": -77.04183433333333, "rental_uris": {"android": "https://dc.lft.to/lastmile_qr_scan", "ios": "https://dc.lft.to/lastmile_qr_scan"}, "is_disabled": 0, "fusion_lat": 0.0, "name": "3674417925eb85e8d36065314198d985", "fusion_lon": 0.0}, {"is_reserved": 0, "type": "electric_scooter", "bike_id": "0f2c12b02c52c7bd5f7e8b30ea271d6a", "lat": 38.89684116666667, "lon": -77.01198566666666, "rental_uris": {"android": "https://dc.lft.to/lastmile_qr_scan", "ios": "https://dc.lft.to/lastmile_qr_scan"}, "is_disabled": 0, "fusion_lat": 0.0, "name": "0f2c12b02c52c7bd5f7e8b30ea271d6a", "fusion_lon": 0.0}, {"is_reserved": 0, "type": "electric_scooter", "bike_id": "a7226a8d31b9390f71750e422339c36a", "lat": 38.93596, "lon": -77.033671, "rental_uris": {"android": "https://dc.lft.to/lastmile_qr_scan", "ios": "https://dc.lft.to/lastmile_qr_scan"}, "is_disabled": 0, "fusion_lat": 0.0, "name": "a7226a8d31b9390f71750e422339c36a", "fusion_lon": 0.0}, {"is_reserved": 0, "type": "electric_scooter", "bike_id": "1e8e5c93c8938e30e48821d7e7ea7051", "lat": 38.92262066666667, "lon": -77.036657, "rental_uris": {"android": "https://dc.lft.to/lastmile_qr_scan", "ios": "https://dc.lft.to/lastmile_qr_scan"}, "is_disabled": 0, "fusion_lat": 0.0, "name": "1e8e5c93c8938e30e48821d7e7ea7051", "fusion_lon": 0.0}, {"is_reserved": 0, "type": "electric_bike", "bike_id": "98135a2ac27443f1327cb6e57cded11b", "lat": 38.877545833333336, "lon": -77.00583483333334, "rental_uris": {"android": "https://dc.lft.to/lastmile_qr_scan", "ios": "https://dc.lft.to/lastmile_qr_scan"}, "is_disabled": 0, "fusion_lat": 0.0, "name": "98135a2ac27443f1327cb6e57cded11b", "fusion_lon": 0.0}, {"is_reserved": 0, "type": "electric_bike", "bike_id": "909d669c7733ed8c39310e9425a37886", "lat": 38.881527166666665, "lon": -77.0273525, "rental_uris": {"android": "https://dc.lft.to/lastmile_qr_scan", "ios": "https://dc.lft.to/lastmile_qr_scan"}, "is_disabled": 0, "fusion_lat": 0.0, "name": "909d669c7733ed8c39310e9425a37886", "fusion_lon": 0.0}, {"is_reserved": 0, "type": "electric_scooter", "bike_id": "9729696821464f73c0a26752d32d85a4", "lat": 38.905221833333336, "lon": -77.05836366666666, "rental_uris": {"android": "https://dc.lft.to/lastmile_qr_scan", "ios": "https://dc.lft.to/lastmile_qr_scan"}, "is_disabled": 0, "fusion_lat": 0.0, "name": "9729696821464f73c0a26752d32d85a4", "fusion_lon": 0.0}, {"is_reserved": 0, "type": "electric_bike", "bike_id": "e7eab4a999d93279763b990770b557b7", "lat": 38.82336016666667, "lon": -77.05818366666666, "rental_uris": {"android": "https://dc.lft.to/lastmile_qr_scan", "ios": "https://dc.lft.to/lastmile_qr_scan"}, "is_disabled": 0, "fusion_lat": 0.0, "name": "e7eab4a999d93279763b990770b557b7", "fusion_lon": 0.0}, {"is_reserved": 0, "type": "electric_scooter", "bike_id": "d57d0f41610df7609b26b699df39223a", "lat": 38.93256516666667, "lon": -77.02970883333333, "rental_uris": {"android": "https://dc.lft.to/lastmile_qr_scan", "ios": "https://dc.lft.to/lastmile_qr_scan"}, "is_disabled": 0, "fusion_lat": 0.0, "name": "d57d0f41610df7609b26b699df39223a", "fusion_lon": 0.0}, {"is_reserved": 0, "type": "electric_scooter", "bike_id": "d30ab68e6d066e71fcccd11d71ab8a1b", "lat": 38.908944166666664, "lon": -77.03212033333334, "rental_uris": {"android": "https://dc.lft.to/lastmile_qr_scan", "ios": "https://dc.lft.to/lastmile_qr_scan"}, "is_disabled": 0, "fusion_lat": 0.0, "name": "d30ab68e6d066e71fcccd11d71ab8a1b", "fusion_lon": 0.0}, {"is_reserved": 0, "type": "electric_scooter", "bike_id": "55be4a12afc115416f5008435e5de9af", "lat": 38.9334785, "lon": -77.02424816666667, "rental_uris": {"android": "https://dc.lft.to/lastmile_qr_scan", "ios": "https://dc.lft.to/lastmile_qr_scan"}, "is_disabled": 0, "fusion_lat": 0.0, "name": "55be4a12afc115416f5008435e5de9af", "fusion_lon": 0.0}, {"is_reserved": 0, "type": "electric_scooter", "bike_id": "8903eabcf24712725ab8afa0f2b1419b", "lat": 38.900101, "lon": -77.006753, "rental_uris": {"android": "https://dc.lft.to/lastmile_qr_scan", "ios": "https://dc.lft.to/lastmile_qr_scan"}, "is_disabled": 0, "fusion_lat": 0.0, "name": "8903eabcf24712725ab8afa0f2b1419b", "fusion_lon": 0.0}, {"is_reserved": 0, "type": "electric_bike", "bike_id": "ba26f96b978c5f38888e6b020ae6c47c", "lat": 38.883869, "lon": -76.954381, "rental_uris": {"android": "https://dc.lft.to/lastmile_qr_scan", "ios": "https://dc.lft.to/lastmile_qr_scan"}, "is_disabled": 0, "fusion_lat": 0.0, "name": "ba26f96b978c5f38888e6b020ae6c47c", "fusion_lon": 0.0},