{"data": {"bikes": [{"rental_uris": {"ios": "https://dc.lft.to/lastmile_qr_scan", "android": "https://dc.lft.to/lastmile_qr_scan"}, "lon": -77.0389595, "type": "electric_scooter", "fusion_lat": 0.0, "lat": 38.91839866666667, "name": "e19906a52ab296974d6b7c11d4acda99", "fusion_lon": 0.0, "bike_id": "e19906a52ab296974d6b7c11d4acda99", "is_disabled": 0, "is_reserved": 0}, {"rental_uris": {"ios": "https://dc.lft.to/lastmile_qr_scan", "android": "https://dc.lft.to/lastmile_qr_scan"}, "lon": -76.98439766666667, "type": "electric_scooter", "fusion_lat": 0.0, "lat": 38.91464916666666, "name": "1a42e2de3d193edf293d3ceb97781c2e", "fusion_lon": 0.0, "bike_id": "1a42e2de3d193edf293d3ceb97781c2e", "is_disabled": 0, "is_reserved": 0}, {"rental_uris": {"ios": "https://dc.lft.to/lastmile_qr_scan", "android": "https://dc.lft.to/lastmile_qr_scan"}, "lon": -76.99807216666666, "type": "electric_scooter", "fusion_lat": 0.0, "lat": 38.900085, "name": "bdfaf241116065ed2bc24e50597b701b", "fusion_lon": 0.0, "bike_id": "bdfaf241116065ed2bc24e50597b701b", "is_disabled": 0, "is_reserved": 0}, {"rental_uris": {"ios": "https://dc.lft.to/lastmile_qr_scan", "android": "https://dc.lft.to/lastmile_qr_scan"}, "lon": -76.993669, "type": "electric_scooter", "fusion_lat": 0.0, "lat": 38.900478666666665, "name": "258740493767a73e748898ac517d4be3", "fusion_lon": 0.0, "bike_id": "258740493767a73e748898ac517d4be3", "is_disabled": 0, "is_reserved": 0}, {"rental_uris": {"ios": "https://dc.lft.to/lastmile_qr_scan", "android": "https://dc.lft.to/lastmile_qr_scan"}, "lon": -77.05754883333333, "type": "electric_scooter", "fusion_lat": 0.0, "lat": 38.9246275, "name": "a32a45b1ab7fd57fc9de48303d0ada19", "fusion_lon": 0.0, "bike_id": "a32a45b1ab7fd57fc9de48303d0ada19", "is_disabled": 0, "is_reserved": 0}, {"rental_uris": {"ios": "https://dc.lft.to/lastmile_qr_scan", "android": "https://dc.lft.to/lastmile_qr_scan"}, "lon": -77.02714816666666, "type": "electric_scooter", "fusion_lat": 0.0, "lat": 38.918157, "name": "0586c190038dd9911436b40e4d3e4468", "fusion_lon": 0.0, "bike_id": "0586c190038dd9911436b40e4d3e4468", "is_disabled": 0, "is_reserved": 0}, {"rental_uris": {"ios": "https://dc.lft.to/lastmile_qr_scan", "android": "https://dc.lft.to/lastmile_qr_scan"}, "lon": -77.044518, "type": "electric_scooter", "fusion_lat": 0.0, "lat": 38.9057115, "name": "84fa6594bd0e441f2d40fcf00f0a9242", "fusion_lon": 0.0, "bike_id": "84fa6594bd0e441f2d40fcf00f0a9242", "is_disabled": 0, "is_reserved": 0}, {"rental_uris": {"ios": "https://dc.lft.to/lastmile_qr_scan", "android": "https://dc.lft.to/lastmile_qr_scan"}, "lon": -77.03444466666667, "type": "electric_scooter", "fusion_lat": 0.0, "lat": 38.90735383333333, "name": "8fddc928e093c735a080cd0a99b3a01e", "fusion_lon": 0.0, "bike_id": "8fddc928e093c735a080cd0a99b3a01e", "is_disabled": 0, "is_reserved": 0}, {"rental_uris": {"ios": "https://dc.lft.to/lastmile_qr_scan", "android": "https://dc.lft.to/lastmile_qr_scan"}, "lon": -77.02461716666667, "type": "electric_scooter", "fusion_lat": 0.0, "lat": 38.9024075, "name": "f9854da15754d81c8fe39aafc42e7ff0", "fusion_lon": 0.0, "bike_id": "f9854da15754d81c8fe39aafc42e7ff0", "is_disabled": 0, "is_reserved": 0}, {"rental_uris": {"ios": "https://dc.lft.to/lastmile_qr_scan", "android": "https://dc.lft.to/lastmile_qr_scan"}, "lon": -77.0112115, "type": "electric_scooter", "fusion_lat": 0.0, "lat": 38.911805666666666, "name": "92f6d3b6df5abc7d0a988ade84793f33", "fusion_lon": 0.0, "bike_id": "92f6d3b6df5abc7d0a988ade84793f33", "is_disabled": 0, "is_reserved": 0}, {"rental_uris": {"ios": "https://dc.lft.to/lastmile_qr_scan", "android": "https://dc.lft.to/lastmile_qr_scan"}, "lon": -77.048697, "type": "electric_scooter", "fusion_lat": 0.0, "lat": 38.9094805, "name": "1434437d56f0b5e84a453629b40ad619", "fusion_lon": 0.0, "bike_id": "1434437d56f0b5e84a453629b40ad619", "is_disabled": 0, "is_reserved": 0}, {"rental_uris": {"ios": "https://dc.lft.to/lastmile_qr_scan", "android": "https://dc.lft.to/lastmile_qr_scan"}, "lon": -77.02702533333333, "type": "electric_scooter", "fusion_lat": 0.0, "lat": 38.91870466666667, "name": "ee2d26945005a72ab9567cf627bcd744", "fusion_lon": 0.0, "bike_id": "ee2d26945005a72ab9567cf627bcd744", "is_disabled": 0, "is_reserved": 0}, {"rental_uris": {"ios": "https://dc.lft.to/lastmile_qr_scan", "android": "https://dc.lft.to/lastmile_qr_scan"}, "lon": -76.89540466666666, "type": "electric_bike", "fusion_lat": 0.0, "lat": 38.94557066666667, "name": "3e643d0f02a14f77a42be37d3cf86645", "fusion_lon": 0.0, "bike_id": "3e643d0f02a14f77a42be37d3cf86645", "is_disabled": 0, "is_reserved": 0}, {"rental_uris": {"ios": "https://dc.lft.to/lastmile_qr_scan", "android": "https://dc.lft.to/lastmile_qr_scan"}, "lon": -77.029638, "type": "electric_scooter", "fusion_lat": 0.0, "lat": 38.92527333333334, "name": "c14bb1022e17e019c3f9c3fdd50e790b", "fusion_lon": 0.0, "bike_id": "c14bb1022e17e019c3f9c3fdd50e790b", "is_disabled": 0, "is_reserved": 0}, {"rental_uris": {"ios": "https://dc.lft.to/lastmile_qr_scan", "android": "https://dc.lft.to/lastmile_qr_scan"}, "lon": -77.04550366666666, "type": "electric_scooter", "fusion_lat": 0.0, "lat": 38.903922333333334, "name": "12cc7c4417ac81c839551851feef1c93", "fusion_lon": 0.0, "bike_id": "12cc7c4417ac81c839551851feef1c93", "is_disabled": 0, "is_reserved": 0}, {"rental_uris": {"ios": "https://dc.lft.to/lastmile_qr_scan", "android": "https://dc.lft.to/lastmile_qr_scan"}, "lon": -77.0276395, "type": "electric_scooter", "fusion_lat": 0.0, "lat": 38.917044, "name": "3b91d1f0208fc43d02bc551057c8b6e2", "fusion_lon": 0.0, "bike_id": "3b91d1f0208fc43d02bc551057c8b6e2", "is_disabled": 0, "is_reserved": 0}, {"rental_uris": {"ios": "https://dc.lft.to/lastmile_qr_scan", "android": "https://dc.lft.to/lastmile_qr_scan"}, "lon": -77.04811066666667, "type": "electric_scooter", "fusion_lat": 0.0, "lat": 38.89742066666667, "name": "5db9a149d27ae2f0bb81a26d4b5096dc", "fusion_lon": 0.0, "bike_id": "5db9a149d27ae2f0bb81a26d4b5096dc", "is_disabled": 0, "is_reserved": 0}, {"rental_uris": {"ios": "https://dc.lft.to/lastmile_qr_scan", "android": "https://dc.lft.to/lastmile_qr_scan"}, "lon": -77.0120885, "type": "electric_scooter", "fusion_lat": 0.0, "lat": 38.920305, "name": "efa1b2eb66235b8e07676aebf43c2594", "fusion_lon": 0.0, "bike_id": "efa1b2eb66235b8e07676aebf43c2594", "is_disabled": 0, "is_reserved": 0}, {"rental_uris": {"ios": "https://dc.lft.to/lastmile_qr_scan", "android": "https://dc.lft.to/lastmile_qr_scan"}, "lon": -77.02392116666667, "type": "electric_scooter", "fusion_lat": 0.0, "lat": 38.919626, "name": "1e385a1b6c4204d648c1bc6ca40fcfb7", "fusion_lon": 0.0, "bike_id": "1e385a1b6c4204d648c1bc6ca40fcfb7", "is_disabled": 0, "is_reserved": 0}, {"rental_uris": {"ios": "https://dc.lft.to/lastmile_qr_scan", "android": "https://dc.lft.to/lastmile_qr_scan"}, "lon": -76.99157716666667, "type": "electric_scooter", "fusion_lat": 0.0, "lat": 38.89341, "name": "5295a2921ba8e3d161e49b5b9847fb72", "fusion_lon": 0.0, "bike_id": "5295a2921ba8e3d161e49b5b9847fb72", "is_disabled": 0, "is_reserved": 0}, {"rental_uris": {"ios": "https://dc.lft.to/lastmile_qr_scan", "android": "https://dc.lft.to/lastmile_qr_scan"}, "lon": -77.05515183333333, "type": "electric_scooter", "fusion_lat": 0.0, "lat": 38.91064466666667, "name": "c2c2b1d990cc5ecfc9fa17fec6bc0b87", "fusion_lon": 0.0, "bike_id": "c2c2b1d990cc5ecfc9fa17fec6bc0b87", "is_disabled": 0, "is_reserved": 0}, {"rental_uris": {"ios": "https://dc.lft.to/lastmile_qr_scan", "android": "https://dc.lft.to/lastmile_qr_scan"}, "lon": -77.02977516666667, "type": "electric_scooter", "fusion_lat": 0.0, "lat": 38.916211833333335, "name": "46c0d8c50d007ca62f48d54e3305a40f", "fusion_lon": 0.0, "bike_id": "46c0d8c50d007ca62f48d54e3305a40f", "is_disabled": 0, "is_reserved": 0}, {"rental_uris": {"ios": "https://dc.lft.to/lastmile_qr_scan", "android": "https://dc.lft.to/lastmile_qr_scan"}, "lon": -77.02477133333333, "type": "electric_scooter", "fusion_lat": 0.0, "lat": 38.9376785, "name": "056b7a3d6b800ae5985cf0aeaeca1d16", "fusion_lon": 0.0, "bike_id": "056b7a3d6b800ae5985cf0aeaeca1d16", "is_disabled": 0, "is_reserved": 0}, {"rental_uris": {"ios": "https://dc.lft.to/lastmile_qr_scan", "android": "https://dc.lft.to/lastmile_qr_scan"}, "lon": -77.03682983333333, "type": "electric_scooter", "fusion_lat": 0.0, "lat": 38.902840166666664, "name": "47590d0a9af59268e4c27d2bfea96fb0", "fusion_lon": 0.0, "bike_id": "47590d0a9af59268e4c27d2bfea96fb0", "is_disabled": 0, "is_reserved": 0}, {"rental_uris": {"ios": "https://dc.lft.to/lastmile_qr_scan", "android": "https://dc.lft.to/lastmile_qr_scan"}, "lon": -77.04492433333333, "type": "electric_scooter", "fusion_lat": 0.0, "lat": 38.9110355, "name": "c6819364e384d4ec4b4c94d370aecd90", "fusion_lon": 0.0, "bike_id": "c6819364e384d4ec4b4c94d370aecd90", "is_disabled": 0, "is_reserved": 0}, {"rental_uris": {"ios": "https://dc.lft.to/lastmile_qr_scan", "android": "https://dc.lft.to/lastmile_qr_scan"}, "lon": -77.03034933333333, "type": "electric_scooter", "fusion_lat": 0.0, "lat": 38.896009666666664, "name": "53d42bfb77631ad66624c23dde32a136", "fusion_lon": 0.0, "bike_id": "53d42bfb77631ad66624c23dde32a136", "is_disabled": 0, "is_reserved": 0}, {"rental_uris": {"ios": "https://dc.lft.to/lastmile_qr_scan", "android": "https://dc.lft.to/lastmile_qr_scan"}, "lon": -77.04643916666667, "type": "electric_bike", "fusion_lat": 0.0, "lat": 38.85215983333333, "name": "667577143fed1c3133f48e15778c37b6", "fusion_lon": 0.0, "bike_id": "667577143fed1c3133f48e15778c37b6", "is_disabled": 0, "is_reserved": 0}, {"rental_uris": {"ios": "https://dc.lft.to/lastmile_qr_scan", "android": "https://dc.lft.to/lastmile_qr_scan"}, "lon": -77.0838805, "type": "electric_scooter", "fusion_lat": 0.0, "lat": 38.96094133333333, "name": "e6d89b540eb47fbe7260f2c9554d1e88", "fusion_lon": 0.0, "bike_id": "e6d89b540eb47fbe7260f2c9554d1e88", "is_disabled": 0, "is_reserved": 0}, {"rental_uris": {"ios": "https://dc.lft.to/lastmile_qr_scan", "android": "https://dc.lft.to/lastmile_qr_scan"}, "lon": -77.048564, "type": "electric_scooter", "fusion_lat": 0.0, "lat": 38.902230833333334, "name": "cf3ddec901e982ca8ed82488ca9b872d", "fusion_lon": 0.0, "bike_id": "cf3ddec901e982ca8ed82488ca9b872d", "is_disabled": 0, "is_reserved": 0}, {"rental_uris": {"ios": "https://dc.lft.to/lastmile_qr_scan", "android": "https://dc.lft.to/lastmile_qr_scan"}, "lon": -77.03926016666666, "type": "electric_scooter", "fusion_lat": 0.0, "lat": 38.92111166666667, "name": "66991330d4fe61f6b491a72524c972c3", "fusion_lon": 0.0, "bike_id": "66991330d4fe61f6b491a72524c972c3", "is_disabled": 0, "is_reserved": 0}, {"rental_uris": {"ios": "https://dc.lft.to/lastmile_qr_scan", "android": "https://dc.lft.to/lastmile_qr_scan"}, "lon": -77.033502, "type": "electric_scooter", "fusion_lat": 0.0, "lat": 38.895333666666666, "name": "f9681e299b5456f0dcc6088f26ec2d81", "fusion_lon": 0.0, "bike_id": "f9681e299b5456f0dcc6088f26ec2d81", "is_disabled": 0, "is_reserved": 0}, {"rental_uris": {"ios": "https://dc.lft.to/lastmile_qr_scan", "android": "https://dc.lft.to/lastmile_qr_scan"}, "lon": -77.05521, "type": "electric_scooter", "fusion_lat": 0.0, "lat": 38.897319333333336, "name": "6195d4acfa81d95629743820c834d82d", "fusion_lon": 0.0, "bike_id": "6195d4acfa81d95629743820c834d82d", "is_disabled": 0, "is_reserved": 0}, {"rental_uris": {"ios": "https://dc.lft.to/lastmile_qr_scan", "android": "https://dc.lft.to/lastmile_qr_scan"}, "lon": -77.03642966666666, "type": "electric_scooter", "fusion_lat": 0.0, "lat": 38.902706333333334, "name": "03933050827aa59b9a9cee59389daf3b", "fusion_lon": 0.0, "bike_id": "03933050827aa59b9a9cee59389daf3b", "is_disabled": 0, "is_reserved": 0}, {"rental_uris": {"ios": "https://dc.lft.to/lastmile_qr_scan", "android": "https://dc.lft.to/lastmile_qr_scan"}, "lon": -77.129672, "type": "electric_bike", "fusion_lat": 0.0, "lat": 38.807961666666664, "name": "c1aecbc82599252fa7ab795faeb0b675", "fusion_lon": 0.0, "bike_id": "c1aecbc82599252fa7ab795faeb0b675", "is_disabled": 0, "is_reserved": 0}, {"rental_uris": {"ios": "https://dc.lft.to/lastmile_qr_scan", "android": "https://dc.lft.to/lastmile_qr_scan"}, "lon": -77.01278483333333, "type": "electric_bike", "fusion_lat": 0.0, "lat": 39.00390516666667, "name": "c4f54f465d7a59578c3c629c654831ba", "fusion_lon": 0.0, "bike_id": "c4f54f465d7a59578c3c629c654831ba", "is_disabled": 0, "is_reserved": 0}, {"rental_uris": {"ios": "https://dc.lft.to/lastmile_qr_scan", "android": "https://dc.lft.to/lastmile_qr_scan"}, "lon": -77.04663266666667, "type": "electric_scooter", "fusion_lat": 0.0, "lat": 38.932963, "name": "15e34b2ca7548ff40adab2792b180a7e", "fusion_lon": 0.0, "bike_id": "15e34b2ca7548ff40adab2792b180a7e", "is_disabled": 0, "is_reserved": 0}, {"rental_uris": {"ios": "https://dc.lft.to/lastmile_qr_scan", "android": "https://dc.lft.to/lastmile_qr_scan"}, "lon": -77.02419833333333, "type": "electric_scooter", "fusion_lat": 0.0, "lat": 38.915514, "name": "325b4c7dde9c00c7ff27e1a84159a983", "fusion_lon": 0.0, "bike_id": "325b4c7dde9c00c7ff27e1a84159a983", "is_disabled": 0, "is_reserved": 0}, {"rental_uris": {"ios": "https://dc.lft.to/lastmile_qr_scan", "android": "https://dc.lft.to/lastmile_qr_scan"}, "lon": -76.9324195, "type": "electric_scooter", "fusion_lat": 0.0, "lat": 38.89403, "name": "147741629eecf1710ff9c9a6ce94e8e0", "fusion_lon": 0.0, "bike_id": "147741629eecf1710ff9c9a6ce94e8e0", "is_disabled": 0, "is_reserved": 0}, {"rental_uris": {"ios": "https://dc.lft.to/lastmile_qr_scan", "android": "https://dc.lft.to/lastmile_qr_scan"}, "lon": -76.990687, "type": "electric_scooter", "fusion_lat": 0.0, "lat": 38.86353366666667, "name": "ff85f7b13a4de63a1e932595039bf363", "fusion_lon": 0.0, "bike_id": "ff85f7b13a4de63a1e932595039bf363", "is_disabled": 0, "is_reserved": 0}, {"rental_uris": {"ios": "https://dc.lft.to/lastmile_qr_scan", "android": "https://dc.lft.to/lastmile_qr_scan"}, "lon": -77.01594716666666, "type": "electric_scooter", "fusion_lat": 0.0, "lat": 38.901824, "name": "7b9cbfedcfd7c5ddf773487414a59365", "fusion_lon": 0.0, "bike_id": "7b9cbfedcfd7c5ddf773487414a59365", "is_disabled": 0, "is_reserved": 0}, {"rental_uris": {"ios": "https://dc.lft.to/lastmile_qr_scan", "android": "https://dc.lft.to/lastmile_qr_scan"}, "lon": -77.01297266666667, "type": "electric_scooter", "fusion_lat": 0.0, "lat": 38.90059383333333, "name": "e277c6764ae72172a37e6262786a059d", "fusion_lon": 0.0, "bike_id": "e277c6764ae72172a37e6262786a059d", "is_disabled": 0, "is_reserved": 0}, {"rental_uris": {"ios": "https://dc.lft.to/lastmile_qr_scan", "android": "https://dc.lft.to/lastmile_qr_scan"}, "lon": -77.034191, "type": "electric_scooter", "fusion_lat": 0.0, "lat": 38.935362166666664, "name": "4653ace1fd672ea90c2cf567475834f6", "fusion_lon": 0.0, "bike_id": "4653ace1fd672ea90c2cf567475834f6", "is_disabled": 0, "is_reserved": 0}, {"rental_uris": {"ios": "https://dc.lft.to/lastmile_qr_scan", "android": "https://dc.lft.to/lastmile_qr_scan"}, "lon": -77.0367085, "type": "electric_scooter", "fusion_lat": 0.0, "lat": 38.91707683333333, "name": "15ea01a8150e6658f1e813653e8d3483", "fusion_lon": 0.0, "bike_id": "15ea01a8150e6658f1e813653e8d3483", "is_disabled": 0, "is_reserved": 0}, {"rental_uris": {"ios": "https://dc.lft.to/lastmile_qr_scan", "android": "https://dc.lft.to/lastmile_qr_scan"}, "lon": -77.04248033333333, "type": "electric_scooter", "fusion_lat": 0.0, "lat": 38.905775, "name": "d2a23fb9b75d976b547ba89b8debfc11", "fusion_lon": 0.0, "bike_id": "d2a23fb9b75d976b547ba89b8debfc11", "is_disabled": 0, "is_reserved": 0}, {"rental_uris": {"ios": "https://dc.lft.to/lastmile_qr_scan", "android": "https://dc.lft.to/lastmile_qr_scan"}, "lon": -77.04149716666667, "type": "electric_bike", "fusion_lat": 0.0, "lat": 38.91693216666667, "name": "e6cdd91963b4950b959b96ee477351a0", "fusion_lon": 0.0, "bike_id": "e6cdd91963b4950b959b96ee477351a0", "is_disabled": 0, "is_reserved": 0}, {"rental_uris": {"ios": "https://dc.lft.to/lastmile_qr_scan", "android": "https://dc.lft.to/lastmile_qr_scan"}, "lon": -77.02858816666667, "type": "electric_scooter", "fusion_lat": 0.0, "lat": 38.928161833333334, "name": "cb0a8ea0aa6d5927e970c436df131729", "fusion_lon": 0.0, "bike_id": "cb0a8ea0aa6d5927e970c436df131729", "is_disabled": 0, "is_reserved": 0}, {"rental_uris": {"ios": "https://dc.lft.to/lastmile_qr_scan", "android": "https://dc.lft.to/lastmile_qr_scan"}, "lon": -77.0235845, "type": "electric_scooter", "fusion_lat": 0.0, "lat": 38.9250285, "name": "04c7da98e66c6c916d4ba7320e74b4c3", "fusion_lon": 0.0, "bike_id": "04c7da98e66c6c916d4ba7320e74b4c3", "is_disabled": 0, "is_reserved": 0}, {"rental_uris": {"ios": "https://dc.lft.to/lastmile_qr_scan", "android": "https://dc.lft.to/lastmile_qr_scan"}, "lon": -77.01695883333333, "type": "electric_scooter", "fusion_lat": 0.0, "lat": 38.920075, "name": "b74d5d8f4583a4a9ca4c27ab3b0e815f", "fusion_lon": 0.0, "bike_id": "b74d5d8f4583a4a9ca4c27ab3b0e815f", "is_disabled": 0, "is_reserved": 0}, {"rental_uris": {"ios": "https://dc.lft.to/lastmile_qr_scan", "android": "https://dc.lft.to/lastmile_qr_scan"}, "lon": -77.0226845, "type": "electric_scooter", "fusion_lat": 0.0, "lat": 38.92461466666666, "name": "3ea583ab79598f01040ff4262b0b202d", "fusion_lon": 0.0, "bike_id": "3ea583ab79598f01040ff4262b0b202d", "is_disabled": 0, "is_reserved": 0}, {"rental_uris": {"ios": "https://dc.lft.to/lastmile_qr_scan", "android": "https://dc.lft.to/lastmile_qr_scan"}, "lon": -77.03345333333333, "type": "electric_scooter", "fusion_lat": 0.0, "lat": 38.93420183333333, "name": "7847e7c045985b241b43a5bb3fd525a6", "fusion_lon": 0.0, "bike_id": "7847e7c045985b241b43a5bb3fd525a6", "is_disabled": 0, "is_reserved": 0}, {"rental_uris": {"ios": "https://dc.lft.to/lastmile_qr_scan", "android": "https://dc.lft.to/lastmile_qr_scan"}, "lon": -77.03542116666667, "type": "electric_scooter", "fusion_lat": 0.0, "lat": 38.9328765, "name": "c06b9e8d982f386765eda988a984bc24", "fusion_lon": 0.0, "bike_id": "c06b9e8d982f386765eda988a984bc24", "is_disabled": 0, "is_reserved": 0}, {"rental_uris": {"ios": "https://dc.lft.to/lastmile_qr_scan", "android": "https://dc.lft.to/lastmile_qr_scan"}, "lon": -77.0481465, "type": "electric_scooter", "fusion_lat": 0.0, "lat": 38.920482666666665, "name": "7a2c4c12b9434700c8b04a8ffb78c419", "fusion_lon": 0.0, "bike_id": "7a2c4c12b9434700c8b04a8ffb78c419", "is_disabled": 0, "is_reserved": 0}, {"rental_uris": {"ios": "https://dc.lft.to/lastmile_qr_scan", "android": "https://dc.lft.to/lastmile_qr_scan"}, "lon": -76.99000966666667, "type": "electric_scooter", "fusion_lat": 0.0, "lat": 38.865005833333335, "name": "f5749dc44ccbdc6b3d7870ddc860f2c8", "fusion_lon": 0.0, "bike_id": "f5749dc44ccbdc6b3d7870ddc860f2c8", "is_disabled": 0, "is_reserved": 0}, {"rental_uris": {"ios": "https://dc.lft.to/lastmile_qr_scan", "android": "https://dc.lft.to/lastmile_qr_scan"}, "lon": -77.02369366666667, "type": "electric_scooter", "fusion_lat": 0.0, "lat": 38.90297366666667, "name": "3a6131a41f3d08abea30f7522cf1d6d6", "fusion_lon": 0.0, "bike_id": "3a6131a41f3d08abea30f7522cf1d6d6", "is_disabled": 0, "is_reserved": 0}, {"rental_uris": {"ios": "https://dc.lft.to/lastmile_qr_scan", "android": "https://dc.lft.to/lastmile_qr_scan"}, "lon": -77.0111245, "type": "electric_scooter", "fusion_lat": 0.0, "lat": 38.90793983333333, "name": "f3e397a04cfa2fe7516c7b5019299449", "fusion_lon": 0.0, "bike_id": "f3e397a04cfa2fe7516c7b5019299449", "is_disabled": 0, "is_reserved": 0}, {"rental_uris": {"ios": "https://dc.lft.to/lastmile_qr_scan", "android": "https://dc.lft.to/lastmile_qr_scan"}, "lon": -77.00629966666666, "type": "electric_scooter", "fusion_lat": 0.0, "lat": 38.8292415, "name": "bf96c94d14b0fceef1208739e249a736", "fusion_lon": 0.0, "bike_id": "bf96c94d14b0fceef1208739e249a736", "is_disabled": 0, "is_reserved": 0}, {"rental_uris": {"ios": "https://dc.lft.to/lastmile_qr_scan", "android": "https://dc.lft.to/lastmile_qr_scan"}, "lon": -77.02791, "type": "electric_scooter", "fusion_lat": 0.0, "lat": 38.93086516666666, "name": "cc2c988fb1a1c1a78a25e41bf0aa83ce", "fusion_lon": 0.0, "bike_id": "cc2c988fb1a1c1a78a25e41bf0aa83ce", "is_disabled": 0, "is_reserved": 0}, {"rental_uris": {"ios": "https://dc.lft.to/lastmile_qr_scan", "android": "https://dc.lft.to/lastmile_qr_scan"}, "lon": -77.03064883333333, "type": "electric_scooter", "fusion_lat": 0.0, "lat": 38.89492516666667, "name": "51fbe3ce1a6903b313f7363ed0fc7e9a", "fusion_lon": 0.0, "bike_id": "51fbe3ce1a6903b313f7363ed0fc7e9a", "is_disabled": 0, "is_reserved": 0}, {"rental_uris": {"ios": "https://dc.lft.to/lastmile_qr_scan", "android": "https://dc.lft.to/lastmile_qr_scan"}, "lon": -77.04821733333333, "type": "electric_scooter", "fusion_lat": 0.0, "lat": 38.91336166666667, "name": "77d95b1e18d743ef64dde4569ff7ad3b", "fusion_lon": 0.0, "bike_id": "77d95b1e18d743ef64dde4569ff7ad3b", "is_disabled": 0, "is_reserved": 0}, {"rental_uris": {"ios": "https://dc.lft.to/lastmile_qr_scan", "android": "https://dc.lft.to/lastmile_qr_scan"}, "lon": -77.034783, "type": "electric_scooter", "fusion_lat": 0.0, "lat": 38.930491833333335, "name": "75c5d84e921f892c308f616640eb9bfc", "fusion_lon": 0.0, "bike_id": "75c5d84e921f892c308f616640eb9bfc", "is_disabled": 0, "is_reserved": 0}, {"rental_uris": {"ios": "https://dc.lft.to/lastmile_qr_scan", "android": "https://dc.lft.to/lastmile_qr_scan"}, "lon": -77.0215585, "type": "electric_scooter", "fusion_lat": 0.0, "lat": 38.89726, "name": "7deed9fbcfd0bb71173ac229f8c7ebb3", "fusion_lon": 0.0, "bike_id": "7deed9fbcfd0bb71173ac229f8c7ebb3", "is_disabled": 0, "is_reserved": 0}, {"rental_uris": {"ios": "https://dc.lft.to/lastmile_qr_scan", "android": "https://dc.lft.to/lastmile_qr_scan"}, "lon": -77.04540816666666, "type": "electric_scooter", "fusion_lat": 0.0, "lat": 38.90385166666667, "name": "8e70abffef1b96c28c13657e5dccfbc1", "fusion_lon": 0.0, "bike_id": "8e70abffef1b96c28c13657e5dccfbc1", "is_disabled": 0, "is_reserved": 0}, {"rental_uris": {"ios": "https://dc.lft.to/lastmile_qr_scan", "android": "https://dc.lft.to/lastmile_qr_scan"}, "lon": -77.00559483333333, "type": "electric_scooter", "fusion_lat": 0.0, "lat": 38.903349166666665, "name": "f90d76a42d5be0d2b0f607fd4cd78e49", "fusion_lon": 0.0, "bike_id": "f90d76a42d5be0d2b0f607fd4cd78e49", "is_disabled": 0, "is_reserved": 0}, {"rental_uris": {"ios": "https://dc.lft.to/lastmile_qr_scan", "android": "https://dc.lft.to/lastmile_qr_scan"}, "lon": -77.02697466666666, "type": "electric_scooter", "fusion_lat": 0.0, "lat": 38.92594416666667, "name": "dd5b0e0bbd5b57e033a15d9c474a1f6a", "fusion_lon": 0.0, "bike_id": "dd5b0e0bbd5b57e033a15d9c474a1f6a", "is_disabled": 0, "is_reserved": 0}, {"rental_uris": {"ios": "https://dc.lft.to/lastmile_qr_scan", "android": "https://dc.lft.to/lastmile_qr_scan"}, "lon": -77.02836833333333, "type": "electric_scooter", "fusion_lat": 0.0, "lat": 38.93189666666667, "name": "4b251c18395e948b5851f47ef77bfb14", "fusion_lon": 0.0, "bike_id": "4b251c18395e948b5851f47ef77bfb14", "is_disabled": 0, "is_reserved": 0}, {"rental_uris": {"ios": "https://dc.lft.to/lastmile_qr_scan", "android": "https://dc.lft.to/lastmile_qr_scan"}, "lon": -77.02478016666667, "type": "electric_scooter", "fusion_lat": 0.0, "lat": 38.93095666666667, "name": "3f9a3d11c907659b854553ce0d131ef8", "fusion_lon": 0.0, "bike_id": "3f9a3d11c907659b854553ce0d131ef8", "is_disabled": 0, "is_reserved": 0}, {"rental_uris": {"ios": "https://dc.lft.to/lastmile_qr_scan", "android": "https://dc.lft.to/lastmile_qr_scan"}, "lon": -77.01113666666667, "type": "electric_scooter", "fusion_lat": 0.0, "lat": 38.895465, "name": "cd05e09e88fb9c2dde1ea5c8def5bf33", "fusion_lon": 0.0, "bike_id": "cd05e09e88fb9c2dde1ea5c8def5bf33", "is_disabled": 0, "is_reserved": 0}, {"rental_uris": {"ios": "https://dc.lft.to/lastmile_qr_scan", "android": "https://dc.lft.to/lastmile_qr_scan"}, "lon": -77.0819345, "type": "electric_scooter", "fusion_lat": 0.0, "lat": 38.9492805, "name": "786ecec678981429515de85111c746f4", "fusion_lon": 0.0, "bike_id": "786ecec678981429515de85111c746f4", "is_disabled": 0, "is_reserved": 0}, {"rental_uris": {"ios": "https://dc.lft.to/lastmile_qr_scan", "android": "https://dc.lft.to/lastmile_qr_scan"}, "lon": -76.908185, "type": "electric_bike", "fusion_lat": 0.0, "lat": 38.9945715, "name": "4cf2329af63dbf60ba2d9a736dc646a6", "fusion_lon": 0.0, "bike_id": "4cf2329af63dbf60ba2d9a736dc646a6", "is_disabled": 0, "is_reserved": 0}, {"rental_uris": {"ios": "https://dc.lft.to/lastmile_qr_scan", "android": "https://dc.lft.to/lastmile_qr_scan"}, "lon": -76.98939466666667, "type": "electric_bike", "fusion_lat": 0.0, "lat": 38.92862266666667, "name": "ca651b85e634a8fbaefea903d420de17", "fusion_lon": 0.0, "bike_id": "ca651b85e634a8fbaefea903d420de17", "is_disabled": 0, "is_reserved": 0}, {"rental_uris": {"ios": "https://dc.lft.to/lastmile_qr_scan", "android": "https://dc.lft.to/lastmile_qr_scan"}, "lon": -76.96060116666666, "type": "electric_bike", "fusion_lat": 0.0, "lat": 38.8840365, "name": "d03f1c670f1c15b15b47b65b1a65b1e7", "fusion_lon": 0.0, "bike_id": "d03f1c670f1c15b15b47b65b1a65b1e7", "is_disabled": 0, "is_reserved": 0}, {"rental_uris": {"ios": "https://dc.lft.to/lastmile_qr_scan", "android": "https://dc.lft.to/lastmile_qr_scan"}, "lon": -76.9955245, "type": "electric_scooter", "fusion_lat": 0.0, "lat": 38.923143, "name": "511036198a414ba8b70a7ea8fc22963b", "fusion_lon": 0.0, "bike_id": "511036198a414ba8b70a7ea8fc22963b", "is_disabled": 0, "is_reserved": 0}, {"rental_uris": {"ios": "https://dc.lft.to/lastmile_qr_scan", "android": "https://dc.lft.to/lastmile_qr_scan"}, "lon": -77.00621333333333, "type": "electric_scooter", "fusion_lat": 0.0, "lat": 38.905755666666664, "name": "04ac45e8e05763e3d827676085e5c538", "fusion_lon": 0.0, "bike_id": "04ac45e8e05763e3d827676085e5c538", "is_disabled": 0, "is_reserved": 0}, {"rental_uris": {"ios": "https://dc.lft.to/lastmile_qr_scan", "android": "https://dc.lft.to/lastmile_qr_scan"}, "lon": -77.0568575, "type": "electric_scooter", "fusion_lat": 0.0, "lat": 38.937042, "name": "71654e42432976cd86ba82264dd71f40", "fusion_lon": 0.0, "bike_id": "71654e42432976cd86ba82264dd71f40", "is_disabled": 0, "is_reserved": 0}, {"rental_uris": {"ios": "https://dc.lft.to/lastmile_qr_scan", "android": "https://dc.lft.to/lastmile_qr_scan"}, "lon": -77.04807333333333, "type": "electric_scooter", "fusion_lat": 0.0, "lat": 38.89742783333333, "name": "c2b3b2ad70972b0f64903848993288c2", "fusion_lon": 0.0, "bike_id": "c2b3b2ad70972b0f64903848993288c2", "is_disabled": 0, "is_reserved": 0}, {"rental_uris": {"ios": "https://dc.lft.to/lastmile_qr_scan", "android": "https://dc.lft.to/lastmile_qr_scan"}, "lon": -76.99867383333333, "type": "electric_scooter", "fusion_lat": 0.0, "lat": 38.9003735, "name": "720055f1b2dcfb0dcc08f01cc7f4d571", "fusion_lon": 0.0, "bike_id": "720055f1b2dcfb0dcc08f01cc7f4d571", "is_disabled": 0, "is_reserved": 0}, {"rental_uris": {"ios": "https://dc.lft.to/lastmile_qr_scan", "android": "https://dc.lft.to/lastmile_qr_scan"}, "lon": -77.00109883333333, "type": "electric_scooter", "fusion_lat": 0.0, "lat": 38.87326233333334, "name": "c6c655bcbff2cb67832d522abc623682", "fusion_lon": 0.0, "bike_id": "c6c655bcbff2cb67832d522abc623682", "is_disabled": 0, "is_reserved": 0}, {"rental_uris": {"ios": "https://dc.lft.to/lastmile_qr_scan", "android": "https://dc.lft.to/lastmile_qr_scan"}, "lon": -77.03568283333334, "type": "electric_scooter", "fusion_lat": 0.0, "lat": 38.91812783333334, "name": "395b8922b2385b2767e8e954b898d7f3", "fusion_lon": 0.0, "bike_id": "395b8922b2385b2767e8e954b898d7f3", "is_disabled": 0, "is_reserved": 0}, {"rental_uris": {"ios": "https://dc.lft.to/lastmile_qr_scan", "android": "https://dc.lft.to/lastmile_qr_scan"}, "lon": -76.93552016666666, "type": "electric_bike", "fusion_lat": 0.0, "lat": 38.95186616666667, "name": "85aa30cd017873fc2269d0a77db11324", "fusion_lon": 0.0, "bike_id": "85aa30cd017873fc2269d0a77db11324", "is_disabled": 0, "is_reserved": 0}, {"rental_uris": {"ios": "https://dc.lft.to/lastmile_qr_scan", "android": "https://dc.lft.to/lastmile_qr_scan"}, "lon": -77.05085583333333, "type": "electric_bike", "fusion_lat": 0.0, "lat": 38.8133575, "name": "452460d5d278f64c8a8cf670dde513f2", "fusion_lon": 0.0, "bike_id": "452460d5d278f64c8a8cf670dde513f2", "is_disabled": 0, "is_reserved": 0}, {"rental_uris": {"ios": "https://dc.lft.to/lastmile_qr_scan", "android": "https://dc.lft.to/lastmile_qr_scan"}, "lon": -76.97331383333334, "type": "electric_scooter", "fusion_lat": 0.0, "lat": 38.904812666666665, "name": "bf725d93c2f93f6e1f3e29cc513d959e", "fusion_lon": 0.0, "bike_id": "bf725d93c2f93f6e1f3e29cc513d959e", "is_disabled": 0, "is_reserved": 0}, {"rental_uris": {"ios": "https://dc.lft.to/lastmile_qr_scan", "android": "https://dc.lft.to/lastmile_qr_scan"}, "lon": -77.030846, "type": "electric_scooter", "fusion_lat": 0.0, "lat": 38.92252033333333, "name": "ef34c3f5401dfdf9528481aa6ec72503", "fusion_lon": 0.0, "bike_id": "ef34c3f5401dfdf9528481aa6ec72503", "is_disabled": 0, "is_reserved": 0}, {"rental_uris": {"ios": "https://dc.lft.to/lastmile_qr_scan", "android": "https://dc.lft.to/lastmile_qr_scan"}, "lon": -77.0580835, "type": "electric_scooter", "fusion_lat": 0.0, "lat": 38.90295283333333, "name": "46f1d30bf7cde3eadca5b0962d611162", "fusion_lon": 0.0, "bike_id": "46f1d30bf7cde3eadca5b0962d611162", "is_disabled": 0, "is_reserved": 0}, {"rental_uris": {"ios": "https://dc.lft.to/lastmile_qr_scan", "android": "https://dc.lft.to/lastmile_qr_scan"}, "lon": -77.03187633333333, "type": "electric_scooter", "fusion_lat": 0.0, "lat": 38.9179505, "name": "aac04e6d6f0d45570e652342cb814bf3", "fusion_lon": 0.0, "bike_id": "aac04e6d6f0d45570e652342cb814bf3", "is_disabled": 0, "is_reserved": 0}, {"rental_uris": {"ios": "https://dc.lft.to/lastmile_qr_scan", "android": "https://dc.lft.to/lastmile_qr_scan"}, "lon": -77.036586, "type": "electric_bike", "fusion_lat": 0.0, "lat": 38.93574683333333, "name": "60936150b8671c2fac31eb7b87ac9b75", "fusion_lon": 0.0, "bike_id": "60936150b8671c2fac31eb7b87ac9b75", "is_disabled": 0, "is_reserved": 0}, {"rental_uris": {"ios": "https://dc.lft.to/lastmile_qr_scan", "android": "https://dc.lft.to/lastmile_qr_scan"}, "lon": -76.92995983333333, "type": "electric_bike", "fusion_lat": 0.0, "lat": 38.887979, "name": "b05bbb8b4fa3d10fe7eb7ab3aa66659f", "fusion_lon": 0.0, "bike_id": "b05bbb8b4fa3d10fe7eb7ab3aa66659f", "is_disabled": 0, "is_reserved": 0}, {"rental_uris": {"ios": "https://dc.lft.to/lastmile_qr_scan", "android": "https://dc.lft.to/lastmile_qr_scan"}, "lon": -77.049254, "type": "electric_scooter", "fusion_lat": 0.0, "lat": 38.8960935, "name": "7df1ce971fbaadb2476c6ba88642a3a3", "fusion_lon": 0.0, "bike_id": "7df1ce971fbaadb2476c6ba88642a3a3", "is_disabled": 0, "is_reserved": 0}, {"rental_uris": {"ios": "https://dc.lft.to/lastmile_qr_scan", "android": "https://dc.lft.to/lastmile_qr_scan"}, "lon": -77.01993566666667, "type": "electric_scooter", "fusion_lat": 0.0, "lat": 38.88564616666667, "name": "a010dbd26ac004eec654966908ee5b1a", "fusion_lon": 0.0, "bike_id": "a010dbd26ac004eec654966908ee5b1a", "is_disabled": 0, "is_reserved": 0}, {"rental_uris": {"ios": "https://dc.lft.to/lastmile_qr_scan", "android": "https://dc.lft.to/lastmile_qr_scan"}, "lon": -77.02715266666667, "type": "electric_scooter", "fusion_lat": 0.0, "lat": 38.9069, "name": "aa09155a1c26f3a084a2fe38bd796b02", "fusion_lon": 0.0, "bike_id": "aa09155a1c26f3a084a2fe38bd796b02", "is_disabled": 0, "is_reserved": 0}, {"rental_uris": {"ios": "https://dc.lft.to/lastmile_qr_scan", "android": "https://dc.lft.to/lastmile_qr_scan"}, "lon": -77.07789433333333, "type": "electric_scooter", "fusion_lat": 0.0, "lat": 38.940933, "name": "c4ba115473a794ca5272af256f247ecd", "fusion_lon": 0.0, "bike_id": "c4ba115473a794ca5272af256f247ecd", "is_disabled": 0, "is_reserved": 0}, {"rental_uris": {"ios": "https://dc.lft.to/lastmile_qr_scan", "android": "https://dc.lft.to/lastmile_qr_scan"}, "lon": -76.93956683333333, "type": "electric_scooter", "fusion_lat": 0.0, "lat": 38.8941925, "name": "7b10523f18a4b77cdf64262b1f4672f9", "fusion_lon": 0.0, "bike_id": "7b10523f18a4b77cdf64262b1f4672f9", "is_disabled": 0, "is_reserved": 0}, {"rental_uris": {"ios": "https://dc.lft.to/lastmile_qr_scan", "android": "https://dc.lft.to/lastmile_qr_scan"}, "lon": -77.032745, "type": "electric_scooter", "fusion_lat": 0.0, "lat": 38.937688333333334, "name": "0ebfc0cb55377cf0bf9bbfea30aa2190", "fusion_lon": 0.0, "bike_id": "0ebfc0cb55377cf0bf9bbfea30aa2190", "is_disabled": 0, "is_reserved": 0}, {"rental_uris": {"ios": "https://dc.lft.to/lastmile_qr_scan", "android": "https://dc.lft.to/lastmile_qr_scan"}, "lon": -77.0159455, "type": "electric_scooter", "fusion_lat": 0.0, "lat": 38.89614433333333, "name": "6ec2d571ab8975bfe0ceac5b05a1ed32", "fusion_lon": 0.0, "bike_id": "6ec2d571ab8975bfe0ceac5b05a1ed32", "is_disabled": 0, "is_reserved": 0}, {"rental_uris": {"ios": "https://dc.lft.to/lastmile_qr_scan", "android": "https://dc.lft.to/lastmile_qr_scan"}, "lon": -77.007142, "type": "electric_scooter", "fusion_lat": 0.0, "lat": 38.91343766666667, "name": "4fcffab240a278eb266f9496e3dfba50", "fusion_lon": 0.0, "bike_id": "4fcffab240a278eb266f9496e3dfba50", "is_disabled": 0, "is_reserved": 0}, {"rental_uris": {"ios": "https://dc.lft.to/lastmile_qr_scan", "android": "https://dc.lft.to/lastmile_qr_scan"}, "lon": -77.0526375, "type": "electric_scooter", "fusion_lat": 0.0, "lat": 38.9101595, "name": "cb133a2d084201f676f66ac95799e208", "fusion_lon": 0.0, "bike_id": "cb133a2d084201f676f66ac95799e208", "is_disabled": 0, "is_reserved": 0}, {"rental_uris": {"ios": "https://dc.lft.to/lastmile_qr_scan", "android": "https://dc.lft.to/lastmile_qr_scan"}, "lon": -77.006047, "type": "electric_scooter", "fusion_lat": 0.0, "lat": 38.905689833333334, "name": "82dc003da292a08a6bfd1a0d50a8d0ff", "fusion_lon": 0.0, "bike_id": "82dc003da292a08a6bfd1a0d50a8d0ff", "is_disabled": 0, "is_reserved": 0}, {"rental_uris": {"ios": "https://dc.lft.to/lastmile_qr_scan", "android": "https://dc.lft.to/lastmile_qr_scan"}, "lon": -76.97555983333334, "type": "electric_scooter", "fusion_lat": 0.0, "lat": 38.904409, "name": "ba5c23caf1638b0aaa5d4f3aae570c31", "fusion_lon": 0.0, "bike_id": "ba5c23caf1638b0aaa5d4f3aae570c31", "is_disabled": 0, "is_reserved": 0}, {"rental_uris": {"ios": "https://dc.lft.to/lastmile_qr_scan", "android": "https://dc.lft.to/lastmile_qr_scan"}, "lon": -77.04839633333333, "type": "electric_scooter", "fusion_lat": 0.0, "lat": 38.909531, "name": "7e1517dfcb0945b71c2509513c690687", "fusion_lon": 0.0, "bike_id": "7e1517dfcb0945b71c2509513c690687", "is_disabled": 0, "is_reserved": 0}, {"rental_uris": {"ios": "https://dc.lft.to/lastmile_qr_scan", "android": "https://dc.lft.to/lastmile_qr_scan"}, "lon": -77.01097633333333, "type": "electric_scooter", "fusion_lat": 0.0, "lat": 38.89510716666667, "name": "af23445f13af74148804e915d5b17f77", "fusion_lon": 0.0, "bike_id": "af23445f13af74148804e915d5b17f77", "is_disabled": 0, "is_reserved": 0}, {"rental_uris": {"ios": "https://dc.lft.to/lastmile_qr_scan", "android": "https://dc.lft.to/lastmile_qr_scan"}, "lon": -77.042243, "type": "electric_scooter", "fusion_lat": 0.0, "lat": 38.921301166666666, "name": "581e257c27e5070586cf7940464ad6b2", "fusion_lon": 0.0, "bike_id": "581e257c27e5070586cf7940464ad6b2", "is_disabled": 0, "is_reserved": 0}, {"rental_uris": {"ios": "https://dc.lft.to/lastmile_qr_scan", "android": "https://dc.lft.to/lastmile_qr_scan"}, "lon": -76.9857595, "type": "electric_scooter", "fusion_lat": 0.0, "lat": 38.86155, "name": "a6ce6ad0c57c5d5bd1310720b5ec7a10", "fusion_lon": 0.0, "bike_id": "a6ce6ad0c57c5d5bd1310720b5ec7a10", "is_disabled": 0, "is_reserved": 0}, {"rental_uris": {"ios": "https://dc.lft.to/lastmile_qr_scan", "android": "https://dc.lft.to/lastmile_qr_scan"}, "lon": -77.04899833333333, "type": "electric_scooter", "fusion_lat": 0.0, "lat": 38.91887633333333, "name": "d082855548088ee2e8107ca2858b9687", "fusion_lon": 0.0, "bike_id": "d082855548088ee2e8107ca2858b9687", "is_disabled": 0, "is_reserved": 0}, {"rental_uris": {"ios": "https://dc.lft.to/lastmile_qr_scan", "android": "https://dc.lft.to/lastmile_qr_scan"}, "lon": -76.9960765, "type": "electric_scooter", "fusion_lat": 0.0, "lat": 38.886247166666664, "name": "90ba1997db4c4a0d240706d83cedefdd", "fusion_lon": 0.0, "bike_id": "90ba1997db4c4a0d240706d83cedefdd", "is_disabled": 0, "is_reserved": 0}, {"rental_uris": {"ios": "https://dc.lft.to/lastmile_qr_scan", "android": "https://dc.lft.to/lastmile_qr_scan"}, "lon": -77.00362566666666, "type": "electric_scooter", "fusion_lat": 0.0, "lat": 38.907281, "name": "6403cab78a3a7ad48695352272772810", "fusion_lon": 0.0, "bike_id": "6403cab78a3a7ad48695352272772810", "is_disabled": 0, "is_reserved": 0}, {"rental_uris": {"ios": "https://dc.lft.to/lastmile_qr_scan", "android": "https://dc.lft.to/lastmile_qr_scan"}, "lon": -77.00281633333333, "type": "electric_scooter", "fusion_lat": 0.0, "lat": 38.90133266666667, "name": "294f9d1d90e833f7b12960da86f3da55", "fusion_lon": 0.0, "bike_id": "294f9d1d90e833f7b12960da86f3da55", "is_disabled": 0, "is_reserved": 0}, {"rental_uris": {"ios": "https://dc.lft.to/lastmile_qr_scan", "android": "https://dc.lft.to/lastmile_qr_scan"}, "lon": -77.0500815, "type": "electric_scooter", "fusion_lat": 0.0, "lat": 38.90028266666667, "name": "ebb5146a16cda74e56a63a9b26430824", "fusion_lon": 0.0, "bike_id": "ebb5146a16cda74e56a63a9b26430824", "is_disabled": 0, "is_reserved": 0}, {"rental_uris": {"ios": "https://dc.lft.to/lastmile_qr_scan", "android": "https://dc.lft.to/lastmile_qr_scan"}, "lon": -77.03836833333334, "type": "electric_scooter", "fusion_lat": 0.0, "lat": 38.931152, "name": "3e970ba28cf3d828432312821e2d0e05", "fusion_lon": 0.0, "bike_id": "3e970ba28cf3d828432312821e2d0e05", "is_disabled": 0, "is_reserved": 0}, {"rental_uris": {"ios": "https://dc.lft.to/lastmile_qr_scan", "android": "https://dc.lft.to/lastmile_qr_scan"}, "lon": -76.9888345, "type": "electric_scooter", "fusion_lat": 0.0, "lat": 38.8666095, "name": "ce025038bb87ea693502aff71587342c", "fusion_lon": 0.0, "bike_id": "ce025038bb87ea693502aff71587342c", "is_disabled": 0, "is_reserved": 0}, {"rental_uris": {"ios": "https://dc.lft.to/lastmile_qr_scan", "android": "https://dc.lft.to/lastmile_qr_scan"}, "lon": -76.99778816666667, "type": "electric_bike", "fusion_lat": 0.0, "lat": 38.909299, "name": "0e75459bd04ab09b6f24671fb9e3c2bd", "fusion_lon": 0.0, "bike_id": "0e75459bd04ab09b6f24671fb9e3c2bd", "is_disabled": 0, "is_reserved": 0}, {"rental_uris": {"ios": "https://dc.lft.to/lastmile_qr_scan", "android": "https://dc.lft.to/lastmile_qr_scan"}, "lon": -77.04502933333333, "type": "electric_scooter", "fusion_lat": 0.0, "lat": 38.919442833333335, "name": "1fd17f38cec66a2cad8cb8ae1543e735", "fusion_lon": 0.0, "bike_id": "1fd17f38cec66a2cad8cb8ae1543e735", "is_disabled": 0, "is_reserved": 0}, {"rental_uris": {"ios": "https://dc.lft.to/lastmile_qr_scan", "android": "https://dc.lft.to/lastmile_qr_scan"}, "lon": -77.0549575, "type": "electric_scooter", "fusion_lat": 0.0, "lat": 38.929708166666664, "name": "a947580eb8a8179a6fc47f5eb235787e", "fusion_lon": 0.0, "bike_id": "a947580eb8a8179a6fc47f5eb235787e", "is_disabled": 0, "is_reserved": 0}, {"rental_uris": {"ios": "https://dc.lft.to/lastmile_qr_scan", "android": "https://dc.lft.to/lastmile_qr_scan"}, "lon": -77.03214833333334, "type": "electric_scooter", "fusion_lat": 0.0, "lat": 38.920748333333336, "name": "222a7f7cce96aabeffb3641e7bebd33b", "fusion_lon": 0.0, "bike_id": "222a7f7cce96aabeffb3641e7bebd33b", "is_disabled": 0, "is_reserved": 0}, {"rental_uris": {"ios": "https://dc.lft.to/lastmile_qr_scan", "android": "https://dc.lft.to/lastmile_qr_scan"}, "lon": -77.03665816666667, "type": "electric_scooter", "fusion_lat": 0.0, "lat": 38.903129, "name": "e0fb86df1e10941d40b8c8e9e45bca08", "fusion_lon": 0.0, "bike_id": "e0fb86df1e10941d40b8c8e9e45bca08", "is_disabled": 0, "is_reserved": 0}, {"rental_uris": {"ios": "https://dc.lft.to/lastmile_qr_scan", "android": "https://dc.lft.to/lastmile_qr_scan"}, "lon": -77.03951283333333, "type": "electric_scooter", "fusion_lat": 0.0, "lat": 38.9261015, "name": "505139ce5ae42c181907ca6d3dde2ff7", "fusion_lon": 0.0, "bike_id": "505139ce5ae42c181907ca6d3dde2ff7", "is_disabled": 0, "is_reserved": 0}, {"rental_uris": {"ios": "https://dc.lft.to/lastmile_qr_scan", "android": "https://dc.lft.to/lastmile_qr_scan"}, "lon": -77.02749266666666, "type": "electric_scooter", "fusion_lat": 0.0, "lat": 38.971467, "name": "39b4da19f3d7c6bea9bf5bb505f4669a", "fusion_lon": 0.0, "bike_id": "39b4da19f3d7c6bea9bf5bb505f4669a", "is_disabled": 0, "is_reserved": 0}, {"rental_uris": {"ios": "https://dc.lft.to/lastmile_qr_scan", "android": "https://dc.lft.to/lastmile_qr_scan"}, "lon": -77.041804, "type": "electric_scooter", "fusion_lat": 0.0, "lat": 38.92197983333333, "name": "1f4a9befa6b14a955a20c5e5d7e77d4d", "fusion_lon": 0.0, "bike_id": "1f4a9befa6b14a955a20c5e5d7e77d4d", "is_disabled": 0, "is_reserved": 0}, {"rental_uris": {"ios": "https://dc.lft.to/lastmile_qr_scan", "android": "https://dc.lft.to/lastmile_qr_scan"}, "lon": -77.05299333333333, "type": "electric_scooter", "fusion_lat": 0.0, "lat": 38.90159366666666, "name": "fb62841c08c818a89969d7e36f214b36", "fusion_lon": 0.0, "bike_id": "fb62841c08c818a89969d7e36f214b36", "is_disabled": 0, "is_reserved": 0}, {"rental_uris": {"ios": "https://dc.lft.to/lastmile_qr_scan", "android": "https://dc.lft.to/lastmile_qr_scan"}, "lon": -76.93240166666666, "type": "electric_bike", "fusion_lat": 0.0, "lat": 38.88277816666667, "name": "e1cae0df297c8d038e1bb3540f6fa188", "fusion_lon": 0.0, "bike_id": "e1cae0df297c8d038e1bb3540f6fa188", "is_disabled": 0, "is_reserved": 0}, {"rental_uris": {"ios": "https://dc.lft.to/lastmile_qr_scan", "android": "https://dc.lft.to/lastmile_qr_scan"}, "lon": -77.05052533333334, "type": "electric_scooter", "fusion_lat": 0.0, "lat": 38.923675333333335, "name": "b219d533340110823abbd0893ae50c0c", "fusion_lon": 0.0, "bike_id": "b219d533340110823abbd0893ae50c0c", "is_disabled": 0, "is_reserved": 0}, {"rental_uris": {"ios": "https://dc.lft.to/lastmile_qr_scan", "android": "https://dc.lft.to/lastmile_qr_scan"}, "lon": -76.99612316666666, "type": "electric_scooter", "fusion_lat": 0.0, "lat": 38.8974705, "name": "eab8d42e67848e137903174dff7d6466", "fusion_lon": 0.0, "bike_id": "eab8d42e67848e137903174dff7d6466", "is_disabled": 0, "is_reserved": 0}, {"rental_uris": {"ios": "https://dc.lft.to/lastmile_qr_scan", "android": "https://dc.lft.to/lastmile_qr_scan"}, "lon": -77.03659333333333, "type": "electric_scooter", "fusion_lat": 0.0, "lat": 38.921182333333334, "name": "893ba88545d541f9697ede2e367b584d", "fusion_lon": 0.0, "bike_id": "893ba88545d541f9697ede2e367b584d", "is_disabled": 0, "is_reserved": 0}, {"rental_uris": {"ios": "https://dc.lft.to/lastmile_qr_scan", "android": "https://dc.lft.to/lastmile_qr_scan"}, "lon": -76.982082, "type": "electric_scooter", "fusion_lat": 0.0, "lat": 38.8909025, "name": "a6ef73d19a667b402acea3e62f527c76", "fusion_lon": 0.0, "bike_id": "a6ef73d19a667b402acea3e62f527c76", "is_disabled": 0, "is_reserved": 0}, {"rental_uris": {"ios": "https://dc.lft.to/lastmile_qr_scan", "android": "https://dc.lft.to/lastmile_qr_scan"}, "lon": -77.07093516666667, "type": "electric_scooter", "fusion_lat": 0.0, "lat": 38.93363133333333, "name": "f66a84591f21dd085ade8d0b9ce40193", "fusion_lon": 0.0, "bike_id": "f66a84591f21dd085ade8d0b9ce40193", "is_disabled": 0, "is_reserved": 0}, {"rental_uris": {"ios": "https://dc.lft.to/lastmile_qr_scan", "android": "https://dc.lft.to/lastmile_qr_scan"}, "lon": -77.02364033333333, "type": "electric_scooter", "fusion_lat": 0.0, "lat": 38.93567, "name": "cf9cdf9ad6f5fcfec9a745f4a658a161", "fusion_lon": 0.0, "bike_id": "cf9cdf9ad6f5fcfec9a745f4a658a161", "is_disabled": 0, "is_reserved": 0}, {"rental_uris": {"ios": "https://dc.lft.to/lastmile_qr_scan", "android": "https://dc.lft.to/lastmile_qr_scan"}, "lon": -77.02353416666666, "type": "electric_scooter", "fusion_lat": 0.0, "lat": 38.93407033333333, "name": "ed4c10a42ab69416e882fa07421dd250", "fusion_lon": 0.0, "bike_id": "ed4c10a42ab69416e882fa07421dd250", "is_disabled": 0, "is_reserved": 0}, {"rental_uris": {"ios": "https://dc.lft.to/lastmile_qr_scan", "android": "https://dc.lft.to/lastmile_qr_scan"}, "lon": -76.9807935, "type": "electric_bike", "fusion_lat": 0.0, "lat": 38.90294133333333, "name": "e36846a11ddf06d682f16e57926e0d10", "fusion_lon": 0.0, "bike_id": "e36846a11ddf06d682f16e57926e0d10", "is_disabled": 0, "is_reserved": 0}, {"rental_uris": {"ios": "https://dc.lft.to/lastmile_qr_scan", "android": "https://dc.lft.to/lastmile_qr_scan"}, "lon": -76.99867533333334, "type": "electric_scooter", "fusion_lat": 0.0, "lat": 38.900313, "name": "011ab1bd0272837190defb5e7e484405", "fusion_lon": 0.0, "bike_id": "011ab1bd0272837190defb5e7e484405", "is_disabled": 0, "is_reserved": 0}, {"rental_uris": {"ios": "https://dc.lft.to/lastmile_qr_scan", "android": "https://dc.lft.to/lastmile_qr_scan"}, "lon": -77.00330616666666, "type": "electric_scooter", "fusion_lat": 0.0, "lat": 38.913366333333336, "name": "56efbb481a46d5ed245e3dd8adabace1", "fusion_lon": 0.0, "bike_id": "56efbb481a46d5ed245e3dd8adabace1", "is_disabled": 0, "is_reserved": 0}, {"rental_uris": {"ios": "https://dc.lft.to/lastmile_qr_scan", "android": "https://dc.lft.to/lastmile_qr_scan"}, "lon": -77.078964, "type": "electric_bike", "fusion_lat": 0.0, "lat": 38.839364, "name": "e392ceaaf72314b3a61078a65444d6a1", "fusion_lon": 0.0, "bike_id": "e392ceaaf72314b3a61078a65444d6a1", "is_disabled": 0, "is_reserved": 0}, {"rental_uris": {"ios": "https://dc.lft.to/lastmile_qr_scan", "android": "https://dc.lft.to/lastmile_qr_scan"}, "lon": -77.00634033333333, "type": "electric_scooter", "fusion_lat": 0.0, "lat": 38.8762765, "name": "fe0382a8e880e16ecdf43bacbd5ca24e", "fusion_lon": 0.0, "bike_id": "fe0382a8e880e16ecdf43bacbd5ca24e", "is_disabled": 0, "is_reserved": 0}, {"rental_uris": {"ios": "https://dc.lft.to/lastmile_qr_scan", "android": "https://dc.lft.to/lastmile_qr_scan"}, "lon": -76.93617683333333, "type": "electric_bike", "fusion_lat": 0.0, "lat": 38.970711, "name": "97ecc77fb1535bf289cdcd35ec7a1bb4", "fusion_lon": 0.0, "bike_id": "97ecc77fb1535bf289cdcd35ec7a1bb4", "is_disabled": 0, "is_reserved": 0}, {"rental_uris": {"ios": "https://dc.lft.to/lastmile_qr_scan", "android": "https://dc.lft.to/lastmile_qr_scan"}, "lon": -77.02469816666667, "type": "electric_scooter", "fusion_lat": 0.0, "lat": 38.93864633333333, "name": "eb63251e881df1ec79babdd3d0534764", "fusion_lon": 0.0, "bike_id": "eb63251e881df1ec79babdd3d0534764", "is_disabled": 0, "is_reserved": 0}, {"rental_uris": {"ios": "https://dc.lft.to/lastmile_qr_scan", "android": "https://dc.lft.to/lastmile_qr_scan"}, "lon": -77.0019655, "type": "electric_scooter", "fusion_lat": 0.0, "lat": 38.91192133333333, "name": "dbde999680dd34040650883b29ba7dba", "fusion_lon": 0.0, "bike_id": "dbde999680dd34040650883b29ba7dba", "is_disabled": 0, "is_reserved": 0}, {"rental_uris": {"ios": "https://dc.lft.to/lastmile_qr_scan", "android": "https://dc.lft.to/lastmile_qr_scan"}, "lon": -77.0018785, "type": "electric_scooter", "fusion_lat": 0.0, "lat": 38.91202766666667, "name": "8c0521e90ad12580eb039f8ffa248757", "fusion_lon": 0.0, "bike_id": "8c0521e90ad12580eb039f8ffa248757", "is_disabled": 0, "is_reserved": 0}, {"rental_uris": {"ios": "https://dc.lft.to/lastmile_qr_scan", "android": "https://dc.lft.to/lastmile_qr_scan"}, "lon": -76.99487033333334, "type": "electric_bike", "fusion_lat": 0.0, "lat": 38.89991083333334, "name": "4207a634bc3e3bace723a210b2d45946", "fusion_lon": 0.0, "bike_id": "4207a634bc3e3bace723a210b2d45946", "is_disabled": 0, "is_reserved": 0}, {"rental_uris": {"ios": "https://dc.lft.to/lastmile_qr_scan", "android": "https://dc.lft.to/lastmile_qr_scan"}, "lon": -76.98312566666667, "type": "electric_scooter", "fusion_lat": 0.0, "lat": 38.86893116666667, "name": "52c015d9794865e3a3f213a9dd2f1e68", "fusion_lon": 0.0, "bike_id": "52c015d9794865e3a3f213a9dd2f1e68", "is_disabled": 0, "is_reserved": 0}, {"rental_uris": {"ios": "https://dc.lft.to/lastmile_qr_scan", "android": "https://dc.lft.to/lastmile_qr_scan"}, "lon": -77.0386995, "type": "electric_scooter", "fusion_lat": 0.0, "lat": 38.915574666666664, "name": "ffd96bea2b518cd9e22d3383286b8e27", "fusion_lon": 0.0, "bike_id": "ffd96bea2b518cd9e22d3383286b8e27", "is_disabled": 0, "is_reserved": 0}, {"rental_uris": {"ios": "https://dc.lft.to/lastmile_qr_scan", "android": "https://dc.lft.to/lastmile_qr_scan"}, "lon": -77.028917, "type": "electric_scooter", "fusion_lat": 0.0, "lat": 38.925708166666666, "name": "292e44f6678fb1d64f3b6550f44e85cb", "fusion_lon": 0.0, "bike_id": "292e44f6678fb1d64f3b6550f44e85cb", "is_disabled": 0, "is_reserved": 0}, {"rental_uris": {"ios": "https://dc.lft.to/lastmile_qr_scan", "android": "https://dc.lft.to/lastmile_qr_scan"}, "lon": -77.04777816666666, "type": "electric_scooter", "fusion_lat": 0.0, "lat": 38.908502166666665, "name": "35e56fe14dc89a9da06ad522401ffdd7", "fusion_lon": 0.0, "bike_id": "35e56fe14dc89a9da06ad522401ffdd7", "is_disabled": 0, "is_reserved": 0}, {"rental_uris": {"ios": "https://dc.lft.to/lastmile_qr_scan", "android": "https://dc.lft.to/lastmile_qr_scan"}, "lon": -76.986819, "type": "electric_scooter", "fusion_lat": 0.0, "lat": 38.882122833333334, "name": "154450b4cd20b1f0012781969e6567a6", "fusion_lon": 0.0, "bike_id": "154450b4cd20b1f0012781969e6567a6", "is_disabled": 0, "is_reserved": 0}, {"rental_uris": {"ios": "https://dc.lft.to/lastmile_qr_scan", "android": "https://dc.lft.to/lastmile_qr_scan"}, "lon": -77.00881, "type": "electric_scooter", "fusion_lat": 0.0, "lat": 38.916761666666666, "name": "b36dca523abacdc54771e10028b8fa23", "fusion_lon": 0.0, "bike_id": "b36dca523abacdc54771e10028b8fa23", "is_disabled": 0, "is_reserved": 0}, {"rental_uris": {"ios": "https://dc.lft.to/lastmile_qr_scan", "android": "https://dc.lft.to/lastmile_qr_scan"}, "lon": -77.00202083333333, "type": "electric_bike", "fusion_lat": 0.0, "lat": 38.88304016666667, "name": "1a0cc8a5658e15e320504e7b20209b92", "fusion_lon": 0.0, "bike_id": "1a0cc8a5658e15e320504e7b20209b92", "is_disabled": 0, "is_reserved": 0}, {"rental_uris": {"ios": "https://dc.lft.to/lastmile_qr_scan", "android": "https://dc.lft.to/lastmile_qr_scan"}, "lon": -77.031295, "type": "electric_scooter", "fusion_lat": 0.0, "lat": 38.9133525, "name": "b4adaa6a96b2c6b997eb6f74b245e17a", "fusion_lon": 0.0, "bike_id": "b4adaa6a96b2c6b997eb6f74b245e17a", "is_disabled": 0, "is_reserved": 0}, {"rental_uris": {"ios": "https://dc.lft.to/lastmile_qr_scan", "android": "https://dc.lft.to/lastmile_qr_scan"}, "lon": -76.97629666666667, "type": "electric_scooter", "fusion_lat": 0.0, "lat": 38.90571333333333, "name": "ab876a6f8a2b76cb28436b809d60d4f4", "fusion_lon": 0.0, "bike_id": "ab876a6f8a2b76cb28436b809d60d4f4", "is_disabled": 0, "is_reserved": 0}, {"rental_uris": {"ios": "https://dc.lft.to/lastmile_qr_scan", "android": "https://dc.lft.to/lastmile_qr_scan"}, "lon": -77.0588565, "type": "electric_scooter", "fusion_lat": 0.0, "lat": 38.936330166666664, "name": "ae5d2b8d5da312c72d308d7d18fd7cee", "fusion_lon": 0.0, "bike_id": "ae5d2b8d5da312c72d308d7d18fd7cee", "is_disabled": 0, "is_reserved": 0}, {"rental_uris": {"ios": "https://dc.lft.to/lastmile_qr_scan", "android": "https://dc.lft.to/lastmile_qr_scan"}, "lon": -77.052076, "type": "electric_scooter", "fusion_lat": 0.0, "lat": 38.924354666666666, "name": "0fbd0ce55709905d14ec6d32feddaf77", "fusion_lon": 0.0, "bike_id": "0fbd0ce55709905d14ec6d32feddaf77", "is_disabled": 0, "is_reserved": 0}, {"rental_uris": {"ios": "https://dc.lft.to/lastmile_qr_scan", "android": "https://dc.lft.to/lastmile_qr_scan"}, "lon": -77.02945466666667, "type": "electric_scooter", "fusion_lat": 0.0, "lat": 38.916775, "name": "edf89dec5f122ddd3c029956abf69b2c", "fusion_lon": 0.0, "bike_id": "edf89dec5f122ddd3c029956abf69b2c", "is_disabled": 0, "is_reserved": 0}, {"rental_uris": {"ios": "https://dc.lft.to/lastmile_qr_scan", "android": "https://dc.lft.to/lastmile_qr_scan"}, "lon": -76.98705516666666, "type": "electric_scooter", "fusion_lat": 0.0, "lat": 38.862575666666665, "name": "b1053f66ea69d158552e3ac7606f1649", "fusion_lon": 0.0, "bike_id": "b1053f66ea69d158552e3ac7606f1649", "is_disabled": 0, "is_reserved": 0}, {"rental_uris": {"ios": "https://dc.lft.to/lastmile_qr_scan", "android": "https://dc.lft.to/lastmile_qr_scan"}, "lon": -77.036161, "type": "electric_scooter", "fusion_lat": 0.0, "lat": 38.93256316666667, "name": "66391a0b1a60af212650f92695989bae", "fusion_lon": 0.0, "bike_id": "66391a0b1a60af212650f92695989bae", "is_disabled": 0, "is_reserved": 0}, {"rental_uris": {"ios": "https://dc.lft.to/lastmile_qr_scan", "android": "https://dc.lft.to/lastmile_qr_scan"}, "lon": -76.94177616666667, "type": "electric_scooter", "fusion_lat": 0.0, "lat": 38.88222616666667, "name": "9ce1dbe0bea8eb805e791b091d24a21a", "fusion_lon": 0.0, "bike_id": "9ce1dbe0bea8eb805e791b091d24a21a", "is_disabled": 0, "is_reserved": 0}, {"rental_uris": {"ios": "https://dc.lft.to/lastmile_qr_scan", "android": "https://dc.lft.to/lastmile_qr_scan"}, "lon": -77.0345275, "type": "electric_scooter", "fusion_lat": 0.0, "lat": 38.9072725, "name": "ec671504c4cd9883ae02f72935ca3ad8", "fusion_lon": 0.0, "bike_id": "ec671504c4cd9883ae02f72935ca3ad8", "is_disabled": 0, "is_reserved": 0}, {"rental_uris": {"ios": "https://dc.lft.to/lastmile_qr_scan", "android": "https://dc.lft.to/lastmile_qr_scan"}, "lon": -77.02714083333333, "type": "electric_scooter", "fusion_lat": 0.0, "lat": 38.924674333333336, "name": "9142976c3209a555b7a9300a77d482b2", "fusion_lon": 0.0, "bike_id": "9142976c3209a555b7a9300a77d482b2", "is_disabled": 0, "is_reserved": 0}, {"rental_uris": {"ios": "https://dc.lft.to/lastmile_qr_scan", "android": "https://dc.lft.to/lastmile_qr_scan"}, "lon": -77.054727, "type": "electric_scooter", "fusion_lat": 0.0, "lat": 38.9210015, "name": "91a5178a6aea34cd71155e41c8e12981", "fusion_lon": 0.0, "bike_id": "91a5178a6aea34cd71155e41c8e12981", "is_disabled": 0, "is_reserved": 0}, {"rental_uris": {"ios": "https://dc.lft.to/lastmile_qr_scan", "android": "https://dc.lft.to/lastmile_qr_scan"}, "lon": -76.955253, "type": "electric_scooter", "fusion_lat": 0.0, "lat": 38.887820833333336, "name": "3755c794ca248ce5e089467b8bdcfeff", "fusion_lon": 0.0, "bike_id": "3755c794ca248ce5e089467b8bdcfeff", "is_disabled": 0, "is_reserved": 0}, {"rental_uris": {"ios": "https://dc.lft.to/lastmile_qr_scan", "android": "https://dc.lft.to/lastmile_qr_scan"}, "lon": -77.03756833333334, "type": "electric_scooter", "fusion_lat": 0.0, "lat": 38.928991333333336, "name": "c9baa9da3b09b16c038e82c8024585e5", "fusion_lon": 0.0, "bike_id": "c9baa9da3b09b16c038e82c8024585e5", "is_disabled": 0, "is_reserved": 0}, {"rental_uris": {"ios": "https://dc.lft.to/lastmile_qr_scan", "android": "https://dc.lft.to/lastmile_qr_scan"}, "lon": -77.03224183333333, "type": "electric_scooter", "fusion_lat": 0.0, "lat": 38.915530333333336, "name": "64c73f21cd79e409f8d8e841bfa300ed", "fusion_lon": 0.0, "bike_id": "64c73f21cd79e409f8d8e841bfa300ed", "is_disabled": 0, "is_reserved": 0}, {"rental_uris": {"ios": "https://dc.lft.to/lastmile_qr_scan", "android": "https://dc.lft.to/lastmile_qr_scan"}, "lon": -77.0600985, "type": "electric_scooter", "fusion_lat": 0.0, "lat": 38.912712, "name": "f264f7b4382fc5f448c9658ddd07b41b", "fusion_lon": 0.0, "bike_id": "f264f7b4382fc5f448c9658ddd07b41b", "is_disabled": 0, "is_reserved": 0}, {"rental_uris": {"ios": "https://dc.lft.to/lastmile_qr_scan", "android": "https://dc.lft.to/lastmile_qr_scan"}, "lon": -77.03865266666666, "type": "electric_scooter", "fusion_lat": 0.0, "lat": 38.915621, "name": "450adb166c2357b8ef28235668502751", "fusion_lon": 0.0, "bike_id": "450adb166c2357b8ef28235668502751", "is_disabled": 0, "is_reserved": 0}, {"rental_uris": {"ios": "https://dc.lft.to/lastmile_qr_scan", "android": "https://dc.lft.to/lastmile_qr_scan"}, "lon": -77.3531395, "type": "electric_bike", "fusion_lat": 0.0, "lat": 38.95006733333334, "name": "8a56a7caba2ae81285e3aa9130643059", "fusion_lon": 0.0, "bike_id": "8a56a7caba2ae81285e3aa9130643059", "is_disabled": 0, "is_reserved": 0}, {"rental_uris": {"ios": "https://dc.lft.to/lastmile_qr_scan", "android": "https://dc.lft.to/lastmile_qr_scan"}, "lon": -76.98727616666666, "type": "electric_scooter", "fusion_lat": 0.0, "lat": 38.8841875, "name": "465c52ed0452057f220e00481541117b", "fusion_lon": 0.0, "bike_id": "465c52ed0452057f220e00481541117b", "is_disabled": 0, "is_reserved": 0}, {"rental_uris": {"ios": "https://dc.lft.to/lastmile_qr_scan", "android": "https://dc.lft.to/lastmile_qr_scan"}, "lon": -77.04546133333334, "type": "electric_scooter", "fusion_lat": 0.0, "lat": 38.9038695, "name": "ba91ce4144422f46057a6cd60878475a", "fusion_lon": 0.0, "bike_id": "ba91ce4144422f46057a6cd60878475a", "is_disabled": 0, "is_reserved": 0}, {"rental_uris": {"ios": "https://dc.lft.to/lastmile_qr_scan", "android": "https://dc.lft.to/lastmile_qr_scan"}, "lon": -77.03954866666666, "type": "electric_scooter", "fusion_lat": 0.0, "lat": 38.901292, "name": "47d3252cd80bac9717d389630f6bec00", "fusion_lon": 0.0, "bike_id": "47d3252cd80bac9717d389630f6bec00", "is_disabled": 0, "is_reserved": 0}, {"rental_uris": {"ios": "https://dc.lft.to/lastmile_qr_scan", "android": "https://dc.lft.to/lastmile_qr_scan"}, "lon": -76.93174783333333, "type": "electric_scooter", "fusion_lat": 0.0, "lat": 38.8988525, "name": "0e2a23abfc4e66db12f0b054b503062b", "fusion_lon": 0.0, "bike_id": "0e2a23abfc4e66db12f0b054b503062b", "is_disabled": 0, "is_reserved": 0}, {"rental_uris": {"ios": "https://dc.lft.to/lastmile_qr_scan", "android": "https://dc.lft.to/lastmile_qr_scan"}, "lon": -77.03457283333333, "type": "electric_scooter", "fusion_lat": 0.0, "lat": 38.918187833333334, "name": "5185dff20eccc7e86e2419da1b602c70", "fusion_lon": 0.0, "bike_id": "5185dff20eccc7e86e2419da1b602c70", "is_disabled": 0, "is_reserved": 0}, {"rental_uris": {"ios": "https://dc.lft.to/lastmile_qr_scan", "android": "https://dc.lft.to/lastmile_qr_scan"}, "lon": -77.04986016666666, "type": "electric_scooter", "fusion_lat": 0.0, "lat": 38.901147, "name": "73289a46f95be9b61c21eb43371b2029", "fusion_lon": 0.0, "bike_id": "73289a46f95be9b61c21eb43371b2029", "is_disabled": 0, "is_reserved": 0}, {"rental_uris": {"ios": "https://dc.lft.to/lastmile_qr_scan", "android": "https://dc.lft.to/lastmile_qr_scan"}, "lon": -77.03528516666667, "type": "electric_scooter", "fusion_lat": 0.0, "lat": 38.92330166666667, "name": "108f11973304f7d0e30710df23903ebf", "fusion_lon": 0.0, "bike_id": "108f11973304f7d0e30710df23903ebf", "is_disabled": 0, "is_reserved": 0}, {"rental_uris": {"ios": "https://dc.lft.to/lastmile_qr_scan", "android": "https://dc.lft.to/lastmile_qr_scan"}, "lon": -76.994932, "type": "electric_scooter", "fusion_lat": 0.0, "lat": 38.89958216666667, "name": "58e0234932f3e29ab8afd0f824a60d62", "fusion_lon": 0.0, "bike_id": "58e0234932f3e29ab8afd0f824a60d62", "is_disabled": 0, "is_reserved": 0}, {"rental_uris": {"ios": "https://dc.lft.to/lastmile_qr_scan", "android": "https://dc.lft.to/lastmile_qr_scan"}, "lon": -77.03221416666666, "type": "electric_scooter", "fusion_lat": 0.0, "lat": 38.92583333333333, "name": "63ca06936113d93fc8a212a14448279c", "fusion_lon": 0.0, "bike_id": "63ca06936113d93fc8a212a14448279c", "is_disabled": 0, "is_reserved": 0}, {"rental_uris": {"ios": "https://dc.lft.to/lastmile_qr_scan", "android": "https://dc.lft.to/lastmile_qr_scan"}, "lon": -76.98570616666666, "type": "electric_scooter", "fusion_lat": 0.0, "lat": 38.8988485, "name": "cadc59015d73b9108d633b746baa3487", "fusion_lon": 0.0, "bike_id": "cadc59015d73b9108d633b746baa3487", "is_disabled": 0, "is_reserved": 0}, {"rental_uris": {"ios": "https://dc.lft.to/lastmile_qr_scan", "android": "https://dc.lft.to/lastmile_qr_scan"}, "lon": -76.98655233333334, "type": "electric_scooter", "fusion_lat": 0.0, "lat": 38.858076, "name": "1dd2d52f93339a5faad7a1e02e8aac53", "fusion_lon": 0.0, "bike_id": "1dd2d52f93339a5faad7a1e02e8aac53", "is_disabled": 0, "is_reserved": 0}, {"rental_uris": {"ios": "https://dc.lft.to/lastmile_qr_scan", "android": "https://dc.lft.to/lastmile_qr_scan"}, "lon": -76.94655983333334, "type": "electric_scooter", "fusion_lat": 0.0, "lat": 38.89825316666666, "name": "2641ff88bf22a76b3c8089312723405d", "fusion_lon": 0.0, "bike_id": "2641ff88bf22a76b3c8089312723405d", "is_disabled": 0, "is_reserved": 0}, {"rental_uris": {"ios": "https://dc.lft.to/lastmile_qr_scan", "android": "https://dc.lft.to/lastmile_qr_scan"}, "lon": -77.0312435, "type": "electric_scooter", "fusion_lat": 0.0, "lat": 38.96308833333333, "name": "3f179aa3b7c5492b097be85fda2a4449", "fusion_lon": 0.0, "bike_id": "3f179aa3b7c5492b097be85fda2a4449", "is_disabled": 0, "is_reserved": 0}, {"rental_uris": {"ios": "https://dc.lft.to/lastmile_qr_scan", "android": "https://dc.lft.to/lastmile_qr_scan"}, "lon": -77.03204216666667, "type": "electric_scooter", "fusion_lat": 0.0, "lat": 38.9098955, "name": "60c861362338856e0455a72c6d35f945", "fusion_lon": 0.0, "bike_id": "60c861362338856e0455a72c6d35f945", "is_disabled": 0, "is_reserved": 0}, {"rental_uris": {"ios": "https://dc.lft.to/lastmile_qr_scan", "android": "https://dc.lft.to/lastmile_qr_scan"}, "lon": -76.986557, "type": "electric_scooter", "fusion_lat": 0.0, "lat": 38.858031, "name": "dab507dfa74ecca82b3cd47841bd3eb3", "fusion_lon": 0.0, "bike_id": "dab507dfa74ecca82b3cd47841bd3eb3", "is_disabled": 0, "is_reserved": 0}, {"rental_uris": {"ios": "https://dc.lft.to/lastmile_qr_scan", "android": "https://dc.lft.to/lastmile_qr_scan"}, "lon": -77.04800633333333, "type": "electric_scooter", "fusion_lat": 0.0, "lat": 38.911095333333336, "name": "230e5dbb85f12552ca18fd2d4120857a", "fusion_lon": 0.0, "bike_id": "230e5dbb85f12552ca18fd2d4120857a", "is_disabled": 0, "is_reserved": 0}, {"rental_uris": {"ios": "https://dc.lft.to/lastmile_qr_scan", "android": "https://dc.lft.to/lastmile_qr_scan"}, "lon": -77.03667633333333, "type": "electric_scooter", "fusion_lat": 0.0, "lat": 38.92206916666667, "name": "5b3977ed1a2278c5fbf4c12d1bd139df", "fusion_lon": 0.0, "bike_id": "5b3977ed1a2278c5fbf4c12d1bd139df", "is_disabled": 0, "is_reserved": 0}, {"rental_uris": {"ios": "https://dc.lft.to/lastmile_qr_scan", "android": "https://dc.lft.to/lastmile_qr_scan"}, "lon": -76.979227, "type": "electric_scooter", "fusion_lat": 0.0, "lat": 38.905026, "name": "aae55a9cd97f28f4056d1ae4843b15eb", "fusion_lon": 0.0, "bike_id": "aae55a9cd97f28f4056d1ae4843b15eb", "is_disabled": 0, "is_reserved": 0}, {"rental_uris": {"ios": "https://dc.lft.to/lastmile_qr_scan", "android": "https://dc.lft.to/lastmile_qr_scan"}, "lon": -77.04187666666667, "type": "electric_scooter", "fusion_lat": 0.0, "lat": 38.92054666666667, "name": "9f0d86dba005e8e720da0bbcc20425e2", "fusion_lon": 0.0, "bike_id": "9f0d86dba005e8e720da0bbcc20425e2", "is_disabled": 0, "is_reserved": 0}, {"rental_uris": {"ios": "https://dc.lft.to/lastmile_qr_scan", "android": "https://dc.lft.to/lastmile_qr_scan"}, "lon": -77.10029833333333, "type": "electric_bike", "fusion_lat": 0.0, "lat": 38.990665666666665, "name": "3dcfa93275807f9c17d760fb668968ca", "fusion_lon": 0.0, "bike_id": "3dcfa93275807f9c17d760fb668968ca", "is_disabled": 0, "is_reserved": 0}, {"rental_uris": {"ios": "https://dc.lft.to/lastmile_qr_scan", "android": "https://dc.lft.to/lastmile_qr_scan"}, "lon": -76.98565216666667, "type": "electric_scooter", "fusion_lat": 0.0, "lat": 38.856063666666664, "name": "197eb0e086691d3b5304411cbca95580", "fusion_lon": 0.0, "bike_id": "197eb0e086691d3b5304411cbca95580", "is_disabled": 0, "is_reserved": 0}, {"rental_uris": {"ios": "https://dc.lft.to/lastmile_qr_scan", "android": "https://dc.lft.to/lastmile_qr_scan"}, "lon": -77.049042, "type": "electric_bike", "fusion_lat": 0.0, "lat": 38.8749475, "name": "d58e590246a4a91bc1bc5959d4b2433c", "fusion_lon": 0.0, "bike_id": "d58e590246a4a91bc1bc5959d4b2433c", "is_disabled": 0, "is_reserved": 0}, {"rental_uris": {"ios": "https://dc.lft.to/lastmile_qr_scan", "android": "https://dc.lft.to/lastmile_qr_scan"}, "lon": -77.00365183333334, "type": "electric_scooter", "fusion_lat": 0.0, "lat": 38.897616, "name": "e13d47ed73a77ad4f3683cd44e9f7d5b", "fusion_lon": 0.0, "bike_id": "e13d47ed73a77ad4f3683cd44e9f7d5b", "is_disabled": 0, "is_reserved": 0}, {"rental_uris": {"ios": "https://dc.lft.to/lastmile_qr_scan", "android": "https://dc.lft.to/lastmile_qr_scan"}, "lon": -77.02224266666667, "type": "electric_scooter", "fusion_lat": 0.0, "lat": 38.89352916666667, "name": "5766d3393da8b24835e4e44c9d78cb48", "fusion_lon": 0.0, "bike_id": "5766d3393da8b24835e4e44c9d78cb48", "is_disabled": 0, "is_reserved": 0}, {"rental_uris": {"ios": "https://dc.lft.to/lastmile_qr_scan", "android": "https://dc.lft.to/lastmile_qr_scan"}, "lon": -77.02336283333334, "type": "electric_scooter", "fusion_lat": 0.0, "lat": 38.9305155, "name": "f1fe589f7b64d4ba0cae970c1c92332f", "fusion_lon": 0.0, "bike_id": "f1fe589f7b64d4ba0cae970c1c92332f", "is_disabled": 0, "is_reserved": 0}, {"rental_uris": {"ios": "https://dc.lft.to/lastmile_qr_scan", "android": "https://dc.lft.to/lastmile_qr_scan"}, "lon": -77.015303, "type": "electric_scooter", "fusion_lat": 0.0, "lat": 38.898121333333336, "name": "979e9f70b71947b7e10871b3cc73ad5f", "fusion_lon": 0.0, "bike_id": "979e9f70b71947b7e10871b3cc73ad5f", "is_disabled": 0, "is_reserved": 0}, {"rental_uris": {"ios": "https://dc.lft.to/lastmile_qr_scan", "android": "https://dc.lft.to/lastmile_qr_scan"}, "lon": -76.9977735, "type": "electric_scooter", "fusion_lat": 0.0, "lat": 38.84424966666667, "name": "1f7197bcc761ec24db3fbaf87aeea532", "fusion_lon": 0.0, "bike_id": "1f7197bcc761ec24db3fbaf87aeea532", "is_disabled": 0, "is_reserved": 0}, {"rental_uris": {"ios": "https://dc.lft.to/lastmile_qr_scan", "android": "https://dc.lft.to/lastmile_qr_scan"}, "lon": -77.04084133333333, "type": "electric_scooter", "fusion_lat": 0.0, "lat": 38.90571033333333, "name": "c057b33a7c8c3c7d857d379bc5e9636b", "fusion_lon": 0.0, "bike_id": "c057b33a7c8c3c7d857d379bc5e9636b", "is_disabled": 0, "is_reserved": 0}, {"rental_uris": {"ios": "https://dc.lft.to/lastmile_qr_scan", "android": "https://dc.lft.to/lastmile_qr_scan"}, "lon": -76.94985566666666, "type": "electric_scooter", "fusion_lat": 0.0, "lat": 38.893652333333335, "name": "6ae44ef7eaf685d8689bb289ba485711", "fusion_lon": 0.0, "bike_id": "6ae44ef7eaf685d8689bb289ba485711", "is_disabled": 0, "is_reserved": 0}, {"rental_uris": {"ios": "https://dc.lft.to/lastmile_qr_scan", "android": "https://dc.lft.to/lastmile_qr_scan"}, "lon": -77.02972416666667, "type": "electric_scooter", "fusion_lat": 0.0, "lat": 38.9004645, "name": "f1d16be4f0630a21ebb8f1f266379143", "fusion_lon": 0.0, "bike_id": "f1d16be4f0630a21ebb8f1f266379143", "is_disabled": 0, "is_reserved": 0}, {"rental_uris": {"ios": "https://dc.lft.to/lastmile_qr_scan", "android": "https://dc.lft.to/lastmile_qr_scan"}, "lon": -77.00221466666666, "type": "electric_scooter", "fusion_lat": 0.0, "lat": 38.908317, "name": "4631a8d6128ae3d0faf6cee58439a790", "fusion_lon": 0.0, "bike_id": "4631a8d6128ae3d0faf6cee58439a790", "is_disabled": 0, "is_reserved": 0}, {"rental_uris": {"ios": "https://dc.lft.to/lastmile_qr_scan", "android": "https://dc.lft.to/lastmile_qr_scan"}, "lon": -77.0186025, "type": "electric_scooter", "fusion_lat": 0.0, "lat": 38.91573733333333, "name": "3ed84a67ae73105a96e6e6df810015ce", "fusion_lon": 0.0, "bike_id": "3ed84a67ae73105a96e6e6df810015ce", "is_disabled": 0, "is_reserved": 0}, {"rental_uris": {"ios": "https://dc.lft.to/lastmile_qr_scan", "android": "https://dc.lft.to/lastmile_qr_scan"}, "lon": -76.9574395, "type": "electric_scooter", "fusion_lat": 0.0, "lat": 38.8921795, "name": "52022fa26d49b84474b558de98130ba8", "fusion_lon": 0.0, "bike_id": "52022fa26d49b84474b558de98130ba8", "is_disabled": 0, "is_reserved": 0}, {"rental_uris": {"ios": "https://dc.lft.to/lastmile_qr_scan", "android": "https://dc.lft.to/lastmile_qr_scan"}, "lon": -76.99998316666667, "type": "electric_bike", "fusion_lat": 0.0, "lat": 38.923928, "name": "04f151f339b98295dd19e7f8b74f37dc", "fusion_lon": 0.0, "bike_id": "04f151f339b98295dd19e7f8b74f37dc", "is_disabled": 0, "is_reserved": 0}, {"rental_uris": {"ios": "https://dc.lft.to/lastmile_qr_scan", "android": "https://dc.lft.to/lastmile_qr_scan"}, "lon": -77.03505616666666, "type": "electric_scooter", "fusion_lat": 0.0, "lat": 38.9215425, "name": "d5d74485f93f297cf1c985511b5f393c", "fusion_lon": 0.0, "bike_id": "d5d74485f93f297cf1c985511b5f393c", "is_disabled": 0, "is_reserved": 0}, {"rental_uris": {"ios": "https://dc.lft.to/lastmile_qr_scan", "android": "https://dc.lft.to/lastmile_qr_scan"}, "lon": -77.04866333333334, "type": "electric_scooter", "fusion_lat": 0.0, "lat": 38.903127, "name": "db0afdb134c5c5ef48a97fe006b7e128", "fusion_lon": 0.0, "bike_id": "db0afdb134c5c5ef48a97fe006b7e128", "is_disabled": 0, "is_reserved": 0}, {"rental_uris": {"ios": "https://dc.lft.to/lastmile_qr_scan", "android": "https://dc.lft.to/lastmile_qr_scan"}, "lon": -77.131806, "type": "electric_bike", "fusion_lat": 0.0, "lat": 38.8690585, "name": "5ff1833660e58b33ae6007f4d8bf709f", "fusion_lon": 0.0, "bike_id": "5ff1833660e58b33ae6007f4d8bf709f", "is_disabled": 0, "is_reserved": 0}, {"rental_uris": {"ios": "https://dc.lft.to/lastmile_qr_scan", "android": "https://dc.lft.to/lastmile_qr_scan"}, "lon": -77.03623283333333, "type": "electric_scooter", "fusion_lat": 0.0, "lat": 38.9368385, "name": "bfed2e287faf2b62e6796d07ec9524df", "fusion_lon": 0.0, "bike_id": "bfed2e287faf2b62e6796d07ec9524df", "is_disabled": 0, "is_reserved": 0}, {"rental_uris": {"ios": "https://dc.lft.to/lastmile_qr_scan", "android": "https://dc.lft.to/lastmile_qr_scan"}, "lon": -77.05318183333333, "type": "electric_scooter", "fusion_lat": 0.0, "lat": 38.90293116666667, "name": "9401b8e165e164098fcc53e4eb416ce2", "fusion_lon": 0.0, "bike_id": "9401b8e165e164098fcc53e4eb416ce2", "is_disabled": 0, "is_reserved": 0}, {"rental_uris": {"ios": "https://dc.lft.to/lastmile_qr_scan", "android": "https://dc.lft.to/lastmile_qr_scan"}, "lon": -77.05081316666667, "type": "electric_scooter", "fusion_lat": 0.0, "lat": 38.9003405, "name": "af1a022c466030a834381114971f56ff", "fusion_lon": 0.0, "bike_id": "af1a022c466030a834381114971f56ff", "is_disabled": 0, "is_reserved": 0}, {"rental_uris": {"ios": "https://dc.lft.to/lastmile_qr_scan", "android": "https://dc.lft.to/lastmile_qr_scan"}, "lon": -76.97441666666667, "type": "electric_bike", "fusion_lat": 0.0, "lat": 38.864018, "name": "f0f120a8e5acd9c6536d35fd7f8438c7", "fusion_lon": 0.0, "bike_id": "f0f120a8e5acd9c6536d35fd7f8438c7", "is_disabled": 0, "is_reserved": 0}, {"rental_uris": {"ios": "https://dc.lft.to/lastmile_qr_scan", "android": "https://dc.lft.to/lastmile_qr_scan"}, "lon": -76.97724566666666, "type": "electric_scooter", "fusion_lat": 0.0, "lat": 38.87291666666667, "name": "dd39c87850a0bd046c537b06cc1b69c3", "fusion_lon": 0.0, "bike_id": "dd39c87850a0bd046c537b06cc1b69c3", "is_disabled": 0, "is_reserved": 0}, {"rental_uris": {"ios": "https://dc.lft.to/lastmile_qr_scan", "android": "https://dc.lft.to/lastmile_qr_scan"}, "lon": -77.03583933333333, "type": "electric_scooter", "fusion_lat": 0.0, "lat": 38.93243733333333, "name": "b3458c2e08ee14a7ec7b157f8cb25f43", "fusion_lon": 0.0, "bike_id": "b3458c2e08ee14a7ec7b157f8cb25f43", "is_disabled": 0, "is_reserved": 0}, {"rental_uris": {"ios": "https://dc.lft.to/lastmile_qr_scan", "android": "https://dc.lft.to/lastmile_qr_scan"}, "lon": -77.03770166666666, "type": "electric_bike", "fusion_lat": 0.0, "lat": 38.996787166666664, "name": "4575e387df5a7896be2189d71a1a8cb7", "fusion_lon": 0.0, "bike_id": "4575e387df5a7896be2189d71a1a8cb7", "is_disabled": 0, "is_reserved": 0}, {"rental_uris": {"ios": "https://dc.lft.to/lastmile_qr_scan", "android": "https://dc.lft.to/lastmile_qr_scan"}, "lon": -77.12902, "type": "electric_bike", "fusion_lat": 0.0, "lat": 38.863783, "name": "54ad78f00d692abced3430116e48b6b7", "fusion_lon": 0.0, "bike_id": "54ad78f00d692abced3430116e48b6b7", "is_disabled": 0, "is_reserved": 0}, {"rental_uris": {"ios": "https://dc.lft.to/lastmile_qr_scan", "android": "https://dc.lft.to/lastmile_qr_scan"}, "lon": -77.03782983333333, "type": "electric_scooter", "fusion_lat": 0.0, "lat": 38.90558083333333, "name": "ea5deeb5fe6d3e388e17ffbc89323e31", "fusion_lon": 0.0, "bike_id": "ea5deeb5fe6d3e388e17ffbc89323e31", "is_disabled": 0, "is_reserved": 0}, {"rental_uris": {"ios": "https://dc.lft.to/lastmile_qr_scan", "android": "https://dc.lft.to/lastmile_qr_scan"}, "lon": -77.05294883333333, "type": "electric_scooter", "fusion_lat": 0.0, "lat": 38.92785, "name": "c416a9884c91b7b9e57dcb62b6fe2c4c", "fusion_lon": 0.0, "bike_id": "c416a9884c91b7b9e57dcb62b6fe2c4c", "is_disabled": 0, "is_reserved": 0}, {"rental_uris": {"ios": "https://dc.lft.to/lastmile_qr_scan", "android": "https://dc.lft.to/lastmile_qr_scan"}, "lon": -77.0322455, "type": "electric_scooter", "fusion_lat": 0.0, "lat": 38.92670966666667, "name": "4a6d1ad5c008bbf9d8019bfbf35872f3", "fusion_lon": 0.0, "bike_id": "4a6d1ad5c008bbf9d8019bfbf35872f3", "is_disabled": 0, "is_reserved": 0}, {"rental_uris": {"ios": "https://dc.lft.to/lastmile_qr_scan", "android": "https://dc.lft.to/lastmile_qr_scan"}, "lon": -77.03803616666667, "type": "electric_scooter", "fusion_lat": 0.0, "lat": 38.935981, "name": "6a1e81c784a4944c6d367061bb4f8dcb", "fusion_lon": 0.0, "bike_id": "6a1e81c784a4944c6d367061bb4f8dcb", "is_disabled": 0, "is_reserved": 0}, {"rental_uris": {"ios": "https://dc.lft.to/lastmile_qr_scan", "android": "https://dc.lft.to/lastmile_qr_scan"}, "lon": -77.04884866666667, "type": "electric_scooter", "fusion_lat": 0.0, "lat": 38.90309833333333, "name": "8b6aeecff916f2eb5235b17ca2b2a000", "fusion_lon": 0.0, "bike_id": "8b6aeecff916f2eb5235b17ca2b2a000", "is_disabled": 0, "is_reserved": 0}, {"rental_uris": {"ios": "https://dc.lft.to/lastmile_qr_scan", "android": "https://dc.lft.to/lastmile_qr_scan"}, "lon": -76.97183683333333, "type": "electric_scooter", "fusion_lat": 0.0, "lat": 38.917601833333336, "name": "06b514838223ee90ed234dbf94fd5164", "fusion_lon": 0.0, "bike_id": "06b514838223ee90ed234dbf94fd5164", "is_disabled": 0, "is_reserved": 0}, {"rental_uris": {"ios": "https://dc.lft.to/lastmile_qr_scan", "android": "https://dc.lft.to/lastmile_qr_scan"}, "lon": -77.0326985, "type": "electric_scooter", "fusion_lat": 0.0, "lat": 38.93235116666666, "name": "cc48c09cba04543d70dc8b664c07628e", "fusion_lon": 0.0, "bike_id": "cc48c09cba04543d70dc8b664c07628e", "is_disabled": 0, "is_reserved": 0}, {"rental_uris": {"ios": "https://dc.lft.to/lastmile_qr_scan", "android": "https://dc.lft.to/lastmile_qr_scan"}, "lon": -76.98955633333334, "type": "electric_scooter", "fusion_lat": 0.0, "lat": 38.900309, "name": "f8ad8e8f39206b5dd1e3df710663aefa", "fusion_lon": 0.0, "bike_id": "f8ad8e8f39206b5dd1e3df710663aefa", "is_disabled": 0, "is_reserved": 0}, {"rental_uris": {"ios": "https://dc.lft.to/lastmile_qr_scan", "android": "https://dc.lft.to/lastmile_qr_scan"}, "lon": -77.04812516666667, "type": "electric_scooter", "fusion_lat": 0.0, "lat": 38.92022383333333, "name": "b191be12021d1ec7563fe56c95e28d90", "fusion_lon": 0.0, "bike_id": "b191be12021d1ec7563fe56c95e28d90", "is_disabled": 0, "is_reserved": 0}, {"rental_uris": {"ios": "https://dc.lft.to/lastmile_qr_scan", "android": "https://dc.lft.to/lastmile_qr_scan"}, "lon": -77.00067483333333, "type": "electric_scooter", "fusion_lat": 0.0, "lat": 38.92545333333333, "name": "e497224190bf90bb00e1660d577f856c", "fusion_lon": 0.0, "bike_id": "e497224190bf90bb00e1660d577f856c", "is_disabled": 0, "is_reserved": 0}, {"rental_uris": {"ios": "https://dc.lft.to/lastmile_qr_scan", "android": "https://dc.lft.to/lastmile_qr_scan"}, "lon": -77.00562533333333, "type": "electric_scooter", "fusion_lat": 0.0, "lat": 38.9056825, "name": "eada0a85462f580e24fc9a2e676030a7", "fusion_lon": 0.0, "bike_id": "eada0a85462f580e24fc9a2e676030a7", "is_disabled": 0, "is_reserved": 0}, {"rental_uris": {"ios": "https://dc.lft.to/lastmile_qr_scan", "android": "https://dc.lft.to/lastmile_qr_scan"}, "lon": -77.02338833333333, "type": "electric_scooter", "fusion_lat": 0.0, "lat": 38.930496, "name": "7fb500abd88ffa942c2cf2971c80a4b1", "fusion_lon": 0.0, "bike_id": "7fb500abd88ffa942c2cf2971c80a4b1", "is_disabled": 0, "is_reserved": 0}, {"rental_uris": {"ios": "https://dc.lft.to/lastmile_qr_scan", "android": "https://dc.lft.to/lastmile_qr_scan"}, "lon": -77.04011533333333, "type": "electric_scooter", "fusion_lat": 0.0, "lat": 38.932545833333336, "name": "3e5be81601a36eaac948e257c91de91e", "fusion_lon": 0.0, "bike_id": "3e5be81601a36eaac948e257c91de91e", "is_disabled": 0, "is_reserved": 0}, {"rental_uris": {"ios": "https://dc.lft.to/lastmile_qr_scan", "android": "https://dc.lft.to/lastmile_qr_scan"}, "lon": -77.03726116666667, "type": "electric_scooter", "fusion_lat": 0.0, "lat": 38.91038316666667, "name": "34e0987c5e0e038c34f9e24552645e57", "fusion_lon": 0.0, "bike_id": "34e0987c5e0e038c34f9e24552645e57", "is_disabled": 0, "is_reserved": 0}, {"rental_uris": {"ios": "https://dc.lft.to/lastmile_qr_scan", "android": "https://dc.lft.to/lastmile_qr_scan"}, "lon": -76.99670083333334, "type": "electric_scooter", "fusion_lat": 0.0, "lat": 38.900298166666666, "name": "f059eb43767143de233eead3b35fd8a5", "fusion_lon": 0.0, "bike_id": "f059eb43767143de233eead3b35fd8a5", "is_disabled": 0, "is_reserved": 0}, {"rental_uris": {"ios": "https://dc.lft.to/lastmile_qr_scan", "android": "https://dc.lft.to/lastmile_qr_scan"}, "lon": -76.98595716666667, "type": "electric_scooter", "fusion_lat": 0.0, "lat": 38.8991945, "name": "bed69e6717c31b165bdd8f2731c63949", "fusion_lon": 0.0, "bike_id": "bed69e6717c31b165bdd8f2731c63949", "is_disabled": 0, "is_reserved": 0}, {"rental_uris": {"ios": "https://dc.lft.to/lastmile_qr_scan", "android": "https://dc.lft.to/lastmile_qr_scan"}, "lon": -77.0298315, "type": "electric_scooter", "fusion_lat": 0.0, "lat": 38.907287833333335, "name": "fb35c458340681ca00685ad7b67a1ae4", "fusion_lon": 0.0, "bike_id": "fb35c458340681ca00685ad7b67a1ae4", "is_disabled": 0, "is_reserved": 0}, {"rental_uris": {"ios": "https://dc.lft.to/lastmile_qr_scan", "android": "https://dc.lft.to/lastmile_qr_scan"}, "lon": -77.0586355, "type": "electric_scooter", "fusion_lat": 0.0, "lat": 38.9360345, "name": "404cf18a1cee7444243069066df8b376", "fusion_lon": 0.0, "bike_id": "404cf18a1cee7444243069066df8b376", "is_disabled": 0, "is_reserved": 0}, {"rental_uris": {"ios": "https://dc.lft.to/lastmile_qr_scan", "android": "https://dc.lft.to/lastmile_qr_scan"}, "lon": -77.06042933333333, "type": "electric_scooter", "fusion_lat": 0.0, "lat": 38.93916, "name": "6e981f7922c94d7c6c3ebf1199fb20bb", "fusion_lon": 0.0, "bike_id": "6e981f7922c94d7c6c3ebf1199fb20bb", "is_disabled": 0, "is_reserved": 0}, {"rental_uris": {"ios": "https://dc.lft.to/lastmile_qr_scan", "android": "https://dc.lft.to/lastmile_qr_scan"}, "lon": -77.0358235, "type": "electric_scooter", "fusion_lat": 0.0, "lat": 38.93230833333333, "name": "b54e947cee91c5ec7e8073575f809215", "fusion_lon": 0.0, "bike_id": "b54e947cee91c5ec7e8073575f809215", "is_disabled": 0, "is_reserved": 0}, {"rental_uris": {"ios": "https://dc.lft.to/lastmile_qr_scan", "android": "https://dc.lft.to/lastmile_qr_scan"}, "lon": -77.06331066666667, "type": "electric_bike", "fusion_lat": 0.0, "lat": 38.921078666666666, "name": "70090b319a700da1fa9c8bd7f312e1c9", "fusion_lon": 0.0, "bike_id": "70090b319a700da1fa9c8bd7f312e1c9", "is_disabled": 0, "is_reserved": 0}, {"rental_uris": {"ios": "https://dc.lft.to/lastmile_qr_scan", "android": "https://dc.lft.to/lastmile_qr_scan"}, "lon": -77.0158115, "type": "electric_scooter", "fusion_lat": 0.0, "lat": 38.89987516666667, "name": "a28549c61560a471bdf513f802e150ad", "fusion_lon": 0.0, "bike_id": "a28549c61560a471bdf513f802e150ad", "is_disabled": 0, "is_reserved": 0}, {"rental_uris": {"ios": "https://dc.lft.to/lastmile_qr_scan", "android": "https://dc.lft.to/lastmile_qr_scan"}, "lon": -77.03216333333333, "type": "electric_scooter", "fusion_lat": 0.0, "lat": 38.916944666666666, "name": "b0090933ce0d7bd5e8d36f7b4ebef468", "fusion_lon": 0.0, "bike_id": "b0090933ce0d7bd5e8d36f7b4ebef468", "is_disabled": 0, "is_reserved": 0}, {"rental_uris": {"ios": "https://dc.lft.to/lastmile_qr_scan", "android": "https://dc.lft.to/lastmile_qr_scan"}, "lon": -77.02170783333334, "type": "electric_scooter", "fusion_lat": 0.0, "lat": 38.94292933333333, "name": "239ed5671fa4221acc089c39c67fb03e", "fusion_lon": 0.0, "bike_id": "239ed5671fa4221acc089c39c67fb03e", "is_disabled": 0, "is_reserved": 0}, {"rental_uris": {"ios": "https://dc.lft.to/lastmile_qr_scan", "android": "https://dc.lft.to/lastmile_qr_scan"}, "lon": -77.048258, "type": "electric_scooter", "fusion_lat": 0.0, "lat": 38.907961, "name": "b57751abd60442c39da9559c5ad2ec49", "fusion_lon": 0.0, "bike_id": "b57751abd60442c39da9559c5ad2ec49", "is_disabled": 0, "is_reserved": 0}, {"rental_uris": {"ios": "https://dc.lft.to/lastmile_qr_scan", "android": "https://dc.lft.to/lastmile_qr_scan"}, "lon": -76.9462955, "type": "electric_scooter", "fusion_lat": 0.0, "lat": 38.8984525, "name": "b6b034e842a257729f595ad9c6b83bd5", "fusion_lon": 0.0, "bike_id": "b6b034e842a257729f595ad9c6b83bd5", "is_disabled": 0, "is_reserved": 0}, {"rental_uris": {"ios": "https://dc.lft.to/lastmile_qr_scan", "android": "https://dc.lft.to/lastmile_qr_scan"}, "lon": -77.01367266666666, "type": "electric_scooter", "fusion_lat": 0.0, "lat": 38.86370066666667, "name": "3666c59c190b372ec83e70fc4cec5c3b", "fusion_lon": 0.0, "bike_id": "3666c59c190b372ec83e70fc4cec5c3b", "is_disabled": 0, "is_reserved": 0}, {"rental_uris": {"ios": "https://dc.lft.to/lastmile_qr_scan", "android": "https://dc.lft.to/lastmile_qr_scan"}, "lon": -76.9945875, "type": "electric_scooter", "fusion_lat": 0.0, "lat": 38.85163933333333, "name": "1b8feb3a64d8c324740333e78b3a29b5", "fusion_lon": 0.0, "bike_id": "1b8feb3a64d8c324740333e78b3a29b5", "is_disabled": 0, "is_reserved": 0}, {"rental_uris": {"ios": "https://dc.lft.to/lastmile_qr_scan", "android": "https://dc.lft.to/lastmile_qr_scan"}, "lon": -76.98600216666667, "type": "electric_scooter", "fusion_lat": 0.0, "lat": 38.87834633333333, "name": "4dc80a26ce1ff023077b0e013f8df2d1", "fusion_lon": 0.0, "bike_id": "4dc80a26ce1ff023077b0e013f8df2d1", "is_disabled": 0, "is_reserved": 0}, {"rental_uris": {"ios": "https://dc.lft.to/lastmile_qr_scan", "android": "https://dc.lft.to/lastmile_qr_scan"}, "lon": -77.08051883333333, "type": "electric_bike", "fusion_lat": 0.0, "lat": 38.84844416666667, "name": "8feccc5ba390663a941ccbe42acc00a8", "fusion_lon": 0.0, "bike_id": "8feccc5ba390663a941ccbe42acc00a8", "is_disabled": 0, "is_reserved": 0}, {"rental_uris": {"ios": "https://dc.lft.to/lastmile_qr_scan", "android": "https://dc.lft.to/lastmile_qr_scan"}, "lon": -76.95750416666667, "type": "electric_scooter", "fusion_lat": 0.0, "lat": 38.884256666666666, "name": "f8015f825eaf49be42acaf15aa7d63eb", "fusion_lon": 0.0, "bike_id": "f8015f825eaf49be42acaf15aa7d63eb", "is_disabled": 0, "is_reserved": 0}, {"rental_uris": {"ios": "https://dc.lft.to/lastmile_qr_scan", "android": "https://dc.lft.to/lastmile_qr_scan"}, "lon": -76.939638, "type": "electric_scooter", "fusion_lat": 0.0, "lat": 38.899673, "name": "00f2ede906d89dc91e11db23190c7ab8", "fusion_lon": 0.0, "bike_id": "00f2ede906d89dc91e11db23190c7ab8", "is_disabled": 0, "is_reserved": 0}, {"rental_uris": {"ios": "https://dc.lft.to/lastmile_qr_scan", "android": "https://dc.lft.to/lastmile_qr_scan"}, "lon": -77.055376, "type": "electric_scooter", "fusion_lat": 0.0, "lat": 38.92519266666667, "name": "0f1e308485cd8decf89ed7028c234c0d", "fusion_lon": 0.0, "bike_id": "0f1e308485cd8decf89ed7028c234c0d", "is_disabled": 0, "is_reserved": 0}, {"rental_uris": {"ios": "https://dc.lft.to/lastmile_qr_scan", "android": "https://dc.lft.to/lastmile_qr_scan"}, "lon": -77.03635866666667, "type": "electric_scooter", "fusion_lat": 0.0, "lat": 38.92419183333333, "name": "d9a8737c70774b152775080d4972d4fb", "fusion_lon": 0.0, "bike_id": "d9a8737c70774b152775080d4972d4fb", "is_disabled": 0, "is_reserved": 0}, {"rental_uris": {"ios": "https://dc.lft.to/lastmile_qr_scan", "android": "https://dc.lft.to/lastmile_qr_scan"}, "lon": -77.0351685, "type": "electric_scooter", "fusion_lat": 0.0, "lat": 38.923352, "name": "b59d3292d6a8c849375eca53176cb5d9", "fusion_lon": 0.0, "bike_id": "b59d3292d6a8c849375eca53176cb5d9", "is_disabled": 0, "is_reserved": 0}, {"rental_uris": {"ios": "https://dc.lft.to/lastmile_qr_scan", "android": "https://dc.lft.to/lastmile_qr_scan"}, "lon": -77.02620783333333, "type": "electric_scooter", "fusion_lat": 0.0, "lat": 38.915247, "name": "b28ea15fd4248f42753936eb3e3c4a56", "fusion_lon": 0.0, "bike_id": "b28ea15fd4248f42753936eb3e3c4a56", "is_disabled": 0, "is_reserved": 0}, {"rental_uris": {"ios": "https://dc.lft.to/lastmile_qr_scan", "android": "https://dc.lft.to/lastmile_qr_scan"}, "lon": -76.9812895, "type": "electric_scooter", "fusion_lat": 0.0, "lat": 38.85709333333333, "name": "7e1e2feb863269eac40bab292827e626", "fusion_lon": 0.0, "bike_id": "7e1e2feb863269eac40bab292827e626", "is_disabled": 0, "is_reserved": 0}, {"rental_uris": {"ios": "https://dc.lft.to/lastmile_qr_scan", "android": "https://dc.lft.to/lastmile_qr_scan"}, "lon": -77.03852566666667, "type": "electric_scooter", "fusion_lat": 0.0, "lat": 38.90780266666667, "name": "e727f3dd0affea10e06aa7be3ef54ab8", "fusion_lon": 0.0, "bike_id": "e727f3dd0affea10e06aa7be3ef54ab8", "is_disabled": 0, "is_reserved": 0}, {"rental_uris": {"ios": "https://dc.lft.to/lastmile_qr_scan", "android": "https://dc.lft.to/lastmile_qr_scan"}, "lon": -76.98750333333334, "type": "electric_scooter", "fusion_lat": 0.0, "lat": 38.91018, "name": "b175421a3991e5042ae8161e5ddd2161", "fusion_lon": 0.0, "bike_id": "b175421a3991e5042ae8161e5ddd2161", "is_disabled": 0, "is_reserved": 0}, {"rental_uris": {"ios": "https://dc.lft.to/lastmile_qr_scan", "android": "https://dc.lft.to/lastmile_qr_scan"}, "lon": -77.05564966666667, "type": "electric_scooter", "fusion_lat": 0.0, "lat": 38.899937333333334, "name": "1ecd8988e179b8cd72e757f5d2f54d54", "fusion_lon": 0.0, "bike_id": "1ecd8988e179b8cd72e757f5d2f54d54", "is_disabled": 0, "is_reserved": 0}, {"rental_uris": {"ios": "https://dc.lft.to/lastmile_qr_scan", "android": "https://dc.lft.to/lastmile_qr_scan"}, "lon": -76.93865383333333, "type": "electric_scooter", "fusion_lat": 0.0, "lat": 38.9007895, "name": "3a897bbb75142d86d0fbe768920b11b5", "fusion_lon": 0.0, "bike_id": "3a897bbb75142d86d0fbe768920b11b5", "is_disabled": 0, "is_reserved": 0}, {"rental_uris": {"ios": "https://dc.lft.to/lastmile_qr_scan", "android": "https://dc.lft.to/lastmile_qr_scan"}, "lon": -77.03565816666666, "type": "electric_scooter", "fusion_lat": 0.0, "lat": 38.93985583333333, "name": "faa335022c0a6b815b5efaff0eac1f27", "fusion_lon": 0.0, "bike_id": "faa335022c0a6b815b5efaff0eac1f27", "is_disabled": 0, "is_reserved": 0}, {"rental_uris": {"ios": "https://dc.lft.to/lastmile_qr_scan", "android": "https://dc.lft.to/lastmile_qr_scan"}, "lon": -77.05475883333334, "type": "electric_scooter", "fusion_lat": 0.0, "lat": 38.91067783333333, "name": "b24e98fc185fc6907360d7626d56a55e", "fusion_lon": 0.0, "bike_id": "b24e98fc185fc6907360d7626d56a55e", "is_disabled": 0, "is_reserved": 0}, {"rental_uris": {"ios": "https://dc.lft.to/lastmile_qr_scan", "android": "https://dc.lft.to/lastmile_qr_scan"}, "lon": -77.11045933333334, "type": "electric_bike", "fusion_lat": 0.0, "lat": 38.870824666666664, "name": "14e2a88a2e94a91a110f521b90f4d96b", "fusion_lon": 0.0, "bike_id": "14e2a88a2e94a91a110f521b90f4d96b", "is_disabled": 0, "is_reserved": 0}, {"rental_uris": {"ios": "https://dc.lft.to/lastmile_qr_scan", "android": "https://dc.lft.to/lastmile_qr_scan"}, "lon": -76.99000616666666, "type": "electric_scooter", "fusion_lat": 0.0, "lat": 38.865057666666665, "name": "1ee603ad9c1d041b21f0b6a5bf5a319f", "fusion_lon": 0.0, "bike_id": "1ee603ad9c1d041b21f0b6a5bf5a319f", "is_disabled": 0, "is_reserved": 0}, {"rental_uris": {"ios": "https://dc.lft.to/lastmile_qr_scan", "android": "https://dc.lft.to/lastmile_qr_scan"}, "lon": -77.02981833333334, "type": "electric_scooter", "fusion_lat": 0.0, "lat": 38.9072845, "name": "70bc74266bdb9e1092b9dfeedd7d108e", "fusion_lon": 0.0, "bike_id": "70bc74266bdb9e1092b9dfeedd7d108e", "is_disabled": 0, "is_reserved": 0}, {"rental_uris": {"ios": "https://dc.lft.to/lastmile_qr_scan", "android": "https://dc.lft.to/lastmile_qr_scan"}, "lon": -76.98022783333333, "type": "electric_scooter", "fusion_lat": 0.0, "lat": 38.887635833333334, "name": "6c07138c93aacc6a49e307dd142539ad", "fusion_lon": 0.0, "bike_id": "6c07138c93aacc6a49e307dd142539ad", "is_disabled": 0, "is_reserved": 0}, {"rental_uris": {"ios": "https://dc.lft.to/lastmile_qr_scan", "android": "https://dc.lft.to/lastmile_qr_scan"}, "lon": -77.00735966666667, "type": "electric_scooter", "fusion_lat": 0.0, "lat": 38.91624366666667, "name": "58262719d2e8e71be4e15d89bc398f48", "fusion_lon": 0.0, "bike_id": "58262719d2e8e71be4e15d89bc398f48", "is_disabled": 0, "is_reserved": 0}, {"rental_uris": {"ios": "https://dc.lft.to/lastmile_qr_scan", "android": "https://dc.lft.to/lastmile_qr_scan"}, "lon": -77.007118, "type": "electric_scooter", "fusion_lat": 0.0, "lat": 38.9057045, "name": "c97924a46b3e40b64f804f9bf2bd7b2e", "fusion_lon": 0.0, "bike_id": "c97924a46b3e40b64f804f9bf2bd7b2e", "is_disabled": 0, "is_reserved": 0}, {"rental_uris": {"ios": "https://dc.lft.to/lastmile_qr_scan", "android": "https://dc.lft.to/lastmile_qr_scan"}, "lon": -77.01739633333334, "type": "electric_scooter", "fusion_lat": 0.0, "lat": 38.877010166666665, "name": "db0555e14203285017bc61f9b1dc61e8", "fusion_lon": 0.0, "bike_id": "db0555e14203285017bc61f9b1dc61e8", "is_disabled": 0, "is_reserved": 0}, {"rental_uris": {"ios": "https://dc.lft.to/lastmile_qr_scan", "android": "https://dc.lft.to/lastmile_qr_scan"}, "lon": -77.0222575, "type": "electric_bike", "fusion_lat": 0.0, "lat": 38.95688533333333, "name": "6eccb481ea00965bc67eaa886a9a26bc", "fusion_lon": 0.0, "bike_id": "6eccb481ea00965bc67eaa886a9a26bc", "is_disabled": 0, "is_reserved": 0}, {"rental_uris": {"ios": "https://dc.lft.to/lastmile_qr_scan", "android": "https://dc.lft.to/lastmile_qr_scan"}, "lon": -77.03189133333333, "type": "electric_scooter", "fusion_lat": 0.0, "lat": 38.929475833333335, "name": "c1bcb59c38543248c2c17fc5b6d216c2", "fusion_lon": 0.0, "bike_id": "c1bcb59c38543248c2c17fc5b6d216c2", "is_disabled": 0, "is_reserved": 0}, {"rental_uris": {"ios": "https://dc.lft.to/lastmile_qr_scan", "android": "https://dc.lft.to/lastmile_qr_scan"}, "lon": -76.97268816666667, "type": "electric_bike", "fusion_lat": 0.0, "lat": 38.919723166666664, "name": "849f3b74b09018320f2554405e6a5bdc", "fusion_lon": 0.0, "bike_id": "849f3b74b09018320f2554405e6a5bdc", "is_disabled": 0, "is_reserved": 0}, {"rental_uris": {"ios": "https://dc.lft.to/lastmile_qr_scan", "android": "https://dc.lft.to/lastmile_qr_scan"}, "lon": -77.03286733333333, "type": "electric_scooter", "fusion_lat": 0.0, "lat": 38.928601666666665, "name": "8a773effe2aca7272d817565cac53c6d", "fusion_lon": 0.0, "bike_id": "8a773effe2aca7272d817565cac53c6d", "is_disabled": 0, "is_reserved": 0}, {"rental_uris": {"ios": "https://dc.lft.to/lastmile_qr_scan", "android": "https://dc.lft.to/lastmile_qr_scan"}, "lon": -77.08254166666667, "type": "electric_scooter", "fusion_lat": 0.0, "lat": 38.9358335, "name": "c27a8052a8429a9838931ac8aea55961", "fusion_lon": 0.0, "bike_id": "c27a8052a8429a9838931ac8aea55961", "is_disabled": 0, "is_reserved": 0}, {"rental_uris": {"ios": "https://dc.lft.to/lastmile_qr_scan", "android": "https://dc.lft.to/lastmile_qr_scan"}, "lon": -77.03147783333333, "type": "electric_scooter", "fusion_lat": 0.0, "lat": 38.91560233333333, "name": "c540e8107bf2d59090358b572b66978e", "fusion_lon": 0.0, "bike_id": "c540e8107bf2d59090358b572b66978e", "is_disabled": 0, "is_reserved": 0}, {"rental_uris": {"ios": "https://dc.lft.to/lastmile_qr_scan", "android": "https://dc.lft.to/lastmile_qr_scan"}, "lon": -77.04045033333334, "type": "electric_scooter", "fusion_lat": 0.0, "lat": 38.9246795, "name": "0bfe480823153f057f2249bbb4d64c82", "fusion_lon": 0.0, "bike_id": "0bfe480823153f057f2249bbb4d64c82", "is_disabled": 0, "is_reserved": 0}, {"rental_uris": {"ios": "https://dc.lft.to/lastmile_qr_scan", "android": "https://dc.lft.to/lastmile_qr_scan"}, "lon": -77.02375716666667, "type": "electric_scooter", "fusion_lat": 0.0, "lat": 38.936961833333335, "name": "a6c9adc0c3aaf9de5b17e0ac567a1794", "fusion_lon": 0.0, "bike_id": "a6c9adc0c3aaf9de5b17e0ac567a1794", "is_disabled": 0, "is_reserved": 0}, {"rental_uris": {"ios": "https://dc.lft.to/lastmile_qr_scan", "android": "https://dc.lft.to/lastmile_qr_scan"}, "lon": -77.03224433333334, "type": "electric_scooter", "fusion_lat": 0.0, "lat": 38.925863, "name": "fd695f65d609b26fe6da4fcd1d4d2bda", "fusion_lon": 0.0, "bike_id": "fd695f65d609b26fe6da4fcd1d4d2bda", "is_disabled": 0, "is_reserved": 0}, {"rental_uris": {"ios": "https://dc.lft.to/lastmile_qr_scan", "android": "https://dc.lft.to/lastmile_qr_scan"}, "lon": -77.01106933333334, "type": "electric_scooter", "fusion_lat": 0.0, "lat": 38.90352983333333, "name": "9a9f2cd5383b1279b53353b80dcda15d", "fusion_lon": 0.0, "bike_id": "9a9f2cd5383b1279b53353b80dcda15d", "is_disabled": 0, "is_reserved": 0}, {"rental_uris": {"ios": "https://dc.lft.to/lastmile_qr_scan", "android": "https://dc.lft.to/lastmile_qr_scan"}, "lon": -77.02446133333333, "type": "electric_scooter", "fusion_lat": 0.0, "lat": 38.938306833333336, "name": "607ea7baa655bbabab8fba778c3e9f03", "fusion_lon": 0.0, "bike_id": "607ea7baa655bbabab8fba778c3e9f03", "is_disabled": 0, "is_reserved": 0}, {"rental_uris": {"ios": "https://dc.lft.to/lastmile_qr_scan", "android": "https://dc.lft.to/lastmile_qr_scan"}, "lon": -77.03643133333334, "type": "electric_scooter", "fusion_lat": 0.0, "lat": 38.917353166666665, "name": "6f4662056bea67281657160878b92615", "fusion_lon": 0.0, "bike_id": "6f4662056bea67281657160878b92615", "is_disabled": 0, "is_reserved": 0}, {"rental_uris": {"ios": "https://dc.lft.to/lastmile_qr_scan", "android": "https://dc.lft.to/lastmile_qr_scan"}, "lon": -76.96526666666666, "type": "electric_scooter", "fusion_lat": 0.0, "lat": 38.87627483333333, "name": "ab31404edcf21d70e4a0a03425f7598c", "fusion_lon": 0.0, "bike_id": "ab31404edcf21d70e4a0a03425f7598c", "is_disabled": 0, "is_reserved": 0}, {"rental_uris": {"ios": "https://dc.lft.to/lastmile_qr_scan", "android": "https://dc.lft.to/lastmile_qr_scan"}, "lon": -76.94752683333333, "type": "electric_scooter", "fusion_lat": 0.0, "lat": 38.90059933333333, "name": "41acb749aee250d7ccd37f5cded4dcf2", "fusion_lon": 0.0, "bike_id": "41acb749aee250d7ccd37f5cded4dcf2", "is_disabled": 0, "is_reserved": 0}, {"rental_uris": {"ios": "https://dc.lft.to/lastmile_qr_scan", "android": "https://dc.lft.to/lastmile_qr_scan"}, "lon": -77.04483816666666, "type": "electric_bike", "fusion_lat": 0.0, "lat": 38.912912, "name": "12ff38c45e6fb2d9b81e67a1c353fc50", "fusion_lon": 0.0, "bike_id": "12ff38c45e6fb2d9b81e67a1c353fc50", "is_disabled": 0, "is_reserved": 0}, {"rental_uris": {"ios": "https://dc.lft.to/lastmile_qr_scan", "android": "https://dc.lft.to/lastmile_qr_scan"}, "lon": -77.03177716666667, "type": "electric_scooter", "fusion_lat": 0.0, "lat": 38.91797366666667, "name": "fbf5a8b94c348139a5271ce6932e6759", "fusion_lon": 0.0, "bike_id": "fbf5a8b94c348139a5271ce6932e6759", "is_disabled": 0, "is_reserved": 0}, {"rental_uris": {"ios": "https://dc.lft.to/lastmile_qr_scan", "android": "https://dc.lft.to/lastmile_qr_scan"}, "lon": -77.05589633333334, "type": "electric_scooter", "fusion_lat": 0.0, "lat": 38.9051185, "name": "22ef1d7e46b7bd1b9b73b561c3c39b5e", "fusion_lon": 0.0, "bike_id": "22ef1d7e46b7bd1b9b73b561c3c39b5e", "is_disabled": 0, "is_reserved": 0}, {"rental_uris": {"ios": "https://dc.lft.to/lastmile_qr_scan", "android": "https://dc.lft.to/lastmile_qr_scan"}, "lon": -77.0285245, "type": "electric_scooter", "fusion_lat": 0.0, "lat": 38.95085433333333, "name": "d548a7c2cc4ef76c1eb1ccdb785eba88", "fusion_lon": 0.0, "bike_id": "d548a7c2cc4ef76c1eb1ccdb785eba88", "is_disabled": 0, "is_reserved": 0}, {"rental_uris": {"ios": "https://dc.lft.to/lastmile_qr_scan", "android": "https://dc.lft.to/lastmile_qr_scan"}, "lon": -77.00428233333334, "type": "electric_scooter", "fusion_lat": 0.0, "lat": 38.90398233333333, "name": "0c0d8e114b40d1bd2ca850a975ba4ddc", "fusion_lon": 0.0, "bike_id": "0c0d8e114b40d1bd2ca850a975ba4ddc", "is_disabled": 0, "is_reserved": 0}, {"rental_uris": {"ios": "https://dc.lft.to/lastmile_qr_scan", "android": "https://dc.lft.to/lastmile_qr_scan"}, "lon": -76.96506133333334, "type": "electric_scooter", "fusion_lat": 0.0, "lat": 38.8764805, "name": "a85e9df5b06de8ce6f92e6062823cc0a", "fusion_lon": 0.0, "bike_id": "a85e9df5b06de8ce6f92e6062823cc0a", "is_disabled": 0, "is_reserved": 0}, {"rental_uris": {"ios": "https://dc.lft.to/lastmile_qr_scan", "android": "https://dc.lft.to/lastmile_qr_scan"}, "lon": -76.93834, "type": "electric_scooter", "fusion_lat": 0.0, "lat": 38.89763933333333, "name": "5695e329e271bfcc11179d14ff3d51f2", "fusion_lon": 0.0, "bike_id": "5695e329e271bfcc11179d14ff3d51f2", "is_disabled": 0, "is_reserved": 0}, {"rental_uris": {"ios": "https://dc.lft.to/lastmile_qr_scan", "android": "https://dc.lft.to/lastmile_qr_scan"}, "lon": -77.03507283333333, "type": "electric_scooter", "fusion_lat": 0.0, "lat": 38.92148866666667, "name": "3a3cdd800e9d03335bbc8e6896ed7d2d", "fusion_lon": 0.0, "bike_id": "3a3cdd800e9d03335bbc8e6896ed7d2d", "is_disabled": 0, "is_reserved": 0}, {"rental_uris": {"ios": "https://dc.lft.to/lastmile_qr_scan", "android": "https://dc.lft.to/lastmile_qr_scan"}, "lon": -77.0434585, "type": "electric_scooter", "fusion_lat": 0.0, "lat": 38.926725166666664, "name": "0bff626a43b8201382b39209ceb46464", "fusion_lon": 0.0, "bike_id": "0bff626a43b8201382b39209ceb46464", "is_disabled": 0, "is_reserved": 0}, {"rental_uris": {"ios": "https://dc.lft.to/lastmile_qr_scan", "android": "https://dc.lft.to/lastmile_qr_scan"}, "lon": -77.03028216666667, "type": "electric_scooter", "fusion_lat": 0.0, "lat": 38.897442833333336, "name": "bbecb72ef7d8e85ee4f6cbd787353b48", "fusion_lon": 0.0, "bike_id": "bbecb72ef7d8e85ee4f6cbd787353b48", "is_disabled": 0, "is_reserved": 0}, {"rental_uris": {"ios": "https://dc.lft.to/lastmile_qr_scan", "android": "https://dc.lft.to/lastmile_qr_scan"}, "lon": -77.0274785, "type": "electric_scooter", "fusion_lat": 0.0, "lat": 38.92308833333333, "name": "7b79d90f5a799ab7fba19e104c5f9d00", "fusion_lon": 0.0, "bike_id": "7b79d90f5a799ab7fba19e104c5f9d00", "is_disabled": 0, "is_reserved": 0}, {"rental_uris": {"ios": "https://dc.lft.to/lastmile_qr_scan", "android": "https://dc.lft.to/lastmile_qr_scan"}, "lon": -77.028424, "type": "electric_scooter", "fusion_lat": 0.0, "lat": 38.925711166666666, "name": "e5d919eeb642e6f03577e3324d48d054", "fusion_lon": 0.0, "bike_id": "e5d919eeb642e6f03577e3324d48d054", "is_disabled": 0, "is_reserved": 0}, {"rental_uris": {"ios": "https://dc.lft.to/lastmile_qr_scan", "android": "https://dc.lft.to/lastmile_qr_scan"}, "lon": -77.04856333333333, "type": "electric_scooter", "fusion_lat": 0.0, "lat": 38.90069716666667, "name": "fa1477859ef1fc3aa9824ec26d7cecd4", "fusion_lon": 0.0, "bike_id": "fa1477859ef1fc3aa9824ec26d7cecd4", "is_disabled": 0, "is_reserved": 0}, {"rental_uris": {"ios": "https://dc.lft.to/lastmile_qr_scan", "android": "https://dc.lft.to/lastmile_qr_scan"}, "lon": -76.916532, "type": "electric_bike", "fusion_lat": 0.0, "lat": 38.86862566666667, "name": "66355258f463b27e64d232b94e2a30cf", "fusion_lon": 0.0, "bike_id": "66355258f463b27e64d232b94e2a30cf", "is_disabled": 0, "is_reserved": 0}, {"rental_uris": {"ios": "https://dc.lft.to/lastmile_qr_scan", "android": "https://dc.lft.to/lastmile_qr_scan"},