{"data": {"bikes": [{"type": "electric_scooter", "name": "6483c4d62622a6300249818b8f8bc709", "rental_uris": {"ios": "https://dc.lft.to/lastmile_qr_scan", "android": "https://dc.lft.to/lastmile_qr_scan"}, "fusion_lon": 0.0, "lat": 38.908577, "is_disabled": 0, "bike_id": "6483c4d62622a6300249818b8f8bc709", "fusion_lat": 0.0, "is_reserved": 0, "lon": -76.9979575}, {"type": "electric_scooter", "name": "6e8ebe18bfa00c17cde720b0db4966bd", "rental_uris": {"ios": "https://dc.lft.to/lastmile_qr_scan", "android": "https://dc.lft.to/lastmile_qr_scan"}, "fusion_lon": 0.0, "lat": 38.915059166666666, "is_disabled": 0, "bike_id": "6e8ebe18bfa00c17cde720b0db4966bd", "fusion_lat": 0.0, "is_reserved": 0, "lon": -77.03825916666666}, {"type": "electric_scooter", "name": "0448368f85ce3911705cf0d304d5a3df", "rental_uris": {"ios": "https://dc.lft.to/lastmile_qr_scan", "android": "https://dc.lft.to/lastmile_qr_scan"}, "fusion_lon": 0.0, "lat": 38.912556, "is_disabled": 0, "bike_id": "0448368f85ce3911705cf0d304d5a3df", "fusion_lat": 0.0, "is_reserved": 0, "lon": -77.01910966666667}, {"type": "electric_scooter", "name": "dfb6078fc1a8b5bc335fbd7dbfbc6bfb", "rental_uris": {"ios": "https://dc.lft.to/lastmile_qr_scan", "android": "https://dc.lft.to/lastmile_qr_scan"}, "fusion_lon": 0.0, "lat": 38.9078365, "is_disabled": 0, "bike_id": "dfb6078fc1a8b5bc335fbd7dbfbc6bfb", "fusion_lat": 0.0, "is_reserved": 0, "lon": -77.03996166666667}, {"type": "electric_scooter", "name": "54483f985466e6e4c6a4724bd7f3ce20", "rental_uris": {"ios": "https://dc.lft.to/lastmile_qr_scan", "android": "https://dc.lft.to/lastmile_qr_scan"}, "fusion_lon": 0.0, "lat": 38.909765666666665, "is_disabled": 0, "bike_id": "54483f985466e6e4c6a4724bd7f3ce20", "fusion_lat": 0.0, "is_reserved": 0, "lon": -77.034372}, {"type": "electric_scooter", "name": "6a49bd2fa95b0b1c411dbcbf5f367ee2", "rental_uris": {"ios": "https://dc.lft.to/lastmile_qr_scan", "android": "https://dc.lft.to/lastmile_qr_scan"}, "fusion_lon": 0.0, "lat": 38.915707, "is_disabled": 0, "bike_id": "6a49bd2fa95b0b1c411dbcbf5f367ee2", "fusion_lat": 0.0, "is_reserved": 0, "lon": -77.03849416666667}, {"type": "electric_scooter", "name": "857ff1bf28df1040f9ddb96566a4264a", "rental_uris": {"ios": "https://dc.lft.to/lastmile_qr_scan", "android": "https://dc.lft.to/lastmile_qr_scan"}, "fusion_lon": 0.0, "lat": 38.90408383333333, "is_disabled": 0, "bike_id": "857ff1bf28df1040f9ddb96566a4264a", "fusion_lat": 0.0, "is_reserved": 0, "lon": -76.97331516666667}, {"type": "electric_scooter", "name": "03475b2c641315a912075f97e0d2a6d7", "rental_uris": {"ios": "https://dc.lft.to/lastmile_qr_scan", "android": "https://dc.lft.to/lastmile_qr_scan"}, "fusion_lon": 0.0, "lat": 38.9170625, "is_disabled": 0, "bike_id": "03475b2c641315a912075f97e0d2a6d7", "fusion_lat": 0.0, "is_reserved": 0, "lon": -77.0347155}, {"type": "electric_scooter", "name": "4e52b921481bcb2ce54ddb81fbfc669d", "rental_uris": {"ios": "https://dc.lft.to/lastmile_qr_scan", "android": "https://dc.lft.to/lastmile_qr_scan"}, "fusion_lon": 0.0, "lat": 38.92246883333333, "is_disabled": 0, "bike_id": "4e52b921481bcb2ce54ddb81fbfc669d", "fusion_lat": 0.0, "is_reserved": 0, "lon": -77.042755}, {"type": "electric_scooter", "name": "fa8a0dd25b5409526ac6d357eeb9bf08", "rental_uris": {"ios": "https://dc.lft.to/lastmile_qr_scan", "android": "https://dc.lft.to/lastmile_qr_scan"}, "fusion_lon": 0.0, "lat": 38.92876366666667, "is_disabled": 0, "bike_id": "fa8a0dd25b5409526ac6d357eeb9bf08", "fusion_lat": 0.0, "is_reserved": 0, "lon": -77.02707083333334}, {"type": "electric_scooter", "name": "08e4fed6204d7e13df057fe7e1d2547f", "rental_uris": {"ios": "https://dc.lft.to/lastmile_qr_scan", "android": "https://dc.lft.to/lastmile_qr_scan"}, "fusion_lon": 0.0, "lat": 38.898315833333335, "is_disabled": 0, "bike_id": "08e4fed6204d7e13df057fe7e1d2547f", "fusion_lat": 0.0, "is_reserved": 0, "lon": -77.03175583333334}, {"type": "electric_scooter", "name": "d4410351dc2cb50099ab64613f6119c5", "rental_uris": {"ios": "https://dc.lft.to/lastmile_qr_scan", "android": "https://dc.lft.to/lastmile_qr_scan"}, "fusion_lon": 0.0, "lat": 38.91313816666667, "is_disabled": 0, "bike_id": "d4410351dc2cb50099ab64613f6119c5", "fusion_lat": 0.0, "is_reserved": 0, "lon": -77.01513216666666}, {"type": "electric_scooter", "name": "c50badbaed5a521ae3ae809551f115b4", "rental_uris": {"ios": "https://dc.lft.to/lastmile_qr_scan", "android": "https://dc.lft.to/lastmile_qr_scan"}, "fusion_lon": 0.0, "lat": 38.90265433333333, "is_disabled": 0, "bike_id": "c50badbaed5a521ae3ae809551f115b4", "fusion_lat": 0.0, "is_reserved": 0, "lon": -76.97456566666666}, {"type": "electric_scooter", "name": "bc47cb7c5a41ffa5efda675355a57d97", "rental_uris": {"ios": "https://dc.lft.to/lastmile_qr_scan", "android": "https://dc.lft.to/lastmile_qr_scan"}, "fusion_lon": 0.0, "lat": 38.91064433333333, "is_disabled": 0, "bike_id": "bc47cb7c5a41ffa5efda675355a57d97", "fusion_lat": 0.0, "is_reserved": 0, "lon": -77.00390183333333}, {"type": "electric_bike", "name": "c93f6cb1829044680c427117e2882458", "rental_uris": {"ios": "https://dc.lft.to/lastmile_qr_scan", "android": "https://dc.lft.to/lastmile_qr_scan"}, "fusion_lon": 0.0, "lat": 38.857657, "is_disabled": 0, "bike_id": "c93f6cb1829044680c427117e2882458", "fusion_lat": 0.0, "is_reserved": 0, "lon": -76.98769016666667}, {"type": "electric_scooter", "name": "f239ef5c652eb865e360861410975985", "rental_uris": {"ios": "https://dc.lft.to/lastmile_qr_scan", "android": "https://dc.lft.to/lastmile_qr_scan"}, "fusion_lon": 0.0, "lat": 38.91694183333333, "is_disabled": 0, "bike_id": "f239ef5c652eb865e360861410975985", "fusion_lat": 0.0, "is_reserved": 0, "lon": -77.04108866666667}, {"type": "electric_scooter", "name": "504e068fa7bb6b2fa69edca814f57c17", "rental_uris": {"ios": "https://dc.lft.to/lastmile_qr_scan", "android": "https://dc.lft.to/lastmile_qr_scan"}, "fusion_lon": 0.0, "lat": 38.9056415, "is_disabled": 0, "bike_id": "504e068fa7bb6b2fa69edca814f57c17", "fusion_lat": 0.0, "is_reserved": 0, "lon": -77.02407466666666}, {"type": "electric_scooter", "name": "4d34b1f2aaa013fe0611bf5b05ee94cb", "rental_uris": {"ios": "https://dc.lft.to/lastmile_qr_scan", "android": "https://dc.lft.to/lastmile_qr_scan"}, "fusion_lon": 0.0, "lat": 38.9170805, "is_disabled": 0, "bike_id": "4d34b1f2aaa013fe0611bf5b05ee94cb", "fusion_lat": 0.0, "is_reserved": 0, "lon": -77.041716}, {"type": "electric_scooter", "name": "13236ce81dbe0c431d3e4fc423ef329d", "rental_uris": {"ios": "https://dc.lft.to/lastmile_qr_scan", "android": "https://dc.lft.to/lastmile_qr_scan"}, "fusion_lon": 0.0, "lat": 38.92952016666667, "is_disabled": 0, "bike_id": "13236ce81dbe0c431d3e4fc423ef329d", "fusion_lat": 0.0, "is_reserved": 0, "lon": -77.01898783333333}, {"type": "electric_scooter", "name": "14376cf236b35576d5282cd59e5ac0ee", "rental_uris": {"ios": "https://dc.lft.to/lastmile_qr_scan", "android": "https://dc.lft.to/lastmile_qr_scan"}, "fusion_lon": 0.0, "lat": 38.904921, "is_disabled": 0, "bike_id": "14376cf236b35576d5282cd59e5ac0ee", "fusion_lat": 0.0, "is_reserved": 0, "lon": -77.04318133333334}, {"type": "electric_scooter", "name": "19ad7e144d8afaf44e485e447b5f4407", "rental_uris": {"ios": "https://dc.lft.to/lastmile_qr_scan", "android": "https://dc.lft.to/lastmile_qr_scan"}, "fusion_lon": 0.0, "lat": 38.9037085, "is_disabled": 0, "bike_id": "19ad7e144d8afaf44e485e447b5f4407", "fusion_lat": 0.0, "is_reserved": 0, "lon": -77.03182316666667}, {"type": "electric_scooter", "name": "00bb09f42b28880ccc4b4c1b7724f74f", "rental_uris": {"ios": "https://dc.lft.to/lastmile_qr_scan", "android": "https://dc.lft.to/lastmile_qr_scan"}, "fusion_lon": 0.0, "lat": 38.900305, "is_disabled": 0, "bike_id": "00bb09f42b28880ccc4b4c1b7724f74f", "fusion_lat": 0.0, "is_reserved": 0, "lon": -77.04043366666667}, {"type": "electric_scooter", "name": "8335a2a82999471bed0877a618743c66", "rental_uris": {"ios": "https://dc.lft.to/lastmile_qr_scan", "android": "https://dc.lft.to/lastmile_qr_scan"}, "fusion_lon": 0.0, "lat": 38.90028516666667, "is_disabled": 0, "bike_id": "8335a2a82999471bed0877a618743c66", "fusion_lat": 0.0, "is_reserved": 0, "lon": -76.9872435}, {"type": "electric_scooter", "name": "e3450b058a61967c2bb1d8ac05776693", "rental_uris": {"ios": "https://dc.lft.to/lastmile_qr_scan", "android": "https://dc.lft.to/lastmile_qr_scan"}, "fusion_lon": 0.0, "lat": 38.926646833333336, "is_disabled": 0, "bike_id": "e3450b058a61967c2bb1d8ac05776693", "fusion_lat": 0.0, "is_reserved": 0, "lon": -77.02310433333334}, {"type": "electric_scooter", "name": "71a14fecc01cadfba0ba71b3dca6b27f", "rental_uris": {"ios": "https://dc.lft.to/lastmile_qr_scan", "android": "https://dc.lft.to/lastmile_qr_scan"}, "fusion_lon": 0.0, "lat": 38.91045916666667, "is_disabled": 0, "bike_id": "71a14fecc01cadfba0ba71b3dca6b27f", "fusion_lat": 0.0, "is_reserved": 0, "lon": -77.01025416666667}, {"type": "electric_scooter", "name": "126ec0fab849c507d6a6fffbe6e1d291", "rental_uris": {"ios": "https://dc.lft.to/lastmile_qr_scan", "android": "https://dc.lft.to/lastmile_qr_scan"}, "fusion_lon": 0.0, "lat": 38.91235983333333, "is_disabled": 0, "bike_id": "126ec0fab849c507d6a6fffbe6e1d291", "fusion_lat": 0.0, "is_reserved": 0, "lon": -77.04877016666667}, {"type": "electric_scooter", "name": "4074c627f6e836b250174524fffd5364", "rental_uris": {"ios": "https://dc.lft.to/lastmile_qr_scan", "android": "https://dc.lft.to/lastmile_qr_scan"}, "fusion_lon": 0.0, "lat": 38.924725333333335, "is_disabled": 0, "bike_id": "4074c627f6e836b250174524fffd5364", "fusion_lat": 0.0, "is_reserved": 0, "lon": -77.02207583333333}, {"type": "electric_scooter", "name": "6add3bd5dba56e2258f38ad1092f6fe4", "rental_uris": {"ios": "https://dc.lft.to/lastmile_qr_scan", "android": "https://dc.lft.to/lastmile_qr_scan"}, "fusion_lon": 0.0, "lat": 38.916884, "is_disabled": 0, "bike_id": "6add3bd5dba56e2258f38ad1092f6fe4", "fusion_lat": 0.0, "is_reserved": 0, "lon": -77.029468}, {"type": "electric_scooter", "name": "b5967471e7a9143a63fd9dfdba4a9542", "rental_uris": {"ios": "https://dc.lft.to/lastmile_qr_scan", "android": "https://dc.lft.to/lastmile_qr_scan"}, "fusion_lon": 0.0, "lat": 38.930806, "is_disabled": 0, "bike_id": "b5967471e7a9143a63fd9dfdba4a9542", "fusion_lat": 0.0, "is_reserved": 0, "lon": -77.02804066666667}, {"type": "electric_scooter", "name": "6b39dea9c96f42b6c482746176fd4bdf", "rental_uris": {"ios": "https://dc.lft.to/lastmile_qr_scan", "android": "https://dc.lft.to/lastmile_qr_scan"}, "fusion_lon": 0.0, "lat": 38.91218583333333, "is_disabled": 0, "bike_id": "6b39dea9c96f42b6c482746176fd4bdf", "fusion_lat": 0.0, "is_reserved": 0, "lon": -77.04501883333333}, {"type": "electric_scooter", "name": "5e3af5b1a8613ca8d0aac0aa0e652e5d", "rental_uris": {"ios": "https://dc.lft.to/lastmile_qr_scan", "android": "https://dc.lft.to/lastmile_qr_scan"}, "fusion_lon": 0.0, "lat": 38.92314116666667, "is_disabled": 0, "bike_id": "5e3af5b1a8613ca8d0aac0aa0e652e5d", "fusion_lat": 0.0, "is_reserved": 0, "lon": -77.0401075}, {"type": "electric_scooter", "name": "2e98cb3fe47d145e2359880b16a6dc3e", "rental_uris": {"ios": "https://dc.lft.to/lastmile_qr_scan", "android": "https://dc.lft.to/lastmile_qr_scan"}, "fusion_lon": 0.0, "lat": 38.884903, "is_disabled": 0, "bike_id": "2e98cb3fe47d145e2359880b16a6dc3e", "fusion_lat": 0.0, "is_reserved": 0, "lon": -77.0071155}, {"type": "electric_scooter", "name": "c6b73654e34436642771b0ffcc86a116", "rental_uris": {"ios": "https://dc.lft.to/lastmile_qr_scan", "android": "https://dc.lft.to/lastmile_qr_scan"}, "fusion_lon": 0.0, "lat": 38.867233666666664, "is_disabled": 0, "bike_id": "c6b73654e34436642771b0ffcc86a116", "fusion_lat": 0.0, "is_reserved": 0, "lon": -76.98703483333334}, {"type": "electric_scooter", "name": "8bc4988e234549fb4f8bd087897ef889", "rental_uris": {"ios": "https://dc.lft.to/lastmile_qr_scan", "android": "https://dc.lft.to/lastmile_qr_scan"}, "fusion_lon": 0.0, "lat": 38.90127666666667, "is_disabled": 0, "bike_id": "8bc4988e234549fb4f8bd087897ef889", "fusion_lat": 0.0, "is_reserved": 0, "lon": -77.01634166666666}, {"type": "electric_scooter", "name": "729f5b9b4d7ecfe6a42a4434f33e746f", "rental_uris": {"ios": "https://dc.lft.to/lastmile_qr_scan", "android": "https://dc.lft.to/lastmile_qr_scan"}, "fusion_lon": 0.0, "lat": 38.91998733333333, "is_disabled": 0, "bike_id": "729f5b9b4d7ecfe6a42a4434f33e746f", "fusion_lat": 0.0, "is_reserved": 0, "lon": -77.0322915}, {"type": "electric_scooter", "name": "4c2ed66b3faf7d2a12f3284734d84690", "rental_uris": {"ios": "https://dc.lft.to/lastmile_qr_scan", "android": "https://dc.lft.to/lastmile_qr_scan"}, "fusion_lon": 0.0, "lat": 38.926056833333334, "is_disabled": 0, "bike_id": "4c2ed66b3faf7d2a12f3284734d84690", "fusion_lat": 0.0, "is_reserved": 0, "lon": -77.02220316666667}, {"type": "electric_scooter", "name": "54e9087cebf4f6bb2ebc6588a8cb56c1", "rental_uris": {"ios": "https://dc.lft.to/lastmile_qr_scan", "android": "https://dc.lft.to/lastmile_qr_scan"}, "fusion_lon": 0.0, "lat": 38.917427, "is_disabled": 0, "bike_id": "54e9087cebf4f6bb2ebc6588a8cb56c1", "fusion_lat": 0.0, "is_reserved": 0, "lon": -77.0317955}, {"type": "electric_scooter", "name": "dcdd32125f6e576549d41cb3f6936231", "rental_uris": {"ios": "https://dc.lft.to/lastmile_qr_scan", "android": "https://dc.lft.to/lastmile_qr_scan"}, "fusion_lon": 0.0, "lat": 38.9027085, "is_disabled": 0, "bike_id": "dcdd32125f6e576549d41cb3f6936231", "fusion_lat": 0.0, "is_reserved": 0, "lon": -77.03378316666667}, {"type": "electric_scooter", "name": "6da0613f4c15c327fd8a99ba8662c7f1", "rental_uris": {"ios": "https://dc.lft.to/lastmile_qr_scan", "android": "https://dc.lft.to/lastmile_qr_scan"}, "fusion_lon": 0.0, "lat": 38.921291, "is_disabled": 0, "bike_id": "6da0613f4c15c327fd8a99ba8662c7f1", "fusion_lat": 0.0, "is_reserved": 0, "lon": -77.00921866666667}, {"type": "electric_scooter", "name": "e21c848eb47bc5745b7fdcf9eb674b88", "rental_uris": {"ios": "https://dc.lft.to/lastmile_qr_scan", "android": "https://dc.lft.to/lastmile_qr_scan"}, "fusion_lon": 0.0, "lat": 38.9146815, "is_disabled": 0, "bike_id": "e21c848eb47bc5745b7fdcf9eb674b88", "fusion_lat": 0.0, "is_reserved": 0, "lon": -77.03889066666666}, {"type": "electric_scooter", "name": "b6321e0d9cf378f1ce544dad15e3f18e", "rental_uris": {"ios": "https://dc.lft.to/lastmile_qr_scan", "android": "https://dc.lft.to/lastmile_qr_scan"}, "fusion_lon": 0.0, "lat": 38.919336666666666, "is_disabled": 0, "bike_id": "b6321e0d9cf378f1ce544dad15e3f18e", "fusion_lat": 0.0, "is_reserved": 0, "lon": -77.01351383333333}, {"type": "electric_scooter", "name": "6eba5f51975f38ee6b73e973acd490bd", "rental_uris": {"ios": "https://dc.lft.to/lastmile_qr_scan", "android": "https://dc.lft.to/lastmile_qr_scan"}, "fusion_lon": 0.0, "lat": 38.9001475, "is_disabled": 0, "bike_id": "6eba5f51975f38ee6b73e973acd490bd", "fusion_lat": 0.0, "is_reserved": 0, "lon": -77.03189966666666}, {"type": "electric_scooter", "name": "6a45937f053988470621361e717f3a30", "rental_uris": {"ios": "https://dc.lft.to/lastmile_qr_scan", "android": "https://dc.lft.to/lastmile_qr_scan"}, "fusion_lon": 0.0, "lat": 38.864208833333336, "is_disabled": 0, "bike_id": "6a45937f053988470621361e717f3a30", "fusion_lat": 0.0, "is_reserved": 0, "lon": -76.98997683333333}, {"type": "electric_scooter", "name": "26ccc16507d4a4e220bfd4a58a4fdd65", "rental_uris": {"ios": "https://dc.lft.to/lastmile_qr_scan", "android": "https://dc.lft.to/lastmile_qr_scan"}, "fusion_lon": 0.0, "lat": 38.890413333333335, "is_disabled": 0, "bike_id": "26ccc16507d4a4e220bfd4a58a4fdd65", "fusion_lat": 0.0, "is_reserved": 0, "lon": -76.95245933333334}, {"type": "electric_scooter", "name": "1986824fca92aedcbc84bbb4a1f5118c", "rental_uris": {"ios": "https://dc.lft.to/lastmile_qr_scan", "android": "https://dc.lft.to/lastmile_qr_scan"}, "fusion_lon": 0.0, "lat": 38.911085166666666, "is_disabled": 0, "bike_id": "1986824fca92aedcbc84bbb4a1f5118c", "fusion_lat": 0.0, "is_reserved": 0, "lon": -77.024219}, {"type": "electric_scooter", "name": "bf68663de01b7a44ed2ca2f6439722f0", "rental_uris": {"ios": "https://dc.lft.to/lastmile_qr_scan", "android": "https://dc.lft.to/lastmile_qr_scan"}, "fusion_lon": 0.0, "lat": 38.924162833333334, "is_disabled": 0, "bike_id": "bf68663de01b7a44ed2ca2f6439722f0", "fusion_lat": 0.0, "is_reserved": 0, "lon": -77.02028683333333}, {"type": "electric_scooter", "name": "a30d9e8aaffbba4c6263d74d14cd3db2", "rental_uris": {"ios": "https://dc.lft.to/lastmile_qr_scan", "android": "https://dc.lft.to/lastmile_qr_scan"}, "fusion_lon": 0.0, "lat": 38.892306833333336, "is_disabled": 0, "bike_id": "a30d9e8aaffbba4c6263d74d14cd3db2", "fusion_lat": 0.0, "is_reserved": 0, "lon": -77.04159216666666}, {"type": "electric_scooter", "name": "680761264c03dbb50b554a4108cdbf36", "rental_uris": {"ios": "https://dc.lft.to/lastmile_qr_scan", "android": "https://dc.lft.to/lastmile_qr_scan"}, "fusion_lon": 0.0, "lat": 38.876612, "is_disabled": 0, "bike_id": "680761264c03dbb50b554a4108cdbf36", "fusion_lat": 0.0, "is_reserved": 0, "lon": -77.01722883333333}, {"type": "electric_scooter", "name": "e65ab8d7cc8849038207dd374063d251", "rental_uris": {"ios": "https://dc.lft.to/lastmile_qr_scan", "android": "https://dc.lft.to/lastmile_qr_scan"}, "fusion_lon": 0.0, "lat": 38.88908683333333, "is_disabled": 0, "bike_id": "e65ab8d7cc8849038207dd374063d251", "fusion_lat": 0.0, "is_reserved": 0, "lon": -76.93673933333334}, {"type": "electric_scooter", "name": "e957795890cdf86e309d153ae9adfe2d", "rental_uris": {"ios": "https://dc.lft.to/lastmile_qr_scan", "android": "https://dc.lft.to/lastmile_qr_scan"}, "fusion_lon": 0.0, "lat": 38.891427166666666, "is_disabled": 0, "bike_id": "e957795890cdf86e309d153ae9adfe2d", "fusion_lat": 0.0, "is_reserved": 0, "lon": -76.99254333333333}, {"type": "electric_scooter", "name": "6c935b11e6b075c2b240f6a4da54df06", "rental_uris": {"ios": "https://dc.lft.to/lastmile_qr_scan", "android": "https://dc.lft.to/lastmile_qr_scan"}, "fusion_lon": 0.0, "lat": 38.88299966666666, "is_disabled": 0, "bike_id": "6c935b11e6b075c2b240f6a4da54df06", "fusion_lat": 0.0, "is_reserved": 0, "lon": -76.94854366666667}, {"type": "electric_scooter", "name": "6123da0de4f478f20acb786e80d21798", "rental_uris": {"ios": "https://dc.lft.to/lastmile_qr_scan", "android": "https://dc.lft.to/lastmile_qr_scan"}, "fusion_lon": 0.0, "lat": 38.91774683333333, "is_disabled": 0, "bike_id": "6123da0de4f478f20acb786e80d21798", "fusion_lat": 0.0, "is_reserved": 0, "lon": -77.022839}, {"type": "electric_scooter", "name": "f89228e0220039744e4f28a38bc80643", "rental_uris": {"ios": "https://dc.lft.to/lastmile_qr_scan", "android": "https://dc.lft.to/lastmile_qr_scan"}, "fusion_lon": 0.0, "lat": 38.93428733333333, "is_disabled": 0, "bike_id": "f89228e0220039744e4f28a38bc80643", "fusion_lat": 0.0, "is_reserved": 0, "lon": -77.05587766666666}, {"type": "electric_scooter", "name": "ea36dfdb7069b6911009a87415200e2f", "rental_uris": {"ios": "https://dc.lft.to/lastmile_qr_scan", "android": "https://dc.lft.to/lastmile_qr_scan"}, "fusion_lon": 0.0, "lat": 38.91817666666667, "is_disabled": 0, "bike_id": "ea36dfdb7069b6911009a87415200e2f", "fusion_lat": 0.0, "is_reserved": 0, "lon": -77.02716583333333}, {"type": "electric_scooter", "name": "b650f6fff642426a00551af555c3f90f", "rental_uris": {"ios": "https://dc.lft.to/lastmile_qr_scan", "android": "https://dc.lft.to/lastmile_qr_scan"}, "fusion_lon": 0.0, "lat": 38.90575666666667, "is_disabled": 0, "bike_id": "b650f6fff642426a00551af555c3f90f", "fusion_lat": 0.0, "is_reserved": 0, "lon": -77.022129}, {"type": "electric_scooter", "name": "58fa8a239636a9cefb96bb2cbd8ea7ed", "rental_uris": {"ios": "https://dc.lft.to/lastmile_qr_scan", "android": "https://dc.lft.to/lastmile_qr_scan"}, "fusion_lon": 0.0, "lat": 38.8765915, "is_disabled": 0, "bike_id": "58fa8a239636a9cefb96bb2cbd8ea7ed", "fusion_lat": 0.0, "is_reserved": 0, "lon": -77.01607116666666}, {"type": "electric_scooter", "name": "ba36e93379949d81563a23c44e841954", "rental_uris": {"ios": "https://dc.lft.to/lastmile_qr_scan", "android": "https://dc.lft.to/lastmile_qr_scan"}, "fusion_lon": 0.0, "lat": 38.87696016666666, "is_disabled": 0, "bike_id": "ba36e93379949d81563a23c44e841954", "fusion_lat": 0.0, "is_reserved": 0, "lon": -77.00422033333334}, {"type": "electric_scooter", "name": "35992ea0c63b99c9ab7bd9ca7fac924f", "rental_uris": {"ios": "https://dc.lft.to/lastmile_qr_scan", "android": "https://dc.lft.to/lastmile_qr_scan"}, "fusion_lon": 0.0, "lat": 38.89537583333333, "is_disabled": 0, "bike_id": "35992ea0c63b99c9ab7bd9ca7fac924f", "fusion_lat": 0.0, "is_reserved": 0, "lon": -77.0484775}, {"type": "electric_scooter", "name": "27daadb78057d631347300810cbfcfad", "rental_uris": {"ios": "https://dc.lft.to/lastmile_qr_scan", "android": "https://dc.lft.to/lastmile_qr_scan"}, "fusion_lon": 0.0, "lat": 38.9087315, "is_disabled": 0, "bike_id": "27daadb78057d631347300810cbfcfad", "fusion_lat": 0.0, "is_reserved": 0, "lon": -77.02692566666667}, {"type": "electric_scooter", "name": "6a5222b13a8a6848b0f8c40f0987bc7e", "rental_uris": {"ios": "https://dc.lft.to/lastmile_qr_scan", "android": "https://dc.lft.to/lastmile_qr_scan"}, "fusion_lon": 0.0, "lat": 38.88740266666667, "is_disabled": 0, "bike_id": "6a5222b13a8a6848b0f8c40f0987bc7e", "fusion_lat": 0.0, "is_reserved": 0, "lon": -77.02840483333334}, {"type": "electric_scooter", "name": "fb194edae850f20d1fa0ac0798e313d9", "rental_uris": {"ios": "https://dc.lft.to/lastmile_qr_scan", "android": "https://dc.lft.to/lastmile_qr_scan"}, "fusion_lon": 0.0, "lat": 38.941589, "is_disabled": 0, "bike_id": "fb194edae850f20d1fa0ac0798e313d9", "fusion_lat": 0.0, "is_reserved": 0, "lon": -77.092701}, {"type": "electric_scooter", "name": "013631da328ecbeec11886d9b6db8f90", "rental_uris": {"ios": "https://dc.lft.to/lastmile_qr_scan", "android": "https://dc.lft.to/lastmile_qr_scan"}, "fusion_lon": 0.0, "lat": 38.9192485, "is_disabled": 0, "bike_id": "013631da328ecbeec11886d9b6db8f90", "fusion_lat": 0.0, "is_reserved": 0, "lon": -77.00983116666667}, {"type": "electric_scooter", "name": "fd07b73f7d50e10459e125c4fed53ad7", "rental_uris": {"ios": "https://dc.lft.to/lastmile_qr_scan", "android": "https://dc.lft.to/lastmile_qr_scan"}, "fusion_lon": 0.0, "lat": 38.920522, "is_disabled": 0, "bike_id": "fd07b73f7d50e10459e125c4fed53ad7", "fusion_lat": 0.0, "is_reserved": 0, "lon": -77.04183683333333}, {"type": "electric_scooter", "name": "dc18ef9b2be983eef4d8dbad8b4cac4d", "rental_uris": {"ios": "https://dc.lft.to/lastmile_qr_scan", "android": "https://dc.lft.to/lastmile_qr_scan"}, "fusion_lon": 0.0, "lat": 38.928694, "is_disabled": 0, "bike_id": "dc18ef9b2be983eef4d8dbad8b4cac4d", "fusion_lat": 0.0, "is_reserved": 0, "lon": -77.02910266666666}, {"type": "electric_scooter", "name": "db79392c01c6b08ea852a5237247961b", "rental_uris": {"ios": "https://dc.lft.to/lastmile_qr_scan", "android": "https://dc.lft.to/lastmile_qr_scan"}, "fusion_lon": 0.0, "lat": 38.87701966666667, "is_disabled": 0, "bike_id": "db79392c01c6b08ea852a5237247961b", "fusion_lat": 0.0, "is_reserved": 0, "lon": -77.004191}, {"type": "electric_scooter", "name": "34736e56880a33f033c75f32c55c4093", "rental_uris": {"ios": "https://dc.lft.to/lastmile_qr_scan", "android": "https://dc.lft.to/lastmile_qr_scan"}, "fusion_lon": 0.0, "lat": 38.9064465, "is_disabled": 0, "bike_id": "34736e56880a33f033c75f32c55c4093", "fusion_lat": 0.0, "is_reserved": 0, "lon": -77.01032366666666}, {"type": "electric_scooter", "name": "326b16b894a3aeb9ff986867982843c7", "rental_uris": {"ios": "https://dc.lft.to/lastmile_qr_scan", "android": "https://dc.lft.to/lastmile_qr_scan"}, "fusion_lon": 0.0, "lat": 38.93929416666667, "is_disabled": 0, "bike_id": "326b16b894a3aeb9ff986867982843c7", "fusion_lat": 0.0, "is_reserved": 0, "lon": -77.02791683333334}, {"type": "electric_bike", "name": "545fe5966fc54453040cc3967caca20d", "rental_uris": {"ios": "https://dc.lft.to/lastmile_qr_scan", "android": "https://dc.lft.to/lastmile_qr_scan"}, "fusion_lon": 0.0, "lat": 38.8645005, "is_disabled": 0, "bike_id": "545fe5966fc54453040cc3967caca20d", "fusion_lat": 0.0, "is_reserved": 0, "lon": -77.1068675}, {"type": "electric_scooter", "name": "5ffc9ed9b6b06bf241f9c41d2f63e915", "rental_uris": {"ios": "https://dc.lft.to/lastmile_qr_scan", "android": "https://dc.lft.to/lastmile_qr_scan"}, "fusion_lon": 0.0, "lat": 38.9002885, "is_disabled": 0, "bike_id": "5ffc9ed9b6b06bf241f9c41d2f63e915", "fusion_lat": 0.0, "is_reserved": 0, "lon": -76.987513}, {"type": "electric_scooter", "name": "bba282c1710016229d170d999c572764", "rental_uris": {"ios": "https://dc.lft.to/lastmile_qr_scan", "android": "https://dc.lft.to/lastmile_qr_scan"}, "fusion_lon": 0.0, "lat": 38.88445316666667, "is_disabled": 0, "bike_id": "bba282c1710016229d170d999c572764", "fusion_lat": 0.0, "is_reserved": 0, "lon": -77.01510683333333}, {"type": "electric_scooter", "name": "960f39729f855a15ff1fbd625952de94", "rental_uris": {"ios": "https://dc.lft.to/lastmile_qr_scan", "android": "https://dc.lft.to/lastmile_qr_scan"}, "fusion_lon": 0.0, "lat": 38.941264, "is_disabled": 0, "bike_id": "960f39729f855a15ff1fbd625952de94", "fusion_lat": 0.0, "is_reserved": 0, "lon": -77.01538533333333}, {"type": "electric_scooter", "name": "ef99e2505163c5ebc37f5096d5079461", "rental_uris": {"ios": "https://dc.lft.to/lastmile_qr_scan", "android": "https://dc.lft.to/lastmile_qr_scan"}, "fusion_lon": 0.0, "lat": 38.925180166666664, "is_disabled": 0, "bike_id": "ef99e2505163c5ebc37f5096d5079461", "fusion_lat": 0.0, "is_reserved": 0, "lon": -77.0513105}, {"type": "electric_scooter", "name": "40d2ad821b769afb39d418caf9b313af", "rental_uris": {"ios": "https://dc.lft.to/lastmile_qr_scan", "android": "https://dc.lft.to/lastmile_qr_scan"}, "fusion_lon": 0.0, "lat": 38.89341233333333, "is_disabled": 0, "bike_id": "40d2ad821b769afb39d418caf9b313af", "fusion_lat": 0.0, "is_reserved": 0, "lon": -77.01960833333334}, {"type": "electric_scooter", "name": "0e6ba11bb11414a92beeefcf1b9b6e63", "rental_uris": {"ios": "https://dc.lft.to/lastmile_qr_scan", "android": "https://dc.lft.to/lastmile_qr_scan"}, "fusion_lon": 0.0, "lat": 38.9274765, "is_disabled": 0, "bike_id": "0e6ba11bb11414a92beeefcf1b9b6e63", "fusion_lat": 0.0, "is_reserved": 0, "lon": -77.02534883333334}, {"type": "electric_scooter", "name": "67a214e59cded3b9fb5ded3ad3d9d656", "rental_uris": {"ios": "https://dc.lft.to/lastmile_qr_scan", "android": "https://dc.lft.to/lastmile_qr_scan"}, "fusion_lon": 0.0, "lat": 38.938956166666664, "is_disabled": 0, "bike_id": "67a214e59cded3b9fb5ded3ad3d9d656", "fusion_lat": 0.0, "is_reserved": 0, "lon": -77.0333125}, {"type": "electric_scooter", "name": "8e74bcc2c41f320c046abbea8172112e", "rental_uris": {"ios": "https://dc.lft.to/lastmile_qr_scan", "android": "https://dc.lft.to/lastmile_qr_scan"}, "fusion_lon": 0.0, "lat": 38.91713083333333, "is_disabled": 0, "bike_id": "8e74bcc2c41f320c046abbea8172112e", "fusion_lat": 0.0, "is_reserved": 0, "lon": -77.0238775}, {"type": "electric_scooter", "name": "84e0dc82d99a2f8319ce201e7be28919", "rental_uris": {"ios": "https://dc.lft.to/lastmile_qr_scan", "android": "https://dc.lft.to/lastmile_qr_scan"}, "fusion_lon": 0.0, "lat": 38.89684916666667, "is_disabled": 0, "bike_id": "84e0dc82d99a2f8319ce201e7be28919", "fusion_lat": 0.0, "is_reserved": 0, "lon": -77.03203983333333}, {"type": "electric_bike", "name": "a9caad05190c7cb6244184a3b1902db5", "rental_uris": {"ios": "https://dc.lft.to/lastmile_qr_scan", "android": "https://dc.lft.to/lastmile_qr_scan"}, "fusion_lon": 0.0, "lat": 38.951868, "is_disabled": 0, "bike_id": "a9caad05190c7cb6244184a3b1902db5", "fusion_lat": 0.0, "is_reserved": 0, "lon": -77.0259985}, {"type": "electric_scooter", "name": "b85a7b098e7b1c1952665e96840553d7", "rental_uris": {"ios": "https://dc.lft.to/lastmile_qr_scan", "android": "https://dc.lft.to/lastmile_qr_scan"}, "fusion_lon": 0.0, "lat": 38.90783483333333, "is_disabled": 0, "bike_id": "b85a7b098e7b1c1952665e96840553d7", "fusion_lat": 0.0, "is_reserved": 0, "lon": -77.01112483333333}, {"type": "electric_scooter", "name": "db9fab20daaeb8d7a095207435090fef", "rental_uris": {"ios": "https://dc.lft.to/lastmile_qr_scan", "android": "https://dc.lft.to/lastmile_qr_scan"}, "fusion_lon": 0.0, "lat": 38.935358666666666, "is_disabled": 0, "bike_id": "db9fab20daaeb8d7a095207435090fef", "fusion_lat": 0.0, "is_reserved": 0, "lon": -77.0234715}, {"type": "electric_scooter", "name": "85b33bfe1c298c3970dc04fbe81ef028", "rental_uris": {"ios": "https://dc.lft.to/lastmile_qr_scan", "android": "https://dc.lft.to/lastmile_qr_scan"}, "fusion_lon": 0.0, "lat": 38.9180915, "is_disabled": 0, "bike_id": "85b33bfe1c298c3970dc04fbe81ef028", "fusion_lat": 0.0, "is_reserved": 0, "lon": -77.03443616666667}, {"type": "electric_scooter", "name": "94e4875be4a371da9e5ae05971067a27", "rental_uris": {"ios": "https://dc.lft.to/lastmile_qr_scan", "android": "https://dc.lft.to/lastmile_qr_scan"}, "fusion_lon": 0.0, "lat": 38.9047495, "is_disabled": 0, "bike_id": "94e4875be4a371da9e5ae05971067a27", "fusion_lat": 0.0, "is_reserved": 0, "lon": -76.9823985}, {"type": "electric_scooter", "name": "162793d96a0870dd664a87575df615ba", "rental_uris": {"ios": "https://dc.lft.to/lastmile_qr_scan", "android": "https://dc.lft.to/lastmile_qr_scan"}, "fusion_lon": 0.0, "lat": 38.904938333333334, "is_disabled": 0, "bike_id": "162793d96a0870dd664a87575df615ba", "fusion_lat": 0.0, "is_reserved": 0, "lon": -77.02956683333333}, {"type": "electric_scooter", "name": "ab8b348a45cc92ccf0048e1e0c512447", "rental_uris": {"ios": "https://dc.lft.to/lastmile_qr_scan", "android": "https://dc.lft.to/lastmile_qr_scan"}, "fusion_lon": 0.0, "lat": 38.93751483333333, "is_disabled": 0, "bike_id": "ab8b348a45cc92ccf0048e1e0c512447", "fusion_lat": 0.0, "is_reserved": 0, "lon": -77.0295575}, {"type": "electric_scooter", "name": "66a21fc2e42ad45e1fd8c85ed6fb538f", "rental_uris": {"ios": "https://dc.lft.to/lastmile_qr_scan", "android": "https://dc.lft.to/lastmile_qr_scan"}, "fusion_lon": 0.0, "lat": 38.88392916666667, "is_disabled": 0, "bike_id": "66a21fc2e42ad45e1fd8c85ed6fb538f", "fusion_lat": 0.0, "is_reserved": 0, "lon": -76.93043666666667}, {"type": "electric_scooter", "name": "e5afcbe79dbab6961c885298e205fbd0", "rental_uris": {"ios": "https://dc.lft.to/lastmile_qr_scan", "android": "https://dc.lft.to/lastmile_qr_scan"}, "fusion_lon": 0.0, "lat": 38.89236833333333, "is_disabled": 0, "bike_id": "e5afcbe79dbab6961c885298e205fbd0", "fusion_lat": 0.0, "is_reserved": 0, "lon": -77.021812}, {"type": "electric_scooter", "name": "1bfc93fd0004caa5aeab19a868ac874a", "rental_uris": {"ios": "https://dc.lft.to/lastmile_qr_scan", "android": "https://dc.lft.to/lastmile_qr_scan"}, "fusion_lon": 0.0, "lat": 38.902142, "is_disabled": 0, "bike_id": "1bfc93fd0004caa5aeab19a868ac874a", "fusion_lat": 0.0, "is_reserved": 0, "lon": -77.02133916666666}, {"type": "electric_scooter", "name": "947b162beb9dd5cf060e153a1b3f9d26", "rental_uris": {"ios": "https://dc.lft.to/lastmile_qr_scan", "android": "https://dc.lft.to/lastmile_qr_scan"}, "fusion_lon": 0.0, "lat": 38.919461, "is_disabled": 0, "bike_id": "947b162beb9dd5cf060e153a1b3f9d26", "fusion_lat": 0.0, "is_reserved": 0, "lon": -77.04489766666667}, {"type": "electric_scooter", "name": "f3568612e6021f0240a2665f93e6d057", "rental_uris": {"ios": "https://dc.lft.to/lastmile_qr_scan", "android": "https://dc.lft.to/lastmile_qr_scan"}, "fusion_lon": 0.0, "lat": 38.9266615, "is_disabled": 0, "bike_id": "f3568612e6021f0240a2665f93e6d057", "fusion_lat": 0.0, "is_reserved": 0, "lon": -77.029229}, {"type": "electric_scooter", "name": "d1952dfeb31c25bfc428d59b2411ece0", "rental_uris": {"ios": "https://dc.lft.to/lastmile_qr_scan", "android": "https://dc.lft.to/lastmile_qr_scan"}, "fusion_lon": 0.0, "lat": 38.90877583333334, "is_disabled": 0, "bike_id": "d1952dfeb31c25bfc428d59b2411ece0", "fusion_lat": 0.0, "is_reserved": 0, "lon": -77.0752625}, {"type": "electric_scooter", "name": "9966506e78f645ab9bf4886a25a2e2fd", "rental_uris": {"ios": "https://dc.lft.to/lastmile_qr_scan", "android": "https://dc.lft.to/lastmile_qr_scan"}, "fusion_lon": 0.0, "lat": 38.92219566666667, "is_disabled": 0, "bike_id": "9966506e78f645ab9bf4886a25a2e2fd", "fusion_lat": 0.0, "is_reserved": 0, "lon": -77.02419016666667}, {"type": "electric_scooter", "name": "a5ded593e6039dde8a28b9b2a2f69b05", "rental_uris": {"ios": "https://dc.lft.to/lastmile_qr_scan", "android": "https://dc.lft.to/lastmile_qr_scan"}, "fusion_lon": 0.0, "lat": 38.928659833333334, "is_disabled": 0, "bike_id": "a5ded593e6039dde8a28b9b2a2f69b05", "fusion_lat": 0.0, "is_reserved": 0, "lon": -77.05454983333334}, {"type": "electric_scooter", "name": "92bdc608ca4a709297b44ae8ff39faca", "rental_uris": {"ios": "https://dc.lft.to/lastmile_qr_scan", "android": "https://dc.lft.to/lastmile_qr_scan"}, "fusion_lon": 0.0, "lat": 38.9195905, "is_disabled": 0, "bike_id": "92bdc608ca4a709297b44ae8ff39faca", "fusion_lat": 0.0, "is_reserved": 0, "lon": -77.02425583333333}, {"type": "electric_scooter", "name": "2054354e597b4e761277da1c3895205b", "rental_uris": {"ios": "https://dc.lft.to/lastmile_qr_scan", "android": "https://dc.lft.to/lastmile_qr_scan"}, "fusion_lon": 0.0, "lat": 38.89698683333334, "is_disabled": 0, "bike_id": "2054354e597b4e761277da1c3895205b", "fusion_lat": 0.0, "is_reserved": 0, "lon": -77.00762516666667}, {"type": "electric_scooter", "name": "cabe5d1f4dd9f53a001f0292d459dcc3", "rental_uris": {"ios": "https://dc.lft.to/lastmile_qr_scan", "android": "https://dc.lft.to/lastmile_qr_scan"}, "fusion_lon": 0.0, "lat": 38.94417816666667, "is_disabled": 0, "bike_id": "cabe5d1f4dd9f53a001f0292d459dcc3", "fusion_lat": 0.0, "is_reserved": 0, "lon": -77.01776333333333}, {"type": "electric_scooter", "name": "bea588ba66cc4a8a6a792ef487e5a99a", "rental_uris": {"ios": "https://dc.lft.to/lastmile_qr_scan", "android": "https://dc.lft.to/lastmile_qr_scan"}, "fusion_lon": 0.0, "lat": 38.92094316666667, "is_disabled": 0, "bike_id": "bea588ba66cc4a8a6a792ef487e5a99a", "fusion_lat": 0.0, "is_reserved": 0, "lon": -77.0418}, {"type": "electric_scooter", "name": "6124f4faa173b2ca54c78b9254b0287a", "rental_uris": {"ios": "https://dc.lft.to/lastmile_qr_scan", "android": "https://dc.lft.to/lastmile_qr_scan"}, "fusion_lon": 0.0, "lat": 38.92735166666667, "is_disabled": 0, "bike_id": "6124f4faa173b2ca54c78b9254b0287a", "fusion_lat": 0.0, "is_reserved": 0, "lon": -77.023057}, {"type": "electric_scooter", "name": "3c2acb4c050466a7bc0a039f4b7f3080", "rental_uris": {"ios": "https://dc.lft.to/lastmile_qr_scan", "android": "https://dc.lft.to/lastmile_qr_scan"}, "fusion_lon": 0.0, "lat": 38.8894575, "is_disabled": 0, "bike_id": "3c2acb4c050466a7bc0a039f4b7f3080", "fusion_lat": 0.0, "is_reserved": 0, "lon": -76.99161716666667}, {"type": "electric_scooter", "name": "79de8ca16f5b9a504142eee717de42b2", "rental_uris": {"ios": "https://dc.lft.to/lastmile_qr_scan", "android": "https://dc.lft.to/lastmile_qr_scan"}, "fusion_lon": 0.0, "lat": 38.90158866666667, "is_disabled": 0, "bike_id": "79de8ca16f5b9a504142eee717de42b2", "fusion_lat": 0.0, "is_reserved": 0, "lon": -76.98046233333334}, {"type": "electric_scooter", "name": "0bc471fea6f1b24c5e5aed0a3e00320c", "rental_uris": {"ios": "https://dc.lft.to/lastmile_qr_scan", "android": "https://dc.lft.to/lastmile_qr_scan"}, "fusion_lon": 0.0, "lat": 38.92048533333333, "is_disabled": 0, "bike_id": "0bc471fea6f1b24c5e5aed0a3e00320c", "fusion_lat": 0.0, "is_reserved": 0, "lon": -77.02577383333333}, {"type": "electric_scooter", "name": "ef8a3ce85a30a5b689b4e99039c5616e", "rental_uris": {"ios": "https://dc.lft.to/lastmile_qr_scan", "android": "https://dc.lft.to/lastmile_qr_scan"}, "fusion_lon": 0.0, "lat": 38.89514533333333, "is_disabled": 0, "bike_id": "ef8a3ce85a30a5b689b4e99039c5616e", "fusion_lat": 0.0, "is_reserved": 0, "lon": -77.02585866666666}, {"type": "electric_scooter", "name": "a54fb3fb22e25c6f3e517babfd54640f", "rental_uris": {"ios": "https://dc.lft.to/lastmile_qr_scan", "android": "https://dc.lft.to/lastmile_qr_scan"}, "fusion_lon": 0.0, "lat": 38.910393, "is_disabled": 0, "bike_id": "a54fb3fb22e25c6f3e517babfd54640f", "fusion_lat": 0.0, "is_reserved": 0, "lon": -77.03376683333333}, {"type": "electric_scooter", "name": "4d56b28baab2cec6460945114df6b8f8", "rental_uris": {"ios": "https://dc.lft.to/lastmile_qr_scan", "android": "https://dc.lft.to/lastmile_qr_scan"}, "fusion_lon": 0.0, "lat": 38.876169, "is_disabled": 0, "bike_id": "4d56b28baab2cec6460945114df6b8f8", "fusion_lat": 0.0, "is_reserved": 0, "lon": -77.00602166666667}, {"type": "electric_scooter", "name": "e0b21bbfc679a7240c94f3e25d1a9b23", "rental_uris": {"ios": "https://dc.lft.to/lastmile_qr_scan", "android": "https://dc.lft.to/lastmile_qr_scan"}, "fusion_lon": 0.0, "lat": 38.898356, "is_disabled": 0, "bike_id": "e0b21bbfc679a7240c94f3e25d1a9b23", "fusion_lat": 0.0, "is_reserved": 0, "lon": -77.033424}, {"type": "electric_scooter", "name": "12a14b772fae17aa35b92d03449ac53b", "rental_uris": {"ios": "https://dc.lft.to/lastmile_qr_scan", "android": "https://dc.lft.to/lastmile_qr_scan"}, "fusion_lon": 0.0, "lat": 38.940665833333334, "is_disabled": 0, "bike_id": "12a14b772fae17aa35b92d03449ac53b", "fusion_lat": 0.0, "is_reserved": 0, "lon": -76.99948666666667}, {"type": "electric_scooter", "name": "365ea8ab2e198dbbd1a6a5635da6534d", "rental_uris": {"ios": "https://dc.lft.to/lastmile_qr_scan", "android": "https://dc.lft.to/lastmile_qr_scan"}, "fusion_lon": 0.0, "lat": 38.91666166666667, "is_disabled": 0, "bike_id": "365ea8ab2e198dbbd1a6a5635da6534d", "fusion_lat": 0.0, "is_reserved": 0, "lon": -77.0270365}, {"type": "electric_bike", "name": "2f1c2f1f071b70ffa8ee70603e856e85", "rental_uris": {"ios": "https://dc.lft.to/lastmile_qr_scan", "android": "https://dc.lft.to/lastmile_qr_scan"}, "fusion_lon": 0.0, "lat": 38.992319, "is_disabled": 0, "bike_id": "2f1c2f1f071b70ffa8ee70603e856e85", "fusion_lat": 0.0, "is_reserved": 0, "lon": -76.94454983333333}, {"type": "electric_scooter", "name": "996a357ad31395bf89d81985edf959b5", "rental_uris": {"ios": "https://dc.lft.to/lastmile_qr_scan", "android": "https://dc.lft.to/lastmile_qr_scan"}, "fusion_lon": 0.0, "lat": 38.9183305, "is_disabled": 0, "bike_id": "996a357ad31395bf89d81985edf959b5", "fusion_lat": 0.0, "is_reserved": 0, "lon": -77.04028233333334}, {"type": "electric_bike", "name": "710b446921312044a9beb10eaeb6a1d2", "rental_uris": {"ios": "https://dc.lft.to/lastmile_qr_scan", "android": "https://dc.lft.to/lastmile_qr_scan"}, "fusion_lon": 0.0, "lat": 38.9252625, "is_disabled": 0, "bike_id": "710b446921312044a9beb10eaeb6a1d2", "fusion_lat": 0.0, "is_reserved": 0, "lon": -77.07899316666666}, {"type": "electric_scooter", "name": "607faa33b2020d7b9aab29a35cc34765", "rental_uris": {"ios": "https://dc.lft.to/lastmile_qr_scan", "android": "https://dc.lft.to/lastmile_qr_scan"}, "fusion_lon": 0.0, "lat": 38.9026525, "is_disabled": 0, "bike_id": "607faa33b2020d7b9aab29a35cc34765", "fusion_lat": 0.0, "is_reserved": 0, "lon": -77.04014466666666}, {"type": "electric_scooter", "name": "21e33f624effa2562ae66a0288f50d45", "rental_uris": {"ios": "https://dc.lft.to/lastmile_qr_scan", "android": "https://dc.lft.to/lastmile_qr_scan"}, "fusion_lon": 0.0, "lat": 38.89206166666666, "is_disabled": 0, "bike_id": "21e33f624effa2562ae66a0288f50d45", "fusion_lat": 0.0, "is_reserved": 0, "lon": -76.95701233333334}, {"type": "electric_scooter", "name": "01ca03f09c53ea5aee1ca43dbe3c3821", "rental_uris": {"ios": "https://dc.lft.to/lastmile_qr_scan", "android": "https://dc.lft.to/lastmile_qr_scan"}, "fusion_lon": 0.0, "lat": 38.964797, "is_disabled": 0, "bike_id": "01ca03f09c53ea5aee1ca43dbe3c3821", "fusion_lat": 0.0, "is_reserved": 0, "lon": -77.01191116666666}, {"type": "electric_bike", "name": "ade9daf7e4960add2fc2956c036a0a07", "rental_uris": {"ios": "https://dc.lft.to/lastmile_qr_scan", "android": "https://dc.lft.to/lastmile_qr_scan"}, "fusion_lon": 0.0, "lat": 38.855257, "is_disabled": 0, "bike_id": "ade9daf7e4960add2fc2956c036a0a07", "fusion_lat": 0.0, "is_reserved": 0, "lon": -77.12033633333333}, {"type": "electric_bike", "name": "3e1a9d3181e5b9888b93500d89fd12be", "rental_uris": {"ios": "https://dc.lft.to/lastmile_qr_scan", "android": "https://dc.lft.to/lastmile_qr_scan"}, "fusion_lon": 0.0, "lat": 38.857866666666666, "is_disabled": 0, "bike_id": "3e1a9d3181e5b9888b93500d89fd12be", "fusion_lat": 0.0, "is_reserved": 0, "lon": -77.1202125}, {"type": "electric_scooter", "name": "3cf184ba052e156248d433c85d733132", "rental_uris": {"ios": "https://dc.lft.to/lastmile_qr_scan", "android": "https://dc.lft.to/lastmile_qr_scan"}, "fusion_lon": 0.0, "lat": 38.885041333333334, "is_disabled": 0, "bike_id": "3cf184ba052e156248d433c85d733132", "fusion_lat": 0.0, "is_reserved": 0, "lon": -77.00700083333334}, {"type": "electric_scooter", "name": "912587ca549270e8899be161005f1a1c", "rental_uris": {"ios": "https://dc.lft.to/lastmile_qr_scan", "android": "https://dc.lft.to/lastmile_qr_scan"}, "fusion_lon": 0.0, "lat": 38.865607833333335, "is_disabled": 0, "bike_id": "912587ca549270e8899be161005f1a1c", "fusion_lat": 0.0, "is_reserved": 0, "lon": -76.983502}, {"type": "electric_scooter", "name": "316fb2334710ce3f1e11799366efe2bc", "rental_uris": {"ios": "https://dc.lft.to/lastmile_qr_scan", "android": "https://dc.lft.to/lastmile_qr_scan"}, "fusion_lon": 0.0, "lat": 38.922729833333335, "is_disabled": 0, "bike_id": "316fb2334710ce3f1e11799366efe2bc", "fusion_lat": 0.0, "is_reserved": 0, "lon": -77.02970883333333}, {"type": "electric_scooter", "name": "55f6c67d924e7e6021b0a6125686177a", "rental_uris": {"ios": "https://dc.lft.to/lastmile_qr_scan", "android": "https://dc.lft.to/lastmile_qr_scan"}, "fusion_lon": 0.0, "lat": 38.898726833333335, "is_disabled": 0, "bike_id": "55f6c67d924e7e6021b0a6125686177a", "fusion_lat": 0.0, "is_reserved": 0, "lon": -76.931864}, {"type": "electric_scooter", "name": "7688a57d3c0c1064657478b564d00743", "rental_uris": {"ios": "https://dc.lft.to/lastmile_qr_scan", "android": "https://dc.lft.to/lastmile_qr_scan"}, "fusion_lon": 0.0, "lat": 38.9171655, "is_disabled": 0, "bike_id": "7688a57d3c0c1064657478b564d00743", "fusion_lat": 0.0, "is_reserved": 0, "lon": -77.036645}, {"type": "electric_scooter", "name": "8aa3a4bddd7ca7ab77a00016e2be60b4", "rental_uris": {"ios": "https://dc.lft.to/lastmile_qr_scan", "android": "https://dc.lft.to/lastmile_qr_scan"}, "fusion_lon": 0.0, "lat": 38.924868833333335, "is_disabled": 0, "bike_id": "8aa3a4bddd7ca7ab77a00016e2be60b4", "fusion_lat": 0.0, "is_reserved": 0, "lon": -77.026589}, {"type": "electric_scooter", "name": "48a2eb7a68aa7d2c54d14586a7873bc9", "rental_uris": {"ios": "https://dc.lft.to/lastmile_qr_scan", "android": "https://dc.lft.to/lastmile_qr_scan"}, "fusion_lon": 0.0, "lat": 38.925642833333335, "is_disabled": 0, "bike_id": "48a2eb7a68aa7d2c54d14586a7873bc9", "fusion_lat": 0.0, "is_reserved": 0, "lon": -77.02711883333333}, {"type": "electric_scooter", "name": "4b8cdee9cf1f30c8c197b4dce11f4579", "rental_uris": {"ios": "https://dc.lft.to/lastmile_qr_scan", "android": "https://dc.lft.to/lastmile_qr_scan"}, "fusion_lon": 0.0, "lat": 38.9056275, "is_disabled": 0, "bike_id": "4b8cdee9cf1f30c8c197b4dce11f4579", "fusion_lat": 0.0, "is_reserved": 0, "lon": -77.02386283333334}, {"type": "electric_scooter", "name": "1c62dec597862a4192fa5c8b85cae341", "rental_uris": {"ios": "https://dc.lft.to/lastmile_qr_scan", "android": "https://dc.lft.to/lastmile_qr_scan"}, "fusion_lon": 0.0, "lat": 38.902006166666666, "is_disabled": 0, "bike_id": "1c62dec597862a4192fa5c8b85cae341", "fusion_lat": 0.0, "is_reserved": 0, "lon": -77.02373933333334}, {"type": "electric_scooter", "name": "c9346216035f8de2c71c65a1145d581e", "rental_uris": {"ios": "https://dc.lft.to/lastmile_qr_scan", "android": "https://dc.lft.to/lastmile_qr_scan"}, "fusion_lon": 0.0, "lat": 38.904996, "is_disabled": 0, "bike_id": "c9346216035f8de2c71c65a1145d581e", "fusion_lat": 0.0, "is_reserved": 0, "lon": -77.02950333333334}, {"type": "electric_scooter", "name": "854a1747771dc79edc7d51ce7782f7f0", "rental_uris": {"ios": "https://dc.lft.to/lastmile_qr_scan", "android": "https://dc.lft.to/lastmile_qr_scan"}, "fusion_lon": 0.0, "lat": 38.9098135, "is_disabled": 0, "bike_id": "854a1747771dc79edc7d51ce7782f7f0", "fusion_lat": 0.0, "is_reserved": 0, "lon": -77.06504416666667}, {"type": "electric_scooter", "name": "89b61a83bc0d51402cb960e9cc377de8", "rental_uris": {"ios": "https://dc.lft.to/lastmile_qr_scan", "android": "https://dc.lft.to/lastmile_qr_scan"}, "fusion_lon": 0.0, "lat": 38.9391125, "is_disabled": 0, "bike_id": "89b61a83bc0d51402cb960e9cc377de8", "fusion_lat": 0.0, "is_reserved": 0, "lon": -77.03621316666667}, {"type": "electric_bike", "name": "9912c3bb9d1d06bb2029b66c5320f2f2", "rental_uris": {"ios": "https://dc.lft.to/lastmile_qr_scan", "android": "https://dc.lft.to/lastmile_qr_scan"}, "fusion_lon": 0.0, "lat": 39.05253916666667, "is_disabled": 0, "bike_id": "9912c3bb9d1d06bb2029b66c5320f2f2", "fusion_lat": 0.0, "is_reserved": 0, "lon": -77.08067583333333}, {"type": "electric_scooter", "name": "0a5a6c6658bec45ed3f4f06f5b7728b1", "rental_uris": {"ios": "https://dc.lft.to/lastmile_qr_scan", "android": "https://dc.lft.to/lastmile_qr_scan"}, "fusion_lon": 0.0, "lat": 38.89615166666667, "is_disabled": 0, "bike_id": "0a5a6c6658bec45ed3f4f06f5b7728b1", "fusion_lat": 0.0, "is_reserved": 0, "lon": -77.00923183333333}, {"type": "electric_scooter", "name": "debe3f9f17968156f00573e06f5975cd", "rental_uris": {"ios": "https://dc.lft.to/lastmile_qr_scan", "android": "https://dc.lft.to/lastmile_qr_scan"}, "fusion_lon": 0.0, "lat": 38.873706166666665, "is_disabled": 0, "bike_id": "debe3f9f17968156f00573e06f5975cd", "fusion_lat": 0.0, "is_reserved": 0, "lon": -76.9700165}, {"type": "electric_scooter", "name": "b513e21cef8d508fee26659300a4a259", "rental_uris": {"ios": "https://dc.lft.to/lastmile_qr_scan", "android": "https://dc.lft.to/lastmile_qr_scan"}, "fusion_lon": 0.0, "lat": 38.8831775, "is_disabled": 0, "bike_id": "b513e21cef8d508fee26659300a4a259", "fusion_lat": 0.0, "is_reserved": 0, "lon": -77.01774366666666}, {"type": "electric_scooter", "name": "1f83c74b17f773e6ca8c354aa86a0367", "rental_uris": {"ios": "https://dc.lft.to/lastmile_qr_scan", "android": "https://dc.lft.to/lastmile_qr_scan"}, "fusion_lon": 0.0, "lat": 38.89872416666667, "is_disabled": 0, "bike_id": "1f83c74b17f773e6ca8c354aa86a0367", "fusion_lat": 0.0, "is_reserved": 0, "lon": -76.93183916666666}, {"type": "electric_scooter", "name": "176821468ec7afdfed9e0390d38928e1", "rental_uris": {"ios": "https://dc.lft.to/lastmile_qr_scan", "android": "https://dc.lft.to/lastmile_qr_scan"}, "fusion_lon": 0.0, "lat": 38.874007666666664, "is_disabled": 0, "bike_id": "176821468ec7afdfed9e0390d38928e1", "fusion_lat": 0.0, "is_reserved": 0, "lon": -77.00198216666666}, {"type": "electric_scooter", "name": "cb4b44e0dbf1cf5c73f8786f7d27387a", "rental_uris": {"ios": "https://dc.lft.to/lastmile_qr_scan", "android": "https://dc.lft.to/lastmile_qr_scan"}, "fusion_lon": 0.0, "lat": 38.920606, "is_disabled": 0, "bike_id": "cb4b44e0dbf1cf5c73f8786f7d27387a", "fusion_lat": 0.0, "is_reserved": 0, "lon": -77.02534883333334}, {"type": "electric_scooter", "name": "8ef03969c5b59ac0385c9d24a0551f33", "rental_uris": {"ios": "https://dc.lft.to/lastmile_qr_scan", "android": "https://dc.lft.to/lastmile_qr_scan"}, "fusion_lon": 0.0, "lat": 38.900146166666666, "is_disabled": 0, "bike_id": "8ef03969c5b59ac0385c9d24a0551f33", "fusion_lat": 0.0, "is_reserved": 0, "lon": -76.98852183333334}, {"type": "electric_scooter", "name": "2947102bee8620d461b202ac96f1a7c6", "rental_uris": {"ios": "https://dc.lft.to/lastmile_qr_scan", "android": "https://dc.lft.to/lastmile_qr_scan"}, "fusion_lon": 0.0, "lat": 38.8833555, "is_disabled": 0, "bike_id": "2947102bee8620d461b202ac96f1a7c6", "fusion_lat": 0.0, "is_reserved": 0, "lon": -77.01746266666666}, {"type": "electric_scooter", "name": "e17cee53a4d09b27ca758e005c6a9076", "rental_uris": {"ios": "https://dc.lft.to/lastmile_qr_scan", "android": "https://dc.lft.to/lastmile_qr_scan"}, "fusion_lon": 0.0, "lat": 38.904788833333335, "is_disabled": 0, "bike_id": "e17cee53a4d09b27ca758e005c6a9076", "fusion_lat": 0.0, "is_reserved": 0, "lon": -77.0347585}, {"type": "electric_scooter", "name": "1af8a795daa5b76b45fece7c9bf6787b", "rental_uris": {"ios": "https://dc.lft.to/lastmile_qr_scan", "android": "https://dc.lft.to/lastmile_qr_scan"}, "fusion_lon": 0.0, "lat": 38.919103666666665, "is_disabled": 0, "bike_id": "1af8a795daa5b76b45fece7c9bf6787b", "fusion_lat": 0.0, "is_reserved": 0, "lon": -77.04105883333334}, {"type": "electric_bike", "name": "74c835abed2272f601569db9f75d5c36", "rental_uris": {"ios": "https://dc.lft.to/lastmile_qr_scan", "android": "https://dc.lft.to/lastmile_qr_scan"}, "fusion_lon": 0.0, "lat": 39.0141965, "is_disabled": 0, "bike_id": "74c835abed2272f601569db9f75d5c36", "fusion_lat": 0.0, "is_reserved": 0, "lon": -77.04498633333333}, {"type": "electric_scooter", "name": "e2b071ed037116f9351a3c558b07dc2a", "rental_uris": {"ios": "https://dc.lft.to/lastmile_qr_scan", "android": "https://dc.lft.to/lastmile_qr_scan"}, "fusion_lon": 0.0, "lat": 38.914243, "is_disabled": 0, "bike_id": "e2b071ed037116f9351a3c558b07dc2a", "fusion_lat": 0.0, "is_reserved": 0, "lon": -77.03924183333334}, {"type": "electric_scooter", "name": "43dd88ae84c37af60003b6e77fa46f00", "rental_uris": {"ios": "https://dc.lft.to/lastmile_qr_scan", "android": "https://dc.lft.to/lastmile_qr_scan"}, "fusion_lon": 0.0, "lat": 38.88509283333333, "is_disabled": 0, "bike_id": "43dd88ae84c37af60003b6e77fa46f00", "fusion_lat": 0.0, "is_reserved": 0, "lon": -76.99757116666666}, {"type": "electric_bike", "name": "e6f1d9901516b3fcf14f806ade425ff0", "rental_uris": {"ios": "https://dc.lft.to/lastmile_qr_scan", "android": "https://dc.lft.to/lastmile_qr_scan"}, "fusion_lon": 0.0, "lat": 38.85791483333333, "is_disabled": 0, "bike_id": "e6f1d9901516b3fcf14f806ade425ff0", "fusion_lat": 0.0, "is_reserved": 0, "lon": -77.099648}, {"type": "electric_scooter", "name": "97a70f126dcfc8d9d0b9ffd6ea52a067", "rental_uris": {"ios": "https://dc.lft.to/lastmile_qr_scan", "android": "https://dc.lft.to/lastmile_qr_scan"}, "fusion_lon": 0.0, "lat": 38.917715666666666, "is_disabled": 0, "bike_id": "97a70f126dcfc8d9d0b9ffd6ea52a067", "fusion_lat": 0.0, "is_reserved": 0, "lon": -77.01923483333333}, {"type": "electric_bike", "name": "054ed25e9ab536adbef6f07917b8aab0", "rental_uris": {"ios": "https://dc.lft.to/lastmile_qr_scan", "android": "https://dc.lft.to/lastmile_qr_scan"}, "fusion_lon": 0.0, "lat": 38.930476, "is_disabled": 0, "bike_id": "054ed25e9ab536adbef6f07917b8aab0", "fusion_lat": 0.0, "is_reserved": 0, "lon": -76.95837216666666}, {"type": "electric_scooter", "name": "6c3740caca26019b96dbae832694367e", "rental_uris": {"ios": "https://dc.lft.to/lastmile_qr_scan", "android": "https://dc.lft.to/lastmile_qr_scan"}, "fusion_lon": 0.0, "lat": 38.90910383333333, "is_disabled": 0, "bike_id": "6c3740caca26019b96dbae832694367e", "fusion_lat": 0.0, "is_reserved": 0, "lon": -76.98631466666667}, {"type": "electric_scooter", "name": "c89f3e56501d99860be86a46feef0d9d", "rental_uris": {"ios": "https://dc.lft.to/lastmile_qr_scan", "android": "https://dc.lft.to/lastmile_qr_scan"}, "fusion_lon": 0.0, "lat": 38.89526933333333, "is_disabled": 0, "bike_id": "c89f3e56501d99860be86a46feef0d9d", "fusion_lat": 0.0, "is_reserved": 0, "lon": -77.00208566666667}, {"type": "electric_bike", "name": "4c312278ff9cf9afb39cd6684fa4da84", "rental_uris": {"ios": "https://dc.lft.to/lastmile_qr_scan", "android": "https://dc.lft.to/lastmile_qr_scan"}, "fusion_lon": 0.0, "lat": 38.81610416666667, "is_disabled": 0, "bike_id": "4c312278ff9cf9afb39cd6684fa4da84", "fusion_lat": 0.0, "is_reserved": 0, "lon": -76.99664583333333}, {"type": "electric_scooter", "name": "ab6750cf6534470f7dc40083cb4c6c64", "rental_uris": {"ios": "https://dc.lft.to/lastmile_qr_scan", "android": "https://dc.lft.to/lastmile_qr_scan"}, "fusion_lon": 0.0, "lat": 38.9204635, "is_disabled": 0, "bike_id": "ab6750cf6534470f7dc40083cb4c6c64", "fusion_lat": 0.0, "is_reserved": 0, "lon": -77.01797816666667}, {"type": "electric_bike", "name": "d7b30e81a2a2d1e4128f738c83b55992", "rental_uris": {"ios": "https://dc.lft.to/lastmile_qr_scan", "android": "https://dc.lft.to/lastmile_qr_scan"}, "fusion_lon": 0.0, "lat": 38.94818883333333, "is_disabled": 0, "bike_id": "d7b30e81a2a2d1e4128f738c83b55992", "fusion_lat": 0.0, "is_reserved": 0, "lon": -77.02979466666666}, {"type": "electric_scooter", "name": "89eb80c326613ce1c046f192cc2b9eb5", "rental_uris": {"ios": "https://dc.lft.to/lastmile_qr_scan", "android": "https://dc.lft.to/lastmile_qr_scan"}, "fusion_lon": 0.0, "lat": 38.855776166666665, "is_disabled": 0, "bike_id": "89eb80c326613ce1c046f192cc2b9eb5", "fusion_lat": 0.0, "is_reserved": 0, "lon": -76.9665535}, {"type": "electric_scooter", "name": "e5ec3438d4216254a4703eafffa09710", "rental_uris": {"ios": "https://dc.lft.to/lastmile_qr_scan", "android": "https://dc.lft.to/lastmile_qr_scan"}, "fusion_lon": 0.0, "lat": 38.9245845, "is_disabled": 0, "bike_id": "e5ec3438d4216254a4703eafffa09710", "fusion_lat": 0.0, "is_reserved": 0, "lon": -77.02152233333334}, {"type": "electric_scooter", "name": "b08a77780ebe27647b3d3a7c3423d3d3", "rental_uris": {"ios": "https://dc.lft.to/lastmile_qr_scan", "android": "https://dc.lft.to/lastmile_qr_scan"}, "fusion_lon": 0.0, "lat": 38.9236455, "is_disabled": 0, "bike_id": "b08a77780ebe27647b3d3a7c3423d3d3", "fusion_lat": 0.0, "is_reserved": 0, "lon": -77.050271}, {"type": "electric_scooter", "name": "25adfb6a1546a53824c879a484926bc8", "rental_uris": {"ios": "https://dc.lft.to/lastmile_qr_scan", "android": "https://dc.lft.to/lastmile_qr_scan"}, "fusion_lon": 0.0, "lat": 38.9343765, "is_disabled": 0, "bike_id": "25adfb6a1546a53824c879a484926bc8", "fusion_lat": 0.0, "is_reserved": 0, "lon": -77.03455133333334}, {"type": "electric_scooter", "name": "9e4921fd41a0031c70893f6e01269a3f", "rental_uris": {"ios": "https://dc.lft.to/lastmile_qr_scan", "android": "https://dc.lft.to/lastmile_qr_scan"}, "fusion_lon": 0.0, "lat": 38.893579833333334, "is_disabled": 0, "bike_id": "9e4921fd41a0031c70893f6e01269a3f", "fusion_lat": 0.0, "is_reserved": 0, "lon": -77.01198633333334}, {"type": "electric_scooter", "name": "fe4ab039f15b31c4e7cbbc126cc5da6b", "rental_uris": {"ios": "https://dc.lft.to/lastmile_qr_scan", "android": "https://dc.lft.to/lastmile_qr_scan"}, "fusion_lon": 0.0, "lat": 38.932461833333335, "is_disabled": 0, "bike_id": "fe4ab039f15b31c4e7cbbc126cc5da6b", "fusion_lat": 0.0, "is_reserved": 0, "lon": -77.03888633333334}, {"type": "electric_scooter", "name": "1e5a6d0d4ef66a63174e818e536cebd2", "rental_uris": {"ios": "https://dc.lft.to/lastmile_qr_scan", "android": "https://dc.lft.to/lastmile_qr_scan"}, "fusion_lon": 0.0, "lat": 38.91913366666667, "is_disabled": 0, "bike_id": "1e5a6d0d4ef66a63174e818e536cebd2", "fusion_lat": 0.0, "is_reserved": 0, "lon": -77.044691}, {"type": "electric_scooter", "name": "074dcfd0d986d0cf99ad484a6599ff62", "rental_uris": {"ios": "https://dc.lft.to/lastmile_qr_scan", "android": "https://dc.lft.to/lastmile_qr_scan"}, "fusion_lon": 0.0, "lat": 38.89710516666667, "is_disabled": 0, "bike_id": "074dcfd0d986d0cf99ad484a6599ff62", "fusion_lat": 0.0, "is_reserved": 0, "lon": -77.0229315}, {"type": "electric_scooter", "name": "79c57950dfa3c3dce76e6a3387969f3b", "rental_uris": {"ios": "https://dc.lft.to/lastmile_qr_scan", "android": "https://dc.lft.to/lastmile_qr_scan"}, "fusion_lon": 0.0, "lat": 38.899192, "is_disabled": 0, "bike_id": "79c57950dfa3c3dce76e6a3387969f3b", "fusion_lat": 0.0, "is_reserved": 0, "lon": -76.98536633333333}, {"type": "electric_scooter", "name": "bce2d82bbbc7b6fcb49616d0b8e2d634", "rental_uris": {"ios": "https://dc.lft.to/lastmile_qr_scan", "android": "https://dc.lft.to/lastmile_qr_scan"}, "fusion_lon": 0.0, "lat": 38.904701, "is_disabled": 0, "bike_id": "bce2d82bbbc7b6fcb49616d0b8e2d634", "fusion_lat": 0.0, "is_reserved": 0, "lon": -77.0075265}, {"type": "electric_scooter", "name": "7d0088f7404aa43d75957bdae3c1092f", "rental_uris": {"ios": "https://dc.lft.to/lastmile_qr_scan", "android": "https://dc.lft.to/lastmile_qr_scan"}, "fusion_lon": 0.0, "lat": 38.861791, "is_disabled": 0, "bike_id": "7d0088f7404aa43d75957bdae3c1092f", "fusion_lat": 0.0, "is_reserved": 0, "lon": -76.98371433333334}, {"type": "electric_scooter", "name": "aa336d86146f34c0f04559b529c173b1", "rental_uris": {"ios": "https://dc.lft.to/lastmile_qr_scan", "android": "https://dc.lft.to/lastmile_qr_scan"}, "fusion_lon": 0.0, "lat": 38.907176166666666, "is_disabled": 0, "bike_id": "aa336d86146f34c0f04559b529c173b1", "fusion_lat": 0.0, "is_reserved": 0, "lon": -77.0256455}, {"type": "electric_scooter", "name": "6c25e1c24e87b075d36c9928836f0028", "rental_uris": {"ios": "https://dc.lft.to/lastmile_qr_scan", "android": "https://dc.lft.to/lastmile_qr_scan"}, "fusion_lon": 0.0, "lat": 38.89284516666667, "is_disabled": 0, "bike_id": "6c25e1c24e87b075d36c9928836f0028", "fusion_lat": 0.0, "is_reserved": 0, "lon": -76.98306083333334}, {"type": "electric_scooter", "name": "4fa7febf984dbea28b34a26212e65476", "rental_uris": {"ios": "https://dc.lft.to/lastmile_qr_scan", "android": "https://dc.lft.to/lastmile_qr_scan"}, "fusion_lon": 0.0, "lat": 38.91911833333333, "is_disabled": 0, "bike_id": "4fa7febf984dbea28b34a26212e65476", "fusion_lat": 0.0, "is_reserved": 0, "lon": -77.03442216666667}, {"type": "electric_scooter", "name": "c2f5524d18983a3ec8299b71e4dcce05", "rental_uris": {"ios": "https://dc.lft.to/lastmile_qr_scan", "android": "https://dc.lft.to/lastmile_qr_scan"}, "fusion_lon": 0.0, "lat": 38.884519833333336, "is_disabled": 0, "bike_id": "c2f5524d18983a3ec8299b71e4dcce05", "fusion_lat": 0.0, "is_reserved": 0, "lon": -76.95096116666667}, {"type": "electric_scooter", "name": "9ef7958d61c743dad7b5ba8daf72f712", "rental_uris": {"ios": "https://dc.lft.to/lastmile_qr_scan", "android": "https://dc.lft.to/lastmile_qr_scan"}, "fusion_lon": 0.0, "lat": 38.92068916666667, "is_disabled": 0, "bike_id": "9ef7958d61c743dad7b5ba8daf72f712", "fusion_lat": 0.0, "is_reserved": 0, "lon": -77.0408205}, {"type": "electric_scooter", "name": "4e18308034cf1c0c340cd0532dee133c", "rental_uris": {"ios": "https://dc.lft.to/lastmile_qr_scan", "android": "https://dc.lft.to/lastmile_qr_scan"}, "fusion_lon": 0.0, "lat": 38.9432945, "is_disabled": 0, "bike_id": "4e18308034cf1c0c340cd0532dee133c", "fusion_lat": 0.0, "is_reserved": 0, "lon": -77.01315916666667}, {"type": "electric_scooter", "name": "311ef8fe8e6ecb8fd02b317897401438", "rental_uris": {"ios": "https://dc.lft.to/lastmile_qr_scan", "android": "https://dc.lft.to/lastmile_qr_scan"}, "fusion_lon": 0.0, "lat": 38.89294233333333, "is_disabled": 0, "bike_id": "311ef8fe8e6ecb8fd02b317897401438", "fusion_lat": 0.0, "is_reserved": 0, "lon": -76.9752565}, {"type": "electric_scooter", "name": "a94d43e9ee82d6fc20acd6363e68cfa3", "rental_uris": {"ios": "https://dc.lft.to/lastmile_qr_scan", "android": "https://dc.lft.to/lastmile_qr_scan"}, "fusion_lon": 0.0, "lat": 38.913011166666664, "is_disabled": 0, "bike_id": "a94d43e9ee82d6fc20acd6363e68cfa3", "fusion_lat": 0.0, "is_reserved": 0, "lon": -77.048747}, {"type": "electric_scooter", "name": "3cb5a58534af47ff95228884cb8dcc4d", "rental_uris": {"ios": "https://dc.lft.to/lastmile_qr_scan", "android": "https://dc.lft.to/lastmile_qr_scan"}, "fusion_lon": 0.0, "lat": 38.90193266666667, "is_disabled": 0, "bike_id": "3cb5a58534af47ff95228884cb8dcc4d", "fusion_lat": 0.0, "is_reserved": 0, "lon": -76.98200033333333}, {"type": "electric_scooter", "name": "9dc28084dd538158aefff1160d791d6a", "rental_uris": {"ios": "https://dc.lft.to/lastmile_qr_scan", "android": "https://dc.lft.to/lastmile_qr_scan"}, "fusion_lon": 0.0, "lat": 38.90175416666666, "is_disabled": 0, "bike_id": "9dc28084dd538158aefff1160d791d6a", "fusion_lat": 0.0, "is_reserved": 0, "lon": -77.0134275}, {"type": "electric_scooter", "name": "7860ce122cee9b2bde95bf4fd8f6583a", "rental_uris": {"ios": "https://dc.lft.to/lastmile_qr_scan", "android": "https://dc.lft.to/lastmile_qr_scan"}, "fusion_lon": 0.0, "lat": 38.887666833333334, "is_disabled": 0, "bike_id": "7860ce122cee9b2bde95bf4fd8f6583a", "fusion_lat": 0.0, "is_reserved": 0, "lon": -76.97749266666666}, {"type": "electric_bike", "name": "ebf9cec325800999652b930c03cf1285", "rental_uris": {"ios": "https://dc.lft.to/lastmile_qr_scan", "android": "https://dc.lft.to/lastmile_qr_scan"}, "fusion_lon": 0.0, "lat": 39.03404366666667, "is_disabled": 0, "bike_id": "ebf9cec325800999652b930c03cf1285", "fusion_lat": 0.0, "is_reserved": 0, "lon": -77.04153933333333}, {"type": "electric_scooter", "name": "546ddcfb33c95f5daf9ee9622295c9b3", "rental_uris": {"ios": "https://dc.lft.to/lastmile_qr_scan", "android": "https://dc.lft.to/lastmile_qr_scan"}, "fusion_lon": 0.0, "lat": 38.890439666666666, "is_disabled": 0, "bike_id": "546ddcfb33c95f5daf9ee9622295c9b3", "fusion_lat": 0.0, "is_reserved": 0, "lon": -76.99038466666667}, {"type": "electric_scooter", "name": "76f73b7f34cccdccce5fc0e8de32f094", "rental_uris": {"ios": "https://dc.lft.to/lastmile_qr_scan", "android": "https://dc.lft.to/lastmile_qr_scan"}, "fusion_lon": 0.0, "lat": 38.91535116666667, "is_disabled": 0, "bike_id": "76f73b7f34cccdccce5fc0e8de32f094", "fusion_lat": 0.0, "is_reserved": 0, "lon": -77.012242}, {"type": "electric_scooter", "name": "eadf156ea490dfe4fa2ea8590d7eec93", "rental_uris": {"ios": "https://dc.lft.to/lastmile_qr_scan", "android": "https://dc.lft.to/lastmile_qr_scan"}, "fusion_lon": 0.0, "lat": 38.9192145, "is_disabled": 0, "bike_id": "eadf156ea490dfe4fa2ea8590d7eec93", "fusion_lat": 0.0, "is_reserved": 0, "lon": -77.031815}, {"type": "electric_scooter", "name": "95465c8ec33d45caf9655478c0ec7e65", "rental_uris": {"ios": "https://dc.lft.to/lastmile_qr_scan", "android": "https://dc.lft.to/lastmile_qr_scan"}, "fusion_lon": 0.0, "lat": 38.90013066666667, "is_disabled": 0, "bike_id": "95465c8ec33d45caf9655478c0ec7e65", "fusion_lat": 0.0, "is_reserved": 0, "lon": -77.00183683333333}, {"type": "electric_scooter", "name": "816491c0f02453095aa320274454c6f9", "rental_uris": {"ios": "https://dc.lft.to/lastmile_qr_scan", "android": "https://dc.lft.to/lastmile_qr_scan"}, "fusion_lon": 0.0, "lat": 38.8848855, "is_disabled": 0, "bike_id": "816491c0f02453095aa320274454c6f9", "fusion_lat": 0.0, "is_reserved": 0, "lon": -77.00711016666666}, {"type": "electric_scooter", "name": "ca42bb159719d80c3e3d53ba256fcb1e", "rental_uris": {"ios": "https://dc.lft.to/lastmile_qr_scan", "android": "https://dc.lft.to/lastmile_qr_scan"}, "fusion_lon": 0.0, "lat": 38.94312866666667, "is_disabled": 0, "bike_id": "ca42bb159719d80c3e3d53ba256fcb1e", "fusion_lat": 0.0, "is_reserved": 0, "lon": -77.01730433333333}, {"type": "electric_scooter", "name": "8096b00d298b7e0050f3f12c185820f0", "rental_uris": {"ios": "https://dc.lft.to/lastmile_qr_scan", "android": "https://dc.lft.to/lastmile_qr_scan"}, "fusion_lon": 0.0, "lat": 38.90690283333333, "is_disabled": 0, "bike_id": "8096b00d298b7e0050f3f12c185820f0", "fusion_lat": 0.0, "is_reserved": 0, "lon": -76.98497266666666}, {"type": "electric_scooter", "name": "ac527ab43103c3dc188e96d824c55180", "rental_uris": {"ios": "https://dc.lft.to/lastmile_qr_scan", "android": "https://dc.lft.to/lastmile_qr_scan"}, "fusion_lon": 0.0, "lat": 38.908386166666666, "is_disabled": 0, "bike_id": "ac527ab43103c3dc188e96d824c55180", "fusion_lat": 0.0, "is_reserved": 0, "lon": -77.05576516666666}, {"type": "electric_scooter", "name": "8e5f55876873981d55c8455c604dce84", "rental_uris": {"ios": "https://dc.lft.to/lastmile_qr_scan", "android": "https://dc.lft.to/lastmile_qr_scan"}, "fusion_lon": 0.0, "lat": 38.92090866666667, "is_disabled": 0, "bike_id": "8e5f55876873981d55c8455c604dce84", "fusion_lat": 0.0, "is_reserved": 0, "lon": -77.031614}, {"type": "electric_scooter", "name": "ce2829d3364147e4c8f84a9d10f8c9c6", "rental_uris": {"ios": "https://dc.lft.to/lastmile_qr_scan", "android": "https://dc.lft.to/lastmile_qr_scan"}, "fusion_lon": 0.0, "lat": 38.918138, "is_disabled": 0, "bike_id": "ce2829d3364147e4c8f84a9d10f8c9c6", "fusion_lat": 0.0, "is_reserved": 0, "lon": -77.02473166666667}, {"type": "electric_scooter", "name": "61359f50220bfd148d96328188bc73cd", "rental_uris": {"ios": "https://dc.lft.to/lastmile_qr_scan", "android": "https://dc.lft.to/lastmile_qr_scan"}, "fusion_lon": 0.0, "lat": 38.886402833333335, "is_disabled": 0, "bike_id": "61359f50220bfd148d96328188bc73cd", "fusion_lat": 0.0, "is_reserved": 0, "lon": -77.01539166666667}, {"type": "electric_scooter", "name": "2edb04732a8e06fe2df1e9b6f375e41f", "rental_uris": {"ios": "https://dc.lft.to/lastmile_qr_scan", "android": "https://dc.lft.to/lastmile_qr_scan"}, "fusion_lon": 0.0, "lat": 38.91923666666667, "is_disabled": 0, "bike_id": "2edb04732a8e06fe2df1e9b6f375e41f", "fusion_lat": 0.0, "is_reserved": 0, "lon": -77.031921}, {"type": "electric_scooter", "name": "941aff8d50d0e49a54c05070d4cdfe69", "rental_uris": {"ios": "https://dc.lft.to/lastmile_qr_scan", "android": "https://dc.lft.to/lastmile_qr_scan"}, "fusion_lon": 0.0, "lat": 38.919169833333335, "is_disabled": 0, "bike_id": "941aff8d50d0e49a54c05070d4cdfe69", "fusion_lat": 0.0, "is_reserved": 0, "lon": -77.03187766666667}, {"type": "electric_scooter", "name": "8c7bd0d4a77848fb530b5e78ab7ecbcb", "rental_uris": {"ios": "https://dc.lft.to/lastmile_qr_scan", "android": "https://dc.lft.to/lastmile_qr_scan"}, "fusion_lon": 0.0, "lat": 38.905904166666666, "is_disabled": 0, "bike_id": "8c7bd0d4a77848fb530b5e78ab7ecbcb", "fusion_lat": 0.0, "is_reserved": 0, "lon": -77.0655835}, {"type": "electric_scooter", "name": "fadbaaec1160d8422e4a6837783f11ec", "rental_uris": {"ios": "https://dc.lft.to/lastmile_qr_scan", "android": "https://dc.lft.to/lastmile_qr_scan"}, "fusion_lon": 0.0, "lat": 38.854557666666665, "is_disabled": 0, "bike_id": "fadbaaec1160d8422e4a6837783f11ec", "fusion_lat": 0.0, "is_reserved": 0, "lon": -76.972299}, {"type": "electric_scooter", "name": "0ae1496d66038c6e32fc06089624c930", "rental_uris": {"ios": "https://dc.lft.to/lastmile_qr_scan", "android": "https://dc.lft.to/lastmile_qr_scan"}, "fusion_lon": 0.0, "lat": 38.87662616666667, "is_disabled": 0, "bike_id": "0ae1496d66038c6e32fc06089624c930", "fusion_lat": 0.0, "is_reserved": 0, "lon": -77.00752783333333}, {"type": "electric_bike", "name": "557337f2513a750c71523b1e284534a4", "rental_uris": {"ios": "https://dc.lft.to/lastmile_qr_scan", "android": "https://dc.lft.to/lastmile_qr_scan"}, "fusion_lon": 0.0, "lat": 39.08445, "is_disabled": 0, "bike_id": "557337f2513a750c71523b1e284534a4", "fusion_lat": 0.0, "is_reserved": 0, "lon": -76.95207283333333}, {"type": "electric_scooter", "name": "9f1206b427a5d7176f2672fd4307f7de", "rental_uris": {"ios": "https://dc.lft.to/lastmile_qr_scan", "android": "https://dc.lft.to/lastmile_qr_scan"}, "fusion_lon": 0.0, "lat": 38.919395333333334, "is_disabled": 0, "bike_id": "9f1206b427a5d7176f2672fd4307f7de", "fusion_lat": 0.0, "is_reserved": 0, "lon": -77.02494433333334}, {"type": "electric_scooter", "name": "8925b4ca00700387be1800eeaaa64775", "rental_uris": {"ios": "https://dc.lft.to/lastmile_qr_scan", "android": "https://dc.lft.to/lastmile_qr_scan"}, "fusion_lon": 0.0, "lat": 38.926527166666666, "is_disabled": 0, "bike_id": "8925b4ca00700387be1800eeaaa64775", "fusion_lat": 0.0, "is_reserved": 0, "lon": -77.04303083333333}, {"type": "electric_scooter", "name": "14dad6b67ed1b3623e9fef9286b9d951", "rental_uris": {"ios": "https://dc.lft.to/lastmile_qr_scan", "android": "https://dc.lft.to/lastmile_qr_scan"}, "fusion_lon": 0.0, "lat": 38.89401433333333, "is_disabled": 0, "bike_id": "14dad6b67ed1b3623e9fef9286b9d951", "fusion_lat": 0.0, "is_reserved": 0, "lon": -76.99156583333334}, {"type": "electric_scooter", "name": "3d62a205ff95920a64ada02983ca9847", "rental_uris": {"ios": "https://dc.lft.to/lastmile_qr_scan", "android": "https://dc.lft.to/lastmile_qr_scan"}, "fusion_lon": 0.0, "lat": 38.91483566666667, "is_disabled": 0, "bike_id": "3d62a205ff95920a64ada02983ca9847", "fusion_lat": 0.0, "is_reserved": 0, "lon": -77.008807}, {"type": "electric_scooter", "name": "c29a3ff7bdd21a6cd520fa73da78f424", "rental_uris": {"ios": "https://dc.lft.to/lastmile_qr_scan", "android": "https://dc.lft.to/lastmile_qr_scan"}, "fusion_lon": 0.0, "lat": 38.90688983333333, "is_disabled": 0, "bike_id": "c29a3ff7bdd21a6cd520fa73da78f424", "fusion_lat": 0.0, "is_reserved": 0, "lon": -77.0572695}, {"type": "electric_scooter", "name": "033e9109a6ebb00e0ebce8073cab645f", "rental_uris": {"ios": "https://dc.lft.to/lastmile_qr_scan", "android": "https://dc.lft.to/lastmile_qr_scan"}, "fusion_lon": 0.0, "lat": 38.935383333333334, "is_disabled": 0, "bike_id": "033e9109a6ebb00e0ebce8073cab645f", "fusion_lat": 0.0, "is_reserved": 0, "lon": -77.05823416666667}, {"type": "electric_scooter", "name": "ac0874ef21fda50e85ec3bf49ac3ee39", "rental_uris": {"ios": "https://dc.lft.to/lastmile_qr_scan", "android": "https://dc.lft.to/lastmile_qr_scan"}, "fusion_lon": 0.0, "lat": 38.887315666666666, "is_disabled": 0, "bike_id": "ac0874ef21fda50e85ec3bf49ac3ee39", "fusion_lat": 0.0, "is_reserved": 0, "lon": -76.99490733333333}, {"type": "electric_scooter", "name": "289a48788fe80907cb97efb5b478f430", "rental_uris": {"ios": "https://dc.lft.to/lastmile_qr_scan", "android": "https://dc.lft.to/lastmile_qr_scan"}, "fusion_lon": 0.0, "lat": 38.892417333333334, "is_disabled": 0, "bike_id": "289a48788fe80907cb97efb5b478f430", "fusion_lat": 0.0, "is_reserved": 0, "lon": -77.03957116666666}, {"type": "electric_scooter", "name": "f6920b2fa9fbf23db64f2fc12f1ec10b", "rental_uris": {"ios": "https://dc.lft.to/lastmile_qr_scan", "android": "https://dc.lft.to/lastmile_qr_scan"}, "fusion_lon": 0.0, "lat": 38.93094266666667, "is_disabled": 0, "bike_id": "f6920b2fa9fbf23db64f2fc12f1ec10b", "fusion_lat": 0.0, "is_reserved": 0, "lon": -77.02412283333334}, {"type": "electric_scooter", "name": "ac9f0950a1e221a2a35fc01c3fa42949", "rental_uris": {"ios": "https://dc.lft.to/lastmile_qr_scan", "android": "https://dc.lft.to/lastmile_qr_scan"}, "fusion_lon": 0.0, "lat": 38.93485416666667, "is_disabled": 0, "bike_id": "ac9f0950a1e221a2a35fc01c3fa42949", "fusion_lat": 0.0, "is_reserved": 0, "lon": -77.04531216666666}, {"type": "electric_bike", "name": "7c9329b86da9488aa42ce772a28bb6a4", "rental_uris": {"ios": "https://dc.lft.to/lastmile_qr_scan", "android": "https://dc.lft.to/lastmile_qr_scan"}, "fusion_lon": 0.0, "lat": 38.95235616666667, "is_disabled": 0, "bike_id": "7c9329b86da9488aa42ce772a28bb6a4", "fusion_lat": 0.0, "is_reserved": 0, "lon": -77.0027075}, {"type": "electric_scooter", "name": "0c87ffa714325c3c4fd346e4de055fd3", "rental_uris": {"ios": "https://dc.lft.to/lastmile_qr_scan", "android": "https://dc.lft.to/lastmile_qr_scan"}, "fusion_lon": 0.0, "lat": 38.918733833333334, "is_disabled": 0, "bike_id": "0c87ffa714325c3c4fd346e4de055fd3", "fusion_lat": 0.0, "is_reserved": 0, "lon": -77.04184266666667}, {"type": "electric_scooter", "name": "99a479a419adc6117d5c075cdc087a4a", "rental_uris": {"ios": "https://dc.lft.to/lastmile_qr_scan", "android": "https://dc.lft.to/lastmile_qr_scan"}, "fusion_lon": 0.0, "lat": 38.898742, "is_disabled": 0, "bike_id": "99a479a419adc6117d5c075cdc087a4a", "fusion_lat": 0.0, "is_reserved": 0, "lon": -76.93183416666666}, {"type": "electric_scooter", "name": "bc05856d4e7640bf886d04b0e56a8f20", "rental_uris": {"ios": "https://dc.lft.to/lastmile_qr_scan", "android": "https://dc.lft.to/lastmile_qr_scan"}, "fusion_lon": 0.0, "lat": 38.831504833333334, "is_disabled": 0, "bike_id": "bc05856d4e7640bf886d04b0e56a8f20", "fusion_lat": 0.0, "is_reserved": 0, "lon": -77.0084455}, {"type": "electric_scooter", "name": "dace1fb9dd3484a5db72c14d6032e9a5", "rental_uris": {"ios": "https://dc.lft.to/lastmile_qr_scan", "android": "https://dc.lft.to/lastmile_qr_scan"}, "fusion_lon": 0.0, "lat": 38.922714, "is_disabled": 0, "bike_id": "dace1fb9dd3484a5db72c14d6032e9a5", "fusion_lat": 0.0, "is_reserved": 0, "lon": -77.042313}, {"type": "electric_scooter", "name": "cef364430a6f1d4f3f0b3908e8ce6ef4", "rental_uris": {"ios": "https://dc.lft.to/lastmile_qr_scan", "android": "https://dc.lft.to/lastmile_qr_scan"}, "fusion_lon": 0.0, "lat": 38.92967766666666, "is_disabled": 0, "bike_id": "cef364430a6f1d4f3f0b3908e8ce6ef4", "fusion_lat": 0.0, "is_reserved": 0, "lon": -77.0318035}, {"type": "electric_scooter", "name": "b5c8a38eea8789f2292472838065afc0", "rental_uris": {"ios": "https://dc.lft.to/lastmile_qr_scan", "android": "https://dc.lft.to/lastmile_qr_scan"}, "fusion_lon": 0.0, "lat": 38.9001465, "is_disabled": 0, "bike_id": "b5c8a38eea8789f2292472838065afc0", "fusion_lat": 0.0, "is_reserved": 0, "lon": -76.987925}, {"type": "electric_scooter", "name": "e8fe03749ca47cd23668c301b904255a", "rental_uris": {"ios": "https://dc.lft.to/lastmile_qr_scan", "android": "https://dc.lft.to/lastmile_qr_scan"}, "fusion_lon": 0.0, "lat": 38.918241, "is_disabled": 0, "bike_id": "e8fe03749ca47cd23668c301b904255a", "fusion_lat": 0.0, "is_reserved": 0, "lon": -77.04163383333334}, {"type": "electric_scooter", "name": "11b420fda49122f18124e67b8a17b798", "rental_uris": {"ios": "https://dc.lft.to/lastmile_qr_scan", "android": "https://dc.lft.to/lastmile_qr_scan"}, "fusion_lon": 0.0, "lat": 38.920721, "is_disabled": 0, "bike_id": "11b420fda49122f18124e67b8a17b798", "fusion_lat": 0.0, "is_reserved": 0, "lon": -77.02465016666666}, {"type": "electric_scooter", "name": "5a98b1a7c0d7f78b96809dfb04d2f8a8", "rental_uris": {"ios": "https://dc.lft.to/lastmile_qr_scan", "android": "https://dc.lft.to/lastmile_qr_scan"}, "fusion_lon": 0.0, "lat": 38.90136833333333, "is_disabled": 0, "bike_id": "5a98b1a7c0d7f78b96809dfb04d2f8a8", "fusion_lat": 0.0, "is_reserved": 0, "lon": -77.06074183333334}, {"type": "electric_bike", "name": "932f88ea87a2f84c423bc42c3a684093", "rental_uris": {"ios": "https://dc.lft.to/lastmile_qr_scan", "android": "https://dc.lft.to/lastmile_qr_scan"}, "fusion_lon": 0.0, "lat": 38.884182833333334, "is_disabled": 0, "bike_id": "932f88ea87a2f84c423bc42c3a684093", "fusion_lat": 0.0, "is_reserved": 0, "lon": -76.95410083333333}, {"type": "electric_scooter", "name": "19405a4c59a2797879b6dad4220b4c00", "rental_uris": {"ios": "https://dc.lft.to/lastmile_qr_scan", "android": "https://dc.lft.to/lastmile_qr_scan"}, "fusion_lon": 0.0, "lat": 38.903971, "is_disabled": 0, "bike_id": "19405a4c59a2797879b6dad4220b4c00", "fusion_lat": 0.0, "is_reserved": 0, "lon": -77.0319825}, {"type": "electric_scooter", "name": "4513fa16b85ba7bcf707d81cbc78c482", "rental_uris": {"ios": "https://dc.lft.to/lastmile_qr_scan", "android": "https://dc.lft.to/lastmile_qr_scan"}, "fusion_lon": 0.0, "lat": 38.905684, "is_disabled": 0, "bike_id": "4513fa16b85ba7bcf707d81cbc78c482", "fusion_lat": 0.0, "is_reserved": 0, "lon": -77.0041015}, {"type": "electric_scooter", "name": "c645c153daffe5da2701c594b71f4bfb", "rental_uris": {"ios": "https://dc.lft.to/lastmile_qr_scan", "android": "https://dc.lft.to/lastmile_qr_scan"}, "fusion_lon": 0.0, "lat": 38.919162, "is_disabled": 0, "bike_id": "c645c153daffe5da2701c594b71f4bfb", "fusion_lat": 0.0, "is_reserved": 0, "lon": -77.03196616666666}, {"type": "electric_scooter", "name": "bcc1158777632f4039c7550584e33f23", "rental_uris": {"ios": "https://dc.lft.to/lastmile_qr_scan", "android": "https://dc.lft.to/lastmile_qr_scan"}, "fusion_lon": 0.0, "lat": 38.877934, "is_disabled": 0, "bike_id": "bcc1158777632f4039c7550584e33f23", "fusion_lat": 0.0, "is_reserved": 0, "lon": -77.00126716666666}, {"type": "electric_scooter", "name": "ccfcd8fea1fede8bb4f501ef1fd98d80", "rental_uris": {"ios": "https://dc.lft.to/lastmile_qr_scan", "android": "https://dc.lft.to/lastmile_qr_scan"}, "fusion_lon": 0.0, "lat": 38.91112066666667, "is_disabled": 0, "bike_id": "ccfcd8fea1fede8bb4f501ef1fd98d80", "fusion_lat": 0.0, "is_reserved": 0, "lon": -77.03824483333334}, {"type": "electric_scooter", "name": "fe389eff822070eaab7b23f0e615e6cd", "rental_uris": {"ios": "https://dc.lft.to/lastmile_qr_scan", "android": "https://dc.lft.to/lastmile_qr_scan"}, "fusion_lon": 0.0, "lat": 38.91444833333333, "is_disabled": 0, "bike_id": "fe389eff822070eaab7b23f0e615e6cd", "fusion_lat": 0.0, "is_reserved": 0, "lon": -77.04625283333333}, {"type": "electric_scooter", "name": "27c686b99d031ffeec48894b36eaa114", "rental_uris": {"ios": "https://dc.lft.to/lastmile_qr_scan", "android": "https://dc.lft.to/lastmile_qr_scan"}, "fusion_lon": 0.0, "lat": 38.9067685, "is_disabled": 0, "bike_id": "27c686b99d031ffeec48894b36eaa114", "fusion_lat": 0.0, "is_reserved": 0, "lon": -77.07185866666667}, {"type": "electric_scooter", "name": "8a96c9296652218aefb5632927e4970c", "rental_uris": {"ios": "https://dc.lft.to/lastmile_qr_scan", "android": "https://dc.lft.to/lastmile_qr_scan"}, "fusion_lon": 0.0, "lat": 38.9084715, "is_disabled": 0, "bike_id": "8a96c9296652218aefb5632927e4970c", "fusion_lat": 0.0, "is_reserved": 0, "lon": -76.998014}, {"type": "electric_scooter", "name": "15ac44094580991d6c88af38a007d6e4", "rental_uris": {"ios": "https://dc.lft.to/lastmile_qr_scan", "android": "https://dc.lft.to/lastmile_qr_scan"}, "fusion_lon": 0.0, "lat": 38.90251266666667, "is_disabled": 0, "bike_id": "15ac44094580991d6c88af38a007d6e4", "fusion_lat": 0.0, "is_reserved": 0, "lon": -77.0532735}, {"type": "electric_scooter", "name": "749778d0ee83bcccce039d93c8a242e1", "rental_uris": {"ios": "https://dc.lft.to/lastmile_qr_scan", "android": "https://dc.lft.to/lastmile_qr_scan"}, "fusion_lon": 0.0, "lat": 38.913042833333336, "is_disabled": 0, "bike_id": "749778d0ee83bcccce039d93c8a242e1", "fusion_lat": 0.0, "is_reserved": 0, "lon": -77.031854}, {"type": "electric_bike", "name": "e5bd2364514e731b1decef55ccf9fcab", "rental_uris": {"ios": "https://dc.lft.to/lastmile_qr_scan", "android": "https://dc.lft.to/lastmile_qr_scan"}, "fusion_lon": 0.0, "lat": 38.956275, "is_disabled": 0, "bike_id": "e5bd2364514e731b1decef55ccf9fcab", "fusion_lat": 0.0, "is_reserved": 0, "lon": -77.023227}, {"type": "electric_scooter", "name": "f08b8059004667179b67d0ead1704241", "rental_uris": {"ios": "https://dc.lft.to/lastmile_qr_scan", "android": "https://dc.lft.to/lastmile_qr_scan"}, "fusion_lon": 0.0, "lat": 38.9171335, "is_disabled": 0, "bike_id": "f08b8059004667179b67d0ead1704241", "fusion_lat": 0.0, "is_reserved": 0, "lon": -77.008858}, {"type": "electric_scooter", "name": "e18a1eb1916ecef8cbffdef4819515e9", "rental_uris": {"ios": "https://dc.lft.to/lastmile_qr_scan", "android": "https://dc.lft.to/lastmile_qr_scan"}, "fusion_lon": 0.0, "lat": 38.88749416666667, "is_disabled": 0, "bike_id": "e18a1eb1916ecef8cbffdef4819515e9", "fusion_lat": 0.0, "is_reserved": 0, "lon": -77.02127416666667}, {"type": "electric_scooter", "name": "b9b5145e7e58d3c17c6eb7ba35eab052", "rental_uris": {"ios": "https://dc.lft.to/lastmile_qr_scan", "android": "https://dc.lft.to/lastmile_qr_scan"}, "fusion_lon": 0.0, "lat": 38.9248615, "is_disabled": 0, "bike_id": "b9b5145e7e58d3c17c6eb7ba35eab052", "fusion_lat": 0.0, "is_reserved": 0, "lon": -77.0265035}, {"type": "electric_scooter", "name": "e4cd8a971a8e6c0973bdbb28ae81a1c1", "rental_uris": {"ios": "https://dc.lft.to/lastmile_qr_scan", "android": "https://dc.lft.to/lastmile_qr_scan"}, "fusion_lon": 0.0, "lat": 38.965044, "is_disabled": 0, "bike_id": "e4cd8a971a8e6c0973bdbb28ae81a1c1", "fusion_lat": 0.0, "is_reserved": 0, "lon": -77.02592783333333}, {"type": "electric_scooter", "name": "d3e093a15dd5fc892d41ba1df944b9f3", "rental_uris": {"ios": "https://dc.lft.to/lastmile_qr_scan", "android": "https://dc.lft.to/lastmile_qr_scan"}, "fusion_lon": 0.0, "lat": 38.90486033333333, "is_disabled": 0, "bike_id": "d3e093a15dd5fc892d41ba1df944b9f3", "fusion_lat": 0.0, "is_reserved": 0, "lon": -77.0435245}, {"type": "electric_scooter", "name": "3fca128502002239ab0556e4cedde19a", "rental_uris": {"ios": "https://dc.lft.to/lastmile_qr_scan", "android": "https://dc.lft.to/lastmile_qr_scan"}, "fusion_lon": 0.0, "lat": 38.908203666666665, "is_disabled": 0, "bike_id": "3fca128502002239ab0556e4cedde19a", "fusion_lat": 0.0, "is_reserved": 0, "lon": -77.04349233333333}, {"type": "electric_scooter", "name": "c5c7f0b55a19cf9f1e48520bcc48b4c7", "rental_uris": {"ios": "https://dc.lft.to/lastmile_qr_scan", "android": "https://dc.lft.to/lastmile_qr_scan"}, "fusion_lon": 0.0, "lat": 38.884878666666665, "is_disabled": 0, "bike_id": "c5c7f0b55a19cf9f1e48520bcc48b4c7", "fusion_lat": 0.0, "is_reserved": 0, "lon": -77.007116}, {"type": "electric_scooter", "name": "71e8f5df51c1061d4c80033a673a8889", "rental_uris": {"ios": "https://dc.lft.to/lastmile_qr_scan", "android": "https://dc.lft.to/lastmile_qr_scan"}, "fusion_lon": 0.0, "lat": 38.86763716666667, "is_disabled": 0, "bike_id": "71e8f5df51c1061d4c80033a673a8889", "fusion_lat": 0.0, "is_reserved": 0, "lon": -76.98278583333334}, {"type": "electric_scooter", "name": "0b257b834abcb2deb2c11c66512eaa8a", "rental_uris": {"ios": "https://dc.lft.to/lastmile_qr_scan", "android": "https://dc.lft.to/lastmile_qr_scan"}, "fusion_lon": 0.0, "lat": 38.916766333333335, "is_disabled": 0, "bike_id": "0b257b834abcb2deb2c11c66512eaa8a", "fusion_lat": 0.0, "is_reserved": 0, "lon": -77.00349133333333}, {"type": "electric_scooter", "name": "680fa8ab8cfe6413ccb3101be72eb747", "rental_uris": {"ios": "https://dc.lft.to/lastmile_qr_scan", "android": "https://dc.lft.to/lastmile_qr_scan"}, "fusion_lon": 0.0, "lat": 38.915550333333336, "is_disabled": 0, "bike_id": "680fa8ab8cfe6413ccb3101be72eb747", "fusion_lat": 0.0, "is_reserved": 0, "lon": -77.03138483333333}, {"type": "electric_scooter", "name": "5625fb61877b42ab71892a261a0d89b7", "rental_uris": {"ios": "https://dc.lft.to/lastmile_qr_scan", "android": "https://dc.lft.to/lastmile_qr_scan"}, "fusion_lon": 0.0, "lat": 38.90334583333333, "is_disabled": 0, "bike_id": "5625fb61877b42ab71892a261a0d89b7", "fusion_lat": 0.0, "is_reserved": 0, "lon": -77.04322566666667}, {"type": "electric_scooter", "name": "a2ae044aa9ec913fad0f158376ec5d95", "rental_uris": {"ios": "https://dc.lft.to/lastmile_qr_scan", "android": "https://dc.lft.to/lastmile_qr_scan"}, "fusion_lon": 0.0, "lat": 38.89441333333333, "is_disabled": 0, "bike_id": "a2ae044aa9ec913fad0f158376ec5d95", "fusion_lat": 0.0, "is_reserved": 0, "lon": -76.97719633333334}, {"type": "electric_scooter", "name": "9b8e3c4999c9b7ffd75ebd5a712436f8", "rental_uris": {"ios": "https://dc.lft.to/lastmile_qr_scan", "android": "https://dc.lft.to/lastmile_qr_scan"}, "fusion_lon": 0.0, "lat": 38.910838, "is_disabled": 0, "bike_id": "9b8e3c4999c9b7ffd75ebd5a712436f8", "fusion_lat": 0.0, "is_reserved": 0, "lon": -77.01616533333333}, {"type": "electric_scooter", "name": "6207d40c02b81b1baa8ad096bc5d0078", "rental_uris": {"ios": "https://dc.lft.to/lastmile_qr_scan", "android": "https://dc.lft.to/lastmile_qr_scan"}, "fusion_lon": 0.0, "lat": 38.926137, "is_disabled": 0, "bike_id": "6207d40c02b81b1baa8ad096bc5d0078", "fusion_lat": 0.0, "is_reserved": 0, "lon": -77.02163383333334}, {"type": "electric_scooter", "name": "cbb90fbd36a1ced7b39a615aefdaddf5", "rental_uris": {"ios": "https://dc.lft.to/lastmile_qr_scan", "android": "https://dc.lft.to/lastmile_qr_scan"}, "fusion_lon": 0.0, "lat": 38.93871883333333, "is_disabled": 0, "bike_id": "cbb90fbd36a1ced7b39a615aefdaddf5", "fusion_lat": 0.0, "is_reserved": 0, "lon": -77.03083616666666}, {"type": "electric_scooter", "name": "a9dc3389dd3bff55e8a8102e8b2e662e", "rental_uris": {"ios": "https://dc.lft.to/lastmile_qr_scan", "android": "https://dc.lft.to/lastmile_qr_scan"}, "fusion_lon": 0.0, "lat": 38.930586166666664, "is_disabled": 0, "bike_id": "a9dc3389dd3bff55e8a8102e8b2e662e", "fusion_lat": 0.0, "is_reserved": 0, "lon": -77.0320815}, {"type": "electric_scooter", "name": "a25c1fc62a07e2d31d3cc20a5dcd8029", "rental_uris": {"ios": "https://dc.lft.to/lastmile_qr_scan", "android": "https://dc.lft.to/lastmile_qr_scan"}, "fusion_lon": 0.0, "lat": 38.922635666666665, "is_disabled": 0, "bike_id": "a25c1fc62a07e2d31d3cc20a5dcd8029", "fusion_lat": 0.0, "is_reserved": 0, "lon": -77.033933}, {"type": "electric_scooter", "name": "8418f835026d9793b506e0fc17873282", "rental_uris": {"ios": "https://dc.lft.to/lastmile_qr_scan", "android": "https://dc.lft.to/lastmile_qr_scan"}, "fusion_lon": 0.0, "lat": 38.943306166666666, "is_disabled": 0, "bike_id": "8418f835026d9793b506e0fc17873282", "fusion_lat": 0.0, "is_reserved": 0, "lon": -77.02692}, {"type": "electric_scooter", "name": "5a7fdf677b2043858c550f200ba6bbd0", "rental_uris": {"ios": "https://dc.lft.to/lastmile_qr_scan", "android": "https://dc.lft.to/lastmile_qr_scan"}, "fusion_lon": 0.0, "lat": 38.900101166666666, "is_disabled": 0, "bike_id": "5a7fdf677b2043858c550f200ba6bbd0", "fusion_lat": 0.0, "is_reserved": 0, "lon": -77.07141816666666}, {"type": "electric_scooter", "name": "b734e6b837a59add4fe32778bf283064", "rental_uris": {"ios": "https://dc.lft.to/lastmile_qr_scan", "android": "https://dc.lft.to/lastmile_qr_scan"}, "fusion_lon": 0.0, "lat": 38.896318, "is_disabled": 0, "bike_id": "b734e6b837a59add4fe32778bf283064", "fusion_lat": 0.0, "is_reserved": 0, "lon": -77.03320666666667}, {"type": "electric_scooter", "name": "237b7f077779ee018810b64eb866cfd3", "rental_uris": {"ios": "https://dc.lft.to/lastmile_qr_scan", "android": "https://dc.lft.to/lastmile_qr_scan"}, "fusion_lon": 0.0, "lat": 38.90751383333333, "is_disabled": 0, "bike_id": "237b7f077779ee018810b64eb866cfd3", "fusion_lat": 0.0, "is_reserved": 0, "lon": -76.998766}, {"type": "electric_scooter", "name": "68850da6c5287bad1b6730f6584ac91a", "rental_uris": {"ios": "https://dc.lft.to/lastmile_qr_scan", "android": "https://dc.lft.to/lastmile_qr_scan"}, "fusion_lon": 0.0, "lat": 38.916404166666666, "is_disabled": 0, "bike_id": "68850da6c5287bad1b6730f6584ac91a", "fusion_lat": 0.0, "is_reserved": 0, "lon": -77.04786133333333}, {"type": "electric_scooter", "name": "a9414c5a13d8cec7b8e1bc5fe856bae6", "rental_uris": {"ios": "https://dc.lft.to/lastmile_qr_scan", "android": "https://dc.lft.to/lastmile_qr_scan"}, "fusion_lon": 0.0, "lat": 38.92951333333333, "is_disabled": 0, "bike_id": "a9414c5a13d8cec7b8e1bc5fe856bae6", "fusion_lat": 0.0, "is_reserved": 0, "lon": -77.04405133333333}, {"type": "electric_scooter", "name": "930a7d3c72ea80a8d60c56428921c487", "rental_uris": {"ios": "https://dc.lft.to/lastmile_qr_scan", "android": "https://dc.lft.to/lastmile_qr_scan"}, "fusion_lon": 0.0, "lat": 38.920571, "is_disabled": 0, "bike_id": "930a7d3c72ea80a8d60c56428921c487", "fusion_lat": 0.0, "is_reserved": 0, "lon": -77.02578833333334}, {"type": "electric_scooter", "name": "39b5f6fe737f19508d2814055688ce54", "rental_uris": {"ios": "https://dc.lft.to/lastmile_qr_scan", "android": "https://dc.lft.to/lastmile_qr_scan"}, "fusion_lon": 0.0, "lat": 38.85550883333333, "is_disabled": 0, "bike_id": "39b5f6fe737f19508d2814055688ce54", "fusion_lat": 0.0, "is_reserved": 0, "lon": -76.98753}, {"type": "electric_scooter", "name": "aefafe6773a3e93b3458e219755dd00e", "rental_uris": {"ios": "https://dc.lft.to/lastmile_qr_scan", "android": "https://dc.lft.to/lastmile_qr_scan"}, "fusion_lon": 0.0, "lat": 38.91714283333334, "is_disabled": 0, "bike_id": "aefafe6773a3e93b3458e219755dd00e", "fusion_lat": 0.0, "is_reserved": 0, "lon": -77.038719}, {"type": "electric_scooter", "name": "d362f12448ccaef43864afc6a74c3db2", "rental_uris": {"ios": "https://dc.lft.to/lastmile_qr_scan", "android": "https://dc.lft.to/lastmile_qr_scan"}, "fusion_lon": 0.0, "lat": 38.922973166666665, "is_disabled": 0, "bike_id": "d362f12448ccaef43864afc6a74c3db2", "fusion_lat": 0.0, "is_reserved": 0, "lon": -77.04271016666667}, {"type": "electric_scooter", "name": "9c3179748964dd3a2efdd2182131160b", "rental_uris": {"ios": "https://dc.lft.to/lastmile_qr_scan", "android": "https://dc.lft.to/lastmile_qr_scan"}, "fusion_lon": 0.0, "lat": 38.897398333333335, "is_disabled": 0, "bike_id": "9c3179748964dd3a2efdd2182131160b", "fusion_lat": 0.0, "is_reserved": 0, "lon": -77.0091745}, {"type": "electric_bike", "name": "42f328ebad50d705784985c2918a5337", "rental_uris": {"ios": "https://dc.lft.to/lastmile_qr_scan", "android": "https://dc.lft.to/lastmile_qr_scan"}, "fusion_lon": 0.0, "lat": 38.840869833333336, "is_disabled": 0, "bike_id": "42f328ebad50d705784985c2918a5337", "fusion_lat": 0.0, "is_reserved": 0, "lon": -76.97028683333333}, {"type": "electric_scooter", "name": "edfdcc5cf128c0c0d22de9a098b1bb6e", "rental_uris": {"ios": "https://dc.lft.to/lastmile_qr_scan", "android": "https://dc.lft.to/lastmile_qr_scan"}, "fusion_lon": 0.0, "lat": 38.91704216666667, "is_disabled": 0, "bike_id": "edfdcc5cf128c0c0d22de9a098b1bb6e", "fusion_lat": 0.0, "is_reserved": 0, "lon": -77.032222}, {"type": "electric_scooter", "name": "bae6e30f8e083a7fb12f73aa24ccc286", "rental_uris": {"ios": "https://dc.lft.to/lastmile_qr_scan", "android": "https://dc.lft.to/lastmile_qr_scan"}, "fusion_lon": 0.0, "lat": 38.897141166666664, "is_disabled": 0, "bike_id": "bae6e30f8e083a7fb12f73aa24ccc286", "fusion_lat": 0.0, "is_reserved": 0, "lon": -77.04354083333334}, {"type": "electric_bike", "name": "e39292b8eda2c3cc26ccdfd50e4ad638", "rental_uris": {"ios": "https://dc.lft.to/lastmile_qr_scan", "android": "https://dc.lft.to/lastmile_qr_scan"}, "fusion_lon": 0.0, "lat": 38.88363366666667, "is_disabled": 0, "bike_id": "e39292b8eda2c3cc26ccdfd50e4ad638", "fusion_lat": 0.0, "is_reserved": 0, "lon": -76.98213183333333}, {"type": "electric_scooter", "name": "f140d2e77f8cb42c0d6bc88af143564e", "rental_uris": {"ios": "https://dc.lft.to/lastmile_qr_scan", "android": "https://dc.lft.to/lastmile_qr_scan"}, "fusion_lon": 0.0, "lat": 38.925067166666665, "is_disabled": 0, "bike_id": "f140d2e77f8cb42c0d6bc88af143564e", "fusion_lat": 0.0, "is_reserved": 0, "lon": -77.00232866666667}, {"type": "electric_scooter", "name": "569f80d793f166f3d90d94594a42ef06", "rental_uris": {"ios": "https://dc.lft.to/lastmile_qr_scan", "android": "https://dc.lft.to/lastmile_qr_scan"}, "fusion_lon": 0.0, "lat": 38.901117166666666, "is_disabled": 0, "bike_id": "569f80d793f166f3d90d94594a42ef06", "fusion_lat": 0.0, "is_reserved": 0, "lon": -77.04480933333333}, {"type": "electric_scooter", "name": "35dcf04972726859a46c6d8b741a494e", "rental_uris": {"ios": "https://dc.lft.to/lastmile_qr_scan", "android": "https://dc.lft.to/lastmile_qr_scan"}, "fusion_lon": 0.0, "lat": 38.919891166666666, "is_disabled": 0, "bike_id": "35dcf04972726859a46c6d8b741a494e", "fusion_lat": 0.0, "is_reserved": 0, "lon": -76.973115}, {"type": "electric_scooter", "name": "3ec2f8623ffbcd62926d3cb35900946e", "rental_uris": {"ios": "https://dc.lft.to/lastmile_qr_scan", "android": "https://dc.lft.to/lastmile_qr_scan"}, "fusion_lon": 0.0, "lat": 38.93108616666667, "is_disabled": 0, "bike_id": "3ec2f8623ffbcd62926d3cb35900946e", "fusion_lat": 0.0, "is_reserved": 0, "lon": -77.02124383333333}, {"type": "electric_scooter", "name": "fed852d3762e37b952d83fda4b9b2bca", "rental_uris": {"ios": "https://dc.lft.to/lastmile_qr_scan", "android": "https://dc.lft.to/lastmile_qr_scan"}, "fusion_lon": 0.0, "lat": 38.90939683333333, "is_disabled": 0, "bike_id": "fed852d3762e37b952d83fda4b9b2bca", "fusion_lat": 0.0, "is_reserved": 0, "lon": -77.02824166666667}, {"type": "electric_scooter", "name": "ba7e9082d347f2d048ece179481b1213", "rental_uris": {"ios": "https://dc.lft.to/lastmile_qr_scan", "android": "https://dc.lft.to/lastmile_qr_scan"}, "fusion_lon": 0.0, "lat": 38.9207625, "is_disabled": 0, "bike_id": "ba7e9082d347f2d048ece179481b1213", "fusion_lat": 0.0, "is_reserved": 0, "lon": -76.997295}, {"type": "electric_scooter", "name": "c11a3403eed5a80426d315b12319798d", "rental_uris": {"ios": "https://dc.lft.to/lastmile_qr_scan", "android": "https://dc.lft.to/lastmile_qr_scan"}, "fusion_lon": 0.0, "lat": 38.883740333333336, "is_disabled": 0, "bike_id": "c11a3403eed5a80426d315b12319798d", "fusion_lat": 0.0, "is_reserved": 0, "lon": -77.0198445}, {"type": "electric_scooter", "name": "2413f0e5d9afa014d09bef7056ff935b", "rental_uris": {"ios": "https://dc.lft.to/lastmile_qr_scan", "android": "https://dc.lft.to/lastmile_qr_scan"}, "fusion_lon": 0.0, "lat": 38.92716166666666, "is_disabled": 0, "bike_id": "2413f0e5d9afa014d09bef7056ff935b", "fusion_lat": 0.0, "is_reserved": 0, "lon": -77.01598233333333}, {"type": "electric_bike", "name": "5c2d850549009a5e99cdd95e239cbaaf", "rental_uris": {"ios": "https://dc.lft.to/lastmile_qr_scan", "android": "https://dc.lft.to/lastmile_qr_scan"}, "fusion_lon": 0.0, "lat": 38.849873333333335, "is_disabled": 0, "bike_id": "5c2d850549009a5e99cdd95e239cbaaf", "fusion_lat": 0.0, "is_reserved": 0, "lon": -77.097589}, {"type": "electric_scooter", "name": "f447ae13e21684eb2b40d183e4d3bf9b", "rental_uris": {"ios": "https://dc.lft.to/lastmile_qr_scan", "android": "https://dc.lft.to/lastmile_qr_scan"}, "fusion_lon": 0.0, "lat": 38.90565983333333, "is_disabled": 0, "bike_id": "f447ae13e21684eb2b40d183e4d3bf9b", "fusion_lat": 0.0, "is_reserved": 0, "lon": -77.02412283333334}, {"type": "electric_scooter", "name": "416f6fe31ee7bbaa1c70090f8c8c6e29", "rental_uris": {"ios": "https://dc.lft.to/lastmile_qr_scan", "android": "https://dc.lft.to/lastmile_qr_scan"}, "fusion_lon": 0.0, "lat": 38.882986333333335, "is_disabled": 0, "bike_id": "416f6fe31ee7bbaa1c70090f8c8c6e29", "fusion_lat": 0.0, "is_reserved": 0, "lon": -77.02477883333333}, {"type": "electric_scooter", "name": "6462a97a8071ce07a2a34cb436969013", "rental_uris": {"ios": "https://dc.lft.to/lastmile_qr_scan", "android": "https://dc.lft.to/lastmile_qr_scan"}, "fusion_lon": 0.0, "lat": 38.917067833333334, "is_disabled": 0, "bike_id": "6462a97a8071ce07a2a34cb436969013", "fusion_lat": 0.0, "is_reserved": 0, "lon": -77.041493}, {"type": "electric_scooter", "name": "1a4e81bbbc847c70986d5026685db01b", "rental_uris": {"ios": "https://dc.lft.to/lastmile_qr_scan", "android": "https://dc.lft.to/lastmile_qr_scan"}, "fusion_lon": 0.0, "lat": 38.913607166666665, "is_disabled": 0, "bike_id": "1a4e81bbbc847c70986d5026685db01b", "fusion_lat": 0.0, "is_reserved": 0, "lon": -77.03446816666667}, {"type": "electric_scooter", "name": "b05ea051fd9b5875bc382fca50c5e028", "rental_uris": {"ios": "https://dc.lft.to/lastmile_qr_scan", "android": "https://dc.lft.to/lastmile_qr_scan"}, "fusion_lon": 0.0, "lat": 38.9039715, "is_disabled": 0, "bike_id": "b05ea051fd9b5875bc382fca50c5e028", "fusion_lat": 0.0, "is_reserved": 0, "lon": -77.0629435}, {"type": "electric_bike", "name": "ab6732fe2c8899cf62d0a7562cc64a2c", "rental_uris": {"ios": "https://dc.lft.to/lastmile_qr_scan", "android": "https://dc.lft.to/lastmile_qr_scan"}, "fusion_lon": 0.0, "lat": 38.81328, "is_disabled": 0, "bike_id": "ab6732fe2c8899cf62d0a7562cc64a2c", "fusion_lat": 0.0, "is_reserved": 0, "lon": -77.05088083333334}, {"type": "electric_bike", "name": "2249630a6bdfefffc7dbc8144144358b", "rental_uris": {"ios": "https://dc.lft.to/lastmile_qr_scan", "android": "https://dc.lft.to/lastmile_qr_scan"}, "fusion_lon": 0.0, "lat": 38.931870833333335, "is_disabled": 0, "bike_id": "2249630a6bdfefffc7dbc8144144358b", "fusion_lat": 0.0, "is_reserved": 0, "lon": -77.22922283333334}, {"type": "electric_scooter", "name": "dbe94ec292227334a2ca6cd1a0808a6a", "rental_uris": {"ios": "https://dc.lft.to/lastmile_qr_scan", "android": "https://dc.lft.to/lastmile_qr_scan"}, "fusion_lon": 0.0, "lat": 38.906332666666664, "is_disabled": 0, "bike_id": "dbe94ec292227334a2ca6cd1a0808a6a", "fusion_lat": 0.0, "is_reserved": 0, "lon": -77.03444733333333}, {"type": "electric_scooter", "name": "bab80d53807164a45e7176d4ba66c38b", "rental_uris": {"ios": "https://dc.lft.to/lastmile_qr_scan", "android": "https://dc.lft.to/lastmile_qr_scan"}, "fusion_lon": 0.0, "lat": 38.905631, "is_disabled": 0, "bike_id": "bab80d53807164a45e7176d4ba66c38b", "fusion_lat": 0.0, "is_reserved": 0, "lon": -77.003984}, {"type": "electric_scooter", "name": "0c2a8dc5c8edfa991a3d0a2e15bc2379", "rental_uris": {"ios": "https://dc.lft.to/lastmile_qr_scan", "android": "https://dc.lft.to/lastmile_qr_scan"}, "fusion_lon": 0.0, "lat": 38.878368333333334, "is_disabled": 0, "bike_id": "0c2a8dc5c8edfa991a3d0a2e15bc2379", "fusion_lat": 0.0, "is_reserved": 0, "lon": -76.99031216666667}, {"type": "electric_scooter", "name": "9319298140dd3f2c2764c65d2e520a51", "rental_uris": {"ios": "https://dc.lft.to/lastmile_qr_scan", "android": "https://dc.lft.to/lastmile_qr_scan"}, "fusion_lon": 0.0, "lat": 38.9231795, "is_disabled": 0, "bike_id": "9319298140dd3f2c2764c65d2e520a51", "fusion_lat": 0.0, "is_reserved": 0, "lon": -77.0451075}, {"type": "electric_scooter", "name": "4d365f86badc27be9388ea95a7091353", "rental_uris": {"ios": "https://dc.lft.to/lastmile_qr_scan", "android": "https://dc.lft.to/lastmile_qr_scan"}, "fusion_lon": 0.0, "lat": 38.9270015, "is_disabled": 0, "bike_id": "4d365f86badc27be9388ea95a7091353", "fusion_lat": 0.0, "is_reserved": 0, "lon": -77.02436683333333}, {"type": "electric_scooter", "name": "44a81380fd76a55cf17040d1fc5332e7", "rental_uris": {"ios": "https://dc.lft.to/lastmile_qr_scan", "android": "https://dc.lft.to/lastmile_qr_scan"}, "fusion_lon": 0.0, "lat": 38.92611333333333, "is_disabled": 0, "bike_id": "44a81380fd76a55cf17040d1fc5332e7", "fusion_lat": 0.0, "is_reserved": 0, "lon": -77.021609}, {"type": "electric_scooter", "name": "623cb55bc7ae292d3f0ddf2c00bf3967", "rental_uris": {"ios": "https://dc.lft.to/lastmile_qr_scan", "android": "https://dc.lft.to/lastmile_qr_scan"}, "fusion_lon": 0.0, "lat": 38.8849075, "is_disabled": 0, "bike_id": "623cb55bc7ae292d3f0ddf2c00bf3967", "fusion_lat": 0.0, "is_reserved": 0, "lon": -76.95650916666666}, {"type": "electric_scooter", "name": "7fb0ad837bb9f30b41fba4c66a514ab1", "rental_uris": {"ios": "https://dc.lft.to/lastmile_qr_scan", "android": "https://dc.lft.to/lastmile_qr_scan"}, "fusion_lon": 0.0, "lat": 38.92823583333333, "is_disabled": 0, "bike_id": "7fb0ad837bb9f30b41fba4c66a514ab1", "fusion_lat": 0.0, "is_reserved": 0, "lon": -77.02626333333333}, {"type": "electric_scooter", "name": "7bf0281df9a2be0a8e15f663840b5835", "rental_uris": {"ios": "https://dc.lft.to/lastmile_qr_scan", "android": "https://dc.lft.to/lastmile_qr_scan"}, "fusion_lon": 0.0, "lat": 38.9113775, "is_disabled": 0, "bike_id": "7bf0281df9a2be0a8e15f663840b5835", "fusion_lat": 0.0, "is_reserved": 0, "lon": -77.02796416666666}, {"type": "electric_bike", "name": "adf3d0ec3a2345d5245198d8dc3bbe34", "rental_uris": {"ios": "https://dc.lft.to/lastmile_qr_scan", "android": "https://dc.lft.to/lastmile_qr_scan"}, "fusion_lon": 0.0, "lat": 38.83945116666666, "is_disabled": 0, "bike_id": "adf3d0ec3a2345d5245198d8dc3bbe34", "fusion_lat": 0.0, "is_reserved": 0, "lon": -77.08759116666667}, {"type": "electric_scooter", "name": "3b6d875bbf09e099e02a3a9e46bfa978", "rental_uris": {"ios": "https://dc.lft.to/lastmile_qr_scan", "android": "https://dc.lft.to/lastmile_qr_scan"}, "fusion_lon": 0.0, "lat": 38.92126016666667, "is_disabled": 0, "bike_id": "3b6d875bbf09e099e02a3a9e46bfa978", "fusion_lat": 0.0, "is_reserved": 0, "lon": -77.04118633333333}, {"type": "electric_scooter", "name": "862b996b589dc3a2b456b071220c32b8", "rental_uris": {"ios": "https://dc.lft.to/lastmile_qr_scan", "android": "https://dc.lft.to/lastmile_qr_scan"}, "fusion_lon": 0.0, "lat": 38.913307333333336, "is_disabled": 0, "bike_id": "862b996b589dc3a2b456b071220c32b8", "fusion_lat": 0.0, "is_reserved": 0, "lon": -77.03172166666667}, {"type": "electric_scooter", "name": "a3c247f9f08022be9569650e7dbe4b74", "rental_uris": {"ios": "https://dc.lft.to/lastmile_qr_scan", "android": "https://dc.lft.to/lastmile_qr_scan"}, "fusion_lon": 0.0, "lat": 38.9366735, "is_disabled": 0, "bike_id": "a3c247f9f08022be9569650e7dbe4b74", "fusion_lat": 0.0, "is_reserved": 0, "lon": -77.02392483333334}, {"type": "electric_scooter", "name": "38abea03222f1c05b54caa30210d4a6e", "rental_uris": {"ios": "https://dc.lft.to/lastmile_qr_scan", "android": "https://dc.lft.to/lastmile_qr_scan"}, "fusion_lon": 0.0, "lat": 38.903112166666666, "is_disabled": 0, "bike_id": "38abea03222f1c05b54caa30210d4a6e", "fusion_lat": 0.0, "is_reserved": 0, "lon": -77.0503495},