{"data": {"bikes": [{"lat": 38.901050166666664, "is_disabled": 0, "type": "electric_bike", "lon": -77.04859233333333, "bike_id": "ee07aa4fb785f552d272b728fd386356", "fusion_lat": 0.0, "name": "ee07aa4fb785f552d272b728fd386356", "is_reserved": 0, "rental_uris": {"android": "https://dc.lft.to/lastmile_qr_scan", "ios": "https://dc.lft.to/lastmile_qr_scan"}, "fusion_lon": 0.0}, {"lat": 38.98273016666667, "is_disabled": 0, "type": "electric_bike", "lon": -77.01770083333334, "bike_id": "2f255fe1a9d2512f0de48e0966a6b8f5", "fusion_lat": 0.0, "name": "2f255fe1a9d2512f0de48e0966a6b8f5", "is_reserved": 0, "rental_uris": {"android": "https://dc.lft.to/lastmile_qr_scan", "ios": "https://dc.lft.to/lastmile_qr_scan"}, "fusion_lon": 0.0}, {"lat": 38.90978666666667, "is_disabled": 0, "type": "electric_scooter", "lon": -77.038486, "bike_id": "d995ad1fd470ceb8f85075d98bbd3e22", "fusion_lat": 0.0, "name": "d995ad1fd470ceb8f85075d98bbd3e22", "is_reserved": 0, "rental_uris": {"android": "https://dc.lft.to/lastmile_qr_scan", "ios": "https://dc.lft.to/lastmile_qr_scan"}, "fusion_lon": 0.0}, {"lat": 38.917420166666666, "is_disabled": 0, "type": "electric_scooter", "lon": -77.03199616666667, "bike_id": "962059cbee525761e7acf15416d0a37d", "fusion_lat": 0.0, "name": "962059cbee525761e7acf15416d0a37d", "is_reserved": 0, "rental_uris": {"android": "https://dc.lft.to/lastmile_qr_scan", "ios": "https://dc.lft.to/lastmile_qr_scan"}, "fusion_lon": 0.0}, {"lat": 38.921215, "is_disabled": 0, "type": "electric_scooter", "lon": -77.0117305, "bike_id": "726a48d77ecfd84f3cc80afa1d722950", "fusion_lat": 0.0, "name": "726a48d77ecfd84f3cc80afa1d722950", "is_reserved": 0, "rental_uris": {"android": "https://dc.lft.to/lastmile_qr_scan", "ios": "https://dc.lft.to/lastmile_qr_scan"}, "fusion_lon": 0.0}, {"lat": 38.98506416666667, "is_disabled": 0, "type": "electric_bike", "lon": -76.982043, "bike_id": "19cddb85d378ad65fd37a0d1c03aa87c", "fusion_lat": 0.0, "name": "19cddb85d378ad65fd37a0d1c03aa87c", "is_reserved": 0, "rental_uris": {"android": "https://dc.lft.to/lastmile_qr_scan", "ios": "https://dc.lft.to/lastmile_qr_scan"}, "fusion_lon": 0.0}, {"lat": 38.91814516666667, "is_disabled": 0, "type": "electric_scooter", "lon": -77.02488116666666, "bike_id": "55c7b801172608adcf9ecb8a422de567", "fusion_lat": 0.0, "name": "55c7b801172608adcf9ecb8a422de567", "is_reserved": 0, "rental_uris": {"android": "https://dc.lft.to/lastmile_qr_scan", "ios": "https://dc.lft.to/lastmile_qr_scan"}, "fusion_lon": 0.0}, {"lat": 38.9198515, "is_disabled": 0, "type": "electric_scooter", "lon": -77.02528916666667, "bike_id": "19059e2d741e8a4235fdbb204fd8a14f", "fusion_lat": 0.0, "name": "19059e2d741e8a4235fdbb204fd8a14f", "is_reserved": 0, "rental_uris": {"android": "https://dc.lft.to/lastmile_qr_scan", "ios": "https://dc.lft.to/lastmile_qr_scan"}, "fusion_lon": 0.0}, {"lat": 38.89221533333333, "is_disabled": 0, "type": "electric_scooter", "lon": -77.0221035, "bike_id": "77200ba9e722fccd2496c94b0626d6ce", "fusion_lat": 0.0, "name": "77200ba9e722fccd2496c94b0626d6ce", "is_reserved": 0, "rental_uris": {"android": "https://dc.lft.to/lastmile_qr_scan", "ios": "https://dc.lft.to/lastmile_qr_scan"}, "fusion_lon": 0.0}, {"lat": 38.9166455, "is_disabled": 0, "type": "electric_scooter", "lon": -77.02292366666667, "bike_id": "c8b123f24f417f2ae2b4e4a09aa0a329", "fusion_lat": 0.0, "name": "c8b123f24f417f2ae2b4e4a09aa0a329", "is_reserved": 0, "rental_uris": {"android": "https://dc.lft.to/lastmile_qr_scan", "ios": "https://dc.lft.to/lastmile_qr_scan"}, "fusion_lon": 0.0}, {"lat": 38.909894666666666, "is_disabled": 0, "type": "electric_scooter", "lon": -77.04159816666666, "bike_id": "3535aaa07f0d6ccc09de73c1a11df069", "fusion_lat": 0.0, "name": "3535aaa07f0d6ccc09de73c1a11df069", "is_reserved": 0, "rental_uris": {"android": "https://dc.lft.to/lastmile_qr_scan", "ios": "https://dc.lft.to/lastmile_qr_scan"}, "fusion_lon": 0.0}, {"lat": 38.80575916666667, "is_disabled": 0, "type": "electric_bike", "lon": -77.06864016666667, "bike_id": "123cd766c439fc5a4d73ca1938c51b29", "fusion_lat": 0.0, "name": "123cd766c439fc5a4d73ca1938c51b29", "is_reserved": 0, "rental_uris": {"android": "https://dc.lft.to/lastmile_qr_scan", "ios": "https://dc.lft.to/lastmile_qr_scan"}, "fusion_lon": 0.0}, {"lat": 38.902525, "is_disabled": 0, "type": "electric_scooter", "lon": -77.0265015, "bike_id": "5e88bbe235e1145bb76b1fc1843c422d", "fusion_lat": 0.0, "name": "5e88bbe235e1145bb76b1fc1843c422d", "is_reserved": 0, "rental_uris": {"android": "https://dc.lft.to/lastmile_qr_scan", "ios": "https://dc.lft.to/lastmile_qr_scan"}, "fusion_lon": 0.0}, {"lat": 38.888295166666666, "is_disabled": 0, "type": "electric_scooter", "lon": -76.99411983333333, "bike_id": "43f5bcd5dd70831bbb2a958ae902c408", "fusion_lat": 0.0, "name": "43f5bcd5dd70831bbb2a958ae902c408", "is_reserved": 0, "rental_uris": {"android": "https://dc.lft.to/lastmile_qr_scan", "ios": "https://dc.lft.to/lastmile_qr_scan"}, "fusion_lon": 0.0}, {"lat": 38.902544666666664, "is_disabled": 0, "type": "electric_scooter", "lon": -77.05258833333333, "bike_id": "bfe64299a9b651901f8e6788ecb50159", "fusion_lat": 0.0, "name": "bfe64299a9b651901f8e6788ecb50159", "is_reserved": 0, "rental_uris": {"android": "https://dc.lft.to/lastmile_qr_scan", "ios": "https://dc.lft.to/lastmile_qr_scan"}, "fusion_lon": 0.0}, {"lat": 38.90720566666667, "is_disabled": 0, "type": "electric_scooter", "lon": -77.04760883333333, "bike_id": "e1d05c5beff847c250f512064d4ec609", "fusion_lat": 0.0, "name": "e1d05c5beff847c250f512064d4ec609", "is_reserved": 0, "rental_uris": {"android": "https://dc.lft.to/lastmile_qr_scan", "ios": "https://dc.lft.to/lastmile_qr_scan"}, "fusion_lon": 0.0}, {"lat": 38.9174075, "is_disabled": 0, "type": "electric_scooter", "lon": -77.03205283333334, "bike_id": "64489c5344d8b0e5cbaaa92d6c81d7f3", "fusion_lat": 0.0, "name": "64489c5344d8b0e5cbaaa92d6c81d7f3", "is_reserved": 0, "rental_uris": {"android": "https://dc.lft.to/lastmile_qr_scan", "ios": "https://dc.lft.to/lastmile_qr_scan"}, "fusion_lon": 0.0}, {"lat": 38.8502825, "is_disabled": 0, "type": "electric_bike", "lon": -77.09802933333333, "bike_id": "1e2df72c3c0f04dd5aff995cfd56ff8f", "fusion_lat": 0.0, "name": "1e2df72c3c0f04dd5aff995cfd56ff8f", "is_reserved": 0, "rental_uris": {"android": "https://dc.lft.to/lastmile_qr_scan", "ios": "https://dc.lft.to/lastmile_qr_scan"}, "fusion_lon": 0.0}, {"lat": 38.9016425, "is_disabled": 0, "type": "electric_scooter", "lon": -76.98070066666666, "bike_id": "03c4566ce8450d7f12dcb16af7352940", "fusion_lat": 0.0, "name": "03c4566ce8450d7f12dcb16af7352940", "is_reserved": 0, "rental_uris": {"android": "https://dc.lft.to/lastmile_qr_scan", "ios": "https://dc.lft.to/lastmile_qr_scan"}, "fusion_lon": 0.0}, {"lat": 38.91727183333333, "is_disabled": 0, "type": "electric_scooter", "lon": -77.0320355, "bike_id": "c58db4994d581857fdd7b79d734b1ccf", "fusion_lat": 0.0, "name": "c58db4994d581857fdd7b79d734b1ccf", "is_reserved": 0, "rental_uris": {"android": "https://dc.lft.to/lastmile_qr_scan", "ios": "https://dc.lft.to/lastmile_qr_scan"}, "fusion_lon": 0.0}, {"lat": 38.93074133333333, "is_disabled": 0, "type": "electric_scooter", "lon": -77.0776075, "bike_id": "cd91608da61b2b66a3647f168d41a2c1", "fusion_lat": 0.0, "name": "cd91608da61b2b66a3647f168d41a2c1", "is_reserved": 0, "rental_uris": {"android": "https://dc.lft.to/lastmile_qr_scan", "ios": "https://dc.lft.to/lastmile_qr_scan"}, "fusion_lon": 0.0}, {"lat": 38.857920166666666, "is_disabled": 0, "type": "electric_bike", "lon": -77.09960333333333, "bike_id": "1b78adff865a97a0d2d7cf824e6c24bd", "fusion_lat": 0.0, "name": "1b78adff865a97a0d2d7cf824e6c24bd", "is_reserved": 0, "rental_uris": {"android": "https://dc.lft.to/lastmile_qr_scan", "ios": "https://dc.lft.to/lastmile_qr_scan"}, "fusion_lon": 0.0}, {"lat": 38.93147833333333, "is_disabled": 0, "type": "electric_scooter", "lon": -77.02149666666666, "bike_id": "98f4f51c3ab915cdc5f0be2ce3da76fd", "fusion_lat": 0.0, "name": "98f4f51c3ab915cdc5f0be2ce3da76fd", "is_reserved": 0, "rental_uris": {"android": "https://dc.lft.to/lastmile_qr_scan", "ios": "https://dc.lft.to/lastmile_qr_scan"}, "fusion_lon": 0.0}, {"lat": 38.903668, "is_disabled": 0, "type": "electric_bike", "lon": -77.01622083333334, "bike_id": "f6b7e485735b4e0305dcea2fb390c866", "fusion_lat": 0.0, "name": "f6b7e485735b4e0305dcea2fb390c866", "is_reserved": 0, "rental_uris": {"android": "https://dc.lft.to/lastmile_qr_scan", "ios": "https://dc.lft.to/lastmile_qr_scan"}, "fusion_lon": 0.0}, {"lat": 38.9055875, "is_disabled": 0, "type": "electric_scooter", "lon": -77.0131605, "bike_id": "cebbb01eb060ad7f19812b28835d2de1", "fusion_lat": 0.0, "name": "cebbb01eb060ad7f19812b28835d2de1", "is_reserved": 0, "rental_uris": {"android": "https://dc.lft.to/lastmile_qr_scan", "ios": "https://dc.lft.to/lastmile_qr_scan"}, "fusion_lon": 0.0}, {"lat": 38.908184, "is_disabled": 0, "type": "electric_scooter", "lon": -77.0435515, "bike_id": "e05db03a9db5f560a973d05299363695", "fusion_lat": 0.0, "name": "e05db03a9db5f560a973d05299363695", "is_reserved": 0, "rental_uris": {"android": "https://dc.lft.to/lastmile_qr_scan", "ios": "https://dc.lft.to/lastmile_qr_scan"}, "fusion_lon": 0.0}, {"lat": 38.9452285, "is_disabled": 0, "type": "electric_scooter", "lon": -76.9795055, "bike_id": "2457114dd63e92963536ad46cd44eeed", "fusion_lat": 0.0, "name": "2457114dd63e92963536ad46cd44eeed", "is_reserved": 0, "rental_uris": {"android": "https://dc.lft.to/lastmile_qr_scan", "ios": "https://dc.lft.to/lastmile_qr_scan"}, "fusion_lon": 0.0}, {"lat": 38.8922195, "is_disabled": 0, "type": "electric_scooter", "lon": -77.04858683333333, "bike_id": "be44552c17ffeace1cada2675b3e2191", "fusion_lat": 0.0, "name": "be44552c17ffeace1cada2675b3e2191", "is_reserved": 0, "rental_uris": {"android": "https://dc.lft.to/lastmile_qr_scan", "ios": "https://dc.lft.to/lastmile_qr_scan"}, "fusion_lon": 0.0}, {"lat": 38.88480066666666, "is_disabled": 0, "type": "electric_scooter", "lon": -76.94526483333334, "bike_id": "3ca9c875fef376a42ee67fdbadb4c80c", "fusion_lat": 0.0, "name": "3ca9c875fef376a42ee67fdbadb4c80c", "is_reserved": 0, "rental_uris": {"android": "https://dc.lft.to/lastmile_qr_scan", "ios": "https://dc.lft.to/lastmile_qr_scan"}, "fusion_lon": 0.0}, {"lat": 38.9056165, "is_disabled": 0, "type": "electric_scooter", "lon": -77.02693766666667, "bike_id": "d00318592c1db1b52bf0340321bd3313", "fusion_lat": 0.0, "name": "d00318592c1db1b52bf0340321bd3313", "is_reserved": 0, "rental_uris": {"android": "https://dc.lft.to/lastmile_qr_scan", "ios": "https://dc.lft.to/lastmile_qr_scan"}, "fusion_lon": 0.0}, {"lat": 38.92220283333333, "is_disabled": 0, "type": "electric_scooter", "lon": -77.03760316666667, "bike_id": "2def0397ea4d97888c8ab63ef8616c0d", "fusion_lat": 0.0, "name": "2def0397ea4d97888c8ab63ef8616c0d", "is_reserved": 0, "rental_uris": {"android": "https://dc.lft.to/lastmile_qr_scan", "ios": "https://dc.lft.to/lastmile_qr_scan"}, "fusion_lon": 0.0}, {"lat": 38.908507, "is_disabled": 0, "type": "electric_scooter", "lon": -77.04760733333333, "bike_id": "a413d1b798fa5d9fdeff27f6bd3c2d65", "fusion_lat": 0.0, "name": "a413d1b798fa5d9fdeff27f6bd3c2d65", "is_reserved": 0, "rental_uris": {"android": "https://dc.lft.to/lastmile_qr_scan", "ios": "https://dc.lft.to/lastmile_qr_scan"}, "fusion_lon": 0.0}, {"lat": 38.91705266666666, "is_disabled": 0, "type": "electric_scooter", "lon": -77.0336085, "bike_id": "1034107a820a280dafb7323be52adb85", "fusion_lat": 0.0, "name": "1034107a820a280dafb7323be52adb85", "is_reserved": 0, "rental_uris": {"android": "https://dc.lft.to/lastmile_qr_scan", "ios": "https://dc.lft.to/lastmile_qr_scan"}, "fusion_lon": 0.0}, {"lat": 38.889273, "is_disabled": 0, "type": "electric_scooter", "lon": -76.97373783333333, "bike_id": "ec42f7a2898488fdc0ad04887a194cc4", "fusion_lat": 0.0, "name": "ec42f7a2898488fdc0ad04887a194cc4", "is_reserved": 0, "rental_uris": {"android": "https://dc.lft.to/lastmile_qr_scan", "ios": "https://dc.lft.to/lastmile_qr_scan"}, "fusion_lon": 0.0}, {"lat": 38.94403666666667, "is_disabled": 0, "type": "electric_scooter", "lon": -77.0264855, "bike_id": "8192463c6dd3095b8c3de5505557e668", "fusion_lat": 0.0, "name": "8192463c6dd3095b8c3de5505557e668", "is_reserved": 0, "rental_uris": {"android": "https://dc.lft.to/lastmile_qr_scan", "ios": "https://dc.lft.to/lastmile_qr_scan"}, "fusion_lon": 0.0}, {"lat": 38.91292516666667, "is_disabled": 0, "type": "electric_bike", "lon": -77.04483766666667, "bike_id": "d01f4080aef512a803210131254fa50c", "fusion_lat": 0.0, "name": "d01f4080aef512a803210131254fa50c", "is_reserved": 0, "rental_uris": {"android": "https://dc.lft.to/lastmile_qr_scan", "ios": "https://dc.lft.to/lastmile_qr_scan"}, "fusion_lon": 0.0}, {"lat": 38.9089875, "is_disabled": 0, "type": "electric_scooter", "lon": -77.03213966666667, "bike_id": "82281de0591d79af1f9e287340fc7a31", "fusion_lat": 0.0, "name": "82281de0591d79af1f9e287340fc7a31", "is_reserved": 0, "rental_uris": {"android": "https://dc.lft.to/lastmile_qr_scan", "ios": "https://dc.lft.to/lastmile_qr_scan"}, "fusion_lon": 0.0}, {"lat": 38.8707825, "is_disabled": 0, "type": "electric_scooter", "lon": -76.96867933333333, "bike_id": "ef719dc130a6c88e293807d3f0bf0549", "fusion_lat": 0.0, "name": "ef719dc130a6c88e293807d3f0bf0549", "is_reserved": 0, "rental_uris": {"android": "https://dc.lft.to/lastmile_qr_scan", "ios": "https://dc.lft.to/lastmile_qr_scan"}, "fusion_lon": 0.0}, {"lat": 38.900709166666665, "is_disabled": 0, "type": "electric_scooter", "lon": -77.0021355, "bike_id": "3afc72d513a103195549ba62ae1dd6ab", "fusion_lat": 0.0, "name": "3afc72d513a103195549ba62ae1dd6ab", "is_reserved": 0, "rental_uris": {"android": "https://dc.lft.to/lastmile_qr_scan", "ios": "https://dc.lft.to/lastmile_qr_scan"}, "fusion_lon": 0.0}, {"lat": 38.872475333333334, "is_disabled": 0, "type": "electric_scooter", "lon": -76.9772285, "bike_id": "74c86e9b9c5d6fcc8cc046a708b7aff1", "fusion_lat": 0.0, "name": "74c86e9b9c5d6fcc8cc046a708b7aff1", "is_reserved": 0, "rental_uris": {"android": "https://dc.lft.to/lastmile_qr_scan", "ios": "https://dc.lft.to/lastmile_qr_scan"}, "fusion_lon": 0.0}, {"lat": 38.93923766666666, "is_disabled": 0, "type": "electric_scooter", "lon": -77.02798483333333, "bike_id": "5212ab91ad9040c2847a81dee9697af4", "fusion_lat": 0.0, "name": "5212ab91ad9040c2847a81dee9697af4", "is_reserved": 0, "rental_uris": {"android": "https://dc.lft.to/lastmile_qr_scan", "ios": "https://dc.lft.to/lastmile_qr_scan"}, "fusion_lon": 0.0}, {"lat": 38.918168666666666, "is_disabled": 0, "type": "electric_scooter", "lon": -77.04180216666667, "bike_id": "86972448fb7af9afba1183c712f49924", "fusion_lat": 0.0, "name": "86972448fb7af9afba1183c712f49924", "is_reserved": 0, "rental_uris": {"android": "https://dc.lft.to/lastmile_qr_scan", "ios": "https://dc.lft.to/lastmile_qr_scan"}, "fusion_lon": 0.0}, {"lat": 39.088585, "is_disabled": 0, "type": "electric_bike", "lon": -77.17843766666667, "bike_id": "ba67378f67747af51d3cf3448aaf8a7f", "fusion_lat": 0.0, "name": "ba67378f67747af51d3cf3448aaf8a7f", "is_reserved": 0, "rental_uris": {"android": "https://dc.lft.to/lastmile_qr_scan", "ios": "https://dc.lft.to/lastmile_qr_scan"}, "fusion_lon": 0.0}, {"lat": 38.872313, "is_disabled": 0, "type": "electric_bike", "lon": -77.01180483333333, "bike_id": "910bf1bb8f82d2ce25538aada70cc267", "fusion_lat": 0.0, "name": "910bf1bb8f82d2ce25538aada70cc267", "is_reserved": 0, "rental_uris": {"android": "https://dc.lft.to/lastmile_qr_scan", "ios": "https://dc.lft.to/lastmile_qr_scan"}, "fusion_lon": 0.0}, {"lat": 38.907733, "is_disabled": 0, "type": "electric_bike", "lon": -77.07001066666666, "bike_id": "f8259518b561400e86ab599ed1755e13", "fusion_lat": 0.0, "name": "f8259518b561400e86ab599ed1755e13", "is_reserved": 0, "rental_uris": {"android": "https://dc.lft.to/lastmile_qr_scan", "ios": "https://dc.lft.to/lastmile_qr_scan"}, "fusion_lon": 0.0}, {"lat": 38.92067866666667, "is_disabled": 0, "type": "electric_scooter", "lon": -77.0252375, "bike_id": "87e8a5973d752bc1d9fb2b85621b5236", "fusion_lat": 0.0, "name": "87e8a5973d752bc1d9fb2b85621b5236", "is_reserved": 0, "rental_uris": {"android": "https://dc.lft.to/lastmile_qr_scan", "ios": "https://dc.lft.to/lastmile_qr_scan"}, "fusion_lon": 0.0}, {"lat": 38.89276266666667, "is_disabled": 0, "type": "electric_scooter", "lon": -77.05040183333334, "bike_id": "80f1378e34bb3666b7bb2dda02982d13", "fusion_lat": 0.0, "name": "80f1378e34bb3666b7bb2dda02982d13", "is_reserved": 0, "rental_uris": {"android": "https://dc.lft.to/lastmile_qr_scan", "ios": "https://dc.lft.to/lastmile_qr_scan"}, "fusion_lon": 0.0}, {"lat": 38.9285545, "is_disabled": 0, "type": "electric_bike", "lon": -77.222217, "bike_id": "fde2dedea2265b86692058c12b1c2ccd", "fusion_lat": 0.0, "name": "fde2dedea2265b86692058c12b1c2ccd", "is_reserved": 0, "rental_uris": {"android": "https://dc.lft.to/lastmile_qr_scan", "ios": "https://dc.lft.to/lastmile_qr_scan"}, "fusion_lon": 0.0}, {"lat": 38.9248465, "is_disabled": 0, "type": "electric_bike", "lon": -76.99026933333333, "bike_id": "bfc822eaed101790cb561bc500850065", "fusion_lat": 0.0, "name": "bfc822eaed101790cb561bc500850065", "is_reserved": 0, "rental_uris": {"android": "https://dc.lft.to/lastmile_qr_scan", "ios": "https://dc.lft.to/lastmile_qr_scan"}, "fusion_lon": 0.0}, {"lat": 38.9285575, "is_disabled": 0, "type": "electric_bike", "lon": -77.03272383333334, "bike_id": "deb553674a145d02b5a03c1a606dcfdf", "fusion_lat": 0.0, "name": "deb553674a145d02b5a03c1a606dcfdf", "is_reserved": 0, "rental_uris": {"android": "https://dc.lft.to/lastmile_qr_scan", "ios": "https://dc.lft.to/lastmile_qr_scan"}, "fusion_lon": 0.0}, {"lat": 38.917635833333335, "is_disabled": 0, "type": "electric_scooter", "lon": -77.04753016666666, "bike_id": "570f0b4bb068a352f0185fc13b8c48e3", "fusion_lat": 0.0, "name": "570f0b4bb068a352f0185fc13b8c48e3", "is_reserved": 0, "rental_uris": {"android": "https://dc.lft.to/lastmile_qr_scan", "ios": "https://dc.lft.to/lastmile_qr_scan"}, "fusion_lon": 0.0}, {"lat": 38.90957933333333, "is_disabled": 0, "type": "electric_scooter", "lon": -77.03422383333333, "bike_id": "4e58e23a412a0684597cff0c221a9cfb", "fusion_lat": 0.0, "name": "4e58e23a412a0684597cff0c221a9cfb", "is_reserved": 0, "rental_uris": {"android": "https://dc.lft.to/lastmile_qr_scan", "ios": "https://dc.lft.to/lastmile_qr_scan"}, "fusion_lon": 0.0}, {"lat": 38.923657, "is_disabled": 0, "type": "electric_scooter", "lon": -77.04379566666667, "bike_id": "05232c8f6f848cad5f54571c41fe657b", "fusion_lat": 0.0, "name": "05232c8f6f848cad5f54571c41fe657b", "is_reserved": 0, "rental_uris": {"android": "https://dc.lft.to/lastmile_qr_scan", "ios": "https://dc.lft.to/lastmile_qr_scan"}, "fusion_lon": 0.0}, {"lat": 38.85455733333333, "is_disabled": 0, "type": "electric_scooter", "lon": -76.97233566666667, "bike_id": "e078a9ce277c8d2e5f56bc16bc53029e", "fusion_lat": 0.0, "name": "e078a9ce277c8d2e5f56bc16bc53029e", "is_reserved": 0, "rental_uris": {"android": "https://dc.lft.to/lastmile_qr_scan", "ios": "https://dc.lft.to/lastmile_qr_scan"}, "fusion_lon": 0.0}, {"lat": 38.91662383333333, "is_disabled": 0, "type": "electric_scooter", "lon": -77.02200133333334, "bike_id": "1fa2c7673d21378e1818fa79fc0fee06", "fusion_lat": 0.0, "name": "1fa2c7673d21378e1818fa79fc0fee06", "is_reserved": 0, "rental_uris": {"android": "https://dc.lft.to/lastmile_qr_scan", "ios": "https://dc.lft.to/lastmile_qr_scan"}, "fusion_lon": 0.0}, {"lat": 38.943154, "is_disabled": 0, "type": "electric_scooter", "lon": -77.0592855, "bike_id": "9d80443da7c50e991cfac7e9b0e593b4", "fusion_lat": 0.0, "name": "9d80443da7c50e991cfac7e9b0e593b4", "is_reserved": 0, "rental_uris": {"android": "https://dc.lft.to/lastmile_qr_scan", "ios": "https://dc.lft.to/lastmile_qr_scan"}, "fusion_lon": 0.0}, {"lat": 38.90826666666667, "is_disabled": 0, "type": "electric_scooter", "lon": -77.043525, "bike_id": "55bba10d81f5ce6264c3903abc721fd6", "fusion_lat": 0.0, "name": "55bba10d81f5ce6264c3903abc721fd6", "is_reserved": 0, "rental_uris": {"android": "https://dc.lft.to/lastmile_qr_scan", "ios": "https://dc.lft.to/lastmile_qr_scan"}, "fusion_lon": 0.0}, {"lat": 38.90286566666666, "is_disabled": 0, "type": "electric_bike", "lon": -77.06344983333334, "bike_id": "61b0401bed6be8fe9db1c30b2a962b99", "fusion_lat": 0.0, "name": "61b0401bed6be8fe9db1c30b2a962b99", "is_reserved": 0, "rental_uris": {"android": "https://dc.lft.to/lastmile_qr_scan", "ios": "https://dc.lft.to/lastmile_qr_scan"}, "fusion_lon": 0.0}, {"lat": 38.9246845, "is_disabled": 0, "type": "electric_scooter", "lon": -77.0271445, "bike_id": "17f7a9d7a3f0994b44c78c437f40cf24", "fusion_lat": 0.0, "name": "17f7a9d7a3f0994b44c78c437f40cf24", "is_reserved": 0, "rental_uris": {"android": "https://dc.lft.to/lastmile_qr_scan", "ios": "https://dc.lft.to/lastmile_qr_scan"}, "fusion_lon": 0.0}, {"lat": 38.86384416666667, "is_disabled": 0, "type": "electric_scooter", "lon": -76.99250516666666, "bike_id": "ea84a25b4ca3d102e8015b4040cbcf0e", "fusion_lat": 0.0, "name": "ea84a25b4ca3d102e8015b4040cbcf0e", "is_reserved": 0, "rental_uris": {"android": "https://dc.lft.to/lastmile_qr_scan", "ios": "https://dc.lft.to/lastmile_qr_scan"}, "fusion_lon": 0.0}, {"lat": 38.909595, "is_disabled": 0, "type": "electric_scooter", "lon": -77.038186, "bike_id": "5630aa352aa7bdf56ad8db2da9ff2feb", "fusion_lat": 0.0, "name": "5630aa352aa7bdf56ad8db2da9ff2feb", "is_reserved": 0, "rental_uris": {"android": "https://dc.lft.to/lastmile_qr_scan", "ios": "https://dc.lft.to/lastmile_qr_scan"}, "fusion_lon": 0.0}, {"lat": 38.97835716666667, "is_disabled": 0, "type": "electric_bike", "lon": -77.02641483333333, "bike_id": "55cc525f58c33c5fcaf99df13cf06354", "fusion_lat": 0.0, "name": "55cc525f58c33c5fcaf99df13cf06354", "is_reserved": 0, "rental_uris": {"android": "https://dc.lft.to/lastmile_qr_scan", "ios": "https://dc.lft.to/lastmile_qr_scan"}, "fusion_lon": 0.0}, {"lat": 38.91823683333333, "is_disabled": 0, "type": "electric_scooter", "lon": -77.024203, "bike_id": "145ae98104aaa20bce1e28ca148c76b6", "fusion_lat": 0.0, "name": "145ae98104aaa20bce1e28ca148c76b6", "is_reserved": 0, "rental_uris": {"android": "https://dc.lft.to/lastmile_qr_scan", "ios": "https://dc.lft.to/lastmile_qr_scan"}, "fusion_lon": 0.0}, {"lat": 38.911148, "is_disabled": 0, "type": "electric_scooter", "lon": -77.02333766666666, "bike_id": "0cb32fbb6e5d5c442de377fa1edbd33e", "fusion_lat": 0.0, "name": "0cb32fbb6e5d5c442de377fa1edbd33e", "is_reserved": 0, "rental_uris": {"android": "https://dc.lft.to/lastmile_qr_scan", "ios": "https://dc.lft.to/lastmile_qr_scan"}, "fusion_lon": 0.0}, {"lat": 38.92242733333333, "is_disabled": 0, "type": "electric_scooter", "lon": -77.021929, "bike_id": "a7666147fac6bd77ad750706351f718d", "fusion_lat": 0.0, "name": "a7666147fac6bd77ad750706351f718d", "is_reserved": 0, "rental_uris": {"android": "https://dc.lft.to/lastmile_qr_scan", "ios": "https://dc.lft.to/lastmile_qr_scan"}, "fusion_lon": 0.0}, {"lat": 39.034203, "is_disabled": 0, "type": "electric_bike", "lon": -77.04242766666667, "bike_id": "1ecf156da6b0c59f4c1d7f4b80193751", "fusion_lat": 0.0, "name": "1ecf156da6b0c59f4c1d7f4b80193751", "is_reserved": 0, "rental_uris": {"android": "https://dc.lft.to/lastmile_qr_scan", "ios": "https://dc.lft.to/lastmile_qr_scan"}, "fusion_lon": 0.0}, {"lat": 38.902355, "is_disabled": 0, "type": "electric_scooter", "lon": -77.0020245, "bike_id": "9f9e8b38f96bea210a53ffbe1f0c7a68", "fusion_lat": 0.0, "name": "9f9e8b38f96bea210a53ffbe1f0c7a68", "is_reserved": 0, "rental_uris": {"android": "https://dc.lft.to/lastmile_qr_scan", "ios": "https://dc.lft.to/lastmile_qr_scan"}, "fusion_lon": 0.0}, {"lat": 38.92234583333333, "is_disabled": 0, "type": "electric_scooter", "lon": -77.04251083333334, "bike_id": "17d2ec98201a6150993a42da54197aca", "fusion_lat": 0.0, "name": "17d2ec98201a6150993a42da54197aca", "is_reserved": 0, "rental_uris": {"android": "https://dc.lft.to/lastmile_qr_scan", "ios": "https://dc.lft.to/lastmile_qr_scan"}, "fusion_lon": 0.0}, {"lat": 38.93202766666667, "is_disabled": 0, "type": "electric_scooter", "lon": -77.04427383333334, "bike_id": "f7611d76545e91bb4f7ecd13bef45466", "fusion_lat": 0.0, "name": "f7611d76545e91bb4f7ecd13bef45466", "is_reserved": 0, "rental_uris": {"android": "https://dc.lft.to/lastmile_qr_scan", "ios": "https://dc.lft.to/lastmile_qr_scan"}, "fusion_lon": 0.0}, {"lat": 38.917077, "is_disabled": 0, "type": "electric_scooter", "lon": -77.02944883333333, "bike_id": "d4139f96787d3d3c08aadf30b0ff6625", "fusion_lat": 0.0, "name": "d4139f96787d3d3c08aadf30b0ff6625", "is_reserved": 0, "rental_uris": {"android": "https://dc.lft.to/lastmile_qr_scan", "ios": "https://dc.lft.to/lastmile_qr_scan"}, "fusion_lon": 0.0}, {"lat": 38.922110333333336, "is_disabled": 0, "type": "electric_bike", "lon": -76.98794966666667, "bike_id": "db26afc7f117131a9e0e5789bbd9cfaa", "fusion_lat": 0.0, "name": "db26afc7f117131a9e0e5789bbd9cfaa", "is_reserved": 0, "rental_uris": {"android": "https://dc.lft.to/lastmile_qr_scan", "ios": "https://dc.lft.to/lastmile_qr_scan"}, "fusion_lon": 0.0}, {"lat": 38.93296266666667, "is_disabled": 0, "type": "electric_scooter", "lon": -77.0359785, "bike_id": "ba6986b26d85a6723183180090323ab4", "fusion_lat": 0.0, "name": "ba6986b26d85a6723183180090323ab4", "is_reserved": 0, "rental_uris": {"android": "https://dc.lft.to/lastmile_qr_scan", "ios": "https://dc.lft.to/lastmile_qr_scan"}, "fusion_lon": 0.0}, {"lat": 38.897569833333336, "is_disabled": 0, "type": "electric_scooter", "lon": -77.05489266666666, "bike_id": "4af3754fdd754ca2a5a41934473e29bb", "fusion_lat": 0.0, "name": "4af3754fdd754ca2a5a41934473e29bb", "is_reserved": 0, "rental_uris": {"android": "https://dc.lft.to/lastmile_qr_scan", "ios": "https://dc.lft.to/lastmile_qr_scan"}, "fusion_lon": 0.0}, {"lat": 38.876287166666664, "is_disabled": 0, "type": "electric_scooter", "lon": -76.96524483333333, "bike_id": "92f314bb6c1daa9de82e4214f4abdbd3", "fusion_lat": 0.0, "name": "92f314bb6c1daa9de82e4214f4abdbd3", "is_reserved": 0, "rental_uris": {"android": "https://dc.lft.to/lastmile_qr_scan", "ios": "https://dc.lft.to/lastmile_qr_scan"}, "fusion_lon": 0.0}, {"lat": 38.92622583333333, "is_disabled": 0, "type": "electric_scooter", "lon": -77.04192433333333, "bike_id": "2bfbc58b617a1000982ef1356c754b2e", "fusion_lat": 0.0, "name": "2bfbc58b617a1000982ef1356c754b2e", "is_reserved": 0, "rental_uris": {"android": "https://dc.lft.to/lastmile_qr_scan", "ios": "https://dc.lft.to/lastmile_qr_scan"}, "fusion_lon": 0.0}, {"lat": 38.927215333333336, "is_disabled": 0, "type": "electric_bike", "lon": -77.02961016666667, "bike_id": "c5f8e5d59305cb2eba656e6363b71d68", "fusion_lat": 0.0, "name": "c5f8e5d59305cb2eba656e6363b71d68", "is_reserved": 0, "rental_uris": {"android": "https://dc.lft.to/lastmile_qr_scan", "ios": "https://dc.lft.to/lastmile_qr_scan"}, "fusion_lon": 0.0}, {"lat": 38.9374615, "is_disabled": 0, "type": "electric_scooter", "lon": -77.03458833333333, "bike_id": "fc8da7e1d36059098f4ce9528f1a3b81", "fusion_lat": 0.0, "name": "fc8da7e1d36059098f4ce9528f1a3b81", "is_reserved": 0, "rental_uris": {"android": "https://dc.lft.to/lastmile_qr_scan", "ios": "https://dc.lft.to/lastmile_qr_scan"}, "fusion_lon": 0.0}, {"lat": 38.9075235, "is_disabled": 0, "type": "electric_scooter", "lon": -76.999069, "bike_id": "304d469760fcf2edd468174eb9abc59b", "fusion_lat": 0.0, "name": "304d469760fcf2edd468174eb9abc59b", "is_reserved": 0, "rental_uris": {"android": "https://dc.lft.to/lastmile_qr_scan", "ios": "https://dc.lft.to/lastmile_qr_scan"}, "fusion_lon": 0.0}, {"lat": 38.89617066666667, "is_disabled": 0, "type": "electric_scooter", "lon": -77.04501516666667, "bike_id": "0e02ebbcf8d2e3fb80e2dc0982326c9f", "fusion_lat": 0.0, "name": "0e02ebbcf8d2e3fb80e2dc0982326c9f", "is_reserved": 0, "rental_uris": {"android": "https://dc.lft.to/lastmile_qr_scan", "ios": "https://dc.lft.to/lastmile_qr_scan"}, "fusion_lon": 0.0}, {"lat": 38.894941, "is_disabled": 0, "type": "electric_scooter", "lon": -77.002101, "bike_id": "6e4d03087571293639c6f706a79d7db6", "fusion_lat": 0.0, "name": "6e4d03087571293639c6f706a79d7db6", "is_reserved": 0, "rental_uris": {"android": "https://dc.lft.to/lastmile_qr_scan", "ios": "https://dc.lft.to/lastmile_qr_scan"}, "fusion_lon": 0.0}, {"lat": 38.920302666666664, "is_disabled": 0, "type": "electric_scooter", "lon": -77.01326366666666, "bike_id": "e6be718dc8ab544ee2de8c52bf7247a5", "fusion_lat": 0.0, "name": "e6be718dc8ab544ee2de8c52bf7247a5", "is_reserved": 0, "rental_uris": {"android": "https://dc.lft.to/lastmile_qr_scan", "ios": "https://dc.lft.to/lastmile_qr_scan"}, "fusion_lon": 0.0}, {"lat": 38.944362166666664, "is_disabled": 0, "type": "electric_scooter", "lon": -77.06261333333333, "bike_id": "8c6f03966e685cb1ce1adad632bce902", "fusion_lat": 0.0, "name": "8c6f03966e685cb1ce1adad632bce902", "is_reserved": 0, "rental_uris": {"android": "https://dc.lft.to/lastmile_qr_scan", "ios": "https://dc.lft.to/lastmile_qr_scan"}, "fusion_lon": 0.0}, {"lat": 38.912562333333334, "is_disabled": 0, "type": "electric_scooter", "lon": -77.038736, "bike_id": "f01bd70cbfb156b1a69c06e6ccbf98aa", "fusion_lat": 0.0, "name": "f01bd70cbfb156b1a69c06e6ccbf98aa", "is_reserved": 0, "rental_uris": {"android": "https://dc.lft.to/lastmile_qr_scan", "ios": "https://dc.lft.to/lastmile_qr_scan"}, "fusion_lon": 0.0}, {"lat": 38.934131666666666, "is_disabled": 0, "type": "electric_scooter", "lon": -77.04268683333333, "bike_id": "e6f3d0b03b21a2c804e3521153a0bac8", "fusion_lat": 0.0, "name": "e6f3d0b03b21a2c804e3521153a0bac8", "is_reserved": 0, "rental_uris": {"android": "https://dc.lft.to/lastmile_qr_scan", "ios": "https://dc.lft.to/lastmile_qr_scan"}, "fusion_lon": 0.0}, {"lat": 38.906454833333335, "is_disabled": 0, "type": "electric_scooter", "lon": -77.02945233333334, "bike_id": "15471c240fc2ce3bdaaeb7d46b762a86", "fusion_lat": 0.0, "name": "15471c240fc2ce3bdaaeb7d46b762a86", "is_reserved": 0, "rental_uris": {"android": "https://dc.lft.to/lastmile_qr_scan", "ios": "https://dc.lft.to/lastmile_qr_scan"}, "fusion_lon": 0.0}, {"lat": 38.90554816666667, "is_disabled": 0, "type": "electric_scooter", "lon": -77.032502, "bike_id": "2c0d9f4bafef64736a7fcdb71416727c", "fusion_lat": 0.0, "name": "2c0d9f4bafef64736a7fcdb71416727c", "is_reserved": 0, "rental_uris": {"android": "https://dc.lft.to/lastmile_qr_scan", "ios": "https://dc.lft.to/lastmile_qr_scan"}, "fusion_lon": 0.0}, {"lat": 38.918352666666664, "is_disabled": 0, "type": "electric_scooter", "lon": -77.03511833333333, "bike_id": "2221041363c7fd77ecd3f16c66f2badb", "fusion_lat": 0.0, "name": "2221041363c7fd77ecd3f16c66f2badb", "is_reserved": 0, "rental_uris": {"android": "https://dc.lft.to/lastmile_qr_scan", "ios": "https://dc.lft.to/lastmile_qr_scan"}, "fusion_lon": 0.0}, {"lat": 38.9507765, "is_disabled": 0, "type": "electric_scooter", "lon": -77.027182, "bike_id": "7cd519b866146e0081b6fdf4c1ccc841", "fusion_lat": 0.0, "name": "7cd519b866146e0081b6fdf4c1ccc841", "is_reserved": 0, "rental_uris": {"android": "https://dc.lft.to/lastmile_qr_scan", "ios": "https://dc.lft.to/lastmile_qr_scan"}, "fusion_lon": 0.0}, {"lat": 38.94192866666667, "is_disabled": 0, "type": "electric_scooter", "lon": -77.0401545, "bike_id": "646ccd73a846b30f2c2b17f7c10226ad", "fusion_lat": 0.0, "name": "646ccd73a846b30f2c2b17f7c10226ad", "is_reserved": 0, "rental_uris": {"android": "https://dc.lft.to/lastmile_qr_scan", "ios": "https://dc.lft.to/lastmile_qr_scan"}, "fusion_lon": 0.0}, {"lat": 38.85490583333333, "is_disabled": 0, "type": "electric_bike", "lon": -77.12048283333333, "bike_id": "bbe09433f43f50bace45d648aadd03a0", "fusion_lat": 0.0, "name": "bbe09433f43f50bace45d648aadd03a0", "is_reserved": 0, "rental_uris": {"android": "https://dc.lft.to/lastmile_qr_scan", "ios": "https://dc.lft.to/lastmile_qr_scan"}, "fusion_lon": 0.0}, {"lat": 38.88641283333333, "is_disabled": 0, "type": "electric_scooter", "lon": -77.02168583333334, "bike_id": "0fc541784dafc356c172b0aa10e8c32a", "fusion_lat": 0.0, "name": "0fc541784dafc356c172b0aa10e8c32a", "is_reserved": 0, "rental_uris": {"android": "https://dc.lft.to/lastmile_qr_scan", "ios": "https://dc.lft.to/lastmile_qr_scan"}, "fusion_lon": 0.0}, {"lat": 38.921593, "is_disabled": 0, "type": "electric_scooter", "lon": -77.03518116666666, "bike_id": "03fbb13edb6a18d5c705294cb2ffc6fb", "fusion_lat": 0.0, "name": "03fbb13edb6a18d5c705294cb2ffc6fb", "is_reserved": 0, "rental_uris": {"android": "https://dc.lft.to/lastmile_qr_scan", "ios": "https://dc.lft.to/lastmile_qr_scan"}, "fusion_lon": 0.0}, {"lat": 38.91343033333333, "is_disabled": 0, "type": "electric_scooter", "lon": -77.01751283333333, "bike_id": "49813057b6e12254a30cc623057fb116", "fusion_lat": 0.0, "name": "49813057b6e12254a30cc623057fb116", "is_reserved": 0, "rental_uris": {"android": "https://dc.lft.to/lastmile_qr_scan", "ios": "https://dc.lft.to/lastmile_qr_scan"}, "fusion_lon": 0.0}, {"lat": 38.8772135, "is_disabled": 0, "type": "electric_scooter", "lon": -77.01767216666667, "bike_id": "5b3557160883f2b39a03e328eb3adf2b", "fusion_lat": 0.0, "name": "5b3557160883f2b39a03e328eb3adf2b", "is_reserved": 0, "rental_uris": {"android": "https://dc.lft.to/lastmile_qr_scan", "ios": "https://dc.lft.to/lastmile_qr_scan"}, "fusion_lon": 0.0}, {"lat": 38.9080765, "is_disabled": 0, "type": "electric_scooter", "lon": -77.04333716666666, "bike_id": "43fd58e6e467a44603b2c068047ff796", "fusion_lat": 0.0, "name": "43fd58e6e467a44603b2c068047ff796", "is_reserved": 0, "rental_uris": {"android": "https://dc.lft.to/lastmile_qr_scan", "ios": "https://dc.lft.to/lastmile_qr_scan"}, "fusion_lon": 0.0}, {"lat": 38.917526333333335, "is_disabled": 0, "type": "electric_scooter", "lon": -77.02405166666667, "bike_id": "982dde06dcc25384a2dd6e37106ea7bf", "fusion_lat": 0.0, "name": "982dde06dcc25384a2dd6e37106ea7bf", "is_reserved": 0, "rental_uris": {"android": "https://dc.lft.to/lastmile_qr_scan", "ios": "https://dc.lft.to/lastmile_qr_scan"}, "fusion_lon": 0.0}, {"lat": 38.99257, "is_disabled": 0, "type": "electric_scooter", "lon": -77.036595, "bike_id": "e5a5c1a3d7e274e3673d5ccdf2fca9e1", "fusion_lat": 0.0, "name": "e5a5c1a3d7e274e3673d5ccdf2fca9e1", "is_reserved": 0, "rental_uris": {"android": "https://dc.lft.to/lastmile_qr_scan", "ios": "https://dc.lft.to/lastmile_qr_scan"}, "fusion_lon": 0.0}, {"lat": 38.89225666666667, "is_disabled": 0, "type": "electric_scooter", "lon": -77.02781833333333, "bike_id": "12ee42c08111762cd3ead31f8e070e3e", "fusion_lat": 0.0, "name": "12ee42c08111762cd3ead31f8e070e3e", "is_reserved": 0, "rental_uris": {"android": "https://dc.lft.to/lastmile_qr_scan", "ios": "https://dc.lft.to/lastmile_qr_scan"}, "fusion_lon": 0.0}, {"lat": 38.92754216666667, "is_disabled": 0, "type": "electric_scooter", "lon": -77.03268716666666, "bike_id": "a4a4f8f2a2f692758ec832abbeb74c4e", "fusion_lat": 0.0, "name": "a4a4f8f2a2f692758ec832abbeb74c4e", "is_reserved": 0, "rental_uris": {"android": "https://dc.lft.to/lastmile_qr_scan", "ios": "https://dc.lft.to/lastmile_qr_scan"}, "fusion_lon": 0.0}, {"lat": 38.90010933333333, "is_disabled": 0, "type": "electric_scooter", "lon": -77.046677, "bike_id": "0b202153a2ff8b911b8840050a515d75", "fusion_lat": 0.0, "name": "0b202153a2ff8b911b8840050a515d75", "is_reserved": 0, "rental_uris": {"android": "https://dc.lft.to/lastmile_qr_scan", "ios": "https://dc.lft.to/lastmile_qr_scan"}, "fusion_lon": 0.0}, {"lat": 38.89356083333333, "is_disabled": 0, "type": "electric_scooter", "lon": -77.04141266666667, "bike_id": "f57f264f4e09a290501a85deec536551", "fusion_lat": 0.0, "name": "f57f264f4e09a290501a85deec536551", "is_reserved": 0, "rental_uris": {"android": "https://dc.lft.to/lastmile_qr_scan", "ios": "https://dc.lft.to/lastmile_qr_scan"}, "fusion_lon": 0.0}, {"lat": 38.90974766666667, "is_disabled": 0, "type": "electric_scooter", "lon": -77.04615416666667, "bike_id": "5f3c2fe451abe015f9c4d8646aeea144", "fusion_lat": 0.0, "name": "5f3c2fe451abe015f9c4d8646aeea144", "is_reserved": 0, "rental_uris": {"android": "https://dc.lft.to/lastmile_qr_scan", "ios": "https://dc.lft.to/lastmile_qr_scan"}, "fusion_lon": 0.0}, {"lat": 38.931015333333335, "is_disabled": 0, "type": "electric_scooter", "lon": -77.02471766666666, "bike_id": "adbe5562e39303078c04faccf4225004", "fusion_lat": 0.0, "name": "adbe5562e39303078c04faccf4225004", "is_reserved": 0, "rental_uris": {"android": "https://dc.lft.to/lastmile_qr_scan", "ios": "https://dc.lft.to/lastmile_qr_scan"}, "fusion_lon": 0.0}, {"lat": 38.925903166666664, "is_disabled": 0, "type": "electric_scooter", "lon": -77.04404216666667, "bike_id": "32ede8dbaed724241b5a8224fc4906bf", "fusion_lat": 0.0, "name": "32ede8dbaed724241b5a8224fc4906bf", "is_reserved": 0, "rental_uris": {"android": "https://dc.lft.to/lastmile_qr_scan", "ios": "https://dc.lft.to/lastmile_qr_scan"}, "fusion_lon": 0.0}, {"lat": 38.90527483333334, "is_disabled": 0, "type": "electric_scooter", "lon": -77.06186016666666, "bike_id": "80fa2d93f0311126f7380070f7fb6b01", "fusion_lat": 0.0, "name": "80fa2d93f0311126f7380070f7fb6b01", "is_reserved": 0, "rental_uris": {"android": "https://dc.lft.to/lastmile_qr_scan", "ios": "https://dc.lft.to/lastmile_qr_scan"}, "fusion_lon": 0.0}, {"lat": 38.93652133333333, "is_disabled": 0, "type": "electric_bike", "lon": -76.95217516666666, "bike_id": "9369b7bd3928635fa16c3b51ccfc54cf", "fusion_lat": 0.0, "name": "9369b7bd3928635fa16c3b51ccfc54cf", "is_reserved": 0, "rental_uris": {"android": "https://dc.lft.to/lastmile_qr_scan", "ios": "https://dc.lft.to/lastmile_qr_scan"}, "fusion_lon": 0.0}, {"lat": 38.94557566666667, "is_disabled": 0, "type": "electric_bike", "lon": -76.8953355, "bike_id": "8f3517599ccd4d6019b7aa819c7fb458", "fusion_lat": 0.0, "name": "8f3517599ccd4d6019b7aa819c7fb458", "is_reserved": 0, "rental_uris": {"android": "https://dc.lft.to/lastmile_qr_scan", "ios": "https://dc.lft.to/lastmile_qr_scan"}, "fusion_lon": 0.0}, {"lat": 38.84435416666667, "is_disabled": 0, "type": "electric_scooter", "lon": -76.99661, "bike_id": "1ec03765e245a0105e4a279836eecb07", "fusion_lat": 0.0, "name": "1ec03765e245a0105e4a279836eecb07", "is_reserved": 0, "rental_uris": {"android": "https://dc.lft.to/lastmile_qr_scan", "ios": "https://dc.lft.to/lastmile_qr_scan"}, "fusion_lon": 0.0}, {"lat": 38.90776433333333, "is_disabled": 0, "type": "electric_scooter", "lon": -77.042994, "bike_id": "bac8c072702355471aa86d91e02d0c7b", "fusion_lat": 0.0, "name": "bac8c072702355471aa86d91e02d0c7b", "is_reserved": 0, "rental_uris": {"android": "https://dc.lft.to/lastmile_qr_scan", "ios": "https://dc.lft.to/lastmile_qr_scan"}, "fusion_lon": 0.0}, {"lat": 38.917896, "is_disabled": 0, "type": "electric_scooter", "lon": -77.0229745, "bike_id": "594934fee047f2cc97bd8b1af53858ac", "fusion_lat": 0.0, "name": "594934fee047f2cc97bd8b1af53858ac", "is_reserved": 0, "rental_uris": {"android": "https://dc.lft.to/lastmile_qr_scan", "ios": "https://dc.lft.to/lastmile_qr_scan"}, "fusion_lon": 0.0}, {"lat": 38.911194333333334, "is_disabled": 0, "type": "electric_scooter", "lon": -77.04363983333333, "bike_id": "4a5cba2b8f35a530562ea74cef6c42cc", "fusion_lat": 0.0, "name": "4a5cba2b8f35a530562ea74cef6c42cc", "is_reserved": 0, "rental_uris": {"android": "https://dc.lft.to/lastmile_qr_scan", "ios": "https://dc.lft.to/lastmile_qr_scan"}, "fusion_lon": 0.0}, {"lat": 38.9096745, "is_disabled": 0, "type": "electric_scooter", "lon": -77.0342215, "bike_id": "318cd3eb532c5289a36a84f0d7ce2eb5", "fusion_lat": 0.0, "name": "318cd3eb532c5289a36a84f0d7ce2eb5", "is_reserved": 0, "rental_uris": {"android": "https://dc.lft.to/lastmile_qr_scan", "ios": "https://dc.lft.to/lastmile_qr_scan"}, "fusion_lon": 0.0}, {"lat": 38.890724666666664, "is_disabled": 0, "type": "electric_scooter", "lon": -76.98838866666667, "bike_id": "4376775ce61bd3b4d3c78ecc1446cd6e", "fusion_lat": 0.0, "name": "4376775ce61bd3b4d3c78ecc1446cd6e", "is_reserved": 0, "rental_uris": {"android": "https://dc.lft.to/lastmile_qr_scan", "ios": "https://dc.lft.to/lastmile_qr_scan"}, "fusion_lon": 0.0}, {"lat": 39.0342735, "is_disabled": 0, "type": "electric_bike", "lon": -77.0431095, "bike_id": "0e75e5a3476ec0e77928cbbf7daf5eeb", "fusion_lat": 0.0, "name": "0e75e5a3476ec0e77928cbbf7daf5eeb", "is_reserved": 0, "rental_uris": {"android": "https://dc.lft.to/lastmile_qr_scan", "ios": "https://dc.lft.to/lastmile_qr_scan"}, "fusion_lon": 0.0}, {"lat": 38.9171575, "is_disabled": 0, "type": "electric_scooter", "lon": -77.038357, "bike_id": "e07228f05178f771d60c9183aedf7f6b", "fusion_lat": 0.0, "name": "e07228f05178f771d60c9183aedf7f6b", "is_reserved": 0, "rental_uris": {"android": "https://dc.lft.to/lastmile_qr_scan", "ios": "https://dc.lft.to/lastmile_qr_scan"}, "fusion_lon": 0.0}, {"lat": 38.905614, "is_disabled": 0, "type": "electric_scooter", "lon": -77.03392516666666, "bike_id": "0be7d30b09d630a3cf30954bd72cad58", "fusion_lat": 0.0, "name": "0be7d30b09d630a3cf30954bd72cad58", "is_reserved": 0, "rental_uris": {"android": "https://dc.lft.to/lastmile_qr_scan", "ios": "https://dc.lft.to/lastmile_qr_scan"}, "fusion_lon": 0.0}, {"lat": 38.8519665, "is_disabled": 0, "type": "electric_scooter", "lon": -76.97628716666667, "bike_id": "4c3ac48be68ad3f0e65323b0c4708521", "fusion_lat": 0.0, "name": "4c3ac48be68ad3f0e65323b0c4708521", "is_reserved": 0, "rental_uris": {"android": "https://dc.lft.to/lastmile_qr_scan", "ios": "https://dc.lft.to/lastmile_qr_scan"}, "fusion_lon": 0.0}, {"lat": 38.85718766666667, "is_disabled": 0, "type": "electric_scooter", "lon": -76.98671516666667, "bike_id": "d8fe72214f12de480f4037fdad49187d", "fusion_lat": 0.0, "name": "d8fe72214f12de480f4037fdad49187d", "is_reserved": 0, "rental_uris": {"android": "https://dc.lft.to/lastmile_qr_scan", "ios": "https://dc.lft.to/lastmile_qr_scan"}, "fusion_lon": 0.0}, {"lat": 38.897309666666665, "is_disabled": 0, "type": "electric_scooter", "lon": -77.02152983333333, "bike_id": "fdadbc08687b3332c145728bd0231f8c", "fusion_lat": 0.0, "name": "fdadbc08687b3332c145728bd0231f8c", "is_reserved": 0, "rental_uris": {"android": "https://dc.lft.to/lastmile_qr_scan", "ios": "https://dc.lft.to/lastmile_qr_scan"}, "fusion_lon": 0.0}, {"lat": 38.922094333333334, "is_disabled": 0, "type": "electric_scooter", "lon": -77.04010016666666, "bike_id": "106f284eb65ce5d5bb69adfe1233d31c", "fusion_lat": 0.0, "name": "106f284eb65ce5d5bb69adfe1233d31c", "is_reserved": 0, "rental_uris": {"android": "https://dc.lft.to/lastmile_qr_scan", "ios": "https://dc.lft.to/lastmile_qr_scan"}, "fusion_lon": 0.0}, {"lat": 38.9073, "is_disabled": 0, "type": "electric_scooter", "lon": -77.02966416666666, "bike_id": "3b9041423408f6bcfd61b3b962b0e224", "fusion_lat": 0.0, "name": "3b9041423408f6bcfd61b3b962b0e224", "is_reserved": 0, "rental_uris": {"android": "https://dc.lft.to/lastmile_qr_scan", "ios": "https://dc.lft.to/lastmile_qr_scan"}, "fusion_lon": 0.0}, {"lat": 38.9055305, "is_disabled": 0, "type": "electric_scooter", "lon": -77.057032, "bike_id": "22b744d1b3f7beb71f94b28938a8904b", "fusion_lat": 0.0, "name": "22b744d1b3f7beb71f94b28938a8904b", "is_reserved": 0, "rental_uris": {"android": "https://dc.lft.to/lastmile_qr_scan", "ios": "https://dc.lft.to/lastmile_qr_scan"}, "fusion_lon": 0.0}, {"lat": 38.914115333333335, "is_disabled": 0, "type": "electric_scooter", "lon": -77.02568316666667, "bike_id": "2a96af3a228d986df32f8fa89a354d7c", "fusion_lat": 0.0, "name": "2a96af3a228d986df32f8fa89a354d7c", "is_reserved": 0, "rental_uris": {"android": "https://dc.lft.to/lastmile_qr_scan", "ios": "https://dc.lft.to/lastmile_qr_scan"}, "fusion_lon": 0.0}, {"lat": 38.954026666666664, "is_disabled": 0, "type": "electric_scooter", "lon": -77.0363155, "bike_id": "c6f48b33a1e1e854f1f474f90f2a2eaa", "fusion_lat": 0.0, "name": "c6f48b33a1e1e854f1f474f90f2a2eaa", "is_reserved": 0, "rental_uris": {"android": "https://dc.lft.to/lastmile_qr_scan", "ios": "https://dc.lft.to/lastmile_qr_scan"}, "fusion_lon": 0.0}, {"lat": 38.9206945, "is_disabled": 0, "type": "electric_scooter", "lon": -77.03218533333333, "bike_id": "1e8d6c5900cbd0fd9e51c9ebc0fa4993", "fusion_lat": 0.0, "name": "1e8d6c5900cbd0fd9e51c9ebc0fa4993", "is_reserved": 0, "rental_uris": {"android": "https://dc.lft.to/lastmile_qr_scan", "ios": "https://dc.lft.to/lastmile_qr_scan"}, "fusion_lon": 0.0}, {"lat": 38.899159, "is_disabled": 0, "type": "electric_scooter", "lon": -77.03278716666667, "bike_id": "c50ced266889b920bcb48010b5fa3285", "fusion_lat": 0.0, "name": "c50ced266889b920bcb48010b5fa3285", "is_reserved": 0, "rental_uris": {"android": "https://dc.lft.to/lastmile_qr_scan", "ios": "https://dc.lft.to/lastmile_qr_scan"}, "fusion_lon": 0.0}, {"lat": 38.92091966666667, "is_disabled": 0, "type": "electric_scooter", "lon": -77.04216333333333, "bike_id": "76000702c88803e1103af899e414327d", "fusion_lat": 0.0, "name": "76000702c88803e1103af899e414327d", "is_reserved": 0, "rental_uris": {"android": "https://dc.lft.to/lastmile_qr_scan", "ios": "https://dc.lft.to/lastmile_qr_scan"}, "fusion_lon": 0.0}, {"lat": 38.8690445, "is_disabled": 0, "type": "electric_bike", "lon": -77.13175616666666, "bike_id": "d2b2168def3488c345f4196202958699", "fusion_lat": 0.0, "name": "d2b2168def3488c345f4196202958699", "is_reserved": 0, "rental_uris": {"android": "https://dc.lft.to/lastmile_qr_scan", "ios": "https://dc.lft.to/lastmile_qr_scan"}, "fusion_lon": 0.0}, {"lat": 38.91206283333333, "is_disabled": 0, "type": "electric_scooter", "lon": -77.04477666666666, "bike_id": "c642426f494bfe4eac51fe4a33751b96", "fusion_lat": 0.0, "name": "c642426f494bfe4eac51fe4a33751b96", "is_reserved": 0, "rental_uris": {"android": "https://dc.lft.to/lastmile_qr_scan", "ios": "https://dc.lft.to/lastmile_qr_scan"}, "fusion_lon": 0.0}, {"lat": 38.80449333333333, "is_disabled": 0, "type": "electric_bike", "lon": -77.0609515, "bike_id": "c2eacf77ee95d434acd8cb14ff20b978", "fusion_lat": 0.0, "name": "c2eacf77ee95d434acd8cb14ff20b978", "is_reserved": 0, "rental_uris": {"android": "https://dc.lft.to/lastmile_qr_scan", "ios": "https://dc.lft.to/lastmile_qr_scan"}, "fusion_lon": 0.0}, {"lat": 38.9075885, "is_disabled": 0, "type": "electric_scooter", "lon": -77.04276633333333, "bike_id": "a46429884cd6ce766aa5f4603a48132d", "fusion_lat": 0.0, "name": "a46429884cd6ce766aa5f4603a48132d", "is_reserved": 0, "rental_uris": {"android": "https://dc.lft.to/lastmile_qr_scan", "ios": "https://dc.lft.to/lastmile_qr_scan"}, "fusion_lon": 0.0}, {"lat": 39.015785, "is_disabled": 0, "type": "electric_bike", "lon": -77.0423815, "bike_id": "464451ba5636cee48e5a2d91aafb36d3", "fusion_lat": 0.0, "name": "464451ba5636cee48e5a2d91aafb36d3", "is_reserved": 0, "rental_uris": {"android": "https://dc.lft.to/lastmile_qr_scan", "ios": "https://dc.lft.to/lastmile_qr_scan"}, "fusion_lon": 0.0}, {"lat": 38.904989, "is_disabled": 0, "type": "electric_scooter", "lon": -77.02804633333334, "bike_id": "03504a0b1dd4c7f40fc21e319ff27d74", "fusion_lat": 0.0, "name": "03504a0b1dd4c7f40fc21e319ff27d74", "is_reserved": 0, "rental_uris": {"android": "https://dc.lft.to/lastmile_qr_scan", "ios": "https://dc.lft.to/lastmile_qr_scan"}, "fusion_lon": 0.0}, {"lat": 38.95573266666667, "is_disabled": 0, "type": "electric_scooter", "lon": -77.07008716666667, "bike_id": "e22b9eaa56881f93c0d52918e2ad75ed", "fusion_lat": 0.0, "name": "e22b9eaa56881f93c0d52918e2ad75ed", "is_reserved": 0, "rental_uris": {"android": "https://dc.lft.to/lastmile_qr_scan", "ios": "https://dc.lft.to/lastmile_qr_scan"}, "fusion_lon": 0.0}, {"lat": 38.91045, "is_disabled": 0, "type": "electric_scooter", "lon": -77.015132, "bike_id": "7fbf9b07cd4f6ab68e627c1fe5984684", "fusion_lat": 0.0, "name": "7fbf9b07cd4f6ab68e627c1fe5984684", "is_reserved": 0, "rental_uris": {"android": "https://dc.lft.to/lastmile_qr_scan", "ios": "https://dc.lft.to/lastmile_qr_scan"}, "fusion_lon": 0.0}, {"lat": 38.958782, "is_disabled": 0, "type": "electric_bike", "lon": -77.0103065, "bike_id": "4ab0e186368e07a9a1dae4445689fc00", "fusion_lat": 0.0, "name": "4ab0e186368e07a9a1dae4445689fc00", "is_reserved": 0, "rental_uris": {"android": "https://dc.lft.to/lastmile_qr_scan", "ios": "https://dc.lft.to/lastmile_qr_scan"}, "fusion_lon": 0.0}, {"lat": 38.88124583333333, "is_disabled": 0, "type": "electric_scooter", "lon": -77.01408283333333, "bike_id": "1f1f7f221bc22dcd410283642092a901", "fusion_lat": 0.0, "name": "1f1f7f221bc22dcd410283642092a901", "is_reserved": 0, "rental_uris": {"android": "https://dc.lft.to/lastmile_qr_scan", "ios": "https://dc.lft.to/lastmile_qr_scan"}, "fusion_lon": 0.0}, {"lat": 38.909896333333336, "is_disabled": 0, "type": "electric_scooter", "lon": -76.9973785, "bike_id": "0b3a9a76e7e962fcadd67f5a6fe7cc01", "fusion_lat": 0.0, "name": "0b3a9a76e7e962fcadd67f5a6fe7cc01", "is_reserved": 0, "rental_uris": {"android": "https://dc.lft.to/lastmile_qr_scan", "ios": "https://dc.lft.to/lastmile_qr_scan"}, "fusion_lon": 0.0}, {"lat": 38.936087666666666, "is_disabled": 0, "type": "electric_scooter", "lon": -77.0365685, "bike_id": "d1cb3e74c12f51727cb42805c2632f13", "fusion_lat": 0.0, "name": "d1cb3e74c12f51727cb42805c2632f13", "is_reserved": 0, "rental_uris": {"android": "https://dc.lft.to/lastmile_qr_scan", "ios": "https://dc.lft.to/lastmile_qr_scan"}, "fusion_lon": 0.0}, {"lat": 38.9239265, "is_disabled": 0, "type": "electric_scooter", "lon": -77.03224433333334, "bike_id": "7e998b9fc52b068e8c866a85d1dec27c", "fusion_lat": 0.0, "name": "7e998b9fc52b068e8c866a85d1dec27c", "is_reserved": 0, "rental_uris": {"android": "https://dc.lft.to/lastmile_qr_scan", "ios": "https://dc.lft.to/lastmile_qr_scan"}, "fusion_lon": 0.0}, {"lat": 38.89955616666667, "is_disabled": 0, "type": "electric_scooter", "lon": -77.05185966666667, "bike_id": "31c4e756b8dac130a2436f10817d6511", "fusion_lat": 0.0, "name": "31c4e756b8dac130a2436f10817d6511", "is_reserved": 0, "rental_uris": {"android": "https://dc.lft.to/lastmile_qr_scan", "ios": "https://dc.lft.to/lastmile_qr_scan"}, "fusion_lon": 0.0}, {"lat": 39.004790166666666, "is_disabled": 0, "type": "electric_bike", "lon": -76.90134883333333, "bike_id": "ac8b24836f6cfc75322a7709a42f13ab", "fusion_lat": 0.0, "name": "ac8b24836f6cfc75322a7709a42f13ab", "is_reserved": 0, "rental_uris": {"android": "https://dc.lft.to/lastmile_qr_scan", "ios": "https://dc.lft.to/lastmile_qr_scan"}, "fusion_lon": 0.0}, {"lat": 38.900681, "is_disabled": 0, "type": "electric_scooter", "lon": -77.001964, "bike_id": "2563e90ae04c7641debab3bf436befb0", "fusion_lat": 0.0, "name": "2563e90ae04c7641debab3bf436befb0", "is_reserved": 0, "rental_uris": {"android": "https://dc.lft.to/lastmile_qr_scan", "ios": "https://dc.lft.to/lastmile_qr_scan"}, "fusion_lon": 0.0}, {"lat": 38.8922075, "is_disabled": 0, "type": "electric_scooter", "lon": -77.03161133333333, "bike_id": "cf813e52749e0b7f11c819905aec06b8", "fusion_lat": 0.0, "name": "cf813e52749e0b7f11c819905aec06b8", "is_reserved": 0, "rental_uris": {"android": "https://dc.lft.to/lastmile_qr_scan", "ios": "https://dc.lft.to/lastmile_qr_scan"}, "fusion_lon": 0.0}, {"lat": 38.82871766666667, "is_disabled": 0, "type": "electric_bike", "lon": -77.1122215, "bike_id": "ccd915b6a1e9819759a94931ebf6c054", "fusion_lat": 0.0, "name": "ccd915b6a1e9819759a94931ebf6c054", "is_reserved": 0, "rental_uris": {"android": "https://dc.lft.to/lastmile_qr_scan", "ios": "https://dc.lft.to/lastmile_qr_scan"}, "fusion_lon": 0.0}, {"lat": 38.931554166666665, "is_disabled": 0, "type": "electric_scooter", "lon": -77.03631433333334, "bike_id": "918e42b72286b088338e4a63f888646d", "fusion_lat": 0.0, "name": "918e42b72286b088338e4a63f888646d", "is_reserved": 0, "rental_uris": {"android": "https://dc.lft.to/lastmile_qr_scan", "ios": "https://dc.lft.to/lastmile_qr_scan"}, "fusion_lon": 0.0}, {"lat": 38.9302195, "is_disabled": 0, "type": "electric_scooter", "lon": -77.04453766666667, "bike_id": "d1d3c301d4e7d1461ca63e2be7bf83a6", "fusion_lat": 0.0, "name": "d1d3c301d4e7d1461ca63e2be7bf83a6", "is_reserved": 0, "rental_uris": {"android": "https://dc.lft.to/lastmile_qr_scan", "ios": "https://dc.lft.to/lastmile_qr_scan"}, "fusion_lon": 0.0}, {"lat": 38.917800166666666, "is_disabled": 0, "type": "electric_scooter", "lon": -77.04333366666667, "bike_id": "ecf800e105949a9c6e33f16b95430de4", "fusion_lat": 0.0, "name": "ecf800e105949a9c6e33f16b95430de4", "is_reserved": 0, "rental_uris": {"android": "https://dc.lft.to/lastmile_qr_scan", "ios": "https://dc.lft.to/lastmile_qr_scan"}, "fusion_lon": 0.0}, {"lat": 38.89218233333333, "is_disabled": 0, "type": "electric_scooter", "lon": -77.032151, "bike_id": "6b6daea1fc84f774ac2bc65b484d79bb", "fusion_lat": 0.0, "name": "6b6daea1fc84f774ac2bc65b484d79bb", "is_reserved": 0, "rental_uris": {"android": "https://dc.lft.to/lastmile_qr_scan", "ios": "https://dc.lft.to/lastmile_qr_scan"}, "fusion_lon": 0.0}, {"lat": 38.99790266666667, "is_disabled": 0, "type": "electric_bike", "lon": -77.007544, "bike_id": "b6a36d91b73be313c6647a39a6610d84", "fusion_lat": 0.0, "name": "b6a36d91b73be313c6647a39a6610d84", "is_reserved": 0, "rental_uris": {"android": "https://dc.lft.to/lastmile_qr_scan", "ios": "https://dc.lft.to/lastmile_qr_scan"}, "fusion_lon": 0.0}, {"lat": 38.956514, "is_disabled": 0, "type": "electric_scooter", "lon": -77.0239645, "bike_id": "decb5c2d5e805ada6e47853548e982b1", "fusion_lat": 0.0, "name": "decb5c2d5e805ada6e47853548e982b1", "is_reserved": 0, "rental_uris": {"android": "https://dc.lft.to/lastmile_qr_scan", "ios": "https://dc.lft.to/lastmile_qr_scan"}, "fusion_lon": 0.0}, {"lat": 38.92464233333333, "is_disabled": 0, "type": "electric_scooter", "lon": -77.05240883333333, "bike_id": "fe56389501d8bbdfcc2c804560ec109e", "fusion_lat": 0.0, "name": "fe56389501d8bbdfcc2c804560ec109e", "is_reserved": 0, "rental_uris": {"android": "https://dc.lft.to/lastmile_qr_scan", "ios": "https://dc.lft.to/lastmile_qr_scan"}, "fusion_lon": 0.0}, {"lat": 38.923649833333336, "is_disabled": 0, "type": "electric_scooter", "lon": -77.05128033333334, "bike_id": "b809215a7144438f24330df2540d4d4e", "fusion_lat": 0.0, "name": "b809215a7144438f24330df2540d4d4e", "is_reserved": 0, "rental_uris": {"android": "https://dc.lft.to/lastmile_qr_scan", "ios": "https://dc.lft.to/lastmile_qr_scan"}, "fusion_lon": 0.0}, {"lat": 38.876759, "is_disabled": 0, "type": "electric_bike", "lon": -77.014438, "bike_id": "b22ae031c80c2cb6230ea72d1d89d574", "fusion_lat": 0.0, "name": "b22ae031c80c2cb6230ea72d1d89d574", "is_reserved": 0, "rental_uris": {"android": "https://dc.lft.to/lastmile_qr_scan", "ios": "https://dc.lft.to/lastmile_qr_scan"}, "fusion_lon": 0.0}, {"lat": 38.95779816666666, "is_disabled": 0, "type": "electric_scooter", "lon": -77.02751733333334, "bike_id": "107acbeb7849bad9b34a719426914ca1", "fusion_lat": 0.0, "name": "107acbeb7849bad9b34a719426914ca1", "is_reserved": 0, "rental_uris": {"android": "https://dc.lft.to/lastmile_qr_scan", "ios": "https://dc.lft.to/lastmile_qr_scan"}, "fusion_lon": 0.0}, {"lat": 38.91971933333333, "is_disabled": 0, "type": "electric_scooter", "lon": -77.02398116666667, "bike_id": "189c4a16504166374c233a66752cbeb8", "fusion_lat": 0.0, "name": "189c4a16504166374c233a66752cbeb8", "is_reserved": 0, "rental_uris": {"android": "https://dc.lft.to/lastmile_qr_scan", "ios": "https://dc.lft.to/lastmile_qr_scan"}, "fusion_lon": 0.0}, {"lat": 38.907307, "is_disabled": 0, "type": "electric_scooter", "lon": -77.03458433333333, "bike_id": "942653cfbce5024620d24b5cdaa11b6d", "fusion_lat": 0.0, "name": "942653cfbce5024620d24b5cdaa11b6d", "is_reserved": 0, "rental_uris": {"android": "https://dc.lft.to/lastmile_qr_scan", "ios": "https://dc.lft.to/lastmile_qr_scan"}, "fusion_lon": 0.0}, {"lat": 38.900726, "is_disabled": 0, "type": "electric_scooter", "lon": -77.04929533333333, "bike_id": "48e95635bb72af583faadb115db0748c", "fusion_lat": 0.0, "name": "48e95635bb72af583faadb115db0748c", "is_reserved": 0, "rental_uris": {"android": "https://dc.lft.to/lastmile_qr_scan", "ios": "https://dc.lft.to/lastmile_qr_scan"}, "fusion_lon": 0.0}, {"lat": 38.90827083333333, "is_disabled": 0, "type": "electric_scooter", "lon": -77.03835866666667, "bike_id": "c438807d4bda8a8d942e30473d2fe97c", "fusion_lat": 0.0, "name": "c438807d4bda8a8d942e30473d2fe97c", "is_reserved": 0, "rental_uris": {"android": "https://dc.lft.to/lastmile_qr_scan", "ios": "https://dc.lft.to/lastmile_qr_scan"}, "fusion_lon": 0.0}, {"lat": 38.85513616666667, "is_disabled": 0, "type": "electric_bike", "lon": -77.1202885, "bike_id": "8783336cbe76ddb62790343e8c773745", "fusion_lat": 0.0, "name": "8783336cbe76ddb62790343e8c773745", "is_reserved": 0, "rental_uris": {"android": "https://dc.lft.to/lastmile_qr_scan", "ios": "https://dc.lft.to/lastmile_qr_scan"}, "fusion_lon": 0.0}, {"lat": 38.90272266666667, "is_disabled": 0, "type": "electric_scooter", "lon": -77.0398425, "bike_id": "a3668f006df7ac8e992ee9f79be1e41b", "fusion_lat": 0.0, "name": "a3668f006df7ac8e992ee9f79be1e41b", "is_reserved": 0, "rental_uris": {"android": "https://dc.lft.to/lastmile_qr_scan", "ios": "https://dc.lft.to/lastmile_qr_scan"}, "fusion_lon": 0.0}, {"lat": 38.90203016666667, "is_disabled": 0, "type": "electric_scooter", "lon": -77.02683, "bike_id": "9de55a8499bfaea6b905ee5698c050d4", "fusion_lat": 0.0, "name": "9de55a8499bfaea6b905ee5698c050d4", "is_reserved": 0, "rental_uris": {"android": "https://dc.lft.to/lastmile_qr_scan", "ios": "https://dc.lft.to/lastmile_qr_scan"}, "fusion_lon": 0.0}, {"lat": 38.85186866666667, "is_disabled": 0, "type": "electric_bike", "lon": -76.961137, "bike_id": "a771e474f0a61538b72b14d709bdaf13", "fusion_lat": 0.0, "name": "a771e474f0a61538b72b14d709bdaf13", "is_reserved": 0, "rental_uris": {"android": "https://dc.lft.to/lastmile_qr_scan", "ios": "https://dc.lft.to/lastmile_qr_scan"}, "fusion_lon": 0.0}, {"lat": 38.92236883333333, "is_disabled": 0, "type": "electric_scooter", "lon": -77.03347933333333, "bike_id": "97dafea0960a7bedbce079cb6ac2a5bb", "fusion_lat": 0.0, "name": "97dafea0960a7bedbce079cb6ac2a5bb", "is_reserved": 0, "rental_uris": {"android": "https://dc.lft.to/lastmile_qr_scan", "ios": "https://dc.lft.to/lastmile_qr_scan"}, "fusion_lon": 0.0}, {"lat": 38.90071233333333, "is_disabled": 0, "type": "electric_scooter", "lon": -77.00212283333333, "bike_id": "7693008033d9ccff942a91ca5a3f49a1", "fusion_lat": 0.0, "name": "7693008033d9ccff942a91ca5a3f49a1", "is_reserved": 0, "rental_uris": {"android": "https://dc.lft.to/lastmile_qr_scan", "ios": "https://dc.lft.to/lastmile_qr_scan"}, "fusion_lon": 0.0}, {"lat": 38.941000833333334, "is_disabled": 0, "type": "electric_scooter", "lon": -77.02111066666667, "bike_id": "87276b5fe06bb3f25f9b4a50e4fb694b", "fusion_lat": 0.0, "name": "87276b5fe06bb3f25f9b4a50e4fb694b", "is_reserved": 0, "rental_uris": {"android": "https://dc.lft.to/lastmile_qr_scan", "ios": "https://dc.lft.to/lastmile_qr_scan"}, "fusion_lon": 0.0}, {"lat": 38.94436733333333, "is_disabled": 0, "type": "electric_scooter", "lon": -77.0150825, "bike_id": "c638b13b84d08642486cca780a8e5297", "fusion_lat": 0.0, "name": "c638b13b84d08642486cca780a8e5297", "is_reserved": 0, "rental_uris": {"android": "https://dc.lft.to/lastmile_qr_scan", "ios": "https://dc.lft.to/lastmile_qr_scan"}, "fusion_lon": 0.0}, {"lat": 38.91717916666666, "is_disabled": 0, "type": "electric_scooter", "lon": -77.02943833333333, "bike_id": "e4828f320f993b0e7a6aaf60ffec0eab", "fusion_lat": 0.0, "name": "e4828f320f993b0e7a6aaf60ffec0eab", "is_reserved": 0, "rental_uris": {"android": "https://dc.lft.to/lastmile_qr_scan", "ios": "https://dc.lft.to/lastmile_qr_scan"}, "fusion_lon": 0.0}, {"lat": 38.90961333333333, "is_disabled": 0, "type": "electric_scooter", "lon": -77.02380266666667, "bike_id": "502e6076323286d9fe36ba19fa213316", "fusion_lat": 0.0, "name": "502e6076323286d9fe36ba19fa213316", "is_reserved": 0, "rental_uris": {"android": "https://dc.lft.to/lastmile_qr_scan", "ios": "https://dc.lft.to/lastmile_qr_scan"}, "fusion_lon": 0.0}, {"lat": 38.8965795, "is_disabled": 0, "type": "electric_scooter", "lon": -77.00518533333333, "bike_id": "ea889e5453797258cb270e9d206b02d8", "fusion_lat": 0.0, "name": "ea889e5453797258cb270e9d206b02d8", "is_reserved": 0, "rental_uris": {"android": "https://dc.lft.to/lastmile_qr_scan", "ios": "https://dc.lft.to/lastmile_qr_scan"}, "fusion_lon": 0.0}, {"lat": 38.86706483333333, "is_disabled": 0, "type": "electric_scooter", "lon": -76.98727916666667, "bike_id": "792f110621917002da39758ca4ebfeea", "fusion_lat": 0.0, "name": "792f110621917002da39758ca4ebfeea", "is_reserved": 0, "rental_uris": {"android": "https://dc.lft.to/lastmile_qr_scan", "ios": "https://dc.lft.to/lastmile_qr_scan"}, "fusion_lon": 0.0}, {"lat": 38.912650666666664, "is_disabled": 0, "type": "electric_scooter", "lon": -77.022568, "bike_id": "85391d16b2a7ffdcc43355b12949c513", "fusion_lat": 0.0, "name": "85391d16b2a7ffdcc43355b12949c513", "is_reserved": 0, "rental_uris": {"android": "https://dc.lft.to/lastmile_qr_scan", "ios": "https://dc.lft.to/lastmile_qr_scan"}, "fusion_lon": 0.0}, {"lat": 38.90587333333333, "is_disabled": 0, "type": "electric_scooter", "lon": -76.986235, "bike_id": "89cdb7dabb86c7391be0d770923aeb82", "fusion_lat": 0.0, "name": "89cdb7dabb86c7391be0d770923aeb82", "is_reserved": 0, "rental_uris": {"android": "https://dc.lft.to/lastmile_qr_scan", "ios": "https://dc.lft.to/lastmile_qr_scan"}, "fusion_lon": 0.0}, {"lat": 38.90725716666667, "is_disabled": 0, "type": "electric_scooter", "lon": -77.0482435, "bike_id": "c10875dc6317561cbd302c36abdc6544", "fusion_lat": 0.0, "name": "c10875dc6317561cbd302c36abdc6544", "is_reserved": 0, "rental_uris": {"android": "https://dc.lft.to/lastmile_qr_scan", "ios": "https://dc.lft.to/lastmile_qr_scan"}, "fusion_lon": 0.0}, {"lat": 38.90865183333333, "is_disabled": 0, "type": "electric_bike", "lon": -76.94008333333333, "bike_id": "af9764374a84ed1d96fda78df285ebd2", "fusion_lat": 0.0, "name": "af9764374a84ed1d96fda78df285ebd2", "is_reserved": 0, "rental_uris": {"android": "https://dc.lft.to/lastmile_qr_scan", "ios": "https://dc.lft.to/lastmile_qr_scan"}, "fusion_lon": 0.0}, {"lat": 38.90133933333333, "is_disabled": 0, "type": "electric_scooter", "lon": -77.0418575, "bike_id": "308a0ad9269456af5e671e067a0507ef", "fusion_lat": 0.0, "name": "308a0ad9269456af5e671e067a0507ef", "is_reserved": 0, "rental_uris": {"android": "https://dc.lft.to/lastmile_qr_scan", "ios": "https://dc.lft.to/lastmile_qr_scan"}, "fusion_lon": 0.0}, {"lat": 38.90776116666667, "is_disabled": 0, "type": "electric_scooter", "lon": -77.0383285, "bike_id": "3764061fb193f6bf46e830ecb0e5127d", "fusion_lat": 0.0, "name": "3764061fb193f6bf46e830ecb0e5127d", "is_reserved": 0, "rental_uris": {"android": "https://dc.lft.to/lastmile_qr_scan", "ios": "https://dc.lft.to/lastmile_qr_scan"}, "fusion_lon": 0.0}, {"lat": 38.90680966666667, "is_disabled": 0, "type": "electric_scooter", "lon": -77.03635683333333, "bike_id": "1dcdde08d84f332e91d507ae957f2c2d", "fusion_lat": 0.0, "name": "1dcdde08d84f332e91d507ae957f2c2d", "is_reserved": 0, "rental_uris": {"android": "https://dc.lft.to/lastmile_qr_scan", "ios": "https://dc.lft.to/lastmile_qr_scan"}, "fusion_lon": 0.0}, {"lat": 38.845052, "is_disabled": 0, "type": "electric_bike", "lon": -76.99356016666667, "bike_id": "e5b6bf6b76c4732366f205a34413ecd6", "fusion_lat": 0.0, "name": "e5b6bf6b76c4732366f205a34413ecd6", "is_reserved": 0, "rental_uris": {"android": "https://dc.lft.to/lastmile_qr_scan", "ios": "https://dc.lft.to/lastmile_qr_scan"}, "fusion_lon": 0.0}, {"lat": 38.917990333333336, "is_disabled": 0, "type": "electric_scooter", "lon": -77.03441366666667, "bike_id": "eab67c31e49bc7088c40ff815c3b8700", "fusion_lat": 0.0, "name": "eab67c31e49bc7088c40ff815c3b8700", "is_reserved": 0, "rental_uris": {"android": "https://dc.lft.to/lastmile_qr_scan", "ios": "https://dc.lft.to/lastmile_qr_scan"}, "fusion_lon": 0.0}, {"lat": 38.93296433333333, "is_disabled": 0, "type": "electric_scooter", "lon": -77.021946, "bike_id": "93e76591de26c0c4e640d40251f224af", "fusion_lat": 0.0, "name": "93e76591de26c0c4e640d40251f224af", "is_reserved": 0, "rental_uris": {"android": "https://dc.lft.to/lastmile_qr_scan", "ios": "https://dc.lft.to/lastmile_qr_scan"}, "fusion_lon": 0.0}, {"lat": 38.90390933333333, "is_disabled": 0, "type": "electric_scooter", "lon": -77.04475966666666, "bike_id": "2af8b14218700f13835ed7dfa0fb4f76", "fusion_lat": 0.0, "name": "2af8b14218700f13835ed7dfa0fb4f76", "is_reserved": 0, "rental_uris": {"android": "https://dc.lft.to/lastmile_qr_scan", "ios": "https://dc.lft.to/lastmile_qr_scan"}, "fusion_lon": 0.0}, {"lat": 38.95192216666667, "is_disabled": 0, "type": "electric_bike", "lon": -77.0238895, "bike_id": "a02df89ce8e23323e41f302965f64437", "fusion_lat": 0.0, "name": "a02df89ce8e23323e41f302965f64437", "is_reserved": 0, "rental_uris": {"android": "https://dc.lft.to/lastmile_qr_scan", "ios": "https://dc.lft.to/lastmile_qr_scan"}, "fusion_lon": 0.0}, {"lat": 38.93980583333333, "is_disabled": 0, "type": "electric_scooter", "lon": -77.0263565, "bike_id": "73d202d2b226a2ee1a0683d2c092e727", "fusion_lat": 0.0, "name": "73d202d2b226a2ee1a0683d2c092e727", "is_reserved": 0, "rental_uris": {"android": "https://dc.lft.to/lastmile_qr_scan", "ios": "https://dc.lft.to/lastmile_qr_scan"}, "fusion_lon": 0.0}, {"lat": 38.916327833333334, "is_disabled": 0, "type": "electric_scooter", "lon": -77.0231505, "bike_id": "7ba8e77037e349d1d37198b39f4af685", "fusion_lat": 0.0, "name": "7ba8e77037e349d1d37198b39f4af685", "is_reserved": 0, "rental_uris": {"android": "https://dc.lft.to/lastmile_qr_scan", "ios": "https://dc.lft.to/lastmile_qr_scan"}, "fusion_lon": 0.0}, {"lat": 38.908063, "is_disabled": 0, "type": "electric_scooter", "lon": -77.0343985, "bike_id": "13e3324c4bb22c634af9f6bc72b35d25", "fusion_lat": 0.0, "name": "13e3324c4bb22c634af9f6bc72b35d25", "is_reserved": 0, "rental_uris": {"android": "https://dc.lft.to/lastmile_qr_scan", "ios": "https://dc.lft.to/lastmile_qr_scan"}, "fusion_lon": 0.0}, {"lat": 38.9237395, "is_disabled": 0, "type": "electric_scooter", "lon": -77.025375, "bike_id": "25b97b13201c56d4aff0eb07eb963498", "fusion_lat": 0.0, "name": "25b97b13201c56d4aff0eb07eb963498", "is_reserved": 0, "rental_uris": {"android": "https://dc.lft.to/lastmile_qr_scan", "ios": "https://dc.lft.to/lastmile_qr_scan"}, "fusion_lon": 0.0}, {"lat": 38.9119375, "is_disabled": 0, "type": "electric_scooter", "lon": -77.03636316666666, "bike_id": "1bd4a78a9d9f54a9ccb912a1c9751d05", "fusion_lat": 0.0, "name": "1bd4a78a9d9f54a9ccb912a1c9751d05", "is_reserved": 0, "rental_uris": {"android": "https://dc.lft.to/lastmile_qr_scan", "ios": "https://dc.lft.to/lastmile_qr_scan"}, "fusion_lon": 0.0}, {"lat": 38.916813166666664, "is_disabled": 0, "type": "electric_scooter", "lon": -77.0297555, "bike_id": "2819788dc8512d678ff4b7ab18e7e36a", "fusion_lat": 0.0, "name": "2819788dc8512d678ff4b7ab18e7e36a", "is_reserved": 0, "rental_uris": {"android": "https://dc.lft.to/lastmile_qr_scan", "ios": "https://dc.lft.to/lastmile_qr_scan"}, "fusion_lon": 0.0}, {"lat": 38.898975666666665, "is_disabled": 0, "type": "electric_scooter", "lon": -77.072348, "bike_id": "db31ef4cb9124d7916a883f934fd5d0a", "fusion_lat": 0.0, "name": "db31ef4cb9124d7916a883f934fd5d0a", "is_reserved": 0, "rental_uris": {"android": "https://dc.lft.to/lastmile_qr_scan", "ios": "https://dc.lft.to/lastmile_qr_scan"}, "fusion_lon": 0.0}, {"lat": 38.92305833333333, "is_disabled": 0, "type": "electric_scooter", "lon": -77.02326816666667, "bike_id": "4ad0c097fbd6b08a511c78aa87d8663c", "fusion_lat": 0.0, "name": "4ad0c097fbd6b08a511c78aa87d8663c", "is_reserved": 0, "rental_uris": {"android": "https://dc.lft.to/lastmile_qr_scan", "ios": "https://dc.lft.to/lastmile_qr_scan"}, "fusion_lon": 0.0}, {"lat": 38.9186655, "is_disabled": 0, "type": "electric_scooter", "lon": -77.036759, "bike_id": "aa5f7053100d91a56aad53ffcfbf32cf", "fusion_lat": 0.0, "name": "aa5f7053100d91a56aad53ffcfbf32cf", "is_reserved": 0, "rental_uris": {"android": "https://dc.lft.to/lastmile_qr_scan", "ios": "https://dc.lft.to/lastmile_qr_scan"}, "fusion_lon": 0.0}, {"lat": 38.8444905, "is_disabled": 0, "type": "electric_bike", "lon": -77.0683725, "bike_id": "fed1a9c222157b9ad3023b12f189e5fb", "fusion_lat": 0.0, "name": "fed1a9c222157b9ad3023b12f189e5fb", "is_reserved": 0, "rental_uris": {"android": "https://dc.lft.to/lastmile_qr_scan", "ios": "https://dc.lft.to/lastmile_qr_scan"}, "fusion_lon": 0.0}, {"lat": 38.9136125, "is_disabled": 0, "type": "electric_scooter", "lon": -77.04568866666666, "bike_id": "9baaed28f0c3154ff96b10749a89b2f9", "fusion_lat": 0.0, "name": "9baaed28f0c3154ff96b10749a89b2f9", "is_reserved": 0, "rental_uris": {"android": "https://dc.lft.to/lastmile_qr_scan", "ios": "https://dc.lft.to/lastmile_qr_scan"}, "fusion_lon": 0.0}, {"lat": 38.9057535, "is_disabled": 0, "type": "electric_scooter", "lon": -77.04335533333334, "bike_id": "a1432530c9f029eaaac5404edcad8be5", "fusion_lat": 0.0, "name": "a1432530c9f029eaaac5404edcad8be5", "is_reserved": 0, "rental_uris": {"android": "https://dc.lft.to/lastmile_qr_scan", "ios": "https://dc.lft.to/lastmile_qr_scan"}, "fusion_lon": 0.0}, {"lat": 38.84425816666667, "is_disabled": 0, "type": "electric_scooter", "lon": -76.9977775, "bike_id": "1c1af908c425919347e28b84d7e71f67", "fusion_lat": 0.0, "name": "1c1af908c425919347e28b84d7e71f67", "is_reserved": 0, "rental_uris": {"android": "https://dc.lft.to/lastmile_qr_scan", "ios": "https://dc.lft.to/lastmile_qr_scan"}, "fusion_lon": 0.0}, {"lat": 38.827868333333335, "is_disabled": 0, "type": "electric_bike", "lon": -77.00916283333333, "bike_id": "042367fadc201469a7473be7355cb163", "fusion_lat": 0.0, "name": "042367fadc201469a7473be7355cb163", "is_reserved": 0, "rental_uris": {"android": "https://dc.lft.to/lastmile_qr_scan", "ios": "https://dc.lft.to/lastmile_qr_scan"}, "fusion_lon": 0.0}, {"lat": 38.91478083333333, "is_disabled": 0, "type": "electric_scooter", "lon": -77.00354, "bike_id": "1526d00af731331b2e79faf807f6ec0b", "fusion_lat": 0.0, "name": "1526d00af731331b2e79faf807f6ec0b", "is_reserved": 0, "rental_uris": {"android": "https://dc.lft.to/lastmile_qr_scan", "ios": "https://dc.lft.to/lastmile_qr_scan"}, "fusion_lon": 0.0}, {"lat": 38.9248455, "is_disabled": 0, "type": "electric_scooter", "lon": -77.028385, "bike_id": "3f06dc846df86897fcafe9cea428eee5", "fusion_lat": 0.0, "name": "3f06dc846df86897fcafe9cea428eee5", "is_reserved": 0, "rental_uris": {"android": "https://dc.lft.to/lastmile_qr_scan", "ios": "https://dc.lft.to/lastmile_qr_scan"}, "fusion_lon": 0.0}, {"lat": 38.907729833333335, "is_disabled": 0, "type": "electric_scooter", "lon": -77.03865316666666, "bike_id": "08b7dd7205b99718652d0d5af5795284", "fusion_lat": 0.0, "name": "08b7dd7205b99718652d0d5af5795284", "is_reserved": 0, "rental_uris": {"android": "https://dc.lft.to/lastmile_qr_scan", "ios": "https://dc.lft.to/lastmile_qr_scan"}, "fusion_lon": 0.0}, {"lat": 38.9077665, "is_disabled": 0, "type": "electric_scooter", "lon": -77.038447, "bike_id": "89c7ee3bf3324f3d3b8b2a2b06bd4900", "fusion_lat": 0.0, "name": "89c7ee3bf3324f3d3b8b2a2b06bd4900", "is_reserved": 0, "rental_uris": {"android": "https://dc.lft.to/lastmile_qr_scan", "ios": "https://dc.lft.to/lastmile_qr_scan"}, "fusion_lon": 0.0}, {"lat": 38.91915783333334, "is_disabled": 0, "type": "electric_scooter", "lon": -77.0339545, "bike_id": "8d19931dcabd6972bd1cb45368416ecc", "fusion_lat": 0.0, "name": "8d19931dcabd6972bd1cb45368416ecc", "is_reserved": 0, "rental_uris": {"android": "https://dc.lft.to/lastmile_qr_scan", "ios": "https://dc.lft.to/lastmile_qr_scan"}, "fusion_lon": 0.0}, {"lat": 38.986557166666664, "is_disabled": 0, "type": "electric_bike", "lon": -77.0563425, "bike_id": "0582e3709ad1d7c4a17040934763c2a5", "fusion_lat": 0.0, "name": "0582e3709ad1d7c4a17040934763c2a5", "is_reserved": 0, "rental_uris": {"android": "https://dc.lft.to/lastmile_qr_scan", "ios": "https://dc.lft.to/lastmile_qr_scan"}, "fusion_lon": 0.0}, {"lat": 38.92179616666667, "is_disabled": 0, "type": "electric_scooter", "lon": -77.03985916666667, "bike_id": "3ce125d3210aee8813d3667d1ee86111", "fusion_lat": 0.0, "name": "3ce125d3210aee8813d3667d1ee86111", "is_reserved": 0, "rental_uris": {"android": "https://dc.lft.to/lastmile_qr_scan", "ios": "https://dc.lft.to/lastmile_qr_scan"}, "fusion_lon": 0.0}, {"lat": 38.906782166666666, "is_disabled": 0, "type": "electric_scooter", "lon": -77.02719366666666, "bike_id": "0e122b50164c898e900639affdfc0442", "fusion_lat": 0.0, "name": "0e122b50164c898e900639affdfc0442", "is_reserved": 0, "rental_uris": {"android": "https://dc.lft.to/lastmile_qr_scan", "ios": "https://dc.lft.to/lastmile_qr_scan"}, "fusion_lon": 0.0}, {"lat": 38.91096683333333, "is_disabled": 0, "type": "electric_scooter", "lon": -77.032031, "bike_id": "8a975e0f34bbfd9497747d7c190be4bb", "fusion_lat": 0.0, "name": "8a975e0f34bbfd9497747d7c190be4bb", "is_reserved": 0, "rental_uris": {"android": "https://dc.lft.to/lastmile_qr_scan", "ios": "https://dc.lft.to/lastmile_qr_scan"}, "fusion_lon": 0.0}, {"lat": 38.892845, "is_disabled": 0, "type": "electric_scooter", "lon": -76.95851216666667, "bike_id": "f7add1c1f1ad7bd69132d0ab3549636b", "fusion_lat": 0.0, "name": "f7add1c1f1ad7bd69132d0ab3549636b", "is_reserved": 0, "rental_uris": {"android": "https://dc.lft.to/lastmile_qr_scan", "ios": "https://dc.lft.to/lastmile_qr_scan"}, "fusion_lon": 0.0}, {"lat": 38.91545333333333, "is_disabled": 0, "type": "electric_scooter", "lon": -77.07419916666667, "bike_id": "515745b15a1c7500111972e8fd6f29ef", "fusion_lat": 0.0, "name": "515745b15a1c7500111972e8fd6f29ef", "is_reserved": 0, "rental_uris": {"android": "https://dc.lft.to/lastmile_qr_scan", "ios": "https://dc.lft.to/lastmile_qr_scan"}, "fusion_lon": 0.0}, {"lat": 38.92954833333334, "is_disabled": 0, "type": "electric_scooter", "lon": -76.99086666666666, "bike_id": "eaf107af736f8633f3563a903323085c", "fusion_lat": 0.0, "name": "eaf107af736f8633f3563a903323085c", "is_reserved": 0, "rental_uris": {"android": "https://dc.lft.to/lastmile_qr_scan", "ios": "https://dc.lft.to/lastmile_qr_scan"}, "fusion_lon": 0.0}, {"lat": 38.88719116666667, "is_disabled": 0, "type": "electric_scooter", "lon": -76.99608366666666, "bike_id": "6bfa969fc7819b40c2741743c2142af4", "fusion_lat": 0.0, "name": "6bfa969fc7819b40c2741743c2142af4", "is_reserved": 0, "rental_uris": {"android": "https://dc.lft.to/lastmile_qr_scan", "ios": "https://dc.lft.to/lastmile_qr_scan"}, "fusion_lon": 0.0}, {"lat": 38.909685333333336, "is_disabled": 0, "type": "electric_scooter", "lon": -76.99604566666666, "bike_id": "ec757b455a7ec661ae50635b5994f577", "fusion_lat": 0.0, "name": "ec757b455a7ec661ae50635b5994f577", "is_reserved": 0, "rental_uris": {"android": "https://dc.lft.to/lastmile_qr_scan", "ios": "https://dc.lft.to/lastmile_qr_scan"}, "fusion_lon": 0.0}, {"lat": 38.89999016666667, "is_disabled": 0, "type": "electric_scooter", "lon": -76.99961466666667, "bike_id": "12c0ba6add9cb455abe1de33d8c5d746", "fusion_lat": 0.0, "name": "12c0ba6add9cb455abe1de33d8c5d746", "is_reserved": 0, "rental_uris": {"android": "https://dc.lft.to/lastmile_qr_scan", "ios": "https://dc.lft.to/lastmile_qr_scan"}, "fusion_lon": 0.0}, {"lat": 38.894367833333334, "is_disabled": 0, "type": "electric_scooter", "lon": -77.02090983333333, "bike_id": "717459caf3b15099f0c67190a7711088", "fusion_lat": 0.0, "name": "717459caf3b15099f0c67190a7711088", "is_reserved": 0, "rental_uris": {"android": "https://dc.lft.to/lastmile_qr_scan", "ios": "https://dc.lft.to/lastmile_qr_scan"}, "fusion_lon": 0.0}, {"lat": 38.906222, "is_disabled": 0, "type": "electric_scooter", "lon": -77.02181333333333, "bike_id": "a47e46faba8e2898cd147717aaa689f7", "fusion_lat": 0.0, "name": "a47e46faba8e2898cd147717aaa689f7", "is_reserved": 0, "rental_uris": {"android": "https://dc.lft.to/lastmile_qr_scan", "ios": "https://dc.lft.to/lastmile_qr_scan"}, "fusion_lon": 0.0}, {"lat": 38.91553866666667, "is_disabled": 0, "type": "electric_scooter", "lon": -77.041799, "bike_id": "16697b18d3c732547628f4b5cf0a9bc8", "fusion_lat": 0.0, "name": "16697b18d3c732547628f4b5cf0a9bc8", "is_reserved": 0, "rental_uris": {"android": "https://dc.lft.to/lastmile_qr_scan", "ios": "https://dc.lft.to/lastmile_qr_scan"}, "fusion_lon": 0.0}, {"lat": 38.90697483333334, "is_disabled": 0, "type": "electric_scooter", "lon": -77.00352366666667, "bike_id": "7d22f40385ed48bea3bbad1aacf3fb34", "fusion_lat": 0.0, "name": "7d22f40385ed48bea3bbad1aacf3fb34", "is_reserved": 0, "rental_uris": {"android": "https://dc.lft.to/lastmile_qr_scan", "ios": "https://dc.lft.to/lastmile_qr_scan"}, "fusion_lon": 0.0}, {"lat": 38.91715083333333, "is_disabled": 0, "type": "electric_scooter", "lon": -77.02393433333333, "bike_id": "eb5db569c2e7d1e7fa3a5acf82cd071d", "fusion_lat": 0.0, "name": "eb5db569c2e7d1e7fa3a5acf82cd071d", "is_reserved": 0, "rental_uris": {"android": "https://dc.lft.to/lastmile_qr_scan", "ios": "https://dc.lft.to/lastmile_qr_scan"}, "fusion_lon": 0.0}, {"lat": 38.93334433333333, "is_disabled": 0, "type": "electric_bike", "lon": -77.039842, "bike_id": "e07dca5150e62f5a9ec384401e0fda56", "fusion_lat": 0.0, "name": "e07dca5150e62f5a9ec384401e0fda56", "is_reserved": 0, "rental_uris": {"android": "https://dc.lft.to/lastmile_qr_scan", "ios": "https://dc.lft.to/lastmile_qr_scan"}, "fusion_lon": 0.0}, {"lat": 38.866138666666664, "is_disabled": 0, "type": "electric_scooter", "lon": -76.986677, "bike_id": "a6985ef5604d48726d69b53f9b1cac7c", "fusion_lat": 0.0, "name": "a6985ef5604d48726d69b53f9b1cac7c", "is_reserved": 0, "rental_uris": {"android": "https://dc.lft.to/lastmile_qr_scan", "ios": "https://dc.lft.to/lastmile_qr_scan"}, "fusion_lon": 0.0}, {"lat": 38.93610016666667, "is_disabled": 0, "type": "electric_scooter", "lon": -77.0585965, "bike_id": "dbb01d111a4e1786e68ca1e979987dae", "fusion_lat": 0.0, "name": "dbb01d111a4e1786e68ca1e979987dae", "is_reserved": 0, "rental_uris": {"android": "https://dc.lft.to/lastmile_qr_scan", "ios": "https://dc.lft.to/lastmile_qr_scan"}, "fusion_lon": 0.0}, {"lat": 38.92353683333333, "is_disabled": 0, "type": "electric_scooter", "lon": -77.05024983333334, "bike_id": "279ff159837030744f25a2176a76328e", "fusion_lat": 0.0, "name": "279ff159837030744f25a2176a76328e", "is_reserved": 0, "rental_uris": {"android": "https://dc.lft.to/lastmile_qr_scan", "ios": "https://dc.lft.to/lastmile_qr_scan"}, "fusion_lon": 0.0}, {"lat": 38.950773, "is_disabled": 0, "type": "electric_bike", "lon": -77.011983, "bike_id": "ad0b9ad3616085df6f0a67a0bd4e8f15", "fusion_lat": 0.0, "name": "ad0b9ad3616085df6f0a67a0bd4e8f15", "is_reserved": 0, "rental_uris": {"android": "https://dc.lft.to/lastmile_qr_scan", "ios": "https://dc.lft.to/lastmile_qr_scan"}, "fusion_lon": 0.0}, {"lat": 38.88266483333334, "is_disabled": 0, "type": "electric_bike", "lon": -76.932407, "bike_id": "356014748dd426328a8abc18924bb55e", "fusion_lat": 0.0, "name": "356014748dd426328a8abc18924bb55e", "is_reserved": 0, "rental_uris": {"android": "https://dc.lft.to/lastmile_qr_scan", "ios": "https://dc.lft.to/lastmile_qr_scan"}, "fusion_lon": 0.0}, {"lat": 38.920817666666665, "is_disabled": 0, "type": "electric_scooter", "lon": -77.02395133333333, "bike_id": "7a9c6d2993fa39cab0859132fd223c7e", "fusion_lat": 0.0, "name": "7a9c6d2993fa39cab0859132fd223c7e", "is_reserved": 0, "rental_uris": {"android": "https://dc.lft.to/lastmile_qr_scan", "ios": "https://dc.lft.to/lastmile_qr_scan"}, "fusion_lon": 0.0}, {"lat": 38.918137333333334, "is_disabled": 0, "type": "electric_scooter", "lon": -77.03661316666667, "bike_id": "b380d879f82062da7d73d9bd3af06405", "fusion_lat": 0.0, "name": "b380d879f82062da7d73d9bd3af06405", "is_reserved": 0, "rental_uris": {"android": "https://dc.lft.to/lastmile_qr_scan", "ios": "https://dc.lft.to/lastmile_qr_scan"}, "fusion_lon": 0.0}, {"lat": 38.90279016666667, "is_disabled": 0, "type": "electric_scooter", "lon": -77.04056516666667, "bike_id": "635fb9b38b94b0663861599af28a228f", "fusion_lat": 0.0, "name": "635fb9b38b94b0663861599af28a228f", "is_reserved": 0, "rental_uris": {"android": "https://dc.lft.to/lastmile_qr_scan", "ios": "https://dc.lft.to/lastmile_qr_scan"}, "fusion_lon": 0.0}, {"lat": 38.902561, "is_disabled": 0, "type": "electric_scooter", "lon": -77.06247216666667, "bike_id": "527bf1b5001188bd5a10f94e4dc6e1f3", "fusion_lat": 0.0, "name": "527bf1b5001188bd5a10f94e4dc6e1f3", "is_reserved": 0, "rental_uris": {"android": "https://dc.lft.to/lastmile_qr_scan", "ios": "https://dc.lft.to/lastmile_qr_scan"}, "fusion_lon": 0.0}, {"lat": 38.9357985, "is_disabled": 0, "type": "electric_scooter", "lon": -77.0375385, "bike_id": "23749e1b90711506d4ef1f54d4a80710", "fusion_lat": 0.0, "name": "23749e1b90711506d4ef1f54d4a80710", "is_reserved": 0, "rental_uris": {"android": "https://dc.lft.to/lastmile_qr_scan", "ios": "https://dc.lft.to/lastmile_qr_scan"}, "fusion_lon": 0.0}, {"lat": 38.91116666666667, "is_disabled": 0, "type": "electric_scooter", "lon": -77.038674, "bike_id": "7238a6d0aaf7c93b224852364f126e56", "fusion_lat": 0.0, "name": "7238a6d0aaf7c93b224852364f126e56", "is_reserved": 0, "rental_uris": {"android": "https://dc.lft.to/lastmile_qr_scan", "ios": "https://dc.lft.to/lastmile_qr_scan"}, "fusion_lon": 0.0}, {"lat": 38.907377833333335, "is_disabled": 0, "type": "electric_scooter", "lon": -77.03455133333334, "bike_id": "6a8e0733da8d287c8c393ae3dcf5e67e", "fusion_lat": 0.0, "name": "6a8e0733da8d287c8c393ae3dcf5e67e", "is_reserved": 0, "rental_uris": {"android": "https://dc.lft.to/lastmile_qr_scan", "ios": "https://dc.lft.to/lastmile_qr_scan"}, "fusion_lon": 0.0}, {"lat": 38.92159566666667, "is_disabled": 0, "type": "electric_scooter", "lon": -77.02099883333334, "bike_id": "cc65bac8ea9fb878068a6ed244b05cff", "fusion_lat": 0.0, "name": "cc65bac8ea9fb878068a6ed244b05cff", "is_reserved": 0, "rental_uris": {"android": "https://dc.lft.to/lastmile_qr_scan", "ios": "https://dc.lft.to/lastmile_qr_scan"}, "fusion_lon": 0.0}, {"lat": 38.91009233333333, "is_disabled": 0, "type": "electric_scooter", "lon": -77.022013, "bike_id": "9e7cec000f46e9b17dd55e49dfc0f60a", "fusion_lat": 0.0, "name": "9e7cec000f46e9b17dd55e49dfc0f60a", "is_reserved": 0, "rental_uris": {"android": "https://dc.lft.to/lastmile_qr_scan", "ios": "https://dc.lft.to/lastmile_qr_scan"}, "fusion_lon": 0.0}, {"lat": 38.913067, "is_disabled": 0, "type": "electric_scooter", "lon": -77.02396333333333, "bike_id": "12ded9d64ab71a5a11590981beb3e66d", "fusion_lat": 0.0, "name": "12ded9d64ab71a5a11590981beb3e66d", "is_reserved": 0, "rental_uris": {"android": "https://dc.lft.to/lastmile_qr_scan", "ios": "https://dc.lft.to/lastmile_qr_scan"}, "fusion_lon": 0.0}, {"lat": 38.903547333333336, "is_disabled": 0, "type": "electric_scooter", "lon": -77.04476316666667, "bike_id": "1af8c33342e887a15c98b2fa40e4f667", "fusion_lat": 0.0, "name": "1af8c33342e887a15c98b2fa40e4f667", "is_reserved": 0, "rental_uris": {"android": "https://dc.lft.to/lastmile_qr_scan", "ios": "https://dc.lft.to/lastmile_qr_scan"}, "fusion_lon": 0.0}, {"lat": 38.93364416666667, "is_disabled": 0, "type": "electric_bike", "lon": -77.09961266666667, "bike_id": "4e96656bb9b64892f172141e63f0fdd3", "fusion_lat": 0.0, "name": "4e96656bb9b64892f172141e63f0fdd3", "is_reserved": 0, "rental_uris": {"android": "https://dc.lft.to/lastmile_qr_scan", "ios": "https://dc.lft.to/lastmile_qr_scan"}, "fusion_lon": 0.0}, {"lat": 38.919298833333336, "is_disabled": 0, "type": "electric_scooter", "lon": -77.03189916666666, "bike_id": "374dac1cd283417a4236a49535865856", "fusion_lat": 0.0, "name": "374dac1cd283417a4236a49535865856", "is_reserved": 0, "rental_uris": {"android": "https://dc.lft.to/lastmile_qr_scan", "ios": "https://dc.lft.to/lastmile_qr_scan"}, "fusion_lon": 0.0}, {"lat": 38.9027075, "is_disabled": 0, "type": "electric_scooter", "lon": -77.03954366666666, "bike_id": "c7476098227205e85b2473cd996b4069", "fusion_lat": 0.0, "name": "c7476098227205e85b2473cd996b4069", "is_reserved": 0, "rental_uris": {"android": "https://dc.lft.to/lastmile_qr_scan", "ios": "https://dc.lft.to/lastmile_qr_scan"}, "fusion_lon": 0.0}, {"lat": 38.91679466666667, "is_disabled": 0, "type": "electric_scooter", "lon": -77.01229816666667, "bike_id": "2073b4126e0818d07ac65c2e5db977ab", "fusion_lat": 0.0, "name": "2073b4126e0818d07ac65c2e5db977ab", "is_reserved": 0, "rental_uris": {"android": "https://dc.lft.to/lastmile_qr_scan", "ios": "https://dc.lft.to/lastmile_qr_scan"}, "fusion_lon": 0.0}, {"lat": 38.9007245, "is_disabled": 0, "type": "electric_scooter", "lon": -77.001985, "bike_id": "32234d42f7f1c00bc5a745425b844a04", "fusion_lat": 0.0, "name": "32234d42f7f1c00bc5a745425b844a04", "is_reserved": 0, "rental_uris": {"android": "https://dc.lft.to/lastmile_qr_scan", "ios": "https://dc.lft.to/lastmile_qr_scan"}, "fusion_lon": 0.0}, {"lat": 38.91221066666667, "is_disabled": 0, "type": "electric_scooter", "lon": -77.02803, "bike_id": "a7aea2a8a2c72b72a193a966ac782286", "fusion_lat": 0.0, "name": "a7aea2a8a2c72b72a193a966ac782286", "is_reserved": 0, "rental_uris": {"android": "https://dc.lft.to/lastmile_qr_scan", "ios": "https://dc.lft.to/lastmile_qr_scan"}, "fusion_lon": 0.0}, {"lat": 38.85423483333334, "is_disabled": 0, "type": "electric_bike", "lon": -76.90975933333333, "bike_id": "98bf5cb18c952155ad3bb7353dea54f3", "fusion_lat": 0.0, "name": "98bf5cb18c952155ad3bb7353dea54f3", "is_reserved": 0, "rental_uris": {"android": "https://dc.lft.to/lastmile_qr_scan", "ios": "https://dc.lft.to/lastmile_qr_scan"}, "fusion_lon": 0.0}, {"lat": 38.918178166666664, "is_disabled": 0, "type": "electric_scooter", "lon": -77.0295265, "bike_id": "9eb1ba0cdba3cfc57fb543e465c8cf6d", "fusion_lat": 0.0, "name": "9eb1ba0cdba3cfc57fb543e465c8cf6d", "is_reserved": 0, "rental_uris": {"android": "https://dc.lft.to/lastmile_qr_scan", "ios": "https://dc.lft.to/lastmile_qr_scan"}, "fusion_lon": 0.0}, {"lat": 38.924669, "is_disabled": 0, "type": "electric_scooter", "lon": -77.05234766666666, "bike_id": "d5b777e6fbd726dadea55d610b8f055e", "fusion_lat": 0.0, "name": "d5b777e6fbd726dadea55d610b8f055e", "is_reserved": 0, "rental_uris": {"android": "https://dc.lft.to/lastmile_qr_scan", "ios": "https://dc.lft.to/lastmile_qr_scan"}, "fusion_lon": 0.0}, {"lat": 38.925575, "is_disabled": 0, "type": "electric_scooter", "lon": -77.032273, "bike_id": "27779984da3d2ac589bdeaa31d9abee2", "fusion_lat": 0.0, "name": "27779984da3d2ac589bdeaa31d9abee2", "is_reserved": 0, "rental_uris": {"android": "https://dc.lft.to/lastmile_qr_scan", "ios": "https://dc.lft.to/lastmile_qr_scan"}, "fusion_lon": 0.0}, {"lat": 38.93234116666667, "is_disabled": 0, "type": "electric_scooter", "lon": -77.038901, "bike_id": "6cc189ca552e8769513c0c41d472d634", "fusion_lat": 0.0, "name": "6cc189ca552e8769513c0c41d472d634", "is_reserved": 0, "rental_uris": {"android": "https://dc.lft.to/lastmile_qr_scan", "ios": "https://dc.lft.to/lastmile_qr_scan"}, "fusion_lon": 0.0}, {"lat": 38.90716483333333, "is_disabled": 0, "type": "electric_scooter", "lon": -77.00075516666666, "bike_id": "65074b275e2ea41d52e4db63c3a6739f", "fusion_lat": 0.0, "name": "65074b275e2ea41d52e4db63c3a6739f", "is_reserved": 0, "rental_uris": {"android": "https://dc.lft.to/lastmile_qr_scan", "ios": "https://dc.lft.to/lastmile_qr_scan"}, "fusion_lon": 0.0}, {"lat": 38.84431466666667, "is_disabled": 0, "type": "electric_scooter", "lon": -76.99813866666666, "bike_id": "6746fae26844ca69f82f890ab1352533", "fusion_lat": 0.0, "name": "6746fae26844ca69f82f890ab1352533", "is_reserved": 0, "rental_uris": {"android": "https://dc.lft.to/lastmile_qr_scan", "ios": "https://dc.lft.to/lastmile_qr_scan"}, "fusion_lon": 0.0}, {"lat": 38.905655833333334, "is_disabled": 0, "type": "electric_scooter", "lon": -76.98143433333334, "bike_id": "9601372b8fbf2e7ad460f5d32f5217c3", "fusion_lat": 0.0, "name": "9601372b8fbf2e7ad460f5d32f5217c3", "is_reserved": 0, "rental_uris": {"android": "https://dc.lft.to/lastmile_qr_scan", "ios": "https://dc.lft.to/lastmile_qr_scan"}, "fusion_lon": 0.0}, {"lat": 38.90247566666667, "is_disabled": 0, "type": "electric_scooter", "lon": -77.04363533333333, "bike_id": "0f4419dd3dd036195175002e9b8f27f4", "fusion_lat": 0.0, "name": "0f4419dd3dd036195175002e9b8f27f4", "is_reserved": 0, "rental_uris": {"android": "https://dc.lft.to/lastmile_qr_scan", "ios": "https://dc.lft.to/lastmile_qr_scan"}, "fusion_lon": 0.0}, {"lat": 38.923182833333335, "is_disabled": 0, "type": "electric_scooter", "lon": -77.04650233333334, "bike_id": "be8109f3deab4bc35a12491a4a60909e", "fusion_lat": 0.0, "name": "be8109f3deab4bc35a12491a4a60909e", "is_reserved": 0, "rental_uris": {"android": "https://dc.lft.to/lastmile_qr_scan", "ios": "https://dc.lft.to/lastmile_qr_scan"}, "fusion_lon": 0.0}, {"lat": 38.917318333333334, "is_disabled": 0, "type": "electric_scooter", "lon": -77.03647233333334, "bike_id": "e732017986e8728932073c011f6518c9", "fusion_lat": 0.0, "name": "e732017986e8728932073c011f6518c9", "is_reserved": 0, "rental_uris": {"android": "https://dc.lft.to/lastmile_qr_scan", "ios": "https://dc.lft.to/lastmile_qr_scan"}, "fusion_lon": 0.0}, {"lat": 39.0519945, "is_disabled": 0, "type": "electric_bike", "lon": -77.1091135, "bike_id": "0949c337d94f0b94a63cf11df8f6de5f", "fusion_lat": 0.0, "name": "0949c337d94f0b94a63cf11df8f6de5f", "is_reserved": 0, "rental_uris": {"android": "https://dc.lft.to/lastmile_qr_scan", "ios": "https://dc.lft.to/lastmile_qr_scan"}, "fusion_lon": 0.0}, {"lat": 38.906126666666665, "is_disabled": 0, "type": "electric_scooter", "lon": -77.01883733333334, "bike_id": "58cdfdfd885dda5c2e2e99e708dd9b26", "fusion_lat": 0.0, "name": "58cdfdfd885dda5c2e2e99e708dd9b26", "is_reserved": 0, "rental_uris": {"android": "https://dc.lft.to/lastmile_qr_scan", "ios": "https://dc.lft.to/lastmile_qr_scan"}, "fusion_lon": 0.0}, {"lat": 38.93882716666667, "is_disabled": 0, "type": "electric_bike", "lon": -76.99507, "bike_id": "4f1897068b03e8411062e2c9ea807a5e", "fusion_lat": 0.0, "name": "4f1897068b03e8411062e2c9ea807a5e", "is_reserved": 0, "rental_uris": {"android": "https://dc.lft.to/lastmile_qr_scan", "ios": "https://dc.lft.to/lastmile_qr_scan"}, "fusion_lon": 0.0}, {"lat": 38.91918783333333, "is_disabled": 0, "type": "electric_scooter", "lon": -77.02426383333334, "bike_id": "64838eb3287ad57acee8084ba93cda7f", "fusion_lat": 0.0, "name": "64838eb3287ad57acee8084ba93cda7f", "is_reserved": 0, "rental_uris": {"android": "https://dc.lft.to/lastmile_qr_scan", "ios": "https://dc.lft.to/lastmile_qr_scan"}, "fusion_lon": 0.0}, {"lat": 38.85902566666667, "is_disabled": 0, "type": "electric_scooter", "lon": -76.9915505, "bike_id": "c4cc821d5c1287c4481e0300d5fda57f", "fusion_lat": 0.0, "name": "c4cc821d5c1287c4481e0300d5fda57f", "is_reserved": 0, "rental_uris": {"android": "https://dc.lft.to/lastmile_qr_scan", "ios": "https://dc.lft.to/lastmile_qr_scan"}, "fusion_lon": 0.0}, {"lat": 38.90034683333333, "is_disabled": 0, "type": "electric_scooter", "lon": -77.00199266666667, "bike_id": "28d3be8ec2077f515f3089bcfe2a210d", "fusion_lat": 0.0, "name": "28d3be8ec2077f515f3089bcfe2a210d", "is_reserved": 0, "rental_uris": {"android": "https://dc.lft.to/lastmile_qr_scan", "ios": "https://dc.lft.to/lastmile_qr_scan"}, "fusion_lon": 0.0}, {"lat": 38.91545933333333, "is_disabled": 0, "type": "electric_scooter", "lon": -77.0532045, "bike_id": "90e763e26183ce2afeaa4df78e65185b", "fusion_lat": 0.0, "name": "90e763e26183ce2afeaa4df78e65185b", "is_reserved": 0, "rental_uris": {"android": "https://dc.lft.to/lastmile_qr_scan", "ios": "https://dc.lft.to/lastmile_qr_scan"}, "fusion_lon": 0.0}, {"lat": 38.86653183333333, "is_disabled": 0, "type": "electric_scooter", "lon": -76.98887616666667, "bike_id": "02fe6977691d3e5e2a52577126337c33", "fusion_lat": 0.0, "name": "02fe6977691d3e5e2a52577126337c33", "is_reserved": 0, "rental_uris": {"android": "https://dc.lft.to/lastmile_qr_scan", "ios": "https://dc.lft.to/lastmile_qr_scan"}, "fusion_lon": 0.0}, {"lat": 38.952779166666666, "is_disabled": 0, "type": "electric_scooter", "lon": -77.06891233333333, "bike_id": "a0ceec461279c4fa8dc500436cb1755c", "fusion_lat": 0.0, "name": "a0ceec461279c4fa8dc500436cb1755c", "is_reserved": 0, "rental_uris": {"android": "https://dc.lft.to/lastmile_qr_scan", "ios": "https://dc.lft.to/lastmile_qr_scan"}, "fusion_lon": 0.0}, {"lat": 38.90864166666667, "is_disabled": 0, "type": "electric_scooter", "lon": -76.99165833333333, "bike_id": "135187d6c199174c0196517563e49c9e", "fusion_lat": 0.0, "name": "135187d6c199174c0196517563e49c9e", "is_reserved": 0, "rental_uris": {"android": "https://dc.lft.to/lastmile_qr_scan", "ios": "https://dc.lft.to/lastmile_qr_scan"}, "fusion_lon": 0.0}, {"lat": 38.899120333333336, "is_disabled": 0, "type": "electric_scooter", "lon": -76.9335625, "bike_id": "ee699ec3c89f89c0355afd788c8da942", "fusion_lat": 0.0, "name": "ee699ec3c89f89c0355afd788c8da942", "is_reserved": 0, "rental_uris": {"android": "https://dc.lft.to/lastmile_qr_scan", "ios": "https://dc.lft.to/lastmile_qr_scan"}, "fusion_lon": 0.0}, {"lat": 38.905557, "is_disabled": 0, "type": "electric_scooter", "lon": -77.03397033333333, "bike_id": "84162ad5be8974093ee60f5f890040fe", "fusion_lat": 0.0, "name": "84162ad5be8974093ee60f5f890040fe", "is_reserved": 0, "rental_uris": {"android": "https://dc.lft.to/lastmile_qr_scan", "ios": "https://dc.lft.to/lastmile_qr_scan"}, "fusion_lon": 0.0}, {"lat": 38.95629916666667, "is_disabled": 0, "type": "electric_bike", "lon": -77.022954, "bike_id": "1b70243f7e8cf52ebca5ad0703d8f2aa", "fusion_lat": 0.0, "name": "1b70243f7e8cf52ebca5ad0703d8f2aa", "is_reserved": 0, "rental_uris": {"android": "https://dc.lft.to/lastmile_qr_scan", "ios": "https://dc.lft.to/lastmile_qr_scan"}, "fusion_lon": 0.0}, {"lat": 38.920707, "is_disabled": 0, "type": "electric_scooter", "lon": -77.02537316666667, "bike_id": "94612dfbfeb52e3b69d0c0be077a04f6", "fusion_lat": 0.0, "name": "94612dfbfeb52e3b69d0c0be077a04f6", "is_reserved": 0, "rental_uris": {"android": "https://dc.lft.to/lastmile_qr_scan", "ios": "https://dc.lft.to/lastmile_qr_scan"}, "fusion_lon": 0.0}, {"lat": 38.866530833333336, "is_disabled": 0, "type": "electric_scooter", "lon": -76.98885816666666, "bike_id": "f26e1ac3678a1965e70022c47eb40e26", "fusion_lat": 0.0, "name": "f26e1ac3678a1965e70022c47eb40e26", "is_reserved": 0, "rental_uris": {"android": "https://dc.lft.to/lastmile_qr_scan", "ios": "https://dc.lft.to/lastmile_qr_scan"}, "fusion_lon": 0.0}, {"lat": 38.88490683333333, "is_disabled": 0, "type": "electric_scooter", "lon": -77.00706433333333, "bike_id": "67fbafd69b217ea36334fe917bb83c3b", "fusion_lat": 0.0, "name": "67fbafd69b217ea36334fe917bb83c3b", "is_reserved": 0, "rental_uris": {"android": "https://dc.lft.to/lastmile_qr_scan", "ios": "https://dc.lft.to/lastmile_qr_scan"}, "fusion_lon": 0.0}, {"lat": 38.919706833333336, "is_disabled": 0, "type": "electric_bike", "lon": -77.00325633333334, "bike_id": "06bb98f8605c3fa9f85d5e0aba5e6097", "fusion_lat": 0.0, "name": "06bb98f8605c3fa9f85d5e0aba5e6097", "is_reserved": 0, "rental_uris": {"android": "https://dc.lft.to/lastmile_qr_scan", "ios": "https://dc.lft.to/lastmile_qr_scan"}, "fusion_lon": 0.0}, {"lat": 38.91273533333333, "is_disabled": 0, "type": "electric_scooter", "lon": -77.01840633333333, "bike_id": "beeda2781c301658c3161df21749f5e8", "fusion_lat": 0.0, "name": "beeda2781c301658c3161df21749f5e8", "is_reserved": 0, "rental_uris": {"android": "https://dc.lft.to/lastmile_qr_scan", "ios": "https://dc.lft.to/lastmile_qr_scan"}, "fusion_lon": 0.0}, {"lat": 38.940385666666664, "is_disabled": 0, "type": "electric_bike", "lon": -76.98820033333334, "bike_id": "51ecfd980b5fe8fd21b9a38f599f74e6", "fusion_lat": 0.0, "name": "51ecfd980b5fe8fd21b9a38f599f74e6", "is_reserved": 0, "rental_uris": {"android": "https://dc.lft.to/lastmile_qr_scan", "ios": "https://dc.lft.to/lastmile_qr_scan"}, "fusion_lon": 0.0}, {"lat": 38.91425433333333, "is_disabled": 0, "type": "electric_scooter", "lon": -77.03208783333334, "bike_id": "3aaf736a6e05f1151ec2cc9020dfc593", "fusion_lat": 0.0, "name": "3aaf736a6e05f1151ec2cc9020dfc593", "is_reserved": 0, "rental_uris": {"android": "https://dc.lft.to/lastmile_qr_scan", "ios": "https://dc.lft.to/lastmile_qr_scan"}, "fusion_lon": 0.0}, {"lat": 38.8006945, "is_disabled": 0, "type": "electric_bike", "lon": -77.07117233333334, "bike_id": "23afb0a779c3f54b13d530d7fc9a4011", "fusion_lat": 0.0, "name": "23afb0a779c3f54b13d530d7fc9a4011", "is_reserved": 0, "rental_uris": {"android": "https://dc.lft.to/lastmile_qr_scan", "ios": "https://dc.lft.to/lastmile_qr_scan"}, "fusion_lon": 0.0}, {"lat": 38.903875166666666, "is_disabled": 0, "type": "electric_scooter", "lon": -76.99010383333334, "bike_id": "e049efb904f341bb0031d42dcdc7334e", "fusion_lat": 0.0, "name": "e049efb904f341bb0031d42dcdc7334e", "is_reserved": 0, "rental_uris": {"android": "https://dc.lft.to/lastmile_qr_scan", "ios": "https://dc.lft.to/lastmile_qr_scan"}, "fusion_lon": 0.0}, {"lat": 38.908541, "is_disabled": 0, "type": "electric_scooter", "lon": -77.02060516666667, "bike_id": "b15f6d4dc580d6b9f8cffe5cb01f05e1", "fusion_lat": 0.0, "name": "b15f6d4dc580d6b9f8cffe5cb01f05e1", "is_reserved": 0, "rental_uris": {"android": "https://dc.lft.to/lastmile_qr_scan", "ios": "https://dc.lft.to/lastmile_qr_scan"}, "fusion_lon": 0.0}, {"lat": 38.923810333333336, "is_disabled": 0, "type": "electric_scooter", "lon": -77.02559216666667, "bike_id": "a5fe3313b01cfe7370285fcf1b9be83d", "fusion_lat": 0.0, "name": "a5fe3313b01cfe7370285fcf1b9be83d", "is_reserved": 0, "rental_uris": {"android": "https://dc.lft.to/lastmile_qr_scan", "ios": "https://dc.lft.to/lastmile_qr_scan"}, "fusion_lon": 0.0}, {"lat": 38.9027745, "is_disabled": 0, "type": "electric_scooter", "lon": -77.0388795, "bike_id": "9f54f7078b29a94f56547782485712a1", "fusion_lat": 0.0, "name": "9f54f7078b29a94f56547782485712a1", "is_reserved": 0, "rental_uris": {"android": "https://dc.lft.to/lastmile_qr_scan", "ios": "https://dc.lft.to/lastmile_qr_scan"}, "fusion_lon": 0.0}, {"lat": 38.8520615, "is_disabled": 0, "type": "electric_bike", "lon": -77.10129983333333, "bike_id": "98e25dc28637f2b8dc47825d3e9642da", "fusion_lat": 0.0, "name": "98e25dc28637f2b8dc47825d3e9642da", "is_reserved": 0, "rental_uris": {"android": "https://dc.lft.to/lastmile_qr_scan", "ios": "https://dc.lft.to/lastmile_qr_scan"}, "fusion_lon": 0.0}, {"lat": 38.87919483333334, "is_disabled": 0, "type": "electric_scooter", "lon": -77.03098533333333, "bike_id": "05fb6f46272e814606df62c64a2a7b6f", "fusion_lat": 0.0, "name": "05fb6f46272e814606df62c64a2a7b6f", "is_reserved": 0, "rental_uris": {"android": "https://dc.lft.to/lastmile_qr_scan", "ios": "https://dc.lft.to/lastmile_qr_scan"}, "fusion_lon": 0.0}, {"lat": 38.88409333333333, "is_disabled": 0, "type": "electric_bike", "lon": -76.96065416666667, "bike_id": "a77b225d9c5cc9c8dfb2df84ca469b41", "fusion_lat": 0.0, "name": "a77b225d9c5cc9c8dfb2df84ca469b41", "is_reserved": 0, "rental_uris": {"android": "https://dc.lft.to/lastmile_qr_scan", "ios": "https://dc.lft.to/lastmile_qr_scan"}, "fusion_lon": 0.0}, {"lat": 38.899556833333335, "is_disabled": 0, "type": "electric_scooter", "lon": -77.025696, "bike_id": "1488a2ca3da17d221bc00ce026c699ff", "fusion_lat": 0.0, "name": "1488a2ca3da17d221bc00ce026c699ff", "is_reserved": 0, "rental_uris": {"android": "https://dc.lft.to/lastmile_qr_scan", "ios": "https://dc.lft.to/lastmile_qr_scan"}, "fusion_lon": 0.0}, {"lat": 38.970917666666665, "is_disabled": 0, "type": "electric_bike", "lon": -77.0696545, "bike_id": "b30a5e430b59f31b067c3539f7c91fd8", "fusion_lat": 0.0, "name": "b30a5e430b59f31b067c3539f7c91fd8", "is_reserved": 0, "rental_uris": {"android": "https://dc.lft.to/lastmile_qr_scan", "ios": "https://dc.lft.to/lastmile_qr_scan"}, "fusion_lon": 0.0}, {"lat": 38.911805333333334, "is_disabled": 0, "type": "electric_scooter", "lon": -77.04029566666667, "bike_id": "e75a3a26735e8a4bbbaa1343a3b2eb88", "fusion_lat": 0.0, "name": "e75a3a26735e8a4bbbaa1343a3b2eb88", "is_reserved": 0, "rental_uris": {"android": "https://dc.lft.to/lastmile_qr_scan", "ios": "https://dc.lft.to/lastmile_qr_scan"}, "fusion_lon": 0.0},