{"data": {"bikes": [{"lat": 38.90151866666667, "lon": -76.93066683333333, "is_disabled": 0, "fusion_lon": 0.0, "is_reserved": 0, "name": "2591cc41db47cee8ad40f5affe9426a6", "type": "electric_scooter", "bike_id": "2591cc41db47cee8ad40f5affe9426a6", "rental_uris": {"ios": "https://dc.lft.to/lastmile_qr_scan", "android": "https://dc.lft.to/lastmile_qr_scan"}, "fusion_lat": 0.0}, {"lat": 38.90194966666667, "lon": -77.02374783333333, "is_disabled": 0, "fusion_lon": 0.0, "is_reserved": 0, "name": "05db08234ab182f6a63421663c55dfdf", "type": "electric_scooter", "bike_id": "05db08234ab182f6a63421663c55dfdf", "rental_uris": {"ios": "https://dc.lft.to/lastmile_qr_scan", "android": "https://dc.lft.to/lastmile_qr_scan"}, "fusion_lat": 0.0}, {"lat": 38.919885, "lon": -77.01781433333333, "is_disabled": 0, "fusion_lon": 0.0, "is_reserved": 0, "name": "3d4f762081e0cfdebc7fc3e47f577e70", "type": "electric_scooter", "bike_id": "3d4f762081e0cfdebc7fc3e47f577e70", "rental_uris": {"ios": "https://dc.lft.to/lastmile_qr_scan", "android": "https://dc.lft.to/lastmile_qr_scan"}, "fusion_lat": 0.0}, {"lat": 38.9506005, "lon": -77.08026783333334, "is_disabled": 0, "fusion_lon": 0.0, "is_reserved": 0, "name": "8ce7f586d40f67d7c40b513d7d71f97e", "type": "electric_scooter", "bike_id": "8ce7f586d40f67d7c40b513d7d71f97e", "rental_uris": {"ios": "https://dc.lft.to/lastmile_qr_scan", "android": "https://dc.lft.to/lastmile_qr_scan"}, "fusion_lat": 0.0}, {"lat": 38.9242705, "lon": -77.05180566666667, "is_disabled": 0, "fusion_lon": 0.0, "is_reserved": 0, "name": "5c273a3e3041627e208d9d7dc1a1b4dd", "type": "electric_scooter", "bike_id": "5c273a3e3041627e208d9d7dc1a1b4dd", "rental_uris": {"ios": "https://dc.lft.to/lastmile_qr_scan", "android": "https://dc.lft.to/lastmile_qr_scan"}, "fusion_lat": 0.0}, {"lat": 38.875553833333335, "lon": -77.00603533333333, "is_disabled": 0, "fusion_lon": 0.0, "is_reserved": 0, "name": "7b5908ce9aeaa9cd16631a6f5bbf554f", "type": "electric_scooter", "bike_id": "7b5908ce9aeaa9cd16631a6f5bbf554f", "rental_uris": {"ios": "https://dc.lft.to/lastmile_qr_scan", "android": "https://dc.lft.to/lastmile_qr_scan"}, "fusion_lat": 0.0}, {"lat": 38.934839833333335, "lon": -77.036051, "is_disabled": 0, "fusion_lon": 0.0, "is_reserved": 0, "name": "93e22a890aab94ae7c639ab7ca002df0", "type": "electric_scooter", "bike_id": "93e22a890aab94ae7c639ab7ca002df0", "rental_uris": {"ios": "https://dc.lft.to/lastmile_qr_scan", "android": "https://dc.lft.to/lastmile_qr_scan"}, "fusion_lat": 0.0}, {"lat": 38.92034816666666, "lon": -77.02585083333334, "is_disabled": 0, "fusion_lon": 0.0, "is_reserved": 0, "name": "d91d1ad1b951d505686ac4b605fe0597", "type": "electric_scooter", "bike_id": "d91d1ad1b951d505686ac4b605fe0597", "rental_uris": {"ios": "https://dc.lft.to/lastmile_qr_scan", "android": "https://dc.lft.to/lastmile_qr_scan"}, "fusion_lat": 0.0}, {"lat": 38.880801, "lon": -76.98534033333334, "is_disabled": 0, "fusion_lon": 0.0, "is_reserved": 0, "name": "949a46e46a116909c79196a10b0d01d7", "type": "electric_bike", "bike_id": "949a46e46a116909c79196a10b0d01d7", "rental_uris": {"ios": "https://dc.lft.to/lastmile_qr_scan", "android": "https://dc.lft.to/lastmile_qr_scan"}, "fusion_lat": 0.0}, {"lat": 38.90841533333333, "lon": -76.99756216666667, "is_disabled": 0, "fusion_lon": 0.0, "is_reserved": 0, "name": "37402bbc3796cfe3ef7ff0ea9336d315", "type": "electric_scooter", "bike_id": "37402bbc3796cfe3ef7ff0ea9336d315", "rental_uris": {"ios": "https://dc.lft.to/lastmile_qr_scan", "android": "https://dc.lft.to/lastmile_qr_scan"}, "fusion_lat": 0.0}, {"lat": 38.930387833333334, "lon": -77.023317, "is_disabled": 0, "fusion_lon": 0.0, "is_reserved": 0, "name": "115c5ac7df2dcbb194a2b22ec1be2a17", "type": "electric_scooter", "bike_id": "115c5ac7df2dcbb194a2b22ec1be2a17", "rental_uris": {"ios": "https://dc.lft.to/lastmile_qr_scan", "android": "https://dc.lft.to/lastmile_qr_scan"}, "fusion_lat": 0.0}, {"lat": 38.927123333333334, "lon": -77.0208545, "is_disabled": 0, "fusion_lon": 0.0, "is_reserved": 0, "name": "ac911cb2069f467f6980bbc25c36a170", "type": "electric_scooter", "bike_id": "ac911cb2069f467f6980bbc25c36a170", "rental_uris": {"ios": "https://dc.lft.to/lastmile_qr_scan", "android": "https://dc.lft.to/lastmile_qr_scan"}, "fusion_lat": 0.0}, {"lat": 38.90151983333333, "lon": -77.03868616666666, "is_disabled": 0, "fusion_lon": 0.0, "is_reserved": 0, "name": "8617c20a9e4b62fa251449fa7cbed612", "type": "electric_scooter", "bike_id": "8617c20a9e4b62fa251449fa7cbed612", "rental_uris": {"ios": "https://dc.lft.to/lastmile_qr_scan", "android": "https://dc.lft.to/lastmile_qr_scan"}, "fusion_lat": 0.0}, {"lat": 38.92044516666667, "lon": -77.02242083333333, "is_disabled": 0, "fusion_lon": 0.0, "is_reserved": 0, "name": "7508281da31c71f453be0fd946ba40be", "type": "electric_bike", "bike_id": "7508281da31c71f453be0fd946ba40be", "rental_uris": {"ios": "https://dc.lft.to/lastmile_qr_scan", "android": "https://dc.lft.to/lastmile_qr_scan"}, "fusion_lat": 0.0}, {"lat": 38.910859, "lon": -77.0448005, "is_disabled": 0, "fusion_lon": 0.0, "is_reserved": 0, "name": "51126d9e91b2a2ae5c685c56e57fbcfb", "type": "electric_scooter", "bike_id": "51126d9e91b2a2ae5c685c56e57fbcfb", "rental_uris": {"ios": "https://dc.lft.to/lastmile_qr_scan", "android": "https://dc.lft.to/lastmile_qr_scan"}, "fusion_lat": 0.0}, {"lat": 38.9323655, "lon": -76.99492966666666, "is_disabled": 0, "fusion_lon": 0.0, "is_reserved": 0, "name": "f3aac98a80910c2d3036fb7c0391ef0c", "type": "electric_scooter", "bike_id": "f3aac98a80910c2d3036fb7c0391ef0c", "rental_uris": {"ios": "https://dc.lft.to/lastmile_qr_scan", "android": "https://dc.lft.to/lastmile_qr_scan"}, "fusion_lat": 0.0}, {"lat": 38.914209666666665, "lon": -77.01799766666667, "is_disabled": 0, "fusion_lon": 0.0, "is_reserved": 0, "name": "2e9b89e1512ffc0d584ca8d547da5727", "type": "electric_scooter", "bike_id": "2e9b89e1512ffc0d584ca8d547da5727", "rental_uris": {"ios": "https://dc.lft.to/lastmile_qr_scan", "android": "https://dc.lft.to/lastmile_qr_scan"}, "fusion_lat": 0.0}, {"lat": 38.91553916666667, "lon": -77.010188, "is_disabled": 0, "fusion_lon": 0.0, "is_reserved": 0, "name": "0d01c9e0599662960ddcc9f4044715ec", "type": "electric_scooter", "bike_id": "0d01c9e0599662960ddcc9f4044715ec", "rental_uris": {"ios": "https://dc.lft.to/lastmile_qr_scan", "android": "https://dc.lft.to/lastmile_qr_scan"}, "fusion_lat": 0.0}, {"lat": 38.920006666666666, "lon": -77.02402216666667, "is_disabled": 0, "fusion_lon": 0.0, "is_reserved": 0, "name": "28f3c91bae9886ab4e44c42e1d3fc752", "type": "electric_scooter", "bike_id": "28f3c91bae9886ab4e44c42e1d3fc752", "rental_uris": {"ios": "https://dc.lft.to/lastmile_qr_scan", "android": "https://dc.lft.to/lastmile_qr_scan"}, "fusion_lat": 0.0}, {"lat": 38.8988805, "lon": -76.93174533333334, "is_disabled": 0, "fusion_lon": 0.0, "is_reserved": 0, "name": "115a9c7ccb424073f7625f93f23d76f2", "type": "electric_scooter", "bike_id": "115a9c7ccb424073f7625f93f23d76f2", "rental_uris": {"ios": "https://dc.lft.to/lastmile_qr_scan", "android": "https://dc.lft.to/lastmile_qr_scan"}, "fusion_lat": 0.0}, {"lat": 38.908647333333334, "lon": -77.04529816666667, "is_disabled": 0, "fusion_lon": 0.0, "is_reserved": 0, "name": "356ce70284b9d790840450bc5a9e45f6", "type": "electric_scooter", "bike_id": "356ce70284b9d790840450bc5a9e45f6", "rental_uris": {"ios": "https://dc.lft.to/lastmile_qr_scan", "android": "https://dc.lft.to/lastmile_qr_scan"}, "fusion_lat": 0.0}, {"lat": 38.90026566666667, "lon": -77.03950433333333, "is_disabled": 0, "fusion_lon": 0.0, "is_reserved": 0, "name": "8fc490d898806323932edc69ab833f93", "type": "electric_scooter", "bike_id": "8fc490d898806323932edc69ab833f93", "rental_uris": {"ios": "https://dc.lft.to/lastmile_qr_scan", "android": "https://dc.lft.to/lastmile_qr_scan"}, "fusion_lat": 0.0}, {"lat": 38.90286716666667, "lon": -77.03469216666667, "is_disabled": 0, "fusion_lon": 0.0, "is_reserved": 0, "name": "5863e0d9e19d05746618356ca1218394", "type": "electric_scooter", "bike_id": "5863e0d9e19d05746618356ca1218394", "rental_uris": {"ios": "https://dc.lft.to/lastmile_qr_scan", "android": "https://dc.lft.to/lastmile_qr_scan"}, "fusion_lat": 0.0}, {"lat": 38.92459066666667, "lon": -76.971091, "is_disabled": 0, "fusion_lon": 0.0, "is_reserved": 0, "name": "56c4c6fba0c468964e0e7a3fb121aec9", "type": "electric_scooter", "bike_id": "56c4c6fba0c468964e0e7a3fb121aec9", "rental_uris": {"ios": "https://dc.lft.to/lastmile_qr_scan", "android": "https://dc.lft.to/lastmile_qr_scan"}, "fusion_lat": 0.0}, {"lat": 38.912205, "lon": -77.03197116666666, "is_disabled": 0, "fusion_lon": 0.0, "is_reserved": 0, "name": "0b4bd82440115cfc034ab852da3d5a7b", "type": "electric_scooter", "bike_id": "0b4bd82440115cfc034ab852da3d5a7b", "rental_uris": {"ios": "https://dc.lft.to/lastmile_qr_scan", "android": "https://dc.lft.to/lastmile_qr_scan"}, "fusion_lat": 0.0}, {"lat": 38.9327925, "lon": -76.98437033333333, "is_disabled": 0, "fusion_lon": 0.0, "is_reserved": 0, "name": "15f174aa57a88f635315f9811c476d44", "type": "electric_scooter", "bike_id": "15f174aa57a88f635315f9811c476d44", "rental_uris": {"ios": "https://dc.lft.to/lastmile_qr_scan", "android": "https://dc.lft.to/lastmile_qr_scan"}, "fusion_lat": 0.0}, {"lat": 38.899229166666665, "lon": -76.985269, "is_disabled": 0, "fusion_lon": 0.0, "is_reserved": 0, "name": "2ca510e55ed37c3994aeed497117f5c5", "type": "electric_scooter", "bike_id": "2ca510e55ed37c3994aeed497117f5c5", "rental_uris": {"ios": "https://dc.lft.to/lastmile_qr_scan", "android": "https://dc.lft.to/lastmile_qr_scan"}, "fusion_lat": 0.0}, {"lat": 38.907245, "lon": -77.010977, "is_disabled": 0, "fusion_lon": 0.0, "is_reserved": 0, "name": "f429e035219994e8caeb1c98b9c352ef", "type": "electric_scooter", "bike_id": "f429e035219994e8caeb1c98b9c352ef", "rental_uris": {"ios": "https://dc.lft.to/lastmile_qr_scan", "android": "https://dc.lft.to/lastmile_qr_scan"}, "fusion_lat": 0.0}, {"lat": 38.91115683333334, "lon": -77.0328605, "is_disabled": 0, "fusion_lon": 0.0, "is_reserved": 0, "name": "1dce57bb69b6b24b6d4de08ade41989a", "type": "electric_scooter", "bike_id": "1dce57bb69b6b24b6d4de08ade41989a", "rental_uris": {"ios": "https://dc.lft.to/lastmile_qr_scan", "android": "https://dc.lft.to/lastmile_qr_scan"}, "fusion_lat": 0.0}, {"lat": 38.927635, "lon": -77.0527115, "is_disabled": 0, "fusion_lon": 0.0, "is_reserved": 0, "name": "d17346e0bfdc530ac62a4724f51352db", "type": "electric_scooter", "bike_id": "d17346e0bfdc530ac62a4724f51352db", "rental_uris": {"ios": "https://dc.lft.to/lastmile_qr_scan", "android": "https://dc.lft.to/lastmile_qr_scan"}, "fusion_lat": 0.0}, {"lat": 38.902991, "lon": -77.00565683333333, "is_disabled": 0, "fusion_lon": 0.0, "is_reserved": 0, "name": "2cc2644d7a293253403b1529de45d177", "type": "electric_scooter", "bike_id": "2cc2644d7a293253403b1529de45d177", "rental_uris": {"ios": "https://dc.lft.to/lastmile_qr_scan", "android": "https://dc.lft.to/lastmile_qr_scan"}, "fusion_lat": 0.0}, {"lat": 38.925244166666666, "lon": -77.050441, "is_disabled": 0, "fusion_lon": 0.0, "is_reserved": 0, "name": "26b9c0a3660abb4170c2bc60f9f93c49", "type": "electric_scooter", "bike_id": "26b9c0a3660abb4170c2bc60f9f93c49", "rental_uris": {"ios": "https://dc.lft.to/lastmile_qr_scan", "android": "https://dc.lft.to/lastmile_qr_scan"}, "fusion_lat": 0.0}, {"lat": 38.92447083333333, "lon": -76.98988216666666, "is_disabled": 0, "fusion_lon": 0.0, "is_reserved": 0, "name": "404db4062e0d5d477b491570d9279d9c", "type": "electric_scooter", "bike_id": "404db4062e0d5d477b491570d9279d9c", "rental_uris": {"ios": "https://dc.lft.to/lastmile_qr_scan", "android": "https://dc.lft.to/lastmile_qr_scan"}, "fusion_lat": 0.0}, {"lat": 38.908189666666665, "lon": -77.0320465, "is_disabled": 0, "fusion_lon": 0.0, "is_reserved": 0, "name": "f162818faa120507e60be66f4127dd90", "type": "electric_scooter", "bike_id": "f162818faa120507e60be66f4127dd90", "rental_uris": {"ios": "https://dc.lft.to/lastmile_qr_scan", "android": "https://dc.lft.to/lastmile_qr_scan"}, "fusion_lat": 0.0}, {"lat": 38.93199083333333, "lon": -77.0282, "is_disabled": 0, "fusion_lon": 0.0, "is_reserved": 0, "name": "f6ba609c7e66256e85c48032753bc8a4", "type": "electric_scooter", "bike_id": "f6ba609c7e66256e85c48032753bc8a4", "rental_uris": {"ios": "https://dc.lft.to/lastmile_qr_scan", "android": "https://dc.lft.to/lastmile_qr_scan"}, "fusion_lat": 0.0}, {"lat": 38.9278545, "lon": -77.05315616666667, "is_disabled": 0, "fusion_lon": 0.0, "is_reserved": 0, "name": "e98d9956bc0f573b78d458a582de34cf", "type": "electric_scooter", "bike_id": "e98d9956bc0f573b78d458a582de34cf", "rental_uris": {"ios": "https://dc.lft.to/lastmile_qr_scan", "android": "https://dc.lft.to/lastmile_qr_scan"}, "fusion_lat": 0.0}, {"lat": 38.819838833333336, "lon": -76.99810016666666, "is_disabled": 0, "fusion_lon": 0.0, "is_reserved": 0, "name": "1d1b1f0c71e8b2549cce9055af651a35", "type": "electric_bike", "bike_id": "1d1b1f0c71e8b2549cce9055af651a35", "rental_uris": {"ios": "https://dc.lft.to/lastmile_qr_scan", "android": "https://dc.lft.to/lastmile_qr_scan"}, "fusion_lat": 0.0}, {"lat": 38.927936, "lon": -77.021148, "is_disabled": 0, "fusion_lon": 0.0, "is_reserved": 0, "name": "71c57f16846b0743f0374f491aedbe56", "type": "electric_scooter", "bike_id": "71c57f16846b0743f0374f491aedbe56", "rental_uris": {"ios": "https://dc.lft.to/lastmile_qr_scan", "android": "https://dc.lft.to/lastmile_qr_scan"}, "fusion_lat": 0.0}, {"lat": 38.914164, "lon": -77.0210605, "is_disabled": 0, "fusion_lon": 0.0, "is_reserved": 0, "name": "98dbc4c84bdecdc17a58850707e4671c", "type": "electric_scooter", "bike_id": "98dbc4c84bdecdc17a58850707e4671c", "rental_uris": {"ios": "https://dc.lft.to/lastmile_qr_scan", "android": "https://dc.lft.to/lastmile_qr_scan"}, "fusion_lat": 0.0}, {"lat": 38.884372166666665, "lon": -77.0176445, "is_disabled": 0, "fusion_lon": 0.0, "is_reserved": 0, "name": "680b81da7c80b4d5d41c54aeff7a8d43", "type": "electric_scooter", "bike_id": "680b81da7c80b4d5d41c54aeff7a8d43", "rental_uris": {"ios": "https://dc.lft.to/lastmile_qr_scan", "android": "https://dc.lft.to/lastmile_qr_scan"}, "fusion_lat": 0.0}, {"lat": 38.89224466666667, "lon": -77.04328716666667, "is_disabled": 0, "fusion_lon": 0.0, "is_reserved": 0, "name": "8510eb3b8127ef9d4353e3f41449eb8a", "type": "electric_scooter", "bike_id": "8510eb3b8127ef9d4353e3f41449eb8a", "rental_uris": {"ios": "https://dc.lft.to/lastmile_qr_scan", "android": "https://dc.lft.to/lastmile_qr_scan"}, "fusion_lat": 0.0}, {"lat": 38.91948566666667, "lon": -77.024934, "is_disabled": 0, "fusion_lon": 0.0, "is_reserved": 0, "name": "0fd54c8d2e3c49b95421923c3433dbfe", "type": "electric_scooter", "bike_id": "0fd54c8d2e3c49b95421923c3433dbfe", "rental_uris": {"ios": "https://dc.lft.to/lastmile_qr_scan", "android": "https://dc.lft.to/lastmile_qr_scan"}, "fusion_lat": 0.0}, {"lat": 38.90732666666667, "lon": -77.034833, "is_disabled": 0, "fusion_lon": 0.0, "is_reserved": 0, "name": "ef1ea384342a28d4cdfd1fbf800ce1cc", "type": "electric_scooter", "bike_id": "ef1ea384342a28d4cdfd1fbf800ce1cc", "rental_uris": {"ios": "https://dc.lft.to/lastmile_qr_scan", "android": "https://dc.lft.to/lastmile_qr_scan"}, "fusion_lat": 0.0}, {"lat": 38.925519, "lon": -76.981509, "is_disabled": 0, "fusion_lon": 0.0, "is_reserved": 0, "name": "2b5e3926532c0e8255508e424e2968f3", "type": "electric_scooter", "bike_id": "2b5e3926532c0e8255508e424e2968f3", "rental_uris": {"ios": "https://dc.lft.to/lastmile_qr_scan", "android": "https://dc.lft.to/lastmile_qr_scan"}, "fusion_lat": 0.0}, {"lat": 38.92759516666667, "lon": -77.05279666666667, "is_disabled": 0, "fusion_lon": 0.0, "is_reserved": 0, "name": "5a3397b3f267fccc32082740fe34cd2a", "type": "electric_scooter", "bike_id": "5a3397b3f267fccc32082740fe34cd2a", "rental_uris": {"ios": "https://dc.lft.to/lastmile_qr_scan", "android": "https://dc.lft.to/lastmile_qr_scan"}, "fusion_lat": 0.0}, {"lat": 38.903553, "lon": -77.02153933333334, "is_disabled": 0, "fusion_lon": 0.0, "is_reserved": 0, "name": "316a101aae4aeac1aaca880923f8ec20", "type": "electric_scooter", "bike_id": "316a101aae4aeac1aaca880923f8ec20", "rental_uris": {"ios": "https://dc.lft.to/lastmile_qr_scan", "android": "https://dc.lft.to/lastmile_qr_scan"}, "fusion_lat": 0.0}, {"lat": 38.89175816666667, "lon": -76.92649616666667, "is_disabled": 0, "fusion_lon": 0.0, "is_reserved": 0, "name": "4856e690bde03df01a116e246e547427", "type": "electric_scooter", "bike_id": "4856e690bde03df01a116e246e547427", "rental_uris": {"ios": "https://dc.lft.to/lastmile_qr_scan", "android": "https://dc.lft.to/lastmile_qr_scan"}, "fusion_lat": 0.0}, {"lat": 38.91566566666667, "lon": -77.02006433333334, "is_disabled": 0, "fusion_lon": 0.0, "is_reserved": 0, "name": "ad224a22a3e127d81c847f77eca12686", "type": "electric_scooter", "bike_id": "ad224a22a3e127d81c847f77eca12686", "rental_uris": {"ios": "https://dc.lft.to/lastmile_qr_scan", "android": "https://dc.lft.to/lastmile_qr_scan"}, "fusion_lat": 0.0}, {"lat": 38.90829133333333, "lon": -77.03402783333334, "is_disabled": 0, "fusion_lon": 0.0, "is_reserved": 0, "name": "4ef33ea2f83606152918ed6193e34246", "type": "electric_scooter", "bike_id": "4ef33ea2f83606152918ed6193e34246", "rental_uris": {"ios": "https://dc.lft.to/lastmile_qr_scan", "android": "https://dc.lft.to/lastmile_qr_scan"}, "fusion_lat": 0.0}, {"lat": 38.90864766666667, "lon": -77.02247283333334, "is_disabled": 0, "fusion_lon": 0.0, "is_reserved": 0, "name": "12f2000f908c7feaae01cfd414dac0da", "type": "electric_scooter", "bike_id": "12f2000f908c7feaae01cfd414dac0da", "rental_uris": {"ios": "https://dc.lft.to/lastmile_qr_scan", "android": "https://dc.lft.to/lastmile_qr_scan"}, "fusion_lat": 0.0}, {"lat": 38.9010215, "lon": -76.9304905, "is_disabled": 0, "fusion_lon": 0.0, "is_reserved": 0, "name": "0ecfa24d5b0a7d4ea179c5bd468438e4", "type": "electric_scooter", "bike_id": "0ecfa24d5b0a7d4ea179c5bd468438e4", "rental_uris": {"ios": "https://dc.lft.to/lastmile_qr_scan", "android": "https://dc.lft.to/lastmile_qr_scan"}, "fusion_lat": 0.0}, {"lat": 38.86016583333333, "lon": -76.96705333333334, "is_disabled": 0, "fusion_lon": 0.0, "is_reserved": 0, "name": "302d154056f93c21e977a98234cdb528", "type": "electric_scooter", "bike_id": "302d154056f93c21e977a98234cdb528", "rental_uris": {"ios": "https://dc.lft.to/lastmile_qr_scan", "android": "https://dc.lft.to/lastmile_qr_scan"}, "fusion_lat": 0.0}, {"lat": 38.91688033333333, "lon": -77.0316665, "is_disabled": 0, "fusion_lon": 0.0, "is_reserved": 0, "name": "5bcc153dc8f60e8e47029382708eab02", "type": "electric_scooter", "bike_id": "5bcc153dc8f60e8e47029382708eab02", "rental_uris": {"ios": "https://dc.lft.to/lastmile_qr_scan", "android": "https://dc.lft.to/lastmile_qr_scan"}, "fusion_lat": 0.0}, {"lat": 38.927285166666664, "lon": -77.0227455, "is_disabled": 0, "fusion_lon": 0.0, "is_reserved": 0, "name": "1efd182495f2bb5657563fa98fc30c1e", "type": "electric_scooter", "bike_id": "1efd182495f2bb5657563fa98fc30c1e", "rental_uris": {"ios": "https://dc.lft.to/lastmile_qr_scan", "android": "https://dc.lft.to/lastmile_qr_scan"}, "fusion_lat": 0.0}, {"lat": 38.903902333333335, "lon": -77.05154383333333, "is_disabled": 0, "fusion_lon": 0.0, "is_reserved": 0, "name": "9aa1026bc1432841577e053ea7275c0c", "type": "electric_scooter", "bike_id": "9aa1026bc1432841577e053ea7275c0c", "rental_uris": {"ios": "https://dc.lft.to/lastmile_qr_scan", "android": "https://dc.lft.to/lastmile_qr_scan"}, "fusion_lat": 0.0}, {"lat": 38.91215566666666, "lon": -77.03852216666667, "is_disabled": 0, "fusion_lon": 0.0, "is_reserved": 0, "name": "30e7e26d4d12d388e50c7cfbb9a135e7", "type": "electric_scooter", "bike_id": "30e7e26d4d12d388e50c7cfbb9a135e7", "rental_uris": {"ios": "https://dc.lft.to/lastmile_qr_scan", "android": "https://dc.lft.to/lastmile_qr_scan"}, "fusion_lat": 0.0}, {"lat": 38.910378333333334, "lon": -77.02181066666667, "is_disabled": 0, "fusion_lon": 0.0, "is_reserved": 0, "name": "067b82c7c395ca24e717a7ec987d2fea", "type": "electric_scooter", "bike_id": "067b82c7c395ca24e717a7ec987d2fea", "rental_uris": {"ios": "https://dc.lft.to/lastmile_qr_scan", "android": "https://dc.lft.to/lastmile_qr_scan"}, "fusion_lat": 0.0}, {"lat": 38.92600433333333, "lon": -77.0322395, "is_disabled": 0, "fusion_lon": 0.0, "is_reserved": 0, "name": "69f841a6642bb2e6b37380a67b3196e7", "type": "electric_scooter", "bike_id": "69f841a6642bb2e6b37380a67b3196e7", "rental_uris": {"ios": "https://dc.lft.to/lastmile_qr_scan", "android": "https://dc.lft.to/lastmile_qr_scan"}, "fusion_lat": 0.0}, {"lat": 38.911995166666664, "lon": -77.01178533333334, "is_disabled": 0, "fusion_lon": 0.0, "is_reserved": 0, "name": "2f9934d5f4da52ba2b23e26777fed68e", "type": "electric_scooter", "bike_id": "2f9934d5f4da52ba2b23e26777fed68e", "rental_uris": {"ios": "https://dc.lft.to/lastmile_qr_scan", "android": "https://dc.lft.to/lastmile_qr_scan"}, "fusion_lat": 0.0}, {"lat": 38.91823483333334, "lon": -77.024211, "is_disabled": 0, "fusion_lon": 0.0, "is_reserved": 0, "name": "3da0fc57bebbb0f4c09958bdeb24dfa5", "type": "electric_scooter", "bike_id": "3da0fc57bebbb0f4c09958bdeb24dfa5", "rental_uris": {"ios": "https://dc.lft.to/lastmile_qr_scan", "android": "https://dc.lft.to/lastmile_qr_scan"}, "fusion_lat": 0.0}, {"lat": 38.89986916666667, "lon": -77.01646933333333, "is_disabled": 0, "fusion_lon": 0.0, "is_reserved": 0, "name": "d342d62a24331f81a978292908f52ac6", "type": "electric_scooter", "bike_id": "d342d62a24331f81a978292908f52ac6", "rental_uris": {"ios": "https://dc.lft.to/lastmile_qr_scan", "android": "https://dc.lft.to/lastmile_qr_scan"}, "fusion_lat": 0.0}, {"lat": 38.91127733333333, "lon": -77.02201, "is_disabled": 0, "fusion_lon": 0.0, "is_reserved": 0, "name": "87775e9f1e565dcf8b7b437403ab4d78", "type": "electric_scooter", "bike_id": "87775e9f1e565dcf8b7b437403ab4d78", "rental_uris": {"ios": "https://dc.lft.to/lastmile_qr_scan", "android": "https://dc.lft.to/lastmile_qr_scan"}, "fusion_lat": 0.0}, {"lat": 38.91367983333333, "lon": -77.02050683333333, "is_disabled": 0, "fusion_lon": 0.0, "is_reserved": 0, "name": "e7fa03023d27c89a1b910e076ef89d6c", "type": "electric_scooter", "bike_id": "e7fa03023d27c89a1b910e076ef89d6c", "rental_uris": {"ios": "https://dc.lft.to/lastmile_qr_scan", "android": "https://dc.lft.to/lastmile_qr_scan"}, "fusion_lat": 0.0}, {"lat": 38.9037385, "lon": -77.03989483333334, "is_disabled": 0, "fusion_lon": 0.0, "is_reserved": 0, "name": "6fa4629dec39711fa06ce7faed7ec06f", "type": "electric_scooter", "bike_id": "6fa4629dec39711fa06ce7faed7ec06f", "rental_uris": {"ios": "https://dc.lft.to/lastmile_qr_scan", "android": "https://dc.lft.to/lastmile_qr_scan"}, "fusion_lat": 0.0}, {"lat": 38.927367333333336, "lon": -76.995618, "is_disabled": 0, "fusion_lon": 0.0, "is_reserved": 0, "name": "136135ed3ad11667a5a8a26eb94e1b25", "type": "electric_scooter", "bike_id": "136135ed3ad11667a5a8a26eb94e1b25", "rental_uris": {"ios": "https://dc.lft.to/lastmile_qr_scan", "android": "https://dc.lft.to/lastmile_qr_scan"}, "fusion_lat": 0.0}, {"lat": 38.898969, "lon": -76.98498983333333, "is_disabled": 0, "fusion_lon": 0.0, "is_reserved": 0, "name": "018f5665c0fea07a5c639c2ef676870e", "type": "electric_scooter", "bike_id": "018f5665c0fea07a5c639c2ef676870e", "rental_uris": {"ios": "https://dc.lft.to/lastmile_qr_scan", "android": "https://dc.lft.to/lastmile_qr_scan"}, "fusion_lat": 0.0}, {"lat": 38.917931, "lon": -77.04437333333334, "is_disabled": 0, "fusion_lon": 0.0, "is_reserved": 0, "name": "267f31640f6f5c5ca6abd1e915b2bace", "type": "electric_scooter", "bike_id": "267f31640f6f5c5ca6abd1e915b2bace", "rental_uris": {"ios": "https://dc.lft.to/lastmile_qr_scan", "android": "https://dc.lft.to/lastmile_qr_scan"}, "fusion_lat": 0.0}, {"lat": 38.90573333333333, "lon": -77.008799, "is_disabled": 0, "fusion_lon": 0.0, "is_reserved": 0, "name": "0e8121c864288da8a35f58f21bd62a09", "type": "electric_scooter", "bike_id": "0e8121c864288da8a35f58f21bd62a09", "rental_uris": {"ios": "https://dc.lft.to/lastmile_qr_scan", "android": "https://dc.lft.to/lastmile_qr_scan"}, "fusion_lat": 0.0}, {"lat": 38.901172333333335, "lon": -77.0022125, "is_disabled": 0, "fusion_lon": 0.0, "is_reserved": 0, "name": "fdc9af836c756dc54eb5294f0476376b", "type": "electric_scooter", "bike_id": "fdc9af836c756dc54eb5294f0476376b", "rental_uris": {"ios": "https://dc.lft.to/lastmile_qr_scan", "android": "https://dc.lft.to/lastmile_qr_scan"}, "fusion_lat": 0.0}, {"lat": 38.89249316666667, "lon": -76.98842066666667, "is_disabled": 0, "fusion_lon": 0.0, "is_reserved": 0, "name": "8241b55a4b3eb8d5b2b3f96fca3efdf2", "type": "electric_scooter", "bike_id": "8241b55a4b3eb8d5b2b3f96fca3efdf2", "rental_uris": {"ios": "https://dc.lft.to/lastmile_qr_scan", "android": "https://dc.lft.to/lastmile_qr_scan"}, "fusion_lat": 0.0}, {"lat": 39.004863666666665, "lon": -77.0218745, "is_disabled": 0, "fusion_lon": 0.0, "is_reserved": 0, "name": "0876489bf9bcaf6d45ac30d6366cf294", "type": "electric_bike", "bike_id": "0876489bf9bcaf6d45ac30d6366cf294", "rental_uris": {"ios": "https://dc.lft.to/lastmile_qr_scan", "android": "https://dc.lft.to/lastmile_qr_scan"}, "fusion_lat": 0.0}, {"lat": 38.901664833333335, "lon": -77.01603916666667, "is_disabled": 0, "fusion_lon": 0.0, "is_reserved": 0, "name": "78bd67a2746f26d0eea7360c5ded7c4b", "type": "electric_scooter", "bike_id": "78bd67a2746f26d0eea7360c5ded7c4b", "rental_uris": {"ios": "https://dc.lft.to/lastmile_qr_scan", "android": "https://dc.lft.to/lastmile_qr_scan"}, "fusion_lat": 0.0}, {"lat": 38.87100866666667, "lon": -76.942075, "is_disabled": 0, "fusion_lon": 0.0, "is_reserved": 0, "name": "82f9981f8705172f2b3a4ca29a80e665", "type": "electric_scooter", "bike_id": "82f9981f8705172f2b3a4ca29a80e665", "rental_uris": {"ios": "https://dc.lft.to/lastmile_qr_scan", "android": "https://dc.lft.to/lastmile_qr_scan"}, "fusion_lat": 0.0}, {"lat": 38.884042, "lon": -76.96062716666667, "is_disabled": 0, "fusion_lon": 0.0, "is_reserved": 0, "name": "4e8a53a688fcd385094eb899cb68a38d", "type": "electric_bike", "bike_id": "4e8a53a688fcd385094eb899cb68a38d", "rental_uris": {"ios": "https://dc.lft.to/lastmile_qr_scan", "android": "https://dc.lft.to/lastmile_qr_scan"}, "fusion_lat": 0.0}, {"lat": 38.835838333333335, "lon": -76.99015566666667, "is_disabled": 0, "fusion_lon": 0.0, "is_reserved": 0, "name": "459d6cbf924c1d7ce1219ec9c1c2c342", "type": "electric_bike", "bike_id": "459d6cbf924c1d7ce1219ec9c1c2c342", "rental_uris": {"ios": "https://dc.lft.to/lastmile_qr_scan", "android": "https://dc.lft.to/lastmile_qr_scan"}, "fusion_lat": 0.0}, {"lat": 38.8766035, "lon": -77.00129216666667, "is_disabled": 0, "fusion_lon": 0.0, "is_reserved": 0, "name": "a8e0f9fdfd4fd814f68bc39d0d0d4994", "type": "electric_scooter", "bike_id": "a8e0f9fdfd4fd814f68bc39d0d0d4994", "rental_uris": {"ios": "https://dc.lft.to/lastmile_qr_scan", "android": "https://dc.lft.to/lastmile_qr_scan"}, "fusion_lat": 0.0}, {"lat": 38.90696483333333, "lon": -77.03190983333333, "is_disabled": 0, "fusion_lon": 0.0, "is_reserved": 0, "name": "c7e79bd2b967396a32a0868f4987a643", "type": "electric_scooter", "bike_id": "c7e79bd2b967396a32a0868f4987a643", "rental_uris": {"ios": "https://dc.lft.to/lastmile_qr_scan", "android": "https://dc.lft.to/lastmile_qr_scan"}, "fusion_lat": 0.0}, {"lat": 38.906871, "lon": -76.98506166666667, "is_disabled": 0, "fusion_lon": 0.0, "is_reserved": 0, "name": "919d9f6176acd758418dd80984a1817e", "type": "electric_scooter", "bike_id": "919d9f6176acd758418dd80984a1817e", "rental_uris": {"ios": "https://dc.lft.to/lastmile_qr_scan", "android": "https://dc.lft.to/lastmile_qr_scan"}, "fusion_lat": 0.0}, {"lat": 38.92973766666667, "lon": -77.027983, "is_disabled": 0, "fusion_lon": 0.0, "is_reserved": 0, "name": "c4f659f1384c1ee8850aeb0cefb647fa", "type": "electric_scooter", "bike_id": "c4f659f1384c1ee8850aeb0cefb647fa", "rental_uris": {"ios": "https://dc.lft.to/lastmile_qr_scan", "android": "https://dc.lft.to/lastmile_qr_scan"}, "fusion_lat": 0.0}, {"lat": 38.91191033333333, "lon": -77.03212266666667, "is_disabled": 0, "fusion_lon": 0.0, "is_reserved": 0, "name": "4d35e90d86ab2816c80b055c3e4788a3", "type": "electric_scooter", "bike_id": "4d35e90d86ab2816c80b055c3e4788a3", "rental_uris": {"ios": "https://dc.lft.to/lastmile_qr_scan", "android": "https://dc.lft.to/lastmile_qr_scan"}, "fusion_lat": 0.0}, {"lat": 38.911861, "lon": -77.04825733333334, "is_disabled": 0, "fusion_lon": 0.0, "is_reserved": 0, "name": "a55d36fe00d41a50516790d179bdb799", "type": "electric_scooter", "bike_id": "a55d36fe00d41a50516790d179bdb799", "rental_uris": {"ios": "https://dc.lft.to/lastmile_qr_scan", "android": "https://dc.lft.to/lastmile_qr_scan"}, "fusion_lat": 0.0}, {"lat": 38.902687666666665, "lon": -77.01523533333334, "is_disabled": 0, "fusion_lon": 0.0, "is_reserved": 0, "name": "05d507502306fa1cf5e303ebf394f559", "type": "electric_scooter", "bike_id": "05d507502306fa1cf5e303ebf394f559", "rental_uris": {"ios": "https://dc.lft.to/lastmile_qr_scan", "android": "https://dc.lft.to/lastmile_qr_scan"}, "fusion_lat": 0.0}, {"lat": 38.921207333333335, "lon": -77.01211283333333, "is_disabled": 0, "fusion_lon": 0.0, "is_reserved": 0, "name": "5867d0f89754e1344f3863e1de4c19df", "type": "electric_scooter", "bike_id": "5867d0f89754e1344f3863e1de4c19df", "rental_uris": {"ios": "https://dc.lft.to/lastmile_qr_scan", "android": "https://dc.lft.to/lastmile_qr_scan"}, "fusion_lat": 0.0}, {"lat": 38.8322625, "lon": -76.94616416666666, "is_disabled": 0, "fusion_lon": 0.0, "is_reserved": 0, "name": "ec70cbd8e2edaeffe868d7137516d1ed", "type": "electric_bike", "bike_id": "ec70cbd8e2edaeffe868d7137516d1ed", "rental_uris": {"ios": "https://dc.lft.to/lastmile_qr_scan", "android": "https://dc.lft.to/lastmile_qr_scan"}, "fusion_lat": 0.0}, {"lat": 38.908527666666664, "lon": -77.0197225, "is_disabled": 0, "fusion_lon": 0.0, "is_reserved": 0, "name": "14f7c8dd32cf1c72e051adbd8466be27", "type": "electric_scooter", "bike_id": "14f7c8dd32cf1c72e051adbd8466be27", "rental_uris": {"ios": "https://dc.lft.to/lastmile_qr_scan", "android": "https://dc.lft.to/lastmile_qr_scan"}, "fusion_lat": 0.0}, {"lat": 38.901437333333334, "lon": -76.98057766666666, "is_disabled": 0, "fusion_lon": 0.0, "is_reserved": 0, "name": "87fbbc4e5980adcc5b21d3bb7b287235", "type": "electric_scooter", "bike_id": "87fbbc4e5980adcc5b21d3bb7b287235", "rental_uris": {"ios": "https://dc.lft.to/lastmile_qr_scan", "android": "https://dc.lft.to/lastmile_qr_scan"}, "fusion_lat": 0.0}, {"lat": 38.906637833333335, "lon": -77.027143, "is_disabled": 0, "fusion_lon": 0.0, "is_reserved": 0, "name": "021b86e48ef52455d02c620d79cb5c66", "type": "electric_scooter", "bike_id": "021b86e48ef52455d02c620d79cb5c66", "rental_uris": {"ios": "https://dc.lft.to/lastmile_qr_scan", "android": "https://dc.lft.to/lastmile_qr_scan"}, "fusion_lat": 0.0}, {"lat": 38.8966395, "lon": -77.050559, "is_disabled": 0, "fusion_lon": 0.0, "is_reserved": 0, "name": "41bb5187248767a029bea44d2bfaa870", "type": "electric_scooter", "bike_id": "41bb5187248767a029bea44d2bfaa870", "rental_uris": {"ios": "https://dc.lft.to/lastmile_qr_scan", "android": "https://dc.lft.to/lastmile_qr_scan"}, "fusion_lat": 0.0}, {"lat": 38.91520516666667, "lon": -77.02203366666667, "is_disabled": 0, "fusion_lon": 0.0, "is_reserved": 0, "name": "3898401283d3980960dff2a209c42347", "type": "electric_scooter", "bike_id": "3898401283d3980960dff2a209c42347", "rental_uris": {"ios": "https://dc.lft.to/lastmile_qr_scan", "android": "https://dc.lft.to/lastmile_qr_scan"}, "fusion_lat": 0.0}, {"lat": 38.918245666666664, "lon": -77.02687933333333, "is_disabled": 0, "fusion_lon": 0.0, "is_reserved": 0, "name": "186fa0859d0050f18bba8cd4d7b593ce", "type": "electric_scooter", "bike_id": "186fa0859d0050f18bba8cd4d7b593ce", "rental_uris": {"ios": "https://dc.lft.to/lastmile_qr_scan", "android": "https://dc.lft.to/lastmile_qr_scan"}, "fusion_lat": 0.0}, {"lat": 38.91009016666667, "lon": -77.021019, "is_disabled": 0, "fusion_lon": 0.0, "is_reserved": 0, "name": "8c99afe8805874de33ece67b17f83a81", "type": "electric_scooter", "bike_id": "8c99afe8805874de33ece67b17f83a81", "rental_uris": {"ios": "https://dc.lft.to/lastmile_qr_scan", "android": "https://dc.lft.to/lastmile_qr_scan"}, "fusion_lat": 0.0}, {"lat": 38.91859216666667, "lon": -77.04841733333333, "is_disabled": 0, "fusion_lon": 0.0, "is_reserved": 0, "name": "777010463415806347e8388f5c4419fb", "type": "electric_scooter", "bike_id": "777010463415806347e8388f5c4419fb", "rental_uris": {"ios": "https://dc.lft.to/lastmile_qr_scan", "android": "https://dc.lft.to/lastmile_qr_scan"}, "fusion_lat": 0.0}, {"lat": 38.9233925, "lon": -77.03618016666667, "is_disabled": 0, "fusion_lon": 0.0, "is_reserved": 0, "name": "06bcc45d4f1f624dcae169ecc1793aaf", "type": "electric_scooter", "bike_id": "06bcc45d4f1f624dcae169ecc1793aaf", "rental_uris": {"ios": "https://dc.lft.to/lastmile_qr_scan", "android": "https://dc.lft.to/lastmile_qr_scan"}, "fusion_lat": 0.0}, {"lat": 38.905594, "lon": -77.04699333333333, "is_disabled": 0, "fusion_lon": 0.0, "is_reserved": 0, "name": "8de419e3111c90b127da6115c63fffbe", "type": "electric_bike", "bike_id": "8de419e3111c90b127da6115c63fffbe", "rental_uris": {"ios": "https://dc.lft.to/lastmile_qr_scan", "android": "https://dc.lft.to/lastmile_qr_scan"}, "fusion_lat": 0.0}, {"lat": 38.933570833333334, "lon": -77.0246725, "is_disabled": 0, "fusion_lon": 0.0, "is_reserved": 0, "name": "664cc9c4036c556dc21e5d591496a0ee", "type": "electric_scooter", "bike_id": "664cc9c4036c556dc21e5d591496a0ee", "rental_uris": {"ios": "https://dc.lft.to/lastmile_qr_scan", "android": "https://dc.lft.to/lastmile_qr_scan"}, "fusion_lat": 0.0}, {"lat": 38.966081333333335, "lon": -77.02741983333334, "is_disabled": 0, "fusion_lon": 0.0, "is_reserved": 0, "name": "ecfbffaabc26ee55c7e13e6350754601", "type": "electric_scooter", "bike_id": "ecfbffaabc26ee55c7e13e6350754601", "rental_uris": {"ios": "https://dc.lft.to/lastmile_qr_scan", "android": "https://dc.lft.to/lastmile_qr_scan"}, "fusion_lat": 0.0}, {"lat": 38.90695483333333, "lon": -77.03179733333333, "is_disabled": 0, "fusion_lon": 0.0, "is_reserved": 0, "name": "3514b9be62af90252d43c07d93f2ffba", "type": "electric_scooter", "bike_id": "3514b9be62af90252d43c07d93f2ffba", "rental_uris": {"ios": "https://dc.lft.to/lastmile_qr_scan", "android": "https://dc.lft.to/lastmile_qr_scan"}, "fusion_lat": 0.0}, {"lat": 38.900398, "lon": -77.0349535, "is_disabled": 0, "fusion_lon": 0.0, "is_reserved": 0, "name": "5d46214993732f7b83c3973911afcc93", "type": "electric_scooter", "bike_id": "5d46214993732f7b83c3973911afcc93", "rental_uris": {"ios": "https://dc.lft.to/lastmile_qr_scan", "android": "https://dc.lft.to/lastmile_qr_scan"}, "fusion_lat": 0.0}, {"lat": 38.9211975, "lon": -77.04137283333333, "is_disabled": 0, "fusion_lon": 0.0, "is_reserved": 0, "name": "9e1ba3f24e1afa61b187747d73fdbefe", "type": "electric_scooter", "bike_id": "9e1ba3f24e1afa61b187747d73fdbefe", "rental_uris": {"ios": "https://dc.lft.to/lastmile_qr_scan", "android": "https://dc.lft.to/lastmile_qr_scan"}, "fusion_lat": 0.0}, {"lat": 38.923731833333335, "lon": -77.00217966666666, "is_disabled": 0, "fusion_lon": 0.0, "is_reserved": 0, "name": "40746b1a0a418a819680e0301a88e261", "type": "electric_scooter", "bike_id": "40746b1a0a418a819680e0301a88e261", "rental_uris": {"ios": "https://dc.lft.to/lastmile_qr_scan", "android": "https://dc.lft.to/lastmile_qr_scan"}, "fusion_lat": 0.0}, {"lat": 38.92015, "lon": -77.02204283333333, "is_disabled": 0, "fusion_lon": 0.0, "is_reserved": 0, "name": "c1ef44e1b122f54f0a2fc128e680e213", "type": "electric_scooter", "bike_id": "c1ef44e1b122f54f0a2fc128e680e213", "rental_uris": {"ios": "https://dc.lft.to/lastmile_qr_scan", "android": "https://dc.lft.to/lastmile_qr_scan"}, "fusion_lat": 0.0}, {"lat": 38.895352333333335, "lon": -77.01126633333334, "is_disabled": 0, "fusion_lon": 0.0, "is_reserved": 0, "name": "976acc0881348bf8f029ed169032e6d4", "type": "electric_scooter", "bike_id": "976acc0881348bf8f029ed169032e6d4", "rental_uris": {"ios": "https://dc.lft.to/lastmile_qr_scan", "android": "https://dc.lft.to/lastmile_qr_scan"}, "fusion_lat": 0.0}, {"lat": 38.915981333333335, "lon": -77.01207816666667, "is_disabled": 0, "fusion_lon": 0.0, "is_reserved": 0, "name": "b5323c97b77e2ee50a59ebca474a1b25", "type": "electric_scooter", "bike_id": "b5323c97b77e2ee50a59ebca474a1b25", "rental_uris": {"ios": "https://dc.lft.to/lastmile_qr_scan", "android": "https://dc.lft.to/lastmile_qr_scan"}, "fusion_lat": 0.0}, {"lat": 38.919516, "lon": -77.041772, "is_disabled": 0, "fusion_lon": 0.0, "is_reserved": 0, "name": "968f2cfa378f8ae2844e23c0752100fe", "type": "electric_scooter", "bike_id": "968f2cfa378f8ae2844e23c0752100fe", "rental_uris": {"ios": "https://dc.lft.to/lastmile_qr_scan", "android": "https://dc.lft.to/lastmile_qr_scan"}, "fusion_lat": 0.0}, {"lat": 38.9126735, "lon": -77.03769266666667, "is_disabled": 0, "fusion_lon": 0.0, "is_reserved": 0, "name": "b78fe27bd46734cd9440c4de014d38ba", "type": "electric_scooter", "bike_id": "b78fe27bd46734cd9440c4de014d38ba", "rental_uris": {"ios": "https://dc.lft.to/lastmile_qr_scan", "android": "https://dc.lft.to/lastmile_qr_scan"}, "fusion_lat": 0.0}, {"lat": 38.895799, "lon": -76.98324533333333, "is_disabled": 0, "fusion_lon": 0.0, "is_reserved": 0, "name": "2b5abc1f0965a703bbe68255b4eeed86", "type": "electric_scooter", "bike_id": "2b5abc1f0965a703bbe68255b4eeed86", "rental_uris": {"ios": "https://dc.lft.to/lastmile_qr_scan", "android": "https://dc.lft.to/lastmile_qr_scan"}, "fusion_lat": 0.0}, {"lat": 38.949292, "lon": -77.00806616666667, "is_disabled": 0, "fusion_lon": 0.0, "is_reserved": 0, "name": "d83b96590bdfae80b205429e483fd2e4", "type": "electric_bike", "bike_id": "d83b96590bdfae80b205429e483fd2e4", "rental_uris": {"ios": "https://dc.lft.to/lastmile_qr_scan", "android": "https://dc.lft.to/lastmile_qr_scan"}, "fusion_lat": 0.0}, {"lat": 38.900517666666666, "lon": -77.0007025, "is_disabled": 0, "fusion_lon": 0.0, "is_reserved": 0, "name": "248d632dbfa8af03d879ac277fbcc030", "type": "electric_scooter", "bike_id": "248d632dbfa8af03d879ac277fbcc030", "rental_uris": {"ios": "https://dc.lft.to/lastmile_qr_scan", "android": "https://dc.lft.to/lastmile_qr_scan"}, "fusion_lat": 0.0}, {"lat": 38.92054733333333, "lon": -77.04197866666667, "is_disabled": 0, "fusion_lon": 0.0, "is_reserved": 0, "name": "e014807880cd08a20425178db0a0b141", "type": "electric_scooter", "bike_id": "e014807880cd08a20425178db0a0b141", "rental_uris": {"ios": "https://dc.lft.to/lastmile_qr_scan", "android": "https://dc.lft.to/lastmile_qr_scan"}, "fusion_lat": 0.0}, {"lat": 38.91829416666667, "lon": -77.0228435, "is_disabled": 0, "fusion_lon": 0.0, "is_reserved": 0, "name": "5aecb311a2673ebf19a382bac0a84373", "type": "electric_scooter", "bike_id": "5aecb311a2673ebf19a382bac0a84373", "rental_uris": {"ios": "https://dc.lft.to/lastmile_qr_scan", "android": "https://dc.lft.to/lastmile_qr_scan"}, "fusion_lat": 0.0}, {"lat": 38.89059783333333, "lon": -76.94454066666667, "is_disabled": 0, "fusion_lon": 0.0, "is_reserved": 0, "name": "7c847df056721cd65761b78cadc4bc77", "type": "electric_scooter", "bike_id": "7c847df056721cd65761b78cadc4bc77", "rental_uris": {"ios": "https://dc.lft.to/lastmile_qr_scan", "android": "https://dc.lft.to/lastmile_qr_scan"}, "fusion_lat": 0.0}, {"lat": 38.918252333333335, "lon": -77.0320665, "is_disabled": 0, "fusion_lon": 0.0, "is_reserved": 0, "name": "f6a22492a3d12b152fad9adcb6448a68", "type": "electric_scooter", "bike_id": "f6a22492a3d12b152fad9adcb6448a68", "rental_uris": {"ios": "https://dc.lft.to/lastmile_qr_scan", "android": "https://dc.lft.to/lastmile_qr_scan"}, "fusion_lat": 0.0}, {"lat": 38.9076135, "lon": -77.03582216666666, "is_disabled": 0, "fusion_lon": 0.0, "is_reserved": 0, "name": "043bacc3b9466a0ec14a5a65c9c258c1", "type": "electric_scooter", "bike_id": "043bacc3b9466a0ec14a5a65c9c258c1", "rental_uris": {"ios": "https://dc.lft.to/lastmile_qr_scan", "android": "https://dc.lft.to/lastmile_qr_scan"}, "fusion_lat": 0.0}, {"lat": 38.940873833333335, "lon": -77.02650433333334, "is_disabled": 0, "fusion_lon": 0.0, "is_reserved": 0, "name": "5fc99b40c11f0bd95b980039a7b131ad", "type": "electric_scooter", "bike_id": "5fc99b40c11f0bd95b980039a7b131ad", "rental_uris": {"ios": "https://dc.lft.to/lastmile_qr_scan", "android": "https://dc.lft.to/lastmile_qr_scan"}, "fusion_lat": 0.0}, {"lat": 38.927348333333335, "lon": -77.02255066666666, "is_disabled": 0, "fusion_lon": 0.0, "is_reserved": 0, "name": "e14f6f0c1e220472caaa0b701e337521", "type": "electric_scooter", "bike_id": "e14f6f0c1e220472caaa0b701e337521", "rental_uris": {"ios": "https://dc.lft.to/lastmile_qr_scan", "android": "https://dc.lft.to/lastmile_qr_scan"}, "fusion_lat": 0.0}, {"lat": 38.942943, "lon": -77.02173516666667, "is_disabled": 0, "fusion_lon": 0.0, "is_reserved": 0, "name": "ad880c298cf9e95e8bc9a075a3baa8a1", "type": "electric_scooter", "bike_id": "ad880c298cf9e95e8bc9a075a3baa8a1", "rental_uris": {"ios": "https://dc.lft.to/lastmile_qr_scan", "android": "https://dc.lft.to/lastmile_qr_scan"}, "fusion_lat": 0.0}, {"lat": 38.91551416666667, "lon": -77.03785566666667, "is_disabled": 0, "fusion_lon": 0.0, "is_reserved": 0, "name": "d48155067fa730e7cbe4e3c3b4f14829", "type": "electric_scooter", "bike_id": "d48155067fa730e7cbe4e3c3b4f14829", "rental_uris": {"ios": "https://dc.lft.to/lastmile_qr_scan", "android": "https://dc.lft.to/lastmile_qr_scan"}, "fusion_lat": 0.0}, {"lat": 38.91697816666667, "lon": -77.03040716666666, "is_disabled": 0, "fusion_lon": 0.0, "is_reserved": 0, "name": "9545a0079211326822703f70ab1445ef", "type": "electric_scooter", "bike_id": "9545a0079211326822703f70ab1445ef", "rental_uris": {"ios": "https://dc.lft.to/lastmile_qr_scan", "android": "https://dc.lft.to/lastmile_qr_scan"}, "fusion_lat": 0.0}, {"lat": 38.83937683333333, "lon": -77.07902216666666, "is_disabled": 0, "fusion_lon": 0.0, "is_reserved": 0, "name": "b21fcc11ef9e0bc18fcddaf01de57447", "type": "electric_bike", "bike_id": "b21fcc11ef9e0bc18fcddaf01de57447", "rental_uris": {"ios": "https://dc.lft.to/lastmile_qr_scan", "android": "https://dc.lft.to/lastmile_qr_scan"}, "fusion_lat": 0.0}, {"lat": 38.924814166666664, "lon": -77.02203466666667, "is_disabled": 0, "fusion_lon": 0.0, "is_reserved": 0, "name": "4813adea99ef2f3ea46ef4a02ec33808", "type": "electric_scooter", "bike_id": "4813adea99ef2f3ea46ef4a02ec33808", "rental_uris": {"ios": "https://dc.lft.to/lastmile_qr_scan", "android": "https://dc.lft.to/lastmile_qr_scan"}, "fusion_lat": 0.0}, {"lat": 38.90074283333333, "lon": -77.02706016666667, "is_disabled": 0, "fusion_lon": 0.0, "is_reserved": 0, "name": "661195755659669f5c162b9a338f8183", "type": "electric_scooter", "bike_id": "661195755659669f5c162b9a338f8183", "rental_uris": {"ios": "https://dc.lft.to/lastmile_qr_scan", "android": "https://dc.lft.to/lastmile_qr_scan"}, "fusion_lat": 0.0}, {"lat": 38.916846666666665, "lon": -77.02281583333334, "is_disabled": 0, "fusion_lon": 0.0, "is_reserved": 0, "name": "454bb7fbb1ceb90821cc60e8d305296b", "type": "electric_scooter", "bike_id": "454bb7fbb1ceb90821cc60e8d305296b", "rental_uris": {"ios": "https://dc.lft.to/lastmile_qr_scan", "android": "https://dc.lft.to/lastmile_qr_scan"}, "fusion_lat": 0.0}, {"lat": 38.931139, "lon": -77.02482333333333, "is_disabled": 0, "fusion_lon": 0.0, "is_reserved": 0, "name": "0846fc43cfac75a454beda810e3d0db3", "type": "electric_scooter", "bike_id": "0846fc43cfac75a454beda810e3d0db3", "rental_uris": {"ios": "https://dc.lft.to/lastmile_qr_scan", "android": "https://dc.lft.to/lastmile_qr_scan"}, "fusion_lat": 0.0}, {"lat": 38.90390716666667, "lon": -77.05150866666666, "is_disabled": 0, "fusion_lon": 0.0, "is_reserved": 0, "name": "f16373554170e98494a07c1914ed8218", "type": "electric_scooter", "bike_id": "f16373554170e98494a07c1914ed8218", "rental_uris": {"ios": "https://dc.lft.to/lastmile_qr_scan", "android": "https://dc.lft.to/lastmile_qr_scan"}, "fusion_lat": 0.0}, {"lat": 38.876572333333336, "lon": -77.01591733333333, "is_disabled": 0, "fusion_lon": 0.0, "is_reserved": 0, "name": "44d6557ca81d6dce6e6dc6f623175706", "type": "electric_scooter", "bike_id": "44d6557ca81d6dce6e6dc6f623175706", "rental_uris": {"ios": "https://dc.lft.to/lastmile_qr_scan", "android": "https://dc.lft.to/lastmile_qr_scan"}, "fusion_lat": 0.0}, {"lat": 38.899897, "lon": -77.01645933333333, "is_disabled": 0, "fusion_lon": 0.0, "is_reserved": 0, "name": "eb787e6a4d439fc25e4827e1153ee8f4", "type": "electric_scooter", "bike_id": "eb787e6a4d439fc25e4827e1153ee8f4", "rental_uris": {"ios": "https://dc.lft.to/lastmile_qr_scan", "android": "https://dc.lft.to/lastmile_qr_scan"}, "fusion_lat": 0.0}, {"lat": 38.90552616666667, "lon": -77.00189, "is_disabled": 0, "fusion_lon": 0.0, "is_reserved": 0, "name": "00247e387258f132253971db691633aa", "type": "electric_scooter", "bike_id": "00247e387258f132253971db691633aa", "rental_uris": {"ios": "https://dc.lft.to/lastmile_qr_scan", "android": "https://dc.lft.to/lastmile_qr_scan"}, "fusion_lat": 0.0}, {"lat": 38.906388666666665, "lon": -77.0346485, "is_disabled": 0, "fusion_lon": 0.0, "is_reserved": 0, "name": "767d7b4cee67cfdaaa0fb8b427c5a35b", "type": "electric_scooter", "bike_id": "767d7b4cee67cfdaaa0fb8b427c5a35b", "rental_uris": {"ios": "https://dc.lft.to/lastmile_qr_scan", "android": "https://dc.lft.to/lastmile_qr_scan"}, "fusion_lat": 0.0}, {"lat": 38.900285333333336, "lon": -76.98932833333333, "is_disabled": 0, "fusion_lon": 0.0, "is_reserved": 0, "name": "243a23953acc05855a975809a8739756", "type": "electric_scooter", "bike_id": "243a23953acc05855a975809a8739756", "rental_uris": {"ios": "https://dc.lft.to/lastmile_qr_scan", "android": "https://dc.lft.to/lastmile_qr_scan"}, "fusion_lat": 0.0}, {"lat": 38.90050933333333, "lon": -77.000735, "is_disabled": 0, "fusion_lon": 0.0, "is_reserved": 0, "name": "f8cf7e7acb580d7ce463042421d0c7ee", "type": "electric_scooter", "bike_id": "f8cf7e7acb580d7ce463042421d0c7ee", "rental_uris": {"ios": "https://dc.lft.to/lastmile_qr_scan", "android": "https://dc.lft.to/lastmile_qr_scan"}, "fusion_lat": 0.0}, {"lat": 38.90660183333333, "lon": -77.0269505, "is_disabled": 0, "fusion_lon": 0.0, "is_reserved": 0, "name": "2c574e179f38b6ac069894e0cb72cda1", "type": "electric_scooter", "bike_id": "2c574e179f38b6ac069894e0cb72cda1", "rental_uris": {"ios": "https://dc.lft.to/lastmile_qr_scan", "android": "https://dc.lft.to/lastmile_qr_scan"}, "fusion_lat": 0.0}, {"lat": 38.84129316666667, "lon": -77.06307616666666, "is_disabled": 0, "fusion_lon": 0.0, "is_reserved": 0, "name": "f64c5e8683ce3ae26554945c5bcd3486", "type": "electric_bike", "bike_id": "f64c5e8683ce3ae26554945c5bcd3486", "rental_uris": {"ios": "https://dc.lft.to/lastmile_qr_scan", "android": "https://dc.lft.to/lastmile_qr_scan"}, "fusion_lat": 0.0}, {"lat": 38.9496575, "lon": -77.06653283333333, "is_disabled": 0, "fusion_lon": 0.0, "is_reserved": 0, "name": "3097a48832460b437e549e712cf6c0bf", "type": "electric_scooter", "bike_id": "3097a48832460b437e549e712cf6c0bf", "rental_uris": {"ios": "https://dc.lft.to/lastmile_qr_scan", "android": "https://dc.lft.to/lastmile_qr_scan"}, "fusion_lat": 0.0}, {"lat": 38.91095466666667, "lon": -76.98481066666666, "is_disabled": 0, "fusion_lon": 0.0, "is_reserved": 0, "name": "1c70e1e0ab69b4b93a6dbebd004c5ccd", "type": "electric_bike", "bike_id": "1c70e1e0ab69b4b93a6dbebd004c5ccd", "rental_uris": {"ios": "https://dc.lft.to/lastmile_qr_scan", "android": "https://dc.lft.to/lastmile_qr_scan"}, "fusion_lat": 0.0}, {"lat": 38.809766333333336, "lon": -77.07662683333334, "is_disabled": 0, "fusion_lon": 0.0, "is_reserved": 0, "name": "cce3ba7ce2ffde6c9034ee1bc7a93ee2", "type": "electric_bike", "bike_id": "cce3ba7ce2ffde6c9034ee1bc7a93ee2", "rental_uris": {"ios": "https://dc.lft.to/lastmile_qr_scan", "android": "https://dc.lft.to/lastmile_qr_scan"}, "fusion_lat": 0.0}, {"lat": 38.90152716666667, "lon": -77.0150595, "is_disabled": 0, "fusion_lon": 0.0, "is_reserved": 0, "name": "7c73e3c1e674b27e11d19bde60b5de58", "type": "electric_scooter", "bike_id": "7c73e3c1e674b27e11d19bde60b5de58", "rental_uris": {"ios": "https://dc.lft.to/lastmile_qr_scan", "android": "https://dc.lft.to/lastmile_qr_scan"}, "fusion_lat": 0.0}, {"lat": 38.87480466666667, "lon": -77.00605866666666, "is_disabled": 0, "fusion_lon": 0.0, "is_reserved": 0, "name": "953cd405f2b0b4f93fc81ad6629e458f", "type": "electric_scooter", "bike_id": "953cd405f2b0b4f93fc81ad6629e458f", "rental_uris": {"ios": "https://dc.lft.to/lastmile_qr_scan", "android": "https://dc.lft.to/lastmile_qr_scan"}, "fusion_lat": 0.0}, {"lat": 38.9324615, "lon": -77.03283, "is_disabled": 0, "fusion_lon": 0.0, "is_reserved": 0, "name": "48f28ddeabe7e62a0c1e08ad6b8bee82", "type": "electric_scooter", "bike_id": "48f28ddeabe7e62a0c1e08ad6b8bee82", "rental_uris": {"ios": "https://dc.lft.to/lastmile_qr_scan", "android": "https://dc.lft.to/lastmile_qr_scan"}, "fusion_lat": 0.0}, {"lat": 38.909626, "lon": -77.0357105, "is_disabled": 0, "fusion_lon": 0.0, "is_reserved": 0, "name": "7184c36a4d8d2b3f37b8284da42745d7", "type": "electric_scooter", "bike_id": "7184c36a4d8d2b3f37b8284da42745d7", "rental_uris": {"ios": "https://dc.lft.to/lastmile_qr_scan", "android": "https://dc.lft.to/lastmile_qr_scan"}, "fusion_lat": 0.0}, {"lat": 38.915267666666665, "lon": -77.04467583333333, "is_disabled": 0, "fusion_lon": 0.0, "is_reserved": 0, "name": "e82c26b5fc715249361844cefcffaa60", "type": "electric_scooter", "bike_id": "e82c26b5fc715249361844cefcffaa60", "rental_uris": {"ios": "https://dc.lft.to/lastmile_qr_scan", "android": "https://dc.lft.to/lastmile_qr_scan"}, "fusion_lat": 0.0}, {"lat": 38.89595766666667, "lon": -76.98308666666667, "is_disabled": 0, "fusion_lon": 0.0, "is_reserved": 0, "name": "5f44d444f35b004a84368947d7f49cd9", "type": "electric_scooter", "bike_id": "5f44d444f35b004a84368947d7f49cd9", "rental_uris": {"ios": "https://dc.lft.to/lastmile_qr_scan", "android": "https://dc.lft.to/lastmile_qr_scan"}, "fusion_lat": 0.0}, {"lat": 38.89524133333333, "lon": -77.01102366666667, "is_disabled": 0, "fusion_lon": 0.0, "is_reserved": 0, "name": "0e780b451a5b86c7fc29357fe02e2a76", "type": "electric_scooter", "bike_id": "0e780b451a5b86c7fc29357fe02e2a76", "rental_uris": {"ios": "https://dc.lft.to/lastmile_qr_scan", "android": "https://dc.lft.to/lastmile_qr_scan"}, "fusion_lat": 0.0}, {"lat": 38.9209695, "lon": -77.02525216666666, "is_disabled": 0, "fusion_lon": 0.0, "is_reserved": 0, "name": "af8e4cc49ea6669a715ec0109fbd0ac3", "type": "electric_scooter", "bike_id": "af8e4cc49ea6669a715ec0109fbd0ac3", "rental_uris": {"ios": "https://dc.lft.to/lastmile_qr_scan", "android": "https://dc.lft.to/lastmile_qr_scan"}, "fusion_lat": 0.0}, {"lat": 38.9618245, "lon": -77.01430816666667, "is_disabled": 0, "fusion_lon": 0.0, "is_reserved": 0, "name": "5799163d6db8d8678514b5325038ba45", "type": "electric_scooter", "bike_id": "5799163d6db8d8678514b5325038ba45", "rental_uris": {"ios": "https://dc.lft.to/lastmile_qr_scan", "android": "https://dc.lft.to/lastmile_qr_scan"}, "fusion_lat": 0.0}, {"lat": 38.916615666666665, "lon": -77.02465066666667, "is_disabled": 0, "fusion_lon": 0.0, "is_reserved": 0, "name": "9ac267450d4117027b62e6002404fb7b", "type": "electric_scooter", "bike_id": "9ac267450d4117027b62e6002404fb7b", "rental_uris": {"ios": "https://dc.lft.to/lastmile_qr_scan", "android": "https://dc.lft.to/lastmile_qr_scan"}, "fusion_lat": 0.0}, {"lat": 38.921428, "lon": -77.0352995, "is_disabled": 0, "fusion_lon": 0.0, "is_reserved": 0, "name": "67172cf0a80c7f721be03a35eaa6e06a", "type": "electric_scooter", "bike_id": "67172cf0a80c7f721be03a35eaa6e06a", "rental_uris": {"ios": "https://dc.lft.to/lastmile_qr_scan", "android": "https://dc.lft.to/lastmile_qr_scan"}, "fusion_lat": 0.0}, {"lat": 38.8923025, "lon": -77.04999616666667, "is_disabled": 0, "fusion_lon": 0.0, "is_reserved": 0, "name": "641f33c4e695f181713b6929718f7b47", "type": "electric_scooter", "bike_id": "641f33c4e695f181713b6929718f7b47", "rental_uris": {"ios": "https://dc.lft.to/lastmile_qr_scan", "android": "https://dc.lft.to/lastmile_qr_scan"}, "fusion_lat": 0.0}, {"lat": 38.939718, "lon": -77.032634, "is_disabled": 0, "fusion_lon": 0.0, "is_reserved": 0, "name": "9a7eb3607af74c809369f8ee4112db11", "type": "electric_scooter", "bike_id": "9a7eb3607af74c809369f8ee4112db11", "rental_uris": {"ios": "https://dc.lft.to/lastmile_qr_scan", "android": "https://dc.lft.to/lastmile_qr_scan"}, "fusion_lat": 0.0}, {"lat": 38.90164516666667, "lon": -77.02163116666667, "is_disabled": 0, "fusion_lon": 0.0, "is_reserved": 0, "name": "6b581fe03ef649cfbc4d78eecd3bb232", "type": "electric_scooter", "bike_id": "6b581fe03ef649cfbc4d78eecd3bb232", "rental_uris": {"ios": "https://dc.lft.to/lastmile_qr_scan", "android": "https://dc.lft.to/lastmile_qr_scan"}, "fusion_lat": 0.0}, {"lat": 38.859998, "lon": -77.05755933333333, "is_disabled": 0, "fusion_lon": 0.0, "is_reserved": 0, "name": "3a4b89ed58c5c39552860ec63bf52214", "type": "electric_bike", "bike_id": "3a4b89ed58c5c39552860ec63bf52214", "rental_uris": {"ios": "https://dc.lft.to/lastmile_qr_scan", "android": "https://dc.lft.to/lastmile_qr_scan"}, "fusion_lat": 0.0}, {"lat": 38.897319833333334, "lon": -77.01764966666667, "is_disabled": 0, "fusion_lon": 0.0, "is_reserved": 0, "name": "f1a01c2d1c1fbba5f57f3049d7413058", "type": "electric_scooter", "bike_id": "f1a01c2d1c1fbba5f57f3049d7413058", "rental_uris": {"ios": "https://dc.lft.to/lastmile_qr_scan", "android": "https://dc.lft.to/lastmile_qr_scan"}, "fusion_lat": 0.0}, {"lat": 38.917074166666666, "lon": -77.032477, "is_disabled": 0, "fusion_lon": 0.0, "is_reserved": 0, "name": "5bebe62103d93920362866456a23bbf9", "type": "electric_scooter", "bike_id": "5bebe62103d93920362866456a23bbf9", "rental_uris": {"ios": "https://dc.lft.to/lastmile_qr_scan", "android": "https://dc.lft.to/lastmile_qr_scan"}, "fusion_lat": 0.0}, {"lat": 38.90739766666667, "lon": -77.0279855, "is_disabled": 0, "fusion_lon": 0.0, "is_reserved": 0, "name": "43c7028e0db72a7e545ef59a290e22af", "type": "electric_scooter", "bike_id": "43c7028e0db72a7e545ef59a290e22af", "rental_uris": {"ios": "https://dc.lft.to/lastmile_qr_scan", "android": "https://dc.lft.to/lastmile_qr_scan"}, "fusion_lat": 0.0}, {"lat": 38.924371666666666, "lon": -77.04034683333333, "is_disabled": 0, "fusion_lon": 0.0, "is_reserved": 0, "name": "af24c211e04c6b83cf2786853ae67eef", "type": "electric_scooter", "bike_id": "af24c211e04c6b83cf2786853ae67eef", "rental_uris": {"ios": "https://dc.lft.to/lastmile_qr_scan", "android": "https://dc.lft.to/lastmile_qr_scan"}, "fusion_lat": 0.0}, {"lat": 38.99782066666667, "lon": -77.04719133333333, "is_disabled": 0, "fusion_lon": 0.0, "is_reserved": 0, "name": "7644190fe7485f647f2369ea88e4c8d7", "type": "electric_bike", "bike_id": "7644190fe7485f647f2369ea88e4c8d7", "rental_uris": {"ios": "https://dc.lft.to/lastmile_qr_scan", "android": "https://dc.lft.to/lastmile_qr_scan"}, "fusion_lat": 0.0}, {"lat": 38.923906333333335, "lon": -77.02539516666667, "is_disabled": 0, "fusion_lon": 0.0, "is_reserved": 0, "name": "81c1e010c440540e98a78a4c1b496113", "type": "electric_scooter", "bike_id": "81c1e010c440540e98a78a4c1b496113", "rental_uris": {"ios": "https://dc.lft.to/lastmile_qr_scan", "android": "https://dc.lft.to/lastmile_qr_scan"}, "fusion_lat": 0.0}, {"lat": 38.919616500000004, "lon": -77.01491216666666, "is_disabled": 0, "fusion_lon": 0.0, "is_reserved": 0, "name": "a742e50688ac73b8db4c52e6cdaefb76", "type": "electric_scooter", "bike_id": "a742e50688ac73b8db4c52e6cdaefb76", "rental_uris": {"ios": "https://dc.lft.to/lastmile_qr_scan", "android": "https://dc.lft.to/lastmile_qr_scan"}, "fusion_lat": 0.0}, {"lat": 38.94283166666666, "lon": -77.02934283333333, "is_disabled": 0, "fusion_lon": 0.0, "is_reserved": 0, "name": "a6515beb2b16b93340af73fee2e0404d", "type": "electric_scooter", "bike_id": "a6515beb2b16b93340af73fee2e0404d", "rental_uris": {"ios": "https://dc.lft.to/lastmile_qr_scan", "android": "https://dc.lft.to/lastmile_qr_scan"}, "fusion_lat": 0.0}, {"lat": 38.9220915, "lon": -77.08191566666666, "is_disabled": 0, "fusion_lon": 0.0, "is_reserved": 0, "name": "67bc51e4028f4ff682387f37c78a7e00", "type": "electric_bike", "bike_id": "67bc51e4028f4ff682387f37c78a7e00", "rental_uris": {"ios": "https://dc.lft.to/lastmile_qr_scan", "android": "https://dc.lft.to/lastmile_qr_scan"}, "fusion_lat": 0.0}, {"lat": 38.89237966666666, "lon": -77.03189333333333, "is_disabled": 0, "fusion_lon": 0.0, "is_reserved": 0, "name": "235f54ee8dde70e69d9cce922de702e1", "type": "electric_scooter", "bike_id": "235f54ee8dde70e69d9cce922de702e1", "rental_uris": {"ios": "https://dc.lft.to/lastmile_qr_scan", "android": "https://dc.lft.to/lastmile_qr_scan"}, "fusion_lat": 0.0}, {"lat": 38.909910333333336, "lon": -77.07341233333334, "is_disabled": 0, "fusion_lon": 0.0, "is_reserved": 0, "name": "8dbc68ce70b561258ac2b049b3711331", "type": "electric_scooter", "bike_id": "8dbc68ce70b561258ac2b049b3711331", "rental_uris": {"ios": "https://dc.lft.to/lastmile_qr_scan", "android": "https://dc.lft.to/lastmile_qr_scan"}, "fusion_lat": 0.0}, {"lat": 38.920759833333335, "lon": -77.0315385, "is_disabled": 0, "fusion_lon": 0.0, "is_reserved": 0, "name": "fb1f055f4c465153afcbf94d699b6a70", "type": "electric_scooter", "bike_id": "fb1f055f4c465153afcbf94d699b6a70", "rental_uris": {"ios": "https://dc.lft.to/lastmile_qr_scan", "android": "https://dc.lft.to/lastmile_qr_scan"}, "fusion_lat": 0.0}, {"lat": 38.92026466666667, "lon": -77.071632, "is_disabled": 0, "fusion_lon": 0.0, "is_reserved": 0, "name": "2d0fce06b268d76e7b82dd26916015cf", "type": "electric_scooter", "bike_id": "2d0fce06b268d76e7b82dd26916015cf", "rental_uris": {"ios": "https://dc.lft.to/lastmile_qr_scan", "android": "https://dc.lft.to/lastmile_qr_scan"}, "fusion_lat": 0.0}, {"lat": 38.94338583333333, "lon": -76.98318816666666, "is_disabled": 0, "fusion_lon": 0.0, "is_reserved": 0, "name": "8c711020c4e317749698d18047c5d64c", "type": "electric_scooter", "bike_id": "8c711020c4e317749698d18047c5d64c", "rental_uris": {"ios": "https://dc.lft.to/lastmile_qr_scan", "android": "https://dc.lft.to/lastmile_qr_scan"}, "fusion_lat": 0.0}, {"lat": 38.92459266666667, "lon": -77.03965133333334, "is_disabled": 0, "fusion_lon": 0.0, "is_reserved": 0, "name": "7532815d29bab007db8f55abebdb2ed3", "type": "electric_scooter", "bike_id": "7532815d29bab007db8f55abebdb2ed3", "rental_uris": {"ios": "https://dc.lft.to/lastmile_qr_scan", "android": "https://dc.lft.to/lastmile_qr_scan"}, "fusion_lat": 0.0}, {"lat": 38.91929733333333, "lon": -77.03218133333333, "is_disabled": 0, "fusion_lon": 0.0, "is_reserved": 0, "name": "479910b4aaded83b73bb94219229783b", "type": "electric_scooter", "bike_id": "479910b4aaded83b73bb94219229783b", "rental_uris": {"ios": "https://dc.lft.to/lastmile_qr_scan", "android": "https://dc.lft.to/lastmile_qr_scan"}, "fusion_lat": 0.0}, {"lat": 38.9234285, "lon": -77.051793, "is_disabled": 0, "fusion_lon": 0.0, "is_reserved": 0, "name": "ec145b4164accc7b55f4f490a2c4be9d", "type": "electric_scooter", "bike_id": "ec145b4164accc7b55f4f490a2c4be9d", "rental_uris": {"ios": "https://dc.lft.to/lastmile_qr_scan", "android": "https://dc.lft.to/lastmile_qr_scan"}, "fusion_lat": 0.0}, {"lat": 38.914287, "lon": -77.03185733333333, "is_disabled": 0, "fusion_lon": 0.0, "is_reserved": 0, "name": "792a5e7a1735b85224b03c3032cdc002", "type": "electric_scooter", "bike_id": "792a5e7a1735b85224b03c3032cdc002", "rental_uris": {"ios": "https://dc.lft.to/lastmile_qr_scan", "android": "https://dc.lft.to/lastmile_qr_scan"}, "fusion_lat": 0.0}, {"lat": 38.875451166666664, "lon": -77.00536033333333, "is_disabled": 0, "fusion_lon": 0.0, "is_reserved": 0, "name": "3483e1e493361d50ca571957cb8eb88c", "type": "electric_scooter", "bike_id": "3483e1e493361d50ca571957cb8eb88c", "rental_uris": {"ios": "https://dc.lft.to/lastmile_qr_scan", "android": "https://dc.lft.to/lastmile_qr_scan"}, "fusion_lat": 0.0}, {"lat": 38.9660825, "lon": -77.0274155, "is_disabled": 0, "fusion_lon": 0.0, "is_reserved": 0, "name": "37d9ede0f71563e5d3b1817e2fe553e4", "type": "electric_scooter", "bike_id": "37d9ede0f71563e5d3b1817e2fe553e4", "rental_uris": {"ios": "https://dc.lft.to/lastmile_qr_scan", "android": "https://dc.lft.to/lastmile_qr_scan"}, "fusion_lat": 0.0}, {"lat": 38.86758066666667, "lon": -76.9453515, "is_disabled": 0, "fusion_lon": 0.0, "is_reserved": 0, "name": "f24b6082f579329d74380a7e6f025640", "type": "electric_bike", "bike_id": "f24b6082f579329d74380a7e6f025640", "rental_uris": {"ios": "https://dc.lft.to/lastmile_qr_scan", "android": "https://dc.lft.to/lastmile_qr_scan"}, "fusion_lat": 0.0}, {"lat": 38.96459566666667, "lon": -77.035684, "is_disabled": 0, "fusion_lon": 0.0, "is_reserved": 0, "name": "709d248f62ebdb53fb10d78566383c61", "type": "electric_bike", "bike_id": "709d248f62ebdb53fb10d78566383c61", "rental_uris": {"ios": "https://dc.lft.to/lastmile_qr_scan", "android": "https://dc.lft.to/lastmile_qr_scan"}, "fusion_lat": 0.0}, {"lat": 38.906455666666666, "lon": -77.0143585, "is_disabled": 0, "fusion_lon": 0.0, "is_reserved": 0, "name": "9d3d1e3addc1b000f5657d0bd20ec7a6", "type": "electric_scooter", "bike_id": "9d3d1e3addc1b000f5657d0bd20ec7a6", "rental_uris": {"ios": "https://dc.lft.to/lastmile_qr_scan", "android": "https://dc.lft.to/lastmile_qr_scan"}, "fusion_lat": 0.0}, {"lat": 38.876688333333334, "lon": -76.9927325, "is_disabled": 0, "fusion_lon": 0.0, "is_reserved": 0, "name": "f9fb13a2bd284f05b6c6c4eb09593e83", "type": "electric_scooter", "bike_id": "f9fb13a2bd284f05b6c6c4eb09593e83", "rental_uris": {"ios": "https://dc.lft.to/lastmile_qr_scan", "android": "https://dc.lft.to/lastmile_qr_scan"}, "fusion_lat": 0.0}, {"lat": 38.8938265, "lon": -76.923095, "is_disabled": 0, "fusion_lon": 0.0, "is_reserved": 0, "name": "5a0a7a2092eb8af76a7029b042ca7b24", "type": "electric_scooter", "bike_id": "5a0a7a2092eb8af76a7029b042ca7b24", "rental_uris": {"ios": "https://dc.lft.to/lastmile_qr_scan", "android": "https://dc.lft.to/lastmile_qr_scan"}, "fusion_lat": 0.0}, {"lat": 38.953571333333336, "lon": -76.98096516666666, "is_disabled": 0, "fusion_lon": 0.0, "is_reserved": 0, "name": "ffa8120d68fe1e5a7e5670a744266bd7", "type": "electric_bike", "bike_id": "ffa8120d68fe1e5a7e5670a744266bd7", "rental_uris": {"ios": "https://dc.lft.to/lastmile_qr_scan", "android": "https://dc.lft.to/lastmile_qr_scan"}, "fusion_lat": 0.0}, {"lat": 38.90441383333334, "lon": -77.02848016666667, "is_disabled": 0, "fusion_lon": 0.0, "is_reserved": 0, "name": "5441066396c5e74ef25b2c2ee7ee7a71", "type": "electric_scooter", "bike_id": "5441066396c5e74ef25b2c2ee7ee7a71", "rental_uris": {"ios": "https://dc.lft.to/lastmile_qr_scan", "android": "https://dc.lft.to/lastmile_qr_scan"}, "fusion_lat": 0.0}, {"lat": 38.900144833333336, "lon": -76.9890515, "is_disabled": 0, "fusion_lon": 0.0, "is_reserved": 0, "name": "07b51a07814379c071b0672257497338", "type": "electric_scooter", "bike_id": "07b51a07814379c071b0672257497338", "rental_uris": {"ios": "https://dc.lft.to/lastmile_qr_scan", "android": "https://dc.lft.to/lastmile_qr_scan"}, "fusion_lat": 0.0}, {"lat": 38.933281, "lon": -77.032675, "is_disabled": 0, "fusion_lon": 0.0, "is_reserved": 0, "name": "e826ec46fa477c0af9a078e53a4e682b", "type": "electric_scooter", "bike_id": "e826ec46fa477c0af9a078e53a4e682b", "rental_uris": {"ios": "https://dc.lft.to/lastmile_qr_scan", "android": "https://dc.lft.to/lastmile_qr_scan"}, "fusion_lat": 0.0}, {"lat": 38.8873195, "lon": -77.023834, "is_disabled": 0, "fusion_lon": 0.0, "is_reserved": 0, "name": "afd18383d9663b2bb7fdec52e726461d", "type": "electric_scooter", "bike_id": "afd18383d9663b2bb7fdec52e726461d", "rental_uris": {"ios": "https://dc.lft.to/lastmile_qr_scan", "android": "https://dc.lft.to/lastmile_qr_scan"}, "fusion_lat": 0.0}, {"lat": 38.91799916666667, "lon": -77.02487933333333, "is_disabled": 0, "fusion_lon": 0.0, "is_reserved": 0, "name": "0dafcfc682da8365eeb3e12d6aeace59", "type": "electric_scooter", "bike_id": "0dafcfc682da8365eeb3e12d6aeace59", "rental_uris": {"ios": "https://dc.lft.to/lastmile_qr_scan", "android": "https://dc.lft.to/lastmile_qr_scan"}, "fusion_lat": 0.0}, {"lat": 38.9123305, "lon": -77.015249, "is_disabled": 0, "fusion_lon": 0.0, "is_reserved": 0, "name": "8a8680f2455f55be396abf7a65d44353", "type": "electric_scooter", "bike_id": "8a8680f2455f55be396abf7a65d44353", "rental_uris": {"ios": "https://dc.lft.to/lastmile_qr_scan", "android": "https://dc.lft.to/lastmile_qr_scan"}, "fusion_lat": 0.0}, {"lat": 38.9236265, "lon": -77.03202166666667, "is_disabled": 0, "fusion_lon": 0.0, "is_reserved": 0, "name": "c687dfd09221290a81ab9075e3d9b64e", "type": "electric_scooter", "bike_id": "c687dfd09221290a81ab9075e3d9b64e", "rental_uris": {"ios": "https://dc.lft.to/lastmile_qr_scan", "android": "https://dc.lft.to/lastmile_qr_scan"}, "fusion_lat": 0.0}, {"lat": 38.91669783333333, "lon": -77.047139, "is_disabled": 0, "fusion_lon": 0.0, "is_reserved": 0, "name": "b2f2c856fad22da451611bf0b5cd4151", "type": "electric_scooter", "bike_id": "b2f2c856fad22da451611bf0b5cd4151", "rental_uris": {"ios": "https://dc.lft.to/lastmile_qr_scan", "android": "https://dc.lft.to/lastmile_qr_scan"}, "fusion_lat": 0.0}, {"lat": 38.916721, "lon": -77.023905, "is_disabled": 0, "fusion_lon": 0.0, "is_reserved": 0, "name": "f972518765f36691ad7c35f54af8606e", "type": "electric_scooter", "bike_id": "f972518765f36691ad7c35f54af8606e", "rental_uris": {"ios": "https://dc.lft.to/lastmile_qr_scan", "android": "https://dc.lft.to/lastmile_qr_scan"}, "fusion_lat": 0.0}, {"lat": 38.961433666666665, "lon": -77.02793816666667, "is_disabled": 0, "fusion_lon": 0.0, "is_reserved": 0, "name": "edd95d91fbbcc843a46e94501116c874", "type": "electric_scooter", "bike_id": "edd95d91fbbcc843a46e94501116c874", "rental_uris": {"ios": "https://dc.lft.to/lastmile_qr_scan", "android": "https://dc.lft.to/lastmile_qr_scan"}, "fusion_lat": 0.0}, {"lat": 38.90789566666667, "lon": -77.03865866666666, "is_disabled": 0, "fusion_lon": 0.0, "is_reserved": 0, "name": "0f23aaa85bb8b297acabae3f404294cf", "type": "electric_scooter", "bike_id": "0f23aaa85bb8b297acabae3f404294cf", "rental_uris": {"ios": "https://dc.lft.to/lastmile_qr_scan", "android": "https://dc.lft.to/lastmile_qr_scan"}, "fusion_lat": 0.0}, {"lat": 38.917967833333336, "lon": -77.0270485, "is_disabled": 0, "fusion_lon": 0.0, "is_reserved": 0, "name": "19c045dddefb8c48ba7ad3d32a4bd6f9", "type": "electric_scooter", "bike_id": "19c045dddefb8c48ba7ad3d32a4bd6f9", "rental_uris": {"ios": "https://dc.lft.to/lastmile_qr_scan", "android": "https://dc.lft.to/lastmile_qr_scan"}, "fusion_lat": 0.0}, {"lat": 38.887535, "lon": -76.99761633333334, "is_disabled": 0, "fusion_lon": 0.0, "is_reserved": 0, "name": "72f5fd2386bc3adc3f3e0c0f25fca5bc", "type": "electric_scooter", "bike_id": "72f5fd2386bc3adc3f3e0c0f25fca5bc", "rental_uris": {"ios": "https://dc.lft.to/lastmile_qr_scan", "android": "https://dc.lft.to/lastmile_qr_scan"}, "fusion_lat": 0.0}, {"lat": 38.899874833333335, "lon": -77.01643566666667, "is_disabled": 0, "fusion_lon": 0.0, "is_reserved": 0, "name": "ebcc7440329db10bd2b9eac5eac875c4", "type": "electric_scooter", "bike_id": "ebcc7440329db10bd2b9eac5eac875c4", "rental_uris": {"ios": "https://dc.lft.to/lastmile_qr_scan", "android": "https://dc.lft.to/lastmile_qr_scan"}, "fusion_lat": 0.0}, {"lat": 38.922421666666665, "lon": -77.07314716666667, "is_disabled": 0, "fusion_lon": 0.0, "is_reserved": 0, "name": "ab4d42ad4ee416ee661371fa234824b2", "type": "electric_scooter", "bike_id": "ab4d42ad4ee416ee661371fa234824b2", "rental_uris": {"ios": "https://dc.lft.to/lastmile_qr_scan", "android": "https://dc.lft.to/lastmile_qr_scan"}, "fusion_lat": 0.0}, {"lat": 38.913335833333335, "lon": -77.03711616666666, "is_disabled": 0, "fusion_lon": 0.0, "is_reserved": 0, "name": "5eba36aaac61b2207ae3d94e68dfac29", "type": "electric_scooter", "bike_id": "5eba36aaac61b2207ae3d94e68dfac29", "rental_uris": {"ios": "https://dc.lft.to/lastmile_qr_scan", "android": "https://dc.lft.to/lastmile_qr_scan"}, "fusion_lat": 0.0}, {"lat": 38.91113133333333, "lon": -77.01277166666667, "is_disabled": 0, "fusion_lon": 0.0, "is_reserved": 0, "name": "de9ccb887fd2c48a0b1566186ea7f422", "type": "electric_scooter", "bike_id": "de9ccb887fd2c48a0b1566186ea7f422", "rental_uris": {"ios": "https://dc.lft.to/lastmile_qr_scan", "android": "https://dc.lft.to/lastmile_qr_scan"}, "fusion_lat": 0.0}, {"lat": 38.9125835, "lon": -77.03867916666667, "is_disabled": 0, "fusion_lon": 0.0, "is_reserved": 0, "name": "eec98a33a7f2d60a815f64b028fed8d9", "type": "electric_scooter", "bike_id": "eec98a33a7f2d60a815f64b028fed8d9", "rental_uris": {"ios": "https://dc.lft.to/lastmile_qr_scan", "android": "https://dc.lft.to/lastmile_qr_scan"}, "fusion_lat": 0.0}, {"lat": 38.9104035, "lon": -77.04260283333333, "is_disabled": 0, "fusion_lon": 0.0, "is_reserved": 0, "name": "8fd7af4b83968a48f3648a74a34d1f8a", "type": "electric_scooter", "bike_id": "8fd7af4b83968a48f3648a74a34d1f8a", "rental_uris": {"ios": "https://dc.lft.to/lastmile_qr_scan", "android": "https://dc.lft.to/lastmile_qr_scan"}, "fusion_lat": 0.0}, {"lat": 38.916930666666666, "lon": -77.024913, "is_disabled": 0, "fusion_lon": 0.0, "is_reserved": 0, "name": "e03cbfbbcd4e7f72c7516587f59c420b", "type": "electric_scooter", "bike_id": "e03cbfbbcd4e7f72c7516587f59c420b", "rental_uris": {"ios": "https://dc.lft.to/lastmile_qr_scan", "android": "https://dc.lft.to/lastmile_qr_scan"}, "fusion_lat": 0.0}, {"lat": 38.914528, "lon": -77.0417775, "is_disabled": 0, "fusion_lon": 0.0, "is_reserved": 0, "name": "954301526442b1bc4226a56b6f17c913", "type": "electric_scooter", "bike_id": "954301526442b1bc4226a56b6f17c913", "rental_uris": {"ios": "https://dc.lft.to/lastmile_qr_scan", "android": "https://dc.lft.to/lastmile_qr_scan"}, "fusion_lat": 0.0}, {"lat": 38.87404816666667, "lon": -77.00032366666667, "is_disabled": 0, "fusion_lon": 0.0, "is_reserved": 0, "name": "7d2cfdd79729017087d7b36e270bae08", "type": "electric_scooter", "bike_id": "7d2cfdd79729017087d7b36e270bae08", "rental_uris": {"ios": "https://dc.lft.to/lastmile_qr_scan", "android": "https://dc.lft.to/lastmile_qr_scan"}, "fusion_lat": 0.0}, {"lat": 38.95206566666667, "lon": -77.02733916666666, "is_disabled": 0, "fusion_lon": 0.0, "is_reserved": 0, "name": "1a6687533ff634ad7f02bc0c48ff39b6", "type": "electric_scooter", "bike_id": "1a6687533ff634ad7f02bc0c48ff39b6", "rental_uris": {"ios": "https://dc.lft.to/lastmile_qr_scan", "android": "https://dc.lft.to/lastmile_qr_scan"}, "fusion_lat": 0.0}, {"lat": 38.91359116666667, "lon": -77.04353783333333, "is_disabled": 0, "fusion_lon": 0.0, "is_reserved": 0, "name": "5b4f97d0000c54e0eaecc71c3e874e5a", "type": "electric_scooter", "bike_id": "5b4f97d0000c54e0eaecc71c3e874e5a", "rental_uris": {"ios": "https://dc.lft.to/lastmile_qr_scan", "android": "https://dc.lft.to/lastmile_qr_scan"}, "fusion_lat": 0.0}, {"lat": 38.92568583333333, "lon": -77.05260333333334, "is_disabled": 0, "fusion_lon": 0.0, "is_reserved": 0, "name": "7d0292df1588c0d09986ade14f6cea03", "type": "electric_scooter", "bike_id": "7d0292df1588c0d09986ade14f6cea03", "rental_uris": {"ios": "https://dc.lft.to/lastmile_qr_scan", "android": "https://dc.lft.to/lastmile_qr_scan"}, "fusion_lat": 0.0}, {"lat": 38.92055466666667, "lon": -77.02358033333333, "is_disabled": 0, "fusion_lon": 0.0, "is_reserved": 0, "name": "39a5908dc9206203df776ac56a11b205", "type": "electric_scooter", "bike_id": "39a5908dc9206203df776ac56a11b205", "rental_uris": {"ios": "https://dc.lft.to/lastmile_qr_scan", "android": "https://dc.lft.to/lastmile_qr_scan"}, "fusion_lat": 0.0}, {"lat": 38.903947333333335, "lon": -76.9894465, "is_disabled": 0, "fusion_lon": 0.0, "is_reserved": 0, "name": "b5da736a17cf8ca543e9ed9466545bc6", "type": "electric_scooter", "bike_id": "b5da736a17cf8ca543e9ed9466545bc6", "rental_uris": {"ios": "https://dc.lft.to/lastmile_qr_scan", "android": "https://dc.lft.to/lastmile_qr_scan"}, "fusion_lat": 0.0}, {"lat": 38.89554166666667, "lon": -77.02150683333333, "is_disabled": 0, "fusion_lon": 0.0, "is_reserved": 0, "name": "9bda2614b639af7545a98bee70564650", "type": "electric_scooter", "bike_id": "9bda2614b639af7545a98bee70564650", "rental_uris": {"ios": "https://dc.lft.to/lastmile_qr_scan", "android": "https://dc.lft.to/lastmile_qr_scan"}, "fusion_lat": 0.0}, {"lat": 38.9332965, "lon": -77.029136, "is_disabled": 0, "fusion_lon": 0.0, "is_reserved": 0, "name": "ef096aedf8053df7c7b5dd95badce6ec", "type": "electric_scooter", "bike_id": "ef096aedf8053df7c7b5dd95badce6ec", "rental_uris": {"ios": "https://dc.lft.to/lastmile_qr_scan", "android": "https://dc.lft.to/lastmile_qr_scan"}, "fusion_lat": 0.0}, {"lat": 38.932004, "lon": -77.02820516666667, "is_disabled": 0, "fusion_lon": 0.0, "is_reserved": 0, "name": "11a885059cbc2b169456ecdbb6197b29", "type": "electric_scooter", "bike_id": "11a885059cbc2b169456ecdbb6197b29", "rental_uris": {"ios": "https://dc.lft.to/lastmile_qr_scan", "android": "https://dc.lft.to/lastmile_qr_scan"}, "fusion_lat": 0.0}, {"lat": 38.914164666666665, "lon": -77.021757, "is_disabled": 0, "fusion_lon": 0.0, "is_reserved": 0, "name": "d9fc4e004c1e4c706e8f5b7d1ac0c41d", "type": "electric_scooter", "bike_id": "d9fc4e004c1e4c706e8f5b7d1ac0c41d", "rental_uris": {"ios": "https://dc.lft.to/lastmile_qr_scan", "android": "https://dc.lft.to/lastmile_qr_scan"}, "fusion_lat": 0.0}, {"lat": 38.918907833333336, "lon": -77.02951333333333, "is_disabled": 0, "fusion_lon": 0.0, "is_reserved": 0, "name": "41847c89fa7d994ca8679ac1ba168e61", "type": "electric_scooter", "bike_id": "41847c89fa7d994ca8679ac1ba168e61", "rental_uris": {"ios": "https://dc.lft.to/lastmile_qr_scan", "android": "https://dc.lft.to/lastmile_qr_scan"}, "fusion_lat": 0.0}, {"lat": 38.898164333333334, "lon": -76.99080883333333, "is_disabled": 0, "fusion_lon": 0.0, "is_reserved": 0, "name": "96295f219a6c856746a51145aed5471e", "type": "electric_bike", "bike_id": "96295f219a6c856746a51145aed5471e", "rental_uris": {"ios": "https://dc.lft.to/lastmile_qr_scan", "android": "https://dc.lft.to/lastmile_qr_scan"}, "fusion_lat": 0.0}, {"lat": 38.9938585, "lon": -76.928858, "is_disabled": 0, "fusion_lon": 0.0, "is_reserved": 0, "name": "8bdaf0d7ab5dffac57acb249e3a791c6", "type": "electric_bike", "bike_id": "8bdaf0d7ab5dffac57acb249e3a791c6", "rental_uris": {"ios": "https://dc.lft.to/lastmile_qr_scan", "android": "https://dc.lft.to/lastmile_qr_scan"}, "fusion_lat": 0.0}, {"lat": 38.916917833333336, "lon": -77.02631366666667, "is_disabled": 0, "fusion_lon": 0.0, "is_reserved": 0, "name": "d3762b613ad1a7b699c2abe03fb4559b", "type": "electric_scooter", "bike_id": "d3762b613ad1a7b699c2abe03fb4559b", "rental_uris": {"ios": "https://dc.lft.to/lastmile_qr_scan", "android": "https://dc.lft.to/lastmile_qr_scan"}, "fusion_lat": 0.0}, {"lat": 38.93101466666667, "lon": -77.02665816666666, "is_disabled": 0, "fusion_lon": 0.0, "is_reserved": 0, "name": "644fbed9d5341c5a117405aabcdc838a", "type": "electric_scooter", "bike_id": "644fbed9d5341c5a117405aabcdc838a", "rental_uris": {"ios": "https://dc.lft.to/lastmile_qr_scan", "android": "https://dc.lft.to/lastmile_qr_scan"}, "fusion_lat": 0.0}, {"lat": 38.93247516666667, "lon": -77.032839, "is_disabled": 0, "fusion_lon": 0.0, "is_reserved": 0, "name": "cdf4c27b72f7c4af669daeeb8c2e2ae4", "type": "electric_scooter", "bike_id": "cdf4c27b72f7c4af669daeeb8c2e2ae4", "rental_uris": {"ios": "https://dc.lft.to/lastmile_qr_scan", "android": "https://dc.lft.to/lastmile_qr_scan"}, "fusion_lat": 0.0}, {"lat": 38.88462666666667, "lon": -76.95227916666667, "is_disabled": 0, "fusion_lon": 0.0, "is_reserved": 0, "name": "e4de6bb6fa7719b19017074038507f1a", "type": "electric_bike", "bike_id": "e4de6bb6fa7719b19017074038507f1a", "rental_uris": {"ios": "https://dc.lft.to/lastmile_qr_scan", "android": "https://dc.lft.to/lastmile_qr_scan"}, "fusion_lat": 0.0}, {"lat": 38.9310765, "lon": -77.03467616666667, "is_disabled": 0, "fusion_lon": 0.0, "is_reserved": 0, "name": "acd60bda6c6b4cc3d230a5af7e677e18", "type": "electric_bike", "bike_id": "acd60bda6c6b4cc3d230a5af7e677e18", "rental_uris": {"ios": "https://dc.lft.to/lastmile_qr_scan", "android": "https://dc.lft.to/lastmile_qr_scan"}, "fusion_lat": 0.0}, {"lat": 38.94919266666667, "lon": -77.00795483333333, "is_disabled": 0, "fusion_lon": 0.0, "is_reserved": 0, "name": "539fb4123db8f0c43497ba62eb7519e6", "type": "electric_bike", "bike_id": "539fb4123db8f0c43497ba62eb7519e6", "rental_uris": {"ios": "https://dc.lft.to/lastmile_qr_scan", "android": "https://dc.lft.to/lastmile_qr_scan"}, "fusion_lat": 0.0}, {"lat": 38.92481866666667, "lon": -77.03531683333334, "is_disabled": 0, "fusion_lon": 0.0, "is_reserved": 0, "name": "9302a1414b116c9b06894bf9b21123a7", "type": "electric_scooter", "bike_id": "9302a1414b116c9b06894bf9b21123a7", "rental_uris": {"ios": "https://dc.lft.to/lastmile_qr_scan", "android": "https://dc.lft.to/lastmile_qr_scan"}, "fusion_lat": 0.0}, {"lat": 38.91494333333333, "lon": -77.0345965, "is_disabled": 0, "fusion_lon": 0.0, "is_reserved": 0, "name": "d0eac73c1d6bed7ee3da3fe94434771a", "type": "electric_scooter", "bike_id": "d0eac73c1d6bed7ee3da3fe94434771a", "rental_uris": {"ios": "https://dc.lft.to/lastmile_qr_scan", "android": "https://dc.lft.to/lastmile_qr_scan"}, "fusion_lat": 0.0}, {"lat": 38.89630916666667, "lon": -77.0213655, "is_disabled": 0, "fusion_lon": 0.0, "is_reserved": 0, "name": "a718175b2e012168364cb255f78641cc", "type": "electric_scooter", "bike_id": "a718175b2e012168364cb255f78641cc", "rental_uris": {"ios": "https://dc.lft.to/lastmile_qr_scan", "android": "https://dc.lft.to/lastmile_qr_scan"}, "fusion_lat": 0.0}, {"lat": 38.916992666666665, "lon": -77.03039716666666, "is_disabled": 0, "fusion_lon": 0.0, "is_reserved": 0, "name": "2b644ec4281a58749841e94ba9f186d4", "type": "electric_scooter", "bike_id": "2b644ec4281a58749841e94ba9f186d4", "rental_uris": {"ios": "https://dc.lft.to/lastmile_qr_scan", "android": "https://dc.lft.to/lastmile_qr_scan"}, "fusion_lat": 0.0}, {"lat": 38.90506516666667, "lon": -77.05913233333334, "is_disabled": 0, "fusion_lon": 0.0, "is_reserved": 0, "name": "713889faf7cb1231d93276dafff9504b", "type": "electric_scooter", "bike_id": "713889faf7cb1231d93276dafff9504b", "rental_uris": {"ios": "https://dc.lft.to/lastmile_qr_scan", "android": "https://dc.lft.to/lastmile_qr_scan"}, "fusion_lat": 0.0}, {"lat": 38.92156966666667, "lon": -77.033796, "is_disabled": 0, "fusion_lon": 0.0, "is_reserved": 0, "name": "e023fcc4ef4d73adcb8fe37df8ee5c8b", "type": "electric_scooter", "bike_id": "e023fcc4ef4d73adcb8fe37df8ee5c8b", "rental_uris": {"ios": "https://dc.lft.to/lastmile_qr_scan", "android": "https://dc.lft.to/lastmile_qr_scan"}, "fusion_lat": 0.0}, {"lat": 38.898458166666664, "lon": -76.94254333333333, "is_disabled": 0, "fusion_lon": 0.0, "is_reserved": 0, "name": "0eb56200bdc2a66cf957e9f186f2f919", "type": "electric_scooter", "bike_id": "0eb56200bdc2a66cf957e9f186f2f919", "rental_uris": {"ios": "https://dc.lft.to/lastmile_qr_scan", "android": "https://dc.lft.to/lastmile_qr_scan"}, "fusion_lat": 0.0}, {"lat": 38.9162755, "lon": -77.02692033333334, "is_disabled": 0, "fusion_lon": 0.0, "is_reserved": 0, "name": "67e306741152f4bf7771449e0b2a8525", "type": "electric_scooter", "bike_id": "67e306741152f4bf7771449e0b2a8525", "rental_uris": {"ios": "https://dc.lft.to/lastmile_qr_scan", "android": "https://dc.lft.to/lastmile_qr_scan"}, "fusion_lat": 0.0}, {"lat": 38.9229675, "lon": -76.99766683333333, "is_disabled": 0, "fusion_lon": 0.0, "is_reserved": 0, "name": "6635362caa57154652422f99d615d8da", "type": "electric_scooter", "bike_id": "6635362caa57154652422f99d615d8da", "rental_uris": {"ios": "https://dc.lft.to/lastmile_qr_scan", "android": "https://dc.lft.to/lastmile_qr_scan"}, "fusion_lat": 0.0}, {"lat": 38.87460033333333, "lon": -77.0054755, "is_disabled": 0, "fusion_lon": 0.0, "is_reserved": 0, "name": "54ae82dab907b640db2e078baee58ba4", "type": "electric_scooter", "bike_id": "54ae82dab907b640db2e078baee58ba4", "rental_uris": {"ios": "https://dc.lft.to/lastmile_qr_scan", "android": "https://dc.lft.to/lastmile_qr_scan"}, "fusion_lat": 0.0}, {"lat": 38.923827833333334, "lon": -77.03542, "is_disabled": 0, "fusion_lon": 0.0, "is_reserved": 0, "name": "2f30909dd19795062ac90330205a3812", "type": "electric_scooter", "bike_id": "2f30909dd19795062ac90330205a3812", "rental_uris": {"ios": "https://dc.lft.to/lastmile_qr_scan", "android": "https://dc.lft.to/lastmile_qr_scan"}, "fusion_lat": 0.0}, {"lat": 38.88125383333333, "lon": -77.016714, "is_disabled": 0, "fusion_lon": 0.0, "is_reserved": 0, "name": "f7d64d7297568dc9841eb0b291dfdd5e", "type": "electric_scooter", "bike_id": "f7d64d7297568dc9841eb0b291dfdd5e", "rental_uris": {"ios": "https://dc.lft.to/lastmile_qr_scan", "android": "https://dc.lft.to/lastmile_qr_scan"}, "fusion_lat": 0.0}, {"lat": 38.94259533333334, "lon": -76.99065716666667, "is_disabled": 0, "fusion_lon": 0.0, "is_reserved": 0, "name": "88fbe4c456e9f9ff55a8b5011f2819b0", "type": "electric_bike", "bike_id": "88fbe4c456e9f9ff55a8b5011f2819b0", "rental_uris": {"ios": "https://dc.lft.to/lastmile_qr_scan", "android": "https://dc.lft.to/lastmile_qr_scan"}, "fusion_lat": 0.0}, {"lat": 38.91822833333333, "lon": -77.012042, "is_disabled": 0, "fusion_lon": 0.0, "is_reserved": 0, "name": "03586096b20bad76f4eb335349603ba9", "type": "electric_scooter", "bike_id": "03586096b20bad76f4eb335349603ba9", "rental_uris": {"ios": "https://dc.lft.to/lastmile_qr_scan", "android": "https://dc.lft.to/lastmile_qr_scan"}, "fusion_lat": 0.0}, {"lat": 38.921884666666664, "lon": -77.0401705, "is_disabled": 0, "fusion_lon": 0.0, "is_reserved": 0, "name": "683f8363767a5c54b3a9054a88df03dd", "type": "electric_scooter", "bike_id": "683f8363767a5c54b3a9054a88df03dd", "rental_uris": {"ios": "https://dc.lft.to/lastmile_qr_scan", "android": "https://dc.lft.to/lastmile_qr_scan"}, "fusion_lat": 0.0}, {"lat": 38.916374166666664, "lon": -77.042369, "is_disabled": 0, "fusion_lon": 0.0, "is_reserved": 0, "name": "aa4465ec574cf1eb652e66fce3d87ee7", "type": "electric_scooter", "bike_id": "aa4465ec574cf1eb652e66fce3d87ee7", "rental_uris": {"ios": "https://dc.lft.to/lastmile_qr_scan", "android": "https://dc.lft.to/lastmile_qr_scan"}, "fusion_lat": 0.0}, {"lat": 38.902676666666665, "lon": -77.053208, "is_disabled": 0, "fusion_lon": 0.0, "is_reserved": 0, "name": "fac2f969aadd2143c204fa6329a77817", "type": "electric_scooter", "bike_id": "fac2f969aadd2143c204fa6329a77817", "rental_uris": {"ios": "https://dc.lft.to/lastmile_qr_scan", "android": "https://dc.lft.to/lastmile_qr_scan"}, "fusion_lat": 0.0}, {"lat": 38.91754666666667, "lon": -77.03999433333334, "is_disabled": 0, "fusion_lon": 0.0, "is_reserved": 0, "name": "34db5404d8a9f6d16d3003c4484da970", "type": "electric_scooter", "bike_id": "34db5404d8a9f6d16d3003c4484da970", "rental_uris": {"ios": "https://dc.lft.to/lastmile_qr_scan", "android": "https://dc.lft.to/lastmile_qr_scan"}, "fusion_lat": 0.0}, {"lat": 38.93897333333334, "lon": -76.9860815, "is_disabled": 0, "fusion_lon": 0.0, "is_reserved": 0, "name": "d571a6c20ae3d0302d5eb7b1a545932d", "type": "electric_scooter", "bike_id": "d571a6c20ae3d0302d5eb7b1a545932d", "rental_uris": {"ios": "https://dc.lft.to/lastmile_qr_scan", "android": "https://dc.lft.to/lastmile_qr_scan"}, "fusion_lat": 0.0}, {"lat": 38.89731783333333, "lon": -77.04966366666666, "is_disabled": 0, "fusion_lon": 0.0, "is_reserved": 0, "name": "d2c9b589a6380e74a346e398b39b02ce", "type": "electric_scooter", "bike_id": "d2c9b589a6380e74a346e398b39b02ce", "rental_uris": {"ios": "https://dc.lft.to/lastmile_qr_scan", "android": "https://dc.lft.to/lastmile_qr_scan"}, "fusion_lat": 0.0}, {"lat": 38.91859866666667, "lon": -77.0366555, "is_disabled": 0, "fusion_lon": 0.0, "is_reserved": 0, "name": "67c2b5b7b7f55a628a5558f254886fa2", "type": "electric_scooter", "bike_id": "67c2b5b7b7f55a628a5558f254886fa2", "rental_uris": {"ios": "https://dc.lft.to/lastmile_qr_scan", "android": "https://dc.lft.to/lastmile_qr_scan"}, "fusion_lat": 0.0}, {"lat": 38.92604816666667, "lon": -77.02158533333333, "is_disabled": 0, "fusion_lon": 0.0, "is_reserved": 0, "name": "2dad173b256915496a7d58c3fd59dbe7", "type": "electric_scooter", "bike_id": "2dad173b256915496a7d58c3fd59dbe7", "rental_uris": {"ios": "https://dc.lft.to/lastmile_qr_scan", "android": "https://dc.lft.to/lastmile_qr_scan"}, "fusion_lat": 0.0}, {"lat": 38.908339166666664, "lon": -76.9997925, "is_disabled": 0, "fusion_lon": 0.0, "is_reserved": 0, "name": "47c1568976d202109bb2d08307e02f9c", "type": "electric_scooter", "bike_id": "47c1568976d202109bb2d08307e02f9c", "rental_uris": {"ios": "https://dc.lft.to/lastmile_qr_scan", "android": "https://dc.lft.to/lastmile_qr_scan"}, "fusion_lat": 0.0}, {"lat": 38.92350416666667, "lon": -77.035226, "is_disabled": 0, "fusion_lon": 0.0, "is_reserved": 0, "name": "a82f7c8584eaf43d74940d62b0db4bcc", "type": "electric_scooter", "bike_id": "a82f7c8584eaf43d74940d62b0db4bcc", "rental_uris": {"ios": "https://dc.lft.to/lastmile_qr_scan", "android": "https://dc.lft.to/lastmile_qr_scan"}, "fusion_lat": 0.0}, {"lat": 38.97502033333333, "lon": -77.0168505, "is_disabled": 0, "fusion_lon": 0.0, "is_reserved": 0, "name": "102e2eaedc2d2564f5659201baa390a7", "type": "electric_scooter", "bike_id": "102e2eaedc2d2564f5659201baa390a7", "rental_uris": {"ios": "https://dc.lft.to/lastmile_qr_scan", "android": "https://dc.lft.to/lastmile_qr_scan"}, "fusion_lat": 0.0}, {"lat": 38.88729433333334, "lon": -76.98360733333334, "is_disabled": 0, "fusion_lon": 0.0, "is_reserved": 0, "name": "294e7474edb16637a3b460377aa12847", "type": "electric_scooter", "bike_id": "294e7474edb16637a3b460377aa12847", "rental_uris": {"ios": "https://dc.lft.to/lastmile_qr_scan", "android": "https://dc.lft.to/lastmile_qr_scan"}, "fusion_lat": 0.0}, {"lat": 38.8755485, "lon": -77.00605866666666, "is_disabled": 0, "fusion_lon": 0.0, "is_reserved": 0, "name": "1bea3c3ea306d9d78c493760c6878f5d", "type": "electric_scooter", "bike_id": "1bea3c3ea306d9d78c493760c6878f5d", "rental_uris": {"ios": "https://dc.lft.to/lastmile_qr_scan", "android": "https://dc.lft.to/lastmile_qr_scan"}, "fusion_lat": 0.0}, {"lat": 38.902845666666664, "lon": -77.0279105, "is_disabled": 0, "fusion_lon": 0.0, "is_reserved": 0, "name": "ef702b997cef86fe30ea29ac399c140a", "type": "electric_scooter", "bike_id": "ef702b997cef86fe30ea29ac399c140a", "rental_uris": {"ios": "https://dc.lft.to/lastmile_qr_scan", "android": "https://dc.lft.to/lastmile_qr_scan"}, "fusion_lat": 0.0}, {"lat": 38.9089175, "lon": -77.03208566666666, "is_disabled": 0, "fusion_lon": 0.0, "is_reserved": 0, "name": "1addd2f2a932b787fd4a2492c69a024b", "type": "electric_bike", "bike_id": "1addd2f2a932b787fd4a2492c69a024b", "rental_uris": {"ios": "https://dc.lft.to/lastmile_qr_scan", "android": "https://dc.lft.to/lastmile_qr_scan"}, "fusion_lat": 0.0}, {"lat": 38.92345916666667, "lon": -77.0517105, "is_disabled": 0, "fusion_lon": 0.0, "is_reserved": 0, "name": "8e4bac6ab5ff9d1895d6b5227d91fb27", "type": "electric_scooter", "bike_id": "8e4bac6ab5ff9d1895d6b5227d91fb27", "rental_uris": {"ios": "https://dc.lft.to/lastmile_qr_scan", "android": "https://dc.lft.to/lastmile_qr_scan"}, "fusion_lat": 0.0}, {"lat": 38.884198166666664, "lon": -76.9421365, "is_disabled": 0, "fusion_lon": 0.0, "is_reserved": 0, "name": "46d780d5199e8f55100ee52026fc544c", "type": "electric_scooter", "bike_id": "46d780d5199e8f55100ee52026fc544c", "rental_uris": {"ios": "https://dc.lft.to/lastmile_qr_scan", "android": "https://dc.lft.to/lastmile_qr_scan"}, "fusion_lat": 0.0}, {"lat": 38.8952235, "lon": -77.04477516666667, "is_disabled": 0, "fusion_lon": 0.0, "is_reserved": 0, "name": "a367989b778d398c756baaf045d5b715", "type": "electric_scooter", "bike_id": "a367989b778d398c756baaf045d5b715", "rental_uris": {"ios": "https://dc.lft.to/lastmile_qr_scan", "android": "https://dc.lft.to/lastmile_qr_scan"}, "fusion_lat": 0.0}, {"lat": 38.933277833333335, "lon": -77.032626, "is_disabled": 0, "fusion_lon": 0.0, "is_reserved": 0, "name": "3732653196d56ca55057a06ecbff1d9b", "type": "electric_scooter", "bike_id": "3732653196d56ca55057a06ecbff1d9b", "rental_uris": {"ios": "https://dc.lft.to/lastmile_qr_scan", "android": "https://dc.lft.to/lastmile_qr_scan"}, "fusion_lat": 0.0}, {"lat": 38.90562533333333, "lon": -77.00588816666667, "is_disabled": 0, "fusion_lon": 0.0, "is_reserved": 0, "name": "266b4fe19c3777cc0255258be2ac437e", "type": "electric_scooter", "bike_id": "266b4fe19c3777cc0255258be2ac437e", "rental_uris": {"ios": "https://dc.lft.to/lastmile_qr_scan", "android": "https://dc.lft.to/lastmile_qr_scan"}, "fusion_lat": 0.0}, {"lat": 38.94662533333333, "lon": -76.956718, "is_disabled": 0, "fusion_lon": 0.0, "is_reserved": 0, "name": "193d19fedec3596cb27f5466517b8ea6", "type": "electric_bike", "bike_id": "193d19fedec3596cb27f5466517b8ea6", "rental_uris": {"ios": "https://dc.lft.to/lastmile_qr_scan", "android": "https://dc.lft.to/lastmile_qr_scan"}, "fusion_lat": 0.0}, {"lat": 38.9371385, "lon": -77.03638433333333, "is_disabled": 0, "fusion_lon": 0.0, "is_reserved": 0, "name": "7bc7c7ec0abb74c33dcd5c111bd1738f", "type": "electric_scooter", "bike_id": "7bc7c7ec0abb74c33dcd5c111bd1738f", "rental_uris": {"ios": "https://dc.lft.to/lastmile_qr_scan", "android": "https://dc.lft.to/lastmile_qr_scan"}, "fusion_lat": 0.0}, {"lat": 38.914084, "lon": -77.02486866666666, "is_disabled": 0, "fusion_lon": 0.0, "is_reserved": 0, "name": "0226e6fc4f15d745a86cd92dcda1d59d", "type": "electric_scooter", "bike_id": "0226e6fc4f15d745a86cd92dcda1d59d", "rental_uris": {"ios": "https://dc.lft.to/lastmile_qr_scan", "android": "https://dc.lft.to/lastmile_qr_scan"}, "fusion_lat": 0.0}, {"lat": 38.9160325, "lon": -77.049054, "is_disabled": 0, "fusion_lon": 0.0, "is_reserved": 0, "name": "acfc31203e5ecaeb90155c94b1c7d31d", "type": "electric_scooter", "bike_id": "acfc31203e5ecaeb90155c94b1c7d31d", "rental_uris": {"ios": "https://dc.lft.to/lastmile_qr_scan", "android": "https://dc.lft.to/lastmile_qr_scan"}, "fusion_lat": 0.0}, {"lat": 38.915774666666664, "lon": -77.0363905, "is_disabled": 0, "fusion_lon": 0.0, "is_reserved": 0, "name": "efde0fd861e1b00605a99d3a0552e6bc", "type": "electric_scooter", "bike_id": "efde0fd861e1b00605a99d3a0552e6bc", "rental_uris": {"ios": "https://dc.lft.to/lastmile_qr_scan", "android": "https://dc.lft.to/lastmile_qr_scan"}, "fusion_lat": 0.0}, {"lat": 38.898832, "lon": -77.053612, "is_disabled": 0, "fusion_lon": 0.0, "is_reserved": 0, "name": "8e2b697c6d3252e77dc0139b380cbaca", "type": "electric_scooter", "bike_id": "8e2b697c6d3252e77dc0139b380cbaca", "rental_uris": {"ios": "https://dc.lft.to/lastmile_qr_scan", "android": "https://dc.lft.to/lastmile_qr_scan"}, "fusion_lat": 0.0}, {"lat": 38.8784815, "lon": -77.01943566666667, "is_disabled": 0, "fusion_lon": 0.0, "is_reserved": 0, "name": "09ab839496e7ae779d46d3fcab7ebc24", "type": "electric_scooter", "bike_id": "09ab839496e7ae779d46d3fcab7ebc24", "rental_uris": {"ios": "https://dc.lft.to/lastmile_qr_scan", "android": "https://dc.lft.to/lastmile_qr_scan"}, "fusion_lat": 0.0}, {"lat": 38.9025895, "lon": -77.0154945, "is_disabled": 0, "fusion_lon": 0.0, "is_reserved": 0, "name": "618aa7e33f24d0132129c64207b8887a", "type": "electric_scooter", "bike_id": "618aa7e33f24d0132129c64207b8887a", "rental_uris": {"ios": "https://dc.lft.to/lastmile_qr_scan", "android": "https://dc.lft.to/lastmile_qr_scan"}, "fusion_lat": 0.0}, {"lat": 38.934543833333336, "lon": -77.0387345, "is_disabled": 0, "fusion_lon": 0.0, "is_reserved": 0, "name": "60cc8f71bffc60bf807061a4b1d64757", "type": "electric_scooter", "bike_id": "60cc8f71bffc60bf807061a4b1d64757", "rental_uris": {"ios": "https://dc.lft.to/lastmile_qr_scan", "android": "https://dc.lft.to/lastmile_qr_scan"}, "fusion_lat": 0.0}, {"lat": 38.89223883333333, "lon": -77.04506733333334, "is_disabled": 0, "fusion_lon": 0.0, "is_reserved": 0, "name": "0838a6843cafa33b2c40ee8487194bb7", "type": "electric_scooter", "bike_id": "0838a6843cafa33b2c40ee8487194bb7", "rental_uris": {"ios": "https://dc.lft.to/lastmile_qr_scan", "android": "https://dc.lft.to/lastmile_qr_scan"}, "fusion_lat": 0.0}, {"lat": 38.91696533333333, "lon": -77.02744716666666, "is_disabled": 0, "fusion_lon": 0.0, "is_reserved": 0, "name": "f92934652949c6ed2d9e2c41594d8ddc", "type": "electric_scooter", "bike_id": "f92934652949c6ed2d9e2c41594d8ddc", "rental_uris": {"ios": "https://dc.lft.to/lastmile_qr_scan", "android": "https://dc.lft.to/lastmile_qr_scan"}, "fusion_lat": 0.0}, {"lat": 38.88747566666667, "lon": -77.02135433333333, "is_disabled": 0, "fusion_lon": 0.0, "is_reserved": 0, "name": "4c62e25180b7326af4acebe357014afe", "type": "electric_scooter", "bike_id": "4c62e25180b7326af4acebe357014afe", "rental_uris": {"ios": "https://dc.lft.to/lastmile_qr_scan", "android": "https://dc.lft.to/lastmile_qr_scan"}, "fusion_lat": 0.0}, {"lat": 38.88744966666667, "lon": -77.014038, "is_disabled": 0, "fusion_lon": 0.0, "is_reserved": 0, "name": "3bfcbaa77380cd0e5fe8ec755142d2b6", "type": "electric_scooter", "bike_id": "3bfcbaa77380cd0e5fe8ec755142d2b6", "rental_uris": {"ios": "https://dc.lft.to/lastmile_qr_scan", "android": "https://dc.lft.to/lastmile_qr_scan"}, "fusion_lat": 0.0}, {"lat": 38.939856166666665, "lon": -77.025237, "is_disabled": 0, "fusion_lon": 0.0, "is_reserved": 0, "name": "925d531e5807a83e556752970234604c", "type": "electric_scooter", "bike_id": "925d531e5807a83e556752970234604c", "rental_uris": {"ios": "https://dc.lft.to/lastmile_qr_scan", "android": "https://dc.lft.to/lastmile_qr_scan"}, "fusion_lat": 0.0}, {"lat": 38.947464, "lon": -77.032863, "is_disabled": 0, "fusion_lon": 0.0, "is_reserved": 0, "name": "33ba1d24a5867176b0393b3a44c1aa32", "type": "electric_scooter", "bike_id": "33ba1d24a5867176b0393b3a44c1aa32", "rental_uris": {"ios": "https://dc.lft.to/lastmile_qr_scan", "android": "https://dc.lft.to/lastmile_qr_scan"}, "fusion_lat": 0.0}, {"lat": 38.920239, "lon": -77.0305355, "is_disabled": 0, "fusion_lon": 0.0, "is_reserved": 0, "name": "204d4d0961d947938ac8c0b768f9fb04", "type": "electric_scooter", "bike_id": "204d4d0961d947938ac8c0b768f9fb04", "rental_uris": {"ios": "https://dc.lft.to/lastmile_qr_scan", "android": "https://dc.lft.to/lastmile_qr_scan"}, "fusion_lat": 0.0}, {"lat": 38.900127, "lon": -77.00192916666667, "is_disabled": 0, "fusion_lon": 0.0, "is_reserved": 0, "name": "54f2d2fd82777f55b0daf5b8086ba79e", "type": "electric_scooter", "bike_id": "54f2d2fd82777f55b0daf5b8086ba79e", "rental_uris": {"ios": "https://dc.lft.to/lastmile_qr_scan", "android": "https://dc.lft.to/lastmile_qr_scan"}, "fusion_lat": 0.0}, {"lat": 38.87624066666667, "lon": -77.00639316666667, "is_disabled": 0, "fusion_lon": 0.0, "is_reserved": 0, "name": "a9d9ef104e4821e6a024b2c2c0999fbe", "type": "electric_scooter", "bike_id": "a9d9ef104e4821e6a024b2c2c0999fbe", "rental_uris": {"ios": "https://dc.lft.to/lastmile_qr_scan", "android": "https://dc.lft.to/lastmile_qr_scan"}, "fusion_lat": 0.0}, {"lat": 38.92105816666667, "lon": -77.04383483333334, "is_disabled": 0, "fusion_lon": 0.0, "is_reserved": 0, "name": "cff0729e14edc3ccff78ca636fd24138", "type": "electric_scooter", "bike_id": "cff0729e14edc3ccff78ca636fd24138", "rental_uris": {"ios": "https://dc.lft.to/lastmile_qr_scan", "android": "https://dc.lft.to/lastmile_qr_scan"}, "fusion_lat": 0.0}, {"lat": 38.922926, "lon": -76.997732, "is_disabled": 0, "fusion_lon": 0.0, "is_reserved": 0, "name": "5dd26a4f6934227000c002c70e15c0db", "type": "electric_bike", "bike_id": "5dd26a4f6934227000c002c70e15c0db", "rental_uris": {"ios": "https://dc.lft.to/lastmile_qr_scan", "android": "https://dc.lft.to/lastmile_qr_scan"}, "fusion_lat": 0.0}, {"lat": 38.921713, "lon": -77.038316, "is_disabled": 0, "fusion_lon": 0.0, "is_reserved": 0, "name": "3ee74fc46f2e77d953edb40f35a882df", "type": "electric_scooter", "bike_id": "3ee74fc46f2e77d953edb40f35a882df", "rental_uris": {"ios": "https://dc.lft.to/lastmile_qr_scan", "android": "https://dc.lft.to/lastmile_qr_scan"}, "fusion_lat": 0.0}, {"lat": 38.91315916666667, "lon": -77.01444266666667, "is_disabled": 0, "fusion_lon": 0.0, "is_reserved": 0, "name": "95674975675816049a76ee77e7268ace", "type": "electric_scooter", "bike_id": "95674975675816049a76ee77e7268ace", "rental_uris": {"ios": "https://dc.lft.to/lastmile_qr_scan", "android": "https://dc.lft.to/lastmile_qr_scan"}, "fusion_lat": 0.0}, {"lat": 38.931998166666666, "lon": -77.02819066666666, "is_disabled": 0, "fusion_lon": 0.0, "is_reserved": 0, "name": "043a2195cd598fc86e98898f6ccd7c70", "type": "electric_scooter", "bike_id": "043a2195cd598fc86e98898f6ccd7c70", "rental_uris": {"ios": "https://dc.lft.to/lastmile_qr_scan", "android": "https://dc.lft.to/lastmile_qr_scan"}, "fusion_lat": 0.0}, {"lat": 38.92341283333333, "lon": -77.00922033333333, "is_disabled": 0, "fusion_lon": 0.0, "is_reserved": 0, "name": "eac9c0c1e09c0ed7128345d854612d5f", "type": "electric_scooter", "bike_id": "eac9c0c1e09c0ed7128345d854612d5f", "rental_uris": {"ios": "https://dc.lft.to/lastmile_qr_scan", "android": "https://dc.lft.to/lastmile_qr_scan"}, "fusion_lat": 0.0}, {"lat": 38.87829283333333, "lon": -77.00530466666666, "is_disabled": 0, "fusion_lon": 0.0, "is_reserved": 0, "name": "e94165a6aa46126d19c074b5b63fab3f", "type": "electric_scooter", "bike_id": "e94165a6aa46126d19c074b5b63fab3f", "rental_uris": {"ios": "https://dc.lft.to/lastmile_qr_scan", "android": "https://dc.lft.to/lastmile_qr_scan"}, "fusion_lat": 0.0}, {"lat": 38.87398366666667, "lon": -77.0003215, "is_disabled": 0, "fusion_lon": 0.0, "is_reserved": 0, "name": "2c74f56c0de7be3195aa88313fbd514c", "type": "electric_scooter", "bike_id": "2c74f56c0de7be3195aa88313fbd514c", "rental_uris": {"ios": "https://dc.lft.to/lastmile_qr_scan", "android": "https://dc.lft.to/lastmile_qr_scan"}, "fusion_lat": 0.0}, {"lat": 38.91766, "lon": -77.0321195, "is_disabled": 0, "fusion_lon": 0.0, "is_reserved": 0, "name": "f6abcf5bdc7ad88de3f7f45cb558bd65", "type": "electric_scooter", "bike_id": "f6abcf5bdc7ad88de3f7f45cb558bd65", "rental_uris": {"ios": "https://dc.lft.to/lastmile_qr_scan", "android": "https://dc.lft.to/lastmile_qr_scan"}, "fusion_lat": 0.0}, {"lat": 38.92255633333333, "lon": -77.0352455, "is_disabled": 0, "fusion_lon": 0.0, "is_reserved": 0, "name": "08d60dbe8199e7d8234461c9396777a7", "type": "electric_scooter", "bike_id": "08d60dbe8199e7d8234461c9396777a7", "rental_uris": {"ios": "https://dc.lft.to/lastmile_qr_scan", "android": "https://dc.lft.to/lastmile_qr_scan"}, "fusion_lat": 0.0}, {"lat": 38.9249945, "lon": -77.024484, "is_disabled": 0, "fusion_lon": 0.0, "is_reserved": 0, "name": "c80174606fbee1a37a05a56dd99be343", "type": "electric_scooter", "bike_id": "c80174606fbee1a37a05a56dd99be343", "rental_uris": {"ios": "https://dc.lft.to/lastmile_qr_scan", "android": "https://dc.lft.to/lastmile_qr_scan"}, "fusion_lat": 0.0}, {"lat": 38.9029765, "lon": -77.06098783333333, "is_disabled": 0, "fusion_lon": 0.0, "is_reserved": 0, "name": "8941e5f7ad397bd86ef63891c79209d2", "type": "electric_scooter", "bike_id": "8941e5f7ad397bd86ef63891c79209d2", "rental_uris": {"ios": "https://dc.lft.to/lastmile_qr_scan", "android": "https://dc.lft.to/lastmile_qr_scan"}, "fusion_lat": 0.0}, {"lat": 38.899870666666665, "lon": -77.02712183333334, "is_disabled": 0, "fusion_lon": 0.0, "is_reserved": 0, "name": "9a687342331ba67a42923b8f812a64bf", "type": "electric_scooter", "bike_id": "9a687342331ba67a42923b8f812a64bf", "rental_uris": {"ios": "https://dc.lft.to/lastmile_qr_scan", "android": "https://dc.lft.to/lastmile_qr_scan"}, "fusion_lat": 0.0}, {"lat": 38.919770166666666, "lon": -77.041729, "is_disabled": 0, "fusion_lon": 0.0, "is_reserved": 0, "name": "a3fb81e739caa3522d62d41584bd8fe2", "type": "electric_scooter", "bike_id": "a3fb81e739caa3522d62d41584bd8fe2", "rental_uris": {"ios": "https://dc.lft.to/lastmile_qr_scan", "android": "https://dc.lft.to/lastmile_qr_scan"}, "fusion_lat": 0.0},