{"data": {"bikes": [{"lat": 38.86657133333333, "is_disabled": 0, "type": "electric_scooter", "lon": -76.98885, "bike_id": "b3a448d034aeca8ac885b877678b2972", "fusion_lat": 0.0, "name": "b3a448d034aeca8ac885b877678b2972", "is_reserved": 0, "rental_uris": {"android": "https://dc.lft.to/lastmile_qr_scan", "ios": "https://dc.lft.to/lastmile_qr_scan"}, "fusion_lon": 0.0}, {"lat": 38.9179055, "is_disabled": 0, "type": "electric_scooter", "lon": -77.04331366666666, "bike_id": "53c10ac339e90bb700444551c337d72a", "fusion_lat": 0.0, "name": "53c10ac339e90bb700444551c337d72a", "is_reserved": 0, "rental_uris": {"android": "https://dc.lft.to/lastmile_qr_scan", "ios": "https://dc.lft.to/lastmile_qr_scan"}, "fusion_lon": 0.0}, {"lat": 38.925721833333334, "is_disabled": 0, "type": "electric_scooter", "lon": -77.057577, "bike_id": "6af640cd92d03bad0e414c86b23a66b9", "fusion_lat": 0.0, "name": "6af640cd92d03bad0e414c86b23a66b9", "is_reserved": 0, "rental_uris": {"android": "https://dc.lft.to/lastmile_qr_scan", "ios": "https://dc.lft.to/lastmile_qr_scan"}, "fusion_lon": 0.0}, {"lat": 38.8068465, "is_disabled": 0, "type": "electric_bike", "lon": -77.08119116666667, "bike_id": "03e4041a2cfee367cbe52cb447876dac", "fusion_lat": 0.0, "name": "03e4041a2cfee367cbe52cb447876dac", "is_reserved": 0, "rental_uris": {"android": "https://dc.lft.to/lastmile_qr_scan", "ios": "https://dc.lft.to/lastmile_qr_scan"}, "fusion_lon": 0.0}, {"lat": 38.921418833333334, "is_disabled": 0, "type": "electric_scooter", "lon": -77.04368116666667, "bike_id": "16b9520f177350155776669935056131", "fusion_lat": 0.0, "name": "16b9520f177350155776669935056131", "is_reserved": 0, "rental_uris": {"android": "https://dc.lft.to/lastmile_qr_scan", "ios": "https://dc.lft.to/lastmile_qr_scan"}, "fusion_lon": 0.0}, {"lat": 38.903327, "is_disabled": 0, "type": "electric_scooter", "lon": -76.97596616666667, "bike_id": "35ff62725aed7ce12fddda374af82ba5", "fusion_lat": 0.0, "name": "35ff62725aed7ce12fddda374af82ba5", "is_reserved": 0, "rental_uris": {"android": "https://dc.lft.to/lastmile_qr_scan", "ios": "https://dc.lft.to/lastmile_qr_scan"}, "fusion_lon": 0.0}, {"lat": 38.9399645, "is_disabled": 0, "type": "electric_scooter", "lon": -77.071761, "bike_id": "e541d465e31f1a890f47a339077ff38a", "fusion_lat": 0.0, "name": "e541d465e31f1a890f47a339077ff38a", "is_reserved": 0, "rental_uris": {"android": "https://dc.lft.to/lastmile_qr_scan", "ios": "https://dc.lft.to/lastmile_qr_scan"}, "fusion_lon": 0.0}, {"lat": 38.907624, "is_disabled": 0, "type": "electric_scooter", "lon": -77.0702745, "bike_id": "32a00d11d9ec711b7feb3deca204664c", "fusion_lat": 0.0, "name": "32a00d11d9ec711b7feb3deca204664c", "is_reserved": 0, "rental_uris": {"android": "https://dc.lft.to/lastmile_qr_scan", "ios": "https://dc.lft.to/lastmile_qr_scan"}, "fusion_lon": 0.0}, {"lat": 38.90356416666667, "is_disabled": 0, "type": "electric_scooter", "lon": -77.02516466666667, "bike_id": "fbfff48b60ce9a8cd362a1a40e0ab524", "fusion_lat": 0.0, "name": "fbfff48b60ce9a8cd362a1a40e0ab524", "is_reserved": 0, "rental_uris": {"android": "https://dc.lft.to/lastmile_qr_scan", "ios": "https://dc.lft.to/lastmile_qr_scan"}, "fusion_lon": 0.0}, {"lat": 38.89903283333334, "is_disabled": 0, "type": "electric_scooter", "lon": -76.93353183333333, "bike_id": "ac469e398e754699626b328b476c8a5d", "fusion_lat": 0.0, "name": "ac469e398e754699626b328b476c8a5d", "is_reserved": 0, "rental_uris": {"android": "https://dc.lft.to/lastmile_qr_scan", "ios": "https://dc.lft.to/lastmile_qr_scan"}, "fusion_lon": 0.0}, {"lat": 38.89758416666667, "is_disabled": 0, "type": "electric_scooter", "lon": -77.04530416666667, "bike_id": "8fd7bfb099f850aea4ef03cce6e8604c", "fusion_lat": 0.0, "name": "8fd7bfb099f850aea4ef03cce6e8604c", "is_reserved": 0, "rental_uris": {"android": "https://dc.lft.to/lastmile_qr_scan", "ios": "https://dc.lft.to/lastmile_qr_scan"}, "fusion_lon": 0.0}, {"lat": 38.93194866666666, "is_disabled": 0, "type": "electric_scooter", "lon": -77.0375315, "bike_id": "5649a0c9017ca1ee35b1fd2af30a2420", "fusion_lat": 0.0, "name": "5649a0c9017ca1ee35b1fd2af30a2420", "is_reserved": 0, "rental_uris": {"android": "https://dc.lft.to/lastmile_qr_scan", "ios": "https://dc.lft.to/lastmile_qr_scan"}, "fusion_lon": 0.0}, {"lat": 38.87415166666667, "is_disabled": 0, "type": "electric_scooter", "lon": -76.97303583333333, "bike_id": "33052a596c7c0040dcb55bef16180e6d", "fusion_lat": 0.0, "name": "33052a596c7c0040dcb55bef16180e6d", "is_reserved": 0, "rental_uris": {"android": "https://dc.lft.to/lastmile_qr_scan", "ios": "https://dc.lft.to/lastmile_qr_scan"}, "fusion_lon": 0.0}, {"lat": 38.92828083333333, "is_disabled": 0, "type": "electric_scooter", "lon": -77.01381466666666, "bike_id": "f4ac78caa22ff0228ae265f7560e40f3", "fusion_lat": 0.0, "name": "f4ac78caa22ff0228ae265f7560e40f3", "is_reserved": 0, "rental_uris": {"android": "https://dc.lft.to/lastmile_qr_scan", "ios": "https://dc.lft.to/lastmile_qr_scan"}, "fusion_lon": 0.0}, {"lat": 38.90071916666667, "is_disabled": 0, "type": "electric_scooter", "lon": -77.0021045, "bike_id": "5769611aca62f95d91205d25b0e6fdbd", "fusion_lat": 0.0, "name": "5769611aca62f95d91205d25b0e6fdbd", "is_reserved": 0, "rental_uris": {"android": "https://dc.lft.to/lastmile_qr_scan", "ios": "https://dc.lft.to/lastmile_qr_scan"}, "fusion_lon": 0.0}, {"lat": 38.922551166666665, "is_disabled": 0, "type": "electric_scooter", "lon": -77.03391083333334, "bike_id": "64347547fe69ce841cdee2405039593d", "fusion_lat": 0.0, "name": "64347547fe69ce841cdee2405039593d", "is_reserved": 0, "rental_uris": {"android": "https://dc.lft.to/lastmile_qr_scan", "ios": "https://dc.lft.to/lastmile_qr_scan"}, "fusion_lon": 0.0}, {"lat": 38.901062833333334, "is_disabled": 0, "type": "electric_scooter", "lon": -77.02505383333333, "bike_id": "09dc724f623f5a0f381c4eeeb061f670", "fusion_lat": 0.0, "name": "09dc724f623f5a0f381c4eeeb061f670", "is_reserved": 0, "rental_uris": {"android": "https://dc.lft.to/lastmile_qr_scan", "ios": "https://dc.lft.to/lastmile_qr_scan"}, "fusion_lon": 0.0}, {"lat": 38.9439215, "is_disabled": 0, "type": "electric_scooter", "lon": -77.01987366666667, "bike_id": "7359399137cbe695d5743e463c72c00f", "fusion_lat": 0.0, "name": "7359399137cbe695d5743e463c72c00f", "is_reserved": 0, "rental_uris": {"android": "https://dc.lft.to/lastmile_qr_scan", "ios": "https://dc.lft.to/lastmile_qr_scan"}, "fusion_lon": 0.0}, {"lat": 38.944361666666666, "is_disabled": 0, "type": "electric_scooter", "lon": -77.01512133333334, "bike_id": "5e13e69f39dc0b3315892789c70c2135", "fusion_lat": 0.0, "name": "5e13e69f39dc0b3315892789c70c2135", "is_reserved": 0, "rental_uris": {"android": "https://dc.lft.to/lastmile_qr_scan", "ios": "https://dc.lft.to/lastmile_qr_scan"}, "fusion_lon": 0.0}, {"lat": 38.855158833333334, "is_disabled": 0, "type": "electric_bike", "lon": -77.12015883333333, "bike_id": "10fed156d410dcaf8011fcdb48102f08", "fusion_lat": 0.0, "name": "10fed156d410dcaf8011fcdb48102f08", "is_reserved": 0, "rental_uris": {"android": "https://dc.lft.to/lastmile_qr_scan", "ios": "https://dc.lft.to/lastmile_qr_scan"}, "fusion_lon": 0.0}, {"lat": 38.851977, "is_disabled": 0, "type": "electric_bike", "lon": -76.96109566666667, "bike_id": "92d65661e491cf11e7a4bee3bed006f8", "fusion_lat": 0.0, "name": "92d65661e491cf11e7a4bee3bed006f8", "is_reserved": 0, "rental_uris": {"android": "https://dc.lft.to/lastmile_qr_scan", "ios": "https://dc.lft.to/lastmile_qr_scan"}, "fusion_lon": 0.0}, {"lat": 38.917192666666665, "is_disabled": 0, "type": "electric_scooter", "lon": -77.02384866666667, "bike_id": "d5a33fcb5194b09dfdfbcc06340b8115", "fusion_lat": 0.0, "name": "d5a33fcb5194b09dfdfbcc06340b8115", "is_reserved": 0, "rental_uris": {"android": "https://dc.lft.to/lastmile_qr_scan", "ios": "https://dc.lft.to/lastmile_qr_scan"}, "fusion_lon": 0.0}, {"lat": 38.91110616666667, "is_disabled": 0, "type": "electric_scooter", "lon": -77.0383285, "bike_id": "74c211e9413568bc02b8c189382a3cd7", "fusion_lat": 0.0, "name": "74c211e9413568bc02b8c189382a3cd7", "is_reserved": 0, "rental_uris": {"android": "https://dc.lft.to/lastmile_qr_scan", "ios": "https://dc.lft.to/lastmile_qr_scan"}, "fusion_lon": 0.0}, {"lat": 38.917047833333335, "is_disabled": 0, "type": "electric_scooter", "lon": -77.03477, "bike_id": "30c0292d325f6cbbe7e7d1b1b12daf34", "fusion_lat": 0.0, "name": "30c0292d325f6cbbe7e7d1b1b12daf34", "is_reserved": 0, "rental_uris": {"android": "https://dc.lft.to/lastmile_qr_scan", "ios": "https://dc.lft.to/lastmile_qr_scan"}, "fusion_lon": 0.0}, {"lat": 38.908417166666666, "is_disabled": 0, "type": "electric_scooter", "lon": -77.03551783333333, "bike_id": "b836c428ff1ec6ff8dfdb9573b1d9122", "fusion_lat": 0.0, "name": "b836c428ff1ec6ff8dfdb9573b1d9122", "is_reserved": 0, "rental_uris": {"android": "https://dc.lft.to/lastmile_qr_scan", "ios": "https://dc.lft.to/lastmile_qr_scan"}, "fusion_lon": 0.0}, {"lat": 38.905479666666665, "is_disabled": 0, "type": "electric_scooter", "lon": -77.04654816666667, "bike_id": "25a494f371992eae1fd63de8444cb3fe", "fusion_lat": 0.0, "name": "25a494f371992eae1fd63de8444cb3fe", "is_reserved": 0, "rental_uris": {"android": "https://dc.lft.to/lastmile_qr_scan", "ios": "https://dc.lft.to/lastmile_qr_scan"}, "fusion_lon": 0.0}, {"lat": 38.924442, "is_disabled": 0, "type": "electric_scooter", "lon": -77.03357416666667, "bike_id": "a8b20c95c1980e50d9d07e579660cd7e", "fusion_lat": 0.0, "name": "a8b20c95c1980e50d9d07e579660cd7e", "is_reserved": 0, "rental_uris": {"android": "https://dc.lft.to/lastmile_qr_scan", "ios": "https://dc.lft.to/lastmile_qr_scan"}, "fusion_lon": 0.0}, {"lat": 38.866631166666664, "is_disabled": 0, "type": "electric_scooter", "lon": -76.9890705, "bike_id": "82c562fc4fa8249d390a63552b6998f5", "fusion_lat": 0.0, "name": "82c562fc4fa8249d390a63552b6998f5", "is_reserved": 0, "rental_uris": {"android": "https://dc.lft.to/lastmile_qr_scan", "ios": "https://dc.lft.to/lastmile_qr_scan"}, "fusion_lon": 0.0}, {"lat": 38.8993475, "is_disabled": 0, "type": "electric_scooter", "lon": -77.0036975, "bike_id": "2401bbf942c2e9451844a2f07c966306", "fusion_lat": 0.0, "name": "2401bbf942c2e9451844a2f07c966306", "is_reserved": 0, "rental_uris": {"android": "https://dc.lft.to/lastmile_qr_scan", "ios": "https://dc.lft.to/lastmile_qr_scan"}, "fusion_lon": 0.0}, {"lat": 38.9243465, "is_disabled": 0, "type": "electric_scooter", "lon": -77.03427333333333, "bike_id": "dfc6a7a7a894237b21b437343e3503f4", "fusion_lat": 0.0, "name": "dfc6a7a7a894237b21b437343e3503f4", "is_reserved": 0, "rental_uris": {"android": "https://dc.lft.to/lastmile_qr_scan", "ios": "https://dc.lft.to/lastmile_qr_scan"}, "fusion_lon": 0.0}, {"lat": 38.90523016666667, "is_disabled": 0, "type": "electric_scooter", "lon": -77.058967, "bike_id": "45a232ecd11fc93054f1ec4d57716dae", "fusion_lat": 0.0, "name": "45a232ecd11fc93054f1ec4d57716dae", "is_reserved": 0, "rental_uris": {"android": "https://dc.lft.to/lastmile_qr_scan", "ios": "https://dc.lft.to/lastmile_qr_scan"}, "fusion_lon": 0.0}, {"lat": 38.90138733333333, "is_disabled": 0, "type": "electric_scooter", "lon": -77.01137, "bike_id": "ae3e509ad00c7d24a980e7385dc21311", "fusion_lat": 0.0, "name": "ae3e509ad00c7d24a980e7385dc21311", "is_reserved": 0, "rental_uris": {"android": "https://dc.lft.to/lastmile_qr_scan", "ios": "https://dc.lft.to/lastmile_qr_scan"}, "fusion_lon": 0.0}, {"lat": 38.95633083333333, "is_disabled": 0, "type": "electric_bike", "lon": -76.9388125, "bike_id": "884c0d4dcdfe2e0e26c75e86939b725a", "fusion_lat": 0.0, "name": "884c0d4dcdfe2e0e26c75e86939b725a", "is_reserved": 0, "rental_uris": {"android": "https://dc.lft.to/lastmile_qr_scan", "ios": "https://dc.lft.to/lastmile_qr_scan"}, "fusion_lon": 0.0}, {"lat": 38.88094783333333, "is_disabled": 0, "type": "electric_scooter", "lon": -76.99855616666666, "bike_id": "12232243de666d7efb823304bce8dbbc", "fusion_lat": 0.0, "name": "12232243de666d7efb823304bce8dbbc", "is_reserved": 0, "rental_uris": {"android": "https://dc.lft.to/lastmile_qr_scan", "ios": "https://dc.lft.to/lastmile_qr_scan"}, "fusion_lon": 0.0}, {"lat": 38.842784, "is_disabled": 0, "type": "electric_bike", "lon": -76.98841716666666, "bike_id": "64fdf912f79800394f16e26e2d7d05e4", "fusion_lat": 0.0, "name": "64fdf912f79800394f16e26e2d7d05e4", "is_reserved": 0, "rental_uris": {"android": "https://dc.lft.to/lastmile_qr_scan", "ios": "https://dc.lft.to/lastmile_qr_scan"}, "fusion_lon": 0.0}, {"lat": 38.900689666666665, "is_disabled": 0, "type": "electric_scooter", "lon": -77.0493515, "bike_id": "736906151f19b198ee90c1ad0299b3fe", "fusion_lat": 0.0, "name": "736906151f19b198ee90c1ad0299b3fe", "is_reserved": 0, "rental_uris": {"android": "https://dc.lft.to/lastmile_qr_scan", "ios": "https://dc.lft.to/lastmile_qr_scan"}, "fusion_lon": 0.0}, {"lat": 38.915563666666664, "is_disabled": 0, "type": "electric_scooter", "lon": -76.983611, "bike_id": "10230868d418fd0c83a127701cbdc543", "fusion_lat": 0.0, "name": "10230868d418fd0c83a127701cbdc543", "is_reserved": 0, "rental_uris": {"android": "https://dc.lft.to/lastmile_qr_scan", "ios": "https://dc.lft.to/lastmile_qr_scan"}, "fusion_lon": 0.0}, {"lat": 38.907320166666665, "is_disabled": 0, "type": "electric_scooter", "lon": -77.03719783333334, "bike_id": "76202b759824fffd8635f751b1165716", "fusion_lat": 0.0, "name": "76202b759824fffd8635f751b1165716", "is_reserved": 0, "rental_uris": {"android": "https://dc.lft.to/lastmile_qr_scan", "ios": "https://dc.lft.to/lastmile_qr_scan"}, "fusion_lon": 0.0}, {"lat": 38.91964933333333, "is_disabled": 0, "type": "electric_scooter", "lon": -77.012076, "bike_id": "aedbc0b23fa7b6d1740331e39c0731d0", "fusion_lat": 0.0, "name": "aedbc0b23fa7b6d1740331e39c0731d0", "is_reserved": 0, "rental_uris": {"android": "https://dc.lft.to/lastmile_qr_scan", "ios": "https://dc.lft.to/lastmile_qr_scan"}, "fusion_lon": 0.0}, {"lat": 38.925702, "is_disabled": 0, "type": "electric_scooter", "lon": -77.05749316666666, "bike_id": "f776c6901ae3ac7eadafb32157e438a1", "fusion_lat": 0.0, "name": "f776c6901ae3ac7eadafb32157e438a1", "is_reserved": 0, "rental_uris": {"android": "https://dc.lft.to/lastmile_qr_scan", "ios": "https://dc.lft.to/lastmile_qr_scan"}, "fusion_lon": 0.0}, {"lat": 38.89776716666667, "is_disabled": 0, "type": "electric_bike", "lon": -76.90437933333334, "bike_id": "282e7bea4119b62ad8333de8a6da8d43", "fusion_lat": 0.0, "name": "282e7bea4119b62ad8333de8a6da8d43", "is_reserved": 0, "rental_uris": {"android": "https://dc.lft.to/lastmile_qr_scan", "ios": "https://dc.lft.to/lastmile_qr_scan"}, "fusion_lon": 0.0}, {"lat": 38.89803233333333, "is_disabled": 0, "type": "electric_scooter", "lon": -77.00058533333333, "bike_id": "5bf31c0a61fa96bc08415771fc7217a8", "fusion_lat": 0.0, "name": "5bf31c0a61fa96bc08415771fc7217a8", "is_reserved": 0, "rental_uris": {"android": "https://dc.lft.to/lastmile_qr_scan", "ios": "https://dc.lft.to/lastmile_qr_scan"}, "fusion_lon": 0.0}, {"lat": 38.9267025, "is_disabled": 0, "type": "electric_scooter", "lon": -76.995357, "bike_id": "3815bbef61632d192c99645e9507bf1a", "fusion_lat": 0.0, "name": "3815bbef61632d192c99645e9507bf1a", "is_reserved": 0, "rental_uris": {"android": "https://dc.lft.to/lastmile_qr_scan", "ios": "https://dc.lft.to/lastmile_qr_scan"}, "fusion_lon": 0.0}, {"lat": 38.9019435, "is_disabled": 0, "type": "electric_scooter", "lon": -77.02194233333333, "bike_id": "5962ec90b9a90f4566d0abbe9ea312c1", "fusion_lat": 0.0, "name": "5962ec90b9a90f4566d0abbe9ea312c1", "is_reserved": 0, "rental_uris": {"android": "https://dc.lft.to/lastmile_qr_scan", "ios": "https://dc.lft.to/lastmile_qr_scan"}, "fusion_lon": 0.0}, {"lat": 38.84111433333333, "is_disabled": 0, "type": "electric_bike", "lon": -77.08949066666666, "bike_id": "54d7d58879e283b42547f7c76a280f2c", "fusion_lat": 0.0, "name": "54d7d58879e283b42547f7c76a280f2c", "is_reserved": 0, "rental_uris": {"android": "https://dc.lft.to/lastmile_qr_scan", "ios": "https://dc.lft.to/lastmile_qr_scan"}, "fusion_lon": 0.0}, {"lat": 38.926120833333336, "is_disabled": 0, "type": "electric_scooter", "lon": -77.02162066666666, "bike_id": "1b421e61202b185f42c7129b7b6999a2", "fusion_lat": 0.0, "name": "1b421e61202b185f42c7129b7b6999a2", "is_reserved": 0, "rental_uris": {"android": "https://dc.lft.to/lastmile_qr_scan", "ios": "https://dc.lft.to/lastmile_qr_scan"}, "fusion_lon": 0.0}, {"lat": 38.907393166666665, "is_disabled": 0, "type": "electric_scooter", "lon": -77.04336133333334, "bike_id": "cc6a6d64441ac0cb180088b4a5920cba", "fusion_lat": 0.0, "name": "cc6a6d64441ac0cb180088b4a5920cba", "is_reserved": 0, "rental_uris": {"android": "https://dc.lft.to/lastmile_qr_scan", "ios": "https://dc.lft.to/lastmile_qr_scan"}, "fusion_lon": 0.0}, {"lat": 38.970879333333336, "is_disabled": 0, "type": "electric_bike", "lon": -77.069637, "bike_id": "5974c82be087e75f8b0e19c6f1661ad5", "fusion_lat": 0.0, "name": "5974c82be087e75f8b0e19c6f1661ad5", "is_reserved": 0, "rental_uris": {"android": "https://dc.lft.to/lastmile_qr_scan", "ios": "https://dc.lft.to/lastmile_qr_scan"}, "fusion_lon": 0.0}, {"lat": 38.90279316666667, "is_disabled": 0, "type": "electric_scooter", "lon": -77.0386865, "bike_id": "4102651f544dc5b4305484e2cebdbf73", "fusion_lat": 0.0, "name": "4102651f544dc5b4305484e2cebdbf73", "is_reserved": 0, "rental_uris": {"android": "https://dc.lft.to/lastmile_qr_scan", "ios": "https://dc.lft.to/lastmile_qr_scan"}, "fusion_lon": 0.0}, {"lat": 38.9353485, "is_disabled": 0, "type": "electric_scooter", "lon": -77.02354983333333, "bike_id": "4669ed4d3a35bb88629a787c4d7ea2a8", "fusion_lat": 0.0, "name": "4669ed4d3a35bb88629a787c4d7ea2a8", "is_reserved": 0, "rental_uris": {"android": "https://dc.lft.to/lastmile_qr_scan", "ios": "https://dc.lft.to/lastmile_qr_scan"}, "fusion_lon": 0.0}, {"lat": 38.926614666666666, "is_disabled": 0, "type": "electric_scooter", "lon": -77.05593616666667, "bike_id": "cd7511b5b6a95109b793a162c12dbe2c", "fusion_lat": 0.0, "name": "cd7511b5b6a95109b793a162c12dbe2c", "is_reserved": 0, "rental_uris": {"android": "https://dc.lft.to/lastmile_qr_scan", "ios": "https://dc.lft.to/lastmile_qr_scan"}, "fusion_lon": 0.0}, {"lat": 38.903838, "is_disabled": 0, "type": "electric_scooter", "lon": -76.9761785, "bike_id": "7cd7c4eb6952598b07b94bef495b7878", "fusion_lat": 0.0, "name": "7cd7c4eb6952598b07b94bef495b7878", "is_reserved": 0, "rental_uris": {"android": "https://dc.lft.to/lastmile_qr_scan", "ios": "https://dc.lft.to/lastmile_qr_scan"}, "fusion_lon": 0.0}, {"lat": 38.91497566666666, "is_disabled": 0, "type": "electric_scooter", "lon": -77.03229883333333, "bike_id": "e097978434b4b72c74fd0c2b5d858e6d", "fusion_lat": 0.0, "name": "e097978434b4b72c74fd0c2b5d858e6d", "is_reserved": 0, "rental_uris": {"android": "https://dc.lft.to/lastmile_qr_scan", "ios": "https://dc.lft.to/lastmile_qr_scan"}, "fusion_lon": 0.0}, {"lat": 38.892264, "is_disabled": 0, "type": "electric_scooter", "lon": -77.028285, "bike_id": "29afa2db9bcf55f452ea71a0e00e0d4a", "fusion_lat": 0.0, "name": "29afa2db9bcf55f452ea71a0e00e0d4a", "is_reserved": 0, "rental_uris": {"android": "https://dc.lft.to/lastmile_qr_scan", "ios": "https://dc.lft.to/lastmile_qr_scan"}, "fusion_lon": 0.0}, {"lat": 38.925934166666664, "is_disabled": 0, "type": "electric_scooter", "lon": -77.02493633333333, "bike_id": "70fdf1604f17a4c64cc53fbe0db77ef2", "fusion_lat": 0.0, "name": "70fdf1604f17a4c64cc53fbe0db77ef2", "is_reserved": 0, "rental_uris": {"android": "https://dc.lft.to/lastmile_qr_scan", "ios": "https://dc.lft.to/lastmile_qr_scan"}, "fusion_lon": 0.0}, {"lat": 38.96076133333333, "is_disabled": 0, "type": "electric_scooter", "lon": -77.07297783333334, "bike_id": "025187abcfd636858b00518cef076770", "fusion_lat": 0.0, "name": "025187abcfd636858b00518cef076770", "is_reserved": 0, "rental_uris": {"android": "https://dc.lft.to/lastmile_qr_scan", "ios": "https://dc.lft.to/lastmile_qr_scan"}, "fusion_lon": 0.0}, {"lat": 38.892293, "is_disabled": 0, "type": "electric_scooter", "lon": -77.05007033333334, "bike_id": "851bca5a6b60e7b097e7d53b4d84a9d8", "fusion_lat": 0.0, "name": "851bca5a6b60e7b097e7d53b4d84a9d8", "is_reserved": 0, "rental_uris": {"android": "https://dc.lft.to/lastmile_qr_scan", "ios": "https://dc.lft.to/lastmile_qr_scan"}, "fusion_lon": 0.0}, {"lat": 38.90073566666667, "is_disabled": 0, "type": "electric_scooter", "lon": -77.04529216666667, "bike_id": "5b9c31caa1d99cba254f891789d25530", "fusion_lat": 0.0, "name": "5b9c31caa1d99cba254f891789d25530", "is_reserved": 0, "rental_uris": {"android": "https://dc.lft.to/lastmile_qr_scan", "ios": "https://dc.lft.to/lastmile_qr_scan"}, "fusion_lon": 0.0}, {"lat": 38.91120683333333, "is_disabled": 0, "type": "electric_scooter", "lon": -77.04306916666667, "bike_id": "a4c112520001d4b19ac7d4794ad06c17", "fusion_lat": 0.0, "name": "a4c112520001d4b19ac7d4794ad06c17", "is_reserved": 0, "rental_uris": {"android": "https://dc.lft.to/lastmile_qr_scan", "ios": "https://dc.lft.to/lastmile_qr_scan"}, "fusion_lon": 0.0}, {"lat": 38.913483166666666, "is_disabled": 0, "type": "electric_scooter", "lon": -77.0427885, "bike_id": "76ea3725b8a0c0cb22c08790f68ab634", "fusion_lat": 0.0, "name": "76ea3725b8a0c0cb22c08790f68ab634", "is_reserved": 0, "rental_uris": {"android": "https://dc.lft.to/lastmile_qr_scan", "ios": "https://dc.lft.to/lastmile_qr_scan"}, "fusion_lon": 0.0}, {"lat": 38.886601666666664, "is_disabled": 0, "type": "electric_bike", "lon": -77.03389766666666, "bike_id": "9b065eb7a02c72b933dbc1cd6f441234", "fusion_lat": 0.0, "name": "9b065eb7a02c72b933dbc1cd6f441234", "is_reserved": 0, "rental_uris": {"android": "https://dc.lft.to/lastmile_qr_scan", "ios": "https://dc.lft.to/lastmile_qr_scan"}, "fusion_lon": 0.0}, {"lat": 38.92869666666667, "is_disabled": 0, "type": "electric_scooter", "lon": -77.0299305, "bike_id": "4d5b8a735cb372e0748f518cdb478c36", "fusion_lat": 0.0, "name": "4d5b8a735cb372e0748f518cdb478c36", "is_reserved": 0, "rental_uris": {"android": "https://dc.lft.to/lastmile_qr_scan", "ios": "https://dc.lft.to/lastmile_qr_scan"}, "fusion_lon": 0.0}, {"lat": 38.876772, "is_disabled": 0, "type": "electric_bike", "lon": -77.01442133333333, "bike_id": "f373d686e7da2e38cab5f448f17cd584", "fusion_lat": 0.0, "name": "f373d686e7da2e38cab5f448f17cd584", "is_reserved": 0, "rental_uris": {"android": "https://dc.lft.to/lastmile_qr_scan", "ios": "https://dc.lft.to/lastmile_qr_scan"}, "fusion_lon": 0.0}, {"lat": 38.895548166666664, "is_disabled": 0, "type": "electric_scooter", "lon": -76.9337575, "bike_id": "2a8613e531a16d7205f2a19aeaeb8678", "fusion_lat": 0.0, "name": "2a8613e531a16d7205f2a19aeaeb8678", "is_reserved": 0, "rental_uris": {"android": "https://dc.lft.to/lastmile_qr_scan", "ios": "https://dc.lft.to/lastmile_qr_scan"}, "fusion_lon": 0.0}, {"lat": 38.87470883333334, "is_disabled": 0, "type": "electric_scooter", "lon": -77.00520966666667, "bike_id": "8bf3ad8a60721d7c88a17e27e0b265c8", "fusion_lat": 0.0, "name": "8bf3ad8a60721d7c88a17e27e0b265c8", "is_reserved": 0, "rental_uris": {"android": "https://dc.lft.to/lastmile_qr_scan", "ios": "https://dc.lft.to/lastmile_qr_scan"}, "fusion_lon": 0.0}, {"lat": 38.909179, "is_disabled": 0, "type": "electric_scooter", "lon": -77.03642716666667, "bike_id": "3e61e860d280cd587169c72d77ba12d9", "fusion_lat": 0.0, "name": "3e61e860d280cd587169c72d77ba12d9", "is_reserved": 0, "rental_uris": {"android": "https://dc.lft.to/lastmile_qr_scan", "ios": "https://dc.lft.to/lastmile_qr_scan"}, "fusion_lon": 0.0}, {"lat": 38.86564683333334, "is_disabled": 0, "type": "electric_scooter", "lon": -76.98952416666667, "bike_id": "f91f2b3324a553fca0af19b4620c4d10", "fusion_lat": 0.0, "name": "f91f2b3324a553fca0af19b4620c4d10", "is_reserved": 0, "rental_uris": {"android": "https://dc.lft.to/lastmile_qr_scan", "ios": "https://dc.lft.to/lastmile_qr_scan"}, "fusion_lon": 0.0}, {"lat": 38.918415333333336, "is_disabled": 0, "type": "electric_scooter", "lon": -77.02607883333333, "bike_id": "8532f193ceab612e5f71c8e0c9c369d6", "fusion_lat": 0.0, "name": "8532f193ceab612e5f71c8e0c9c369d6", "is_reserved": 0, "rental_uris": {"android": "https://dc.lft.to/lastmile_qr_scan", "ios": "https://dc.lft.to/lastmile_qr_scan"}, "fusion_lon": 0.0}, {"lat": 38.907748833333336, "is_disabled": 0, "type": "electric_scooter", "lon": -76.98304583333334, "bike_id": "068b972cd89a90aa2152dc51e244894e", "fusion_lat": 0.0, "name": "068b972cd89a90aa2152dc51e244894e", "is_reserved": 0, "rental_uris": {"android": "https://dc.lft.to/lastmile_qr_scan", "ios": "https://dc.lft.to/lastmile_qr_scan"}, "fusion_lon": 0.0}, {"lat": 38.901762166666664, "is_disabled": 0, "type": "electric_scooter", "lon": -77.02160666666667, "bike_id": "b25cfd3596c50e0e6bdb7e1e24ea6efa", "fusion_lat": 0.0, "name": "b25cfd3596c50e0e6bdb7e1e24ea6efa", "is_reserved": 0, "rental_uris": {"android": "https://dc.lft.to/lastmile_qr_scan", "ios": "https://dc.lft.to/lastmile_qr_scan"}, "fusion_lon": 0.0}, {"lat": 38.955650166666665, "is_disabled": 0, "type": "electric_scooter", "lon": -77.022377, "bike_id": "42b7cf2517ffce62ef0378781a086aaa", "fusion_lat": 0.0, "name": "42b7cf2517ffce62ef0378781a086aaa", "is_reserved": 0, "rental_uris": {"android": "https://dc.lft.to/lastmile_qr_scan", "ios": "https://dc.lft.to/lastmile_qr_scan"}, "fusion_lon": 0.0}, {"lat": 38.913260666666666, "is_disabled": 0, "type": "electric_scooter", "lon": -77.0318775, "bike_id": "40ea316d9071d62f465cf67f3bb16cdb", "fusion_lat": 0.0, "name": "40ea316d9071d62f465cf67f3bb16cdb", "is_reserved": 0, "rental_uris": {"android": "https://dc.lft.to/lastmile_qr_scan", "ios": "https://dc.lft.to/lastmile_qr_scan"}, "fusion_lon": 0.0}, {"lat": 38.923962, "is_disabled": 0, "type": "electric_scooter", "lon": -77.05163166666667, "bike_id": "ade7c1dba5eb165482febb7c9faf87a4", "fusion_lat": 0.0, "name": "ade7c1dba5eb165482febb7c9faf87a4", "is_reserved": 0, "rental_uris": {"android": "https://dc.lft.to/lastmile_qr_scan", "ios": "https://dc.lft.to/lastmile_qr_scan"}, "fusion_lon": 0.0}, {"lat": 38.91116866666667, "is_disabled": 0, "type": "electric_scooter", "lon": -77.03826816666667, "bike_id": "20c0fa4e62949d0fdb6d079ae909069e", "fusion_lat": 0.0, "name": "20c0fa4e62949d0fdb6d079ae909069e", "is_reserved": 0, "rental_uris": {"android": "https://dc.lft.to/lastmile_qr_scan", "ios": "https://dc.lft.to/lastmile_qr_scan"}, "fusion_lon": 0.0}, {"lat": 38.906382666666666, "is_disabled": 0, "type": "electric_scooter", "lon": -77.03378833333333, "bike_id": "c26bcb4208f56356cf7cf152d281d2d1", "fusion_lat": 0.0, "name": "c26bcb4208f56356cf7cf152d281d2d1", "is_reserved": 0, "rental_uris": {"android": "https://dc.lft.to/lastmile_qr_scan", "ios": "https://dc.lft.to/lastmile_qr_scan"}, "fusion_lon": 0.0}, {"lat": 38.920312, "is_disabled": 0, "type": "electric_scooter", "lon": -77.03080033333333, "bike_id": "4e5853ecb7e30651920644fad341ee55", "fusion_lat": 0.0, "name": "4e5853ecb7e30651920644fad341ee55", "is_reserved": 0, "rental_uris": {"android": "https://dc.lft.to/lastmile_qr_scan", "ios": "https://dc.lft.to/lastmile_qr_scan"}, "fusion_lon": 0.0}, {"lat": 38.8596705, "is_disabled": 0, "type": "electric_bike", "lon": -77.05676383333333, "bike_id": "31805008ce9841c26658b7401b097431", "fusion_lat": 0.0, "name": "31805008ce9841c26658b7401b097431", "is_reserved": 0, "rental_uris": {"android": "https://dc.lft.to/lastmile_qr_scan", "ios": "https://dc.lft.to/lastmile_qr_scan"}, "fusion_lon": 0.0}, {"lat": 38.909809, "is_disabled": 0, "type": "electric_scooter", "lon": -77.03212283333333, "bike_id": "ea9dcb3a6cb952967d94085d8de813dd", "fusion_lat": 0.0, "name": "ea9dcb3a6cb952967d94085d8de813dd", "is_reserved": 0, "rental_uris": {"android": "https://dc.lft.to/lastmile_qr_scan", "ios": "https://dc.lft.to/lastmile_qr_scan"}, "fusion_lon": 0.0}, {"lat": 38.90780266666667, "is_disabled": 0, "type": "electric_scooter", "lon": -77.03859733333333, "bike_id": "0c9722094e8fc5526b7c90343e654346", "fusion_lat": 0.0, "name": "0c9722094e8fc5526b7c90343e654346", "is_reserved": 0, "rental_uris": {"android": "https://dc.lft.to/lastmile_qr_scan", "ios": "https://dc.lft.to/lastmile_qr_scan"}, "fusion_lon": 0.0}, {"lat": 38.86885933333333, "is_disabled": 0, "type": "electric_scooter", "lon": -76.98309133333333, "bike_id": "63745784d120f589b6398f4815936175", "fusion_lat": 0.0, "name": "63745784d120f589b6398f4815936175", "is_reserved": 0, "rental_uris": {"android": "https://dc.lft.to/lastmile_qr_scan", "ios": "https://dc.lft.to/lastmile_qr_scan"}, "fusion_lon": 0.0}, {"lat": 38.882635, "is_disabled": 0, "type": "electric_scooter", "lon": -77.00435516666667, "bike_id": "5f1046f4673d0a9dde5f2f60d172a132", "fusion_lat": 0.0, "name": "5f1046f4673d0a9dde5f2f60d172a132", "is_reserved": 0, "rental_uris": {"android": "https://dc.lft.to/lastmile_qr_scan", "ios": "https://dc.lft.to/lastmile_qr_scan"}, "fusion_lon": 0.0}, {"lat": 38.900974, "is_disabled": 0, "type": "electric_scooter", "lon": -77.05038366666666, "bike_id": "5c39cb38d0c5a7fc2d1cfa2f7854097b", "fusion_lat": 0.0, "name": "5c39cb38d0c5a7fc2d1cfa2f7854097b", "is_reserved": 0, "rental_uris": {"android": "https://dc.lft.to/lastmile_qr_scan", "ios": "https://dc.lft.to/lastmile_qr_scan"}, "fusion_lon": 0.0}, {"lat": 38.899003666666665, "is_disabled": 0, "type": "electric_scooter", "lon": -76.99729683333334, "bike_id": "d9f3c149242d90bb5e7935f6e2478227", "fusion_lat": 0.0, "name": "d9f3c149242d90bb5e7935f6e2478227", "is_reserved": 0, "rental_uris": {"android": "https://dc.lft.to/lastmile_qr_scan", "ios": "https://dc.lft.to/lastmile_qr_scan"}, "fusion_lon": 0.0}, {"lat": 38.89721516666667, "is_disabled": 0, "type": "electric_scooter", "lon": -77.02325566666667, "bike_id": "7ef9a4f3293a6ac3411bb07a91a7bbdf", "fusion_lat": 0.0, "name": "7ef9a4f3293a6ac3411bb07a91a7bbdf", "is_reserved": 0, "rental_uris": {"android": "https://dc.lft.to/lastmile_qr_scan", "ios": "https://dc.lft.to/lastmile_qr_scan"}, "fusion_lon": 0.0}, {"lat": 38.90054133333334, "is_disabled": 0, "type": "electric_scooter", "lon": -77.01321233333333, "bike_id": "8a4424b5bb3671abe0914dc6af4a73eb", "fusion_lat": 0.0, "name": "8a4424b5bb3671abe0914dc6af4a73eb", "is_reserved": 0, "rental_uris": {"android": "https://dc.lft.to/lastmile_qr_scan", "ios": "https://dc.lft.to/lastmile_qr_scan"}, "fusion_lon": 0.0}, {"lat": 38.90303316666667, "is_disabled": 0, "type": "electric_scooter", "lon": -77.00217533333333, "bike_id": "f226d269d72bd44f171b54b82f41be81", "fusion_lat": 0.0, "name": "f226d269d72bd44f171b54b82f41be81", "is_reserved": 0, "rental_uris": {"android": "https://dc.lft.to/lastmile_qr_scan", "ios": "https://dc.lft.to/lastmile_qr_scan"}, "fusion_lon": 0.0}, {"lat": 38.911173833333336, "is_disabled": 0, "type": "electric_scooter", "lon": -77.0425515, "bike_id": "ed3eef9fb6c0dfedfe723f1ccb54e26e", "fusion_lat": 0.0, "name": "ed3eef9fb6c0dfedfe723f1ccb54e26e", "is_reserved": 0, "rental_uris": {"android": "https://dc.lft.to/lastmile_qr_scan", "ios": "https://dc.lft.to/lastmile_qr_scan"}, "fusion_lon": 0.0}, {"lat": 39.03049633333333, "is_disabled": 0, "type": "electric_bike", "lon": -77.09483516666667, "bike_id": "ccb5982f6cf82321acc616485a8510ba", "fusion_lat": 0.0, "name": "ccb5982f6cf82321acc616485a8510ba", "is_reserved": 0, "rental_uris": {"android": "https://dc.lft.to/lastmile_qr_scan", "ios": "https://dc.lft.to/lastmile_qr_scan"}, "fusion_lon": 0.0}, {"lat": 38.9078235, "is_disabled": 0, "type": "electric_scooter", "lon": -77.03552566666667, "bike_id": "46e1f9ec7cd2163689ca40b790b58134", "fusion_lat": 0.0, "name": "46e1f9ec7cd2163689ca40b790b58134", "is_reserved": 0, "rental_uris": {"android": "https://dc.lft.to/lastmile_qr_scan", "ios": "https://dc.lft.to/lastmile_qr_scan"}, "fusion_lon": 0.0}, {"lat": 38.90381466666667, "is_disabled": 0, "type": "electric_scooter", "lon": -77.03827983333333, "bike_id": "c75a4ff9a6832bb7241f07664b4950a6", "fusion_lat": 0.0, "name": "c75a4ff9a6832bb7241f07664b4950a6", "is_reserved": 0, "rental_uris": {"android": "https://dc.lft.to/lastmile_qr_scan", "ios": "https://dc.lft.to/lastmile_qr_scan"}, "fusion_lon": 0.0}, {"lat": 38.916037833333334, "is_disabled": 0, "type": "electric_scooter", "lon": -77.03847883333333, "bike_id": "e93cc287b0a0b78fd3fd6929e304e560", "fusion_lat": 0.0, "name": "e93cc287b0a0b78fd3fd6929e304e560", "is_reserved": 0, "rental_uris": {"android": "https://dc.lft.to/lastmile_qr_scan", "ios": "https://dc.lft.to/lastmile_qr_scan"}, "fusion_lon": 0.0}, {"lat": 38.90777683333334, "is_disabled": 0, "type": "electric_scooter", "lon": -77.03860466666667, "bike_id": "f05353b95403d22b9f8fb27c21a19351", "fusion_lat": 0.0, "name": "f05353b95403d22b9f8fb27c21a19351", "is_reserved": 0, "rental_uris": {"android": "https://dc.lft.to/lastmile_qr_scan", "ios": "https://dc.lft.to/lastmile_qr_scan"}, "fusion_lon": 0.0}, {"lat": 38.9170995, "is_disabled": 0, "type": "electric_scooter", "lon": -77.03726866666666, "bike_id": "9d9c51aa4ee70c45f5c54778a9a39c20", "fusion_lat": 0.0, "name": "9d9c51aa4ee70c45f5c54778a9a39c20", "is_reserved": 0, "rental_uris": {"android": "https://dc.lft.to/lastmile_qr_scan", "ios": "https://dc.lft.to/lastmile_qr_scan"}, "fusion_lon": 0.0}, {"lat": 38.918146166666666, "is_disabled": 0, "type": "electric_scooter", "lon": -77.02477666666667, "bike_id": "82f2bf403217dc8e682adabea387b718", "fusion_lat": 0.0, "name": "82f2bf403217dc8e682adabea387b718", "is_reserved": 0, "rental_uris": {"android": "https://dc.lft.to/lastmile_qr_scan", "ios": "https://dc.lft.to/lastmile_qr_scan"}, "fusion_lon": 0.0}, {"lat": 38.88512983333333, "is_disabled": 0, "type": "electric_scooter", "lon": -77.00681183333333, "bike_id": "58205f584189c11187fc34c80a1f3bc2", "fusion_lat": 0.0, "name": "58205f584189c11187fc34c80a1f3bc2", "is_reserved": 0, "rental_uris": {"android": "https://dc.lft.to/lastmile_qr_scan", "ios": "https://dc.lft.to/lastmile_qr_scan"}, "fusion_lon": 0.0}, {"lat": 38.91363716666667, "is_disabled": 0, "type": "electric_scooter", "lon": -77.04598433333334, "bike_id": "8e9ece54c997b4aca6d5759c684362f6", "fusion_lat": 0.0, "name": "8e9ece54c997b4aca6d5759c684362f6", "is_reserved": 0, "rental_uris": {"android": "https://dc.lft.to/lastmile_qr_scan", "ios": "https://dc.lft.to/lastmile_qr_scan"}, "fusion_lon": 0.0}, {"lat": 38.93840683333333, "is_disabled": 0, "type": "electric_bike", "lon": -76.98859883333333, "bike_id": "64426f1f7b6cdb1037e813ce44acfcff", "fusion_lat": 0.0, "name": "64426f1f7b6cdb1037e813ce44acfcff", "is_reserved": 0, "rental_uris": {"android": "https://dc.lft.to/lastmile_qr_scan", "ios": "https://dc.lft.to/lastmile_qr_scan"}, "fusion_lon": 0.0}, {"lat": 38.927457833333335, "is_disabled": 0, "type": "electric_scooter", "lon": -76.9972565, "bike_id": "fc47c19bb5cc3804294b00757dd0b4b1", "fusion_lat": 0.0, "name": "fc47c19bb5cc3804294b00757dd0b4b1", "is_reserved": 0, "rental_uris": {"android": "https://dc.lft.to/lastmile_qr_scan", "ios": "https://dc.lft.to/lastmile_qr_scan"}, "fusion_lon": 0.0}, {"lat": 38.875770333333335, "is_disabled": 0, "type": "electric_scooter", "lon": -77.02079466666666, "bike_id": "e5eac9fc93106554afcd3fde178dc263", "fusion_lat": 0.0, "name": "e5eac9fc93106554afcd3fde178dc263", "is_reserved": 0, "rental_uris": {"android": "https://dc.lft.to/lastmile_qr_scan", "ios": "https://dc.lft.to/lastmile_qr_scan"}, "fusion_lon": 0.0}, {"lat": 38.863673166666665, "is_disabled": 0, "type": "electric_scooter", "lon": -76.99032566666666, "bike_id": "2d3aa0cf9d86e59cb3a0473b7bf3b3d8", "fusion_lat": 0.0, "name": "2d3aa0cf9d86e59cb3a0473b7bf3b3d8", "is_reserved": 0, "rental_uris": {"android": "https://dc.lft.to/lastmile_qr_scan", "ios": "https://dc.lft.to/lastmile_qr_scan"}, "fusion_lon": 0.0}, {"lat": 38.917364166666665, "is_disabled": 0, "type": "electric_scooter", "lon": -77.06892983333333, "bike_id": "91b66964f40da79201e281d669e0f741", "fusion_lat": 0.0, "name": "91b66964f40da79201e281d669e0f741", "is_reserved": 0, "rental_uris": {"android": "https://dc.lft.to/lastmile_qr_scan", "ios": "https://dc.lft.to/lastmile_qr_scan"}, "fusion_lon": 0.0}, {"lat": 38.9188785, "is_disabled": 0, "type": "electric_scooter", "lon": -77.04034966666667, "bike_id": "c44fa3181bf296d64a7ab9fa41924d73", "fusion_lat": 0.0, "name": "c44fa3181bf296d64a7ab9fa41924d73", "is_reserved": 0, "rental_uris": {"android": "https://dc.lft.to/lastmile_qr_scan", "ios": "https://dc.lft.to/lastmile_qr_scan"}, "fusion_lon": 0.0}, {"lat": 38.913406333333334, "is_disabled": 0, "type": "electric_scooter", "lon": -77.00224233333333, "bike_id": "e0239e94b1d973d46c5194c2431fe90a", "fusion_lat": 0.0, "name": "e0239e94b1d973d46c5194c2431fe90a", "is_reserved": 0, "rental_uris": {"android": "https://dc.lft.to/lastmile_qr_scan", "ios": "https://dc.lft.to/lastmile_qr_scan"}, "fusion_lon": 0.0}, {"lat": 38.911197666666666, "is_disabled": 0, "type": "electric_scooter", "lon": -77.03209016666666, "bike_id": "73afc042925bd6910fc5b3ff891bdede", "fusion_lat": 0.0, "name": "73afc042925bd6910fc5b3ff891bdede", "is_reserved": 0, "rental_uris": {"android": "https://dc.lft.to/lastmile_qr_scan", "ios": "https://dc.lft.to/lastmile_qr_scan"}, "fusion_lon": 0.0}, {"lat": 38.92343966666667, "is_disabled": 0, "type": "electric_scooter", "lon": -77.01905866666667, "bike_id": "783703664f41ffa317002f25b079466c", "fusion_lat": 0.0, "name": "783703664f41ffa317002f25b079466c", "is_reserved": 0, "rental_uris": {"android": "https://dc.lft.to/lastmile_qr_scan", "ios": "https://dc.lft.to/lastmile_qr_scan"}, "fusion_lon": 0.0}, {"lat": 38.89894616666667, "is_disabled": 0, "type": "electric_scooter", "lon": -77.02195666666667, "bike_id": "787373d672bd4c966b6eda3d990b23e2", "fusion_lat": 0.0, "name": "787373d672bd4c966b6eda3d990b23e2", "is_reserved": 0, "rental_uris": {"android": "https://dc.lft.to/lastmile_qr_scan", "ios": "https://dc.lft.to/lastmile_qr_scan"}, "fusion_lon": 0.0}, {"lat": 38.917173166666664, "is_disabled": 0, "type": "electric_scooter", "lon": -77.02287466666667, "bike_id": "0fc072383be5e6ad9751cf176d859d11", "fusion_lat": 0.0, "name": "0fc072383be5e6ad9751cf176d859d11", "is_reserved": 0, "rental_uris": {"android": "https://dc.lft.to/lastmile_qr_scan", "ios": "https://dc.lft.to/lastmile_qr_scan"}, "fusion_lon": 0.0}, {"lat": 38.8833935, "is_disabled": 0, "type": "electric_scooter", "lon": -77.03141, "bike_id": "d86150cc4b927b9e038ab32c19d550f8", "fusion_lat": 0.0, "name": "d86150cc4b927b9e038ab32c19d550f8", "is_reserved": 0, "rental_uris": {"android": "https://dc.lft.to/lastmile_qr_scan", "ios": "https://dc.lft.to/lastmile_qr_scan"}, "fusion_lon": 0.0}, {"lat": 38.86115433333333, "is_disabled": 0, "type": "electric_scooter", "lon": -76.96769516666667, "bike_id": "d665675dbde30324df485354c040a427", "fusion_lat": 0.0, "name": "d665675dbde30324df485354c040a427", "is_reserved": 0, "rental_uris": {"android": "https://dc.lft.to/lastmile_qr_scan", "ios": "https://dc.lft.to/lastmile_qr_scan"}, "fusion_lon": 0.0}, {"lat": 38.912237, "is_disabled": 0, "type": "electric_scooter", "lon": -77.045002, "bike_id": "44897e00e903fc17cf2b9aa901a9ea00", "fusion_lat": 0.0, "name": "44897e00e903fc17cf2b9aa901a9ea00", "is_reserved": 0, "rental_uris": {"android": "https://dc.lft.to/lastmile_qr_scan", "ios": "https://dc.lft.to/lastmile_qr_scan"}, "fusion_lon": 0.0}, {"lat": 38.857873, "is_disabled": 0, "type": "electric_scooter", "lon": -76.987182, "bike_id": "22f09f3927b4487bda01cc5df1813622", "fusion_lat": 0.0, "name": "22f09f3927b4487bda01cc5df1813622", "is_reserved": 0, "rental_uris": {"android": "https://dc.lft.to/lastmile_qr_scan", "ios": "https://dc.lft.to/lastmile_qr_scan"}, "fusion_lon": 0.0}, {"lat": 38.922466166666666, "is_disabled": 0, "type": "electric_scooter", "lon": -77.042486, "bike_id": "32c28214347aef734cc7975d96309ff2", "fusion_lat": 0.0, "name": "32c28214347aef734cc7975d96309ff2", "is_reserved": 0, "rental_uris": {"android": "https://dc.lft.to/lastmile_qr_scan", "ios": "https://dc.lft.to/lastmile_qr_scan"}, "fusion_lon": 0.0}, {"lat": 38.875334333333335, "is_disabled": 0, "type": "electric_scooter", "lon": -77.01770233333333, "bike_id": "c2262a059e74edce79837dfe1037f81e", "fusion_lat": 0.0, "name": "c2262a059e74edce79837dfe1037f81e", "is_reserved": 0, "rental_uris": {"android": "https://dc.lft.to/lastmile_qr_scan", "ios": "https://dc.lft.to/lastmile_qr_scan"}, "fusion_lon": 0.0}, {"lat": 38.9180745, "is_disabled": 0, "type": "electric_scooter", "lon": -77.02699566666666, "bike_id": "1f7ba2b219ea48fc89f7b9ea427d7d8e", "fusion_lat": 0.0, "name": "1f7ba2b219ea48fc89f7b9ea427d7d8e", "is_reserved": 0, "rental_uris": {"android": "https://dc.lft.to/lastmile_qr_scan", "ios": "https://dc.lft.to/lastmile_qr_scan"}, "fusion_lon": 0.0}, {"lat": 38.9238965, "is_disabled": 0, "type": "electric_scooter", "lon": -77.0006615, "bike_id": "fa709efe9743d2129d139171cb7ae599", "fusion_lat": 0.0, "name": "fa709efe9743d2129d139171cb7ae599", "is_reserved": 0, "rental_uris": {"android": "https://dc.lft.to/lastmile_qr_scan", "ios": "https://dc.lft.to/lastmile_qr_scan"}, "fusion_lon": 0.0}, {"lat": 38.918075, "is_disabled": 0, "type": "electric_scooter", "lon": -77.03439383333334, "bike_id": "811aa89a0970f2428156bf455e658cd6", "fusion_lat": 0.0, "name": "811aa89a0970f2428156bf455e658cd6", "is_reserved": 0, "rental_uris": {"android": "https://dc.lft.to/lastmile_qr_scan", "ios": "https://dc.lft.to/lastmile_qr_scan"}, "fusion_lon": 0.0}, {"lat": 38.92615833333333, "is_disabled": 0, "type": "electric_scooter", "lon": -77.021657, "bike_id": "f1552330b27bc988fbcde12092bac7be", "fusion_lat": 0.0, "name": "f1552330b27bc988fbcde12092bac7be", "is_reserved": 0, "rental_uris": {"android": "https://dc.lft.to/lastmile_qr_scan", "ios": "https://dc.lft.to/lastmile_qr_scan"}, "fusion_lon": 0.0}, {"lat": 38.91571016666666, "is_disabled": 0, "type": "electric_scooter", "lon": -77.03392766666667, "bike_id": "8cc075f441f99e7f0f6e8bab1b0489e0", "fusion_lat": 0.0, "name": "8cc075f441f99e7f0f6e8bab1b0489e0", "is_reserved": 0, "rental_uris": {"android": "https://dc.lft.to/lastmile_qr_scan", "ios": "https://dc.lft.to/lastmile_qr_scan"}, "fusion_lon": 0.0}, {"lat": 38.8849185, "is_disabled": 0, "type": "electric_scooter", "lon": -77.00709016666667, "bike_id": "09e0f2330b02734aa03967a11425cfd0", "fusion_lat": 0.0, "name": "09e0f2330b02734aa03967a11425cfd0", "is_reserved": 0, "rental_uris": {"android": "https://dc.lft.to/lastmile_qr_scan", "ios": "https://dc.lft.to/lastmile_qr_scan"}, "fusion_lon": 0.0}, {"lat": 38.925737166666664, "is_disabled": 0, "type": "electric_scooter", "lon": -76.98609883333333, "bike_id": "0aeb3ca57b351a98499fe932a93eed4b", "fusion_lat": 0.0, "name": "0aeb3ca57b351a98499fe932a93eed4b", "is_reserved": 0, "rental_uris": {"android": "https://dc.lft.to/lastmile_qr_scan", "ios": "https://dc.lft.to/lastmile_qr_scan"}, "fusion_lon": 0.0}, {"lat": 38.900095, "is_disabled": 0, "type": "electric_scooter", "lon": -77.01199433333333, "bike_id": "99ceb6e151e52907773e0ffc008e24c4", "fusion_lat": 0.0, "name": "99ceb6e151e52907773e0ffc008e24c4", "is_reserved": 0, "rental_uris": {"android": "https://dc.lft.to/lastmile_qr_scan", "ios": "https://dc.lft.to/lastmile_qr_scan"}, "fusion_lon": 0.0}, {"lat": 38.90252233333333, "is_disabled": 0, "type": "electric_scooter", "lon": -77.0540525, "bike_id": "e8b947f12587748bc29e63ac9ea1ffc4", "fusion_lat": 0.0, "name": "e8b947f12587748bc29e63ac9ea1ffc4", "is_reserved": 0, "rental_uris": {"android": "https://dc.lft.to/lastmile_qr_scan", "ios": "https://dc.lft.to/lastmile_qr_scan"}, "fusion_lon": 0.0}, {"lat": 38.91675933333333, "is_disabled": 0, "type": "electric_scooter", "lon": -77.02594383333333, "bike_id": "5547726dcafad0fb7056ac2ee937ccd5", "fusion_lat": 0.0, "name": "5547726dcafad0fb7056ac2ee937ccd5", "is_reserved": 0, "rental_uris": {"android": "https://dc.lft.to/lastmile_qr_scan", "ios": "https://dc.lft.to/lastmile_qr_scan"}, "fusion_lon": 0.0}, {"lat": 38.84290983333333, "is_disabled": 0, "type": "electric_scooter", "lon": -76.99950683333333, "bike_id": "c3b01964857b58e7a5d6b7c967d1c896", "fusion_lat": 0.0, "name": "c3b01964857b58e7a5d6b7c967d1c896", "is_reserved": 0, "rental_uris": {"android": "https://dc.lft.to/lastmile_qr_scan", "ios": "https://dc.lft.to/lastmile_qr_scan"}, "fusion_lon": 0.0}, {"lat": 38.923694, "is_disabled": 0, "type": "electric_scooter", "lon": -77.029248, "bike_id": "6dd173061aa6c4e7d0da738f56a4a25f", "fusion_lat": 0.0, "name": "6dd173061aa6c4e7d0da738f56a4a25f", "is_reserved": 0, "rental_uris": {"android": "https://dc.lft.to/lastmile_qr_scan", "ios": "https://dc.lft.to/lastmile_qr_scan"}, "fusion_lon": 0.0}, {"lat": 38.877773166666664, "is_disabled": 0, "type": "electric_scooter", "lon": -76.99510716666667, "bike_id": "21e2a3197fa3ccd0d39050f7ab19d2d0", "fusion_lat": 0.0, "name": "21e2a3197fa3ccd0d39050f7ab19d2d0", "is_reserved": 0, "rental_uris": {"android": "https://dc.lft.to/lastmile_qr_scan", "ios": "https://dc.lft.to/lastmile_qr_scan"}, "fusion_lon": 0.0}, {"lat": 38.901106166666665, "is_disabled": 0, "type": "electric_scooter", "lon": -77.03309733333333, "bike_id": "49ab109ce43223277dfd4d88974db67f", "fusion_lat": 0.0, "name": "49ab109ce43223277dfd4d88974db67f", "is_reserved": 0, "rental_uris": {"android": "https://dc.lft.to/lastmile_qr_scan", "ios": "https://dc.lft.to/lastmile_qr_scan"}, "fusion_lon": 0.0}, {"lat": 38.908548333333336, "is_disabled": 0, "type": "electric_scooter", "lon": -77.04768766666666, "bike_id": "9804eb47761859c228980882485fa247", "fusion_lat": 0.0, "name": "9804eb47761859c228980882485fa247", "is_reserved": 0, "rental_uris": {"android": "https://dc.lft.to/lastmile_qr_scan", "ios": "https://dc.lft.to/lastmile_qr_scan"}, "fusion_lon": 0.0}, {"lat": 38.900751166666666, "is_disabled": 0, "type": "electric_scooter", "lon": -77.02714683333333, "bike_id": "7ea0e854981a5dcc9b7e18d205830b77", "fusion_lat": 0.0, "name": "7ea0e854981a5dcc9b7e18d205830b77", "is_reserved": 0, "rental_uris": {"android": "https://dc.lft.to/lastmile_qr_scan", "ios": "https://dc.lft.to/lastmile_qr_scan"}, "fusion_lon": 0.0}, {"lat": 38.900718499999996, "is_disabled": 0, "type": "electric_scooter", "lon": -77.00214266666667, "bike_id": "2504ebdb83814af30643bfdaa924490e", "fusion_lat": 0.0, "name": "2504ebdb83814af30643bfdaa924490e", "is_reserved": 0, "rental_uris": {"android": "https://dc.lft.to/lastmile_qr_scan", "ios": "https://dc.lft.to/lastmile_qr_scan"}, "fusion_lon": 0.0}, {"lat": 38.889279, "is_disabled": 0, "type": "electric_scooter", "lon": -76.97378733333333, "bike_id": "6a95b2db52f2b36bf510d901bc0ec69b", "fusion_lat": 0.0, "name": "6a95b2db52f2b36bf510d901bc0ec69b", "is_reserved": 0, "rental_uris": {"android": "https://dc.lft.to/lastmile_qr_scan", "ios": "https://dc.lft.to/lastmile_qr_scan"}, "fusion_lon": 0.0}, {"lat": 38.8625455, "is_disabled": 0, "type": "electric_scooter", "lon": -76.995125, "bike_id": "a0bcb355e4c81a528e787fcde6a6b022", "fusion_lat": 0.0, "name": "a0bcb355e4c81a528e787fcde6a6b022", "is_reserved": 0, "rental_uris": {"android": "https://dc.lft.to/lastmile_qr_scan", "ios": "https://dc.lft.to/lastmile_qr_scan"}, "fusion_lon": 0.0}, {"lat": 38.9432735, "is_disabled": 0, "type": "electric_scooter", "lon": -77.01704933333333, "bike_id": "6e3350c6492e4a202a144394894def90", "fusion_lat": 0.0, "name": "6e3350c6492e4a202a144394894def90", "is_reserved": 0, "rental_uris": {"android": "https://dc.lft.to/lastmile_qr_scan", "ios": "https://dc.lft.to/lastmile_qr_scan"}, "fusion_lon": 0.0}, {"lat": 38.861615666666665, "is_disabled": 0, "type": "electric_bike", "lon": -77.130939, "bike_id": "cbb232d78df4c8497d424fb5f873c04c", "fusion_lat": 0.0, "name": "cbb232d78df4c8497d424fb5f873c04c", "is_reserved": 0, "rental_uris": {"android": "https://dc.lft.to/lastmile_qr_scan", "ios": "https://dc.lft.to/lastmile_qr_scan"}, "fusion_lon": 0.0}, {"lat": 38.902263166666664, "is_disabled": 0, "type": "electric_scooter", "lon": -77.02313916666667, "bike_id": "93c0bbfce4ebf6c0dc66004cdbdf3c6a", "fusion_lat": 0.0, "name": "93c0bbfce4ebf6c0dc66004cdbdf3c6a", "is_reserved": 0, "rental_uris": {"android": "https://dc.lft.to/lastmile_qr_scan", "ios": "https://dc.lft.to/lastmile_qr_scan"}, "fusion_lon": 0.0}, {"lat": 38.90230066666667, "is_disabled": 0, "type": "electric_scooter", "lon": -77.04577433333333, "bike_id": "7032c91080be8b273249f8823b5280d1", "fusion_lat": 0.0, "name": "7032c91080be8b273249f8823b5280d1", "is_reserved": 0, "rental_uris": {"android": "https://dc.lft.to/lastmile_qr_scan", "ios": "https://dc.lft.to/lastmile_qr_scan"}, "fusion_lon": 0.0}, {"lat": 38.893348, "is_disabled": 0, "type": "electric_scooter", "lon": -77.031662, "bike_id": "cc819b3005f36d4555b5d98e05b6dbdb", "fusion_lat": 0.0, "name": "cc819b3005f36d4555b5d98e05b6dbdb", "is_reserved": 0, "rental_uris": {"android": "https://dc.lft.to/lastmile_qr_scan", "ios": "https://dc.lft.to/lastmile_qr_scan"}, "fusion_lon": 0.0}, {"lat": 38.9166855, "is_disabled": 0, "type": "electric_scooter", "lon": -77.03357916666667, "bike_id": "0a630712cb7715036685d41932b7e93e", "fusion_lat": 0.0, "name": "0a630712cb7715036685d41932b7e93e", "is_reserved": 0, "rental_uris": {"android": "https://dc.lft.to/lastmile_qr_scan", "ios": "https://dc.lft.to/lastmile_qr_scan"}, "fusion_lon": 0.0}, {"lat": 38.91927666666667, "is_disabled": 0, "type": "electric_scooter", "lon": -77.04823566666667, "bike_id": "265c589807fe5e918d0edfc341bd16d9", "fusion_lat": 0.0, "name": "265c589807fe5e918d0edfc341bd16d9", "is_reserved": 0, "rental_uris": {"android": "https://dc.lft.to/lastmile_qr_scan", "ios": "https://dc.lft.to/lastmile_qr_scan"}, "fusion_lon": 0.0}, {"lat": 38.8968415, "is_disabled": 0, "type": "electric_scooter", "lon": -76.935388, "bike_id": "21a68636727e1de41a1e1ba944af9ad2", "fusion_lat": 0.0, "name": "21a68636727e1de41a1e1ba944af9ad2", "is_reserved": 0, "rental_uris": {"android": "https://dc.lft.to/lastmile_qr_scan", "ios": "https://dc.lft.to/lastmile_qr_scan"}, "fusion_lon": 0.0}, {"lat": 38.89858233333333, "is_disabled": 0, "type": "electric_scooter", "lon": -77.02901866666667, "bike_id": "84e9fcea22ddfe7d96895d184f6e6686", "fusion_lat": 0.0, "name": "84e9fcea22ddfe7d96895d184f6e6686", "is_reserved": 0, "rental_uris": {"android": "https://dc.lft.to/lastmile_qr_scan", "ios": "https://dc.lft.to/lastmile_qr_scan"}, "fusion_lon": 0.0}, {"lat": 38.919548666666664, "is_disabled": 0, "type": "electric_scooter", "lon": -77.031982, "bike_id": "f306125c2c73c19336acd06021aa196c", "fusion_lat": 0.0, "name": "f306125c2c73c19336acd06021aa196c", "is_reserved": 0, "rental_uris": {"android": "https://dc.lft.to/lastmile_qr_scan", "ios": "https://dc.lft.to/lastmile_qr_scan"}, "fusion_lon": 0.0}, {"lat": 38.914877, "is_disabled": 0, "type": "electric_scooter", "lon": -77.03264316666667, "bike_id": "432e6ea2e9b98fc120bd752ccd901202", "fusion_lat": 0.0, "name": "432e6ea2e9b98fc120bd752ccd901202", "is_reserved": 0, "rental_uris": {"android": "https://dc.lft.to/lastmile_qr_scan", "ios": "https://dc.lft.to/lastmile_qr_scan"}, "fusion_lon": 0.0}, {"lat": 38.92603916666667, "is_disabled": 0, "type": "electric_scooter", "lon": -77.02156083333334, "bike_id": "944e22e1c1d834a0cc8976373dc095cf", "fusion_lat": 0.0, "name": "944e22e1c1d834a0cc8976373dc095cf", "is_reserved": 0, "rental_uris": {"android": "https://dc.lft.to/lastmile_qr_scan", "ios": "https://dc.lft.to/lastmile_qr_scan"}, "fusion_lon": 0.0}, {"lat": 38.86620216666667, "is_disabled": 0, "type": "electric_bike", "lon": -76.94570716666666, "bike_id": "a2e019bab596e2597a567b171b18f1a6", "fusion_lat": 0.0, "name": "a2e019bab596e2597a567b171b18f1a6", "is_reserved": 0, "rental_uris": {"android": "https://dc.lft.to/lastmile_qr_scan", "ios": "https://dc.lft.to/lastmile_qr_scan"}, "fusion_lon": 0.0}, {"lat": 38.89359783333333, "is_disabled": 0, "type": "electric_scooter", "lon": -77.0280015, "bike_id": "288c4510dbb90ee62f1a4674c99889de", "fusion_lat": 0.0, "name": "288c4510dbb90ee62f1a4674c99889de", "is_reserved": 0, "rental_uris": {"android": "https://dc.lft.to/lastmile_qr_scan", "ios": "https://dc.lft.to/lastmile_qr_scan"}, "fusion_lon": 0.0}, {"lat": 38.95959216666667, "is_disabled": 0, "type": "electric_scooter", "lon": -77.0330845, "bike_id": "e9cbf57b4cdd7d31fac2a0a72c1e470e", "fusion_lat": 0.0, "name": "e9cbf57b4cdd7d31fac2a0a72c1e470e", "is_reserved": 0, "rental_uris": {"android": "https://dc.lft.to/lastmile_qr_scan", "ios": "https://dc.lft.to/lastmile_qr_scan"}, "fusion_lon": 0.0}, {"lat": 38.959566, "is_disabled": 0, "type": "electric_bike", "lon": -77.10093283333333, "bike_id": "bc05c59f3752f8460c681230e9113d55", "fusion_lat": 0.0, "name": "bc05c59f3752f8460c681230e9113d55", "is_reserved": 0, "rental_uris": {"android": "https://dc.lft.to/lastmile_qr_scan", "ios": "https://dc.lft.to/lastmile_qr_scan"}, "fusion_lon": 0.0}, {"lat": 38.961484166666665, "is_disabled": 0, "type": "electric_scooter", "lon": -77.02786966666666, "bike_id": "1075284d1561642ea865f8c87fac5126", "fusion_lat": 0.0, "name": "1075284d1561642ea865f8c87fac5126", "is_reserved": 0, "rental_uris": {"android": "https://dc.lft.to/lastmile_qr_scan", "ios": "https://dc.lft.to/lastmile_qr_scan"}, "fusion_lon": 0.0}, {"lat": 38.913216166666665, "is_disabled": 0, "type": "electric_scooter", "lon": -77.032621, "bike_id": "fe4676d2a18ff0faa6857f645dcf548c", "fusion_lat": 0.0, "name": "fe4676d2a18ff0faa6857f645dcf548c", "is_reserved": 0, "rental_uris": {"android": "https://dc.lft.to/lastmile_qr_scan", "ios": "https://dc.lft.to/lastmile_qr_scan"}, "fusion_lon": 0.0}, {"lat": 38.9089975, "is_disabled": 0, "type": "electric_scooter", "lon": -77.04417816666667, "bike_id": "99f99b361b8e0f071d7153f5e16e3e3c", "fusion_lat": 0.0, "name": "99f99b361b8e0f071d7153f5e16e3e3c", "is_reserved": 0, "rental_uris": {"android": "https://dc.lft.to/lastmile_qr_scan", "ios": "https://dc.lft.to/lastmile_qr_scan"}, "fusion_lon": 0.0}, {"lat": 38.920762333333336, "is_disabled": 0, "type": "electric_scooter", "lon": -77.04339266666666, "bike_id": "d1001a74c052e2492efe28f3a19c7f8a", "fusion_lat": 0.0, "name": "d1001a74c052e2492efe28f3a19c7f8a", "is_reserved": 0, "rental_uris": {"android": "https://dc.lft.to/lastmile_qr_scan", "ios": "https://dc.lft.to/lastmile_qr_scan"}, "fusion_lon": 0.0}, {"lat": 38.89225416666667, "is_disabled": 0, "type": "electric_scooter", "lon": -77.0487725, "bike_id": "3c47feb65979fd49994b6aba374fbb83", "fusion_lat": 0.0, "name": "3c47feb65979fd49994b6aba374fbb83", "is_reserved": 0, "rental_uris": {"android": "https://dc.lft.to/lastmile_qr_scan", "ios": "https://dc.lft.to/lastmile_qr_scan"}, "fusion_lon": 0.0}, {"lat": 38.87164516666667, "is_disabled": 0, "type": "electric_scooter", "lon": -77.01359816666667, "bike_id": "e5b6b64035792e69553efc0eb73f6250", "fusion_lat": 0.0, "name": "e5b6b64035792e69553efc0eb73f6250", "is_reserved": 0, "rental_uris": {"android": "https://dc.lft.to/lastmile_qr_scan", "ios": "https://dc.lft.to/lastmile_qr_scan"}, "fusion_lon": 0.0}, {"lat": 38.94117633333333, "is_disabled": 0, "type": "electric_scooter", "lon": -77.00043966666667, "bike_id": "20e60187126e46ad4f6ced3f2067aa35", "fusion_lat": 0.0, "name": "20e60187126e46ad4f6ced3f2067aa35", "is_reserved": 0, "rental_uris": {"android": "https://dc.lft.to/lastmile_qr_scan", "ios": "https://dc.lft.to/lastmile_qr_scan"}, "fusion_lon": 0.0}, {"lat": 38.85321416666667, "is_disabled": 0, "type": "electric_scooter", "lon": -76.98027016666667, "bike_id": "fae8c6b17bebdadbced8a56de1b86137", "fusion_lat": 0.0, "name": "fae8c6b17bebdadbced8a56de1b86137", "is_reserved": 0, "rental_uris": {"android": "https://dc.lft.to/lastmile_qr_scan", "ios": "https://dc.lft.to/lastmile_qr_scan"}, "fusion_lon": 0.0}, {"lat": 38.81357583333333, "is_disabled": 0, "type": "electric_bike", "lon": -77.04920866666667, "bike_id": "0662a2887a606cc8e739429842a256e2", "fusion_lat": 0.0, "name": "0662a2887a606cc8e739429842a256e2", "is_reserved": 0, "rental_uris": {"android": "https://dc.lft.to/lastmile_qr_scan", "ios": "https://dc.lft.to/lastmile_qr_scan"}, "fusion_lon": 0.0}, {"lat": 38.92516216666667, "is_disabled": 0, "type": "electric_scooter", "lon": -77.02364466666667, "bike_id": "6ae50efe870cf36d50bfb870735ed52c", "fusion_lat": 0.0, "name": "6ae50efe870cf36d50bfb870735ed52c", "is_reserved": 0, "rental_uris": {"android": "https://dc.lft.to/lastmile_qr_scan", "ios": "https://dc.lft.to/lastmile_qr_scan"}, "fusion_lon": 0.0}, {"lat": 38.91296233333333, "is_disabled": 0, "type": "electric_scooter", "lon": -77.0385485, "bike_id": "d742a6c9a9ca04204acde511dae09b79", "fusion_lat": 0.0, "name": "d742a6c9a9ca04204acde511dae09b79", "is_reserved": 0, "rental_uris": {"android": "https://dc.lft.to/lastmile_qr_scan", "ios": "https://dc.lft.to/lastmile_qr_scan"}, "fusion_lon": 0.0}, {"lat": 38.89613416666667, "is_disabled": 0, "type": "electric_scooter", "lon": -76.9565305, "bike_id": "c9f88798d5b24dc411eec2e6703c185e", "fusion_lat": 0.0, "name": "c9f88798d5b24dc411eec2e6703c185e", "is_reserved": 0, "rental_uris": {"android": "https://dc.lft.to/lastmile_qr_scan", "ios": "https://dc.lft.to/lastmile_qr_scan"}, "fusion_lon": 0.0}, {"lat": 38.910500166666665, "is_disabled": 0, "type": "electric_scooter", "lon": -77.01520666666667, "bike_id": "f9c136e33ff58f56e6f8ee3ecde0796e", "fusion_lat": 0.0, "name": "f9c136e33ff58f56e6f8ee3ecde0796e", "is_reserved": 0, "rental_uris": {"android": "https://dc.lft.to/lastmile_qr_scan", "ios": "https://dc.lft.to/lastmile_qr_scan"}, "fusion_lon": 0.0}, {"lat": 38.895572666666666, "is_disabled": 0, "type": "electric_scooter", "lon": -77.00365883333333, "bike_id": "c32203b0cac9efae7374ed873a5ebeee", "fusion_lat": 0.0, "name": "c32203b0cac9efae7374ed873a5ebeee", "is_reserved": 0, "rental_uris": {"android": "https://dc.lft.to/lastmile_qr_scan", "ios": "https://dc.lft.to/lastmile_qr_scan"}, "fusion_lon": 0.0}, {"lat": 38.90790283333333, "is_disabled": 0, "type": "electric_scooter", "lon": -77.01102016666667, "bike_id": "92db79a51b0512d93c2c6f8b3b37a07a", "fusion_lat": 0.0, "name": "92db79a51b0512d93c2c6f8b3b37a07a", "is_reserved": 0, "rental_uris": {"android": "https://dc.lft.to/lastmile_qr_scan", "ios": "https://dc.lft.to/lastmile_qr_scan"}, "fusion_lon": 0.0}, {"lat": 38.900163166666665, "is_disabled": 0, "type": "electric_scooter", "lon": -77.032879, "bike_id": "435bcf2d2be71b1a64073ee8ef78a381", "fusion_lat": 0.0, "name": "435bcf2d2be71b1a64073ee8ef78a381", "is_reserved": 0, "rental_uris": {"android": "https://dc.lft.to/lastmile_qr_scan", "ios": "https://dc.lft.to/lastmile_qr_scan"}, "fusion_lon": 0.0}, {"lat": 38.938628, "is_disabled": 0, "type": "electric_scooter", "lon": -77.03201233333333, "bike_id": "da16c0d388feb5e12c18f417da8809da", "fusion_lat": 0.0, "name": "da16c0d388feb5e12c18f417da8809da", "is_reserved": 0, "rental_uris": {"android": "https://dc.lft.to/lastmile_qr_scan", "ios": "https://dc.lft.to/lastmile_qr_scan"}, "fusion_lon": 0.0}, {"lat": 38.94913416666667, "is_disabled": 0, "type": "electric_scooter", "lon": -77.06627683333333, "bike_id": "541aedcc32d6300559a4dda2148413a9", "fusion_lat": 0.0, "name": "541aedcc32d6300559a4dda2148413a9", "is_reserved": 0, "rental_uris": {"android": "https://dc.lft.to/lastmile_qr_scan", "ios": "https://dc.lft.to/lastmile_qr_scan"}, "fusion_lon": 0.0}, {"lat": 38.911258833333335, "is_disabled": 0, "type": "electric_scooter", "lon": -77.038162, "bike_id": "b1ba18893fd1d62b5d48c6b75ce7f508", "fusion_lat": 0.0, "name": "b1ba18893fd1d62b5d48c6b75ce7f508", "is_reserved": 0, "rental_uris": {"android": "https://dc.lft.to/lastmile_qr_scan", "ios": "https://dc.lft.to/lastmile_qr_scan"}, "fusion_lon": 0.0}, {"lat": 38.962046666666666, "is_disabled": 0, "type": "electric_bike", "lon": -77.035144, "bike_id": "c0e212e003b3b94f72ec9664127abd89", "fusion_lat": 0.0, "name": "c0e212e003b3b94f72ec9664127abd89", "is_reserved": 0, "rental_uris": {"android": "https://dc.lft.to/lastmile_qr_scan", "ios": "https://dc.lft.to/lastmile_qr_scan"}, "fusion_lon": 0.0}, {"lat": 38.907480666666665, "is_disabled": 0, "type": "electric_scooter", "lon": -77.0298455, "bike_id": "ebcac394ff5c6db17f3d8d8224b1463b", "fusion_lat": 0.0, "name": "ebcac394ff5c6db17f3d8d8224b1463b", "is_reserved": 0, "rental_uris": {"android": "https://dc.lft.to/lastmile_qr_scan", "ios": "https://dc.lft.to/lastmile_qr_scan"}, "fusion_lon": 0.0}, {"lat": 38.89224466666667, "is_disabled": 0, "type": "electric_scooter", "lon": -77.04864666666667, "bike_id": "6bf75b2bd6d19895313d30daf32e6bd8", "fusion_lat": 0.0, "name": "6bf75b2bd6d19895313d30daf32e6bd8", "is_reserved": 0, "rental_uris": {"android": "https://dc.lft.to/lastmile_qr_scan", "ios": "https://dc.lft.to/lastmile_qr_scan"}, "fusion_lon": 0.0}, {"lat": 38.925768833333336, "is_disabled": 0, "type": "electric_scooter", "lon": -77.04013166666667, "bike_id": "c6e0186f219cc8f86a6da7339eaf4e3b", "fusion_lat": 0.0, "name": "c6e0186f219cc8f86a6da7339eaf4e3b", "is_reserved": 0, "rental_uris": {"android": "https://dc.lft.to/lastmile_qr_scan", "ios": "https://dc.lft.to/lastmile_qr_scan"}, "fusion_lon": 0.0}, {"lat": 38.858080666666666, "is_disabled": 0, "type": "electric_scooter", "lon": -76.98655616666667, "bike_id": "c008c0e00f011062f5435f90dfe5d029", "fusion_lat": 0.0, "name": "c008c0e00f011062f5435f90dfe5d029", "is_reserved": 0, "rental_uris": {"android": "https://dc.lft.to/lastmile_qr_scan", "ios": "https://dc.lft.to/lastmile_qr_scan"}, "fusion_lon": 0.0}, {"lat": 38.966116166666666, "is_disabled": 0, "type": "electric_scooter", "lon": -77.02058266666667, "bike_id": "a978bdaee64d9b684af292d33991635e", "fusion_lat": 0.0, "name": "a978bdaee64d9b684af292d33991635e", "is_reserved": 0, "rental_uris": {"android": "https://dc.lft.to/lastmile_qr_scan", "ios": "https://dc.lft.to/lastmile_qr_scan"}, "fusion_lon": 0.0}, {"lat": 38.91716183333333, "is_disabled": 0, "type": "electric_scooter", "lon": -77.023849, "bike_id": "e89b5d57e7bd4e0b98f941ffb15f6377", "fusion_lat": 0.0, "name": "e89b5d57e7bd4e0b98f941ffb15f6377", "is_reserved": 0, "rental_uris": {"android": "https://dc.lft.to/lastmile_qr_scan", "ios": "https://dc.lft.to/lastmile_qr_scan"}, "fusion_lon": 0.0}, {"lat": 38.895494166666666, "is_disabled": 0, "type": "electric_scooter", "lon": -77.00439533333333, "bike_id": "ba70ef703b92245e37647002942a4dc4", "fusion_lat": 0.0, "name": "ba70ef703b92245e37647002942a4dc4", "is_reserved": 0, "rental_uris": {"android": "https://dc.lft.to/lastmile_qr_scan", "ios": "https://dc.lft.to/lastmile_qr_scan"}, "fusion_lon": 0.0}, {"lat": 38.901454333333334, "is_disabled": 0, "type": "electric_scooter", "lon": -77.02922833333334, "bike_id": "cde0d835fe6c7199d00e899ab69d40d2", "fusion_lat": 0.0, "name": "cde0d835fe6c7199d00e899ab69d40d2", "is_reserved": 0, "rental_uris": {"android": "https://dc.lft.to/lastmile_qr_scan", "ios": "https://dc.lft.to/lastmile_qr_scan"}, "fusion_lon": 0.0}, {"lat": 38.92039183333333, "is_disabled": 0, "type": "electric_scooter", "lon": -76.99339416666666, "bike_id": "516d5552f2e54bb8a58361367d5e85df", "fusion_lat": 0.0, "name": "516d5552f2e54bb8a58361367d5e85df", "is_reserved": 0, "rental_uris": {"android": "https://dc.lft.to/lastmile_qr_scan", "ios": "https://dc.lft.to/lastmile_qr_scan"}, "fusion_lon": 0.0}, {"lat": 38.97327333333333, "is_disabled": 0, "type": "electric_bike", "lon": -77.02289466666667, "bike_id": "1d27d151b3eda3fa626aac0de798a5e5", "fusion_lat": 0.0, "name": "1d27d151b3eda3fa626aac0de798a5e5", "is_reserved": 0, "rental_uris": {"android": "https://dc.lft.to/lastmile_qr_scan", "ios": "https://dc.lft.to/lastmile_qr_scan"}, "fusion_lon": 0.0}, {"lat": 38.91782933333333, "is_disabled": 0, "type": "electric_scooter", "lon": -77.02308433333333, "bike_id": "64595213fd1f03c78538cf468be37ab7", "fusion_lat": 0.0, "name": "64595213fd1f03c78538cf468be37ab7", "is_reserved": 0, "rental_uris": {"android": "https://dc.lft.to/lastmile_qr_scan", "ios": "https://dc.lft.to/lastmile_qr_scan"}, "fusion_lon": 0.0}, {"lat": 38.865109833333335, "is_disabled": 0, "type": "electric_scooter", "lon": -76.99008716666667, "bike_id": "643e2b32c0e7060522d73e8473f831b7", "fusion_lat": 0.0, "name": "643e2b32c0e7060522d73e8473f831b7", "is_reserved": 0, "rental_uris": {"android": "https://dc.lft.to/lastmile_qr_scan", "ios": "https://dc.lft.to/lastmile_qr_scan"}, "fusion_lon": 0.0}, {"lat": 38.884816666666666, "is_disabled": 0, "type": "electric_scooter", "lon": -77.03476116666667, "bike_id": "ca8ddddb56acbbd60402e152e3f2dda6", "fusion_lat": 0.0, "name": "ca8ddddb56acbbd60402e152e3f2dda6", "is_reserved": 0, "rental_uris": {"android": "https://dc.lft.to/lastmile_qr_scan", "ios": "https://dc.lft.to/lastmile_qr_scan"}, "fusion_lon": 0.0}, {"lat": 38.842754666666664, "is_disabled": 0, "type": "electric_bike", "lon": -76.988399, "bike_id": "22653eedb62df9dc7122432b865feb4a", "fusion_lat": 0.0, "name": "22653eedb62df9dc7122432b865feb4a", "is_reserved": 0, "rental_uris": {"android": "https://dc.lft.to/lastmile_qr_scan", "ios": "https://dc.lft.to/lastmile_qr_scan"}, "fusion_lon": 0.0}, {"lat": 38.916580833333335, "is_disabled": 0, "type": "electric_scooter", "lon": -77.04720016666667, "bike_id": "5a5fcf2a0b5e28402ffca26ce4ab2b65", "fusion_lat": 0.0, "name": "5a5fcf2a0b5e28402ffca26ce4ab2b65", "is_reserved": 0, "rental_uris": {"android": "https://dc.lft.to/lastmile_qr_scan", "ios": "https://dc.lft.to/lastmile_qr_scan"}, "fusion_lon": 0.0}, {"lat": 38.8934365, "is_disabled": 0, "type": "electric_scooter", "lon": -77.0122775, "bike_id": "a4c2f58dca6de49bbf0e23c2d5e94dfd", "fusion_lat": 0.0, "name": "a4c2f58dca6de49bbf0e23c2d5e94dfd", "is_reserved": 0, "rental_uris": {"android": "https://dc.lft.to/lastmile_qr_scan", "ios": "https://dc.lft.to/lastmile_qr_scan"}, "fusion_lon": 0.0}, {"lat": 38.83725333333334, "is_disabled": 0, "type": "electric_bike", "lon": -76.99766583333333, "bike_id": "76e40fabb3e1c7402bdd7078a8b84b25", "fusion_lat": 0.0, "name": "76e40fabb3e1c7402bdd7078a8b84b25", "is_reserved": 0, "rental_uris": {"android": "https://dc.lft.to/lastmile_qr_scan", "ios": "https://dc.lft.to/lastmile_qr_scan"}, "fusion_lon": 0.0}, {"lat": 38.903249333333335, "is_disabled": 0, "type": "electric_scooter", "lon": -77.02876483333333, "bike_id": "77d8f3179a97e23504dde003835e6bfa", "fusion_lat": 0.0, "name": "77d8f3179a97e23504dde003835e6bfa", "is_reserved": 0, "rental_uris": {"android": "https://dc.lft.to/lastmile_qr_scan", "ios": "https://dc.lft.to/lastmile_qr_scan"}, "fusion_lon": 0.0}, {"lat": 38.918140666666666, "is_disabled": 0, "type": "electric_scooter", "lon": -77.031701, "bike_id": "912615690ab6599ed44d43c6125f3599", "fusion_lat": 0.0, "name": "912615690ab6599ed44d43c6125f3599", "is_reserved": 0, "rental_uris": {"android": "https://dc.lft.to/lastmile_qr_scan", "ios": "https://dc.lft.to/lastmile_qr_scan"}, "fusion_lon": 0.0}, {"lat": 38.934054, "is_disabled": 0, "type": "electric_scooter", "lon": -77.024622, "bike_id": "474a0f2076f3a107737a7cbf39e0179b", "fusion_lat": 0.0, "name": "474a0f2076f3a107737a7cbf39e0179b", "is_reserved": 0, "rental_uris": {"android": "https://dc.lft.to/lastmile_qr_scan", "ios": "https://dc.lft.to/lastmile_qr_scan"}, "fusion_lon": 0.0}, {"lat": 38.85673766666667, "is_disabled": 0, "type": "electric_scooter", "lon": -76.98176666666667, "bike_id": "4b325498ec8a260d3d74fb66fc43af62", "fusion_lat": 0.0, "name": "4b325498ec8a260d3d74fb66fc43af62", "is_reserved": 0, "rental_uris": {"android": "https://dc.lft.to/lastmile_qr_scan", "ios": "https://dc.lft.to/lastmile_qr_scan"}, "fusion_lon": 0.0}, {"lat": 38.89268, "is_disabled": 0, "type": "electric_scooter", "lon": -77.02026466666666, "bike_id": "fe7ff5f68f2c1936893a8afa2d08adc2", "fusion_lat": 0.0, "name": "fe7ff5f68f2c1936893a8afa2d08adc2", "is_reserved": 0, "rental_uris": {"android": "https://dc.lft.to/lastmile_qr_scan", "ios": "https://dc.lft.to/lastmile_qr_scan"}, "fusion_lon": 0.0}, {"lat": 38.91785216666667, "is_disabled": 0, "type": "electric_scooter", "lon": -77.02303083333334, "bike_id": "b0a0004e51fea17eebbfb6e0f88a38b5", "fusion_lat": 0.0, "name": "b0a0004e51fea17eebbfb6e0f88a38b5", "is_reserved": 0, "rental_uris": {"android": "https://dc.lft.to/lastmile_qr_scan", "ios": "https://dc.lft.to/lastmile_qr_scan"}, "fusion_lon": 0.0}, {"lat": 38.91545033333333, "is_disabled": 0, "type": "electric_scooter", "lon": -77.07417733333334, "bike_id": "603fd6a4b237fae763ee771f1546a7d7", "fusion_lat": 0.0, "name": "603fd6a4b237fae763ee771f1546a7d7", "is_reserved": 0, "rental_uris": {"android": "https://dc.lft.to/lastmile_qr_scan", "ios": "https://dc.lft.to/lastmile_qr_scan"}, "fusion_lon": 0.0}, {"lat": 38.91520966666667, "is_disabled": 0, "type": "electric_scooter", "lon": -77.038421, "bike_id": "af37864925bdb798e0c9de8679890f8e", "fusion_lat": 0.0, "name": "af37864925bdb798e0c9de8679890f8e", "is_reserved": 0, "rental_uris": {"android": "https://dc.lft.to/lastmile_qr_scan", "ios": "https://dc.lft.to/lastmile_qr_scan"}, "fusion_lon": 0.0}, {"lat": 38.9722775, "is_disabled": 0, "type": "electric_bike", "lon": -77.036063, "bike_id": "f8c07a5ee520c95364b23964ff59330b", "fusion_lat": 0.0, "name": "f8c07a5ee520c95364b23964ff59330b", "is_reserved": 0, "rental_uris": {"android": "https://dc.lft.to/lastmile_qr_scan", "ios": "https://dc.lft.to/lastmile_qr_scan"}, "fusion_lon": 0.0}, {"lat": 38.929512333333335, "is_disabled": 0, "type": "electric_scooter", "lon": -76.99087966666667, "bike_id": "9a60847df40190601c6cb63e5871a263", "fusion_lat": 0.0, "name": "9a60847df40190601c6cb63e5871a263", "is_reserved": 0, "rental_uris": {"android": "https://dc.lft.to/lastmile_qr_scan", "ios": "https://dc.lft.to/lastmile_qr_scan"}, "fusion_lon": 0.0}, {"lat": 38.90970033333333, "is_disabled": 0, "type": "electric_scooter", "lon": -76.99601283333334, "bike_id": "1f05d3c3a5006506f907bdda1943e295", "fusion_lat": 0.0, "name": "1f05d3c3a5006506f907bdda1943e295", "is_reserved": 0, "rental_uris": {"android": "https://dc.lft.to/lastmile_qr_scan", "ios": "https://dc.lft.to/lastmile_qr_scan"}, "fusion_lon": 0.0}, {"lat": 38.89287183333333, "is_disabled": 0, "type": "electric_scooter", "lon": -76.958504, "bike_id": "c7e6fe9d18689b853509ac2238b66421", "fusion_lat": 0.0, "name": "c7e6fe9d18689b853509ac2238b66421", "is_reserved": 0, "rental_uris": {"android": "https://dc.lft.to/lastmile_qr_scan", "ios": "https://dc.lft.to/lastmile_qr_scan"}, "fusion_lon": 0.0}, {"lat": 38.89999533333334, "is_disabled": 0, "type": "electric_scooter", "lon": -76.999618, "bike_id": "f8f181072dfb84e568e729071b3a8428", "fusion_lat": 0.0, "name": "f8f181072dfb84e568e729071b3a8428", "is_reserved": 0, "rental_uris": {"android": "https://dc.lft.to/lastmile_qr_scan", "ios": "https://dc.lft.to/lastmile_qr_scan"}, "fusion_lon": 0.0}, {"lat": 38.881046, "is_disabled": 0, "type": "electric_scooter", "lon": -76.99504333333333, "bike_id": "b365dde84aa9cb61dff223277f1d16d0", "fusion_lat": 0.0, "name": "b365dde84aa9cb61dff223277f1d16d0", "is_reserved": 0, "rental_uris": {"android": "https://dc.lft.to/lastmile_qr_scan", "ios": "https://dc.lft.to/lastmile_qr_scan"}, "fusion_lon": 0.0}, {"lat": 38.9080175, "is_disabled": 0, "type": "electric_scooter", "lon": -77.06352833333334, "bike_id": "b11a3b28f3e988e6da0835aaa20291d6", "fusion_lat": 0.0, "name": "b11a3b28f3e988e6da0835aaa20291d6", "is_reserved": 0, "rental_uris": {"android": "https://dc.lft.to/lastmile_qr_scan", "ios": "https://dc.lft.to/lastmile_qr_scan"}, "fusion_lon": 0.0}, {"lat": 38.91488716666667, "is_disabled": 0, "type": "electric_scooter", "lon": -77.03263416666667, "bike_id": "be94c78e96a0bee11d038da578b85552", "fusion_lat": 0.0, "name": "be94c78e96a0bee11d038da578b85552", "is_reserved": 0, "rental_uris": {"android": "https://dc.lft.to/lastmile_qr_scan", "ios": "https://dc.lft.to/lastmile_qr_scan"}, "fusion_lon": 0.0}, {"lat": 38.9226355, "is_disabled": 0, "type": "electric_scooter", "lon": -77.04306966666667, "bike_id": "51ccc066106e70226a941a12c37ad674", "fusion_lat": 0.0, "name": "51ccc066106e70226a941a12c37ad674", "is_reserved": 0, "rental_uris": {"android": "https://dc.lft.to/lastmile_qr_scan", "ios": "https://dc.lft.to/lastmile_qr_scan"}, "fusion_lon": 0.0}, {"lat": 38.925313833333334, "is_disabled": 0, "type": "electric_scooter", "lon": -77.04428483333334, "bike_id": "9411bd4c5d04edf8b7fdcb1afea95715", "fusion_lat": 0.0, "name": "9411bd4c5d04edf8b7fdcb1afea95715", "is_reserved": 0, "rental_uris": {"android": "https://dc.lft.to/lastmile_qr_scan", "ios": "https://dc.lft.to/lastmile_qr_scan"}, "fusion_lon": 0.0}, {"lat": 38.9039085, "is_disabled": 0, "type": "electric_scooter", "lon": -77.03843816666667, "bike_id": "475e82560b575c8cd761fad33afca17a", "fusion_lat": 0.0, "name": "475e82560b575c8cd761fad33afca17a", "is_reserved": 0, "rental_uris": {"android": "https://dc.lft.to/lastmile_qr_scan", "ios": "https://dc.lft.to/lastmile_qr_scan"}, "fusion_lon": 0.0}, {"lat": 38.929554833333334, "is_disabled": 0, "type": "electric_scooter", "lon": -77.03616916666667, "bike_id": "1ebb180e54d58604af222a10c6e80aaa", "fusion_lat": 0.0, "name": "1ebb180e54d58604af222a10c6e80aaa", "is_reserved": 0, "rental_uris": {"android": "https://dc.lft.to/lastmile_qr_scan", "ios": "https://dc.lft.to/lastmile_qr_scan"}, "fusion_lon": 0.0}, {"lat": 38.884890666666664, "is_disabled": 0, "type": "electric_scooter", "lon": -77.03474316666667, "bike_id": "9bf34ff812697ca65c581c3f6fff8209", "fusion_lat": 0.0, "name": "9bf34ff812697ca65c581c3f6fff8209", "is_reserved": 0, "rental_uris": {"android": "https://dc.lft.to/lastmile_qr_scan", "ios": "https://dc.lft.to/lastmile_qr_scan"}, "fusion_lon": 0.0}, {"lat": 38.92856466666667, "is_disabled": 0, "type": "electric_bike", "lon": -77.10675783333333, "bike_id": "409e11f925ca75708210635e41db3668", "fusion_lat": 0.0, "name": "409e11f925ca75708210635e41db3668", "is_reserved": 0, "rental_uris": {"android": "https://dc.lft.to/lastmile_qr_scan", "ios": "https://dc.lft.to/lastmile_qr_scan"}, "fusion_lon": 0.0}, {"lat": 38.90040783333333, "is_disabled": 0, "type": "electric_scooter", "lon": -76.99386533333333, "bike_id": "c0e8e701dba5ef5185873f01d99761cd", "fusion_lat": 0.0, "name": "c0e8e701dba5ef5185873f01d99761cd", "is_reserved": 0, "rental_uris": {"android": "https://dc.lft.to/lastmile_qr_scan", "ios": "https://dc.lft.to/lastmile_qr_scan"}, "fusion_lon": 0.0}, {"lat": 38.921893833333336, "is_disabled": 0, "type": "electric_scooter", "lon": -77.04130833333333, "bike_id": "d1a222559748df4e40811364965191c4", "fusion_lat": 0.0, "name": "d1a222559748df4e40811364965191c4", "is_reserved": 0, "rental_uris": {"android": "https://dc.lft.to/lastmile_qr_scan", "ios": "https://dc.lft.to/lastmile_qr_scan"}, "fusion_lon": 0.0}, {"lat": 38.9026065, "is_disabled": 0, "type": "electric_scooter", "lon": -77.00209216666667, "bike_id": "4cf3d59319c0a3beebe9260bf6e024b9", "fusion_lat": 0.0, "name": "4cf3d59319c0a3beebe9260bf6e024b9", "is_reserved": 0, "rental_uris": {"android": "https://dc.lft.to/lastmile_qr_scan", "ios": "https://dc.lft.to/lastmile_qr_scan"}, "fusion_lon": 0.0}, {"lat": 38.9363945, "is_disabled": 0, "type": "electric_scooter", "lon": -77.02488116666666, "bike_id": "0d96495b66867989613a45ba95402866", "fusion_lat": 0.0, "name": "0d96495b66867989613a45ba95402866", "is_reserved": 0, "rental_uris": {"android": "https://dc.lft.to/lastmile_qr_scan", "ios": "https://dc.lft.to/lastmile_qr_scan"}, "fusion_lon": 0.0}, {"lat": 38.92100583333333, "is_disabled": 0, "type": "electric_scooter", "lon": -77.02507033333333, "bike_id": "3406e2ad7334fb45f599a4d0c493796e", "fusion_lat": 0.0, "name": "3406e2ad7334fb45f599a4d0c493796e", "is_reserved": 0, "rental_uris": {"android": "https://dc.lft.to/lastmile_qr_scan", "ios": "https://dc.lft.to/lastmile_qr_scan"}, "fusion_lon": 0.0}, {"lat": 38.90351583333333, "is_disabled": 0, "type": "electric_scooter", "lon": -77.04456583333334, "bike_id": "943db8376e0ed4b305e41c72e0b096a7", "fusion_lat": 0.0, "name": "943db8376e0ed4b305e41c72e0b096a7", "is_reserved": 0, "rental_uris": {"android": "https://dc.lft.to/lastmile_qr_scan", "ios": "https://dc.lft.to/lastmile_qr_scan"}, "fusion_lon": 0.0}, {"lat": 38.917038, "is_disabled": 0, "type": "electric_scooter", "lon": -77.00117533333334, "bike_id": "b5c98fa45c1ca7e6137ec590f24772fa", "fusion_lat": 0.0, "name": "b5c98fa45c1ca7e6137ec590f24772fa", "is_reserved": 0, "rental_uris": {"android": "https://dc.lft.to/lastmile_qr_scan", "ios": "https://dc.lft.to/lastmile_qr_scan"}, "fusion_lon": 0.0}, {"lat": 38.990080666666664, "is_disabled": 0, "type": "electric_bike", "lon": -77.0043865, "bike_id": "abb0994abdcd30efa4c6b5dc207364c0", "fusion_lat": 0.0, "name": "abb0994abdcd30efa4c6b5dc207364c0", "is_reserved": 0, "rental_uris": {"android": "https://dc.lft.to/lastmile_qr_scan", "ios": "https://dc.lft.to/lastmile_qr_scan"}, "fusion_lon": 0.0}, {"lat": 38.905652, "is_disabled": 0, "type": "electric_scooter", "lon": -77.00302483333333, "bike_id": "b5d7a576594ec2147dc9a5fa304dee24", "fusion_lat": 0.0, "name": "b5d7a576594ec2147dc9a5fa304dee24", "is_reserved": 0, "rental_uris": {"android": "https://dc.lft.to/lastmile_qr_scan", "ios": "https://dc.lft.to/lastmile_qr_scan"}, "fusion_lon": 0.0}, {"lat": 38.89558066666667, "is_disabled": 0, "type": "electric_scooter", "lon": -76.9308025, "bike_id": "017e7fa4d3344f9c5675c4d4d93fced2", "fusion_lat": 0.0, "name": "017e7fa4d3344f9c5675c4d4d93fced2", "is_reserved": 0, "rental_uris": {"android": "https://dc.lft.to/lastmile_qr_scan", "ios": "https://dc.lft.to/lastmile_qr_scan"}, "fusion_lon": 0.0}, {"lat": 38.93957483333333, "is_disabled": 0, "type": "electric_bike", "lon": -77.3609165, "bike_id": "b3cc5359a111e4f3fcf6291a70686595", "fusion_lat": 0.0, "name": "b3cc5359a111e4f3fcf6291a70686595", "is_reserved": 0, "rental_uris": {"android": "https://dc.lft.to/lastmile_qr_scan", "ios": "https://dc.lft.to/lastmile_qr_scan"}, "fusion_lon": 0.0}, {"lat": 38.93591116666666, "is_disabled": 0, "type": "electric_scooter", "lon": -77.03743433333334, "bike_id": "878bb065e69b992188106ef9115e10ec", "fusion_lat": 0.0, "name": "878bb065e69b992188106ef9115e10ec", "is_reserved": 0, "rental_uris": {"android": "https://dc.lft.to/lastmile_qr_scan", "ios": "https://dc.lft.to/lastmile_qr_scan"}, "fusion_lon": 0.0}, {"lat": 38.905171333333335, "is_disabled": 0, "type": "electric_scooter", "lon": -77.04890166666667, "bike_id": "abd559f63b56545e83998d54d8f59dcb", "fusion_lat": 0.0, "name": "abd559f63b56545e83998d54d8f59dcb", "is_reserved": 0, "rental_uris": {"android": "https://dc.lft.to/lastmile_qr_scan", "ios": "https://dc.lft.to/lastmile_qr_scan"}, "fusion_lon": 0.0}, {"lat": 38.928280666666666, "is_disabled": 0, "type": "electric_scooter", "lon": -77.02623033333333, "bike_id": "2b54f82e733401ce1487946190386607", "fusion_lat": 0.0, "name": "2b54f82e733401ce1487946190386607", "is_reserved": 0, "rental_uris": {"android": "https://dc.lft.to/lastmile_qr_scan", "ios": "https://dc.lft.to/lastmile_qr_scan"}, "fusion_lon": 0.0}, {"lat": 38.9782625, "is_disabled": 0, "type": "electric_bike", "lon": -76.92889933333333, "bike_id": "05ade8dd09c49b9a33b26859159280a4", "fusion_lat": 0.0, "name": "05ade8dd09c49b9a33b26859159280a4", "is_reserved": 0, "rental_uris": {"android": "https://dc.lft.to/lastmile_qr_scan", "ios": "https://dc.lft.to/lastmile_qr_scan"}, "fusion_lon": 0.0}, {"lat": 38.95290033333333, "is_disabled": 0, "type": "electric_bike", "lon": -76.94593083333334, "bike_id": "3c2dbf642cb4d01b6fb15d6bbcd7aef2", "fusion_lat": 0.0, "name": "3c2dbf642cb4d01b6fb15d6bbcd7aef2", "is_reserved": 0, "rental_uris": {"android": "https://dc.lft.to/lastmile_qr_scan", "ios": "https://dc.lft.to/lastmile_qr_scan"}, "fusion_lon": 0.0}, {"lat": 38.90276166666666, "is_disabled": 0, "type": "electric_scooter", "lon": -77.0385025, "bike_id": "a18aac181c6f6a9a2a670f0b32fa05e9", "fusion_lat": 0.0, "name": "a18aac181c6f6a9a2a670f0b32fa05e9", "is_reserved": 0, "rental_uris": {"android": "https://dc.lft.to/lastmile_qr_scan", "ios": "https://dc.lft.to/lastmile_qr_scan"}, "fusion_lon": 0.0}, {"lat": 38.908246166666665, "is_disabled": 0, "type": "electric_scooter", "lon": -77.04339833333333, "bike_id": "4403968831ffd16047a690023facfa03", "fusion_lat": 0.0, "name": "4403968831ffd16047a690023facfa03", "is_reserved": 0, "rental_uris": {"android": "https://dc.lft.to/lastmile_qr_scan", "ios": "https://dc.lft.to/lastmile_qr_scan"}, "fusion_lon": 0.0}, {"lat": 38.84508133333333, "is_disabled": 0, "type": "electric_bike", "lon": -76.993568, "bike_id": "5076d1de9a73448f18bef80ee9a1c9d8", "fusion_lat": 0.0, "name": "5076d1de9a73448f18bef80ee9a1c9d8", "is_reserved": 0, "rental_uris": {"android": "https://dc.lft.to/lastmile_qr_scan", "ios": "https://dc.lft.to/lastmile_qr_scan"}, "fusion_lon": 0.0}, {"lat": 38.90429266666666, "is_disabled": 0, "type": "electric_scooter", "lon": -77.05317133333334, "bike_id": "65fa33db46e1ed9a3c0204d2638e7e7a", "fusion_lat": 0.0, "name": "65fa33db46e1ed9a3c0204d2638e7e7a", "is_reserved": 0, "rental_uris": {"android": "https://dc.lft.to/lastmile_qr_scan", "ios": "https://dc.lft.to/lastmile_qr_scan"}, "fusion_lon": 0.0}, {"lat": 38.867182666666665, "is_disabled": 0, "type": "electric_scooter", "lon": -76.9872435, "bike_id": "b97ecc9d846590ef26f20c7274d76242", "fusion_lat": 0.0, "name": "b97ecc9d846590ef26f20c7274d76242", "is_reserved": 0, "rental_uris": {"android": "https://dc.lft.to/lastmile_qr_scan", "ios": "https://dc.lft.to/lastmile_qr_scan"}, "fusion_lon": 0.0}, {"lat": 38.9391605, "is_disabled": 0, "type": "electric_scooter", "lon": -77.06678833333334, "bike_id": "3d860877f1715cc1d5a714ebb83e12d8", "fusion_lat": 0.0, "name": "3d860877f1715cc1d5a714ebb83e12d8", "is_reserved": 0, "rental_uris": {"android": "https://dc.lft.to/lastmile_qr_scan", "ios": "https://dc.lft.to/lastmile_qr_scan"}, "fusion_lon": 0.0}, {"lat": 38.91888866666667, "is_disabled": 0, "type": "electric_scooter", "lon": -77.03504033333333, "bike_id": "93aa68950da3fca5f9c7c9908113ecc7", "fusion_lat": 0.0, "name": "93aa68950da3fca5f9c7c9908113ecc7", "is_reserved": 0, "rental_uris": {"android": "https://dc.lft.to/lastmile_qr_scan", "ios": "https://dc.lft.to/lastmile_qr_scan"}, "fusion_lon": 0.0}, {"lat": 38.9126785, "is_disabled": 0, "type": "electric_scooter", "lon": -77.02252733333333, "bike_id": "0cc96a0ea880917a91f68746d57e6349", "fusion_lat": 0.0, "name": "0cc96a0ea880917a91f68746d57e6349", "is_reserved": 0, "rental_uris": {"android": "https://dc.lft.to/lastmile_qr_scan", "ios": "https://dc.lft.to/lastmile_qr_scan"}, "fusion_lon": 0.0}, {"lat": 38.908702, "is_disabled": 0, "type": "electric_bike", "lon": -76.94011233333333, "bike_id": "6963476f22c3182d8e75a7432ec4550c", "fusion_lat": 0.0, "name": "6963476f22c3182d8e75a7432ec4550c", "is_reserved": 0, "rental_uris": {"android": "https://dc.lft.to/lastmile_qr_scan", "ios": "https://dc.lft.to/lastmile_qr_scan"}, "fusion_lon": 0.0}, {"lat": 38.89653916666666, "is_disabled": 0, "type": "electric_scooter", "lon": -77.00516233333333, "bike_id": "42fd6fce4ee9ee205ac2e234bbcf434f", "fusion_lat": 0.0, "name": "42fd6fce4ee9ee205ac2e234bbcf434f", "is_reserved": 0, "rental_uris": {"android": "https://dc.lft.to/lastmile_qr_scan", "ios": "https://dc.lft.to/lastmile_qr_scan"}, "fusion_lon": 0.0}, {"lat": 38.90589516666667, "is_disabled": 0, "type": "electric_scooter", "lon": -76.9861765, "bike_id": "9c652b3520b5f810d25e26df0f06be26", "fusion_lat": 0.0, "name": "9c652b3520b5f810d25e26df0f06be26", "is_reserved": 0, "rental_uris": {"android": "https://dc.lft.to/lastmile_qr_scan", "ios": "https://dc.lft.to/lastmile_qr_scan"}, "fusion_lon": 0.0}, {"lat": 38.91119116666667, "is_disabled": 0, "type": "electric_scooter", "lon": -77.04518333333333, "bike_id": "5c9d9ce575f4dcd94c477934781d839d", "fusion_lat": 0.0, "name": "5c9d9ce575f4dcd94c477934781d839d", "is_reserved": 0, "rental_uris": {"android": "https://dc.lft.to/lastmile_qr_scan", "ios": "https://dc.lft.to/lastmile_qr_scan"}, "fusion_lon": 0.0}, {"lat": 38.897162, "is_disabled": 0, "type": "electric_scooter", "lon": -77.00798283333333, "bike_id": "72c4c30500c1d7a85e420873129a0248", "fusion_lat": 0.0, "name": "72c4c30500c1d7a85e420873129a0248", "is_reserved": 0, "rental_uris": {"android": "https://dc.lft.to/lastmile_qr_scan", "ios": "https://dc.lft.to/lastmile_qr_scan"}, "fusion_lon": 0.0}, {"lat": 38.89737233333334, "is_disabled": 0, "type": "electric_scooter", "lon": -77.0476065, "bike_id": "ce242d217b4e1d325010aa0c069010e9", "fusion_lat": 0.0, "name": "ce242d217b4e1d325010aa0c069010e9", "is_reserved": 0, "rental_uris": {"android": "https://dc.lft.to/lastmile_qr_scan", "ios": "https://dc.lft.to/lastmile_qr_scan"}, "fusion_lon": 0.0}, {"lat": 38.9307535, "is_disabled": 0, "type": "electric_scooter", "lon": -76.99078433333334, "bike_id": "44d5d0bc18cfee9ea30352e016f82784", "fusion_lat": 0.0, "name": "44d5d0bc18cfee9ea30352e016f82784", "is_reserved": 0, "rental_uris": {"android": "https://dc.lft.to/lastmile_qr_scan", "ios": "https://dc.lft.to/lastmile_qr_scan"}, "fusion_lon": 0.0}, {"lat": 38.90826666666667, "is_disabled": 0, "type": "electric_scooter", "lon": -77.06375333333334, "bike_id": "2d59f84a0c38ade368f02b8142a61af6", "fusion_lat": 0.0, "name": "2d59f84a0c38ade368f02b8142a61af6", "is_reserved": 0, "rental_uris": {"android": "https://dc.lft.to/lastmile_qr_scan", "ios": "https://dc.lft.to/lastmile_qr_scan"}, "fusion_lon": 0.0}, {"lat": 38.906936333333334, "is_disabled": 0, "type": "electric_scooter", "lon": -77.0375985, "bike_id": "b7cec3b763c7270561a1bf76d0f8f0e2", "fusion_lat": 0.0, "name": "b7cec3b763c7270561a1bf76d0f8f0e2", "is_reserved": 0, "rental_uris": {"android": "https://dc.lft.to/lastmile_qr_scan", "ios": "https://dc.lft.to/lastmile_qr_scan"}, "fusion_lon": 0.0}, {"lat": 38.91935433333333, "is_disabled": 0, "type": "electric_scooter", "lon": -77.02304266666667, "bike_id": "7f3ff6100cb964a127f4ca9b4ea55d22", "fusion_lat": 0.0, "name": "7f3ff6100cb964a127f4ca9b4ea55d22", "is_reserved": 0, "rental_uris": {"android": "https://dc.lft.to/lastmile_qr_scan", "ios": "https://dc.lft.to/lastmile_qr_scan"}, "fusion_lon": 0.0}, {"lat": 38.922475166666665, "is_disabled": 0, "type": "electric_scooter", "lon": -77.04569983333333, "bike_id": "6c2a3e3960d7ecea429c36aa4fac658e", "fusion_lat": 0.0, "name": "6c2a3e3960d7ecea429c36aa4fac658e", "is_reserved": 0, "rental_uris": {"android": "https://dc.lft.to/lastmile_qr_scan", "ios": "https://dc.lft.to/lastmile_qr_scan"}, "fusion_lon": 0.0}, {"lat": 38.887463833333335, "is_disabled": 0, "type": "electric_scooter", "lon": -77.01733516666667, "bike_id": "2d11c70fde41500722a187b4a5810355", "fusion_lat": 0.0, "name": "2d11c70fde41500722a187b4a5810355", "is_reserved": 0, "rental_uris": {"android": "https://dc.lft.to/lastmile_qr_scan", "ios": "https://dc.lft.to/lastmile_qr_scan"}, "fusion_lon": 0.0}, {"lat": 38.8505425, "is_disabled": 0, "type": "electric_bike", "lon": -76.9731815, "bike_id": "cf18811b093319fe7ae127385548b196", "fusion_lat": 0.0, "name": "cf18811b093319fe7ae127385548b196", "is_reserved": 0, "rental_uris": {"android": "https://dc.lft.to/lastmile_qr_scan", "ios": "https://dc.lft.to/lastmile_qr_scan"}, "fusion_lon": 0.0}, {"lat": 38.90271966666667, "is_disabled": 0, "type": "electric_scooter", "lon": -77.052646, "bike_id": "1c4946271f099f88cf4b83f827ae89d2", "fusion_lat": 0.0, "name": "1c4946271f099f88cf4b83f827ae89d2", "is_reserved": 0, "rental_uris": {"android": "https://dc.lft.to/lastmile_qr_scan", "ios": "https://dc.lft.to/lastmile_qr_scan"}, "fusion_lon": 0.0}, {"lat": 38.90287983333333, "is_disabled": 0, "type": "electric_scooter", "lon": -77.03645266666666, "bike_id": "06e94655ab953d361a7765b95fe2f46a", "fusion_lat": 0.0, "name": "06e94655ab953d361a7765b95fe2f46a", "is_reserved": 0, "rental_uris": {"android": "https://dc.lft.to/lastmile_qr_scan", "ios": "https://dc.lft.to/lastmile_qr_scan"}, "fusion_lon": 0.0}, {"lat": 38.903466333333334, "is_disabled": 0, "type": "electric_scooter", "lon": -77.0532605, "bike_id": "40f110495f02909ee37452e46edde014", "fusion_lat": 0.0, "name": "40f110495f02909ee37452e46edde014", "is_reserved": 0, "rental_uris": {"android": "https://dc.lft.to/lastmile_qr_scan", "ios": "https://dc.lft.to/lastmile_qr_scan"}, "fusion_lon": 0.0}, {"lat": 38.89051033333333, "is_disabled": 0, "type": "electric_scooter", "lon": -76.93756383333333, "bike_id": "1f275cc8888a58bc9785447fa7200a0e", "fusion_lat": 0.0, "name": "1f275cc8888a58bc9785447fa7200a0e", "is_reserved": 0, "rental_uris": {"android": "https://dc.lft.to/lastmile_qr_scan", "ios": "https://dc.lft.to/lastmile_qr_scan"}, "fusion_lon": 0.0}, {"lat": 38.90251266666667, "is_disabled": 0, "type": "electric_scooter", "lon": -77.0193065, "bike_id": "1ca1687d1cd6c507ddc18085b4c42799", "fusion_lat": 0.0, "name": "1ca1687d1cd6c507ddc18085b4c42799", "is_reserved": 0, "rental_uris": {"android": "https://dc.lft.to/lastmile_qr_scan", "ios": "https://dc.lft.to/lastmile_qr_scan"}, "fusion_lon": 0.0}, {"lat": 38.9609585, "is_disabled": 0, "type": "electric_scooter", "lon": -77.0828465, "bike_id": "fa577931b376aa5d0132c1c51c9a6133", "fusion_lat": 0.0, "name": "fa577931b376aa5d0132c1c51c9a6133", "is_reserved": 0, "rental_uris": {"android": "https://dc.lft.to/lastmile_qr_scan", "ios": "https://dc.lft.to/lastmile_qr_scan"}, "fusion_lon": 0.0}, {"lat": 38.92217816666667, "is_disabled": 0, "type": "electric_scooter", "lon": -77.03287566666667, "bike_id": "19af1342bd739da30c6e65936eba769a", "fusion_lat": 0.0, "name": "19af1342bd739da30c6e65936eba769a", "is_reserved": 0, "rental_uris": {"android": "https://dc.lft.to/lastmile_qr_scan", "ios": "https://dc.lft.to/lastmile_qr_scan"}, "fusion_lon": 0.0}, {"lat": 38.9013825, "is_disabled": 0, "type": "electric_scooter", "lon": -77.00070066666666, "bike_id": "081f20dc08eb91edd8d282b1c20120ed", "fusion_lat": 0.0, "name": "081f20dc08eb91edd8d282b1c20120ed", "is_reserved": 0, "rental_uris": {"android": "https://dc.lft.to/lastmile_qr_scan", "ios": "https://dc.lft.to/lastmile_qr_scan"}, "fusion_lon": 0.0}, {"lat": 38.91815833333333, "is_disabled": 0, "type": "electric_scooter", "lon": -77.024777, "bike_id": "64c621d4cc11be5d19a07592b54029c8", "fusion_lat": 0.0, "name": "64c621d4cc11be5d19a07592b54029c8", "is_reserved": 0, "rental_uris": {"android": "https://dc.lft.to/lastmile_qr_scan", "ios": "https://dc.lft.to/lastmile_qr_scan"}, "fusion_lon": 0.0}, {"lat": 38.92453733333333, "is_disabled": 0, "type": "electric_scooter", "lon": -77.04200233333333, "bike_id": "41ef051d4601074a94b6fcccb817c09f", "fusion_lat": 0.0, "name": "41ef051d4601074a94b6fcccb817c09f", "is_reserved": 0, "rental_uris": {"android": "https://dc.lft.to/lastmile_qr_scan", "ios": "https://dc.lft.to/lastmile_qr_scan"}, "fusion_lon": 0.0}, {"lat": 38.908271166666665, "is_disabled": 0, "type": "electric_scooter", "lon": -77.0434795, "bike_id": "3f9e60612677da284528e8c33aa176dd", "fusion_lat": 0.0, "name": "3f9e60612677da284528e8c33aa176dd", "is_reserved": 0, "rental_uris": {"android": "https://dc.lft.to/lastmile_qr_scan", "ios": "https://dc.lft.to/lastmile_qr_scan"}, "fusion_lon": 0.0}, {"lat": 38.915509166666666, "is_disabled": 0, "type": "electric_scooter", "lon": -77.01227866666666, "bike_id": "e0bded8a3c6e80eb3e4d98a9af1c8752", "fusion_lat": 0.0, "name": "e0bded8a3c6e80eb3e4d98a9af1c8752", "is_reserved": 0, "rental_uris": {"android": "https://dc.lft.to/lastmile_qr_scan", "ios": "https://dc.lft.to/lastmile_qr_scan"}, "fusion_lon": 0.0}, {"lat": 38.89903416666667, "is_disabled": 0, "type": "electric_scooter", "lon": -76.93350216666667, "bike_id": "6e4f9102efedc725fbc65af69eeb3d5c", "fusion_lat": 0.0, "name": "6e4f9102efedc725fbc65af69eeb3d5c", "is_reserved": 0, "rental_uris": {"android": "https://dc.lft.to/lastmile_qr_scan", "ios": "https://dc.lft.to/lastmile_qr_scan"}, "fusion_lon": 0.0}, {"lat": 39.052038, "is_disabled": 0, "type": "electric_bike", "lon": -77.109156, "bike_id": "d716c35e393cbff8584dfe8798fe8ee8", "fusion_lat": 0.0, "name": "d716c35e393cbff8584dfe8798fe8ee8", "is_reserved": 0, "rental_uris": {"android": "https://dc.lft.to/lastmile_qr_scan", "ios": "https://dc.lft.to/lastmile_qr_scan"}, "fusion_lon": 0.0}, {"lat": 38.908594666666666, "is_disabled": 0, "type": "electric_scooter", "lon": -76.99164866666666, "bike_id": "47119a921b231a8753581cca1e722e6b", "fusion_lat": 0.0, "name": "47119a921b231a8753581cca1e722e6b", "is_reserved": 0, "rental_uris": {"android": "https://dc.lft.to/lastmile_qr_scan", "ios": "https://dc.lft.to/lastmile_qr_scan"}, "fusion_lon": 0.0}, {"lat": 38.8951995, "is_disabled": 0, "type": "electric_scooter", "lon": -77.02823466666666, "bike_id": "1b20f39a59fd1c42ca014fea25d479af", "fusion_lat": 0.0, "name": "1b20f39a59fd1c42ca014fea25d479af", "is_reserved": 0, "rental_uris": {"android": "https://dc.lft.to/lastmile_qr_scan", "ios": "https://dc.lft.to/lastmile_qr_scan"}, "fusion_lon": 0.0}, {"lat": 38.906222666666665, "is_disabled": 0, "type": "electric_scooter", "lon": -76.98984766666666, "bike_id": "47c8a924c8f882c96c5181b03ec5f04e", "fusion_lat": 0.0, "name": "47c8a924c8f882c96c5181b03ec5f04e", "is_reserved": 0, "rental_uris": {"android": "https://dc.lft.to/lastmile_qr_scan", "ios": "https://dc.lft.to/lastmile_qr_scan"}, "fusion_lon": 0.0}, {"lat": 38.927498166666666, "is_disabled": 0, "type": "electric_scooter", "lon": -77.025326, "bike_id": "6e74f68c3edc95a7826bb478387edf0f", "fusion_lat": 0.0, "name": "6e74f68c3edc95a7826bb478387edf0f", "is_reserved": 0, "rental_uris": {"android": "https://dc.lft.to/lastmile_qr_scan", "ios": "https://dc.lft.to/lastmile_qr_scan"}, "fusion_lon": 0.0}, {"lat": 38.8912245, "is_disabled": 0, "type": "electric_scooter", "lon": -76.94387783333333, "bike_id": "dcafdb54384b1fa8dbff3a2cfc5f1950", "fusion_lat": 0.0, "name": "dcafdb54384b1fa8dbff3a2cfc5f1950", "is_reserved": 0, "rental_uris": {"android": "https://dc.lft.to/lastmile_qr_scan", "ios": "https://dc.lft.to/lastmile_qr_scan"}, "fusion_lon": 0.0}, {"lat": 38.85909933333333, "is_disabled": 0, "type": "electric_scooter", "lon": -76.99149316666667, "bike_id": "af31b57085f8a10af65b9fe9ab622d0d", "fusion_lat": 0.0, "name": "af31b57085f8a10af65b9fe9ab622d0d", "is_reserved": 0, "rental_uris": {"android": "https://dc.lft.to/lastmile_qr_scan", "ios": "https://dc.lft.to/lastmile_qr_scan"}, "fusion_lon": 0.0}, {"lat": 38.90042366666667, "is_disabled": 0, "type": "electric_scooter", "lon": -76.99383, "bike_id": "67bc9013f48d306676eb5ae34310c4a5", "fusion_lat": 0.0, "name": "67bc9013f48d306676eb5ae34310c4a5", "is_reserved": 0, "rental_uris": {"android": "https://dc.lft.to/lastmile_qr_scan", "ios": "https://dc.lft.to/lastmile_qr_scan"}, "fusion_lon": 0.0}, {"lat": 38.91106466666667, "is_disabled": 0, "type": "electric_scooter", "lon": -77.04230033333333, "bike_id": "dd25d4b27f46ce2b71514268d0296f28", "fusion_lat": 0.0, "name": "dd25d4b27f46ce2b71514268d0296f28", "is_reserved": 0, "rental_uris": {"android": "https://dc.lft.to/lastmile_qr_scan", "ios": "https://dc.lft.to/lastmile_qr_scan"}, "fusion_lon": 0.0}, {"lat": 38.90738416666667, "is_disabled": 0, "type": "electric_scooter", "lon": -77.000622, "bike_id": "237c10023c46c8165838a03bf093eb2e", "fusion_lat": 0.0, "name": "237c10023c46c8165838a03bf093eb2e", "is_reserved": 0, "rental_uris": {"android": "https://dc.lft.to/lastmile_qr_scan", "ios": "https://dc.lft.to/lastmile_qr_scan"}, "fusion_lon": 0.0}, {"lat": 38.8666765, "is_disabled": 0, "type": "electric_scooter", "lon": -76.98881033333333, "bike_id": "dddc83cce0a12badbdae848d6cd0b80f", "fusion_lat": 0.0, "name": "dddc83cce0a12badbdae848d6cd0b80f", "is_reserved": 0, "rental_uris": {"android": "https://dc.lft.to/lastmile_qr_scan", "ios": "https://dc.lft.to/lastmile_qr_scan"}, "fusion_lon": 0.0}, {"lat": 38.952836166666664, "is_disabled": 0, "type": "electric_scooter", "lon": -77.06878266666666, "bike_id": "8872518e5bdded8614e49d33a94efb40", "fusion_lat": 0.0, "name": "8872518e5bdded8614e49d33a94efb40", "is_reserved": 0, "rental_uris": {"android": "https://dc.lft.to/lastmile_qr_scan", "ios": "https://dc.lft.to/lastmile_qr_scan"}, "fusion_lon": 0.0}, {"lat": 38.915539333333335, "is_disabled": 0, "type": "electric_scooter", "lon": -77.053185, "bike_id": "2f17df838a2f023d3dfac42bd52576b3", "fusion_lat": 0.0, "name": "2f17df838a2f023d3dfac42bd52576b3", "is_reserved": 0, "rental_uris": {"android": "https://dc.lft.to/lastmile_qr_scan", "ios": "https://dc.lft.to/lastmile_qr_scan"}, "fusion_lon": 0.0}, {"lat": 38.902077166666665, "is_disabled": 0, "type": "electric_scooter", "lon": -77.023704, "bike_id": "2f88cfd443b7c510c1f7c05088e9a063", "fusion_lat": 0.0, "name": "2f88cfd443b7c510c1f7c05088e9a063", "is_reserved": 0, "rental_uris": {"android": "https://dc.lft.to/lastmile_qr_scan", "ios": "https://dc.lft.to/lastmile_qr_scan"}, "fusion_lon": 0.0}, {"lat": 38.90093983333333, "is_disabled": 0, "type": "electric_scooter", "lon": -77.01230166666667, "bike_id": "22152a858898a0f17568e539f1ff9250", "fusion_lat": 0.0, "name": "22152a858898a0f17568e539f1ff9250", "is_reserved": 0, "rental_uris": {"android": "https://dc.lft.to/lastmile_qr_scan", "ios": "https://dc.lft.to/lastmile_qr_scan"}, "fusion_lon": 0.0}, {"lat": 38.90357, "is_disabled": 0, "type": "electric_bike", "lon": -77.039474, "bike_id": "2b2f8e95e5639a7917ead9d9fdebd0d2", "fusion_lat": 0.0, "name": "2b2f8e95e5639a7917ead9d9fdebd0d2", "is_reserved": 0, "rental_uris": {"android": "https://dc.lft.to/lastmile_qr_scan", "ios": "https://dc.lft.to/lastmile_qr_scan"}, "fusion_lon": 0.0}, {"lat": 38.90059216666667, "is_disabled": 0, "type": "electric_scooter", "lon": -77.00199283333333, "bike_id": "73e5f9a565e8625feb6ec49301969cd0", "fusion_lat": 0.0, "name": "73e5f9a565e8625feb6ec49301969cd0", "is_reserved": 0, "rental_uris": {"android": "https://dc.lft.to/lastmile_qr_scan", "ios": "https://dc.lft.to/lastmile_qr_scan"}, "fusion_lon": 0.0}, {"lat": 38.911123333333336, "is_disabled": 0, "type": "electric_scooter", "lon": -77.03402916666667, "bike_id": "af04b4ef6b436204e51a4f044b58045b", "fusion_lat": 0.0, "name": "af04b4ef6b436204e51a4f044b58045b", "is_reserved": 0, "rental_uris": {"android": "https://dc.lft.to/lastmile_qr_scan", "ios": "https://dc.lft.to/lastmile_qr_scan"}, "fusion_lon": 0.0}, {"lat": 38.907787666666664, "is_disabled": 0, "type": "electric_scooter", "lon": -77.03860066666667, "bike_id": "b33f010441bf2f9388965f954b3dc04f", "fusion_lat": 0.0, "name": "b33f010441bf2f9388965f954b3dc04f", "is_reserved": 0, "rental_uris": {"android": "https://dc.lft.to/lastmile_qr_scan", "ios": "https://dc.lft.to/lastmile_qr_scan"}, "fusion_lon": 0.0}, {"lat": 38.92333166666667, "is_disabled": 0, "type": "electric_scooter", "lon": -77.02691983333334, "bike_id": "3bf9e469915b2ff7215cfcff9cf25481", "fusion_lat": 0.0, "name": "3bf9e469915b2ff7215cfcff9cf25481", "is_reserved": 0, "rental_uris": {"android": "https://dc.lft.to/lastmile_qr_scan", "ios": "https://dc.lft.to/lastmile_qr_scan"}, "fusion_lon": 0.0}, {"lat": 38.917073333333335, "is_disabled": 0, "type": "electric_scooter", "lon": -77.03864683333333, "bike_id": "12bd12c0a6941e02e05c8c682dac8e8e", "fusion_lat": 0.0, "name": "12bd12c0a6941e02e05c8c682dac8e8e", "is_reserved": 0, "rental_uris": {"android": "https://dc.lft.to/lastmile_qr_scan", "ios": "https://dc.lft.to/lastmile_qr_scan"}, "fusion_lon": 0.0}, {"lat": 39.05204616666666, "is_disabled": 0, "type": "electric_bike", "lon": -77.1092085, "bike_id": "b606ef9a98c3c798556ed43a0d490a66", "fusion_lat": 0.0, "name": "b606ef9a98c3c798556ed43a0d490a66", "is_reserved": 0, "rental_uris": {"android": "https://dc.lft.to/lastmile_qr_scan", "ios": "https://dc.lft.to/lastmile_qr_scan"}, "fusion_lon": 0.0}, {"lat": 38.887364166666664, "is_disabled": 0, "type": "electric_scooter", "lon": -77.03197066666667, "bike_id": "c7d1cfdc06f701b792d3e1788c42e913", "fusion_lat": 0.0, "name": "c7d1cfdc06f701b792d3e1788c42e913", "is_reserved": 0, "rental_uris": {"android": "https://dc.lft.to/lastmile_qr_scan", "ios": "https://dc.lft.to/lastmile_qr_scan"}, "fusion_lon": 0.0}, {"lat": 38.899691833333335, "is_disabled": 0, "type": "electric_scooter", "lon": -76.9265845, "bike_id": "5eb975dbc3e2a697ff4ca739ffb4ae2c", "fusion_lat": 0.0, "name": "5eb975dbc3e2a697ff4ca739ffb4ae2c", "is_reserved": 0, "rental_uris": {"android": "https://dc.lft.to/lastmile_qr_scan", "ios": "https://dc.lft.to/lastmile_qr_scan"}, "fusion_lon": 0.0},