{"data": {"bikes": [{"fusion_lon": 0.0, "bike_id": "ef4f009553cae414e2ad651165497383", "name": "ef4f009553cae414e2ad651165497383", "type": "electric_scooter", "lon": -76.99819833333333, "rental_uris": {"android": "https://dc.lft.to/lastmile_qr_scan", "ios": "https://dc.lft.to/lastmile_qr_scan"}, "lat": 38.844334833333335, "is_reserved": 0, "is_disabled": 0, "fusion_lat": 0.0}, {"fusion_lon": 0.0, "bike_id": "c0886051e36dc72ba93a4a02e764a1ae", "name": "c0886051e36dc72ba93a4a02e764a1ae", "type": "electric_scooter", "lon": -77.02470783333334, "rental_uris": {"android": "https://dc.lft.to/lastmile_qr_scan", "ios": "https://dc.lft.to/lastmile_qr_scan"}, "lat": 38.896256666666666, "is_reserved": 0, "is_disabled": 0, "fusion_lat": 0.0}, {"fusion_lon": 0.0, "bike_id": "d54112f02b13b2088a1b2d7e989bd0c4", "name": "d54112f02b13b2088a1b2d7e989bd0c4", "type": "electric_scooter", "lon": -77.02163433333334, "rental_uris": {"android": "https://dc.lft.to/lastmile_qr_scan", "ios": "https://dc.lft.to/lastmile_qr_scan"}, "lat": 38.89730133333333, "is_reserved": 0, "is_disabled": 0, "fusion_lat": 0.0}, {"fusion_lon": 0.0, "bike_id": "53dc626714362f2f5b55f0fe1ce521c9", "name": "53dc626714362f2f5b55f0fe1ce521c9", "type": "electric_scooter", "lon": -77.03199633333334, "rental_uris": {"android": "https://dc.lft.to/lastmile_qr_scan", "ios": "https://dc.lft.to/lastmile_qr_scan"}, "lat": 38.91924066666667, "is_reserved": 0, "is_disabled": 0, "fusion_lat": 0.0}, {"fusion_lon": 0.0, "bike_id": "a7ec4431f637d1c61a2ac5720773409d", "name": "a7ec4431f637d1c61a2ac5720773409d", "type": "electric_scooter", "lon": -76.95754183333334, "rental_uris": {"android": "https://dc.lft.to/lastmile_qr_scan", "ios": "https://dc.lft.to/lastmile_qr_scan"}, "lat": 38.8843005, "is_reserved": 0, "is_disabled": 0, "fusion_lat": 0.0}, {"fusion_lon": 0.0, "bike_id": "929be8cf461cb5514b4a07c0873af25e", "name": "929be8cf461cb5514b4a07c0873af25e", "type": "electric_scooter", "lon": -77.012135, "rental_uris": {"android": "https://dc.lft.to/lastmile_qr_scan", "ios": "https://dc.lft.to/lastmile_qr_scan"}, "lat": 38.91973383333333, "is_reserved": 0, "is_disabled": 0, "fusion_lat": 0.0}, {"fusion_lon": 0.0, "bike_id": "4086ad3fbe0edd3ca20e98f039b1804d", "name": "4086ad3fbe0edd3ca20e98f039b1804d", "type": "electric_scooter", "lon": -76.94999166666666, "rental_uris": {"android": "https://dc.lft.to/lastmile_qr_scan", "ios": "https://dc.lft.to/lastmile_qr_scan"}, "lat": 38.8938915, "is_reserved": 0, "is_disabled": 0, "fusion_lat": 0.0}, {"fusion_lon": 0.0, "bike_id": "76598db60934383aee449ed44d4019ce", "name": "76598db60934383aee449ed44d4019ce", "type": "electric_scooter", "lon": -77.0465495, "rental_uris": {"android": "https://dc.lft.to/lastmile_qr_scan", "ios": "https://dc.lft.to/lastmile_qr_scan"}, "lat": 38.8934295, "is_reserved": 0, "is_disabled": 0, "fusion_lat": 0.0}, {"fusion_lon": 0.0, "bike_id": "0ba64162dfbf32edc1c4e2c556818c05", "name": "0ba64162dfbf32edc1c4e2c556818c05", "type": "electric_bike", "lon": -77.08049783333334, "rental_uris": {"android": "https://dc.lft.to/lastmile_qr_scan", "ios": "https://dc.lft.to/lastmile_qr_scan"}, "lat": 38.848402666666665, "is_reserved": 0, "is_disabled": 0, "fusion_lat": 0.0}, {"fusion_lon": 0.0, "bike_id": "94edffb485bcdecf79239a51b4902488", "name": "94edffb485bcdecf79239a51b4902488", "type": "electric_bike", "lon": -76.98088766666666, "rental_uris": {"android": "https://dc.lft.to/lastmile_qr_scan", "ios": "https://dc.lft.to/lastmile_qr_scan"}, "lat": 38.953556166666665, "is_reserved": 0, "is_disabled": 0, "fusion_lat": 0.0}, {"fusion_lon": 0.0, "bike_id": "0ddfcf322777652d855047db35532835", "name": "0ddfcf322777652d855047db35532835", "type": "electric_scooter", "lon": -77.0318565, "rental_uris": {"android": "https://dc.lft.to/lastmile_qr_scan", "ios": "https://dc.lft.to/lastmile_qr_scan"}, "lat": 38.89228033333333, "is_reserved": 0, "is_disabled": 0, "fusion_lat": 0.0}, {"fusion_lon": 0.0, "bike_id": "49256b7eeb03733f79ecb0d4dfc957c6", "name": "49256b7eeb03733f79ecb0d4dfc957c6", "type": "electric_scooter", "lon": -77.0116245, "rental_uris": {"android": "https://dc.lft.to/lastmile_qr_scan", "ios": "https://dc.lft.to/lastmile_qr_scan"}, "lat": 38.871999833333334, "is_reserved": 0, "is_disabled": 0, "fusion_lat": 0.0}, {"fusion_lon": 0.0, "bike_id": "f07d9267834e9fd81904debc0ddbad83", "name": "f07d9267834e9fd81904debc0ddbad83", "type": "electric_scooter", "lon": -77.02182016666667, "rental_uris": {"android": "https://dc.lft.to/lastmile_qr_scan", "ios": "https://dc.lft.to/lastmile_qr_scan"}, "lat": 38.90432966666667, "is_reserved": 0, "is_disabled": 0, "fusion_lat": 0.0}, {"fusion_lon": 0.0, "bike_id": "1cb1c7441e7a0221306f77f3c96873d1", "name": "1cb1c7441e7a0221306f77f3c96873d1", "type": "electric_scooter", "lon": -77.04672683333334, "rental_uris": {"android": "https://dc.lft.to/lastmile_qr_scan", "ios": "https://dc.lft.to/lastmile_qr_scan"}, "lat": 38.9063225, "is_reserved": 0, "is_disabled": 0, "fusion_lat": 0.0}, {"fusion_lon": 0.0, "bike_id": "893a2b6c723369a269976b409ff348c4", "name": "893a2b6c723369a269976b409ff348c4", "type": "electric_scooter", "lon": -77.0047205, "rental_uris": {"android": "https://dc.lft.to/lastmile_qr_scan", "ios": "https://dc.lft.to/lastmile_qr_scan"}, "lat": 38.90976116666667, "is_reserved": 0, "is_disabled": 0, "fusion_lat": 0.0}, {"fusion_lon": 0.0, "bike_id": "6740ccf8f1a5cb5d4ac96bacb383b542", "name": "6740ccf8f1a5cb5d4ac96bacb383b542", "type": "electric_scooter", "lon": -77.045724, "rental_uris": {"android": "https://dc.lft.to/lastmile_qr_scan", "ios": "https://dc.lft.to/lastmile_qr_scan"}, "lat": 38.90857783333333, "is_reserved": 0, "is_disabled": 0, "fusion_lat": 0.0}, {"fusion_lon": 0.0, "bike_id": "b87231d61f7e1210181a65acc8ff3c56", "name": "b87231d61f7e1210181a65acc8ff3c56", "type": "electric_scooter", "lon": -77.03475233333333, "rental_uris": {"android": "https://dc.lft.to/lastmile_qr_scan", "ios": "https://dc.lft.to/lastmile_qr_scan"}, "lat": 38.9095585, "is_reserved": 0, "is_disabled": 0, "fusion_lat": 0.0}, {"fusion_lon": 0.0, "bike_id": "51fde10d25b2f64d3ddb600a416dd1f7", "name": "51fde10d25b2f64d3ddb600a416dd1f7", "type": "electric_scooter", "lon": -77.05193716666666, "rental_uris": {"android": "https://dc.lft.to/lastmile_qr_scan", "ios": "https://dc.lft.to/lastmile_qr_scan"}, "lat": 38.925497, "is_reserved": 0, "is_disabled": 0, "fusion_lat": 0.0}, {"fusion_lon": 0.0, "bike_id": "4d27d222da357b572834b6ea09fd0664", "name": "4d27d222da357b572834b6ea09fd0664", "type": "electric_scooter", "lon": -77.03643033333333, "rental_uris": {"android": "https://dc.lft.to/lastmile_qr_scan", "ios": "https://dc.lft.to/lastmile_qr_scan"}, "lat": 38.924073166666666, "is_reserved": 0, "is_disabled": 0, "fusion_lat": 0.0}, {"fusion_lon": 0.0, "bike_id": "334adf257eeac9a499d4e711382c1087", "name": "334adf257eeac9a499d4e711382c1087", "type": "electric_bike", "lon": -76.9668015, "rental_uris": {"android": "https://dc.lft.to/lastmile_qr_scan", "ios": "https://dc.lft.to/lastmile_qr_scan"}, "lat": 38.958811, "is_reserved": 0, "is_disabled": 0, "fusion_lat": 0.0}, {"fusion_lon": 0.0, "bike_id": "093cf7e4466ec066c5d98d8ad7f4fe97", "name": "093cf7e4466ec066c5d98d8ad7f4fe97", "type": "electric_bike", "lon": -77.00601233333333, "rental_uris": {"android": "https://dc.lft.to/lastmile_qr_scan", "ios": "https://dc.lft.to/lastmile_qr_scan"}, "lat": 38.871827, "is_reserved": 0, "is_disabled": 0, "fusion_lat": 0.0}, {"fusion_lon": 0.0, "bike_id": "2c7401cd2087c4e9517d82fdcef3db20", "name": "2c7401cd2087c4e9517d82fdcef3db20", "type": "electric_scooter", "lon": -77.005731, "rental_uris": {"android": "https://dc.lft.to/lastmile_qr_scan", "ios": "https://dc.lft.to/lastmile_qr_scan"}, "lat": 38.874674166666665, "is_reserved": 0, "is_disabled": 0, "fusion_lat": 0.0}, {"fusion_lon": 0.0, "bike_id": "af137edde9c973c1270f4d6720cbd9ca", "name": "af137edde9c973c1270f4d6720cbd9ca", "type": "electric_scooter", "lon": -76.99637716666666, "rental_uris": {"android": "https://dc.lft.to/lastmile_qr_scan", "ios": "https://dc.lft.to/lastmile_qr_scan"}, "lat": 38.90037733333333, "is_reserved": 0, "is_disabled": 0, "fusion_lat": 0.0}, {"fusion_lon": 0.0, "bike_id": "bd0b89f2e573de45a30b713d842d55f1", "name": "bd0b89f2e573de45a30b713d842d55f1", "type": "electric_scooter", "lon": -77.029315, "rental_uris": {"android": "https://dc.lft.to/lastmile_qr_scan", "ios": "https://dc.lft.to/lastmile_qr_scan"}, "lat": 38.88216766666667, "is_reserved": 0, "is_disabled": 0, "fusion_lat": 0.0}, {"fusion_lon": 0.0, "bike_id": "48342535c3fe80e363b1c1040bd08c6a", "name": "48342535c3fe80e363b1c1040bd08c6a", "type": "electric_scooter", "lon": -77.0251265, "rental_uris": {"android": "https://dc.lft.to/lastmile_qr_scan", "ios": "https://dc.lft.to/lastmile_qr_scan"}, "lat": 38.90108133333333, "is_reserved": 0, "is_disabled": 0, "fusion_lat": 0.0}, {"fusion_lon": 0.0, "bike_id": "292ebd932ce16c2ff3fa4df51075c49f", "name": "292ebd932ce16c2ff3fa4df51075c49f", "type": "electric_scooter", "lon": -77.007452, "rental_uris": {"android": "https://dc.lft.to/lastmile_qr_scan", "ios": "https://dc.lft.to/lastmile_qr_scan"}, "lat": 38.9119115, "is_reserved": 0, "is_disabled": 0, "fusion_lat": 0.0}, {"fusion_lon": 0.0, "bike_id": "6a6badd82b3c1d1257ebd2254153635a", "name": "6a6badd82b3c1d1257ebd2254153635a", "type": "electric_scooter", "lon": -77.03847733333333, "rental_uris": {"android": "https://dc.lft.to/lastmile_qr_scan", "ios": "https://dc.lft.to/lastmile_qr_scan"}, "lat": 38.9117535, "is_reserved": 0, "is_disabled": 0, "fusion_lat": 0.0}, {"fusion_lon": 0.0, "bike_id": "91d2c86d3f049ef53a3f91de023b9fdd", "name": "91d2c86d3f049ef53a3f91de023b9fdd", "type": "electric_scooter", "lon": -76.984629, "rental_uris": {"android": "https://dc.lft.to/lastmile_qr_scan", "ios": "https://dc.lft.to/lastmile_qr_scan"}, "lat": 38.880147, "is_reserved": 0, "is_disabled": 0, "fusion_lat": 0.0}, {"fusion_lon": 0.0, "bike_id": "262ed568463669fcc8fe6fbdca45afd2", "name": "262ed568463669fcc8fe6fbdca45afd2", "type": "electric_bike", "lon": -77.008636, "rental_uris": {"android": "https://dc.lft.to/lastmile_qr_scan", "ios": "https://dc.lft.to/lastmile_qr_scan"}, "lat": 38.827317666666666, "is_reserved": 0, "is_disabled": 0, "fusion_lat": 0.0}, {"fusion_lon": 0.0, "bike_id": "8d23703810d64e0b5910274be461fd06", "name": "8d23703810d64e0b5910274be461fd06", "type": "electric_scooter", "lon": -77.0540475, "rental_uris": {"android": "https://dc.lft.to/lastmile_qr_scan", "ios": "https://dc.lft.to/lastmile_qr_scan"}, "lat": 38.86902116666667, "is_reserved": 0, "is_disabled": 0, "fusion_lat": 0.0}, {"fusion_lon": 0.0, "bike_id": "05a5eb211248a88693c77a961711c990", "name": "05a5eb211248a88693c77a961711c990", "type": "electric_scooter", "lon": -77.02567216666667, "rental_uris": {"android": "https://dc.lft.to/lastmile_qr_scan", "ios": "https://dc.lft.to/lastmile_qr_scan"}, "lat": 38.88488533333334, "is_reserved": 0, "is_disabled": 0, "fusion_lat": 0.0}, {"fusion_lon": 0.0, "bike_id": "e27748ab12e88bacdff4d89a8d62a46c", "name": "e27748ab12e88bacdff4d89a8d62a46c", "type": "electric_scooter", "lon": -77.00538733333333, "rental_uris": {"android": "https://dc.lft.to/lastmile_qr_scan", "ios": "https://dc.lft.to/lastmile_qr_scan"}, "lat": 38.876054333333336, "is_reserved": 0, "is_disabled": 0, "fusion_lat": 0.0}, {"fusion_lon": 0.0, "bike_id": "078585a6a2bbb42b4657d87386081796", "name": "078585a6a2bbb42b4657d87386081796", "type": "electric_scooter", "lon": -77.02183766666667, "rental_uris": {"android": "https://dc.lft.to/lastmile_qr_scan", "ios": "https://dc.lft.to/lastmile_qr_scan"}, "lat": 38.89710216666667, "is_reserved": 0, "is_disabled": 0, "fusion_lat": 0.0}, {"fusion_lon": 0.0, "bike_id": "cd283fe750bafdbb384b695812fbfc47", "name": "cd283fe750bafdbb384b695812fbfc47", "type": "electric_scooter", "lon": -77.05331016666666, "rental_uris": {"android": "https://dc.lft.to/lastmile_qr_scan", "ios": "https://dc.lft.to/lastmile_qr_scan"}, "lat": 38.92316266666667, "is_reserved": 0, "is_disabled": 0, "fusion_lat": 0.0}, {"fusion_lon": 0.0, "bike_id": "9d930a3600a662227ee416dfaea40dc3", "name": "9d930a3600a662227ee416dfaea40dc3", "type": "electric_scooter", "lon": -77.02494166666666, "rental_uris": {"android": "https://dc.lft.to/lastmile_qr_scan", "ios": "https://dc.lft.to/lastmile_qr_scan"}, "lat": 38.91805266666667, "is_reserved": 0, "is_disabled": 0, "fusion_lat": 0.0}, {"fusion_lon": 0.0, "bike_id": "a4c8141498d29d68e37333d9316c327c", "name": "a4c8141498d29d68e37333d9316c327c", "type": "electric_scooter", "lon": -77.009312, "rental_uris": {"android": "https://dc.lft.to/lastmile_qr_scan", "ios": "https://dc.lft.to/lastmile_qr_scan"}, "lat": 38.87200466666667, "is_reserved": 0, "is_disabled": 0, "fusion_lat": 0.0}, {"fusion_lon": 0.0, "bike_id": "57e5e2540c927f9fb12fcc13a29b8cde", "name": "57e5e2540c927f9fb12fcc13a29b8cde", "type": "electric_scooter", "lon": -77.04187616666667, "rental_uris": {"android": "https://dc.lft.to/lastmile_qr_scan", "ios": "https://dc.lft.to/lastmile_qr_scan"}, "lat": 38.90550233333333, "is_reserved": 0, "is_disabled": 0, "fusion_lat": 0.0}, {"fusion_lon": 0.0, "bike_id": "83acb106244d2aeab3625c249eb8d660", "name": "83acb106244d2aeab3625c249eb8d660", "type": "electric_scooter", "lon": -76.99379416666666, "rental_uris": {"android": "https://dc.lft.to/lastmile_qr_scan", "ios": "https://dc.lft.to/lastmile_qr_scan"}, "lat": 38.92398466666667, "is_reserved": 0, "is_disabled": 0, "fusion_lat": 0.0}, {"fusion_lon": 0.0, "bike_id": "3e6682439225ecee97bcefa712de8bc3", "name": "3e6682439225ecee97bcefa712de8bc3", "type": "electric_scooter", "lon": -77.04016733333333, "rental_uris": {"android": "https://dc.lft.to/lastmile_qr_scan", "ios": "https://dc.lft.to/lastmile_qr_scan"}, "lat": 38.918325, "is_reserved": 0, "is_disabled": 0, "fusion_lat": 0.0}, {"fusion_lon": 0.0, "bike_id": "232c7f7e706523d06db659f9e9d2b6f3", "name": "232c7f7e706523d06db659f9e9d2b6f3", "type": "electric_scooter", "lon": -77.03200233333334, "rental_uris": {"android": "https://dc.lft.to/lastmile_qr_scan", "ios": "https://dc.lft.to/lastmile_qr_scan"}, "lat": 38.90773566666667, "is_reserved": 0, "is_disabled": 0, "fusion_lat": 0.0}, {"fusion_lon": 0.0, "bike_id": "2f7a5e0812b47e73913d2e78bd4b671d", "name": "2f7a5e0812b47e73913d2e78bd4b671d", "type": "electric_scooter", "lon": -77.0298715, "rental_uris": {"android": "https://dc.lft.to/lastmile_qr_scan", "ios": "https://dc.lft.to/lastmile_qr_scan"}, "lat": 38.898701833333334, "is_reserved": 0, "is_disabled": 0, "fusion_lat": 0.0}, {"fusion_lon": 0.0, "bike_id": "c979e6db7096917383a9685777dc922f", "name": "c979e6db7096917383a9685777dc922f", "type": "electric_scooter", "lon": -76.9856645, "rental_uris": {"android": "https://dc.lft.to/lastmile_qr_scan", "ios": "https://dc.lft.to/lastmile_qr_scan"}, "lat": 38.855880166666665, "is_reserved": 0, "is_disabled": 0, "fusion_lat": 0.0}, {"fusion_lon": 0.0, "bike_id": "4b0bfd478a4fa9548857578a7aaed1f2", "name": "4b0bfd478a4fa9548857578a7aaed1f2", "type": "electric_scooter", "lon": -77.02797616666666, "rental_uris": {"android": "https://dc.lft.to/lastmile_qr_scan", "ios": "https://dc.lft.to/lastmile_qr_scan"}, "lat": 38.9125005, "is_reserved": 0, "is_disabled": 0, "fusion_lat": 0.0}, {"fusion_lon": 0.0, "bike_id": "9fbfa00fa0ba36e4f0494b9da27dbb79", "name": "9fbfa00fa0ba36e4f0494b9da27dbb79", "type": "electric_scooter", "lon": -77.03210066666666, "rental_uris": {"android": "https://dc.lft.to/lastmile_qr_scan", "ios": "https://dc.lft.to/lastmile_qr_scan"}, "lat": 38.912374666666665, "is_reserved": 0, "is_disabled": 0, "fusion_lat": 0.0}, {"fusion_lon": 0.0, "bike_id": "f2ff7c5a797fb82645c478190374028e", "name": "f2ff7c5a797fb82645c478190374028e", "type": "electric_bike", "lon": -77.12509716666666, "rental_uris": {"android": "https://dc.lft.to/lastmile_qr_scan", "ios": "https://dc.lft.to/lastmile_qr_scan"}, "lat": 39.02427083333333, "is_reserved": 0, "is_disabled": 0, "fusion_lat": 0.0}, {"fusion_lon": 0.0, "bike_id": "7c1c8306468acbfee13ae3daf0ced7cb", "name": "7c1c8306468acbfee13ae3daf0ced7cb", "type": "electric_scooter", "lon": -77.05139166666666, "rental_uris": {"android": "https://dc.lft.to/lastmile_qr_scan", "ios": "https://dc.lft.to/lastmile_qr_scan"}, "lat": 38.90617733333333, "is_reserved": 0, "is_disabled": 0, "fusion_lat": 0.0}, {"fusion_lon": 0.0, "bike_id": "dc09077a1718db12a9a91abcf025cadb", "name": "dc09077a1718db12a9a91abcf025cadb", "type": "electric_scooter", "lon": -77.02830766666666, "rental_uris": {"android": "https://dc.lft.to/lastmile_qr_scan", "ios": "https://dc.lft.to/lastmile_qr_scan"}, "lat": 38.9482895, "is_reserved": 0, "is_disabled": 0, "fusion_lat": 0.0}, {"fusion_lon": 0.0, "bike_id": "304498cabe3faf99f16e35d3520e1c6f", "name": "304498cabe3faf99f16e35d3520e1c6f", "type": "electric_scooter", "lon": -77.0366145, "rental_uris": {"android": "https://dc.lft.to/lastmile_qr_scan", "ios": "https://dc.lft.to/lastmile_qr_scan"}, "lat": 38.9173415, "is_reserved": 0, "is_disabled": 0, "fusion_lat": 0.0}, {"fusion_lon": 0.0, "bike_id": "00898944f1744adee567e58724033508", "name": "00898944f1744adee567e58724033508", "type": "electric_scooter", "lon": -76.93839516666667, "rental_uris": {"android": "https://dc.lft.to/lastmile_qr_scan", "ios": "https://dc.lft.to/lastmile_qr_scan"}, "lat": 38.8901205, "is_reserved": 0, "is_disabled": 0, "fusion_lat": 0.0}, {"fusion_lon": 0.0, "bike_id": "611eda4768c4955d3a20dca497dc1c43", "name": "611eda4768c4955d3a20dca497dc1c43", "type": "electric_scooter", "lon": -77.0275375, "rental_uris": {"android": "https://dc.lft.to/lastmile_qr_scan", "ios": "https://dc.lft.to/lastmile_qr_scan"}, "lat": 38.954157333333335, "is_reserved": 0, "is_disabled": 0, "fusion_lat": 0.0}, {"fusion_lon": 0.0, "bike_id": "3d7688d9fd3875376b5a6f6468c84852", "name": "3d7688d9fd3875376b5a6f6468c84852", "type": "electric_scooter", "lon": -77.03188083333333, "rental_uris": {"android": "https://dc.lft.to/lastmile_qr_scan", "ios": "https://dc.lft.to/lastmile_qr_scan"}, "lat": 38.892261833333336, "is_reserved": 0, "is_disabled": 0, "fusion_lat": 0.0}, {"fusion_lon": 0.0, "bike_id": "31431cedb91e7746801042a7648dc296", "name": "31431cedb91e7746801042a7648dc296", "type": "electric_scooter", "lon": -77.05917416666666, "rental_uris": {"android": "https://dc.lft.to/lastmile_qr_scan", "ios": "https://dc.lft.to/lastmile_qr_scan"}, "lat": 38.9365375, "is_reserved": 0, "is_disabled": 0, "fusion_lat": 0.0}, {"fusion_lon": 0.0, "bike_id": "b80d2bf9abfae77660cf80e95ca677fc", "name": "b80d2bf9abfae77660cf80e95ca677fc", "type": "electric_scooter", "lon": -77.03637516666667, "rental_uris": {"android": "https://dc.lft.to/lastmile_qr_scan", "ios": "https://dc.lft.to/lastmile_qr_scan"}, "lat": 38.9181675, "is_reserved": 0, "is_disabled": 0, "fusion_lat": 0.0}, {"fusion_lon": 0.0, "bike_id": "ed1ee9d8dc8d2966b3fb01423a7d14ad", "name": "ed1ee9d8dc8d2966b3fb01423a7d14ad", "type": "electric_scooter", "lon": -77.03912833333334, "rental_uris": {"android": "https://dc.lft.to/lastmile_qr_scan", "ios": "https://dc.lft.to/lastmile_qr_scan"}, "lat": 38.90199333333333, "is_reserved": 0, "is_disabled": 0, "fusion_lat": 0.0}, {"fusion_lon": 0.0, "bike_id": "7cc6c02a398591230c921ff9946e9f98", "name": "7cc6c02a398591230c921ff9946e9f98", "type": "electric_scooter", "lon": -77.03224966666667, "rental_uris": {"android": "https://dc.lft.to/lastmile_qr_scan", "ios": "https://dc.lft.to/lastmile_qr_scan"}, "lat": 38.92549433333333, "is_reserved": 0, "is_disabled": 0, "fusion_lat": 0.0}, {"fusion_lon": 0.0, "bike_id": "e9e3c5362252193bc2703f0dd48eff47", "name": "e9e3c5362252193bc2703f0dd48eff47", "type": "electric_scooter", "lon": -77.03855483333334, "rental_uris": {"android": "https://dc.lft.to/lastmile_qr_scan", "ios": "https://dc.lft.to/lastmile_qr_scan"}, "lat": 38.917498333333334, "is_reserved": 0, "is_disabled": 0, "fusion_lat": 0.0}, {"fusion_lon": 0.0, "bike_id": "a421e9e94c0837c9d95a0286c9a06314", "name": "a421e9e94c0837c9d95a0286c9a06314", "type": "electric_scooter", "lon": -77.0320945, "rental_uris": {"android": "https://dc.lft.to/lastmile_qr_scan", "ios": "https://dc.lft.to/lastmile_qr_scan"}, "lat": 38.91594583333333, "is_reserved": 0, "is_disabled": 0, "fusion_lat": 0.0}, {"fusion_lon": 0.0, "bike_id": "95ba9f86676827c2f9d28f2042199291", "name": "95ba9f86676827c2f9d28f2042199291", "type": "electric_scooter", "lon": -77.02143183333334, "rental_uris": {"android": "https://dc.lft.to/lastmile_qr_scan", "ios": "https://dc.lft.to/lastmile_qr_scan"}, "lat": 38.896120833333335, "is_reserved": 0, "is_disabled": 0, "fusion_lat": 0.0}, {"fusion_lon": 0.0, "bike_id": "f0360a5f853e601e294ae4c5576a183c", "name": "f0360a5f853e601e294ae4c5576a183c", "type": "electric_scooter", "lon": -77.06103433333334, "rental_uris": {"android": "https://dc.lft.to/lastmile_qr_scan", "ios": "https://dc.lft.to/lastmile_qr_scan"}, "lat": 38.943686666666665, "is_reserved": 0, "is_disabled": 0, "fusion_lat": 0.0}, {"fusion_lon": 0.0, "bike_id": "1b2da7fb5c3aacb2e60e315d70a857e9", "name": "1b2da7fb5c3aacb2e60e315d70a857e9", "type": "electric_scooter", "lon": -77.00483416666667, "rental_uris": {"android": "https://dc.lft.to/lastmile_qr_scan", "ios": "https://dc.lft.to/lastmile_qr_scan"}, "lat": 38.8804865, "is_reserved": 0, "is_disabled": 0, "fusion_lat": 0.0}, {"fusion_lon": 0.0, "bike_id": "abb2cfd1086591a43163f2e7aea2173f", "name": "abb2cfd1086591a43163f2e7aea2173f", "type": "electric_scooter", "lon": -77.0344415, "rental_uris": {"android": "https://dc.lft.to/lastmile_qr_scan", "ios": "https://dc.lft.to/lastmile_qr_scan"}, "lat": 38.9343545, "is_reserved": 0, "is_disabled": 0, "fusion_lat": 0.0}, {"fusion_lon": 0.0, "bike_id": "1598017220ab1008c78a5b70b7e06f67", "name": "1598017220ab1008c78a5b70b7e06f67", "type": "electric_scooter", "lon": -77.0335095, "rental_uris": {"android": "https://dc.lft.to/lastmile_qr_scan", "ios": "https://dc.lft.to/lastmile_qr_scan"}, "lat": 38.92875166666666, "is_reserved": 0, "is_disabled": 0, "fusion_lat": 0.0}, {"fusion_lon": 0.0, "bike_id": "9415c8311adbf31826a2b7e26264a5ea", "name": "9415c8311adbf31826a2b7e26264a5ea", "type": "electric_scooter", "lon": -77.02831933333333, "rental_uris": {"android": "https://dc.lft.to/lastmile_qr_scan", "ios": "https://dc.lft.to/lastmile_qr_scan"}, "lat": 38.88726666666667, "is_reserved": 0, "is_disabled": 0, "fusion_lat": 0.0}, {"fusion_lon": 0.0, "bike_id": "374f37e367c3a8ac83cdf595d5b24ea8", "name": "374f37e367c3a8ac83cdf595d5b24ea8", "type": "electric_scooter", "lon": -76.99791116666667, "rental_uris": {"android": "https://dc.lft.to/lastmile_qr_scan", "ios": "https://dc.lft.to/lastmile_qr_scan"}, "lat": 38.9482995, "is_reserved": 0, "is_disabled": 0, "fusion_lat": 0.0}, {"fusion_lon": 0.0, "bike_id": "636536cad5f2475519be5db8765ab891", "name": "636536cad5f2475519be5db8765ab891", "type": "electric_scooter", "lon": -77.03490283333333, "rental_uris": {"android": "https://dc.lft.to/lastmile_qr_scan", "ios": "https://dc.lft.to/lastmile_qr_scan"}, "lat": 38.92153283333333, "is_reserved": 0, "is_disabled": 0, "fusion_lat": 0.0}, {"fusion_lon": 0.0, "bike_id": "67c1ba7fa4ad24a9d05b80e42f10d456", "name": "67c1ba7fa4ad24a9d05b80e42f10d456", "type": "electric_scooter", "lon": -77.04674416666667, "rental_uris": {"android": "https://dc.lft.to/lastmile_qr_scan", "ios": "https://dc.lft.to/lastmile_qr_scan"}, "lat": 38.90733433333333, "is_reserved": 0, "is_disabled": 0, "fusion_lat": 0.0}, {"fusion_lon": 0.0, "bike_id": "fe9a7a996a871f5128b2ff48532e208c", "name": "fe9a7a996a871f5128b2ff48532e208c", "type": "electric_scooter", "lon": -77.01767833333334, "rental_uris": {"android": "https://dc.lft.to/lastmile_qr_scan", "ios": "https://dc.lft.to/lastmile_qr_scan"}, "lat": 38.902642, "is_reserved": 0, "is_disabled": 0, "fusion_lat": 0.0}, {"fusion_lon": 0.0, "bike_id": "b0ec9af094d5fb6c7ae9a20f27d3d03d", "name": "b0ec9af094d5fb6c7ae9a20f27d3d03d", "type": "electric_scooter", "lon": -77.041499, "rental_uris": {"android": "https://dc.lft.to/lastmile_qr_scan", "ios": "https://dc.lft.to/lastmile_qr_scan"}, "lat": 38.9191515, "is_reserved": 0, "is_disabled": 0, "fusion_lat": 0.0}, {"fusion_lon": 0.0, "bike_id": "23f7fd1428cea745273e63c3c305ab4e", "name": "23f7fd1428cea745273e63c3c305ab4e", "type": "electric_scooter", "lon": -77.0282815, "rental_uris": {"android": "https://dc.lft.to/lastmile_qr_scan", "ios": "https://dc.lft.to/lastmile_qr_scan"}, "lat": 38.932113333333334, "is_reserved": 0, "is_disabled": 0, "fusion_lat": 0.0}, {"fusion_lon": 0.0, "bike_id": "32c2827ad3b073bbbe2fb9c647fb8634", "name": "32c2827ad3b073bbbe2fb9c647fb8634", "type": "electric_scooter", "lon": -77.04484016666666, "rental_uris": {"android": "https://dc.lft.to/lastmile_qr_scan", "ios": "https://dc.lft.to/lastmile_qr_scan"}, "lat": 38.89747783333333, "is_reserved": 0, "is_disabled": 0, "fusion_lat": 0.0}, {"fusion_lon": 0.0, "bike_id": "0d97fdbb8d51d0bfc78cf7bbcbec9a23", "name": "0d97fdbb8d51d0bfc78cf7bbcbec9a23", "type": "electric_scooter", "lon": -77.05809283333333, "rental_uris": {"android": "https://dc.lft.to/lastmile_qr_scan", "ios": "https://dc.lft.to/lastmile_qr_scan"}, "lat": 38.90296083333333, "is_reserved": 0, "is_disabled": 0, "fusion_lat": 0.0}, {"fusion_lon": 0.0, "bike_id": "43d29aa836b0a3851cb96c2dcfb19616", "name": "43d29aa836b0a3851cb96c2dcfb19616", "type": "electric_scooter", "lon": -77.02958833333334, "rental_uris": {"android": "https://dc.lft.to/lastmile_qr_scan", "ios": "https://dc.lft.to/lastmile_qr_scan"}, "lat": 38.921447666666666, "is_reserved": 0, "is_disabled": 0, "fusion_lat": 0.0}, {"fusion_lon": 0.0, "bike_id": "51a080547bdbe5a4fb07480e0ed0c2e8", "name": "51a080547bdbe5a4fb07480e0ed0c2e8", "type": "electric_scooter", "lon": -77.0249285, "rental_uris": {"android": "https://dc.lft.to/lastmile_qr_scan", "ios": "https://dc.lft.to/lastmile_qr_scan"}, "lat": 38.941865666666665, "is_reserved": 0, "is_disabled": 0, "fusion_lat": 0.0}, {"fusion_lon": 0.0, "bike_id": "3a92c196f32f97dee16be6fbe16e6d22", "name": "3a92c196f32f97dee16be6fbe16e6d22", "type": "electric_scooter", "lon": -77.05853266666666, "rental_uris": {"android": "https://dc.lft.to/lastmile_qr_scan", "ios": "https://dc.lft.to/lastmile_qr_scan"}, "lat": 38.937007666666666, "is_reserved": 0, "is_disabled": 0, "fusion_lat": 0.0}, {"fusion_lon": 0.0, "bike_id": "eb8e5cba18d94b8eb874aec9f17009ee", "name": "eb8e5cba18d94b8eb874aec9f17009ee", "type": "electric_scooter", "lon": -77.05111016666666, "rental_uris": {"android": "https://dc.lft.to/lastmile_qr_scan", "ios": "https://dc.lft.to/lastmile_qr_scan"}, "lat": 38.923615166666664, "is_reserved": 0, "is_disabled": 0, "fusion_lat": 0.0}, {"fusion_lon": 0.0, "bike_id": "ba3f394da4a7ee20f5062bb44a34ab51", "name": "ba3f394da4a7ee20f5062bb44a34ab51", "type": "electric_scooter", "lon": -77.048447, "rental_uris": {"android": "https://dc.lft.to/lastmile_qr_scan", "ios": "https://dc.lft.to/lastmile_qr_scan"}, "lat": 38.91611283333334, "is_reserved": 0, "is_disabled": 0, "fusion_lat": 0.0}, {"fusion_lon": 0.0, "bike_id": "ca27722fb108c45f24252d131241fde9", "name": "ca27722fb108c45f24252d131241fde9", "type": "electric_scooter", "lon": -76.99596733333334, "rental_uris": {"android": "https://dc.lft.to/lastmile_qr_scan", "ios": "https://dc.lft.to/lastmile_qr_scan"}, "lat": 38.8873505, "is_reserved": 0, "is_disabled": 0, "fusion_lat": 0.0}, {"fusion_lon": 0.0, "bike_id": "0d34e5a8df2f64a5fd8842aaed9d7c40", "name": "0d34e5a8df2f64a5fd8842aaed9d7c40", "type": "electric_bike", "lon": -77.07797866666667, "rental_uris": {"android": "https://dc.lft.to/lastmile_qr_scan", "ios": "https://dc.lft.to/lastmile_qr_scan"}, "lat": 38.845138166666665, "is_reserved": 0, "is_disabled": 0, "fusion_lat": 0.0}, {"fusion_lon": 0.0, "bike_id": "9c6349645b80fc7b05597c990504ce03", "name": "9c6349645b80fc7b05597c990504ce03", "type": "electric_scooter", "lon": -76.99500666666667, "rental_uris": {"android": "https://dc.lft.to/lastmile_qr_scan", "ios": "https://dc.lft.to/lastmile_qr_scan"}, "lat": 38.92570716666667, "is_reserved": 0, "is_disabled": 0, "fusion_lat": 0.0}, {"fusion_lon": 0.0, "bike_id": "2ff07b6414c6128aee50a5fbc101d3f7", "name": "2ff07b6414c6128aee50a5fbc101d3f7", "type": "electric_scooter", "lon": -77.0006535, "rental_uris": {"android": "https://dc.lft.to/lastmile_qr_scan", "ios": "https://dc.lft.to/lastmile_qr_scan"}, "lat": 38.8929175, "is_reserved": 0, "is_disabled": 0, "fusion_lat": 0.0}, {"fusion_lon": 0.0, "bike_id": "a280f2f807453c24cdebc22d96046a8a", "name": "a280f2f807453c24cdebc22d96046a8a", "type": "electric_scooter", "lon": -77.0339415, "rental_uris": {"android": "https://dc.lft.to/lastmile_qr_scan", "ios": "https://dc.lft.to/lastmile_qr_scan"}, "lat": 38.92053133333334, "is_reserved": 0, "is_disabled": 0, "fusion_lat": 0.0}, {"fusion_lon": 0.0, "bike_id": "65b220641ac70a8d5d047f745d6cbc96", "name": "65b220641ac70a8d5d047f745d6cbc96", "type": "electric_scooter", "lon": -77.0405835, "rental_uris": {"android": "https://dc.lft.to/lastmile_qr_scan", "ios": "https://dc.lft.to/lastmile_qr_scan"}, "lat": 38.90517066666666, "is_reserved": 0, "is_disabled": 0, "fusion_lat": 0.0}, {"fusion_lon": 0.0, "bike_id": "b30fb42d120427180484e23c684bac1c", "name": "b30fb42d120427180484e23c684bac1c", "type": "electric_scooter", "lon": -77.03568133333333, "rental_uris": {"android": "https://dc.lft.to/lastmile_qr_scan", "ios": "https://dc.lft.to/lastmile_qr_scan"}, "lat": 38.909645833333336, "is_reserved": 0, "is_disabled": 0, "fusion_lat": 0.0}, {"fusion_lon": 0.0, "bike_id": "032759bf3fe5c5b8955a31b444c2470e", "name": "032759bf3fe5c5b8955a31b444c2470e", "type": "electric_scooter", "lon": -76.98017483333334, "rental_uris": {"android": "https://dc.lft.to/lastmile_qr_scan", "ios": "https://dc.lft.to/lastmile_qr_scan"}, "lat": 38.86402316666667, "is_reserved": 0, "is_disabled": 0, "fusion_lat": 0.0}, {"fusion_lon": 0.0, "bike_id": "50094f02685978c5d2141b99f7f478ef", "name": "50094f02685978c5d2141b99f7f478ef", "type": "electric_scooter", "lon": -77.07288083333333, "rental_uris": {"android": "https://dc.lft.to/lastmile_qr_scan", "ios": "https://dc.lft.to/lastmile_qr_scan"}, "lat": 38.931894166666666, "is_reserved": 0, "is_disabled": 0, "fusion_lat": 0.0}, {"fusion_lon": 0.0, "bike_id": "9ed796538450db47dfb6cfb15288cfb3", "name": "9ed796538450db47dfb6cfb15288cfb3", "type": "electric_scooter", "lon": -77.01838783333334, "rental_uris": {"android": "https://dc.lft.to/lastmile_qr_scan", "ios": "https://dc.lft.to/lastmile_qr_scan"}, "lat": 38.902671166666664, "is_reserved": 0, "is_disabled": 0, "fusion_lat": 0.0}, {"fusion_lon": 0.0, "bike_id": "ebc24908808af76702da71815769ccb7", "name": "ebc24908808af76702da71815769ccb7", "type": "electric_scooter", "lon": -77.03350283333333, "rental_uris": {"android": "https://dc.lft.to/lastmile_qr_scan", "ios": "https://dc.lft.to/lastmile_qr_scan"}, "lat": 38.892443666666665, "is_reserved": 0, "is_disabled": 0, "fusion_lat": 0.0}, {"fusion_lon": 0.0, "bike_id": "5b22a5228489d3579eefddcdbde1a617", "name": "5b22a5228489d3579eefddcdbde1a617", "type": "electric_bike", "lon": -77.10127516666667, "rental_uris": {"android": "https://dc.lft.to/lastmile_qr_scan", "ios": "https://dc.lft.to/lastmile_qr_scan"}, "lat": 38.85208566666667, "is_reserved": 0, "is_disabled": 0, "fusion_lat": 0.0}, {"fusion_lon": 0.0, "bike_id": "e05d0f72614f0ca45b7c2238cf73bb85", "name": "e05d0f72614f0ca45b7c2238cf73bb85", "type": "electric_scooter", "lon": -77.03450566666666, "rental_uris": {"android": "https://dc.lft.to/lastmile_qr_scan", "ios": "https://dc.lft.to/lastmile_qr_scan"}, "lat": 38.91012966666667, "is_reserved": 0, "is_disabled": 0, "fusion_lat": 0.0}, {"fusion_lon": 0.0, "bike_id": "ce732de4504e6e6d547b1b21bfceb042", "name": "ce732de4504e6e6d547b1b21bfceb042", "type": "electric_scooter", "lon": -77.02949283333334, "rental_uris": {"android": "https://dc.lft.to/lastmile_qr_scan", "ios": "https://dc.lft.to/lastmile_qr_scan"}, "lat": 38.9050625, "is_reserved": 0, "is_disabled": 0, "fusion_lat": 0.0}, {"fusion_lon": 0.0, "bike_id": "17d5a295facd9267e1de71ab3a5480cb", "name": "17d5a295facd9267e1de71ab3a5480cb", "type": "electric_scooter", "lon": -77.03804283333334, "rental_uris": {"android": "https://dc.lft.to/lastmile_qr_scan", "ios": "https://dc.lft.to/lastmile_qr_scan"}, "lat": 38.910367666666666, "is_reserved": 0, "is_disabled": 0, "fusion_lat": 0.0}, {"fusion_lon": 0.0, "bike_id": "c8f8a43cfc30ebfa20c2919edf900ba9", "name": "c8f8a43cfc30ebfa20c2919edf900ba9", "type": "electric_scooter", "lon": -77.034584, "rental_uris": {"android": "https://dc.lft.to/lastmile_qr_scan", "ios": "https://dc.lft.to/lastmile_qr_scan"}, "lat": 38.90643016666667, "is_reserved": 0, "is_disabled": 0, "fusion_lat": 0.0}, {"fusion_lon": 0.0, "bike_id": "3125a73b47c7c103216098467609ec17", "name": "3125a73b47c7c103216098467609ec17", "type": "electric_scooter", "lon": -77.04235383333334, "rental_uris": {"android": "https://dc.lft.to/lastmile_qr_scan", "ios": "https://dc.lft.to/lastmile_qr_scan"}, "lat": 38.921554666666665, "is_reserved": 0, "is_disabled": 0, "fusion_lat": 0.0}, {"fusion_lon": 0.0, "bike_id": "2d0f8e589ecb8b60da82c3e6d0f5dafa", "name": "2d0f8e589ecb8b60da82c3e6d0f5dafa", "type": "electric_scooter", "lon": -77.08013533333333, "rental_uris": {"android": "https://dc.lft.to/lastmile_qr_scan", "ios": "https://dc.lft.to/lastmile_qr_scan"}, "lat": 38.94905083333333, "is_reserved": 0, "is_disabled": 0, "fusion_lat": 0.0}, {"fusion_lon": 0.0, "bike_id": "4ad85022d86f6c7bfbee41646b242da4", "name": "4ad85022d86f6c7bfbee41646b242da4", "type": "electric_scooter", "lon": -77.0201025, "rental_uris": {"android": "https://dc.lft.to/lastmile_qr_scan", "ios": "https://dc.lft.to/lastmile_qr_scan"}, "lat": 38.87893183333333, "is_reserved": 0, "is_disabled": 0, "fusion_lat": 0.0}, {"fusion_lon": 0.0, "bike_id": "e1bfa65a0b4f6b6ba66d7e055a280c91", "name": "e1bfa65a0b4f6b6ba66d7e055a280c91", "type": "electric_bike", "lon": -77.03468533333333, "rental_uris": {"android": "https://dc.lft.to/lastmile_qr_scan", "ios": "https://dc.lft.to/lastmile_qr_scan"}, "lat": 38.924917, "is_reserved": 0, "is_disabled": 0, "fusion_lat": 0.0}, {"fusion_lon": 0.0, "bike_id": "b0b760db4ab81ae5c49fce9686f00e79", "name": "b0b760db4ab81ae5c49fce9686f00e79", "type": "electric_scooter", "lon": -76.9962025, "rental_uris": {"android": "https://dc.lft.to/lastmile_qr_scan", "ios": "https://dc.lft.to/lastmile_qr_scan"}, "lat": 38.88489633333333, "is_reserved": 0, "is_disabled": 0, "fusion_lat": 0.0}, {"fusion_lon": 0.0, "bike_id": "3c24e5673a9b07d1657777b8a5a5992d", "name": "3c24e5673a9b07d1657777b8a5a5992d", "type": "electric_scooter", "lon": -76.99832816666667, "rental_uris": {"android": "https://dc.lft.to/lastmile_qr_scan", "ios": "https://dc.lft.to/lastmile_qr_scan"}, "lat": 38.90873716666667, "is_reserved": 0, "is_disabled": 0, "fusion_lat": 0.0}, {"fusion_lon": 0.0, "bike_id": "c8d074056fc5a6dd1715f937ef6d8084", "name": "c8d074056fc5a6dd1715f937ef6d8084", "type": "electric_scooter", "lon": -77.04046466666667, "rental_uris": {"android": "https://dc.lft.to/lastmile_qr_scan", "ios": "https://dc.lft.to/lastmile_qr_scan"}, "lat": 38.9014885, "is_reserved": 0, "is_disabled": 0, "fusion_lat": 0.0}, {"fusion_lon": 0.0, "bike_id": "92ab80169d512bab79d3880c62e39741", "name": "92ab80169d512bab79d3880c62e39741", "type": "electric_scooter", "lon": -76.91882516666666, "rental_uris": {"android": "https://dc.lft.to/lastmile_qr_scan", "ios": "https://dc.lft.to/lastmile_qr_scan"}, "lat": 38.890821, "is_reserved": 0, "is_disabled": 0, "fusion_lat": 0.0}, {"fusion_lon": 0.0, "bike_id": "49e30ec1da067ec89d5cde49504b46d7", "name": "49e30ec1da067ec89d5cde49504b46d7", "type": "electric_scooter", "lon": -77.03336616666667, "rental_uris": {"android": "https://dc.lft.to/lastmile_qr_scan", "ios": "https://dc.lft.to/lastmile_qr_scan"}, "lat": 38.89229133333333, "is_reserved": 0, "is_disabled": 0, "fusion_lat": 0.0}, {"fusion_lon": 0.0, "bike_id": "5a9dd48e4c7bfe5db2f080ea21e00481", "name": "5a9dd48e4c7bfe5db2f080ea21e00481", "type": "electric_scooter", "lon": -77.048862, "rental_uris": {"android": "https://dc.lft.to/lastmile_qr_scan", "ios": "https://dc.lft.to/lastmile_qr_scan"}, "lat": 38.898177833333335, "is_reserved": 0, "is_disabled": 0, "fusion_lat": 0.0}, {"fusion_lon": 0.0, "bike_id": "53dd00fbb58e4134971ae13997d98091", "name": "53dd00fbb58e4134971ae13997d98091", "type": "electric_bike", "lon": -76.930258, "rental_uris": {"android": "https://dc.lft.to/lastmile_qr_scan", "ios": "https://dc.lft.to/lastmile_qr_scan"}, "lat": 38.96647933333333, "is_reserved": 0, "is_disabled": 0, "fusion_lat": 0.0}, {"fusion_lon": 0.0, "bike_id": "3fca8ed542f4b81084b816691547bf0a", "name": "3fca8ed542f4b81084b816691547bf0a", "type": "electric_scooter", "lon": -77.00359683333333, "rental_uris": {"android": "https://dc.lft.to/lastmile_qr_scan", "ios": "https://dc.lft.to/lastmile_qr_scan"}, "lat": 38.9169565, "is_reserved": 0, "is_disabled": 0, "fusion_lat": 0.0}, {"fusion_lon": 0.0, "bike_id": "2beadba3d0f0b24736bda262fd92d9fd", "name": "2beadba3d0f0b24736bda262fd92d9fd", "type": "electric_scooter", "lon": -77.01354166666667, "rental_uris": {"android": "https://dc.lft.to/lastmile_qr_scan", "ios": "https://dc.lft.to/lastmile_qr_scan"}, "lat": 38.90062433333333, "is_reserved": 0, "is_disabled": 0, "fusion_lat": 0.0}, {"fusion_lon": 0.0, "bike_id": "40c2e4f769165835bffe240a500a942f", "name": "40c2e4f769165835bffe240a500a942f", "type": "electric_scooter", "lon": -77.02590383333333, "rental_uris": {"android": "https://dc.lft.to/lastmile_qr_scan", "ios": "https://dc.lft.to/lastmile_qr_scan"}, "lat": 38.92032966666667, "is_reserved": 0, "is_disabled": 0, "fusion_lat": 0.0}, {"fusion_lon": 0.0, "bike_id": "0ca33682c1c713304afb9416929c085b", "name": "0ca33682c1c713304afb9416929c085b", "type": "electric_scooter", "lon": -77.05991816666666, "rental_uris": {"android": "https://dc.lft.to/lastmile_qr_scan", "ios": "https://dc.lft.to/lastmile_qr_scan"}, "lat": 38.91191283333333, "is_reserved": 0, "is_disabled": 0, "fusion_lat": 0.0}, {"fusion_lon": 0.0, "bike_id": "e4f6af1bd0a0782204290cd4ad7730ce", "name": "e4f6af1bd0a0782204290cd4ad7730ce", "type": "electric_bike", "lon": -76.913251, "rental_uris": {"android": "https://dc.lft.to/lastmile_qr_scan", "ios": "https://dc.lft.to/lastmile_qr_scan"}, "lat": 38.895987166666664, "is_reserved": 0, "is_disabled": 0, "fusion_lat": 0.0}, {"fusion_lon": 0.0, "bike_id": "b5cd098283a8691602f17e10191416cd", "name": "b5cd098283a8691602f17e10191416cd", "type": "electric_scooter", "lon": -77.03404333333333, "rental_uris": {"android": "https://dc.lft.to/lastmile_qr_scan", "ios": "https://dc.lft.to/lastmile_qr_scan"}, "lat": 38.921567833333334, "is_reserved": 0, "is_disabled": 0, "fusion_lat": 0.0}, {"fusion_lon": 0.0, "bike_id": "bc32263a12544b114617ea0ae4a19acd", "name": "bc32263a12544b114617ea0ae4a19acd", "type": "electric_scooter", "lon": -76.99873383333333, "rental_uris": {"android": "https://dc.lft.to/lastmile_qr_scan", "ios": "https://dc.lft.to/lastmile_qr_scan"}, "lat": 38.90014433333333, "is_reserved": 0, "is_disabled": 0, "fusion_lat": 0.0}, {"fusion_lon": 0.0, "bike_id": "1801636c0a95bc474908d6ca97ba739e", "name": "1801636c0a95bc474908d6ca97ba739e", "type": "electric_scooter", "lon": -77.0723165, "rental_uris": {"android": "https://dc.lft.to/lastmile_qr_scan", "ios": "https://dc.lft.to/lastmile_qr_scan"}, "lat": 38.93457266666667, "is_reserved": 0, "is_disabled": 0, "fusion_lat": 0.0}, {"fusion_lon": 0.0, "bike_id": "6615e5f0cae7b9870af1becb05316003", "name": "6615e5f0cae7b9870af1becb05316003", "type": "electric_scooter", "lon": -77.03253783333334, "rental_uris": {"android": "https://dc.lft.to/lastmile_qr_scan", "ios": "https://dc.lft.to/lastmile_qr_scan"}, "lat": 38.90972716666667, "is_reserved": 0, "is_disabled": 0, "fusion_lat": 0.0}, {"fusion_lon": 0.0, "bike_id": "2698787cdfa6ee0af30731f4c04029b0", "name": "2698787cdfa6ee0af30731f4c04029b0", "type": "electric_bike", "lon": -77.1526845, "rental_uris": {"android": "https://dc.lft.to/lastmile_qr_scan", "ios": "https://dc.lft.to/lastmile_qr_scan"}, "lat": 39.105655666666664, "is_reserved": 0, "is_disabled": 0, "fusion_lat": 0.0}, {"fusion_lon": 0.0, "bike_id": "0e81684afd3c303452d5a22006324d56", "name": "0e81684afd3c303452d5a22006324d56", "type": "electric_scooter", "lon": -77.05726383333334, "rental_uris": {"android": "https://dc.lft.to/lastmile_qr_scan", "ios": "https://dc.lft.to/lastmile_qr_scan"}, "lat": 38.93371033333333, "is_reserved": 0, "is_disabled": 0, "fusion_lat": 0.0}, {"fusion_lon": 0.0, "bike_id": "7d35084cd9ce807c76809ad647d12cb7", "name": "7d35084cd9ce807c76809ad647d12cb7", "type": "electric_scooter", "lon": -77.02173783333333, "rental_uris": {"android": "https://dc.lft.to/lastmile_qr_scan", "ios": "https://dc.lft.to/lastmile_qr_scan"}, "lat": 38.89878616666667, "is_reserved": 0, "is_disabled": 0, "fusion_lat": 0.0}, {"fusion_lon": 0.0, "bike_id": "211704549d519e2fc1e6b72fd22a9466", "name": "211704549d519e2fc1e6b72fd22a9466", "type": "electric_scooter", "lon": -77.03120033333333, "rental_uris": {"android": "https://dc.lft.to/lastmile_qr_scan", "ios": "https://dc.lft.to/lastmile_qr_scan"}, "lat": 38.90434483333333, "is_reserved": 0, "is_disabled": 0, "fusion_lat": 0.0}, {"fusion_lon": 0.0, "bike_id": "45c1c8640753a96da08b7afba4c874b5", "name": "45c1c8640753a96da08b7afba4c874b5", "type": "electric_bike", "lon": -76.916059, "rental_uris": {"android": "https://dc.lft.to/lastmile_qr_scan", "ios": "https://dc.lft.to/lastmile_qr_scan"}, "lat": 38.879679, "is_reserved": 0, "is_disabled": 0, "fusion_lat": 0.0}, {"fusion_lon": 0.0, "bike_id": "4da314cb7a896b28cf9a4a8004753f0c", "name": "4da314cb7a896b28cf9a4a8004753f0c", "type": "electric_scooter", "lon": -77.04723183333333, "rental_uris": {"android": "https://dc.lft.to/lastmile_qr_scan", "ios": "https://dc.lft.to/lastmile_qr_scan"}, "lat": 38.89962083333333, "is_reserved": 0, "is_disabled": 0, "fusion_lat": 0.0}, {"fusion_lon": 0.0, "bike_id": "27df3b60950c5d6f9bcf2e10fb140cd8", "name": "27df3b60950c5d6f9bcf2e10fb140cd8", "type": "electric_scooter", "lon": -77.03454133333334, "rental_uris": {"android": "https://dc.lft.to/lastmile_qr_scan", "ios": "https://dc.lft.to/lastmile_qr_scan"}, "lat": 38.9642075, "is_reserved": 0, "is_disabled": 0, "fusion_lat": 0.0}, {"fusion_lon": 0.0, "bike_id": "9247df34607c8761e5da0e87405bca81", "name": "9247df34607c8761e5da0e87405bca81", "type": "electric_scooter", "lon": -76.98327983333333, "rental_uris": {"android": "https://dc.lft.to/lastmile_qr_scan", "ios": "https://dc.lft.to/lastmile_qr_scan"}, "lat": 38.861687833333335, "is_reserved": 0, "is_disabled": 0, "fusion_lat": 0.0}, {"fusion_lon": 0.0, "bike_id": "6bdb02091b0c1a60b18969b03630a992", "name": "6bdb02091b0c1a60b18969b03630a992", "type": "electric_bike", "lon": -76.96839, "rental_uris": {"android": "https://dc.lft.to/lastmile_qr_scan", "ios": "https://dc.lft.to/lastmile_qr_scan"}, "lat": 38.924473, "is_reserved": 0, "is_disabled": 0, "fusion_lat": 0.0}, {"fusion_lon": 0.0, "bike_id": "58d0abcaa57ea29b94d23a3da8368d7b", "name": "58d0abcaa57ea29b94d23a3da8368d7b", "type": "electric_scooter", "lon": -77.0240695, "rental_uris": {"android": "https://dc.lft.to/lastmile_qr_scan", "ios": "https://dc.lft.to/lastmile_qr_scan"}, "lat": 38.9170895, "is_reserved": 0, "is_disabled": 0, "fusion_lat": 0.0}, {"fusion_lon": 0.0, "bike_id": "92d9a163a98138556e822996346b7bdd", "name": "92d9a163a98138556e822996346b7bdd", "type": "electric_scooter", "lon": -77.03854833333334, "rental_uris": {"android": "https://dc.lft.to/lastmile_qr_scan", "ios": "https://dc.lft.to/lastmile_qr_scan"}, "lat": 38.916689, "is_reserved": 0, "is_disabled": 0, "fusion_lat": 0.0}, {"fusion_lon": 0.0, "bike_id": "9c624384fbdd908d40a407060e6537f6", "name": "9c624384fbdd908d40a407060e6537f6", "type": "electric_scooter", "lon": -77.042226, "rental_uris": {"android": "https://dc.lft.to/lastmile_qr_scan", "ios": "https://dc.lft.to/lastmile_qr_scan"}, "lat": 38.9211285, "is_reserved": 0, "is_disabled": 0, "fusion_lat": 0.0}, {"fusion_lon": 0.0, "bike_id": "fc112da919903d350af4904feadcdac6", "name": "fc112da919903d350af4904feadcdac6", "type": "electric_scooter", "lon": -77.03468566666666, "rental_uris": {"android": "https://dc.lft.to/lastmile_qr_scan", "ios": "https://dc.lft.to/lastmile_qr_scan"}, "lat": 38.9215625, "is_reserved": 0, "is_disabled": 0, "fusion_lat": 0.0}, {"fusion_lon": 0.0, "bike_id": "3a6666a7c1995a4b43df23e7598a4a16", "name": "3a6666a7c1995a4b43df23e7598a4a16", "type": "electric_scooter", "lon": -77.00557, "rental_uris": {"android": "https://dc.lft.to/lastmile_qr_scan", "ios": "https://dc.lft.to/lastmile_qr_scan"}, "lat": 38.8745835, "is_reserved": 0, "is_disabled": 0, "fusion_lat": 0.0}, {"fusion_lon": 0.0, "bike_id": "888e915b916ffe5f1f892bfa6af853fe", "name": "888e915b916ffe5f1f892bfa6af853fe", "type": "electric_scooter", "lon": -77.03181883333333, "rental_uris": {"android": "https://dc.lft.to/lastmile_qr_scan", "ios": "https://dc.lft.to/lastmile_qr_scan"}, "lat": 38.891764, "is_reserved": 0, "is_disabled": 0, "fusion_lat": 0.0}, {"fusion_lon": 0.0, "bike_id": "50dfb6f9b25c0ab7417cb4057971bab8", "name": "50dfb6f9b25c0ab7417cb4057971bab8", "type": "electric_scooter", "lon": -77.02290916666666, "rental_uris": {"android": "https://dc.lft.to/lastmile_qr_scan", "ios": "https://dc.lft.to/lastmile_qr_scan"}, "lat": 38.915714, "is_reserved": 0, "is_disabled": 0, "fusion_lat": 0.0}, {"fusion_lon": 0.0, "bike_id": "0e047870002e7681ecd96c9115a779a2", "name": "0e047870002e7681ecd96c9115a779a2", "type": "electric_scooter", "lon": -77.00425166666666, "rental_uris": {"android": "https://dc.lft.to/lastmile_qr_scan", "ios": "https://dc.lft.to/lastmile_qr_scan"}, "lat": 38.875231166666666, "is_reserved": 0, "is_disabled": 0, "fusion_lat": 0.0}, {"fusion_lon": 0.0, "bike_id": "49dee26bbc83cd49d9f69c1f4989a4c1", "name": "49dee26bbc83cd49d9f69c1f4989a4c1", "type": "electric_scooter", "lon": -77.01763516666666, "rental_uris": {"android": "https://dc.lft.to/lastmile_qr_scan", "ios": "https://dc.lft.to/lastmile_qr_scan"}, "lat": 38.92108783333333, "is_reserved": 0, "is_disabled": 0, "fusion_lat": 0.0}, {"fusion_lon": 0.0, "bike_id": "ee64a917d8c566e1e33dba912cb6b344", "name": "ee64a917d8c566e1e33dba912cb6b344", "type": "electric_scooter", "lon": -77.00755916666667, "rental_uris": {"android": "https://dc.lft.to/lastmile_qr_scan", "ios": "https://dc.lft.to/lastmile_qr_scan"}, "lat": 38.9056815, "is_reserved": 0, "is_disabled": 0, "fusion_lat": 0.0}, {"fusion_lon": 0.0, "bike_id": "263415c26271afcea7a40a1e494a1a96", "name": "263415c26271afcea7a40a1e494a1a96", "type": "electric_bike", "lon": -77.12748783333333, "rental_uris": {"android": "https://dc.lft.to/lastmile_qr_scan", "ios": "https://dc.lft.to/lastmile_qr_scan"}, "lat": 38.88820166666667, "is_reserved": 0, "is_disabled": 0, "fusion_lat": 0.0}, {"fusion_lon": 0.0, "bike_id": "e6e3f7aaffc215768922bdedf0570b2e", "name": "e6e3f7aaffc215768922bdedf0570b2e", "type": "electric_scooter", "lon": -77.028033, "rental_uris": {"android": "https://dc.lft.to/lastmile_qr_scan", "ios": "https://dc.lft.to/lastmile_qr_scan"}, "lat": 38.9074135, "is_reserved": 0, "is_disabled": 0, "fusion_lat": 0.0}, {"fusion_lon": 0.0, "bike_id": "5b4a5cea6a7d28f87bfec773d9920465", "name": "5b4a5cea6a7d28f87bfec773d9920465", "type": "electric_scooter", "lon": -77.02463433333334, "rental_uris": {"android": "https://dc.lft.to/lastmile_qr_scan", "ios": "https://dc.lft.to/lastmile_qr_scan"}, "lat": 38.897448833333335, "is_reserved": 0, "is_disabled": 0, "fusion_lat": 0.0}, {"fusion_lon": 0.0, "bike_id": "5b97f4150ec4c4817564f8de16238924", "name": "5b97f4150ec4c4817564f8de16238924", "type": "electric_scooter", "lon": -77.019048, "rental_uris": {"android": "https://dc.lft.to/lastmile_qr_scan", "ios": "https://dc.lft.to/lastmile_qr_scan"}, "lat": 38.9014795, "is_reserved": 0, "is_disabled": 0, "fusion_lat": 0.0}, {"fusion_lon": 0.0, "bike_id": "4fb48ad6cb4a82cd8eed3e78a2b7e6b9", "name": "4fb48ad6cb4a82cd8eed3e78a2b7e6b9", "type": "electric_scooter", "lon": -77.0044045, "rental_uris": {"android": "https://dc.lft.to/lastmile_qr_scan", "ios": "https://dc.lft.to/lastmile_qr_scan"}, "lat": 38.91352366666667, "is_reserved": 0, "is_disabled": 0, "fusion_lat": 0.0}, {"fusion_lon": 0.0, "bike_id": "6217ab3f0db8b49dc68deb1b83a64380", "name": "6217ab3f0db8b49dc68deb1b83a64380", "type": "electric_scooter", "lon": -77.0347065, "rental_uris": {"android": "https://dc.lft.to/lastmile_qr_scan", "ios": "https://dc.lft.to/lastmile_qr_scan"}, "lat": 38.90346233333333, "is_reserved": 0, "is_disabled": 0, "fusion_lat": 0.0}, {"fusion_lon": 0.0, "bike_id": "98f4cf55f61729071a656beaedaf686f", "name": "98f4cf55f61729071a656beaedaf686f", "type": "electric_scooter", "lon": -77.04661033333333, "rental_uris": {"android": "https://dc.lft.to/lastmile_qr_scan", "ios": "https://dc.lft.to/lastmile_qr_scan"}, "lat": 38.89692483333333, "is_reserved": 0, "is_disabled": 0, "fusion_lat": 0.0}, {"fusion_lon": 0.0, "bike_id": "86de199d690fcfd0d42a5596fcba5cad", "name": "86de199d690fcfd0d42a5596fcba5cad", "type": "electric_scooter", "lon": -77.01063633333334, "rental_uris": {"android": "https://dc.lft.to/lastmile_qr_scan", "ios": "https://dc.lft.to/lastmile_qr_scan"}, "lat": 38.87241083333333, "is_reserved": 0, "is_disabled": 0, "fusion_lat": 0.0}, {"fusion_lon": 0.0, "bike_id": "88895a0a92392b6948ab6f516309176a", "name": "88895a0a92392b6948ab6f516309176a", "type": "electric_scooter", "lon": -76.93360533333333, "rental_uris": {"android": "https://dc.lft.to/lastmile_qr_scan", "ios": "https://dc.lft.to/lastmile_qr_scan"}, "lat": 38.8879505, "is_reserved": 0, "is_disabled": 0, "fusion_lat": 0.0}, {"fusion_lon": 0.0, "bike_id": "14c439aad8dd55a21b666cb9fb06500b", "name": "14c439aad8dd55a21b666cb9fb06500b", "type": "electric_scooter", "lon": -77.02646416666667, "rental_uris": {"android": "https://dc.lft.to/lastmile_qr_scan", "ios": "https://dc.lft.to/lastmile_qr_scan"}, "lat": 38.892224166666665, "is_reserved": 0, "is_disabled": 0, "fusion_lat": 0.0}, {"fusion_lon": 0.0, "bike_id": "dcf198a879888d57ed74b6bc28b40af5", "name": "dcf198a879888d57ed74b6bc28b40af5", "type": "electric_scooter", "lon": -77.0175695, "rental_uris": {"android": "https://dc.lft.to/lastmile_qr_scan", "ios": "https://dc.lft.to/lastmile_qr_scan"}, "lat": 38.87688933333333, "is_reserved": 0, "is_disabled": 0, "fusion_lat": 0.0}, {"fusion_lon": 0.0, "bike_id": "9646ac728d01b5c441c4173bc36c200c", "name": "9646ac728d01b5c441c4173bc36c200c", "type": "electric_scooter", "lon": -77.03631116666666, "rental_uris": {"android": "https://dc.lft.to/lastmile_qr_scan", "ios": "https://dc.lft.to/lastmile_qr_scan"}, "lat": 38.930476666666664, "is_reserved": 0, "is_disabled": 0, "fusion_lat": 0.0}, {"fusion_lon": 0.0, "bike_id": "929d60c0b20b032996467d579c9e39a7", "name": "929d60c0b20b032996467d579c9e39a7", "type": "electric_scooter", "lon": -76.97798683333333, "rental_uris": {"android": "https://dc.lft.to/lastmile_qr_scan", "ios": "https://dc.lft.to/lastmile_qr_scan"}, "lat": 38.903126, "is_reserved": 0, "is_disabled": 0, "fusion_lat": 0.0}, {"fusion_lon": 0.0, "bike_id": "0246bd39bdfcd9493ce4e75d1b5d948a", "name": "0246bd39bdfcd9493ce4e75d1b5d948a", "type": "electric_scooter", "lon": -77.02204, "rental_uris": {"android": "https://dc.lft.to/lastmile_qr_scan", "ios": "https://dc.lft.to/lastmile_qr_scan"}, "lat": 38.91051783333333, "is_reserved": 0, "is_disabled": 0, "fusion_lat": 0.0}, {"fusion_lon": 0.0, "bike_id": "16597e91868c5d9d604f581e873b00e9", "name": "16597e91868c5d9d604f581e873b00e9", "type": "electric_scooter", "lon": -76.99631033333333, "rental_uris": {"android": "https://dc.lft.to/lastmile_qr_scan", "ios": "https://dc.lft.to/lastmile_qr_scan"}, "lat": 38.8462045, "is_reserved": 0, "is_disabled": 0, "fusion_lat": 0.0}, {"fusion_lon": 0.0, "bike_id": "aa0019ddf8390a10dd15684100424641", "name": "aa0019ddf8390a10dd15684100424641", "type": "electric_scooter", "lon": -77.00610966666666, "rental_uris": {"android": "https://dc.lft.to/lastmile_qr_scan", "ios": "https://dc.lft.to/lastmile_qr_scan"}, "lat": 38.8748315, "is_reserved": 0, "is_disabled": 0, "fusion_lat": 0.0}, {"fusion_lon": 0.0, "bike_id": "85667b9211c0ecdb0d28c04ac9e9e372", "name": "85667b9211c0ecdb0d28c04ac9e9e372", "type": "electric_scooter", "lon": -77.01763683333333, "rental_uris": {"android": "https://dc.lft.to/lastmile_qr_scan", "ios": "https://dc.lft.to/lastmile_qr_scan"}, "lat": 38.921076666666664, "is_reserved": 0, "is_disabled": 0, "fusion_lat": 0.0}, {"fusion_lon": 0.0, "bike_id": "3b3911ad2d6112de01f7ad7754d139e0", "name": "3b3911ad2d6112de01f7ad7754d139e0", "type": "electric_scooter", "lon": -77.05063233333334, "rental_uris": {"android": "https://dc.lft.to/lastmile_qr_scan", "ios": "https://dc.lft.to/lastmile_qr_scan"}, "lat": 38.90049166666667, "is_reserved": 0, "is_disabled": 0, "fusion_lat": 0.0}, {"fusion_lon": 0.0, "bike_id": "fbcfc535b2937da7a3e120ee905ce958", "name": "fbcfc535b2937da7a3e120ee905ce958", "type": "electric_scooter", "lon": -77.061308, "rental_uris": {"android": "https://dc.lft.to/lastmile_qr_scan", "ios": "https://dc.lft.to/lastmile_qr_scan"}, "lat": 38.90537616666667, "is_reserved": 0, "is_disabled": 0, "fusion_lat": 0.0}, {"fusion_lon": 0.0, "bike_id": "2bd2c5c22790e819560144bb10a83f95", "name": "2bd2c5c22790e819560144bb10a83f95", "type": "electric_scooter", "lon": -77.01209433333334, "rental_uris": {"android": "https://dc.lft.to/lastmile_qr_scan", "ios": "https://dc.lft.to/lastmile_qr_scan"}, "lat": 38.8952195, "is_reserved": 0, "is_disabled": 0, "fusion_lat": 0.0}, {"fusion_lon": 0.0, "bike_id": "382d19dfcb0e94efc958ed097ff01d8c", "name": "382d19dfcb0e94efc958ed097ff01d8c", "type": "electric_scooter", "lon": -77.031547, "rental_uris": {"android": "https://dc.lft.to/lastmile_qr_scan", "ios": "https://dc.lft.to/lastmile_qr_scan"}, "lat": 38.928082, "is_reserved": 0, "is_disabled": 0, "fusion_lat": 0.0}, {"fusion_lon": 0.0, "bike_id": "377c5fb211a213e417250b7382fb7dc7", "name": "377c5fb211a213e417250b7382fb7dc7", "type": "electric_scooter", "lon": -77.0322105, "rental_uris": {"android": "https://dc.lft.to/lastmile_qr_scan", "ios": "https://dc.lft.to/lastmile_qr_scan"}, "lat": 38.90883566666667, "is_reserved": 0, "is_disabled": 0, "fusion_lat": 0.0}, {"fusion_lon": 0.0, "bike_id": "b501fa381b48053b5362879dd33a57fc", "name": "b501fa381b48053b5362879dd33a57fc", "type": "electric_scooter", "lon": -77.02957216666667, "rental_uris": {"android": "https://dc.lft.to/lastmile_qr_scan", "ios": "https://dc.lft.to/lastmile_qr_scan"}, "lat": 38.90265016666667, "is_reserved": 0, "is_disabled": 0, "fusion_lat": 0.0}, {"fusion_lon": 0.0, "bike_id": "28abd36cf47d841335cab96c1e2545a2", "name": "28abd36cf47d841335cab96c1e2545a2", "type": "electric_bike", "lon": -76.9874505, "rental_uris": {"android": "https://dc.lft.to/lastmile_qr_scan", "ios": "https://dc.lft.to/lastmile_qr_scan"}, "lat": 38.988265166666665, "is_reserved": 0, "is_disabled": 0, "fusion_lat": 0.0}, {"fusion_lon": 0.0, "bike_id": "98d4a6f4f8e8f713ec3918de213ed953", "name": "98d4a6f4f8e8f713ec3918de213ed953", "type": "electric_scooter", "lon": -77.03790433333333, "rental_uris": {"android": "https://dc.lft.to/lastmile_qr_scan", "ios": "https://dc.lft.to/lastmile_qr_scan"}, "lat": 38.926331166666664, "is_reserved": 0, "is_disabled": 0, "fusion_lat": 0.0}, {"fusion_lon": 0.0, "bike_id": "5856797246aec5f2df54da13b4d75938", "name": "5856797246aec5f2df54da13b4d75938", "type": "electric_scooter", "lon": -76.9952585, "rental_uris": {"android": "https://dc.lft.to/lastmile_qr_scan", "ios": "https://dc.lft.to/lastmile_qr_scan"}, "lat": 38.8836075, "is_reserved": 0, "is_disabled": 0, "fusion_lat": 0.0}, {"fusion_lon": 0.0, "bike_id": "6ebfa8c986c951787a6667db08811549", "name": "6ebfa8c986c951787a6667db08811549", "type": "electric_scooter", "lon": -77.04330916666666, "rental_uris": {"android": "https://dc.lft.to/lastmile_qr_scan", "ios": "https://dc.lft.to/lastmile_qr_scan"}, "lat": 38.91534766666667, "is_reserved": 0, "is_disabled": 0, "fusion_lat": 0.0}, {"fusion_lon": 0.0, "bike_id": "b309d66b599c20e94e641e7155be4758", "name": "b309d66b599c20e94e641e7155be4758", "type": "electric_scooter", "lon": -77.03180033333334, "rental_uris": {"android": "https://dc.lft.to/lastmile_qr_scan", "ios": "https://dc.lft.to/lastmile_qr_scan"}, "lat": 38.9191405, "is_reserved": 0, "is_disabled": 0, "fusion_lat": 0.0}, {"fusion_lon": 0.0, "bike_id": "e194e8c32fccc716fc3a966623b5875d", "name": "e194e8c32fccc716fc3a966623b5875d", "type": "electric_scooter", "lon": -77.00222166666667, "rental_uris": {"android": "https://dc.lft.to/lastmile_qr_scan", "ios": "https://dc.lft.to/lastmile_qr_scan"}, "lat": 38.8945355, "is_reserved": 0, "is_disabled": 0, "fusion_lat": 0.0}, {"fusion_lon": 0.0, "bike_id": "33df4dcc7ec3a8bbc596f22d96864846", "name": "33df4dcc7ec3a8bbc596f22d96864846", "type": "electric_scooter", "lon": -77.0305575, "rental_uris": {"android": "https://dc.lft.to/lastmile_qr_scan", "ios": "https://dc.lft.to/lastmile_qr_scan"}, "lat": 38.93978, "is_reserved": 0, "is_disabled": 0, "fusion_lat": 0.0}, {"fusion_lon": 0.0, "bike_id": "4c4f8857645516bd4311da727b071bd9", "name": "4c4f8857645516bd4311da727b071bd9", "type": "electric_scooter", "lon": -77.02276983333333, "rental_uris": {"android": "https://dc.lft.to/lastmile_qr_scan", "ios": "https://dc.lft.to/lastmile_qr_scan"}, "lat": 38.91652466666667, "is_reserved": 0, "is_disabled": 0, "fusion_lat": 0.0}, {"fusion_lon": 0.0, "bike_id": "5f5828eed45ce44163fc7a7e4791dc97", "name": "5f5828eed45ce44163fc7a7e4791dc97", "type": "electric_scooter", "lon": -77.041739, "rental_uris": {"android": "https://dc.lft.to/lastmile_qr_scan", "ios": "https://dc.lft.to/lastmile_qr_scan"}, "lat": 38.91548133333333, "is_reserved": 0, "is_disabled": 0, "fusion_lat": 0.0}, {"fusion_lon": 0.0, "bike_id": "3b717615d0c5dc7442406c8c71d08451", "name": "3b717615d0c5dc7442406c8c71d08451", "type": "electric_scooter", "lon": -77.01695416666666, "rental_uris": {"android": "https://dc.lft.to/lastmile_qr_scan", "ios": "https://dc.lft.to/lastmile_qr_scan"}, "lat": 38.97503833333333, "is_reserved": 0, "is_disabled": 0, "fusion_lat": 0.0}, {"fusion_lon": 0.0, "bike_id": "dcde66878ef6fa015ff0188ea51dd86c", "name": "dcde66878ef6fa015ff0188ea51dd86c", "type": "electric_scooter", "lon": -76.99961233333333, "rental_uris": {"android": "https://dc.lft.to/lastmile_qr_scan", "ios": "https://dc.lft.to/lastmile_qr_scan"}, "lat": 38.8932335, "is_reserved": 0, "is_disabled": 0, "fusion_lat": 0.0}, {"fusion_lon": 0.0, "bike_id": "0b89ecb998e1b3201f471777e7ff7081", "name": "0b89ecb998e1b3201f471777e7ff7081", "type": "electric_scooter", "lon": -77.02170816666667, "rental_uris": {"android": "https://dc.lft.to/lastmile_qr_scan", "ios": "https://dc.lft.to/lastmile_qr_scan"}, "lat": 38.942952166666664, "is_reserved": 0, "is_disabled": 0, "fusion_lat": 0.0}, {"fusion_lon": 0.0, "bike_id": "a7579c01dbb885d22bb0a31bd0a0ca00", "name": "a7579c01dbb885d22bb0a31bd0a0ca00", "type": "electric_scooter", "lon": -77.03061516666666, "rental_uris": {"android": "https://dc.lft.to/lastmile_qr_scan", "ios": "https://dc.lft.to/lastmile_qr_scan"}, "lat": 38.93981516666667, "is_reserved": 0, "is_disabled": 0, "fusion_lat": 0.0}, {"fusion_lon": 0.0, "bike_id": "921eb3ddbc157f7fbe4fb0d20289e5af", "name": "921eb3ddbc157f7fbe4fb0d20289e5af", "type": "electric_scooter", "lon": -77.04377766666667, "rental_uris": {"android": "https://dc.lft.to/lastmile_qr_scan", "ios": "https://dc.lft.to/lastmile_qr_scan"}, "lat": 38.90238166666666, "is_reserved": 0, "is_disabled": 0, "fusion_lat": 0.0}, {"fusion_lon": 0.0, "bike_id": "36436d90a164bb4e54a566ac24d41f21", "name": "36436d90a164bb4e54a566ac24d41f21", "type": "electric_bike", "lon": -77.36094366666667, "rental_uris": {"android": "https://dc.lft.to/lastmile_qr_scan", "ios": "https://dc.lft.to/lastmile_qr_scan"}, "lat": 38.9396395, "is_reserved": 0, "is_disabled": 0, "fusion_lat": 0.0}, {"fusion_lon": 0.0, "bike_id": "19f554ddb3dc5eccc066b90ac84b1d5c", "name": "19f554ddb3dc5eccc066b90ac84b1d5c", "type": "electric_scooter", "lon": -77.00461533333333, "rental_uris": {"android": "https://dc.lft.to/lastmile_qr_scan", "ios": "https://dc.lft.to/lastmile_qr_scan"}, "lat": 38.911452, "is_reserved": 0, "is_disabled": 0, "fusion_lat": 0.0}, {"fusion_lon": 0.0, "bike_id": "5a91392444d291e558242ba39d8f1400", "name": "5a91392444d291e558242ba39d8f1400", "type": "electric_bike", "lon": -76.979959, "rental_uris": {"android": "https://dc.lft.to/lastmile_qr_scan", "ios": "https://dc.lft.to/lastmile_qr_scan"}, "lat": 38.877535333333334, "is_reserved": 0, "is_disabled": 0, "fusion_lat": 0.0}, {"fusion_lon": 0.0, "bike_id": "a61696cffd20c90571f5c1cfc511ac63", "name": "a61696cffd20c90571f5c1cfc511ac63", "type": "electric_scooter", "lon": -77.013662, "rental_uris": {"android": "https://dc.lft.to/lastmile_qr_scan", "ios": "https://dc.lft.to/lastmile_qr_scan"}, "lat": 38.878988, "is_reserved": 0, "is_disabled": 0, "fusion_lat": 0.0}, {"fusion_lon": 0.0, "bike_id": "a732eeb45a17aa6a71d3c54454aabc64", "name": "a732eeb45a17aa6a71d3c54454aabc64", "type": "electric_scooter", "lon": -76.94785966666667, "rental_uris": {"android": "https://dc.lft.to/lastmile_qr_scan", "ios": "https://dc.lft.to/lastmile_qr_scan"}, "lat": 38.88464466666667, "is_reserved": 0, "is_disabled": 0, "fusion_lat": 0.0}, {"fusion_lon": 0.0, "bike_id": "f3c85bf59e1a42543c5ade70bef03c15", "name": "f3c85bf59e1a42543c5ade70bef03c15", "type": "electric_scooter", "lon": -77.04393183333333, "rental_uris": {"android": "https://dc.lft.to/lastmile_qr_scan", "ios": "https://dc.lft.to/lastmile_qr_scan"}, "lat": 38.905862, "is_reserved": 0, "is_disabled": 0, "fusion_lat": 0.0}, {"fusion_lon": 0.0, "bike_id": "20e31c1db76bd417fb0fc4c92ac98e1f", "name": "20e31c1db76bd417fb0fc4c92ac98e1f", "type": "electric_scooter", "lon": -76.97384233333334, "rental_uris": {"android": "https://dc.lft.to/lastmile_qr_scan", "ios": "https://dc.lft.to/lastmile_qr_scan"}, "lat": 38.883719166666666, "is_reserved": 0, "is_disabled": 0, "fusion_lat": 0.0}, {"fusion_lon": 0.0, "bike_id": "6e68843de8329e086ea757163f363884", "name": "6e68843de8329e086ea757163f363884", "type": "electric_scooter", "lon": -77.05409916666666, "rental_uris": {"android": "https://dc.lft.to/lastmile_qr_scan", "ios": "https://dc.lft.to/lastmile_qr_scan"}, "lat": 38.950487333333335, "is_reserved": 0, "is_disabled": 0, "fusion_lat": 0.0}, {"fusion_lon": 0.0, "bike_id": "9d8630bcf15af90f5733960fbecdf415", "name": "9d8630bcf15af90f5733960fbecdf415", "type": "electric_scooter", "lon": -77.01760233333333, "rental_uris": {"android": "https://dc.lft.to/lastmile_qr_scan", "ios": "https://dc.lft.to/lastmile_qr_scan"}, "lat": 38.9211695, "is_reserved": 0, "is_disabled": 0, "fusion_lat": 0.0}, {"fusion_lon": 0.0, "bike_id": "679904f1c187232d1e11feef5e05d8ab", "name": "679904f1c187232d1e11feef5e05d8ab", "type": "electric_scooter", "lon": -77.0365995, "rental_uris": {"android": "https://dc.lft.to/lastmile_qr_scan", "ios": "https://dc.lft.to/lastmile_qr_scan"}, "lat": 38.95498116666667, "is_reserved": 0, "is_disabled": 0, "fusion_lat": 0.0}, {"fusion_lon": 0.0, "bike_id": "e6119a2dd40eae3ff20ec37413a74d9d", "name": "e6119a2dd40eae3ff20ec37413a74d9d", "type": "electric_scooter", "lon": -77.040724, "rental_uris": {"android": "https://dc.lft.to/lastmile_qr_scan", "ios": "https://dc.lft.to/lastmile_qr_scan"}, "lat": 38.896188, "is_reserved": 0, "is_disabled": 0, "fusion_lat": 0.0}, {"fusion_lon": 0.0, "bike_id": "9375fc6f1c654c35b747f53de2975d45", "name": "9375fc6f1c654c35b747f53de2975d45", "type": "electric_scooter", "lon": -77.00314933333334, "rental_uris": {"android": "https://dc.lft.to/lastmile_qr_scan", "ios": "https://dc.lft.to/lastmile_qr_scan"}, "lat": 38.84030666666666, "is_reserved": 0, "is_disabled": 0, "fusion_lat": 0.0}, {"fusion_lon": 0.0, "bike_id": "e78e6984093966be993bc23af7dbae45", "name": "e78e6984093966be993bc23af7dbae45", "type": "electric_scooter", "lon": -77.04095766666667, "rental_uris": {"android": "https://dc.lft.to/lastmile_qr_scan", "ios": "https://dc.lft.to/lastmile_qr_scan"}, "lat": 38.90030133333333, "is_reserved": 0, "is_disabled": 0, "fusion_lat": 0.0}, {"fusion_lon": 0.0, "bike_id": "856544eba4bd004b7c526c9b425bd02d", "name": "856544eba4bd004b7c526c9b425bd02d", "type": "electric_scooter", "lon": -76.94897266666666, "rental_uris": {"android": "https://dc.lft.to/lastmile_qr_scan", "ios": "https://dc.lft.to/lastmile_qr_scan"}, "lat": 38.895291, "is_reserved": 0, "is_disabled": 0, "fusion_lat": 0.0}, {"fusion_lon": 0.0, "bike_id": "123a06136b38c7c4fbac63626e2ca2df", "name": "123a06136b38c7c4fbac63626e2ca2df", "type": "electric_scooter", "lon": -77.05040483333333, "rental_uris": {"android": "https://dc.lft.to/lastmile_qr_scan", "ios": "https://dc.lft.to/lastmile_qr_scan"}, "lat": 38.923608333333334, "is_reserved": 0, "is_disabled": 0, "fusion_lat": 0.0}, {"fusion_lon": 0.0, "bike_id": "9a9575c2d199f4f5644f3bde5f38a9e7", "name": "9a9575c2d199f4f5644f3bde5f38a9e7", "type": "electric_scooter", "lon": -77.03255233333333, "rental_uris": {"android": "https://dc.lft.to/lastmile_qr_scan", "ios": "https://dc.lft.to/lastmile_qr_scan"}, "lat": 38.914893166666666, "is_reserved": 0, "is_disabled": 0, "fusion_lat": 0.0}, {"fusion_lon": 0.0, "bike_id": "49867649f614b3e52bab8241626809d5", "name": "49867649f614b3e52bab8241626809d5", "type": "electric_scooter", "lon": -77.0058755, "rental_uris": {"android": "https://dc.lft.to/lastmile_qr_scan", "ios": "https://dc.lft.to/lastmile_qr_scan"}, "lat": 38.871710666666665, "is_reserved": 0, "is_disabled": 0, "fusion_lat": 0.0}, {"fusion_lon": 0.0, "bike_id": "2f81bf084738b82b0a9fc07e46faeda3", "name": "2f81bf084738b82b0a9fc07e46faeda3", "type": "electric_scooter", "lon": -77.03665216666667, "rental_uris": {"android": "https://dc.lft.to/lastmile_qr_scan", "ios": "https://dc.lft.to/lastmile_qr_scan"}, "lat": 38.91133383333333, "is_reserved": 0, "is_disabled": 0, "fusion_lat": 0.0}, {"fusion_lon": 0.0, "bike_id": "b8a315c6e292bf10b1e08cb655c5976b", "name": "b8a315c6e292bf10b1e08cb655c5976b", "type": "electric_scooter", "lon": -77.06378266666667, "rental_uris": {"android": "https://dc.lft.to/lastmile_qr_scan", "ios": "https://dc.lft.to/lastmile_qr_scan"}, "lat": 38.907831333333334, "is_reserved": 0, "is_disabled": 0, "fusion_lat": 0.0}, {"fusion_lon": 0.0, "bike_id": "08673b8d39b50c6ff4feb3aad6828913", "name": "08673b8d39b50c6ff4feb3aad6828913", "type": "electric_scooter", "lon": -77.00449883333333, "rental_uris": {"android": "https://dc.lft.to/lastmile_qr_scan", "ios": "https://dc.lft.to/lastmile_qr_scan"}, "lat": 38.928994333333335, "is_reserved": 0, "is_disabled": 0, "fusion_lat": 0.0}, {"fusion_lon": 0.0, "bike_id": "37386ee90786b3da066c136b2639eb91", "name": "37386ee90786b3da066c136b2639eb91", "type": "electric_bike", "lon": -76.907586, "rental_uris": {"android": "https://dc.lft.to/lastmile_qr_scan", "ios": "https://dc.lft.to/lastmile_qr_scan"}, "lat": 38.924370833333334, "is_reserved": 0, "is_disabled": 0, "fusion_lat": 0.0}, {"fusion_lon": 0.0, "bike_id": "21871a842fd6cacb1aac3da9e7864836", "name": "21871a842fd6cacb1aac3da9e7864836", "type": "electric_scooter", "lon": -77.03194416666666, "rental_uris": {"android": "https://dc.lft.to/lastmile_qr_scan", "ios": "https://dc.lft.to/lastmile_qr_scan"}, "lat": 38.89316783333334, "is_reserved": 0, "is_disabled": 0, "fusion_lat": 0.0}, {"fusion_lon": 0.0, "bike_id": "f647ad27d19321f101b674af947fb13e", "name": "f647ad27d19321f101b674af947fb13e", "type": "electric_scooter", "lon": -77.02227966666666, "rental_uris": {"android": "https://dc.lft.to/lastmile_qr_scan", "ios": "https://dc.lft.to/lastmile_qr_scan"}, "lat": 38.93553083333333, "is_reserved": 0, "is_disabled": 0, "fusion_lat": 0.0}, {"fusion_lon": 0.0, "bike_id": "881e046c4b099505d532c3df568e4e88", "name": "881e046c4b099505d532c3df568e4e88", "type": "electric_scooter", "lon": -77.04686866666667, "rental_uris": {"android": "https://dc.lft.to/lastmile_qr_scan", "ios": "https://dc.lft.to/lastmile_qr_scan"}, "lat": 38.915843833333334, "is_reserved": 0, "is_disabled": 0, "fusion_lat": 0.0}, {"fusion_lon": 0.0, "bike_id": "4fae0184946051a2a0d9e5759bc2576b", "name": "4fae0184946051a2a0d9e5759bc2576b", "type": "electric_scooter", "lon": -77.02800066666667, "rental_uris": {"android": "https://dc.lft.to/lastmile_qr_scan", "ios": "https://dc.lft.to/lastmile_qr_scan"}, "lat": 38.9121105, "is_reserved": 0, "is_disabled": 0, "fusion_lat": 0.0}, {"fusion_lon": 0.0, "bike_id": "9a02dd09cb7869217e105583ca0e644d", "name": "9a02dd09cb7869217e105583ca0e644d", "type": "electric_scooter", "lon": -77.04773266666666, "rental_uris": {"android": "https://dc.lft.to/lastmile_qr_scan", "ios": "https://dc.lft.to/lastmile_qr_scan"}, "lat": 38.897787, "is_reserved": 0, "is_disabled": 0, "fusion_lat": 0.0}, {"fusion_lon": 0.0, "bike_id": "68f7a3097e805a874b177bb68f02aa88", "name": "68f7a3097e805a874b177bb68f02aa88", "type": "electric_scooter", "lon": -77.03634533333333, "rental_uris": {"android": "https://dc.lft.to/lastmile_qr_scan", "ios": "https://dc.lft.to/lastmile_qr_scan"}, "lat": 38.936683333333335, "is_reserved": 0, "is_disabled": 0, "fusion_lat": 0.0}, {"fusion_lon": 0.0, "bike_id": "24876d7668d742494c67a277166716f6", "name": "24876d7668d742494c67a277166716f6", "type": "electric_scooter", "lon": -77.05109783333333, "rental_uris": {"android": "https://dc.lft.to/lastmile_qr_scan", "ios": "https://dc.lft.to/lastmile_qr_scan"}, "lat": 38.92361533333333, "is_reserved": 0, "is_disabled": 0, "fusion_lat": 0.0}, {"fusion_lon": 0.0, "bike_id": "a3cde82c59d1d86724b5b9a193c7d23d", "name": "a3cde82c59d1d86724b5b9a193c7d23d", "type": "electric_scooter", "lon": -77.03209, "rental_uris": {"android": "https://dc.lft.to/lastmile_qr_scan", "ios": "https://dc.lft.to/lastmile_qr_scan"}, "lat": 38.9121195, "is_reserved": 0, "is_disabled": 0, "fusion_lat": 0.0}, {"fusion_lon": 0.0, "bike_id": "481cfa276dd300ebc39e0cbfb1c66f1e", "name": "481cfa276dd300ebc39e0cbfb1c66f1e", "type": "electric_scooter", "lon": -77.06602266666667, "rental_uris": {"android": "https://dc.lft.to/lastmile_qr_scan", "ios": "https://dc.lft.to/lastmile_qr_scan"}, "lat": 38.90744766666667, "is_reserved": 0, "is_disabled": 0, "fusion_lat": 0.0}, {"fusion_lon": 0.0, "bike_id": "4a65644853ce48e3d645dfd0c0950a54", "name": "4a65644853ce48e3d645dfd0c0950a54", "type": "electric_scooter", "lon": -77.0146815, "rental_uris": {"android": "https://dc.lft.to/lastmile_qr_scan", "ios": "https://dc.lft.to/lastmile_qr_scan"}, "lat": 38.87644266666667, "is_reserved": 0, "is_disabled": 0, "fusion_lat": 0.0}, {"fusion_lon": 0.0, "bike_id": "951f5bbe8e3efcfb63e695f41622b032", "name": "951f5bbe8e3efcfb63e695f41622b032", "type": "electric_bike", "lon": -77.1323135, "rental_uris": {"android": "https://dc.lft.to/lastmile_qr_scan", "ios": "https://dc.lft.to/lastmile_qr_scan"}, "lat": 38.869715666666664, "is_reserved": 0, "is_disabled": 0, "fusion_lat": 0.0}, {"fusion_lon": 0.0, "bike_id": "0cd5d67a2e408019f76f688a9470a7e0", "name": "0cd5d67a2e408019f76f688a9470a7e0", "type": "electric_scooter", "lon": -77.0058285, "rental_uris": {"android": "https://dc.lft.to/lastmile_qr_scan", "ios": "https://dc.lft.to/lastmile_qr_scan"}, "lat": 38.875258, "is_reserved": 0, "is_disabled": 0, "fusion_lat": 0.0}, {"fusion_lon": 0.0, "bike_id": "a19c239fd8527432c53b7d49fb9c4ce9", "name": "a19c239fd8527432c53b7d49fb9c4ce9", "type": "electric_scooter", "lon": -77.02506, "rental_uris": {"android": "https://dc.lft.to/lastmile_qr_scan", "ios": "https://dc.lft.to/lastmile_qr_scan"}, "lat": 38.901097666666665, "is_reserved": 0, "is_disabled": 0, "fusion_lat": 0.0}, {"fusion_lon": 0.0, "bike_id": "49254ed5e19344bcf0dd7b24046c2fc8", "name": "49254ed5e19344bcf0dd7b24046c2fc8", "type": "electric_scooter", "lon": -77.01538866666667, "rental_uris": {"android": "https://dc.lft.to/lastmile_qr_scan", "ios": "https://dc.lft.to/lastmile_qr_scan"}, "lat": 38.8862595, "is_reserved": 0, "is_disabled": 0, "fusion_lat": 0.0}, {"fusion_lon": 0.0, "bike_id": "e26a7473fbda106113a87ce7c8aff4a7", "name": "e26a7473fbda106113a87ce7c8aff4a7", "type": "electric_scooter", "lon": -77.00366833333334, "rental_uris": {"android": "https://dc.lft.to/lastmile_qr_scan", "ios": "https://dc.lft.to/lastmile_qr_scan"}, "lat": 38.8775305, "is_reserved": 0, "is_disabled": 0, "fusion_lat": 0.0}, {"fusion_lon": 0.0, "bike_id": "1a937e9152d3177a67f6a7122c8b791c", "name": "1a937e9152d3177a67f6a7122c8b791c", "type": "electric_bike", "lon": -76.98347133333333, "rental_uris": {"android": "https://dc.lft.to/lastmile_qr_scan", "ios": "https://dc.lft.to/lastmile_qr_scan"}, "lat": 38.889885, "is_reserved": 0, "is_disabled": 0, "fusion_lat": 0.0}, {"fusion_lon": 0.0, "bike_id": "0b82e4b75ab4ce06eb2ce6eff41554de", "name": "0b82e4b75ab4ce06eb2ce6eff41554de", "type": "electric_scooter", "lon": -77.04286766666667, "rental_uris": {"android": "https://dc.lft.to/lastmile_qr_scan", "ios": "https://dc.lft.to/lastmile_qr_scan"}, "lat": 38.916604166666666, "is_reserved": 0, "is_disabled": 0, "fusion_lat": 0.0}, {"fusion_lon": 0.0, "bike_id": "159c636fee98fbdb821ba0405d412be5", "name": "159c636fee98fbdb821ba0405d412be5", "type": "electric_scooter", "lon": -77.0217545, "rental_uris": {"android": "https://dc.lft.to/lastmile_qr_scan", "ios": "https://dc.lft.to/lastmile_qr_scan"}, "lat": 38.942896, "is_reserved": 0, "is_disabled": 0, "fusion_lat": 0.0}, {"fusion_lon": 0.0, "bike_id": "00a3a4cb0e49ef5369add299eae39c88", "name": "00a3a4cb0e49ef5369add299eae39c88", "type": "electric_scooter", "lon": -77.00435433333334, "rental_uris": {"android": "https://dc.lft.to/lastmile_qr_scan", "ios": "https://dc.lft.to/lastmile_qr_scan"}, "lat": 38.876948166666665, "is_reserved": 0, "is_disabled": 0, "fusion_lat": 0.0}, {"fusion_lon": 0.0, "bike_id": "68daffadf6fd2e895ab4deb106366a29", "name": "68daffadf6fd2e895ab4deb106366a29", "type": "electric_scooter", "lon": -77.01119983333334, "rental_uris": {"android": "https://dc.lft.to/lastmile_qr_scan", "ios": "https://dc.lft.to/lastmile_qr_scan"}, "lat": 38.895147333333334, "is_reserved": 0, "is_disabled": 0, "fusion_lat": 0.0}, {"fusion_lon": 0.0, "bike_id": "3a24e7808d5f7c9b849c5c213ca9708f", "name": "3a24e7808d5f7c9b849c5c213ca9708f", "type": "electric_scooter", "lon": -77.0616715, "rental_uris": {"android": "https://dc.lft.to/lastmile_qr_scan", "ios": "https://dc.lft.to/lastmile_qr_scan"}, "lat": 38.902856666666665, "is_reserved": 0, "is_disabled": 0, "fusion_lat": 0.0}, {"fusion_lon": 0.0, "bike_id": "bec09510c8b25f3df13152c12ebdad38", "name": "bec09510c8b25f3df13152c12ebdad38", "type": "electric_scooter", "lon": -76.97183633333333, "rental_uris": {"android": "https://dc.lft.to/lastmile_qr_scan", "ios": "https://dc.lft.to/lastmile_qr_scan"}, "lat": 38.912654833333335, "is_reserved": 0, "is_disabled": 0, "fusion_lat": 0.0}, {"fusion_lon": 0.0, "bike_id": "241347511d462475ee97ea96af53d7f3", "name": "241347511d462475ee97ea96af53d7f3", "type": "electric_scooter", "lon": -77.04083, "rental_uris": {"android": "https://dc.lft.to/lastmile_qr_scan", "ios": "https://dc.lft.to/lastmile_qr_scan"}, "lat": 38.916989666666666, "is_reserved": 0, "is_disabled": 0, "fusion_lat": 0.0}, {"fusion_lon": 0.0, "bike_id": "4b95e9e89258c624e4212ceedc1b22f6", "name": "4b95e9e89258c624e4212ceedc1b22f6", "type": "electric_scooter", "lon": -77.03804683333334, "rental_uris": {"android": "https://dc.lft.to/lastmile_qr_scan", "ios": "https://dc.lft.to/lastmile_qr_scan"}, "lat": 38.935931, "is_reserved": 0, "is_disabled": 0, "fusion_lat": 0.0}, {"fusion_lon": 0.0, "bike_id": "5a2d0b4b5610e90b91d8176f53c5c18b", "name": "5a2d0b4b5610e90b91d8176f53c5c18b", "type": "electric_scooter", "lon": -76.99832983333333, "rental_uris": {"android": "https://dc.lft.to/lastmile_qr_scan", "ios": "https://dc.lft.to/lastmile_qr_scan"}, "lat": 38.900358833333335, "is_reserved": 0, "is_disabled": 0, "fusion_lat": 0.0}, {"fusion_lon": 0.0, "bike_id": "41bb5a74d167163ff8400bdad575662d", "name": "41bb5a74d167163ff8400bdad575662d", "type": "electric_scooter", "lon": -77.02424766666667, "rental_uris": {"android": "https://dc.lft.to/lastmile_qr_scan", "ios": "https://dc.lft.to/lastmile_qr_scan"}, "lat": 38.92053, "is_reserved": 0, "is_disabled": 0, "fusion_lat": 0.0}, {"fusion_lon": 0.0, "bike_id": "43ec539448f17bb2026948d16a0ac675", "name": "43ec539448f17bb2026948d16a0ac675", "type": "electric_scooter", "lon": -76.91234533333333, "rental_uris": {"android": "https://dc.lft.to/lastmile_qr_scan", "ios": "https://dc.lft.to/lastmile_qr_scan"}, "lat": 38.893978, "is_reserved": 0, "is_disabled": 0, "fusion_lat": 0.0}, {"fusion_lon": 0.0, "bike_id": "0150fbe4bddd115c5fe2ea6527976b11", "name": "0150fbe4bddd115c5fe2ea6527976b11", "type": "electric_scooter", "lon": -76.988128, "rental_uris": {"android": "https://dc.lft.to/lastmile_qr_scan", "ios": "https://dc.lft.to/lastmile_qr_scan"}, "lat": 38.90827633333333, "is_reserved": 0, "is_disabled": 0, "fusion_lat": 0.0}, {"fusion_lon": 0.0, "bike_id": "33f75956bfefdacf4207e902bbd86f11", "name": "33f75956bfefdacf4207e902bbd86f11", "type": "electric_scooter", "lon": -77.034749, "rental_uris": {"android": "https://dc.lft.to/lastmile_qr_scan", "ios": "https://dc.lft.to/lastmile_qr_scan"}, "lat": 38.929751833333334, "is_reserved": 0, "is_disabled": 0, "fusion_lat": 0.0}, {"fusion_lon": 0.0, "bike_id": "e7728f90ef54516c16a5c0cee244d20a", "name": "e7728f90ef54516c16a5c0cee244d20a", "type": "electric_scooter", "lon": -76.96713766666667, "rental_uris": {"android": "https://dc.lft.to/lastmile_qr_scan", "ios": "https://dc.lft.to/lastmile_qr_scan"}, "lat": 38.84798266666667, "is_reserved": 0, "is_disabled": 0, "fusion_lat": 0.0}, {"fusion_lon": 0.0, "bike_id": "00bac35323eac18c1035629fd2f2ec5d", "name": "00bac35323eac18c1035629fd2f2ec5d", "type": "electric_scooter", "lon": -77.04864816666667, "rental_uris": {"android": "https://dc.lft.to/lastmile_qr_scan", "ios": "https://dc.lft.to/lastmile_qr_scan"}, "lat": 38.892236, "is_reserved": 0, "is_disabled": 0, "fusion_lat": 0.0}, {"fusion_lon": 0.0, "bike_id": "539ed579e8a93c552e093b3107ca5fdc", "name": "539ed579e8a93c552e093b3107ca5fdc", "type": "electric_scooter", "lon": -77.02590233333333, "rental_uris": {"android": "https://dc.lft.to/lastmile_qr_scan", "ios": "https://dc.lft.to/lastmile_qr_scan"}, "lat": 38.880869, "is_reserved": 0, "is_disabled": 0, "fusion_lat": 0.0}, {"fusion_lon": 0.0, "bike_id": "858ec65a9a1e1db20347aa3933709bd9", "name": "858ec65a9a1e1db20347aa3933709bd9", "type": "electric_scooter", "lon": -76.987018, "rental_uris": {"android": "https://dc.lft.to/lastmile_qr_scan", "ios": "https://dc.lft.to/lastmile_qr_scan"}, "lat": 38.90703516666667, "is_reserved": 0, "is_disabled": 0, "fusion_lat": 0.0}, {"fusion_lon": 0.0, "bike_id": "04dd26558e1742e4fae2d081a96ec762", "name": "04dd26558e1742e4fae2d081a96ec762", "type": "electric_scooter", "lon": -77.038917, "rental_uris": {"android": "https://dc.lft.to/lastmile_qr_scan", "ios": "https://dc.lft.to/lastmile_qr_scan"}, "lat": 38.920195166666666, "is_reserved": 0, "is_disabled": 0, "fusion_lat": 0.0}, {"fusion_lon": 0.0, "bike_id": "b41d7c748e0c1c70c49bad2bb5d3de87", "name": "b41d7c748e0c1c70c49bad2bb5d3de87", "type": "electric_scooter", "lon": -76.982115, "rental_uris": {"android": "https://dc.lft.to/lastmile_qr_scan", "ios": "https://dc.lft.to/lastmile_qr_scan"}, "lat": 38.89933533333333, "is_reserved": 0, "is_disabled": 0, "fusion_lat": 0.0}, {"fusion_lon": 0.0, "bike_id": "14475a5fb8bae4dc430f5a3a1fc4c663", "name": "14475a5fb8bae4dc430f5a3a1fc4c663", "type": "electric_scooter", "lon": -77.0503035, "rental_uris": {"android": "https://dc.lft.to/lastmile_qr_scan", "ios": "https://dc.lft.to/lastmile_qr_scan"}, "lat": 38.896967833333335, "is_reserved": 0, "is_disabled": 0, "fusion_lat": 0.0}, {"fusion_lon": 0.0, "bike_id": "9cd012feefb212bb435c0c049fcf36e3", "name": "9cd012feefb212bb435c0c049fcf36e3", "type": "electric_scooter", "lon": -77.00902216666667, "rental_uris": {"android": "https://dc.lft.to/lastmile_qr_scan", "ios": "https://dc.lft.to/lastmile_qr_scan"}, "lat": 38.91288566666667, "is_reserved": 0, "is_disabled": 0, "fusion_lat": 0.0}, {"fusion_lon": 0.0, "bike_id": "8577a301331b74db6c43c8d9ef4e0a1a", "name": "8577a301331b74db6c43c8d9ef4e0a1a", "type": "electric_scooter", "lon": -77.03646233333333, "rental_uris": {"android": "https://dc.lft.to/lastmile_qr_scan", "ios": "https://dc.lft.to/lastmile_qr_scan"}, "lat": 38.9186615, "is_reserved": 0, "is_disabled": 0, "fusion_lat": 0.0}, {"fusion_lon": 0.0, "bike_id": "4fd980d2d8689aca36aee01d3e87dbde", "name": "4fd980d2d8689aca36aee01d3e87dbde", "type": "electric_bike", "lon": -77.02951933333334, "rental_uris": {"android": "https://dc.lft.to/lastmile_qr_scan", "ios": "https://dc.lft.to/lastmile_qr_scan"}, "lat": 38.92062133333334, "is_reserved": 0, "is_disabled": 0, "fusion_lat": 0.0}, {"fusion_lon": 0.0, "bike_id": "e1b7676b491c82bbdc829ba802fab9e7", "name": "e1b7676b491c82bbdc829ba802fab9e7", "type": "electric_scooter", "lon": -77.0310935, "rental_uris": {"android": "https://dc.lft.to/lastmile_qr_scan", "ios": "https://dc.lft.to/lastmile_qr_scan"}, "lat": 38.920260999999996, "is_reserved": 0, "is_disabled": 0, "fusion_lat": 0.0}, {"fusion_lon": 0.0, "bike_id": "9c1148a78aa46ba8cd8fe7dd31d6a9cd", "name": "9c1148a78aa46ba8cd8fe7dd31d6a9cd", "type": "electric_scooter", "lon": -77.0417525, "rental_uris": {"android": "https://dc.lft.to/lastmile_qr_scan", "ios": "https://dc.lft.to/lastmile_qr_scan"}, "lat": 38.92001916666667, "is_reserved": 0, "is_disabled": 0, "fusion_lat": 0.0}, {"fusion_lon": 0.0, "bike_id": "2370048fa7d92b17ce2338cca71b242e", "name": "2370048fa7d92b17ce2338cca71b242e", "type": "electric_scooter", "lon": -77.04503583333333, "rental_uris": {"android": "https://dc.lft.to/lastmile_qr_scan", "ios": "https://dc.lft.to/lastmile_qr_scan"}, "lat": 38.90846833333333, "is_reserved": 0, "is_disabled": 0, "fusion_lat": 0.0}, {"fusion_lon": 0.0, "bike_id": "df12ffd3361e15ba89a0d55b5c643669", "name": "df12ffd3361e15ba89a0d55b5c643669", "type": "electric_scooter", "lon": -77.00927583333333, "rental_uris": {"android": "https://dc.lft.to/lastmile_qr_scan", "ios": "https://dc.lft.to/lastmile_qr_scan"}, "lat": 38.9125595, "is_reserved": 0, "is_disabled": 0, "fusion_lat": 0.0}, {"fusion_lon": 0.0, "bike_id": "8e70fdc3c72ba2f56b2256cd8b4e6c23", "name": "8e70fdc3c72ba2f56b2256cd8b4e6c23", "type": "electric_scooter", "lon": -77.04489716666667, "rental_uris": {"android": "https://dc.lft.to/lastmile_qr_scan", "ios": "https://dc.lft.to/lastmile_qr_scan"}, "lat": 38.912896, "is_reserved": 0, "is_disabled": 0, "fusion_lat": 0.0}, {"fusion_lon": 0.0, "bike_id": "a13460dae0f0db3ff5b91a883a13c61a", "name": "a13460dae0f0db3ff5b91a883a13c61a", "type": "electric_bike", "lon": -77.0389595, "rental_uris": {"android": "https://dc.lft.to/lastmile_qr_scan", "ios": "https://dc.lft.to/lastmile_qr_scan"}, "lat": 38.94395983333333, "is_reserved": 0, "is_disabled": 0, "fusion_lat": 0.0}, {"fusion_lon": 0.0, "bike_id": "ff3c3161b2d2c1d35ce80f450e4d35b7", "name": "ff3c3161b2d2c1d35ce80f450e4d35b7", "type": "electric_scooter", "lon": -77.0234995, "rental_uris": {"android": "https://dc.lft.to/lastmile_qr_scan", "ios": "https://dc.lft.to/lastmile_qr_scan"}, "lat": 38.9353545, "is_reserved": 0, "is_disabled": 0, "fusion_lat": 0.0}, {"fusion_lon": 0.0, "bike_id": "09fca21bd28a4f570289c1f6e937b6f0", "name": "09fca21bd28a4f570289c1f6e937b6f0", "type": "electric_scooter", "lon": -77.0057635, "rental_uris": {"android": "https://dc.lft.to/lastmile_qr_scan", "ios": "https://dc.lft.to/lastmile_qr_scan"}, "lat": 38.905704, "is_reserved": 0, "is_disabled": 0, "fusion_lat": 0.0}, {"fusion_lon": 0.0, "bike_id": "4f174c9de028dbc16328458eacab0a10", "name": "4f174c9de028dbc16328458eacab0a10", "type": "electric_scooter", "lon": -77.021185, "rental_uris": {"android": "https://dc.lft.to/lastmile_qr_scan", "ios": "https://dc.lft.to/lastmile_qr_scan"}, "lat": 38.89471283333334, "is_reserved": 0, "is_disabled": 0, "fusion_lat": 0.0}, {"fusion_lon": 0.0, "bike_id": "dcd8b5b210553c886cedadf86191f811", "name": "dcd8b5b210553c886cedadf86191f811", "type": "electric_scooter", "lon": -77.045812, "rental_uris": {"android": "https://dc.lft.to/lastmile_qr_scan", "ios": "https://dc.lft.to/lastmile_qr_scan"}, "lat": 38.924182, "is_reserved": 0, "is_disabled": 0, "fusion_lat": 0.0}, {"fusion_lon": 0.0, "bike_id": "5a73bf6de6a92056e7dc04a0e75edf03", "name": "5a73bf6de6a92056e7dc04a0e75edf03", "type": "electric_scooter", "lon": -77.0318305, "rental_uris": {"android": "https://dc.lft.to/lastmile_qr_scan", "ios": "https://dc.lft.to/lastmile_qr_scan"}, "lat": 38.907868666666666, "is_reserved": 0, "is_disabled": 0, "fusion_lat": 0.0}, {"fusion_lon": 0.0, "bike_id": "a4bb96b33db17d13e553259f85ca229b", "name": "a4bb96b33db17d13e553259f85ca229b", "type": "electric_scooter", "lon": -77.01513383333334, "rental_uris": {"android": "https://dc.lft.to/lastmile_qr_scan", "ios": "https://dc.lft.to/lastmile_qr_scan"}, "lat": 38.9102985, "is_reserved": 0, "is_disabled": 0, "fusion_lat": 0.0}, {"fusion_lon": 0.0, "bike_id": "3f6bd20bd284bbefa11a4f64e101607a", "name": "3f6bd20bd284bbefa11a4f64e101607a", "type": "electric_bike", "lon": -76.94802933333334, "rental_uris": {"android": "https://dc.lft.to/lastmile_qr_scan", "ios": "https://dc.lft.to/lastmile_qr_scan"}, "lat": 38.86196266666666, "is_reserved": 0, "is_disabled": 0, "fusion_lat": 0.0}, {"fusion_lon": 0.0, "bike_id": "a3cf877ba105a20a1adc4427bf56baa7", "name": "a3cf877ba105a20a1adc4427bf56baa7", "type": "electric_scooter", "lon": -77.01998066666667, "rental_uris": {"android": "https://dc.lft.to/lastmile_qr_scan", "ios": "https://dc.lft.to/lastmile_qr_scan"}, "lat": 38.966269, "is_reserved": 0, "is_disabled": 0, "fusion_lat": 0.0}, {"fusion_lon": 0.0, "bike_id": "c14226ee1cd74ad9a77a9d9ae46a81db", "name": "c14226ee1cd74ad9a77a9d9ae46a81db", "type": "electric_scooter", "lon": -77.01719966666667, "rental_uris": {"android": "https://dc.lft.to/lastmile_qr_scan", "ios": "https://dc.lft.to/lastmile_qr_scan"}, "lat": 38.905209166666666, "is_reserved": 0, "is_disabled": 0, "fusion_lat": 0.0}, {"fusion_lon": 0.0, "bike_id": "882585c67148f5a6b6d821bd15c4dd95", "name": "882585c67148f5a6b6d821bd15c4dd95", "type": "electric_scooter", "lon": -77.03667583333333, "rental_uris": {"android": "https://dc.lft.to/lastmile_qr_scan", "ios": "https://dc.lft.to/lastmile_qr_scan"}, "lat": 38.930914, "is_reserved": 0, "is_disabled": 0, "fusion_lat": 0.0}, {"fusion_lon": 0.0, "bike_id": "14f3b480aa46ab89ae535175f9c84f17", "name": "14f3b480aa46ab89ae535175f9c84f17", "type": "electric_scooter", "lon": -77.02405483333334, "rental_uris": {"android": "https://dc.lft.to/lastmile_qr_scan", "ios": "https://dc.lft.to/lastmile_qr_scan"}, "lat": 38.937017166666664, "is_reserved": 0, "is_disabled": 0, "fusion_lat": 0.0}, {"fusion_lon": 0.0, "bike_id": "4bd59ff182ba1b68a893e355d6698038", "name": "4bd59ff182ba1b68a893e355d6698038", "type": "electric_scooter", "lon": -77.03310266666666, "rental_uris": {"android": "https://dc.lft.to/lastmile_qr_scan", "ios": "https://dc.lft.to/lastmile_qr_scan"}, "lat": 38.903842166666664, "is_reserved": 0, "is_disabled": 0, "fusion_lat": 0.0}, {"fusion_lon": 0.0, "bike_id": "db3e131b5d00011642a5b77467fedab5", "name": "db3e131b5d00011642a5b77467fedab5", "type": "electric_scooter", "lon": -77.044709, "rental_uris": {"android": "https://dc.lft.to/lastmile_qr_scan", "ios": "https://dc.lft.to/lastmile_qr_scan"}, "lat": 38.90867683333333, "is_reserved": 0, "is_disabled": 0, "fusion_lat": 0.0}, {"fusion_lon": 0.0, "bike_id": "ccd75c7cdece2a4e9424cedfad3e3429", "name": "ccd75c7cdece2a4e9424cedfad3e3429", "type": "electric_scooter", "lon": -77.03918933333334, "rental_uris": {"android": "https://dc.lft.to/lastmile_qr_scan", "ios": "https://dc.lft.to/lastmile_qr_scan"}, "lat": 38.9118605, "is_reserved": 0, "is_disabled": 0, "fusion_lat": 0.0}, {"fusion_lon": 0.0, "bike_id": "95ecbf7ebb5651fdfb4ffb3e39893da6", "name": "95ecbf7ebb5651fdfb4ffb3e39893da6", "type": "electric_scooter", "lon": -77.0436145, "rental_uris": {"android": "https://dc.lft.to/lastmile_qr_scan", "ios": "https://dc.lft.to/lastmile_qr_scan"}, "lat": 38.89235683333333, "is_reserved": 0, "is_disabled": 0, "fusion_lat": 0.0}, {"fusion_lon": 0.0, "bike_id": "a9b018056445d28a231c2108036763d3", "name": "a9b018056445d28a231c2108036763d3", "type": "electric_bike", "lon": -77.095658, "rental_uris": {"android": "https://dc.lft.to/lastmile_qr_scan", "ios": "https://dc.lft.to/lastmile_qr_scan"}, "lat": 38.9169445, "is_reserved": 0, "is_disabled": 0, "fusion_lat": 0.0}, {"fusion_lon": 0.0, "bike_id": "c467a6992cbc3a14f9cd43f704d7c76c", "name": "c467a6992cbc3a14f9cd43f704d7c76c", "type": "electric_scooter", "lon": -77.017587, "rental_uris": {"android": "https://dc.lft.to/lastmile_qr_scan", "ios": "https://dc.lft.to/lastmile_qr_scan"}, "lat": 38.8768915, "is_reserved": 0, "is_disabled": 0, "fusion_lat": 0.0}, {"fusion_lon": 0.0, "bike_id": "13ed3e20dea229589a0c74b88b6483ab", "name": "13ed3e20dea229589a0c74b88b6483ab", "type": "electric_scooter", "lon": -77.03262683333334, "rental_uris": {"android": "https://dc.lft.to/lastmile_qr_scan", "ios": "https://dc.lft.to/lastmile_qr_scan"}, "lat": 38.929520833333335, "is_reserved": 0, "is_disabled": 0, "fusion_lat": 0.0}, {"fusion_lon": 0.0, "bike_id": "86593ae8f4426b80122439b21613fba0", "name": "86593ae8f4426b80122439b21613fba0", "type": "electric_scooter", "lon": -77.05121966666667, "rental_uris": {"android": "https://dc.lft.to/lastmile_qr_scan", "ios": "https://dc.lft.to/lastmile_qr_scan"}, "lat": 38.923439333333334, "is_reserved": 0, "is_disabled": 0, "fusion_lat": 0.0}, {"fusion_lon": 0.0, "bike_id": "9932c5f49855408e92a54df18d14e0c3", "name": "9932c5f49855408e92a54df18d14e0c3", "type": "electric_scooter", "lon": -77.05166066666666, "rental_uris": {"android": "https://dc.lft.to/lastmile_qr_scan", "ios": "https://dc.lft.to/lastmile_qr_scan"}, "lat": 38.900782166666666, "is_reserved": 0, "is_disabled": 0, "fusion_lat": 0.0}, {"fusion_lon": 0.0, "bike_id": "ee7f3f8c76a8d6e8e9142cc08ba516cd", "name": "ee7f3f8c76a8d6e8e9142cc08ba516cd", "type": "electric_scooter", "lon": -77.00702583333333, "rental_uris": {"android": "https://dc.lft.to/lastmile_qr_scan", "ios": "https://dc.lft.to/lastmile_qr_scan"}, "lat": 38.87684683333333, "is_reserved": 0, "is_disabled": 0, "fusion_lat": 0.0}, {"fusion_lon": 0.0, "bike_id": "4eefb840d0d45dbb0e0d79bb3c01333e", "name": "4eefb840d0d45dbb0e0d79bb3c01333e", "type": "electric_scooter", "lon": -76.99652366666666, "rental_uris": {"android": "https://dc.lft.to/lastmile_qr_scan", "ios": "https://dc.lft.to/lastmile_qr_scan"}, "lat": 38.93228766666667, "is_reserved": 0, "is_disabled": 0, "fusion_lat": 0.0}, {"fusion_lon": 0.0, "bike_id": "dedd48bbe0894707a3b9d952cad4cc63", "name": "dedd48bbe0894707a3b9d952cad4cc63", "type": "electric_scooter", "lon": -77.0281505, "rental_uris": {"android": "https://dc.lft.to/lastmile_qr_scan", "ios": "https://dc.lft.to/lastmile_qr_scan"}, "lat": 38.916268, "is_reserved": 0, "is_disabled": 0, "fusion_lat": 0.0}, {"fusion_lon": 0.0, "bike_id": "d7bd9f83273df97dce71933a338f365c", "name": "d7bd9f83273df97dce71933a338f365c", "type": "electric_scooter", "lon": -77.01013083333333, "rental_uris": {"android": "https://dc.lft.to/lastmile_qr_scan", "ios": "https://dc.lft.to/lastmile_qr_scan"}, "lat": 38.87968816666667, "is_reserved": 0, "is_disabled": 0, "fusion_lat": 0.0}, {"fusion_lon": 0.0, "bike_id": "9678a0921ca7d86558aa409905efeff5", "name": "9678a0921ca7d86558aa409905efeff5", "type": "electric_scooter", "lon": -76.99056083333333, "rental_uris": {"android": "https://dc.lft.to/lastmile_qr_scan", "ios": "https://dc.lft.to/lastmile_qr_scan"}, "lat": 38.8635245, "is_reserved": 0, "is_disabled": 0, "fusion_lat": 0.0}, {"fusion_lon": 0.0, "bike_id": "f7185141f4054132cb99cff6f138deca", "name": "f7185141f4054132cb99cff6f138deca", "type": "electric_scooter", "lon": -77.03645583333333, "rental_uris": {"android": "https://dc.lft.to/lastmile_qr_scan", "ios": "https://dc.lft.to/lastmile_qr_scan"}, "lat": 38.912087666666665, "is_reserved": 0, "is_disabled": 0, "fusion_lat": 0.0}, {"fusion_lon": 0.0, "bike_id": "484fb3039218e8266f3786c47c597f33", "name": "484fb3039218e8266f3786c47c597f33", "type": "electric_scooter", "lon": -77.04244733333333, "rental_uris": {"android": "https://dc.lft.to/lastmile_qr_scan", "ios": "https://dc.lft.to/lastmile_qr_scan"}, "lat": 38.94548066666667, "is_reserved": 0, "is_disabled": 0, "fusion_lat": 0.0}, {"fusion_lon": 0.0, "bike_id": "63477d3c84e883800b91752846aca31d", "name": "63477d3c84e883800b91752846aca31d", "type": "electric_scooter", "lon": -76.946318, "rental_uris": {"android": "https://dc.lft.to/lastmile_qr_scan", "ios": "https://dc.lft.to/lastmile_qr_scan"}, "lat": 38.898335833333334, "is_reserved": 0, "is_disabled": 0, "fusion_lat": 0.0}, {"fusion_lon": 0.0, "bike_id": "b987f4d0f4f610f2f32414760442a5b5", "name": "b987f4d0f4f610f2f32414760442a5b5", "type": "electric_scooter", "lon": -77.04134216666667, "rental_uris": {"android": "https://dc.lft.to/lastmile_qr_scan", "ios": "https://dc.lft.to/lastmile_qr_scan"}, "lat": 38.923672833333335, "is_reserved": 0, "is_disabled": 0, "fusion_lat": 0.0}, {"fusion_lon": 0.0, "bike_id": "0460491aa6202e155d8600928701a2be", "name": "0460491aa6202e155d8600928701a2be", "type": "electric_scooter", "lon": -77.07299016666667, "rental_uris": {"android": "https://dc.lft.to/lastmile_qr_scan", "ios": "https://dc.lft.to/lastmile_qr_scan"}, "lat": 38.935385833333335, "is_reserved": 0, "is_disabled": 0, "fusion_lat": 0.0}, {"fusion_lon": 0.0, "bike_id": "167a9158e0cb48171032c433434b65e0", "name": "167a9158e0cb48171032c433434b65e0", "type": "electric_scooter", "lon": -77.03262283333333, "rental_uris": {"android": "https://dc.lft.to/lastmile_qr_scan", "ios": "https://dc.lft.to/lastmile_qr_scan"}, "lat": 38.937524333333336, "is_reserved": 0, "is_disabled": 0, "fusion_lat": 0.0}, {"fusion_lon": 0.0, "bike_id": "d295df861d38e909952e5fefa6a8ff93", "name": "d295df861d38e909952e5fefa6a8ff93", "type": "electric_scooter", "lon": -77.03852083333334, "rental_uris": {"android": "https://dc.lft.to/lastmile_qr_scan", "ios": "https://dc.lft.to/lastmile_qr_scan"}, "lat": 38.918397666666664, "is_reserved": 0, "is_disabled": 0, "fusion_lat": 0.0}, {"fusion_lon": 0.0, "bike_id": "dbb9ef153fd3b86e0955b0bb2614974f", "name": "dbb9ef153fd3b86e0955b0bb2614974f", "type": "electric_scooter", "lon": -76.99851516666666, "rental_uris": {"android": "https://dc.lft.to/lastmile_qr_scan", "ios": "https://dc.lft.to/lastmile_qr_scan"}, "lat": 38.908942, "is_reserved": 0, "is_disabled": 0, "fusion_lat": 0.0}, {"fusion_lon": 0.0, "bike_id": "341739cf9a4ba159438537cf61c1b0d0", "name": "341739cf9a4ba159438537cf61c1b0d0", "type": "electric_scooter", "lon": -77.0243605, "rental_uris": {"android": "https://dc.lft.to/lastmile_qr_scan", "ios": "https://dc.lft.to/lastmile_qr_scan"}, "lat": 38.926472833333335, "is_reserved": 0, "is_disabled": 0, "fusion_lat": 0.0}, {"fusion_lon": 0.0, "bike_id": "40e68c0cbfe574135dcaa60428cf230e", "name": "40e68c0cbfe574135dcaa60428cf230e", "type": "electric_scooter", "lon": -77.0641265, "rental_uris": {"android": "https://dc.lft.to/lastmile_qr_scan", "ios": "https://dc.lft.to/lastmile_qr_scan"}, "lat": 38.913435666666665, "is_reserved": 0, "is_disabled": 0, "fusion_lat": 0.0}, {"fusion_lon": 0.0, "bike_id": "8922ef07e80339fe5e52337ad0249f02", "name": "8922ef07e80339fe5e52337ad0249f02", "type": "electric_scooter", "lon": -77.0275665, "rental_uris": {"android": "https://dc.lft.to/lastmile_qr_scan", "ios": "https://dc.lft.to/lastmile_qr_scan"}, "lat": 38.95413033333333, "is_reserved": 0, "is_disabled": 0, "fusion_lat": 0.0}, {"fusion_lon": 0.0, "bike_id": "ff2dded911554cf747c2498ece48ba16", "name": "ff2dded911554cf747c2498ece48ba16", "type": "electric_scooter", "lon": -77.02104866666667, "rental_uris": {"android": "https://dc.lft.to/lastmile_qr_scan", "ios": "https://dc.lft.to/lastmile_qr_scan"}, "lat": 38.896270333333334, "is_reserved": 0, "is_disabled": 0, "fusion_lat": 0.0}, {"fusion_lon": 0.0, "bike_id": "1cf495173492643f69cf8dc6e7fdb80f", "name": "1cf495173492643f69cf8dc6e7fdb80f", "type": "electric_scooter", "lon": -77.0520715, "rental_uris": {"android": "https://dc.lft.to/lastmile_qr_scan", "ios": "https://dc.lft.to/lastmile_qr_scan"}, "lat": 38.9248055, "is_reserved": 0, "is_disabled": 0, "fusion_lat": 0.0}, {"fusion_lon": 0.0, "bike_id": "b28a792166aecffbc6d4f4bc7b60dafe", "name": "b28a792166aecffbc6d4f4bc7b60dafe", "type": "electric_scooter", "lon": -77.027102, "rental_uris": {"android": "https://dc.lft.to/lastmile_qr_scan", "ios": "https://dc.lft.to/lastmile_qr_scan"}, "lat": 38.9180245, "is_reserved": 0, "is_disabled": 0, "fusion_lat": 0.0}, {"fusion_lon": 0.0, "bike_id": "9902ccff51fafd3093c116087d87751e", "name": "9902ccff51fafd3093c116087d87751e", "type": "electric_scooter", "lon": -77.023061, "rental_uris": {"android": "https://dc.lft.to/lastmile_qr_scan", "ios": "https://dc.lft.to/lastmile_qr_scan"}, "lat": 38.91615183333333, "is_reserved": 0, "is_disabled": 0, "fusion_lat": 0.0}, {"fusion_lon": 0.0, "bike_id": "77987d7e4dd7acf4b450499527a2817d", "name": "77987d7e4dd7acf4b450499527a2817d", "type": "electric_scooter", "lon": -77.043547, "rental_uris": {"android": "https://dc.lft.to/lastmile_qr_scan", "ios": "https://dc.lft.to/lastmile_qr_scan"}, "lat": 38.907155833333334, "is_reserved": 0, "is_disabled": 0, "fusion_lat": 0.0}, {"fusion_lon": 0.0, "bike_id": "3f5ccbd793f84c1ee4c646f877813188", "name": "3f5ccbd793f84c1ee4c646f877813188", "type": "electric_bike", "lon": -76.90537783333333, "rental_uris": {"android": "https://dc.lft.to/lastmile_qr_scan", "ios": "https://dc.lft.to/lastmile_qr_scan"}, "lat": 38.89733183333333, "is_reserved": 0, "is_disabled": 0, "fusion_lat": 0.0}, {"fusion_lon": 0.0, "bike_id": "684d0728d34ad75ee28d36deb0f3ce4c", "name": "684d0728d34ad75ee28d36deb0f3ce4c", "type": "electric_scooter", "lon": -77.03859066666666, "rental_uris": {"android": "https://dc.lft.to/lastmile_qr_scan", "ios": "https://dc.lft.to/lastmile_qr_scan"}, "lat": 38.9098015, "is_reserved": 0, "is_disabled": 0, "fusion_lat": 0.0}, {"fusion_lon": 0.0, "bike_id": "896f59d3b626139a6b26c8c11ba7c207", "name": "896f59d3b626139a6b26c8c11ba7c207", "type": "electric_scooter", "lon": -77.04261216666667, "rental_uris": {"android": "https://dc.lft.to/lastmile_qr_scan", "ios": "https://dc.lft.to/lastmile_qr_scan"}, "lat": 38.91408533333333, "is_reserved": 0, "is_disabled": 0, "fusion_lat": 0.0}, {"fusion_lon": 0.0, "bike_id": "6cc7663cc750164c69813e7bc9256f7c", "name": "6cc7663cc750164c69813e7bc9256f7c", "type": "electric_scooter", "lon": -77.03665116666667, "rental_uris": {"android": "https://dc.lft.to/lastmile_qr_scan", "ios": "https://dc.lft.to/lastmile_qr_scan"}, "lat": 38.92118966666666, "is_reserved": 0, "is_disabled": 0, "fusion_lat": 0.0}, {"fusion_lon": 0.0, "bike_id": "7fe0d043bcf0123e13f05dc1c28a02d3", "name": "7fe0d043bcf0123e13f05dc1c28a02d3", "type": "electric_scooter", "lon": -77.0220565, "rental_uris": {"android": "https://dc.lft.to/lastmile_qr_scan", "ios": "https://dc.lft.to/lastmile_qr_scan"}, "lat": 38.89787166666667, "is_reserved": 0, "is_disabled": 0, "fusion_lat": 0.0}, {"fusion_lon": 0.0, "bike_id": "fc9c0353bc026a55abebd976387f467a", "name": "fc9c0353bc026a55abebd976387f467a", "type": "electric_scooter", "lon": -77.01503116666666, "rental_uris": {"android": "https://dc.lft.to/lastmile_qr_scan", "ios": "https://dc.lft.to/lastmile_qr_scan"}, "lat": 38.90143, "is_reserved": 0, "is_disabled": 0, "fusion_lat": 0.0}, {"fusion_lon": 0.0, "bike_id": "dc3ea7d7085205ca391f7811b8b28c8f", "name": "dc3ea7d7085205ca391f7811b8b28c8f", "type": "electric_scooter", "lon": -77.01368283333333, "rental_uris": {"android": "https://dc.lft.to/lastmile_qr_scan", "ios": "https://dc.lft.to/lastmile_qr_scan"}, "lat": 38.88643066666667, "is_reserved": 0, "is_disabled": 0, "fusion_lat": 0.0},