{"data": {"bikes": [{"fusion_lat": 0.0, "bike_id": "56007a9c1dca0205e75eefbd4b2e7cdb", "fusion_lon": 0.0, "lon": -77.00540916666667, "lat": 38.8745775, "is_reserved": 0, "is_disabled": 0, "rental_uris": {"android": "https://dc.lft.to/lastmile_qr_scan", "ios": "https://dc.lft.to/lastmile_qr_scan"}, "name": "56007a9c1dca0205e75eefbd4b2e7cdb", "type": "electric_scooter"}, {"fusion_lat": 0.0, "bike_id": "eb0509dcb7b9929910fb9ffc6e685be7", "fusion_lon": 0.0, "lon": -77.03995783333333, "lat": 38.907916666666665, "is_reserved": 0, "is_disabled": 0, "rental_uris": {"android": "https://dc.lft.to/lastmile_qr_scan", "ios": "https://dc.lft.to/lastmile_qr_scan"}, "name": "eb0509dcb7b9929910fb9ffc6e685be7", "type": "electric_scooter"}, {"fusion_lat": 0.0, "bike_id": "c80b95b88cee3046c8fb4595ac738c14", "fusion_lon": 0.0, "lon": -76.99874283333334, "lat": 38.8864025, "is_reserved": 0, "is_disabled": 0, "rental_uris": {"android": "https://dc.lft.to/lastmile_qr_scan", "ios": "https://dc.lft.to/lastmile_qr_scan"}, "name": "c80b95b88cee3046c8fb4595ac738c14", "type": "electric_scooter"}, {"fusion_lat": 0.0, "bike_id": "31b9c6cfe6d8dcda7c3c7097b9f9e8eb", "fusion_lon": 0.0, "lon": -77.0270495, "lat": 38.94987416666667, "is_reserved": 0, "is_disabled": 0, "rental_uris": {"android": "https://dc.lft.to/lastmile_qr_scan", "ios": "https://dc.lft.to/lastmile_qr_scan"}, "name": "31b9c6cfe6d8dcda7c3c7097b9f9e8eb", "type": "electric_scooter"}, {"fusion_lat": 0.0, "bike_id": "53136d9874f965970e69d29f0eafd2f6", "fusion_lon": 0.0, "lon": -77.0376005, "lat": 38.90778433333333, "is_reserved": 0, "is_disabled": 0, "rental_uris": {"android": "https://dc.lft.to/lastmile_qr_scan", "ios": "https://dc.lft.to/lastmile_qr_scan"}, "name": "53136d9874f965970e69d29f0eafd2f6", "type": "electric_scooter"}, {"fusion_lat": 0.0, "bike_id": "3cee6dd9e0f8f642bcb8d92d8aa323f7", "fusion_lon": 0.0, "lon": -77.0503765, "lat": 38.905446166666664, "is_reserved": 0, "is_disabled": 0, "rental_uris": {"android": "https://dc.lft.to/lastmile_qr_scan", "ios": "https://dc.lft.to/lastmile_qr_scan"}, "name": "3cee6dd9e0f8f642bcb8d92d8aa323f7", "type": "electric_scooter"}, {"fusion_lat": 0.0, "bike_id": "9fb52073fc654829c3dac4ec4b74dc5a", "fusion_lon": 0.0, "lon": -76.9337075, "lat": 38.899145833333336, "is_reserved": 0, "is_disabled": 0, "rental_uris": {"android": "https://dc.lft.to/lastmile_qr_scan", "ios": "https://dc.lft.to/lastmile_qr_scan"}, "name": "9fb52073fc654829c3dac4ec4b74dc5a", "type": "electric_scooter"}, {"fusion_lat": 0.0, "bike_id": "21568b12cb03bfb272ec2002f1788f7c", "fusion_lon": 0.0, "lon": -76.99569933333333, "lat": 38.85177516666667, "is_reserved": 0, "is_disabled": 0, "rental_uris": {"android": "https://dc.lft.to/lastmile_qr_scan", "ios": "https://dc.lft.to/lastmile_qr_scan"}, "name": "21568b12cb03bfb272ec2002f1788f7c", "type": "electric_bike"}, {"fusion_lat": 0.0, "bike_id": "5c7474defdbedd146d2cfa52a797ba53", "fusion_lon": 0.0, "lon": -76.97480316666666, "lat": 38.90350266666667, "is_reserved": 0, "is_disabled": 0, "rental_uris": {"android": "https://dc.lft.to/lastmile_qr_scan", "ios": "https://dc.lft.to/lastmile_qr_scan"}, "name": "5c7474defdbedd146d2cfa52a797ba53", "type": "electric_scooter"}, {"fusion_lat": 0.0, "bike_id": "4dbf89233d7a96b51095d48746e4e4ec", "fusion_lon": 0.0, "lon": -77.053152, "lat": 38.91551466666667, "is_reserved": 0, "is_disabled": 0, "rental_uris": {"android": "https://dc.lft.to/lastmile_qr_scan", "ios": "https://dc.lft.to/lastmile_qr_scan"}, "name": "4dbf89233d7a96b51095d48746e4e4ec", "type": "electric_scooter"}, {"fusion_lat": 0.0, "bike_id": "92f7fe7eb4d3084938812b418f449adf", "fusion_lon": 0.0, "lon": -77.01990783333333, "lat": 38.915571666666665, "is_reserved": 0, "is_disabled": 0, "rental_uris": {"android": "https://dc.lft.to/lastmile_qr_scan", "ios": "https://dc.lft.to/lastmile_qr_scan"}, "name": "92f7fe7eb4d3084938812b418f449adf", "type": "electric_scooter"}, {"fusion_lat": 0.0, "bike_id": "34dec1592e102af5654c9b02d8814584", "fusion_lon": 0.0, "lon": -76.94879516666667, "lat": 38.89425516666667, "is_reserved": 0, "is_disabled": 0, "rental_uris": {"android": "https://dc.lft.to/lastmile_qr_scan", "ios": "https://dc.lft.to/lastmile_qr_scan"}, "name": "34dec1592e102af5654c9b02d8814584", "type": "electric_scooter"}, {"fusion_lat": 0.0, "bike_id": "86c44ec211489a668b25d6ade541b422", "fusion_lon": 0.0, "lon": -77.02888516666667, "lat": 38.93278566666667, "is_reserved": 0, "is_disabled": 0, "rental_uris": {"android": "https://dc.lft.to/lastmile_qr_scan", "ios": "https://dc.lft.to/lastmile_qr_scan"}, "name": "86c44ec211489a668b25d6ade541b422", "type": "electric_scooter"}, {"fusion_lat": 0.0, "bike_id": "a7108f00d915778efcf8e11e7a7a27b1", "fusion_lon": 0.0, "lon": -77.01788033333334, "lat": 38.90389016666666, "is_reserved": 0, "is_disabled": 0, "rental_uris": {"android": "https://dc.lft.to/lastmile_qr_scan", "ios": "https://dc.lft.to/lastmile_qr_scan"}, "name": "a7108f00d915778efcf8e11e7a7a27b1", "type": "electric_scooter"}, {"fusion_lat": 0.0, "bike_id": "e3b2a688cdc67326ab059a70b7015967", "fusion_lon": 0.0, "lon": -77.03547083333333, "lat": 38.92580816666667, "is_reserved": 0, "is_disabled": 0, "rental_uris": {"android": "https://dc.lft.to/lastmile_qr_scan", "ios": "https://dc.lft.to/lastmile_qr_scan"}, "name": "e3b2a688cdc67326ab059a70b7015967", "type": "electric_scooter"}, {"fusion_lat": 0.0, "bike_id": "548fd0a3d9cd5e3d3643bf5fc03509e6", "fusion_lon": 0.0, "lon": -77.0264185, "lat": 38.981543333333335, "is_reserved": 0, "is_disabled": 0, "rental_uris": {"android": "https://dc.lft.to/lastmile_qr_scan", "ios": "https://dc.lft.to/lastmile_qr_scan"}, "name": "548fd0a3d9cd5e3d3643bf5fc03509e6", "type": "electric_bike"}, {"fusion_lat": 0.0, "bike_id": "e2c08ae8893a5843f02896075462ce94", "fusion_lon": 0.0, "lon": -77.0244675, "lat": 38.920237, "is_reserved": 0, "is_disabled": 0, "rental_uris": {"android": "https://dc.lft.to/lastmile_qr_scan", "ios": "https://dc.lft.to/lastmile_qr_scan"}, "name": "e2c08ae8893a5843f02896075462ce94", "type": "electric_scooter"}, {"fusion_lat": 0.0, "bike_id": "76bb2ed21747d1bad5f549c445a74581", "fusion_lon": 0.0, "lon": -76.97748616666667, "lat": 38.86485916666667, "is_reserved": 0, "is_disabled": 0, "rental_uris": {"android": "https://dc.lft.to/lastmile_qr_scan", "ios": "https://dc.lft.to/lastmile_qr_scan"}, "name": "76bb2ed21747d1bad5f549c445a74581", "type": "electric_bike"}, {"fusion_lat": 0.0, "bike_id": "2236e7e8d7958e22032f954d3297af88", "fusion_lon": 0.0, "lon": -77.05707883333334, "lat": 38.92595683333333, "is_reserved": 0, "is_disabled": 0, "rental_uris": {"android": "https://dc.lft.to/lastmile_qr_scan", "ios": "https://dc.lft.to/lastmile_qr_scan"}, "name": "2236e7e8d7958e22032f954d3297af88", "type": "electric_bike"}, {"fusion_lat": 0.0, "bike_id": "45f5a3480e3f441efde783e86b86cc13", "fusion_lon": 0.0, "lon": -76.99933016666667, "lat": 38.84314666666667, "is_reserved": 0, "is_disabled": 0, "rental_uris": {"android": "https://dc.lft.to/lastmile_qr_scan", "ios": "https://dc.lft.to/lastmile_qr_scan"}, "name": "45f5a3480e3f441efde783e86b86cc13", "type": "electric_scooter"}, {"fusion_lat": 0.0, "bike_id": "e518ff4ea94bfe1d163ddc69d4d4db89", "fusion_lon": 0.0, "lon": -77.02964833333333, "lat": 38.89926533333333, "is_reserved": 0, "is_disabled": 0, "rental_uris": {"android": "https://dc.lft.to/lastmile_qr_scan", "ios": "https://dc.lft.to/lastmile_qr_scan"}, "name": "e518ff4ea94bfe1d163ddc69d4d4db89", "type": "electric_scooter"}, {"fusion_lat": 0.0, "bike_id": "88e38f8c2768609dd284af9ac23bcf6a", "fusion_lon": 0.0, "lon": -77.01855633333334, "lat": 38.874507333333334, "is_reserved": 0, "is_disabled": 0, "rental_uris": {"android": "https://dc.lft.to/lastmile_qr_scan", "ios": "https://dc.lft.to/lastmile_qr_scan"}, "name": "88e38f8c2768609dd284af9ac23bcf6a", "type": "electric_scooter"}, {"fusion_lat": 0.0, "bike_id": "432d2d32ce2b430ef668bab4a231a0d1", "fusion_lon": 0.0, "lon": -77.0281125, "lat": 38.923580666666666, "is_reserved": 0, "is_disabled": 0, "rental_uris": {"android": "https://dc.lft.to/lastmile_qr_scan", "ios": "https://dc.lft.to/lastmile_qr_scan"}, "name": "432d2d32ce2b430ef668bab4a231a0d1", "type": "electric_scooter"}, {"fusion_lat": 0.0, "bike_id": "9d69bce0bd7b2b517b5915b9625fdb9c", "fusion_lon": 0.0, "lon": -77.0231675, "lat": 38.927854333333336, "is_reserved": 0, "is_disabled": 0, "rental_uris": {"android": "https://dc.lft.to/lastmile_qr_scan", "ios": "https://dc.lft.to/lastmile_qr_scan"}, "name": "9d69bce0bd7b2b517b5915b9625fdb9c", "type": "electric_scooter"}, {"fusion_lat": 0.0, "bike_id": "3a008c5a38f7e73db288f6f99b3d122f", "fusion_lon": 0.0, "lon": -77.004485, "lat": 38.876570666666666, "is_reserved": 0, "is_disabled": 0, "rental_uris": {"android": "https://dc.lft.to/lastmile_qr_scan", "ios": "https://dc.lft.to/lastmile_qr_scan"}, "name": "3a008c5a38f7e73db288f6f99b3d122f", "type": "electric_scooter"}, {"fusion_lat": 0.0, "bike_id": "1aac29785753bd4fb3152da9410736cf", "fusion_lon": 0.0, "lon": -77.0633675, "lat": 38.94399666666666, "is_reserved": 0, "is_disabled": 0, "rental_uris": {"android": "https://dc.lft.to/lastmile_qr_scan", "ios": "https://dc.lft.to/lastmile_qr_scan"}, "name": "1aac29785753bd4fb3152da9410736cf", "type": "electric_scooter"}, {"fusion_lat": 0.0, "bike_id": "a60ed65381f16adc07dd1815cd1e5a89", "fusion_lon": 0.0, "lon": -77.02681316666667, "lat": 38.943246, "is_reserved": 0, "is_disabled": 0, "rental_uris": {"android": "https://dc.lft.to/lastmile_qr_scan", "ios": "https://dc.lft.to/lastmile_qr_scan"}, "name": "a60ed65381f16adc07dd1815cd1e5a89", "type": "electric_scooter"}, {"fusion_lat": 0.0, "bike_id": "1a11c9ed0172365e78fcb8698d0083c5", "fusion_lon": 0.0, "lon": -76.93377, "lat": 38.9102995, "is_reserved": 0, "is_disabled": 0, "rental_uris": {"android": "https://dc.lft.to/lastmile_qr_scan", "ios": "https://dc.lft.to/lastmile_qr_scan"}, "name": "1a11c9ed0172365e78fcb8698d0083c5", "type": "electric_scooter"}, {"fusion_lat": 0.0, "bike_id": "7f1d4fc5fdbbddbd501492cf6d77e7de", "fusion_lon": 0.0, "lon": -77.03304766666666, "lat": 38.9097295, "is_reserved": 0, "is_disabled": 0, "rental_uris": {"android": "https://dc.lft.to/lastmile_qr_scan", "ios": "https://dc.lft.to/lastmile_qr_scan"}, "name": "7f1d4fc5fdbbddbd501492cf6d77e7de", "type": "electric_scooter"}, {"fusion_lat": 0.0, "bike_id": "d84d15e96254fde63c367c0c8efc22c5", "fusion_lon": 0.0, "lon": -77.03444466666667, "lat": 38.91797016666666, "is_reserved": 0, "is_disabled": 0, "rental_uris": {"android": "https://dc.lft.to/lastmile_qr_scan", "ios": "https://dc.lft.to/lastmile_qr_scan"}, "name": "d84d15e96254fde63c367c0c8efc22c5", "type": "electric_scooter"}, {"fusion_lat": 0.0, "bike_id": "cbd9365934794000c43c59cd68ba5a5e", "fusion_lon": 0.0, "lon": -76.985006, "lat": 38.866717333333334, "is_reserved": 0, "is_disabled": 0, "rental_uris": {"android": "https://dc.lft.to/lastmile_qr_scan", "ios": "https://dc.lft.to/lastmile_qr_scan"}, "name": "cbd9365934794000c43c59cd68ba5a5e", "type": "electric_scooter"}, {"fusion_lat": 0.0, "bike_id": "cf55e40989c0a5c326562171481863bf", "fusion_lon": 0.0, "lon": -77.00201066666666, "lat": 38.900205166666666, "is_reserved": 0, "is_disabled": 0, "rental_uris": {"android": "https://dc.lft.to/lastmile_qr_scan", "ios": "https://dc.lft.to/lastmile_qr_scan"}, "name": "cf55e40989c0a5c326562171481863bf", "type": "electric_scooter"}, {"fusion_lat": 0.0, "bike_id": "95a7535f2514337f1e14426c0002de5c", "fusion_lon": 0.0, "lon": -77.04666, "lat": 38.9103965, "is_reserved": 0, "is_disabled": 0, "rental_uris": {"android": "https://dc.lft.to/lastmile_qr_scan", "ios": "https://dc.lft.to/lastmile_qr_scan"}, "name": "95a7535f2514337f1e14426c0002de5c", "type": "electric_scooter"}, {"fusion_lat": 0.0, "bike_id": "7a01446c4b86b00cd451a969fa6a3a0b", "fusion_lon": 0.0, "lon": -77.0467715, "lat": 38.900742666666666, "is_reserved": 0, "is_disabled": 0, "rental_uris": {"android": "https://dc.lft.to/lastmile_qr_scan", "ios": "https://dc.lft.to/lastmile_qr_scan"}, "name": "7a01446c4b86b00cd451a969fa6a3a0b", "type": "electric_scooter"}, {"fusion_lat": 0.0, "bike_id": "e29c1a4bba7e61bbeb32646de796a09b", "fusion_lon": 0.0, "lon": -76.9910665, "lat": 38.90317016666667, "is_reserved": 0, "is_disabled": 0, "rental_uris": {"android": "https://dc.lft.to/lastmile_qr_scan", "ios": "https://dc.lft.to/lastmile_qr_scan"}, "name": "e29c1a4bba7e61bbeb32646de796a09b", "type": "electric_scooter"}, {"fusion_lat": 0.0, "bike_id": "3b51c8c536e2d8e8a778ed003495b2b5", "fusion_lon": 0.0, "lon": -77.02210783333334, "lat": 38.912645166666664, "is_reserved": 0, "is_disabled": 0, "rental_uris": {"android": "https://dc.lft.to/lastmile_qr_scan", "ios": "https://dc.lft.to/lastmile_qr_scan"}, "name": "3b51c8c536e2d8e8a778ed003495b2b5", "type": "electric_scooter"}, {"fusion_lat": 0.0, "bike_id": "e447538078abf2f036bd66a692f93073", "fusion_lon": 0.0, "lon": -77.04496983333334, "lat": 38.91946866666667, "is_reserved": 0, "is_disabled": 0, "rental_uris": {"android": "https://dc.lft.to/lastmile_qr_scan", "ios": "https://dc.lft.to/lastmile_qr_scan"}, "name": "e447538078abf2f036bd66a692f93073", "type": "electric_scooter"}, {"fusion_lat": 0.0, "bike_id": "88df4bb203c771c7e30192729a8aa98f", "fusion_lon": 0.0, "lon": -76.99134166666667, "lat": 38.901364666666666, "is_reserved": 0, "is_disabled": 0, "rental_uris": {"android": "https://dc.lft.to/lastmile_qr_scan", "ios": "https://dc.lft.to/lastmile_qr_scan"}, "name": "88df4bb203c771c7e30192729a8aa98f", "type": "electric_scooter"}, {"fusion_lat": 0.0, "bike_id": "788a2001ad81f98031819ca14120d9e1", "fusion_lon": 0.0, "lon": -77.05157566666666, "lat": 38.897560666666664, "is_reserved": 0, "is_disabled": 0, "rental_uris": {"android": "https://dc.lft.to/lastmile_qr_scan", "ios": "https://dc.lft.to/lastmile_qr_scan"}, "name": "788a2001ad81f98031819ca14120d9e1", "type": "electric_scooter"}, {"fusion_lat": 0.0, "bike_id": "b3f94b40033c1bef58c29b6b5ce863a5", "fusion_lon": 0.0, "lon": -77.02176483333334, "lat": 38.89480783333333, "is_reserved": 0, "is_disabled": 0, "rental_uris": {"android": "https://dc.lft.to/lastmile_qr_scan", "ios": "https://dc.lft.to/lastmile_qr_scan"}, "name": "b3f94b40033c1bef58c29b6b5ce863a5", "type": "electric_scooter"}, {"fusion_lat": 0.0, "bike_id": "1369ad595ba2f8aefcf412a22f8b8b7d", "fusion_lon": 0.0, "lon": -77.03718066666667, "lat": 38.91475066666667, "is_reserved": 0, "is_disabled": 0, "rental_uris": {"android": "https://dc.lft.to/lastmile_qr_scan", "ios": "https://dc.lft.to/lastmile_qr_scan"}, "name": "1369ad595ba2f8aefcf412a22f8b8b7d", "type": "electric_scooter"}, {"fusion_lat": 0.0, "bike_id": "03596b822c4f343cedc35a51833828d5", "fusion_lon": 0.0, "lon": -77.07433683333333, "lat": 38.99943666666667, "is_reserved": 0, "is_disabled": 0, "rental_uris": {"android": "https://dc.lft.to/lastmile_qr_scan", "ios": "https://dc.lft.to/lastmile_qr_scan"}, "name": "03596b822c4f343cedc35a51833828d5", "type": "electric_bike"}, {"fusion_lat": 0.0, "bike_id": "9c976f015c0a180672113e43650d97f2", "fusion_lon": 0.0, "lon": -77.04499933333334, "lat": 38.9079565, "is_reserved": 0, "is_disabled": 0, "rental_uris": {"android": "https://dc.lft.to/lastmile_qr_scan", "ios": "https://dc.lft.to/lastmile_qr_scan"}, "name": "9c976f015c0a180672113e43650d97f2", "type": "electric_scooter"}, {"fusion_lat": 0.0, "bike_id": "afc0d782eb390243e7d101c84eb3e026", "fusion_lon": 0.0, "lon": -76.94927866666667, "lat": 38.89352216666666, "is_reserved": 0, "is_disabled": 0, "rental_uris": {"android": "https://dc.lft.to/lastmile_qr_scan", "ios": "https://dc.lft.to/lastmile_qr_scan"}, "name": "afc0d782eb390243e7d101c84eb3e026", "type": "electric_scooter"}, {"fusion_lat": 0.0, "bike_id": "8588bf163a819bfb70a592ac393e4a34", "fusion_lon": 0.0, "lon": -76.98716766666666, "lat": 38.86624616666667, "is_reserved": 0, "is_disabled": 0, "rental_uris": {"android": "https://dc.lft.to/lastmile_qr_scan", "ios": "https://dc.lft.to/lastmile_qr_scan"}, "name": "8588bf163a819bfb70a592ac393e4a34", "type": "electric_scooter"}, {"fusion_lat": 0.0, "bike_id": "aab825c8975107104065d564d0d9f160", "fusion_lon": 0.0, "lon": -77.05809, "lat": 38.8239015, "is_reserved": 0, "is_disabled": 0, "rental_uris": {"android": "https://dc.lft.to/lastmile_qr_scan", "ios": "https://dc.lft.to/lastmile_qr_scan"}, "name": "aab825c8975107104065d564d0d9f160", "type": "electric_bike"}, {"fusion_lat": 0.0, "bike_id": "759c4b3397fa219dd8af6dbde109e50a", "fusion_lon": 0.0, "lon": -77.01987516666667, "lat": 38.91561566666667, "is_reserved": 0, "is_disabled": 0, "rental_uris": {"android": "https://dc.lft.to/lastmile_qr_scan", "ios": "https://dc.lft.to/lastmile_qr_scan"}, "name": "759c4b3397fa219dd8af6dbde109e50a", "type": "electric_scooter"}, {"fusion_lat": 0.0, "bike_id": "bb5e20b4cc92b22bbc7fedf6132a8b9e", "fusion_lon": 0.0, "lon": -77.02348633333334, "lat": 38.9354095, "is_reserved": 0, "is_disabled": 0, "rental_uris": {"android": "https://dc.lft.to/lastmile_qr_scan", "ios": "https://dc.lft.to/lastmile_qr_scan"}, "name": "bb5e20b4cc92b22bbc7fedf6132a8b9e", "type": "electric_scooter"}, {"fusion_lat": 0.0, "bike_id": "f0ad36e9a0adc1c006572ee95a871fbd", "fusion_lon": 0.0, "lon": -77.023953, "lat": 38.931925, "is_reserved": 0, "is_disabled": 0, "rental_uris": {"android": "https://dc.lft.to/lastmile_qr_scan", "ios": "https://dc.lft.to/lastmile_qr_scan"}, "name": "f0ad36e9a0adc1c006572ee95a871fbd", "type": "electric_scooter"}, {"fusion_lat": 0.0, "bike_id": "8b518292e12f039733326ea146fdfd32", "fusion_lon": 0.0, "lon": -77.05469766666667, "lat": 38.8978625, "is_reserved": 0, "is_disabled": 0, "rental_uris": {"android": "https://dc.lft.to/lastmile_qr_scan", "ios": "https://dc.lft.to/lastmile_qr_scan"}, "name": "8b518292e12f039733326ea146fdfd32", "type": "electric_scooter"}, {"fusion_lat": 0.0, "bike_id": "92fa24eb197105016ecd423df066a0df", "fusion_lon": 0.0, "lon": -77.04028883333334, "lat": 38.9244675, "is_reserved": 0, "is_disabled": 0, "rental_uris": {"android": "https://dc.lft.to/lastmile_qr_scan", "ios": "https://dc.lft.to/lastmile_qr_scan"}, "name": "92fa24eb197105016ecd423df066a0df", "type": "electric_scooter"}, {"fusion_lat": 0.0, "bike_id": "a02c05bc3fdbaf389fc9f318dcbebf5a", "fusion_lon": 0.0, "lon": -77.09465366666667, "lat": 38.80757766666667, "is_reserved": 0, "is_disabled": 0, "rental_uris": {"android": "https://dc.lft.to/lastmile_qr_scan", "ios": "https://dc.lft.to/lastmile_qr_scan"}, "name": "a02c05bc3fdbaf389fc9f318dcbebf5a", "type": "electric_bike"}, {"fusion_lat": 0.0, "bike_id": "8dff03553d6ae05fd1e0ee2ef797aea4", "fusion_lon": 0.0, "lon": -77.0314795, "lat": 38.915560666666664, "is_reserved": 0, "is_disabled": 0, "rental_uris": {"android": "https://dc.lft.to/lastmile_qr_scan", "ios": "https://dc.lft.to/lastmile_qr_scan"}, "name": "8dff03553d6ae05fd1e0ee2ef797aea4", "type": "electric_scooter"}, {"fusion_lat": 0.0, "bike_id": "1d6d720448e85a0cbd5e78c3c18fcc88", "fusion_lon": 0.0, "lon": -77.054688, "lat": 38.9292105, "is_reserved": 0, "is_disabled": 0, "rental_uris": {"android": "https://dc.lft.to/lastmile_qr_scan", "ios": "https://dc.lft.to/lastmile_qr_scan"}, "name": "1d6d720448e85a0cbd5e78c3c18fcc88", "type": "electric_scooter"}, {"fusion_lat": 0.0, "bike_id": "546d7883675538ce5deffa08fb71f851", "fusion_lon": 0.0, "lon": -77.031868, "lat": 38.91737766666667, "is_reserved": 0, "is_disabled": 0, "rental_uris": {"android": "https://dc.lft.to/lastmile_qr_scan", "ios": "https://dc.lft.to/lastmile_qr_scan"}, "name": "546d7883675538ce5deffa08fb71f851", "type": "electric_scooter"}, {"fusion_lat": 0.0, "bike_id": "534e85685c8412597a763e765be76b64", "fusion_lon": 0.0, "lon": -77.03192366666667, "lat": 38.89617766666667, "is_reserved": 0, "is_disabled": 0, "rental_uris": {"android": "https://dc.lft.to/lastmile_qr_scan", "ios": "https://dc.lft.to/lastmile_qr_scan"}, "name": "534e85685c8412597a763e765be76b64", "type": "electric_scooter"}, {"fusion_lat": 0.0, "bike_id": "49842c2b284d55b47c184f62576f393a", "fusion_lon": 0.0, "lon": -77.005138, "lat": 38.87934683333334, "is_reserved": 0, "is_disabled": 0, "rental_uris": {"android": "https://dc.lft.to/lastmile_qr_scan", "ios": "https://dc.lft.to/lastmile_qr_scan"}, "name": "49842c2b284d55b47c184f62576f393a", "type": "electric_scooter"}, {"fusion_lat": 0.0, "bike_id": "32583387bc8f5c21fe73c44d7ac247a4", "fusion_lon": 0.0, "lon": -77.038996, "lat": 38.916985333333336, "is_reserved": 0, "is_disabled": 0, "rental_uris": {"android": "https://dc.lft.to/lastmile_qr_scan", "ios": "https://dc.lft.to/lastmile_qr_scan"}, "name": "32583387bc8f5c21fe73c44d7ac247a4", "type": "electric_scooter"}, {"fusion_lat": 0.0, "bike_id": "704412615f0ac74a7eff9757d48ca78a", "fusion_lon": 0.0, "lon": -77.04872383333333, "lat": 38.913293333333336, "is_reserved": 0, "is_disabled": 0, "rental_uris": {"android": "https://dc.lft.to/lastmile_qr_scan", "ios": "https://dc.lft.to/lastmile_qr_scan"}, "name": "704412615f0ac74a7eff9757d48ca78a", "type": "electric_scooter"}, {"fusion_lat": 0.0, "bike_id": "f557c3ca08f55eaba2ede6da068e157d", "fusion_lon": 0.0, "lon": -77.00033633333334, "lat": 38.908097, "is_reserved": 0, "is_disabled": 0, "rental_uris": {"android": "https://dc.lft.to/lastmile_qr_scan", "ios": "https://dc.lft.to/lastmile_qr_scan"}, "name": "f557c3ca08f55eaba2ede6da068e157d", "type": "electric_scooter"}, {"fusion_lat": 0.0, "bike_id": "fc68968789a9a745f8f8ce39c4d37c1e", "fusion_lon": 0.0, "lon": -77.01741, "lat": 38.88739666666667, "is_reserved": 0, "is_disabled": 0, "rental_uris": {"android": "https://dc.lft.to/lastmile_qr_scan", "ios": "https://dc.lft.to/lastmile_qr_scan"}, "name": "fc68968789a9a745f8f8ce39c4d37c1e", "type": "electric_scooter"}, {"fusion_lat": 0.0, "bike_id": "75308012ee16a8490c7aca90cd58a867", "fusion_lon": 0.0, "lon": -77.043358, "lat": 38.908528833333335, "is_reserved": 0, "is_disabled": 0, "rental_uris": {"android": "https://dc.lft.to/lastmile_qr_scan", "ios": "https://dc.lft.to/lastmile_qr_scan"}, "name": "75308012ee16a8490c7aca90cd58a867", "type": "electric_scooter"}, {"fusion_lat": 0.0, "bike_id": "ad64d55810fe24dfff418a7eee81fd93", "fusion_lon": 0.0, "lon": -77.05292316666667, "lat": 38.90336083333333, "is_reserved": 0, "is_disabled": 0, "rental_uris": {"android": "https://dc.lft.to/lastmile_qr_scan", "ios": "https://dc.lft.to/lastmile_qr_scan"}, "name": "ad64d55810fe24dfff418a7eee81fd93", "type": "electric_scooter"}, {"fusion_lat": 0.0, "bike_id": "069060ce190b098d89eba1dcc40610f2", "fusion_lon": 0.0, "lon": -77.0213335, "lat": 38.919941333333334, "is_reserved": 0, "is_disabled": 0, "rental_uris": {"android": "https://dc.lft.to/lastmile_qr_scan", "ios": "https://dc.lft.to/lastmile_qr_scan"}, "name": "069060ce190b098d89eba1dcc40610f2", "type": "electric_scooter"}, {"fusion_lat": 0.0, "bike_id": "127ec274b639510103128414ad5596b0", "fusion_lon": 0.0, "lon": -77.01564266666666, "lat": 38.91491216666667, "is_reserved": 0, "is_disabled": 0, "rental_uris": {"android": "https://dc.lft.to/lastmile_qr_scan", "ios": "https://dc.lft.to/lastmile_qr_scan"}, "name": "127ec274b639510103128414ad5596b0", "type": "electric_scooter"}, {"fusion_lat": 0.0, "bike_id": "d258644e1b403432ef63cbd34ca16738", "fusion_lon": 0.0, "lon": -77.07797516666666, "lat": 38.94520966666666, "is_reserved": 0, "is_disabled": 0, "rental_uris": {"android": "https://dc.lft.to/lastmile_qr_scan", "ios": "https://dc.lft.to/lastmile_qr_scan"}, "name": "d258644e1b403432ef63cbd34ca16738", "type": "electric_scooter"}, {"fusion_lat": 0.0, "bike_id": "482b2ce32c7d3ff05e5dcc3dc4bb1d2b", "fusion_lon": 0.0, "lon": -76.987955, "lat": 38.89235566666667, "is_reserved": 0, "is_disabled": 0, "rental_uris": {"android": "https://dc.lft.to/lastmile_qr_scan", "ios": "https://dc.lft.to/lastmile_qr_scan"}, "name": "482b2ce32c7d3ff05e5dcc3dc4bb1d2b", "type": "electric_scooter"}, {"fusion_lat": 0.0, "bike_id": "53500af9e1851e7a0729dc3625333f26", "fusion_lon": 0.0, "lon": -77.00259333333334, "lat": 38.911125166666665, "is_reserved": 0, "is_disabled": 0, "rental_uris": {"android": "https://dc.lft.to/lastmile_qr_scan", "ios": "https://dc.lft.to/lastmile_qr_scan"}, "name": "53500af9e1851e7a0729dc3625333f26", "type": "electric_scooter"}, {"fusion_lat": 0.0, "bike_id": "75db07be25a3a6acbe71c731f91ef677", "fusion_lon": 0.0, "lon": -77.04107166666667, "lat": 38.915503333333334, "is_reserved": 0, "is_disabled": 0, "rental_uris": {"android": "https://dc.lft.to/lastmile_qr_scan", "ios": "https://dc.lft.to/lastmile_qr_scan"}, "name": "75db07be25a3a6acbe71c731f91ef677", "type": "electric_scooter"}, {"fusion_lat": 0.0, "bike_id": "d73bdd725fd2f80ee89cbdf11227f0b3", "fusion_lon": 0.0, "lon": -77.00646016666667, "lat": 38.87162683333333, "is_reserved": 0, "is_disabled": 0, "rental_uris": {"android": "https://dc.lft.to/lastmile_qr_scan", "ios": "https://dc.lft.to/lastmile_qr_scan"}, "name": "d73bdd725fd2f80ee89cbdf11227f0b3", "type": "electric_scooter"}, {"fusion_lat": 0.0, "bike_id": "83309bd4ae8595f6854f66746f9d74f7", "fusion_lon": 0.0, "lon": -77.031946, "lat": 38.91279183333333, "is_reserved": 0, "is_disabled": 0, "rental_uris": {"android": "https://dc.lft.to/lastmile_qr_scan", "ios": "https://dc.lft.to/lastmile_qr_scan"}, "name": "83309bd4ae8595f6854f66746f9d74f7", "type": "electric_scooter"}, {"fusion_lat": 0.0, "bike_id": "a273804328c4a90575eae13a20c1f1e9", "fusion_lon": 0.0, "lon": -77.03979833333334, "lat": 38.898974, "is_reserved": 0, "is_disabled": 0, "rental_uris": {"android": "https://dc.lft.to/lastmile_qr_scan", "ios": "https://dc.lft.to/lastmile_qr_scan"}, "name": "a273804328c4a90575eae13a20c1f1e9", "type": "electric_scooter"}, {"fusion_lat": 0.0, "bike_id": "f90d5e28e2252d85797ec1bfbb7392ae", "fusion_lon": 0.0, "lon": -77.031812, "lat": 38.924863333333334, "is_reserved": 0, "is_disabled": 0, "rental_uris": {"android": "https://dc.lft.to/lastmile_qr_scan", "ios": "https://dc.lft.to/lastmile_qr_scan"}, "name": "f90d5e28e2252d85797ec1bfbb7392ae", "type": "electric_scooter"}, {"fusion_lat": 0.0, "bike_id": "49e82c4f873edd710a9b78c6c5059085", "fusion_lon": 0.0, "lon": -77.03957483333333, "lat": 38.90138133333333, "is_reserved": 0, "is_disabled": 0, "rental_uris": {"android": "https://dc.lft.to/lastmile_qr_scan", "ios": "https://dc.lft.to/lastmile_qr_scan"}, "name": "49e82c4f873edd710a9b78c6c5059085", "type": "electric_scooter"}, {"fusion_lat": 0.0, "bike_id": "b874a0f0693b7133eb17f8f8815b6d30", "fusion_lon": 0.0, "lon": -77.001029, "lat": 38.9083565, "is_reserved": 0, "is_disabled": 0, "rental_uris": {"android": "https://dc.lft.to/lastmile_qr_scan", "ios": "https://dc.lft.to/lastmile_qr_scan"}, "name": "b874a0f0693b7133eb17f8f8815b6d30", "type": "electric_scooter"}, {"fusion_lat": 0.0, "bike_id": "55ff6caf2827f847b6930089ee9aa3cb", "fusion_lon": 0.0, "lon": -76.9547035, "lat": 38.88671016666667, "is_reserved": 0, "is_disabled": 0, "rental_uris": {"android": "https://dc.lft.to/lastmile_qr_scan", "ios": "https://dc.lft.to/lastmile_qr_scan"}, "name": "55ff6caf2827f847b6930089ee9aa3cb", "type": "electric_scooter"}, {"fusion_lat": 0.0, "bike_id": "f1093668a5e8909f3a6b3d40130df84e", "fusion_lon": 0.0, "lon": -77.04183316666666, "lat": 38.905328, "is_reserved": 0, "is_disabled": 0, "rental_uris": {"android": "https://dc.lft.to/lastmile_qr_scan", "ios": "https://dc.lft.to/lastmile_qr_scan"}, "name": "f1093668a5e8909f3a6b3d40130df84e", "type": "electric_scooter"}, {"fusion_lat": 0.0, "bike_id": "d394b7ced7ae7a3ca2e599afd6902e14", "fusion_lon": 0.0, "lon": -77.07231783333333, "lat": 38.93452533333333, "is_reserved": 0, "is_disabled": 0, "rental_uris": {"android": "https://dc.lft.to/lastmile_qr_scan", "ios": "https://dc.lft.to/lastmile_qr_scan"}, "name": "d394b7ced7ae7a3ca2e599afd6902e14", "type": "electric_scooter"}, {"fusion_lat": 0.0, "bike_id": "2cda184a535021915b4e76a8e1ef0e92", "fusion_lon": 0.0, "lon": -77.03718666666667, "lat": 38.93062583333333, "is_reserved": 0, "is_disabled": 0, "rental_uris": {"android": "https://dc.lft.to/lastmile_qr_scan", "ios": "https://dc.lft.to/lastmile_qr_scan"}, "name": "2cda184a535021915b4e76a8e1ef0e92", "type": "electric_scooter"}, {"fusion_lat": 0.0, "bike_id": "f841fbbaf98ac49900b981b65ac5622a", "fusion_lon": 0.0, "lon": -77.03310683333333, "lat": 38.911177, "is_reserved": 0, "is_disabled": 0, "rental_uris": {"android": "https://dc.lft.to/lastmile_qr_scan", "ios": "https://dc.lft.to/lastmile_qr_scan"}, "name": "f841fbbaf98ac49900b981b65ac5622a", "type": "electric_scooter"}, {"fusion_lat": 0.0, "bike_id": "4d70cc8f61c33346f44c209a46b1ef71", "fusion_lon": 0.0, "lon": -77.04867183333333, "lat": 38.91616616666667, "is_reserved": 0, "is_disabled": 0, "rental_uris": {"android": "https://dc.lft.to/lastmile_qr_scan", "ios": "https://dc.lft.to/lastmile_qr_scan"}, "name": "4d70cc8f61c33346f44c209a46b1ef71", "type": "electric_scooter"}, {"fusion_lat": 0.0, "bike_id": "1739dff5a29f107cd18c052112d98168", "fusion_lon": 0.0, "lon": -77.024748, "lat": 38.879997833333334, "is_reserved": 0, "is_disabled": 0, "rental_uris": {"android": "https://dc.lft.to/lastmile_qr_scan", "ios": "https://dc.lft.to/lastmile_qr_scan"}, "name": "1739dff5a29f107cd18c052112d98168", "type": "electric_scooter"}, {"fusion_lat": 0.0, "bike_id": "ee2fb63f56059a88f789ec6b268abc4a", "fusion_lon": 0.0, "lon": -76.98528916666666, "lat": 38.86682316666667, "is_reserved": 0, "is_disabled": 0, "rental_uris": {"android": "https://dc.lft.to/lastmile_qr_scan", "ios": "https://dc.lft.to/lastmile_qr_scan"}, "name": "ee2fb63f56059a88f789ec6b268abc4a", "type": "electric_scooter"}, {"fusion_lat": 0.0, "bike_id": "8f07169474c298bc81919b8774c5441c", "fusion_lon": 0.0, "lon": -76.9927525, "lat": 38.896003, "is_reserved": 0, "is_disabled": 0, "rental_uris": {"android": "https://dc.lft.to/lastmile_qr_scan", "ios": "https://dc.lft.to/lastmile_qr_scan"}, "name": "8f07169474c298bc81919b8774c5441c", "type": "electric_scooter"}, {"fusion_lat": 0.0, "bike_id": "8b429e0b9d6b050f20ccf3be71a6565e", "fusion_lon": 0.0, "lon": -76.90744366666667, "lat": 38.896122, "is_reserved": 0, "is_disabled": 0, "rental_uris": {"android": "https://dc.lft.to/lastmile_qr_scan", "ios": "https://dc.lft.to/lastmile_qr_scan"}, "name": "8b429e0b9d6b050f20ccf3be71a6565e", "type": "electric_bike"}, {"fusion_lat": 0.0, "bike_id": "71c7b6fffceba244da7afe1e69c99651", "fusion_lon": 0.0, "lon": -77.04678333333334, "lat": 38.8956165, "is_reserved": 0, "is_disabled": 0, "rental_uris": {"android": "https://dc.lft.to/lastmile_qr_scan", "ios": "https://dc.lft.to/lastmile_qr_scan"}, "name": "71c7b6fffceba244da7afe1e69c99651", "type": "electric_scooter"}, {"fusion_lat": 0.0, "bike_id": "873189428dd472b037dd6e0c58e904d8", "fusion_lon": 0.0, "lon": -77.02208366666666, "lat": 38.9246225, "is_reserved": 0, "is_disabled": 0, "rental_uris": {"android": "https://dc.lft.to/lastmile_qr_scan", "ios": "https://dc.lft.to/lastmile_qr_scan"}, "name": "873189428dd472b037dd6e0c58e904d8", "type": "electric_scooter"}, {"fusion_lat": 0.0, "bike_id": "9981201100a2ce8a015c0653fc4f4880", "fusion_lon": 0.0, "lon": -77.05484366666667, "lat": 38.89786333333333, "is_reserved": 0, "is_disabled": 0, "rental_uris": {"android": "https://dc.lft.to/lastmile_qr_scan", "ios": "https://dc.lft.to/lastmile_qr_scan"}, "name": "9981201100a2ce8a015c0653fc4f4880", "type": "electric_scooter"}, {"fusion_lat": 0.0, "bike_id": "14e100c1ae555d174c7ed61637126b62", "fusion_lon": 0.0, "lon": -77.00530416666666, "lat": 38.90977933333333, "is_reserved": 0, "is_disabled": 0, "rental_uris": {"android": "https://dc.lft.to/lastmile_qr_scan", "ios": "https://dc.lft.to/lastmile_qr_scan"}, "name": "14e100c1ae555d174c7ed61637126b62", "type": "electric_scooter"}, {"fusion_lat": 0.0, "bike_id": "45726bcf66a9f58ff2842a2db1e15db1", "fusion_lon": 0.0, "lon": -77.026271, "lat": 38.933361166666664, "is_reserved": 0, "is_disabled": 0, "rental_uris": {"android": "https://dc.lft.to/lastmile_qr_scan", "ios": "https://dc.lft.to/lastmile_qr_scan"}, "name": "45726bcf66a9f58ff2842a2db1e15db1", "type": "electric_scooter"}, {"fusion_lat": 0.0, "bike_id": "ff92b23fb79823bcc366e572c203b3fb", "fusion_lon": 0.0, "lon": -77.00965283333333, "lat": 38.917020666666666, "is_reserved": 0, "is_disabled": 0, "rental_uris": {"android": "https://dc.lft.to/lastmile_qr_scan", "ios": "https://dc.lft.to/lastmile_qr_scan"}, "name": "ff92b23fb79823bcc366e572c203b3fb", "type": "electric_scooter"}, {"fusion_lat": 0.0, "bike_id": "fc93e537f042488d1ffc56e1dba87e36", "fusion_lon": 0.0, "lon": -77.02967966666667, "lat": 38.923092, "is_reserved": 0, "is_disabled": 0, "rental_uris": {"android": "https://dc.lft.to/lastmile_qr_scan", "ios": "https://dc.lft.to/lastmile_qr_scan"}, "name": "fc93e537f042488d1ffc56e1dba87e36", "type": "electric_scooter"}, {"fusion_lat": 0.0, "bike_id": "ce2a13accfa979c036b89ee88111ba7b", "fusion_lon": 0.0, "lon": -77.0448995, "lat": 38.911916, "is_reserved": 0, "is_disabled": 0, "rental_uris": {"android": "https://dc.lft.to/lastmile_qr_scan", "ios": "https://dc.lft.to/lastmile_qr_scan"}, "name": "ce2a13accfa979c036b89ee88111ba7b", "type": "electric_scooter"}, {"fusion_lat": 0.0, "bike_id": "e29109f9fb7d08d326dcbecf4cdccfa2", "fusion_lon": 0.0, "lon": -77.00750983333333, "lat": 38.92524366666667, "is_reserved": 0, "is_disabled": 0, "rental_uris": {"android": "https://dc.lft.to/lastmile_qr_scan", "ios": "https://dc.lft.to/lastmile_qr_scan"}, "name": "e29109f9fb7d08d326dcbecf4cdccfa2", "type": "electric_scooter"}, {"fusion_lat": 0.0, "bike_id": "709368c02d687fb1b4026f8c93ac7935", "fusion_lon": 0.0, "lon": -77.041963, "lat": 38.92052966666667, "is_reserved": 0, "is_disabled": 0, "rental_uris": {"android": "https://dc.lft.to/lastmile_qr_scan", "ios": "https://dc.lft.to/lastmile_qr_scan"}, "name": "709368c02d687fb1b4026f8c93ac7935", "type": "electric_scooter"}, {"fusion_lat": 0.0, "bike_id": "4daae9c1ba115455ff505034da1a7614", "fusion_lon": 0.0, "lon": -77.04564883333333, "lat": 38.90557583333333, "is_reserved": 0, "is_disabled": 0, "rental_uris": {"android": "https://dc.lft.to/lastmile_qr_scan", "ios": "https://dc.lft.to/lastmile_qr_scan"}, "name": "4daae9c1ba115455ff505034da1a7614", "type": "electric_bike"}, {"fusion_lat": 0.0, "bike_id": "16098ae756dc4512333c2a7494444818", "fusion_lon": 0.0, "lon": -76.95971333333334, "lat": 38.948021, "is_reserved": 0, "is_disabled": 0, "rental_uris": {"android": "https://dc.lft.to/lastmile_qr_scan", "ios": "https://dc.lft.to/lastmile_qr_scan"}, "name": "16098ae756dc4512333c2a7494444818", "type": "electric_bike"}, {"fusion_lat": 0.0, "bike_id": "14f3e45f8be55326a9f038cc80193ba9", "fusion_lon": 0.0, "lon": -77.027829, "lat": 38.93188033333333, "is_reserved": 0, "is_disabled": 0, "rental_uris": {"android": "https://dc.lft.to/lastmile_qr_scan", "ios": "https://dc.lft.to/lastmile_qr_scan"}, "name": "14f3e45f8be55326a9f038cc80193ba9", "type": "electric_scooter"}, {"fusion_lat": 0.0, "bike_id": "7ee47bfb20c19c29681213d1c9d64ffb", "fusion_lon": 0.0, "lon": -77.02236666666667, "lat": 38.8921725, "is_reserved": 0, "is_disabled": 0, "rental_uris": {"android": "https://dc.lft.to/lastmile_qr_scan", "ios": "https://dc.lft.to/lastmile_qr_scan"}, "name": "7ee47bfb20c19c29681213d1c9d64ffb", "type": "electric_scooter"}, {"fusion_lat": 0.0, "bike_id": "f0ad9cd6bf1a8658875fb859d962bf68", "fusion_lon": 0.0, "lon": -77.04312816666666, "lat": 38.92356366666667, "is_reserved": 0, "is_disabled": 0, "rental_uris": {"android": "https://dc.lft.to/lastmile_qr_scan", "ios": "https://dc.lft.to/lastmile_qr_scan"}, "name": "f0ad9cd6bf1a8658875fb859d962bf68", "type": "electric_scooter"}, {"fusion_lat": 0.0, "bike_id": "4ce4ebdc0a7d6843799194bb2a7c3b5d", "fusion_lon": 0.0, "lon": -77.03210866666667, "lat": 38.914699, "is_reserved": 0, "is_disabled": 0, "rental_uris": {"android": "https://dc.lft.to/lastmile_qr_scan", "ios": "https://dc.lft.to/lastmile_qr_scan"}, "name": "4ce4ebdc0a7d6843799194bb2a7c3b5d", "type": "electric_scooter"}, {"fusion_lat": 0.0, "bike_id": "89c9c0ef04e0cae681bc904af63e06be", "fusion_lon": 0.0, "lon": -77.02021266666667, "lat": 38.91401616666667, "is_reserved": 0, "is_disabled": 0, "rental_uris": {"android": "https://dc.lft.to/lastmile_qr_scan", "ios": "https://dc.lft.to/lastmile_qr_scan"}, "name": "89c9c0ef04e0cae681bc904af63e06be", "type": "electric_scooter"}, {"fusion_lat": 0.0, "bike_id": "03cf4d4074db93bbb48794b0fb80b8f6", "fusion_lon": 0.0, "lon": -77.0271425, "lat": 38.90666616666667, "is_reserved": 0, "is_disabled": 0, "rental_uris": {"android": "https://dc.lft.to/lastmile_qr_scan", "ios": "https://dc.lft.to/lastmile_qr_scan"}, "name": "03cf4d4074db93bbb48794b0fb80b8f6", "type": "electric_scooter"}, {"fusion_lat": 0.0, "bike_id": "11ee7f326717be3fbaa2499a408d7860", "fusion_lon": 0.0, "lon": -77.23316916666667, "lat": 38.87277866666667, "is_reserved": 0, "is_disabled": 0, "rental_uris": {"android": "https://dc.lft.to/lastmile_qr_scan", "ios": "https://dc.lft.to/lastmile_qr_scan"}, "name": "11ee7f326717be3fbaa2499a408d7860", "type": "electric_bike"}, {"fusion_lat": 0.0, "bike_id": "5d543e8aaf6faad714d2df6996fd5915", "fusion_lon": 0.0, "lon": -77.02716666666667, "lat": 38.897510833333335, "is_reserved": 0, "is_disabled": 0, "rental_uris": {"android": "https://dc.lft.to/lastmile_qr_scan", "ios": "https://dc.lft.to/lastmile_qr_scan"}, "name": "5d543e8aaf6faad714d2df6996fd5915", "type": "electric_scooter"}, {"fusion_lat": 0.0, "bike_id": "a241f5735b29f903aca414195a9d911f", "fusion_lon": 0.0, "lon": -76.99035316666667, "lat": 38.90292066666667, "is_reserved": 0, "is_disabled": 0, "rental_uris": {"android": "https://dc.lft.to/lastmile_qr_scan", "ios": "https://dc.lft.to/lastmile_qr_scan"}, "name": "a241f5735b29f903aca414195a9d911f", "type": "electric_scooter"}, {"fusion_lat": 0.0, "bike_id": "6d416c0f9ae289348eb8c2321c232859", "fusion_lon": 0.0, "lon": -77.22798133333333, "lat": 38.91011816666666, "is_reserved": 0, "is_disabled": 0, "rental_uris": {"android": "https://dc.lft.to/lastmile_qr_scan", "ios": "https://dc.lft.to/lastmile_qr_scan"}, "name": "6d416c0f9ae289348eb8c2321c232859", "type": "electric_bike"}, {"fusion_lat": 0.0, "bike_id": "3e6084d8f77dc2b0706da70b4875a7a1", "fusion_lon": 0.0, "lon": -77.02791033333334, "lat": 38.95402933333333, "is_reserved": 0, "is_disabled": 0, "rental_uris": {"android": "https://dc.lft.to/lastmile_qr_scan", "ios": "https://dc.lft.to/lastmile_qr_scan"}, "name": "3e6084d8f77dc2b0706da70b4875a7a1", "type": "electric_scooter"}, {"fusion_lat": 0.0, "bike_id": "e6f8acb1587f70243999d90caa5baae8", "fusion_lon": 0.0, "lon": -77.02843916666667, "lat": 38.887286833333334, "is_reserved": 0, "is_disabled": 0, "rental_uris": {"android": "https://dc.lft.to/lastmile_qr_scan", "ios": "https://dc.lft.to/lastmile_qr_scan"}, "name": "e6f8acb1587f70243999d90caa5baae8", "type": "electric_scooter"}, {"fusion_lat": 0.0, "bike_id": "377880f1cffdbacbd0ebbdc36ac5e980", "fusion_lon": 0.0, "lon": -77.01975633333333, "lat": 38.96027566666667, "is_reserved": 0, "is_disabled": 0, "rental_uris": {"android": "https://dc.lft.to/lastmile_qr_scan", "ios": "https://dc.lft.to/lastmile_qr_scan"}, "name": "377880f1cffdbacbd0ebbdc36ac5e980", "type": "electric_scooter"}, {"fusion_lat": 0.0, "bike_id": "661ebcf6cb0b2362cc9592bb6901da85", "fusion_lon": 0.0, "lon": -77.02491983333333, "lat": 38.927399333333334, "is_reserved": 0, "is_disabled": 0, "rental_uris": {"android": "https://dc.lft.to/lastmile_qr_scan", "ios": "https://dc.lft.to/lastmile_qr_scan"}, "name": "661ebcf6cb0b2362cc9592bb6901da85", "type": "electric_scooter"}, {"fusion_lat": 0.0, "bike_id": "d450d9556fbc67c2dfc8a2f57bcbac84", "fusion_lon": 0.0, "lon": -76.98709816666667, "lat": 38.86691016666666, "is_reserved": 0, "is_disabled": 0, "rental_uris": {"android": "https://dc.lft.to/lastmile_qr_scan", "ios": "https://dc.lft.to/lastmile_qr_scan"}, "name": "d450d9556fbc67c2dfc8a2f57bcbac84", "type": "electric_scooter"}, {"fusion_lat": 0.0, "bike_id": "77077910ca54bf6eeaabad17b8c26529", "fusion_lon": 0.0, "lon": -77.05030116666667, "lat": 38.90077566666667, "is_reserved": 0, "is_disabled": 0, "rental_uris": {"android": "https://dc.lft.to/lastmile_qr_scan", "ios": "https://dc.lft.to/lastmile_qr_scan"}, "name": "77077910ca54bf6eeaabad17b8c26529", "type": "electric_scooter"}, {"fusion_lat": 0.0, "bike_id": "fdce528e3fea28820f0a3a920efaf015", "fusion_lon": 0.0, "lon": -77.05486966666666, "lat": 38.935436833333334, "is_reserved": 0, "is_disabled": 0, "rental_uris": {"android": "https://dc.lft.to/lastmile_qr_scan", "ios": "https://dc.lft.to/lastmile_qr_scan"}, "name": "fdce528e3fea28820f0a3a920efaf015", "type": "electric_scooter"}, {"fusion_lat": 0.0, "bike_id": "2573dfc74154e467d79c1297e55ea447", "fusion_lon": 0.0, "lon": -76.95584416666667, "lat": 38.967344, "is_reserved": 0, "is_disabled": 0, "rental_uris": {"android": "https://dc.lft.to/lastmile_qr_scan", "ios": "https://dc.lft.to/lastmile_qr_scan"}, "name": "2573dfc74154e467d79c1297e55ea447", "type": "electric_bike"}, {"fusion_lat": 0.0, "bike_id": "cb7135df9bf9e8c47e360f14adee874b", "fusion_lon": 0.0, "lon": -77.04678416666667, "lat": 38.89551566666667, "is_reserved": 0, "is_disabled": 0, "rental_uris": {"android": "https://dc.lft.to/lastmile_qr_scan", "ios": "https://dc.lft.to/lastmile_qr_scan"}, "name": "cb7135df9bf9e8c47e360f14adee874b", "type": "electric_scooter"}, {"fusion_lat": 0.0, "bike_id": "f0ad7ff27daca4a3b9d82e936f259060", "fusion_lon": 0.0, "lon": -77.008896, "lat": 38.92649466666667, "is_reserved": 0, "is_disabled": 0, "rental_uris": {"android": "https://dc.lft.to/lastmile_qr_scan", "ios": "https://dc.lft.to/lastmile_qr_scan"}, "name": "f0ad7ff27daca4a3b9d82e936f259060", "type": "electric_scooter"}, {"fusion_lat": 0.0, "bike_id": "f0b960c2f1e5ba4705cf5886692f1407", "fusion_lon": 0.0, "lon": -77.0222745, "lat": 38.935512833333334, "is_reserved": 0, "is_disabled": 0, "rental_uris": {"android": "https://dc.lft.to/lastmile_qr_scan", "ios": "https://dc.lft.to/lastmile_qr_scan"}, "name": "f0b960c2f1e5ba4705cf5886692f1407", "type": "electric_scooter"}, {"fusion_lat": 0.0, "bike_id": "f70178435a82e5c5457687e8a5761af8", "fusion_lon": 0.0, "lon": -77.02128683333333, "lat": 38.89496116666667, "is_reserved": 0, "is_disabled": 0, "rental_uris": {"android": "https://dc.lft.to/lastmile_qr_scan", "ios": "https://dc.lft.to/lastmile_qr_scan"}, "name": "f70178435a82e5c5457687e8a5761af8", "type": "electric_scooter"}, {"fusion_lat": 0.0, "bike_id": "da1aad80505a4aff56c1b6e45cdc7cb8", "fusion_lon": 0.0, "lon": -77.04376633333334, "lat": 38.89221783333333, "is_reserved": 0, "is_disabled": 0, "rental_uris": {"android": "https://dc.lft.to/lastmile_qr_scan", "ios": "https://dc.lft.to/lastmile_qr_scan"}, "name": "da1aad80505a4aff56c1b6e45cdc7cb8", "type": "electric_scooter"}, {"fusion_lat": 0.0, "bike_id": "10abadac3e6da9b164b8be3e47a5b6c8", "fusion_lon": 0.0, "lon": -76.98231466666667, "lat": 38.86894783333334, "is_reserved": 0, "is_disabled": 0, "rental_uris": {"android": "https://dc.lft.to/lastmile_qr_scan", "ios": "https://dc.lft.to/lastmile_qr_scan"}, "name": "10abadac3e6da9b164b8be3e47a5b6c8", "type": "electric_scooter"}, {"fusion_lat": 0.0, "bike_id": "f07b4aa2c17191554fdf8113155eb6f6", "fusion_lon": 0.0, "lon": -77.019997, "lat": 38.88738816666667, "is_reserved": 0, "is_disabled": 0, "rental_uris": {"android": "https://dc.lft.to/lastmile_qr_scan", "ios": "https://dc.lft.to/lastmile_qr_scan"}, "name": "f07b4aa2c17191554fdf8113155eb6f6", "type": "electric_scooter"}, {"fusion_lat": 0.0, "bike_id": "a8abaadf6b55ba17222d8b0eba245e41", "fusion_lon": 0.0, "lon": -77.03663416666667, "lat": 38.9304365, "is_reserved": 0, "is_disabled": 0, "rental_uris": {"android": "https://dc.lft.to/lastmile_qr_scan", "ios": "https://dc.lft.to/lastmile_qr_scan"}, "name": "a8abaadf6b55ba17222d8b0eba245e41", "type": "electric_scooter"}, {"fusion_lat": 0.0, "bike_id": "16d701b3a54db0a50a02d22d712a5ca2", "fusion_lon": 0.0, "lon": -77.01404833333333, "lat": 38.928513, "is_reserved": 0, "is_disabled": 0, "rental_uris": {"android": "https://dc.lft.to/lastmile_qr_scan", "ios": "https://dc.lft.to/lastmile_qr_scan"}, "name": "16d701b3a54db0a50a02d22d712a5ca2", "type": "electric_scooter"}, {"fusion_lat": 0.0, "bike_id": "d4f46699f19e3a38a9b5059f239dba09", "fusion_lon": 0.0, "lon": -77.02798233333333, "lat": 38.90357216666666, "is_reserved": 0, "is_disabled": 0, "rental_uris": {"android": "https://dc.lft.to/lastmile_qr_scan", "ios": "https://dc.lft.to/lastmile_qr_scan"}, "name": "d4f46699f19e3a38a9b5059f239dba09", "type": "electric_scooter"}, {"fusion_lat": 0.0, "bike_id": "0aac9a5efd90c786ef784869768c497a", "fusion_lon": 0.0, "lon": -77.04538983333333, "lat": 38.913247166666665, "is_reserved": 0, "is_disabled": 0, "rental_uris": {"android": "https://dc.lft.to/lastmile_qr_scan", "ios": "https://dc.lft.to/lastmile_qr_scan"}, "name": "0aac9a5efd90c786ef784869768c497a", "type": "electric_scooter"}, {"fusion_lat": 0.0, "bike_id": "e3be912c313a3be5c31fccd73c5cb49b", "fusion_lon": 0.0, "lon": -77.04378983333334, "lat": 38.892235166666666, "is_reserved": 0, "is_disabled": 0, "rental_uris": {"android": "https://dc.lft.to/lastmile_qr_scan", "ios": "https://dc.lft.to/lastmile_qr_scan"}, "name": "e3be912c313a3be5c31fccd73c5cb49b", "type": "electric_scooter"}, {"fusion_lat": 0.0, "bike_id": "ac4b8c414a7607bcb29982f9f9daeeaa", "fusion_lon": 0.0, "lon": -76.9317635, "lat": 38.8988465, "is_reserved": 0, "is_disabled": 0, "rental_uris": {"android": "https://dc.lft.to/lastmile_qr_scan", "ios": "https://dc.lft.to/lastmile_qr_scan"}, "name": "ac4b8c414a7607bcb29982f9f9daeeaa", "type": "electric_scooter"}, {"fusion_lat": 0.0, "bike_id": "73338d5564c07e93eb1706174f3fa5a7", "fusion_lon": 0.0, "lon": -77.03293583333334, "lat": 38.916428333333336, "is_reserved": 0, "is_disabled": 0, "rental_uris": {"android": "https://dc.lft.to/lastmile_qr_scan", "ios": "https://dc.lft.to/lastmile_qr_scan"}, "name": "73338d5564c07e93eb1706174f3fa5a7", "type": "electric_scooter"}, {"fusion_lat": 0.0, "bike_id": "72d194619205c84ea7430a6803fc11c8", "fusion_lon": 0.0, "lon": -77.06519466666667, "lat": 38.903920166666666, "is_reserved": 0, "is_disabled": 0, "rental_uris": {"android": "https://dc.lft.to/lastmile_qr_scan", "ios": "https://dc.lft.to/lastmile_qr_scan"}, "name": "72d194619205c84ea7430a6803fc11c8", "type": "electric_scooter"}, {"fusion_lat": 0.0, "bike_id": "16749a5edfb2c2487bad8fcb44ebd67e", "fusion_lon": 0.0, "lon": -77.03637333333333, "lat": 38.92745883333333, "is_reserved": 0, "is_disabled": 0, "rental_uris": {"android": "https://dc.lft.to/lastmile_qr_scan", "ios": "https://dc.lft.to/lastmile_qr_scan"}, "name": "16749a5edfb2c2487bad8fcb44ebd67e", "type": "electric_scooter"}, {"fusion_lat": 0.0, "bike_id": "84caafa9f759f3b6bd3b549ff9b709b6", "fusion_lon": 0.0, "lon": -76.98614783333333, "lat": 38.88286016666667, "is_reserved": 0, "is_disabled": 0, "rental_uris": {"android": "https://dc.lft.to/lastmile_qr_scan", "ios": "https://dc.lft.to/lastmile_qr_scan"}, "name": "84caafa9f759f3b6bd3b549ff9b709b6", "type": "electric_scooter"}, {"fusion_lat": 0.0, "bike_id": "fac141828d860c45a708efd139134304", "fusion_lon": 0.0, "lon": -77.028398, "lat": 38.887393833333334, "is_reserved": 0, "is_disabled": 0, "rental_uris": {"android": "https://dc.lft.to/lastmile_qr_scan", "ios": "https://dc.lft.to/lastmile_qr_scan"}, "name": "fac141828d860c45a708efd139134304", "type": "electric_scooter"}, {"fusion_lat": 0.0, "bike_id": "88a4375b09b471f5a53ca74df798661b", "fusion_lon": 0.0, "lon": -77.02661433333333, "lat": 38.93100783333333, "is_reserved": 0, "is_disabled": 0, "rental_uris": {"android": "https://dc.lft.to/lastmile_qr_scan", "ios": "https://dc.lft.to/lastmile_qr_scan"}, "name": "88a4375b09b471f5a53ca74df798661b", "type": "electric_scooter"}, {"fusion_lat": 0.0, "bike_id": "dc73a0ee529a63ebb73812be8e66dd77", "fusion_lon": 0.0, "lon": -77.02760516666666, "lat": 38.95775183333333, "is_reserved": 0, "is_disabled": 0, "rental_uris": {"android": "https://dc.lft.to/lastmile_qr_scan", "ios": "https://dc.lft.to/lastmile_qr_scan"}, "name": "dc73a0ee529a63ebb73812be8e66dd77", "type": "electric_bike"}, {"fusion_lat": 0.0, "bike_id": "0008cbd32c31504111593b02d204e431", "fusion_lon": 0.0, "lon": -77.04621666666667, "lat": 38.92054683333333, "is_reserved": 0, "is_disabled": 0, "rental_uris": {"android": "https://dc.lft.to/lastmile_qr_scan", "ios": "https://dc.lft.to/lastmile_qr_scan"}, "name": "0008cbd32c31504111593b02d204e431", "type": "electric_scooter"}, {"fusion_lat": 0.0, "bike_id": "87c96122a23fb22aaadf81e79c6c6592", "fusion_lon": 0.0, "lon": -77.08073716666667, "lat": 39.05270516666667, "is_reserved": 0, "is_disabled": 0, "rental_uris": {"android": "https://dc.lft.to/lastmile_qr_scan", "ios": "https://dc.lft.to/lastmile_qr_scan"}, "name": "87c96122a23fb22aaadf81e79c6c6592", "type": "electric_bike"}, {"fusion_lat": 0.0, "bike_id": "57086b66bdcbd60a794e1b58f76b99ec", "fusion_lon": 0.0, "lon": -76.9983495, "lat": 38.90490716666667, "is_reserved": 0, "is_disabled": 0, "rental_uris": {"android": "https://dc.lft.to/lastmile_qr_scan", "ios": "https://dc.lft.to/lastmile_qr_scan"}, "name": "57086b66bdcbd60a794e1b58f76b99ec", "type": "electric_scooter"}, {"fusion_lat": 0.0, "bike_id": "55980a46120f0d9a6eae3d9bf239ebd1", "fusion_lon": 0.0, "lon": -77.028158, "lat": 38.9003475, "is_reserved": 0, "is_disabled": 0, "rental_uris": {"android": "https://dc.lft.to/lastmile_qr_scan", "ios": "https://dc.lft.to/lastmile_qr_scan"}, "name": "55980a46120f0d9a6eae3d9bf239ebd1", "type": "electric_scooter"}, {"fusion_lat": 0.0, "bike_id": "9cc6139b8e4194ebc9048f68434e4348", "fusion_lon": 0.0, "lon": -77.027322, "lat": 38.94371366666667, "is_reserved": 0, "is_disabled": 0, "rental_uris": {"android": "https://dc.lft.to/lastmile_qr_scan", "ios": "https://dc.lft.to/lastmile_qr_scan"}, "name": "9cc6139b8e4194ebc9048f68434e4348", "type": "electric_scooter"}, {"fusion_lat": 0.0, "bike_id": "0365a7fa3b5b9f2a8404fa735f1236eb", "fusion_lon": 0.0, "lon": -77.04346266666667, "lat": 38.93327383333333, "is_reserved": 0, "is_disabled": 0, "rental_uris": {"android": "https://dc.lft.to/lastmile_qr_scan", "ios": "https://dc.lft.to/lastmile_qr_scan"}, "name": "0365a7fa3b5b9f2a8404fa735f1236eb", "type": "electric_scooter"}, {"fusion_lat": 0.0, "bike_id": "fb90b1d858201eb00585a43c20433b8b", "fusion_lon": 0.0, "lon": -77.0361725, "lat": 38.923326833333334, "is_reserved": 0, "is_disabled": 0, "rental_uris": {"android": "https://dc.lft.to/lastmile_qr_scan", "ios": "https://dc.lft.to/lastmile_qr_scan"}, "name": "fb90b1d858201eb00585a43c20433b8b", "type": "electric_scooter"}, {"fusion_lat": 0.0, "bike_id": "167f7bbc5f53c58ad6976c181849e9ec", "fusion_lon": 0.0, "lon": -77.04982216666667, "lat": 39.03551383333333, "is_reserved": 0, "is_disabled": 0, "rental_uris": {"android": "https://dc.lft.to/lastmile_qr_scan", "ios": "https://dc.lft.to/lastmile_qr_scan"}, "name": "167f7bbc5f53c58ad6976c181849e9ec", "type": "electric_bike"}, {"fusion_lat": 0.0, "bike_id": "91a2915f3f675ab289767c29d915894c", "fusion_lon": 0.0, "lon": -76.99298683333333, "lat": 38.92103133333333, "is_reserved": 0, "is_disabled": 0, "rental_uris": {"android": "https://dc.lft.to/lastmile_qr_scan", "ios": "https://dc.lft.to/lastmile_qr_scan"}, "name": "91a2915f3f675ab289767c29d915894c", "type": "electric_scooter"}, {"fusion_lat": 0.0, "bike_id": "e3c0eaf155b1a685cf33108dc2f44003", "fusion_lon": 0.0, "lon": -77.01205566666667, "lat": 38.885521833333335, "is_reserved": 0, "is_disabled": 0, "rental_uris": {"android": "https://dc.lft.to/lastmile_qr_scan", "ios": "https://dc.lft.to/lastmile_qr_scan"}, "name": "e3c0eaf155b1a685cf33108dc2f44003", "type": "electric_scooter"}, {"fusion_lat": 0.0, "bike_id": "0dfb34de6ee257a0c6ac88c488e0bd54", "fusion_lon": 0.0, "lon": -77.01545316666666, "lat": 38.9412545, "is_reserved": 0, "is_disabled": 0, "rental_uris": {"android": "https://dc.lft.to/lastmile_qr_scan", "ios": "https://dc.lft.to/lastmile_qr_scan"}, "name": "0dfb34de6ee257a0c6ac88c488e0bd54", "type": "electric_scooter"}, {"fusion_lat": 0.0, "bike_id": "560c6a01354361f37910b0ec84041a61", "fusion_lon": 0.0, "lon": -77.04177333333334, "lat": 38.8989745, "is_reserved": 0, "is_disabled": 0, "rental_uris": {"android": "https://dc.lft.to/lastmile_qr_scan", "ios": "https://dc.lft.to/lastmile_qr_scan"}, "name": "560c6a01354361f37910b0ec84041a61", "type": "electric_scooter"}, {"fusion_lat": 0.0, "bike_id": "96ad7318621fd8f96e9e5446cb0441ec", "fusion_lon": 0.0, "lon": -77.01571216666666, "lat": 38.876580833333335, "is_reserved": 0, "is_disabled": 0, "rental_uris": {"android": "https://dc.lft.to/lastmile_qr_scan", "ios": "https://dc.lft.to/lastmile_qr_scan"}, "name": "96ad7318621fd8f96e9e5446cb0441ec", "type": "electric_scooter"}, {"fusion_lat": 0.0, "bike_id": "139e04afefbd74ac310b561b54ec1366", "fusion_lon": 0.0, "lon": -77.028114, "lat": 38.897409833333334, "is_reserved": 0, "is_disabled": 0, "rental_uris": {"android": "https://dc.lft.to/lastmile_qr_scan", "ios": "https://dc.lft.to/lastmile_qr_scan"}, "name": "139e04afefbd74ac310b561b54ec1366", "type": "electric_scooter"}, {"fusion_lat": 0.0, "bike_id": "15b58742c53f0a2f71d5690255ba878d", "fusion_lon": 0.0, "lon": -77.03076283333333, "lat": 38.92240616666667, "is_reserved": 0, "is_disabled": 0, "rental_uris": {"android": "https://dc.lft.to/lastmile_qr_scan", "ios": "https://dc.lft.to/lastmile_qr_scan"}, "name": "15b58742c53f0a2f71d5690255ba878d", "type": "electric_scooter"}, {"fusion_lat": 0.0, "bike_id": "7e2977422f3ed302fd7bed83bc5fc41c", "fusion_lon": 0.0, "lon": -77.107334, "lat": 38.9648345, "is_reserved": 0, "is_disabled": 0, "rental_uris": {"android": "https://dc.lft.to/lastmile_qr_scan", "ios": "https://dc.lft.to/lastmile_qr_scan"}, "name": "7e2977422f3ed302fd7bed83bc5fc41c", "type": "electric_bike"}, {"fusion_lat": 0.0, "bike_id": "8c47ed06d2c52a4f3daf42f8e4f751eb", "fusion_lon": 0.0, "lon": -77.013427, "lat": 38.929604833333336, "is_reserved": 0, "is_disabled": 0, "rental_uris": {"android": "https://dc.lft.to/lastmile_qr_scan", "ios": "https://dc.lft.to/lastmile_qr_scan"}, "name": "8c47ed06d2c52a4f3daf42f8e4f751eb", "type": "electric_scooter"}, {"fusion_lat": 0.0, "bike_id": "0db06fd0ae9aa3234673ca7d2d8eeb9d", "fusion_lon": 0.0, "lon": -77.022709, "lat": 38.926712333333334, "is_reserved": 0, "is_disabled": 0, "rental_uris": {"android": "https://dc.lft.to/lastmile_qr_scan", "ios": "https://dc.lft.to/lastmile_qr_scan"}, "name": "0db06fd0ae9aa3234673ca7d2d8eeb9d", "type": "electric_scooter"}, {"fusion_lat": 0.0, "bike_id": "4e34231385ce0d816a4f7f03797384c9", "fusion_lon": 0.0, "lon": -77.03077933333333, "lat": 38.880354833333335, "is_reserved": 0, "is_disabled": 0, "rental_uris": {"android": "https://dc.lft.to/lastmile_qr_scan", "ios": "https://dc.lft.to/lastmile_qr_scan"}, "name": "4e34231385ce0d816a4f7f03797384c9", "type": "electric_scooter"}, {"fusion_lat": 0.0, "bike_id": "359e4006bbc7af1c040d46eab9867076", "fusion_lon": 0.0, "lon": -77.000413, "lat": 38.90816916666667, "is_reserved": 0, "is_disabled": 0, "rental_uris": {"android": "https://dc.lft.to/lastmile_qr_scan", "ios": "https://dc.lft.to/lastmile_qr_scan"}, "name": "359e4006bbc7af1c040d46eab9867076", "type": "electric_scooter"}, {"fusion_lat": 0.0, "bike_id": "c0809e84ae52310ea17a399b01214a59", "fusion_lon": 0.0, "lon": -76.98968733333334, "lat": 38.86547133333333, "is_reserved": 0, "is_disabled": 0, "rental_uris": {"android": "https://dc.lft.to/lastmile_qr_scan", "ios": "https://dc.lft.to/lastmile_qr_scan"}, "name": "c0809e84ae52310ea17a399b01214a59", "type": "electric_scooter"}, {"fusion_lat": 0.0, "bike_id": "5fa6fc68da2214938ec70c39f80ca713", "fusion_lon": 0.0, "lon": -77.0173615, "lat": 38.88744116666667, "is_reserved": 0, "is_disabled": 0, "rental_uris": {"android": "https://dc.lft.to/lastmile_qr_scan", "ios": "https://dc.lft.to/lastmile_qr_scan"}, "name": "5fa6fc68da2214938ec70c39f80ca713", "type": "electric_scooter"}, {"fusion_lat": 0.0, "bike_id": "d49b95cdbf171646e990d8d194984646", "fusion_lon": 0.0, "lon": -77.039611, "lat": 38.900445500000004, "is_reserved": 0, "is_disabled": 0, "rental_uris": {"android": "https://dc.lft.to/lastmile_qr_scan", "ios": "https://dc.lft.to/lastmile_qr_scan"}, "name": "d49b95cdbf171646e990d8d194984646", "type": "electric_scooter"}, {"fusion_lat": 0.0, "bike_id": "2277b3c313ff01071da5406110ad5afe", "fusion_lon": 0.0, "lon": -77.02716583333333, "lat": 38.92027866666667, "is_reserved": 0, "is_disabled": 0, "rental_uris": {"android": "https://dc.lft.to/lastmile_qr_scan", "ios": "https://dc.lft.to/lastmile_qr_scan"}, "name": "2277b3c313ff01071da5406110ad5afe", "type": "electric_scooter"}, {"fusion_lat": 0.0, "bike_id": "21c745f24cc655647252bac0aa950cdb", "fusion_lon": 0.0, "lon": -77.031218, "lat": 38.91272816666667, "is_reserved": 0, "is_disabled": 0, "rental_uris": {"android": "https://dc.lft.to/lastmile_qr_scan", "ios": "https://dc.lft.to/lastmile_qr_scan"}, "name": "21c745f24cc655647252bac0aa950cdb", "type": "electric_scooter"}, {"fusion_lat": 0.0, "bike_id": "07942ac02465dc5d528076751e071269", "fusion_lon": 0.0, "lon": -77.11593566666667, "lat": 39.07490333333333, "is_reserved": 0, "is_disabled": 0, "rental_uris": {"android": "https://dc.lft.to/lastmile_qr_scan", "ios": "https://dc.lft.to/lastmile_qr_scan"}, "name": "07942ac02465dc5d528076751e071269", "type": "electric_bike"}, {"fusion_lat": 0.0, "bike_id": "d65002f1e402dc375d1b0b9ee00e3bdd", "fusion_lon": 0.0, "lon": -76.99222766666666, "lat": 38.89740616666667, "is_reserved": 0, "is_disabled": 0, "rental_uris": {"android": "https://dc.lft.to/lastmile_qr_scan", "ios": "https://dc.lft.to/lastmile_qr_scan"}, "name": "d65002f1e402dc375d1b0b9ee00e3bdd", "type": "electric_bike"}, {"fusion_lat": 0.0, "bike_id": "8a31b180877254fdbb47eb07318d2a18", "fusion_lon": 0.0, "lon": -76.99136216666666, "lat": 38.8641455, "is_reserved": 0, "is_disabled": 0, "rental_uris": {"android": "https://dc.lft.to/lastmile_qr_scan", "ios": "https://dc.lft.to/lastmile_qr_scan"}, "name": "8a31b180877254fdbb47eb07318d2a18", "type": "electric_scooter"}, {"fusion_lat": 0.0, "bike_id": "c40eb85c3df8ce9903ab8b2ebd3301de", "fusion_lon": 0.0, "lon": -76.96911866666667, "lat": 38.84606816666667, "is_reserved": 0, "is_disabled": 0, "rental_uris": {"android": "https://dc.lft.to/lastmile_qr_scan", "ios": "https://dc.lft.to/lastmile_qr_scan"}, "name": "c40eb85c3df8ce9903ab8b2ebd3301de", "type": "electric_bike"}, {"fusion_lat": 0.0, "bike_id": "661c9fe8bfc5cdd5c7028a5e5af4b369", "fusion_lon": 0.0, "lon": -77.03220166666667, "lat": 38.892239333333336, "is_reserved": 0, "is_disabled": 0, "rental_uris": {"android": "https://dc.lft.to/lastmile_qr_scan", "ios": "https://dc.lft.to/lastmile_qr_scan"}, "name": "661c9fe8bfc5cdd5c7028a5e5af4b369", "type": "electric_scooter"}, {"fusion_lat": 0.0, "bike_id": "c00e02f9f4109b05aae760ff51752c56", "fusion_lon": 0.0, "lon": -77.044578, "lat": 38.91406883333333, "is_reserved": 0, "is_disabled": 0, "rental_uris": {"android": "https://dc.lft.to/lastmile_qr_scan", "ios": "https://dc.lft.to/lastmile_qr_scan"}, "name": "c00e02f9f4109b05aae760ff51752c56", "type": "electric_scooter"}, {"fusion_lat": 0.0, "bike_id": "35799cc988495d139540845de0313560", "fusion_lon": 0.0, "lon": -77.05907766666667, "lat": 38.901786, "is_reserved": 0, "is_disabled": 0, "rental_uris": {"android": "https://dc.lft.to/lastmile_qr_scan", "ios": "https://dc.lft.to/lastmile_qr_scan"}, "name": "35799cc988495d139540845de0313560", "type": "electric_scooter"}, {"fusion_lat": 0.0, "bike_id": "5c17cd09e008b692611f587bf493ecc5", "fusion_lon": 0.0, "lon": -77.02251, "lat": 38.92466483333333, "is_reserved": 0, "is_disabled": 0, "rental_uris": {"android": "https://dc.lft.to/lastmile_qr_scan", "ios": "https://dc.lft.to/lastmile_qr_scan"}, "name": "5c17cd09e008b692611f587bf493ecc5", "type": "electric_scooter"}, {"fusion_lat": 0.0, "bike_id": "25bf15cac5ce69194c6912ce8b40a47b", "fusion_lon": 0.0, "lon": -76.9905885, "lat": 38.86373016666667, "is_reserved": 0, "is_disabled": 0, "rental_uris": {"android": "https://dc.lft.to/lastmile_qr_scan", "ios": "https://dc.lft.to/lastmile_qr_scan"}, "name": "25bf15cac5ce69194c6912ce8b40a47b", "type": "electric_scooter"}, {"fusion_lat": 0.0, "bike_id": "ec50e554bd7d019779dd336f5f87e0fc", "fusion_lon": 0.0, "lon": -76.96088633333333, "lat": 38.91852033333333, "is_reserved": 0, "is_disabled": 0, "rental_uris": {"android": "https://dc.lft.to/lastmile_qr_scan", "ios": "https://dc.lft.to/lastmile_qr_scan"}, "name": "ec50e554bd7d019779dd336f5f87e0fc", "type": "electric_scooter"}, {"fusion_lat": 0.0, "bike_id": "502fc158a544b383dc3ac7fee354f1e1", "fusion_lon": 0.0, "lon": -77.03494433333333, "lat": 38.90353366666667, "is_reserved": 0, "is_disabled": 0, "rental_uris": {"android": "https://dc.lft.to/lastmile_qr_scan", "ios": "https://dc.lft.to/lastmile_qr_scan"}, "name": "502fc158a544b383dc3ac7fee354f1e1", "type": "electric_scooter"}, {"fusion_lat": 0.0, "bike_id": "53c90d78d6f0a5dbfe2414d59121755e", "fusion_lon": 0.0, "lon": -77.005467, "lat": 38.87455883333333, "is_reserved": 0, "is_disabled": 0, "rental_uris": {"android": "https://dc.lft.to/lastmile_qr_scan", "ios": "https://dc.lft.to/lastmile_qr_scan"}, "name": "53c90d78d6f0a5dbfe2414d59121755e", "type": "electric_scooter"}, {"fusion_lat": 0.0, "bike_id": "3997ee84113402031307176cf34bee97", "fusion_lon": 0.0, "lon": -76.984867, "lat": 38.878335666666665, "is_reserved": 0, "is_disabled": 0, "rental_uris": {"android": "https://dc.lft.to/lastmile_qr_scan", "ios": "https://dc.lft.to/lastmile_qr_scan"}, "name": "3997ee84113402031307176cf34bee97", "type": "electric_scooter"}, {"fusion_lat": 0.0, "bike_id": "f95a5ef8e458c6784d8b552d99498fb8", "fusion_lon": 0.0, "lon": -76.98981883333333, "lat": 38.85913733333334, "is_reserved": 0, "is_disabled": 0, "rental_uris": {"android": "https://dc.lft.to/lastmile_qr_scan", "ios": "https://dc.lft.to/lastmile_qr_scan"}, "name": "f95a5ef8e458c6784d8b552d99498fb8", "type": "electric_scooter"}, {"fusion_lat": 0.0, "bike_id": "0489876780a82d712862e55e7f589750", "fusion_lon": 0.0, "lon": -77.01607, "lat": 38.905852333333335, "is_reserved": 0, "is_disabled": 0, "rental_uris": {"android": "https://dc.lft.to/lastmile_qr_scan", "ios": "https://dc.lft.to/lastmile_qr_scan"}, "name": "0489876780a82d712862e55e7f589750", "type": "electric_scooter"}, {"fusion_lat": 0.0, "bike_id": "aad3e8cffb00d83e2c579d5c0c9830af", "fusion_lon": 0.0, "lon": -77.035482, "lat": 38.924710166666664, "is_reserved": 0, "is_disabled": 0, "rental_uris": {"android": "https://dc.lft.to/lastmile_qr_scan", "ios": "https://dc.lft.to/lastmile_qr_scan"}, "name": "aad3e8cffb00d83e2c579d5c0c9830af", "type": "electric_scooter"}, {"fusion_lat": 0.0, "bike_id": "3eea78d8207381b7325e3fbdcea06316", "fusion_lon": 0.0, "lon": -77.03926983333334, "lat": 38.9183395, "is_reserved": 0, "is_disabled": 0, "rental_uris": {"android": "https://dc.lft.to/lastmile_qr_scan", "ios": "https://dc.lft.to/lastmile_qr_scan"}, "name": "3eea78d8207381b7325e3fbdcea06316", "type": "electric_scooter"}, {"fusion_lat": 0.0, "bike_id": "c6db08efd9b23184f38b9909af1e0639", "fusion_lon": 0.0, "lon": -76.985262, "lat": 38.8668405, "is_reserved": 0, "is_disabled": 0, "rental_uris": {"android": "https://dc.lft.to/lastmile_qr_scan", "ios": "https://dc.lft.to/lastmile_qr_scan"}, "name": "c6db08efd9b23184f38b9909af1e0639", "type": "electric_scooter"}, {"fusion_lat": 0.0, "bike_id": "2aedb1a173729024ff008baba74b7364", "fusion_lon": 0.0, "lon": -77.0243955, "lat": 38.902078833333334, "is_reserved": 0, "is_disabled": 0, "rental_uris": {"android": "https://dc.lft.to/lastmile_qr_scan", "ios": "https://dc.lft.to/lastmile_qr_scan"}, "name": "2aedb1a173729024ff008baba74b7364", "type": "electric_scooter"}, {"fusion_lat": 0.0, "bike_id": "08eab8d46170d451ffd9f41477526be2", "fusion_lon": 0.0, "lon": -77.02139266666667, "lat": 38.9155095, "is_reserved": 0, "is_disabled": 0, "rental_uris": {"android": "https://dc.lft.to/lastmile_qr_scan", "ios": "https://dc.lft.to/lastmile_qr_scan"}, "name": "08eab8d46170d451ffd9f41477526be2", "type": "electric_scooter"}, {"fusion_lat": 0.0, "bike_id": "5f94086d7861e0c069bc140406f04391", "fusion_lon": 0.0, "lon": -77.0328695, "lat": 38.92746283333334, "is_reserved": 0, "is_disabled": 0, "rental_uris": {"android": "https://dc.lft.to/lastmile_qr_scan", "ios": "https://dc.lft.to/lastmile_qr_scan"}, "name": "5f94086d7861e0c069bc140406f04391", "type": "electric_scooter"}, {"fusion_lat": 0.0, "bike_id": "955c14688d76c1809e04b86ff1164556", "fusion_lon": 0.0, "lon": -77.0321535, "lat": 38.90721966666667, "is_reserved": 0, "is_disabled": 0, "rental_uris": {"android": "https://dc.lft.to/lastmile_qr_scan", "ios": "https://dc.lft.to/lastmile_qr_scan"}, "name": "955c14688d76c1809e04b86ff1164556", "type": "electric_scooter"}, {"fusion_lat": 0.0, "bike_id": "02a2c854a653ce5b851389a400986a1e", "fusion_lon": 0.0, "lon": -77.03848466666666, "lat": 38.92161333333333, "is_reserved": 0, "is_disabled": 0, "rental_uris": {"android": "https://dc.lft.to/lastmile_qr_scan", "ios": "https://dc.lft.to/lastmile_qr_scan"}, "name": "02a2c854a653ce5b851389a400986a1e", "type": "electric_scooter"}, {"fusion_lat": 0.0, "bike_id": "d765fb82355d7a90ac6e41e72c05124e", "fusion_lon": 0.0, "lon": -77.16628216666666, "lat": 38.88834216666667, "is_reserved": 0, "is_disabled": 0, "rental_uris": {"android": "https://dc.lft.to/lastmile_qr_scan", "ios": "https://dc.lft.to/lastmile_qr_scan"}, "name": "d765fb82355d7a90ac6e41e72c05124e", "type": "electric_bike"}, {"fusion_lat": 0.0, "bike_id": "d419879eb5dd3e3c17c3571af7c513ea", "fusion_lon": 0.0, "lon": -77.02543433333334, "lat": 38.940962166666665, "is_reserved": 0, "is_disabled": 0, "rental_uris": {"android": "https://dc.lft.to/lastmile_qr_scan", "ios": "https://dc.lft.to/lastmile_qr_scan"}, "name": "d419879eb5dd3e3c17c3571af7c513ea", "type": "electric_scooter"}, {"fusion_lat": 0.0, "bike_id": "fe64ac8133a7a44e1142916dea88f220", "fusion_lon": 0.0, "lon": -77.031981, "lat": 38.916953666666664, "is_reserved": 0, "is_disabled": 0, "rental_uris": {"android": "https://dc.lft.to/lastmile_qr_scan", "ios": "https://dc.lft.to/lastmile_qr_scan"}, "name": "fe64ac8133a7a44e1142916dea88f220", "type": "electric_scooter"}, {"fusion_lat": 0.0, "bike_id": "a7a155f998f96cf6eb612203117f4bdb", "fusion_lon": 0.0, "lon": -77.032585, "lat": 38.94841316666667, "is_reserved": 0, "is_disabled": 0, "rental_uris": {"android": "https://dc.lft.to/lastmile_qr_scan", "ios": "https://dc.lft.to/lastmile_qr_scan"}, "name": "a7a155f998f96cf6eb612203117f4bdb", "type": "electric_scooter"}, {"fusion_lat": 0.0, "bike_id": "76405977a7d0d413563f69cff0675475", "fusion_lon": 0.0, "lon": -77.042769, "lat": 38.9042205, "is_reserved": 0, "is_disabled": 0, "rental_uris": {"android": "https://dc.lft.to/lastmile_qr_scan", "ios": "https://dc.lft.to/lastmile_qr_scan"}, "name": "76405977a7d0d413563f69cff0675475", "type": "electric_scooter"}, {"fusion_lat": 0.0, "bike_id": "6ac909634136e47ff2a61b9d25210b8b", "fusion_lon": 0.0, "lon": -76.99299916666666, "lat": 38.857544833333336, "is_reserved": 0, "is_disabled": 0, "rental_uris": {"android": "https://dc.lft.to/lastmile_qr_scan", "ios": "https://dc.lft.to/lastmile_qr_scan"}, "name": "6ac909634136e47ff2a61b9d25210b8b", "type": "electric_scooter"}, {"fusion_lat": 0.0, "bike_id": "08e660ea5cb29b0653e8a30b31951ac2", "fusion_lon": 0.0, "lon": -77.03288416666666, "lat": 38.9275135, "is_reserved": 0, "is_disabled": 0, "rental_uris": {"android": "https://dc.lft.to/lastmile_qr_scan", "ios": "https://dc.lft.to/lastmile_qr_scan"}, "name": "08e660ea5cb29b0653e8a30b31951ac2", "type": "electric_scooter"}, {"fusion_lat": 0.0, "bike_id": "abc709604e114351eb1a67c9b9d2f81a", "fusion_lon": 0.0, "lon": -76.94639733333334, "lat": 38.898324333333335, "is_reserved": 0, "is_disabled": 0, "rental_uris": {"android": "https://dc.lft.to/lastmile_qr_scan", "ios": "https://dc.lft.to/lastmile_qr_scan"}, "name": "abc709604e114351eb1a67c9b9d2f81a", "type": "electric_scooter"}, {"fusion_lat": 0.0, "bike_id": "1189027332b3c8eaf91bf9305a9f6d68", "fusion_lon": 0.0, "lon": -77.07309583333333, "lat": 38.92235466666666, "is_reserved": 0, "is_disabled": 0, "rental_uris": {"android": "https://dc.lft.to/lastmile_qr_scan", "ios": "https://dc.lft.to/lastmile_qr_scan"}, "name": "1189027332b3c8eaf91bf9305a9f6d68", "type": "electric_scooter"}, {"fusion_lat": 0.0, "bike_id": "000bb259a3879dd68b52b7dbe9007d6b", "fusion_lon": 0.0, "lon": -77.0328225, "lat": 38.91730233333333, "is_reserved": 0, "is_disabled": 0, "rental_uris": {"android": "https://dc.lft.to/lastmile_qr_scan", "ios": "https://dc.lft.to/lastmile_qr_scan"}, "name": "000bb259a3879dd68b52b7dbe9007d6b", "type": "electric_scooter"}, {"fusion_lat": 0.0, "bike_id": "35057a55b22206a62780b7019fae7a29", "fusion_lon": 0.0, "lon": -77.03752066666667, "lat": 38.912389833333336, "is_reserved": 0, "is_disabled": 0, "rental_uris": {"android": "https://dc.lft.to/lastmile_qr_scan", "ios": "https://dc.lft.to/lastmile_qr_scan"}, "name": "35057a55b22206a62780b7019fae7a29", "type": "electric_scooter"}, {"fusion_lat": 0.0, "bike_id": "d36fd8faeeda14f665d6885dd23d2f0b", "fusion_lon": 0.0, "lon": -77.00461616666666, "lat": 38.920723833333334, "is_reserved": 0, "is_disabled": 0, "rental_uris": {"android": "https://dc.lft.to/lastmile_qr_scan", "ios": "https://dc.lft.to/lastmile_qr_scan"}, "name": "d36fd8faeeda14f665d6885dd23d2f0b", "type": "electric_scooter"}, {"fusion_lat": 0.0, "bike_id": "e3d90e968ea89250c1f6f86ffec2aa4b", "fusion_lon": 0.0, "lon": -77.04542833333333, "lat": 38.91340016666667, "is_reserved": 0, "is_disabled": 0, "rental_uris": {"android": "https://dc.lft.to/lastmile_qr_scan", "ios": "https://dc.lft.to/lastmile_qr_scan"}, "name": "e3d90e968ea89250c1f6f86ffec2aa4b", "type": "electric_bike"}, {"fusion_lat": 0.0, "bike_id": "b6805deb07900ddd44e771d278d332ca", "fusion_lon": 0.0, "lon": -77.0370335, "lat": 38.92833183333333, "is_reserved": 0, "is_disabled": 0, "rental_uris": {"android": "https://dc.lft.to/lastmile_qr_scan", "ios": "https://dc.lft.to/lastmile_qr_scan"}, "name": "b6805deb07900ddd44e771d278d332ca", "type": "electric_scooter"}, {"fusion_lat": 0.0, "bike_id": "a6f44e34f3836c92516ad3e03b4b8a54", "fusion_lon": 0.0, "lon": -76.99853733333333, "lat": 38.89621433333333, "is_reserved": 0, "is_disabled": 0, "rental_uris": {"android": "https://dc.lft.to/lastmile_qr_scan", "ios": "https://dc.lft.to/lastmile_qr_scan"}, "name": "a6f44e34f3836c92516ad3e03b4b8a54", "type": "electric_scooter"}, {"fusion_lat": 0.0, "bike_id": "a75118d37d2ef83e23252ccc86406ad1", "fusion_lon": 0.0, "lon": -77.01547933333333, "lat": 38.891686, "is_reserved": 0, "is_disabled": 0, "rental_uris": {"android": "https://dc.lft.to/lastmile_qr_scan", "ios": "https://dc.lft.to/lastmile_qr_scan"}, "name": "a75118d37d2ef83e23252ccc86406ad1", "type": "electric_scooter"}, {"fusion_lat": 0.0, "bike_id": "d27c17fb1495cf99e5ea144b0b25d680", "fusion_lon": 0.0, "lon": -77.02513116666667, "lat": 38.89221033333333, "is_reserved": 0, "is_disabled": 0, "rental_uris": {"android": "https://dc.lft.to/lastmile_qr_scan", "ios": "https://dc.lft.to/lastmile_qr_scan"}, "name": "d27c17fb1495cf99e5ea144b0b25d680", "type": "electric_scooter"}, {"fusion_lat": 0.0, "bike_id": "be94c5ce2d8a9332c27a67dad8759818", "fusion_lon": 0.0, "lon": -77.0172315, "lat": 38.885892, "is_reserved": 0, "is_disabled": 0, "rental_uris": {"android": "https://dc.lft.to/lastmile_qr_scan", "ios": "https://dc.lft.to/lastmile_qr_scan"}, "name": "be94c5ce2d8a9332c27a67dad8759818", "type": "electric_scooter"}, {"fusion_lat": 0.0, "bike_id": "1975dac541c804edf2d631f168cf03f4", "fusion_lon": 0.0, "lon": -76.977447, "lat": 38.865042, "is_reserved": 0, "is_disabled": 0, "rental_uris": {"android": "https://dc.lft.to/lastmile_qr_scan", "ios": "https://dc.lft.to/lastmile_qr_scan"}, "name": "1975dac541c804edf2d631f168cf03f4", "type": "electric_bike"}, {"fusion_lat": 0.0, "bike_id": "6012121ddfb9a11d42a7ab8b9e8c586a", "fusion_lon": 0.0, "lon": -77.08809883333333, "lat": 38.91172666666667, "is_reserved": 0, "is_disabled": 0, "rental_uris": {"android": "https://dc.lft.to/lastmile_qr_scan", "ios": "https://dc.lft.to/lastmile_qr_scan"}, "name": "6012121ddfb9a11d42a7ab8b9e8c586a", "type": "electric_bike"}, {"fusion_lat": 0.0, "bike_id": "650d2358fef841f3118f4563911916b0", "fusion_lon": 0.0, "lon": -76.99507366666667, "lat": 38.933702, "is_reserved": 0, "is_disabled": 0, "rental_uris": {"android": "https://dc.lft.to/lastmile_qr_scan", "ios": "https://dc.lft.to/lastmile_qr_scan"}, "name": "650d2358fef841f3118f4563911916b0", "type": "electric_scooter"}, {"fusion_lat": 0.0, "bike_id": "ea990e10592398e4dd677d0ab2e7e14f", "fusion_lon": 0.0, "lon": -76.9924525, "lat": 38.894890833333335, "is_reserved": 0, "is_disabled": 0, "rental_uris": {"android": "https://dc.lft.to/lastmile_qr_scan", "ios": "https://dc.lft.to/lastmile_qr_scan"}, "name": "ea990e10592398e4dd677d0ab2e7e14f", "type": "electric_scooter"}, {"fusion_lat": 0.0, "bike_id": "fa3a469fb292eecff2bfa9018c665567", "fusion_lon": 0.0, "lon": -76.99781316666666, "lat": 38.844244, "is_reserved": 0, "is_disabled": 0, "rental_uris": {"android": "https://dc.lft.to/lastmile_qr_scan", "ios": "https://dc.lft.to/lastmile_qr_scan"}, "name": "fa3a469fb292eecff2bfa9018c665567", "type": "electric_scooter"}, {"fusion_lat": 0.0, "bike_id": "7274ceabd6ed1dd2a08c808626c8b34e", "fusion_lon": 0.0, "lon": -76.9761815, "lat": 38.92650316666667, "is_reserved": 0, "is_disabled": 0, "rental_uris": {"android": "https://dc.lft.to/lastmile_qr_scan", "ios": "https://dc.lft.to/lastmile_qr_scan"}, "name": "7274ceabd6ed1dd2a08c808626c8b34e", "type": "electric_scooter"}, {"fusion_lat": 0.0, "bike_id": "6dc4cd64518978832f4112cb40c398e8", "fusion_lon": 0.0, "lon": -77.017569, "lat": 38.880084, "is_reserved": 0, "is_disabled": 0, "rental_uris": {"android": "https://dc.lft.to/lastmile_qr_scan", "ios": "https://dc.lft.to/lastmile_qr_scan"}, "name": "6dc4cd64518978832f4112cb40c398e8", "type": "electric_scooter"}, {"fusion_lat": 0.0, "bike_id": "dac753c564ba9983e6c569d3a080fe6a", "fusion_lon": 0.0, "lon": -77.039266, "lat": 38.9279365, "is_reserved": 0, "is_disabled": 0, "rental_uris": {"android": "https://dc.lft.to/lastmile_qr_scan", "ios": "https://dc.lft.to/lastmile_qr_scan"}, "name": "dac753c564ba9983e6c569d3a080fe6a", "type": "electric_scooter"}, {"fusion_lat": 0.0, "bike_id": "f33bc7eef48a37e46c41e9bee601e61b", "fusion_lon": 0.0, "lon": -77.06934, "lat": 38.955758333333335, "is_reserved": 0, "is_disabled": 0, "rental_uris": {"android": "https://dc.lft.to/lastmile_qr_scan", "ios": "https://dc.lft.to/lastmile_qr_scan"}, "name": "f33bc7eef48a37e46c41e9bee601e61b", "type": "electric_bike"}, {"fusion_lat": 0.0, "bike_id": "7f12138c0f43e30d7f8eb0c3468bbb82", "fusion_lon": 0.0, "lon": -77.03696966666666, "lat": 38.918121, "is_reserved": 0, "is_disabled": 0, "rental_uris": {"android": "https://dc.lft.to/lastmile_qr_scan", "ios": "https://dc.lft.to/lastmile_qr_scan"}, "name": "7f12138c0f43e30d7f8eb0c3468bbb82", "type": "electric_scooter"}, {"fusion_lat": 0.0, "bike_id": "c320555a2c5b2be4866c2a7dba1ac244", "fusion_lon": 0.0, "lon": -76.95235583333333, "lat": 38.890952666666664, "is_reserved": 0, "is_disabled": 0, "rental_uris": {"android": "https://dc.lft.to/lastmile_qr_scan", "ios": "https://dc.lft.to/lastmile_qr_scan"}, "name": "c320555a2c5b2be4866c2a7dba1ac244", "type": "electric_scooter"}, {"fusion_lat": 0.0, "bike_id": "79a6db57c9d8884c67c7606d9e153b55", "fusion_lon": 0.0, "lon": -77.041535, "lat": 38.914893166666666, "is_reserved": 0, "is_disabled": 0, "rental_uris": {"android": "https://dc.lft.to/lastmile_qr_scan", "ios": "https://dc.lft.to/lastmile_qr_scan"}, "name": "79a6db57c9d8884c67c7606d9e153b55", "type": "electric_scooter"}, {"fusion_lat": 0.0, "bike_id": "a59c55e567200d0de50732cd911cb66b", "fusion_lon": 0.0, "lon": -77.01948983333334, "lat": 38.924142833333335, "is_reserved": 0, "is_disabled": 0, "rental_uris": {"android": "https://dc.lft.to/lastmile_qr_scan", "ios": "https://dc.lft.to/lastmile_qr_scan"}, "name": "a59c55e567200d0de50732cd911cb66b", "type": "electric_scooter"}, {"fusion_lat": 0.0, "bike_id": "bda173507328224deede60231b26152c", "fusion_lon": 0.0, "lon": -77.05770033333333, "lat": 38.90528116666667, "is_reserved": 0, "is_disabled": 0, "rental_uris": {"android": "https://dc.lft.to/lastmile_qr_scan", "ios": "https://dc.lft.to/lastmile_qr_scan"}, "name": "bda173507328224deede60231b26152c", "type": "electric_scooter"}, {"fusion_lat": 0.0, "bike_id": "f964ca6d85fdd7f8a6a49da74aef2aa2", "fusion_lon": 0.0, "lon": -77.04345716666667, "lat": 38.92309816666667, "is_reserved": 0, "is_disabled": 0, "rental_uris": {"android": "https://dc.lft.to/lastmile_qr_scan", "ios": "https://dc.lft.to/lastmile_qr_scan"}, "name": "f964ca6d85fdd7f8a6a49da74aef2aa2", "type": "electric_scooter"}, {"fusion_lat": 0.0, "bike_id": "978a8af611af4c85025af2509c5af48e", "fusion_lon": 0.0, "lon": -76.99736633333333, "lat": 39.042331, "is_reserved": 0, "is_disabled": 0, "rental_uris": {"android": "https://dc.lft.to/lastmile_qr_scan", "ios": "https://dc.lft.to/lastmile_qr_scan"}, "name": "978a8af611af4c85025af2509c5af48e", "type": "electric_bike"}, {"fusion_lat": 0.0, "bike_id": "afefd833092dbce88b96ea0572d3a914", "fusion_lon": 0.0, "lon": -76.93538566666666, "lat": 38.896813, "is_reserved": 0, "is_disabled": 0, "rental_uris": {"android": "https://dc.lft.to/lastmile_qr_scan", "ios": "https://dc.lft.to/lastmile_qr_scan"}, "name": "afefd833092dbce88b96ea0572d3a914", "type": "electric_scooter"}, {"fusion_lat": 0.0, "bike_id": "881043baee31a5913d3095d1dc1c1328", "fusion_lon": 0.0, "lon": -77.00070516666666, "lat": 38.90146516666667, "is_reserved": 0, "is_disabled": 0, "rental_uris": {"android": "https://dc.lft.to/lastmile_qr_scan", "ios": "https://dc.lft.to/lastmile_qr_scan"}, "name": "881043baee31a5913d3095d1dc1c1328", "type": "electric_scooter"}, {"fusion_lat": 0.0, "bike_id": "492b5776e1abb7d658ac75514611c451", "fusion_lon": 0.0, "lon": -77.03422283333333, "lat": 38.927309, "is_reserved": 0, "is_disabled": 0, "rental_uris": {"android": "https://dc.lft.to/lastmile_qr_scan", "ios": "https://dc.lft.to/lastmile_qr_scan"}, "name": "492b5776e1abb7d658ac75514611c451", "type": "electric_scooter"}, {"fusion_lat": 0.0, "bike_id": "6ea791bc7b190a320fdf55e4ff499831", "fusion_lon": 0.0, "lon": -77.0281885, "lat": 38.95081533333333, "is_reserved": 0, "is_disabled": 0, "rental_uris": {"android": "https://dc.lft.to/lastmile_qr_scan", "ios": "https://dc.lft.to/lastmile_qr_scan"}, "name": "6ea791bc7b190a320fdf55e4ff499831", "type": "electric_scooter"}, {"fusion_lat": 0.0, "bike_id": "3cb562c0b02797088c0ab91a9d3c2e87", "fusion_lon": 0.0, "lon": -77.05923466666667, "lat": 38.90562533333333, "is_reserved": 0, "is_disabled": 0, "rental_uris": {"android": "https://dc.lft.to/lastmile_qr_scan", "ios": "https://dc.lft.to/lastmile_qr_scan"}, "name": "3cb562c0b02797088c0ab91a9d3c2e87", "type": "electric_scooter"}, {"fusion_lat": 0.0, "bike_id": "63ca7383445653739f9a37c83231d0e7", "fusion_lon": 0.0, "lon": -76.94980666666666, "lat": 38.89374983333333, "is_reserved": 0, "is_disabled": 0, "rental_uris": {"android": "https://dc.lft.to/lastmile_qr_scan", "ios": "https://dc.lft.to/lastmile_qr_scan"}, "name": "63ca7383445653739f9a37c83231d0e7", "type": "electric_scooter"}, {"fusion_lat": 0.0, "bike_id": "9fba35dec02d30305bd8b313b233255f", "fusion_lon": 0.0, "lon": -76.92928933333333, "lat": 38.902714833333334, "is_reserved": 0, "is_disabled": 0, "rental_uris": {"android": "https://dc.lft.to/lastmile_qr_scan", "ios": "https://dc.lft.to/lastmile_qr_scan"}, "name": "9fba35dec02d30305bd8b313b233255f", "type": "electric_bike"}, {"fusion_lat": 0.0, "bike_id": "1e93374e526edd6d714c0e692b2b4f05", "fusion_lon": 0.0, "lon": -77.02387883333333, "lat": 38.907916666666665, "is_reserved": 0, "is_disabled": 0, "rental_uris": {"android": "https://dc.lft.to/lastmile_qr_scan", "ios": "https://dc.lft.to/lastmile_qr_scan"}, "name": "1e93374e526edd6d714c0e692b2b4f05", "type": "electric_scooter"}, {"fusion_lat": 0.0, "bike_id": "482f9577defb221eff4424145461b631", "fusion_lon": 0.0, "lon": -77.06265966666666, "lat": 38.905667333333334, "is_reserved": 0, "is_disabled": 0, "rental_uris": {"android": "https://dc.lft.to/lastmile_qr_scan", "ios": "https://dc.lft.to/lastmile_qr_scan"}, "name": "482f9577defb221eff4424145461b631", "type": "electric_scooter"}, {"fusion_lat": 0.0, "bike_id": "936d3e15a54636b399f9bb165693a46a", "fusion_lon": 0.0, "lon": -77.019544, "lat": 38.9232515, "is_reserved": 0, "is_disabled": 0, "rental_uris": {"android": "https://dc.lft.to/lastmile_qr_scan", "ios": "https://dc.lft.to/lastmile_qr_scan"}, "name": "936d3e15a54636b399f9bb165693a46a", "type": "electric_scooter"}, {"fusion_lat": 0.0, "bike_id": "411e7fcac4fcc20182f852717a62a73f", "fusion_lon": 0.0, "lon": -77.011993, "lat": 38.89687, "is_reserved": 0, "is_disabled": 0, "rental_uris": {"android": "https://dc.lft.to/lastmile_qr_scan", "ios": "https://dc.lft.to/lastmile_qr_scan"}, "name": "411e7fcac4fcc20182f852717a62a73f", "type": "electric_scooter"}, {"fusion_lat": 0.0, "bike_id": "25c2b4372bb476443f495a76669259f3", "fusion_lon": 0.0, "lon": -77.0069635, "lat": 38.90920083333334, "is_reserved": 0, "is_disabled": 0, "rental_uris": {"android": "https://dc.lft.to/lastmile_qr_scan", "ios": "https://dc.lft.to/lastmile_qr_scan"}, "name": "25c2b4372bb476443f495a76669259f3", "type": "electric_scooter"}, {"fusion_lat": 0.0, "bike_id": "de2183ddbcb67810d67d29bf424752e6", "fusion_lon": 0.0, "lon": -77.03415833333334, "lat": 38.917117166666664, "is_reserved": 0, "is_disabled": 0, "rental_uris": {"android": "https://dc.lft.to/lastmile_qr_scan", "ios": "https://dc.lft.to/lastmile_qr_scan"}, "name": "de2183ddbcb67810d67d29bf424752e6", "type": "electric_scooter"}, {"fusion_lat": 0.0, "bike_id": "7b0e44aac6085378f83eaa69d42ee374", "fusion_lon": 0.0, "lon": -76.98897616666666, "lat": 38.913415, "is_reserved": 0, "is_disabled": 0, "rental_uris": {"android": "https://dc.lft.to/lastmile_qr_scan", "ios": "https://dc.lft.to/lastmile_qr_scan"}, "name": "7b0e44aac6085378f83eaa69d42ee374", "type": "electric_scooter"}, {"fusion_lat": 0.0, "bike_id": "0598247d95ce08fd2ac2a8665b9d61b8", "fusion_lon": 0.0, "lon": -77.02173883333333, "lat": 38.942891333333336, "is_reserved": 0, "is_disabled": 0, "rental_uris": {"android": "https://dc.lft.to/lastmile_qr_scan", "ios": "https://dc.lft.to/lastmile_qr_scan"}, "name": "0598247d95ce08fd2ac2a8665b9d61b8", "type": "electric_scooter"}, {"fusion_lat": 0.0, "bike_id": "162898ef920fba72c9f10cca1ceae6b1", "fusion_lon": 0.0, "lon": -77.04168566666667, "lat": 38.917685, "is_reserved": 0, "is_disabled": 0, "rental_uris": {"android": "https://dc.lft.to/lastmile_qr_scan", "ios": "https://dc.lft.to/lastmile_qr_scan"}, "name": "162898ef920fba72c9f10cca1ceae6b1", "type": "electric_scooter"}, {"fusion_lat": 0.0, "bike_id": "654978eccae889683628a002975fddc4", "fusion_lon": 0.0, "lon": -77.04101033333333, "lat": 38.9156655, "is_reserved": 0, "is_disabled": 0, "rental_uris": {"android": "https://dc.lft.to/lastmile_qr_scan", "ios": "https://dc.lft.to/lastmile_qr_scan"}, "name": "654978eccae889683628a002975fddc4", "type": "electric_scooter"}, {"fusion_lat": 0.0, "bike_id": "dc012d2354293a77f8072b3064010cee", "fusion_lon": 0.0, "lon": -77.03188283333333, "lat": 38.918269, "is_reserved": 0, "is_disabled": 0, "rental_uris": {"android": "https://dc.lft.to/lastmile_qr_scan", "ios": "https://dc.lft.to/lastmile_qr_scan"}, "name": "dc012d2354293a77f8072b3064010cee", "type": "electric_scooter"}, {"fusion_lat": 0.0, "bike_id": "3c68db5f2d78c9dcd6b476f27f117989", "fusion_lon": 0.0, "lon": -77.02612133333334, "lat": 38.97571266666667, "is_reserved": 0, "is_disabled": 0, "rental_uris": {"android": "https://dc.lft.to/lastmile_qr_scan", "ios": "https://dc.lft.to/lastmile_qr_scan"}, "name": "3c68db5f2d78c9dcd6b476f27f117989", "type": "electric_scooter"}, {"fusion_lat": 0.0, "bike_id": "2cd347eb977c20927c2a691137798a27", "fusion_lon": 0.0, "lon": -77.023573, "lat": 38.93536116666667, "is_reserved": 0, "is_disabled": 0, "rental_uris": {"android": "https://dc.lft.to/lastmile_qr_scan", "ios": "https://dc.lft.to/lastmile_qr_scan"}, "name": "2cd347eb977c20927c2a691137798a27", "type": "electric_scooter"}, {"fusion_lat": 0.0, "bike_id": "672923f4a985b3ac2e9afdf4223da075", "fusion_lon": 0.0, "lon": -77.033304, "lat": 38.901310333333335, "is_reserved": 0, "is_disabled": 0, "rental_uris": {"android": "https://dc.lft.to/lastmile_qr_scan", "ios": "https://dc.lft.to/lastmile_qr_scan"}, "name": "672923f4a985b3ac2e9afdf4223da075", "type": "electric_scooter"}, {"fusion_lat": 0.0, "bike_id": "375577d1dca72efdb3c9120da69f55c1", "fusion_lon": 0.0, "lon": -77.042669, "lat": 38.92231133333333, "is_reserved": 0, "is_disabled": 0, "rental_uris": {"android": "https://dc.lft.to/lastmile_qr_scan", "ios": "https://dc.lft.to/lastmile_qr_scan"}, "name": "375577d1dca72efdb3c9120da69f55c1", "type": "electric_scooter"}, {"fusion_lat": 0.0, "bike_id": "fc782ba3cd9b92ae911e1e35432e66e4", "fusion_lon": 0.0, "lon": -77.024845, "lat": 38.91923883333333, "is_reserved": 0, "is_disabled": 0, "rental_uris": {"android": "https://dc.lft.to/lastmile_qr_scan", "ios": "https://dc.lft.to/lastmile_qr_scan"}, "name": "fc782ba3cd9b92ae911e1e35432e66e4", "type": "electric_scooter"}, {"fusion_lat": 0.0, "bike_id": "034d7bcd03374b84657565131b9f7037", "fusion_lon": 0.0, "lon": -77.0316085, "lat": 38.89767633333334, "is_reserved": 0, "is_disabled": 0, "rental_uris": {"android": "https://dc.lft.to/lastmile_qr_scan", "ios": "https://dc.lft.to/lastmile_qr_scan"}, "name": "034d7bcd03374b84657565131b9f7037", "type": "electric_scooter"}, {"fusion_lat": 0.0, "bike_id": "10ea097c65bf28e0134d58a0c0d9a0a1", "fusion_lon": 0.0, "lon": -77.031986, "lat": 38.91562066666667, "is_reserved": 0, "is_disabled": 0, "rental_uris": {"android": "https://dc.lft.to/lastmile_qr_scan", "ios": "https://dc.lft.to/lastmile_qr_scan"}, "name": "10ea097c65bf28e0134d58a0c0d9a0a1", "type": "electric_scooter"}, {"fusion_lat": 0.0, "bike_id": "b8a78306282a7412899d5268e34aa5a9", "fusion_lon": 0.0, "lon": -77.0310585, "lat": 38.892209666666666, "is_reserved": 0, "is_disabled": 0, "rental_uris": {"android": "https://dc.lft.to/lastmile_qr_scan", "ios": "https://dc.lft.to/lastmile_qr_scan"}, "name": "b8a78306282a7412899d5268e34aa5a9", "type": "electric_scooter"}, {"fusion_lat": 0.0, "bike_id": "aa678e4f42e2b775d3d2d894284e9fb0", "fusion_lon": 0.0, "lon": -77.05566516666667, "lat": 38.909498, "is_reserved": 0, "is_disabled": 0, "rental_uris": {"android": "https://dc.lft.to/lastmile_qr_scan", "ios": "https://dc.lft.to/lastmile_qr_scan"}, "name": "aa678e4f42e2b775d3d2d894284e9fb0", "type": "electric_bike"}, {"fusion_lat": 0.0, "bike_id": "505929029bc8a5a13c8b1adbd47b26fd", "fusion_lon": 0.0, "lon": -77.03467783333333, "lat": 38.90951616666667, "is_reserved": 0, "is_disabled": 0, "rental_uris": {"android": "https://dc.lft.to/lastmile_qr_scan", "ios": "https://dc.lft.to/lastmile_qr_scan"}, "name": "505929029bc8a5a13c8b1adbd47b26fd", "type": "electric_scooter"}, {"fusion_lat": 0.0, "bike_id": "05d084fd75d5ae54be94e5361590c4c5", "fusion_lon": 0.0, "lon": -77.02356133333333, "lat": 38.89221233333333, "is_reserved": 0, "is_disabled": 0, "rental_uris": {"android": "https://dc.lft.to/lastmile_qr_scan", "ios": "https://dc.lft.to/lastmile_qr_scan"}, "name": "05d084fd75d5ae54be94e5361590c4c5", "type": "electric_scooter"}, {"fusion_lat": 0.0, "bike_id": "44b880e2b4e9114a4132d0c75ad2db47", "fusion_lon": 0.0, "lon": -77.03202133333333, "lat": 38.911522, "is_reserved": 0, "is_disabled": 0, "rental_uris": {"android": "https://dc.lft.to/lastmile_qr_scan", "ios": "https://dc.lft.to/lastmile_qr_scan"}, "name": "44b880e2b4e9114a4132d0c75ad2db47", "type": "electric_scooter"}, {"fusion_lat": 0.0, "bike_id": "2bc875044455dd871af0707cffc8b4d7", "fusion_lon": 0.0, "lon": -77.05317616666666, "lat": 38.820424833333334, "is_reserved": 0, "is_disabled": 0, "rental_uris": {"android": "https://dc.lft.to/lastmile_qr_scan", "ios": "https://dc.lft.to/lastmile_qr_scan"}, "name": "2bc875044455dd871af0707cffc8b4d7", "type": "electric_bike"}, {"fusion_lat": 0.0, "bike_id": "4025dfc7417363b0e77623038e4b416b", "fusion_lon": 0.0, "lon": -77.01516816666667, "lat": 38.967775333333336, "is_reserved": 0, "is_disabled": 0, "rental_uris": {"android": "https://dc.lft.to/lastmile_qr_scan", "ios": "https://dc.lft.to/lastmile_qr_scan"}, "name": "4025dfc7417363b0e77623038e4b416b", "type": "electric_scooter"}, {"fusion_lat": 0.0, "bike_id": "18a91d1e6528fe296356990a2f382a4d", "fusion_lon": 0.0, "lon": -77.02716666666667, "lat": 38.912479, "is_reserved": 0, "is_disabled": 0, "rental_uris": {"android": "https://dc.lft.to/lastmile_qr_scan", "ios": "https://dc.lft.to/lastmile_qr_scan"}, "name": "18a91d1e6528fe296356990a2f382a4d", "type": "electric_scooter"}, {"fusion_lat": 0.0, "bike_id": "da52ff91c8dbc7520ec46a88470cc945", "fusion_lon": 0.0, "lon": -77.03447866666667, "lat": 38.906385666666665, "is_reserved": 0, "is_disabled": 0, "rental_uris": {"android": "https://dc.lft.to/lastmile_qr_scan", "ios": "https://dc.lft.to/lastmile_qr_scan"}, "name": "da52ff91c8dbc7520ec46a88470cc945", "type": "electric_scooter"}, {"fusion_lat": 0.0, "bike_id": "6d6900e3149c1492963727e9d4d55d00", "fusion_lon": 0.0, "lon": -76.99680266666667, "lat": 38.86034216666667, "is_reserved": 0, "is_disabled": 0, "rental_uris": {"android": "https://dc.lft.to/lastmile_qr_scan", "ios": "https://dc.lft.to/lastmile_qr_scan"}, "name": "6d6900e3149c1492963727e9d4d55d00", "type": "electric_scooter"}, {"fusion_lat": 0.0, "bike_id": "b604e840b5135181ac9c7ad593165d3d", "fusion_lon": 0.0, "lon": -77.03228366666667, "lat": 38.92888133333334, "is_reserved": 0, "is_disabled": 0, "rental_uris": {"android": "https://dc.lft.to/lastmile_qr_scan", "ios": "https://dc.lft.to/lastmile_qr_scan"}, "name": "b604e840b5135181ac9c7ad593165d3d", "type": "electric_scooter"}, {"fusion_lat": 0.0, "bike_id": "ccdd27c41c14812670c612779a15384b", "fusion_lon": 0.0, "lon": -76.98924233333334, "lat": 38.86561283333333, "is_reserved": 0, "is_disabled": 0, "rental_uris": {"android": "https://dc.lft.to/lastmile_qr_scan", "ios": "https://dc.lft.to/lastmile_qr_scan"}, "name": "ccdd27c41c14812670c612779a15384b", "type": "electric_scooter"}, {"fusion_lat": 0.0, "bike_id": "873efda16a9c99e9127ec415b0f72f0f", "fusion_lon": 0.0, "lon": -77.10835466666667, "lat": 38.81198333333333, "is_reserved": 0, "is_disabled": 0, "rental_uris": {"android": "https://dc.lft.to/lastmile_qr_scan", "ios": "https://dc.lft.to/lastmile_qr_scan"}, "name": "873efda16a9c99e9127ec415b0f72f0f", "type": "electric_bike"}, {"fusion_lat": 0.0, "bike_id": "f1a943e95ba678f3226c11c587516967", "fusion_lon": 0.0, "lon": -76.99033983333334, "lat": 38.89173233333333, "is_reserved": 0, "is_disabled": 0, "rental_uris": {"android": "https://dc.lft.to/lastmile_qr_scan", "ios": "https://dc.lft.to/lastmile_qr_scan"}, "name": "f1a943e95ba678f3226c11c587516967", "type": "electric_scooter"}, {"fusion_lat": 0.0, "bike_id": "5d252c4fffd53ac09d799b8547e16a2c", "fusion_lon": 0.0, "lon": -77.02276416666666, "lat": 38.90275283333333, "is_reserved": 0, "is_disabled": 0, "rental_uris": {"android": "https://dc.lft.to/lastmile_qr_scan", "ios": "https://dc.lft.to/lastmile_qr_scan"}, "name": "5d252c4fffd53ac09d799b8547e16a2c", "type": "electric_scooter"}, {"fusion_lat": 0.0, "bike_id": "f08a838d53dc1b12e99a98818f3e621b", "fusion_lon": 0.0, "lon": -77.003387, "lat": 38.915206833333336, "is_reserved": 0, "is_disabled": 0, "rental_uris": {"android": "https://dc.lft.to/lastmile_qr_scan", "ios": "https://dc.lft.to/lastmile_qr_scan"}, "name": "f08a838d53dc1b12e99a98818f3e621b", "type": "electric_scooter"}, {"fusion_lat": 0.0, "bike_id": "c5f5b936eabfed872e4a48c179f5a04b", "fusion_lon": 0.0, "lon": -77.0134885, "lat": 38.95612666666667, "is_reserved": 0, "is_disabled": 0, "rental_uris": {"android": "https://dc.lft.to/lastmile_qr_scan", "ios": "https://dc.lft.to/lastmile_qr_scan"}, "name": "c5f5b936eabfed872e4a48c179f5a04b", "type": "electric_scooter"}, {"fusion_lat": 0.0, "bike_id": "4bdd0e8569576fdb6a74f3503c1c93e4", "fusion_lon": 0.0, "lon": -77.03779833333333, "lat": 38.922094, "is_reserved": 0, "is_disabled": 0, "rental_uris": {"android": "https://dc.lft.to/lastmile_qr_scan", "ios": "https://dc.lft.to/lastmile_qr_scan"}, "name": "4bdd0e8569576fdb6a74f3503c1c93e4", "type": "electric_scooter"}, {"fusion_lat": 0.0, "bike_id": "7f90982a5bca42e970771c393296ec00", "fusion_lon": 0.0, "lon": -77.02619483333334, "lat": 38.962244166666665, "is_reserved": 0, "is_disabled": 0, "rental_uris": {"android": "https://dc.lft.to/lastmile_qr_scan", "ios": "https://dc.lft.to/lastmile_qr_scan"}, "name": "7f90982a5bca42e970771c393296ec00", "type": "electric_bike"}, {"fusion_lat": 0.0, "bike_id": "6e21be6fd2a8760261d19363e9a3c6e4", "fusion_lon": 0.0, "lon": -76.95524733333333, "lat": 38.88467966666666, "is_reserved": 0, "is_disabled": 0, "rental_uris": {"android": "https://dc.lft.to/lastmile_qr_scan", "ios": "https://dc.lft.to/lastmile_qr_scan"}, "name": "6e21be6fd2a8760261d19363e9a3c6e4", "type": "electric_scooter"}, {"fusion_lat": 0.0, "bike_id": "ebd98e35790a4834c82886975ab3ef4d", "fusion_lon": 0.0, "lon": -77.0329805, "lat": 38.92860016666667, "is_reserved": 0, "is_disabled": 0, "rental_uris": {"android": "https://dc.lft.to/lastmile_qr_scan", "ios": "https://dc.lft.to/lastmile_qr_scan"}, "name": "ebd98e35790a4834c82886975ab3ef4d", "type": "electric_scooter"}, {"fusion_lat": 0.0, "bike_id": "54b0b028956d21ef4f54127f85dbd729", "fusion_lon": 0.0, "lon": -76.942961, "lat": 38.938651166666666, "is_reserved": 0, "is_disabled": 0, "rental_uris": {"android": "https://dc.lft.to/lastmile_qr_scan", "ios": "https://dc.lft.to/lastmile_qr_scan"}, "name": "54b0b028956d21ef4f54127f85dbd729", "type": "electric_bike"}, {"fusion_lat": 0.0, "bike_id": "8b16cf0aa3d9b2ce045447acaa1939e8", "fusion_lon": 0.0, "lon": -77.02177566666667, "lat": 38.887218833333336, "is_reserved": 0, "is_disabled": 0, "rental_uris": {"android": "https://dc.lft.to/lastmile_qr_scan", "ios": "https://dc.lft.to/lastmile_qr_scan"}, "name": "8b16cf0aa3d9b2ce045447acaa1939e8", "type": "electric_scooter"}, {"fusion_lat": 0.0, "bike_id": "94ee22ae7c6fe989adc50da5a97556cd", "fusion_lon": 0.0, "lon": -77.100908, "lat": 38.95952616666667, "is_reserved": 0, "is_disabled": 0, "rental_uris": {"android": "https://dc.lft.to/lastmile_qr_scan", "ios": "https://dc.lft.to/lastmile_qr_scan"}, "name": "94ee22ae7c6fe989adc50da5a97556cd", "type": "electric_bike"}, {"fusion_lat": 0.0, "bike_id": "3d13afa257b0ab579200dcbe8808042a", "fusion_lon": 0.0, "lon": -77.04584483333333, "lat": 38.90952583333333, "is_reserved": 0, "is_disabled": 0, "rental_uris": {"android": "https://dc.lft.to/lastmile_qr_scan", "ios": "https://dc.lft.to/lastmile_qr_scan"}, "name": "3d13afa257b0ab579200dcbe8808042a", "type": "electric_scooter"}, {"fusion_lat": 0.0, "bike_id": "60dfa71966346835d74cac26477c7112", "fusion_lon": 0.0, "lon": -77.03530216666667, "lat": 38.92620516666667, "is_reserved": 0, "is_disabled": 0, "rental_uris": {"android": "https://dc.lft.to/lastmile_qr_scan", "ios": "https://dc.lft.to/lastmile_qr_scan"}, "name": "60dfa71966346835d74cac26477c7112", "type": "electric_scooter"}, {"fusion_lat": 0.0, "bike_id": "ae67ce4139af8cf8e43510c02d4a0511", "fusion_lon": 0.0, "lon": -77.0179255, "lat": 38.919519, "is_reserved": 0, "is_disabled": 0, "rental_uris": {"android": "https://dc.lft.to/lastmile_qr_scan", "ios": "https://dc.lft.to/lastmile_qr_scan"}, "name": "ae67ce4139af8cf8e43510c02d4a0511", "type": "electric_scooter"}, {"fusion_lat": 0.0, "bike_id": "ad2ac9423160efd6cecf24f4ed57c8cd", "fusion_lon": 0.0, "lon": -77.02841766666667, "lat": 38.8874125, "is_reserved": 0, "is_disabled": 0, "rental_uris": {"android": "https://dc.lft.to/lastmile_qr_scan", "ios": "https://dc.lft.to/lastmile_qr_scan"}, "name": "ad2ac9423160efd6cecf24f4ed57c8cd", "type": "electric_scooter"}, {"fusion_lat": 0.0, "bike_id": "63d5d982158140a9ebaf941de3d05686", "fusion_lon": 0.0, "lon": -77.0384995, "lat": 38.92164266666666, "is_reserved": 0, "is_disabled": 0, "rental_uris": {"android": "https://dc.lft.to/lastmile_qr_scan", "ios": "https://dc.lft.to/lastmile_qr_scan"}, "name": "63d5d982158140a9ebaf941de3d05686", "type": "electric_scooter"}, {"fusion_lat": 0.0, "bike_id": "b035833a78ce33cc34fca2984b03fe30", "fusion_lon": 0.0, "lon": -77.0220315, "lat": 38.922406, "is_reserved": 0, "is_disabled": 0, "rental_uris": {"android": "https://dc.lft.to/lastmile_qr_scan", "ios": "https://dc.lft.to/lastmile_qr_scan"}, "name": "b035833a78ce33cc34fca2984b03fe30", "type": "electric_scooter"}, {"fusion_lat": 0.0, "bike_id": "75b491172dada71efa1b40ed5b5cc043", "fusion_lon": 0.0, "lon": -77.07609216666667, "lat": 38.920576, "is_reserved": 0, "is_disabled": 0, "rental_uris": {"android": "https://dc.lft.to/lastmile_qr_scan", "ios": "https://dc.lft.to/lastmile_qr_scan"}, "name": "75b491172dada71efa1b40ed5b5cc043", "type": "electric_scooter"}, {"fusion_lat": 0.0, "bike_id": "84ef7810673c0966d495125e46c95c26", "fusion_lon": 0.0, "lon": -77.11614266666666, "lat": 38.85486366666667, "is_reserved": 0, "is_disabled": 0, "rental_uris": {"android": "https://dc.lft.to/lastmile_qr_scan", "ios": "https://dc.lft.to/lastmile_qr_scan"}, "name": "84ef7810673c0966d495125e46c95c26", "type": "electric_bike"}, {"fusion_lat": 0.0, "bike_id": "dfa8a621a38281b774459b0ed2c5fe37", "fusion_lon": 0.0, "lon": -77.13310166666666, "lat": 38.887182, "is_reserved": 0, "is_disabled": 0, "rental_uris": {"android": "https://dc.lft.to/lastmile_qr_scan", "ios": "https://dc.lft.to/lastmile_qr_scan"}, "name": "dfa8a621a38281b774459b0ed2c5fe37", "type": "electric_bike"}, {"fusion_lat": 0.0, "bike_id": "0882449843b2b9734a2258c1841c89c7", "fusion_lon": 0.0, "lon": -76.9809615, "lat": 38.90407016666666, "is_reserved": 0, "is_disabled": 0, "rental_uris": {"android": "https://dc.lft.to/lastmile_qr_scan", "ios": "https://dc.lft.to/lastmile_qr_scan"}, "name": "0882449843b2b9734a2258c1841c89c7", "type": "electric_scooter"}, {"fusion_lat": 0.0, "bike_id": "5be7bc60f637e812e3ea7bbb19deee59", "fusion_lon": 0.0, "lon": -76.98615016666666, "lat": 38.88296183333333, "is_reserved": 0, "is_disabled": 0, "rental_uris": {"android": "https://dc.lft.to/lastmile_qr_scan", "ios": "https://dc.lft.to/lastmile_qr_scan"}, "name": "5be7bc60f637e812e3ea7bbb19deee59", "type": "electric_scooter"}, {"fusion_lat": 0.0, "bike_id": "9c18c37b85cdfaa3ad117922f9b21347", "fusion_lon": 0.0, "lon": -77.01783016666667, "lat": 38.88618016666667, "is_reserved": 0, "is_disabled": 0, "rental_uris": {"android": "https://dc.lft.to/lastmile_qr_scan", "ios": "https://dc.lft.to/lastmile_qr_scan"}, "name": "9c18c37b85cdfaa3ad117922f9b21347", "type": "electric_scooter"}, {"fusion_lat": 0.0, "bike_id": "be1a01d9228716be2db0e4aae6d29d88", "fusion_lon": 0.0, "lon": -77.04181666666666, "lat": 38.89254716666667, "is_reserved": 0, "is_disabled": 0, "rental_uris": {"android": "https://dc.lft.to/lastmile_qr_scan", "ios": "https://dc.lft.to/lastmile_qr_scan"}, "name": "be1a01d9228716be2db0e4aae6d29d88", "type": "electric_scooter"}, {"fusion_lat": 0.0, "bike_id": "05715b15969fa7b98b795b8b967fc951", "fusion_lon": 0.0, "lon": -77.03545366666667, "lat": 38.9241195, "is_reserved": 0, "is_disabled": 0, "rental_uris": {"android": "https://dc.lft.to/lastmile_qr_scan", "ios": "https://dc.lft.to/lastmile_qr_scan"}, "name": "05715b15969fa7b98b795b8b967fc951", "type": "electric_scooter"}, {"fusion_lat": 0.0, "bike_id": "a9ab48f198bf257cfd0b6b2ccea80eaa", "fusion_lon": 0.0, "lon": -77.025323, "lat": 38.918158, "is_reserved": 0, "is_disabled": 0, "rental_uris": {"android": "https://dc.lft.to/lastmile_qr_scan", "ios": "https://dc.lft.to/lastmile_qr_scan"}, "name": "a9ab48f198bf257cfd0b6b2ccea80eaa", "type": "electric_scooter"}, {"fusion_lat": 0.0, "bike_id": "8e6d477667bf6f2af60441c0fcc58d53", "fusion_lon": 0.0, "lon": -77.0453925, "lat": 38.91323633333333, "is_reserved": 0, "is_disabled": 0, "rental_uris": {"android": "https://dc.lft.to/lastmile_qr_scan", "ios": "https://dc.lft.to/lastmile_qr_scan"}, "name": "8e6d477667bf6f2af60441c0fcc58d53", "type": "electric_scooter"},