{"data": {"bikes": [{"is_disabled": 0, "fusion_lon": 0.0, "fusion_lat": 0.0, "lat": 38.916967666666665, "type": "electric_scooter", "lon": -77.04276033333333, "bike_id": "799e38cfce6e43111086879fbf46f45e", "rental_uris": {"android": "https://dc.lft.to/lastmile_qr_scan", "ios": "https://dc.lft.to/lastmile_qr_scan"}, "name": "799e38cfce6e43111086879fbf46f45e", "is_reserved": 0}, {"is_disabled": 0, "fusion_lon": 0.0, "fusion_lat": 0.0, "lat": 38.9097595, "type": "electric_scooter", "lon": -77.03446933333333, "bike_id": "6b4e0236bae4db75542d14a090a099df", "rental_uris": {"android": "https://dc.lft.to/lastmile_qr_scan", "ios": "https://dc.lft.to/lastmile_qr_scan"}, "name": "6b4e0236bae4db75542d14a090a099df", "is_reserved": 0}, {"is_disabled": 0, "fusion_lon": 0.0, "fusion_lat": 0.0, "lat": 38.897302, "type": "electric_bike", "lon": -76.90536466666667, "bike_id": "a140d7ace1db0f1fcde6da14779da694", "rental_uris": {"android": "https://dc.lft.to/lastmile_qr_scan", "ios": "https://dc.lft.to/lastmile_qr_scan"}, "name": "a140d7ace1db0f1fcde6da14779da694", "is_reserved": 0}, {"is_disabled": 0, "fusion_lon": 0.0, "fusion_lat": 0.0, "lat": 38.916588833333336, "type": "electric_scooter", "lon": -77.04651583333333, "bike_id": "9a1b05fe726d929f5eec0bd822fcb6f5", "rental_uris": {"android": "https://dc.lft.to/lastmile_qr_scan", "ios": "https://dc.lft.to/lastmile_qr_scan"}, "name": "9a1b05fe726d929f5eec0bd822fcb6f5", "is_reserved": 0}, {"is_disabled": 0, "fusion_lon": 0.0, "fusion_lat": 0.0, "lat": 38.91113716666667, "type": "electric_scooter", "lon": -77.0091875, "bike_id": "7390bfd043125c28aeaf4e61a13545cf", "rental_uris": {"android": "https://dc.lft.to/lastmile_qr_scan", "ios": "https://dc.lft.to/lastmile_qr_scan"}, "name": "7390bfd043125c28aeaf4e61a13545cf", "is_reserved": 0}, {"is_disabled": 0, "fusion_lon": 0.0, "fusion_lat": 0.0, "lat": 38.911188, "type": "electric_scooter", "lon": -77.040855, "bike_id": "d71e11886c4dba8ff25ef68224393910", "rental_uris": {"android": "https://dc.lft.to/lastmile_qr_scan", "ios": "https://dc.lft.to/lastmile_qr_scan"}, "name": "d71e11886c4dba8ff25ef68224393910", "is_reserved": 0}, {"is_disabled": 0, "fusion_lon": 0.0, "fusion_lat": 0.0, "lat": 38.9041675, "type": "electric_scooter", "lon": -77.02577, "bike_id": "856a4ac6909b829b37f0c31dbaf03ee3", "rental_uris": {"android": "https://dc.lft.to/lastmile_qr_scan", "ios": "https://dc.lft.to/lastmile_qr_scan"}, "name": "856a4ac6909b829b37f0c31dbaf03ee3", "is_reserved": 0}, {"is_disabled": 0, "fusion_lon": 0.0, "fusion_lat": 0.0, "lat": 38.91784116666667, "type": "electric_scooter", "lon": -77.02312416666666, "bike_id": "5828602ef2b1585015830a563dc75db1", "rental_uris": {"android": "https://dc.lft.to/lastmile_qr_scan", "ios": "https://dc.lft.to/lastmile_qr_scan"}, "name": "5828602ef2b1585015830a563dc75db1", "is_reserved": 0}, {"is_disabled": 0, "fusion_lon": 0.0, "fusion_lat": 0.0, "lat": 38.913059833333335, "type": "electric_scooter", "lon": -77.02032866666667, "bike_id": "acbde99eb24619e30eab37629b80c365", "rental_uris": {"android": "https://dc.lft.to/lastmile_qr_scan", "ios": "https://dc.lft.to/lastmile_qr_scan"}, "name": "acbde99eb24619e30eab37629b80c365", "is_reserved": 0}, {"is_disabled": 0, "fusion_lon": 0.0, "fusion_lat": 0.0, "lat": 38.886738333333334, "type": "electric_scooter", "lon": -77.00344066666666, "bike_id": "8e0403664b060e04af55bf93cfe40c47", "rental_uris": {"android": "https://dc.lft.to/lastmile_qr_scan", "ios": "https://dc.lft.to/lastmile_qr_scan"}, "name": "8e0403664b060e04af55bf93cfe40c47", "is_reserved": 0}, {"is_disabled": 0, "fusion_lon": 0.0, "fusion_lat": 0.0, "lat": 38.876567333333334, "type": "electric_scooter", "lon": -77.01739233333333, "bike_id": "0c1d77f67ce3f3b65cd8601f208333e5", "rental_uris": {"android": "https://dc.lft.to/lastmile_qr_scan", "ios": "https://dc.lft.to/lastmile_qr_scan"}, "name": "0c1d77f67ce3f3b65cd8601f208333e5", "is_reserved": 0}, {"is_disabled": 0, "fusion_lon": 0.0, "fusion_lat": 0.0, "lat": 38.96816583333333, "type": "electric_scooter", "lon": -77.00888833333333, "bike_id": "60559a20fcea9b9fc410c96021dcfe6c", "rental_uris": {"android": "https://dc.lft.to/lastmile_qr_scan", "ios": "https://dc.lft.to/lastmile_qr_scan"}, "name": "60559a20fcea9b9fc410c96021dcfe6c", "is_reserved": 0}, {"is_disabled": 0, "fusion_lon": 0.0, "fusion_lat": 0.0, "lat": 38.91684683333333, "type": "electric_scooter", "lon": -77.02699133333333, "bike_id": "d48b9bb116ec39ad41136ca62e2115ea", "rental_uris": {"android": "https://dc.lft.to/lastmile_qr_scan", "ios": "https://dc.lft.to/lastmile_qr_scan"}, "name": "d48b9bb116ec39ad41136ca62e2115ea", "is_reserved": 0}, {"is_disabled": 0, "fusion_lon": 0.0, "fusion_lat": 0.0, "lat": 39.05202883333333, "type": "electric_bike", "lon": -77.04411933333333, "bike_id": "e93ee2f035aa71dc0a262391c9cc29b0", "rental_uris": {"android": "https://dc.lft.to/lastmile_qr_scan", "ios": "https://dc.lft.to/lastmile_qr_scan"}, "name": "e93ee2f035aa71dc0a262391c9cc29b0", "is_reserved": 0}, {"is_disabled": 0, "fusion_lon": 0.0, "fusion_lat": 0.0, "lat": 38.91355433333333, "type": "electric_scooter", "lon": -77.04163166666666, "bike_id": "d1b0236369dd85714951e9a931a893ce", "rental_uris": {"android": "https://dc.lft.to/lastmile_qr_scan", "ios": "https://dc.lft.to/lastmile_qr_scan"}, "name": "d1b0236369dd85714951e9a931a893ce", "is_reserved": 0}, {"is_disabled": 0, "fusion_lon": 0.0, "fusion_lat": 0.0, "lat": 38.8873045, "type": "electric_scooter", "lon": -77.02832733333334, "bike_id": "11352da0e16372e72cd41d7c0815e4fb", "rental_uris": {"android": "https://dc.lft.to/lastmile_qr_scan", "ios": "https://dc.lft.to/lastmile_qr_scan"}, "name": "11352da0e16372e72cd41d7c0815e4fb", "is_reserved": 0}, {"is_disabled": 0, "fusion_lon": 0.0, "fusion_lat": 0.0, "lat": 38.9111765, "type": "electric_scooter", "lon": -77.03829083333333, "bike_id": "ecabed98ca79af8c148f4a183f9038df", "rental_uris": {"android": "https://dc.lft.to/lastmile_qr_scan", "ios": "https://dc.lft.to/lastmile_qr_scan"}, "name": "ecabed98ca79af8c148f4a183f9038df", "is_reserved": 0}, {"is_disabled": 0, "fusion_lon": 0.0, "fusion_lat": 0.0, "lat": 38.88764183333333, "type": "electric_scooter", "lon": -76.95672533333334, "bike_id": "b0467b3417214eb6789e25f76558374e", "rental_uris": {"android": "https://dc.lft.to/lastmile_qr_scan", "ios": "https://dc.lft.to/lastmile_qr_scan"}, "name": "b0467b3417214eb6789e25f76558374e", "is_reserved": 0}, {"is_disabled": 0, "fusion_lon": 0.0, "fusion_lat": 0.0, "lat": 38.95278233333333, "type": "electric_scooter", "lon": -77.068337, "bike_id": "25cd593fe88b49b8e783c84cc0cb7d5a", "rental_uris": {"android": "https://dc.lft.to/lastmile_qr_scan", "ios": "https://dc.lft.to/lastmile_qr_scan"}, "name": "25cd593fe88b49b8e783c84cc0cb7d5a", "is_reserved": 0}, {"is_disabled": 0, "fusion_lon": 0.0, "fusion_lat": 0.0, "lat": 38.9041865, "type": "electric_scooter", "lon": -76.98512, "bike_id": "dd98178a6ec26cb3413627c7cbc3074d", "rental_uris": {"android": "https://dc.lft.to/lastmile_qr_scan", "ios": "https://dc.lft.to/lastmile_qr_scan"}, "name": "dd98178a6ec26cb3413627c7cbc3074d", "is_reserved": 0}, {"is_disabled": 0, "fusion_lon": 0.0, "fusion_lat": 0.0, "lat": 38.90026483333333, "type": "electric_scooter", "lon": -76.99829966666667, "bike_id": "ee1bbe9c47434c033fc0e116106fa437", "rental_uris": {"android": "https://dc.lft.to/lastmile_qr_scan", "ios": "https://dc.lft.to/lastmile_qr_scan"}, "name": "ee1bbe9c47434c033fc0e116106fa437", "is_reserved": 0}, {"is_disabled": 0, "fusion_lon": 0.0, "fusion_lat": 0.0, "lat": 38.910399166666664, "type": "electric_scooter", "lon": -77.0405215, "bike_id": "491995976bc88eb0069b7e99e4e10fa9", "rental_uris": {"android": "https://dc.lft.to/lastmile_qr_scan", "ios": "https://dc.lft.to/lastmile_qr_scan"}, "name": "491995976bc88eb0069b7e99e4e10fa9", "is_reserved": 0}, {"is_disabled": 0, "fusion_lon": 0.0, "fusion_lat": 0.0, "lat": 38.8987585, "type": "electric_scooter", "lon": -76.93184383333333, "bike_id": "e3364387e48fc0cba7739e823c76d7e9", "rental_uris": {"android": "https://dc.lft.to/lastmile_qr_scan", "ios": "https://dc.lft.to/lastmile_qr_scan"}, "name": "e3364387e48fc0cba7739e823c76d7e9", "is_reserved": 0}, {"is_disabled": 0, "fusion_lon": 0.0, "fusion_lat": 0.0, "lat": 38.825923, "type": "electric_bike", "lon": -77.00748216666666, "bike_id": "a0dab45be6181ccdd52794bf09b0eb6a", "rental_uris": {"android": "https://dc.lft.to/lastmile_qr_scan", "ios": "https://dc.lft.to/lastmile_qr_scan"}, "name": "a0dab45be6181ccdd52794bf09b0eb6a", "is_reserved": 0}, {"is_disabled": 0, "fusion_lon": 0.0, "fusion_lat": 0.0, "lat": 38.926217, "type": "electric_scooter", "lon": -77.05709916666666, "bike_id": "b1d8c293f13f11fd765987f1b45f61e0", "rental_uris": {"android": "https://dc.lft.to/lastmile_qr_scan", "ios": "https://dc.lft.to/lastmile_qr_scan"}, "name": "b1d8c293f13f11fd765987f1b45f61e0", "is_reserved": 0}, {"is_disabled": 0, "fusion_lon": 0.0, "fusion_lat": 0.0, "lat": 38.905032, "type": "electric_scooter", "lon": -76.988551, "bike_id": "9e5a1c1aef76c16ffabc49799ce561aa", "rental_uris": {"android": "https://dc.lft.to/lastmile_qr_scan", "ios": "https://dc.lft.to/lastmile_qr_scan"}, "name": "9e5a1c1aef76c16ffabc49799ce561aa", "is_reserved": 0}, {"is_disabled": 0, "fusion_lon": 0.0, "fusion_lat": 0.0, "lat": 38.93207266666667, "type": "electric_scooter", "lon": -77.03677, "bike_id": "a6e73fe37ed93726750b97ef7d820995", "rental_uris": {"android": "https://dc.lft.to/lastmile_qr_scan", "ios": "https://dc.lft.to/lastmile_qr_scan"}, "name": "a6e73fe37ed93726750b97ef7d820995", "is_reserved": 0}, {"is_disabled": 0, "fusion_lon": 0.0, "fusion_lat": 0.0, "lat": 38.9092335, "type": "electric_scooter", "lon": -77.02297666666666, "bike_id": "67d6745d670538ee967309684b8d8cda", "rental_uris": {"android": "https://dc.lft.to/lastmile_qr_scan", "ios": "https://dc.lft.to/lastmile_qr_scan"}, "name": "67d6745d670538ee967309684b8d8cda", "is_reserved": 0}, {"is_disabled": 0, "fusion_lon": 0.0, "fusion_lat": 0.0, "lat": 38.8998925, "type": "electric_scooter", "lon": -77.02957566666667, "bike_id": "449b1cc0b733570cdc33e09a24ddbc16", "rental_uris": {"android": "https://dc.lft.to/lastmile_qr_scan", "ios": "https://dc.lft.to/lastmile_qr_scan"}, "name": "449b1cc0b733570cdc33e09a24ddbc16", "is_reserved": 0}, {"is_disabled": 0, "fusion_lon": 0.0, "fusion_lat": 0.0, "lat": 38.90731433333333, "type": "electric_scooter", "lon": -77.02364133333333, "bike_id": "5f36fcba3e05c9d1ea4d403586dd130f", "rental_uris": {"android": "https://dc.lft.to/lastmile_qr_scan", "ios": "https://dc.lft.to/lastmile_qr_scan"}, "name": "5f36fcba3e05c9d1ea4d403586dd130f", "is_reserved": 0}, {"is_disabled": 0, "fusion_lon": 0.0, "fusion_lat": 0.0, "lat": 38.9050965, "type": "electric_scooter", "lon": -77.02512083333333, "bike_id": "059438ce3ddc5a93f2c9ce87c0be506a", "rental_uris": {"android": "https://dc.lft.to/lastmile_qr_scan", "ios": "https://dc.lft.to/lastmile_qr_scan"}, "name": "059438ce3ddc5a93f2c9ce87c0be506a", "is_reserved": 0}, {"is_disabled": 0, "fusion_lon": 0.0, "fusion_lat": 0.0, "lat": 38.9849565, "type": "electric_bike", "lon": -76.98207216666667, "bike_id": "e0ef125779ff4d2b061c59dcb0e4a4f2", "rental_uris": {"android": "https://dc.lft.to/lastmile_qr_scan", "ios": "https://dc.lft.to/lastmile_qr_scan"}, "name": "e0ef125779ff4d2b061c59dcb0e4a4f2", "is_reserved": 0}, {"is_disabled": 0, "fusion_lon": 0.0, "fusion_lat": 0.0, "lat": 38.91882783333333, "type": "electric_scooter", "lon": -77.041738, "bike_id": "9063a160c38f0338c478da232c101f91", "rental_uris": {"android": "https://dc.lft.to/lastmile_qr_scan", "ios": "https://dc.lft.to/lastmile_qr_scan"}, "name": "9063a160c38f0338c478da232c101f91", "is_reserved": 0}, {"is_disabled": 0, "fusion_lon": 0.0, "fusion_lat": 0.0, "lat": 38.91815916666667, "type": "electric_scooter", "lon": -77.02476866666667, "bike_id": "7fbb0c8cb84cbbb09e81e1bad2f2936f", "rental_uris": {"android": "https://dc.lft.to/lastmile_qr_scan", "ios": "https://dc.lft.to/lastmile_qr_scan"}, "name": "7fbb0c8cb84cbbb09e81e1bad2f2936f", "is_reserved": 0}, {"is_disabled": 0, "fusion_lon": 0.0, "fusion_lat": 0.0, "lat": 38.912708333333335, "type": "electric_scooter", "lon": -77.02226666666667, "bike_id": "67196494cdf07a657586396327748948", "rental_uris": {"android": "https://dc.lft.to/lastmile_qr_scan", "ios": "https://dc.lft.to/lastmile_qr_scan"}, "name": "67196494cdf07a657586396327748948", "is_reserved": 0}, {"is_disabled": 0, "fusion_lon": 0.0, "fusion_lat": 0.0, "lat": 38.903069, "type": "electric_scooter", "lon": -77.02365516666667, "bike_id": "ed1c206ed240f727534c18c54989c0ee", "rental_uris": {"android": "https://dc.lft.to/lastmile_qr_scan", "ios": "https://dc.lft.to/lastmile_qr_scan"}, "name": "ed1c206ed240f727534c18c54989c0ee", "is_reserved": 0}, {"is_disabled": 0, "fusion_lon": 0.0, "fusion_lat": 0.0, "lat": 38.9462585, "type": "electric_bike", "lon": -76.93414316666667, "bike_id": "f73551e53040c01bac58988a62414061", "rental_uris": {"android": "https://dc.lft.to/lastmile_qr_scan", "ios": "https://dc.lft.to/lastmile_qr_scan"}, "name": "f73551e53040c01bac58988a62414061", "is_reserved": 0}, {"is_disabled": 0, "fusion_lon": 0.0, "fusion_lat": 0.0, "lat": 38.91697816666667, "type": "electric_scooter", "lon": -77.0400735, "bike_id": "2fa0e704bb8b51b0ef96f5bb26c05133", "rental_uris": {"android": "https://dc.lft.to/lastmile_qr_scan", "ios": "https://dc.lft.to/lastmile_qr_scan"}, "name": "2fa0e704bb8b51b0ef96f5bb26c05133", "is_reserved": 0}, {"is_disabled": 0, "fusion_lon": 0.0, "fusion_lat": 0.0, "lat": 38.931496833333334, "type": "electric_scooter", "lon": -77.04374183333333, "bike_id": "baabb6b605d99ec2fc84e55f6b600ce4", "rental_uris": {"android": "https://dc.lft.to/lastmile_qr_scan", "ios": "https://dc.lft.to/lastmile_qr_scan"}, "name": "baabb6b605d99ec2fc84e55f6b600ce4", "is_reserved": 0}, {"is_disabled": 0, "fusion_lon": 0.0, "fusion_lat": 0.0, "lat": 38.92306716666667, "type": "electric_scooter", "lon": -77.04042416666667, "bike_id": "7bd9b5d42e153c72511215e733982c52", "rental_uris": {"android": "https://dc.lft.to/lastmile_qr_scan", "ios": "https://dc.lft.to/lastmile_qr_scan"}, "name": "7bd9b5d42e153c72511215e733982c52", "is_reserved": 0}, {"is_disabled": 0, "fusion_lon": 0.0, "fusion_lat": 0.0, "lat": 38.93094766666667, "type": "electric_scooter", "lon": -77.02470966666667, "bike_id": "0254845f7e9f3758f4e21cda1e0f39ed", "rental_uris": {"android": "https://dc.lft.to/lastmile_qr_scan", "ios": "https://dc.lft.to/lastmile_qr_scan"}, "name": "0254845f7e9f3758f4e21cda1e0f39ed", "is_reserved": 0}, {"is_disabled": 0, "fusion_lon": 0.0, "fusion_lat": 0.0, "lat": 38.876304833333336, "type": "electric_scooter", "lon": -77.01260433333333, "bike_id": "996f3eb90c02e9f960f58388e93bde03", "rental_uris": {"android": "https://dc.lft.to/lastmile_qr_scan", "ios": "https://dc.lft.to/lastmile_qr_scan"}, "name": "996f3eb90c02e9f960f58388e93bde03", "is_reserved": 0}, {"is_disabled": 0, "fusion_lon": 0.0, "fusion_lat": 0.0, "lat": 38.93240733333333, "type": "electric_scooter", "lon": -77.03413066666667, "bike_id": "0adb99adff854a7f70ed336958e509ff", "rental_uris": {"android": "https://dc.lft.to/lastmile_qr_scan", "ios": "https://dc.lft.to/lastmile_qr_scan"}, "name": "0adb99adff854a7f70ed336958e509ff", "is_reserved": 0}, {"is_disabled": 0, "fusion_lon": 0.0, "fusion_lat": 0.0, "lat": 38.953970166666664, "type": "electric_scooter", "lon": -77.02754583333333, "bike_id": "4af15163247feec16e286ff1cd18438a", "rental_uris": {"android": "https://dc.lft.to/lastmile_qr_scan", "ios": "https://dc.lft.to/lastmile_qr_scan"}, "name": "4af15163247feec16e286ff1cd18438a", "is_reserved": 0}, {"is_disabled": 0, "fusion_lon": 0.0, "fusion_lat": 0.0, "lat": 38.96644083333333, "type": "electric_bike", "lon": -76.9301915, "bike_id": "e7c5552af3226496bc9d3c994970e56f", "rental_uris": {"android": "https://dc.lft.to/lastmile_qr_scan", "ios": "https://dc.lft.to/lastmile_qr_scan"}, "name": "e7c5552af3226496bc9d3c994970e56f", "is_reserved": 0}, {"is_disabled": 0, "fusion_lon": 0.0, "fusion_lat": 0.0, "lat": 38.92710783333333, "type": "electric_scooter", "lon": -77.05363516666667, "bike_id": "ffed96a77be8ee0e9a2e2287486e6b0b", "rental_uris": {"android": "https://dc.lft.to/lastmile_qr_scan", "ios": "https://dc.lft.to/lastmile_qr_scan"}, "name": "ffed96a77be8ee0e9a2e2287486e6b0b", "is_reserved": 0}, {"is_disabled": 0, "fusion_lon": 0.0, "fusion_lat": 0.0, "lat": 38.92790183333334, "type": "electric_scooter", "lon": -77.03109233333333, "bike_id": "8730a865240b3f40c2f5484b40927bdc", "rental_uris": {"android": "https://dc.lft.to/lastmile_qr_scan", "ios": "https://dc.lft.to/lastmile_qr_scan"}, "name": "8730a865240b3f40c2f5484b40927bdc", "is_reserved": 0}, {"is_disabled": 0, "fusion_lon": 0.0, "fusion_lat": 0.0, "lat": 38.90243016666667, "type": "electric_scooter", "lon": -77.01805433333334, "bike_id": "7a9abf8172a4ecd4d8f47268c157cfe9", "rental_uris": {"android": "https://dc.lft.to/lastmile_qr_scan", "ios": "https://dc.lft.to/lastmile_qr_scan"}, "name": "7a9abf8172a4ecd4d8f47268c157cfe9", "is_reserved": 0}, {"is_disabled": 0, "fusion_lon": 0.0, "fusion_lat": 0.0, "lat": 38.935415, "type": "electric_scooter", "lon": -77.034056, "bike_id": "4068855a64648474754b6d6f61cf6e32", "rental_uris": {"android": "https://dc.lft.to/lastmile_qr_scan", "ios": "https://dc.lft.to/lastmile_qr_scan"}, "name": "4068855a64648474754b6d6f61cf6e32", "is_reserved": 0}, {"is_disabled": 0, "fusion_lon": 0.0, "fusion_lat": 0.0, "lat": 38.9419145, "type": "electric_scooter", "lon": -77.033282, "bike_id": "3c913f93f9b9ed14a3cb3c47fe30ca0a", "rental_uris": {"android": "https://dc.lft.to/lastmile_qr_scan", "ios": "https://dc.lft.to/lastmile_qr_scan"}, "name": "3c913f93f9b9ed14a3cb3c47fe30ca0a", "is_reserved": 0}, {"is_disabled": 0, "fusion_lon": 0.0, "fusion_lat": 0.0, "lat": 38.908356, "type": "electric_scooter", "lon": -77.0488465, "bike_id": "018639ae8e748bdd4edef1cdf6a1cb6c", "rental_uris": {"android": "https://dc.lft.to/lastmile_qr_scan", "ios": "https://dc.lft.to/lastmile_qr_scan"}, "name": "018639ae8e748bdd4edef1cdf6a1cb6c", "is_reserved": 0}, {"is_disabled": 0, "fusion_lon": 0.0, "fusion_lat": 0.0, "lat": 38.912139333333336, "type": "electric_scooter", "lon": -77.027194, "bike_id": "55efec41c435113424c8d10546bde814", "rental_uris": {"android": "https://dc.lft.to/lastmile_qr_scan", "ios": "https://dc.lft.to/lastmile_qr_scan"}, "name": "55efec41c435113424c8d10546bde814", "is_reserved": 0}, {"is_disabled": 0, "fusion_lon": 0.0, "fusion_lat": 0.0, "lat": 38.887455333333335, "type": "electric_scooter", "lon": -77.02573683333334, "bike_id": "7a282fb79ac84bdae420035e92967f00", "rental_uris": {"android": "https://dc.lft.to/lastmile_qr_scan", "ios": "https://dc.lft.to/lastmile_qr_scan"}, "name": "7a282fb79ac84bdae420035e92967f00", "is_reserved": 0}, {"is_disabled": 0, "fusion_lon": 0.0, "fusion_lat": 0.0, "lat": 38.90855666666667, "type": "electric_scooter", "lon": -76.99798366666667, "bike_id": "fdb1045de80d1ad644e4f1ed0bceccaf", "rental_uris": {"android": "https://dc.lft.to/lastmile_qr_scan", "ios": "https://dc.lft.to/lastmile_qr_scan"}, "name": "fdb1045de80d1ad644e4f1ed0bceccaf", "is_reserved": 0}, {"is_disabled": 0, "fusion_lon": 0.0, "fusion_lat": 0.0, "lat": 38.881236333333334, "type": "electric_scooter", "lon": -77.01651033333333, "bike_id": "9c3b2968b7de720aba3540a270d37451", "rental_uris": {"android": "https://dc.lft.to/lastmile_qr_scan", "ios": "https://dc.lft.to/lastmile_qr_scan"}, "name": "9c3b2968b7de720aba3540a270d37451", "is_reserved": 0}, {"is_disabled": 0, "fusion_lon": 0.0, "fusion_lat": 0.0, "lat": 38.9188045, "type": "electric_scooter", "lon": -77.04178233333333, "bike_id": "41aea24f59d2a4296f0d2dc45a0fd127", "rental_uris": {"android": "https://dc.lft.to/lastmile_qr_scan", "ios": "https://dc.lft.to/lastmile_qr_scan"}, "name": "41aea24f59d2a4296f0d2dc45a0fd127", "is_reserved": 0}, {"is_disabled": 0, "fusion_lon": 0.0, "fusion_lat": 0.0, "lat": 38.89664833333333, "type": "electric_scooter", "lon": -77.05039366666666, "bike_id": "f2e08c3deaaac4aac246dc724b68e714", "rental_uris": {"android": "https://dc.lft.to/lastmile_qr_scan", "ios": "https://dc.lft.to/lastmile_qr_scan"}, "name": "f2e08c3deaaac4aac246dc724b68e714", "is_reserved": 0}, {"is_disabled": 0, "fusion_lon": 0.0, "fusion_lat": 0.0, "lat": 38.857827666666665, "type": "electric_bike", "lon": -76.98750816666667, "bike_id": "9ebcd1a76c618c51a96ee8b4d14cb9b4", "rental_uris": {"android": "https://dc.lft.to/lastmile_qr_scan", "ios": "https://dc.lft.to/lastmile_qr_scan"}, "name": "9ebcd1a76c618c51a96ee8b4d14cb9b4", "is_reserved": 0}, {"is_disabled": 0, "fusion_lon": 0.0, "fusion_lat": 0.0, "lat": 38.917875333333335, "type": "electric_scooter", "lon": -77.0345875, "bike_id": "d694964e32791febb2c0c082315eb3f2", "rental_uris": {"android": "https://dc.lft.to/lastmile_qr_scan", "ios": "https://dc.lft.to/lastmile_qr_scan"}, "name": "d694964e32791febb2c0c082315eb3f2", "is_reserved": 0}, {"is_disabled": 0, "fusion_lon": 0.0, "fusion_lat": 0.0, "lat": 38.95614533333333, "type": "electric_scooter", "lon": -77.03279833333333, "bike_id": "3b0b95813e02abac7cfd61589281cc65", "rental_uris": {"android": "https://dc.lft.to/lastmile_qr_scan", "ios": "https://dc.lft.to/lastmile_qr_scan"}, "name": "3b0b95813e02abac7cfd61589281cc65", "is_reserved": 0}, {"is_disabled": 0, "fusion_lon": 0.0, "fusion_lat": 0.0, "lat": 38.9067725, "type": "electric_scooter", "lon": -77.03637083333334, "bike_id": "c060b57715a919162a3def993dd21dc3", "rental_uris": {"android": "https://dc.lft.to/lastmile_qr_scan", "ios": "https://dc.lft.to/lastmile_qr_scan"}, "name": "c060b57715a919162a3def993dd21dc3", "is_reserved": 0}, {"is_disabled": 0, "fusion_lon": 0.0, "fusion_lat": 0.0, "lat": 38.917852833333335, "type": "electric_scooter", "lon": -77.02310866666667, "bike_id": "2098434b4781df97d8d9c22c246c22cb", "rental_uris": {"android": "https://dc.lft.to/lastmile_qr_scan", "ios": "https://dc.lft.to/lastmile_qr_scan"}, "name": "2098434b4781df97d8d9c22c246c22cb", "is_reserved": 0}, {"is_disabled": 0, "fusion_lon": 0.0, "fusion_lat": 0.0, "lat": 38.904311, "type": "electric_scooter", "lon": -77.02604316666667, "bike_id": "d672ceabdccc8823cd53a5c5e1b42485", "rental_uris": {"android": "https://dc.lft.to/lastmile_qr_scan", "ios": "https://dc.lft.to/lastmile_qr_scan"}, "name": "d672ceabdccc8823cd53a5c5e1b42485", "is_reserved": 0}, {"is_disabled": 0, "fusion_lon": 0.0, "fusion_lat": 0.0, "lat": 38.880030166666664, "type": "electric_bike", "lon": -76.91597466666667, "bike_id": "79ecd07e5affa3df9de8a6a76c669eaa", "rental_uris": {"android": "https://dc.lft.to/lastmile_qr_scan", "ios": "https://dc.lft.to/lastmile_qr_scan"}, "name": "79ecd07e5affa3df9de8a6a76c669eaa", "is_reserved": 0}, {"is_disabled": 0, "fusion_lon": 0.0, "fusion_lat": 0.0, "lat": 38.901595, "type": "electric_scooter", "lon": -77.022074, "bike_id": "bc4ad3df5b7a9b618828adf73ba777da", "rental_uris": {"android": "https://dc.lft.to/lastmile_qr_scan", "ios": "https://dc.lft.to/lastmile_qr_scan"}, "name": "bc4ad3df5b7a9b618828adf73ba777da", "is_reserved": 0}, {"is_disabled": 0, "fusion_lon": 0.0, "fusion_lat": 0.0, "lat": 38.828755, "type": "electric_bike", "lon": -77.11220666666667, "bike_id": "378b79092d9b2a3ace88b0ca5b84fce2", "rental_uris": {"android": "https://dc.lft.to/lastmile_qr_scan", "ios": "https://dc.lft.to/lastmile_qr_scan"}, "name": "378b79092d9b2a3ace88b0ca5b84fce2", "is_reserved": 0}, {"is_disabled": 0, "fusion_lon": 0.0, "fusion_lat": 0.0, "lat": 38.902539166666664, "type": "electric_scooter", "lon": -77.06109083333334, "bike_id": "e51d9738407fb0467af9b1d3d51316ad", "rental_uris": {"android": "https://dc.lft.to/lastmile_qr_scan", "ios": "https://dc.lft.to/lastmile_qr_scan"}, "name": "e51d9738407fb0467af9b1d3d51316ad", "is_reserved": 0}, {"is_disabled": 0, "fusion_lon": 0.0, "fusion_lat": 0.0, "lat": 38.916936666666665, "type": "electric_scooter", "lon": -77.0284235, "bike_id": "11957c23e8e3462889fb840510b8f023", "rental_uris": {"android": "https://dc.lft.to/lastmile_qr_scan", "ios": "https://dc.lft.to/lastmile_qr_scan"}, "name": "11957c23e8e3462889fb840510b8f023", "is_reserved": 0}, {"is_disabled": 0, "fusion_lon": 0.0, "fusion_lat": 0.0, "lat": 38.91818833333333, "type": "electric_scooter", "lon": -77.04013233333333, "bike_id": "3fce1dcab0ee94c822b9ada7edebd006", "rental_uris": {"android": "https://dc.lft.to/lastmile_qr_scan", "ios": "https://dc.lft.to/lastmile_qr_scan"}, "name": "3fce1dcab0ee94c822b9ada7edebd006", "is_reserved": 0}, {"is_disabled": 0, "fusion_lon": 0.0, "fusion_lat": 0.0, "lat": 38.903781333333335, "type": "electric_scooter", "lon": -77.01777516666667, "bike_id": "9a0fbf7579edb170837bac3c67323acc", "rental_uris": {"android": "https://dc.lft.to/lastmile_qr_scan", "ios": "https://dc.lft.to/lastmile_qr_scan"}, "name": "9a0fbf7579edb170837bac3c67323acc", "is_reserved": 0}, {"is_disabled": 0, "fusion_lon": 0.0, "fusion_lat": 0.0, "lat": 38.915475, "type": "electric_scooter", "lon": -77.03850283333334, "bike_id": "8e804fa22ab72be32eee83e764b80ae5", "rental_uris": {"android": "https://dc.lft.to/lastmile_qr_scan", "ios": "https://dc.lft.to/lastmile_qr_scan"}, "name": "8e804fa22ab72be32eee83e764b80ae5", "is_reserved": 0}, {"is_disabled": 0, "fusion_lon": 0.0, "fusion_lat": 0.0, "lat": 38.897221, "type": "electric_scooter", "lon": -77.021586, "bike_id": "ff8df50619fccf6e25a514e04f8f9b06", "rental_uris": {"android": "https://dc.lft.to/lastmile_qr_scan", "ios": "https://dc.lft.to/lastmile_qr_scan"}, "name": "ff8df50619fccf6e25a514e04f8f9b06", "is_reserved": 0}, {"is_disabled": 0, "fusion_lon": 0.0, "fusion_lat": 0.0, "lat": 38.934899, "type": "electric_scooter", "lon": -77.03287833333333, "bike_id": "812d3f3199286ae438b30b4425f1ade6", "rental_uris": {"android": "https://dc.lft.to/lastmile_qr_scan", "ios": "https://dc.lft.to/lastmile_qr_scan"}, "name": "812d3f3199286ae438b30b4425f1ade6", "is_reserved": 0}, {"is_disabled": 0, "fusion_lon": 0.0, "fusion_lat": 0.0, "lat": 38.92553983333333, "type": "electric_scooter", "lon": -77.052978, "bike_id": "047c9964242a52a7f7d12b1250590384", "rental_uris": {"android": "https://dc.lft.to/lastmile_qr_scan", "ios": "https://dc.lft.to/lastmile_qr_scan"}, "name": "047c9964242a52a7f7d12b1250590384", "is_reserved": 0}, {"is_disabled": 0, "fusion_lon": 0.0, "fusion_lat": 0.0, "lat": 39.00015616666666, "type": "electric_bike", "lon": -76.87286733333333, "bike_id": "0df9f5da3d1f0e2a40caa5734764474e", "rental_uris": {"android": "https://dc.lft.to/lastmile_qr_scan", "ios": "https://dc.lft.to/lastmile_qr_scan"}, "name": "0df9f5da3d1f0e2a40caa5734764474e", "is_reserved": 0}, {"is_disabled": 0, "fusion_lon": 0.0, "fusion_lat": 0.0, "lat": 38.91345333333334, "type": "electric_scooter", "lon": -77.0320605, "bike_id": "abbcaea13cb60b90dad1a88c72d31e3e", "rental_uris": {"android": "https://dc.lft.to/lastmile_qr_scan", "ios": "https://dc.lft.to/lastmile_qr_scan"}, "name": "abbcaea13cb60b90dad1a88c72d31e3e", "is_reserved": 0}, {"is_disabled": 0, "fusion_lon": 0.0, "fusion_lat": 0.0, "lat": 38.909540666666665, "type": "electric_scooter", "lon": -77.0238125, "bike_id": "3032fc2281bdca5f05af589bfc901c2b", "rental_uris": {"android": "https://dc.lft.to/lastmile_qr_scan", "ios": "https://dc.lft.to/lastmile_qr_scan"}, "name": "3032fc2281bdca5f05af589bfc901c2b", "is_reserved": 0}, {"is_disabled": 0, "fusion_lon": 0.0, "fusion_lat": 0.0, "lat": 38.92232, "type": "electric_scooter", "lon": -76.97530083333334, "bike_id": "57a55660d344080fc5343db9d2aa1e82", "rental_uris": {"android": "https://dc.lft.to/lastmile_qr_scan", "ios": "https://dc.lft.to/lastmile_qr_scan"}, "name": "57a55660d344080fc5343db9d2aa1e82", "is_reserved": 0}, {"is_disabled": 0, "fusion_lon": 0.0, "fusion_lat": 0.0, "lat": 38.916810166666664, "type": "electric_scooter", "lon": -77.03167683333334, "bike_id": "c18905602508f4e6d5988982fb6b636b", "rental_uris": {"android": "https://dc.lft.to/lastmile_qr_scan", "ios": "https://dc.lft.to/lastmile_qr_scan"}, "name": "c18905602508f4e6d5988982fb6b636b", "is_reserved": 0}, {"is_disabled": 0, "fusion_lon": 0.0, "fusion_lat": 0.0, "lat": 38.91186966666667, "type": "electric_scooter", "lon": -77.0397805, "bike_id": "8985f45d54fa1b51c014979ac4740049", "rental_uris": {"android": "https://dc.lft.to/lastmile_qr_scan", "ios": "https://dc.lft.to/lastmile_qr_scan"}, "name": "8985f45d54fa1b51c014979ac4740049", "is_reserved": 0}, {"is_disabled": 0, "fusion_lon": 0.0, "fusion_lat": 0.0, "lat": 38.89718283333333, "type": "electric_scooter", "lon": -77.02156316666667, "bike_id": "8cba337a038f77e17816b0f6b301d90e", "rental_uris": {"android": "https://dc.lft.to/lastmile_qr_scan", "ios": "https://dc.lft.to/lastmile_qr_scan"}, "name": "8cba337a038f77e17816b0f6b301d90e", "is_reserved": 0}, {"is_disabled": 0, "fusion_lon": 0.0, "fusion_lat": 0.0, "lat": 38.914201, "type": "electric_scooter", "lon": -77.03906283333333, "bike_id": "6829a83e5a6b262d005b002d3d0dedff", "rental_uris": {"android": "https://dc.lft.to/lastmile_qr_scan", "ios": "https://dc.lft.to/lastmile_qr_scan"}, "name": "6829a83e5a6b262d005b002d3d0dedff", "is_reserved": 0}, {"is_disabled": 0, "fusion_lon": 0.0, "fusion_lat": 0.0, "lat": 38.877073833333334, "type": "electric_scooter", "lon": -77.01765066666667, "bike_id": "05e09a93b1968a362356ce3fec90429b", "rental_uris": {"android": "https://dc.lft.to/lastmile_qr_scan", "ios": "https://dc.lft.to/lastmile_qr_scan"}, "name": "05e09a93b1968a362356ce3fec90429b", "is_reserved": 0}, {"is_disabled": 0, "fusion_lon": 0.0, "fusion_lat": 0.0, "lat": 38.9369805, "type": "electric_bike", "lon": -77.0298125, "bike_id": "e35758813ec9a343ce917edb00c4b410", "rental_uris": {"android": "https://dc.lft.to/lastmile_qr_scan", "ios": "https://dc.lft.to/lastmile_qr_scan"}, "name": "e35758813ec9a343ce917edb00c4b410", "is_reserved": 0}, {"is_disabled": 0, "fusion_lon": 0.0, "fusion_lat": 0.0, "lat": 38.8973855, "type": "electric_scooter", "lon": -77.033428, "bike_id": "72461aa692cf88b666d6102e34151822", "rental_uris": {"android": "https://dc.lft.to/lastmile_qr_scan", "ios": "https://dc.lft.to/lastmile_qr_scan"}, "name": "72461aa692cf88b666d6102e34151822", "is_reserved": 0}, {"is_disabled": 0, "fusion_lon": 0.0, "fusion_lat": 0.0, "lat": 38.884357666666666, "type": "electric_scooter", "lon": -76.95190333333333, "bike_id": "25bf74c77ef8b40aa33348a21d4fef8a", "rental_uris": {"android": "https://dc.lft.to/lastmile_qr_scan", "ios": "https://dc.lft.to/lastmile_qr_scan"}, "name": "25bf74c77ef8b40aa33348a21d4fef8a", "is_reserved": 0}, {"is_disabled": 0, "fusion_lon": 0.0, "fusion_lat": 0.0, "lat": 38.91201816666667, "type": "electric_scooter", "lon": -77.00090416666667, "bike_id": "df505c00aaebf289f7c9977bf9c4fad7", "rental_uris": {"android": "https://dc.lft.to/lastmile_qr_scan", "ios": "https://dc.lft.to/lastmile_qr_scan"}, "name": "df505c00aaebf289f7c9977bf9c4fad7", "is_reserved": 0}, {"is_disabled": 0, "fusion_lon": 0.0, "fusion_lat": 0.0, "lat": 38.918147833333336, "type": "electric_scooter", "lon": -77.03457783333333, "bike_id": "f10e8c949e0e0fe7aa15879173e3f010", "rental_uris": {"android": "https://dc.lft.to/lastmile_qr_scan", "ios": "https://dc.lft.to/lastmile_qr_scan"}, "name": "f10e8c949e0e0fe7aa15879173e3f010", "is_reserved": 0}, {"is_disabled": 0, "fusion_lon": 0.0, "fusion_lat": 0.0, "lat": 38.91040733333333, "type": "electric_scooter", "lon": -77.01495333333334, "bike_id": "25e7f05705b4f558914ec5f8b4db7bc7", "rental_uris": {"android": "https://dc.lft.to/lastmile_qr_scan", "ios": "https://dc.lft.to/lastmile_qr_scan"}, "name": "25e7f05705b4f558914ec5f8b4db7bc7", "is_reserved": 0}, {"is_disabled": 0, "fusion_lon": 0.0, "fusion_lat": 0.0, "lat": 38.93229266666667, "type": "electric_scooter", "lon": -76.9949215, "bike_id": "e48c32c3c99264e4e6606087ef7ad205", "rental_uris": {"android": "https://dc.lft.to/lastmile_qr_scan", "ios": "https://dc.lft.to/lastmile_qr_scan"}, "name": "e48c32c3c99264e4e6606087ef7ad205", "is_reserved": 0}, {"is_disabled": 0, "fusion_lon": 0.0, "fusion_lat": 0.0, "lat": 38.812711666666665, "type": "electric_bike", "lon": -77.06174433333334, "bike_id": "4c66fe1b30d19c6d633069fe3589a548", "rental_uris": {"android": "https://dc.lft.to/lastmile_qr_scan", "ios": "https://dc.lft.to/lastmile_qr_scan"}, "name": "4c66fe1b30d19c6d633069fe3589a548", "is_reserved": 0}, {"is_disabled": 0, "fusion_lon": 0.0, "fusion_lat": 0.0, "lat": 38.9725775, "type": "electric_bike", "lon": -76.991704, "bike_id": "43a4e5ad3c30ddd1cce3500f1367a7b9", "rental_uris": {"android": "https://dc.lft.to/lastmile_qr_scan", "ios": "https://dc.lft.to/lastmile_qr_scan"}, "name": "43a4e5ad3c30ddd1cce3500f1367a7b9", "is_reserved": 0}, {"is_disabled": 0, "fusion_lon": 0.0, "fusion_lat": 0.0, "lat": 38.93467716666667, "type": "electric_scooter", "lon": -77.06885666666666, "bike_id": "444903a1c5990388448b3a1fe4c77c9f", "rental_uris": {"android": "https://dc.lft.to/lastmile_qr_scan", "ios": "https://dc.lft.to/lastmile_qr_scan"}, "name": "444903a1c5990388448b3a1fe4c77c9f", "is_reserved": 0}, {"is_disabled": 0, "fusion_lon": 0.0, "fusion_lat": 0.0, "lat": 38.897411, "type": "electric_scooter", "lon": -77.00999583333333, "bike_id": "94cf8a72de956f0193438c718ae71f41", "rental_uris": {"android": "https://dc.lft.to/lastmile_qr_scan", "ios": "https://dc.lft.to/lastmile_qr_scan"}, "name": "94cf8a72de956f0193438c718ae71f41", "is_reserved": 0}, {"is_disabled": 0, "fusion_lon": 0.0, "fusion_lat": 0.0, "lat": 38.91794133333333, "type": "electric_scooter", "lon": -77.03440883333333, "bike_id": "957c3cf817ad28fdb6ae104bd25b4c31", "rental_uris": {"android": "https://dc.lft.to/lastmile_qr_scan", "ios": "https://dc.lft.to/lastmile_qr_scan"}, "name": "957c3cf817ad28fdb6ae104bd25b4c31", "is_reserved": 0}, {"is_disabled": 0, "fusion_lon": 0.0, "fusion_lat": 0.0, "lat": 38.917609166666665, "type": "electric_scooter", "lon": -77.02806383333333, "bike_id": "6833f2f6c2b69dbd0b06849ce3ff2862", "rental_uris": {"android": "https://dc.lft.to/lastmile_qr_scan", "ios": "https://dc.lft.to/lastmile_qr_scan"}, "name": "6833f2f6c2b69dbd0b06849ce3ff2862", "is_reserved": 0}, {"is_disabled": 0, "fusion_lon": 0.0, "fusion_lat": 0.0, "lat": 38.903972833333334, "type": "electric_scooter", "lon": -77.040409, "bike_id": "5efe73e7a2728b86d9418a88c804c642", "rental_uris": {"android": "https://dc.lft.to/lastmile_qr_scan", "ios": "https://dc.lft.to/lastmile_qr_scan"}, "name": "5efe73e7a2728b86d9418a88c804c642", "is_reserved": 0}, {"is_disabled": 0, "fusion_lon": 0.0, "fusion_lat": 0.0, "lat": 38.839302, "type": "electric_bike", "lon": -77.07905116666667, "bike_id": "eaf23dd8606a4f61dbd70edae2101b36", "rental_uris": {"android": "https://dc.lft.to/lastmile_qr_scan", "ios": "https://dc.lft.to/lastmile_qr_scan"}, "name": "eaf23dd8606a4f61dbd70edae2101b36", "is_reserved": 0}, {"is_disabled": 0, "fusion_lon": 0.0, "fusion_lat": 0.0, "lat": 38.918157, "type": "electric_scooter", "lon": -77.03174683333333, "bike_id": "27da323c9d179601cfe9d8b11373e454", "rental_uris": {"android": "https://dc.lft.to/lastmile_qr_scan", "ios": "https://dc.lft.to/lastmile_qr_scan"}, "name": "27da323c9d179601cfe9d8b11373e454", "is_reserved": 0}, {"is_disabled": 0, "fusion_lon": 0.0, "fusion_lat": 0.0, "lat": 38.93291633333333, "type": "electric_scooter", "lon": -77.02448133333333, "bike_id": "13c788f625388e136a3b57dee0640d17", "rental_uris": {"android": "https://dc.lft.to/lastmile_qr_scan", "ios": "https://dc.lft.to/lastmile_qr_scan"}, "name": "13c788f625388e136a3b57dee0640d17", "is_reserved": 0}, {"is_disabled": 0, "fusion_lon": 0.0, "fusion_lat": 0.0, "lat": 38.86711066666667, "type": "electric_scooter", "lon": -76.98732516666666, "bike_id": "6b582fad4a0730850d8eb80d19c6d206", "rental_uris": {"android": "https://dc.lft.to/lastmile_qr_scan", "ios": "https://dc.lft.to/lastmile_qr_scan"}, "name": "6b582fad4a0730850d8eb80d19c6d206", "is_reserved": 0}, {"is_disabled": 0, "fusion_lon": 0.0, "fusion_lat": 0.0, "lat": 38.879363166666664, "type": "electric_bike", "lon": -77.01468016666666, "bike_id": "58b8b89b30919b5430c5a2ac9cf88c64", "rental_uris": {"android": "https://dc.lft.to/lastmile_qr_scan", "ios": "https://dc.lft.to/lastmile_qr_scan"}, "name": "58b8b89b30919b5430c5a2ac9cf88c64", "is_reserved": 0}, {"is_disabled": 0, "fusion_lon": 0.0, "fusion_lat": 0.0, "lat": 38.910391833333335, "type": "electric_scooter", "lon": -77.04345183333334, "bike_id": "4ceafec0e7ba3c00de00f0bdb9148474", "rental_uris": {"android": "https://dc.lft.to/lastmile_qr_scan", "ios": "https://dc.lft.to/lastmile_qr_scan"}, "name": "4ceafec0e7ba3c00de00f0bdb9148474", "is_reserved": 0}, {"is_disabled": 0, "fusion_lon": 0.0, "fusion_lat": 0.0, "lat": 38.909667166666665, "type": "electric_scooter", "lon": -77.021738, "bike_id": "9673e333fdf62ee270d0e7327d94deef", "rental_uris": {"android": "https://dc.lft.to/lastmile_qr_scan", "ios": "https://dc.lft.to/lastmile_qr_scan"}, "name": "9673e333fdf62ee270d0e7327d94deef", "is_reserved": 0}, {"is_disabled": 0, "fusion_lon": 0.0, "fusion_lat": 0.0, "lat": 38.91796333333333, "type": "electric_scooter", "lon": -77.03188016666667, "bike_id": "01316087b3b42e77d257df210545e1e4", "rental_uris": {"android": "https://dc.lft.to/lastmile_qr_scan", "ios": "https://dc.lft.to/lastmile_qr_scan"}, "name": "01316087b3b42e77d257df210545e1e4", "is_reserved": 0}, {"is_disabled": 0, "fusion_lon": 0.0, "fusion_lat": 0.0, "lat": 38.9282215, "type": "electric_scooter", "lon": -77.03633033333334, "bike_id": "bfdf7553f66720ca15e5f4a65b219470", "rental_uris": {"android": "https://dc.lft.to/lastmile_qr_scan", "ios": "https://dc.lft.to/lastmile_qr_scan"}, "name": "bfdf7553f66720ca15e5f4a65b219470", "is_reserved": 0}, {"is_disabled": 0, "fusion_lon": 0.0, "fusion_lat": 0.0, "lat": 38.90579416666667, "type": "electric_scooter", "lon": -77.007119, "bike_id": "cbefc0c91581050a0736fe1d8627997e", "rental_uris": {"android": "https://dc.lft.to/lastmile_qr_scan", "ios": "https://dc.lft.to/lastmile_qr_scan"}, "name": "cbefc0c91581050a0736fe1d8627997e", "is_reserved": 0}, {"is_disabled": 0, "fusion_lon": 0.0, "fusion_lat": 0.0, "lat": 38.919874666666665, "type": "electric_scooter", "lon": -77.03276216666667, "bike_id": "3b4a03fd759c096515e3a8ccb099dbe6", "rental_uris": {"android": "https://dc.lft.to/lastmile_qr_scan", "ios": "https://dc.lft.to/lastmile_qr_scan"}, "name": "3b4a03fd759c096515e3a8ccb099dbe6", "is_reserved": 0}, {"is_disabled": 0, "fusion_lon": 0.0, "fusion_lat": 0.0, "lat": 39.02295566666667, "type": "electric_bike", "lon": -77.02099983333333, "bike_id": "50896adc9ba51d9d6c858df91a6e3c1e", "rental_uris": {"android": "https://dc.lft.to/lastmile_qr_scan", "ios": "https://dc.lft.to/lastmile_qr_scan"}, "name": "50896adc9ba51d9d6c858df91a6e3c1e", "is_reserved": 0}, {"is_disabled": 0, "fusion_lon": 0.0, "fusion_lat": 0.0, "lat": 38.8976785, "type": "electric_scooter", "lon": -77.05171883333334, "bike_id": "c6c4333cc8acd7d956f4609bd1e3732e", "rental_uris": {"android": "https://dc.lft.to/lastmile_qr_scan", "ios": "https://dc.lft.to/lastmile_qr_scan"}, "name": "c6c4333cc8acd7d956f4609bd1e3732e", "is_reserved": 0}, {"is_disabled": 0, "fusion_lon": 0.0, "fusion_lat": 0.0, "lat": 38.898436333333336, "type": "electric_scooter", "lon": -76.944977, "bike_id": "8a328dd53b46442793384c609b2bfa10", "rental_uris": {"android": "https://dc.lft.to/lastmile_qr_scan", "ios": "https://dc.lft.to/lastmile_qr_scan"}, "name": "8a328dd53b46442793384c609b2bfa10", "is_reserved": 0}, {"is_disabled": 0, "fusion_lon": 0.0, "fusion_lat": 0.0, "lat": 38.890463833333335, "type": "electric_scooter", "lon": -76.9375675, "bike_id": "0e8268f08c58cd2b8008cc4e9af6b77d", "rental_uris": {"android": "https://dc.lft.to/lastmile_qr_scan", "ios": "https://dc.lft.to/lastmile_qr_scan"}, "name": "0e8268f08c58cd2b8008cc4e9af6b77d", "is_reserved": 0}, {"is_disabled": 0, "fusion_lon": 0.0, "fusion_lat": 0.0, "lat": 38.90083216666667, "type": "electric_scooter", "lon": -77.01313216666667, "bike_id": "0b44c49df9ab1236061c43f1c78f4c4a", "rental_uris": {"android": "https://dc.lft.to/lastmile_qr_scan", "ios": "https://dc.lft.to/lastmile_qr_scan"}, "name": "0b44c49df9ab1236061c43f1c78f4c4a", "is_reserved": 0}, {"is_disabled": 0, "fusion_lon": 0.0, "fusion_lat": 0.0, "lat": 38.94189683333333, "type": "electric_scooter", "lon": -77.04258716666666, "bike_id": "d738670e7c5e869d21846ef2a2618de3", "rental_uris": {"android": "https://dc.lft.to/lastmile_qr_scan", "ios": "https://dc.lft.to/lastmile_qr_scan"}, "name": "d738670e7c5e869d21846ef2a2618de3", "is_reserved": 0}, {"is_disabled": 0, "fusion_lon": 0.0, "fusion_lat": 0.0, "lat": 38.93127033333333, "type": "electric_scooter", "lon": -77.02198733333333, "bike_id": "8c5bbae3d83d311bdb330f2c66db52b8", "rental_uris": {"android": "https://dc.lft.to/lastmile_qr_scan", "ios": "https://dc.lft.to/lastmile_qr_scan"}, "name": "8c5bbae3d83d311bdb330f2c66db52b8", "is_reserved": 0}, {"is_disabled": 0, "fusion_lon": 0.0, "fusion_lat": 0.0, "lat": 38.960476, "type": "electric_scooter", "lon": -77.08572433333333, "bike_id": "644ef0af1e8047dd7dc380790c7ad9da", "rental_uris": {"android": "https://dc.lft.to/lastmile_qr_scan", "ios": "https://dc.lft.to/lastmile_qr_scan"}, "name": "644ef0af1e8047dd7dc380790c7ad9da", "is_reserved": 0}, {"is_disabled": 0, "fusion_lon": 0.0, "fusion_lat": 0.0, "lat": 38.893292, "type": "electric_scooter", "lon": -77.02125283333334, "bike_id": "fd1b7e4fbb2a80f2131d2adc6601ec12", "rental_uris": {"android": "https://dc.lft.to/lastmile_qr_scan", "ios": "https://dc.lft.to/lastmile_qr_scan"}, "name": "fd1b7e4fbb2a80f2131d2adc6601ec12", "is_reserved": 0}, {"is_disabled": 0, "fusion_lon": 0.0, "fusion_lat": 0.0, "lat": 38.90601183333333, "type": "electric_scooter", "lon": -77.01627533333334, "bike_id": "71581e8a5d62977dda451658cbecb6bd", "rental_uris": {"android": "https://dc.lft.to/lastmile_qr_scan", "ios": "https://dc.lft.to/lastmile_qr_scan"}, "name": "71581e8a5d62977dda451658cbecb6bd", "is_reserved": 0}, {"is_disabled": 0, "fusion_lon": 0.0, "fusion_lat": 0.0, "lat": 38.92312533333333, "type": "electric_scooter", "lon": -77.039252, "bike_id": "8bd1515ef4519a5b623d63daa05515f0", "rental_uris": {"android": "https://dc.lft.to/lastmile_qr_scan", "ios": "https://dc.lft.to/lastmile_qr_scan"}, "name": "8bd1515ef4519a5b623d63daa05515f0", "is_reserved": 0}, {"is_disabled": 0, "fusion_lon": 0.0, "fusion_lat": 0.0, "lat": 38.93541466666667, "type": "electric_scooter", "lon": -77.0341915, "bike_id": "e03ea918b203eb243b0a414524e5d682", "rental_uris": {"android": "https://dc.lft.to/lastmile_qr_scan", "ios": "https://dc.lft.to/lastmile_qr_scan"}, "name": "e03ea918b203eb243b0a414524e5d682", "is_reserved": 0}, {"is_disabled": 0, "fusion_lon": 0.0, "fusion_lat": 0.0, "lat": 38.895182, "type": "electric_scooter", "lon": -77.02935433333333, "bike_id": "2107674a458dbb920d59a3fcfa8b2ccd", "rental_uris": {"android": "https://dc.lft.to/lastmile_qr_scan", "ios": "https://dc.lft.to/lastmile_qr_scan"}, "name": "2107674a458dbb920d59a3fcfa8b2ccd", "is_reserved": 0}, {"is_disabled": 0, "fusion_lon": 0.0, "fusion_lat": 0.0, "lat": 38.9071985, "type": "electric_scooter", "lon": -77.04680666666667, "bike_id": "b3b76d000b39739b5bad8fa7a20fb6b5", "rental_uris": {"android": "https://dc.lft.to/lastmile_qr_scan", "ios": "https://dc.lft.to/lastmile_qr_scan"}, "name": "b3b76d000b39739b5bad8fa7a20fb6b5", "is_reserved": 0}, {"is_disabled": 0, "fusion_lon": 0.0, "fusion_lat": 0.0, "lat": 38.888871, "type": "electric_scooter", "lon": -77.01554433333334, "bike_id": "301c52cf3e3da68923ca4d35ca4f2b6e", "rental_uris": {"android": "https://dc.lft.to/lastmile_qr_scan", "ios": "https://dc.lft.to/lastmile_qr_scan"}, "name": "301c52cf3e3da68923ca4d35ca4f2b6e", "is_reserved": 0}, {"is_disabled": 0, "fusion_lon": 0.0, "fusion_lat": 0.0, "lat": 38.892222833333335, "type": "electric_scooter", "lon": -77.04659516666666, "bike_id": "5a5a6211102755766b45313f6ca091b6", "rental_uris": {"android": "https://dc.lft.to/lastmile_qr_scan", "ios": "https://dc.lft.to/lastmile_qr_scan"}, "name": "5a5a6211102755766b45313f6ca091b6", "is_reserved": 0}, {"is_disabled": 0, "fusion_lon": 0.0, "fusion_lat": 0.0, "lat": 38.93131366666667, "type": "electric_scooter", "lon": -77.0280435, "bike_id": "91815ba8297e94f466e1e0425019f9de", "rental_uris": {"android": "https://dc.lft.to/lastmile_qr_scan", "ios": "https://dc.lft.to/lastmile_qr_scan"}, "name": "91815ba8297e94f466e1e0425019f9de", "is_reserved": 0}, {"is_disabled": 0, "fusion_lon": 0.0, "fusion_lat": 0.0, "lat": 38.99912033333333, "type": "electric_bike", "lon": -77.02863083333334, "bike_id": "c74fb9c1e7d65135b3dcd68f550480b0", "rental_uris": {"android": "https://dc.lft.to/lastmile_qr_scan", "ios": "https://dc.lft.to/lastmile_qr_scan"}, "name": "c74fb9c1e7d65135b3dcd68f550480b0", "is_reserved": 0}, {"is_disabled": 0, "fusion_lon": 0.0, "fusion_lat": 0.0, "lat": 38.85805516666667, "type": "electric_scooter", "lon": -76.98653183333333, "bike_id": "301265a15c489d45cd97d7ae8bb44fa8", "rental_uris": {"android": "https://dc.lft.to/lastmile_qr_scan", "ios": "https://dc.lft.to/lastmile_qr_scan"}, "name": "301265a15c489d45cd97d7ae8bb44fa8", "is_reserved": 0}, {"is_disabled": 0, "fusion_lon": 0.0, "fusion_lat": 0.0, "lat": 38.967529666666664, "type": "electric_bike", "lon": -77.091565, "bike_id": "ebe9c68d140719d3a41c01fd338673b8", "rental_uris": {"android": "https://dc.lft.to/lastmile_qr_scan", "ios": "https://dc.lft.to/lastmile_qr_scan"}, "name": "ebe9c68d140719d3a41c01fd338673b8", "is_reserved": 0}, {"is_disabled": 0, "fusion_lon": 0.0, "fusion_lat": 0.0, "lat": 38.91264316666667, "type": "electric_scooter", "lon": -77.0477925, "bike_id": "1844b1d069dc2d2994af20c0e855024e", "rental_uris": {"android": "https://dc.lft.to/lastmile_qr_scan", "ios": "https://dc.lft.to/lastmile_qr_scan"}, "name": "1844b1d069dc2d2994af20c0e855024e", "is_reserved": 0}, {"is_disabled": 0, "fusion_lon": 0.0, "fusion_lat": 0.0, "lat": 38.91265333333333, "type": "electric_scooter", "lon": -77.016956, "bike_id": "fe6c24e5a80406d414a6e7a487812bdf", "rental_uris": {"android": "https://dc.lft.to/lastmile_qr_scan", "ios": "https://dc.lft.to/lastmile_qr_scan"}, "name": "fe6c24e5a80406d414a6e7a487812bdf", "is_reserved": 0}, {"is_disabled": 0, "fusion_lon": 0.0, "fusion_lat": 0.0, "lat": 38.928234, "type": "electric_scooter", "lon": -77.02257816666666, "bike_id": "125d8671967d8dc45d30907059ab37cf", "rental_uris": {"android": "https://dc.lft.to/lastmile_qr_scan", "ios": "https://dc.lft.to/lastmile_qr_scan"}, "name": "125d8671967d8dc45d30907059ab37cf", "is_reserved": 0}, {"is_disabled": 0, "fusion_lon": 0.0, "fusion_lat": 0.0, "lat": 38.901397, "type": "electric_scooter", "lon": -77.0119675, "bike_id": "1c89ec17fe96f535ad68993248a0153f", "rental_uris": {"android": "https://dc.lft.to/lastmile_qr_scan", "ios": "https://dc.lft.to/lastmile_qr_scan"}, "name": "1c89ec17fe96f535ad68993248a0153f", "is_reserved": 0}, {"is_disabled": 0, "fusion_lon": 0.0, "fusion_lat": 0.0, "lat": 38.92032416666667, "type": "electric_scooter", "lon": -77.01907283333334, "bike_id": "94a4009494109e8f69fae5891a3707ee", "rental_uris": {"android": "https://dc.lft.to/lastmile_qr_scan", "ios": "https://dc.lft.to/lastmile_qr_scan"}, "name": "94a4009494109e8f69fae5891a3707ee", "is_reserved": 0}, {"is_disabled": 0, "fusion_lon": 0.0, "fusion_lat": 0.0, "lat": 38.80297516666667, "type": "electric_bike", "lon": -77.03987116666667, "bike_id": "1be19fc7ba30d906a61dc3f0baacc978", "rental_uris": {"android": "https://dc.lft.to/lastmile_qr_scan", "ios": "https://dc.lft.to/lastmile_qr_scan"}, "name": "1be19fc7ba30d906a61dc3f0baacc978", "is_reserved": 0}, {"is_disabled": 0, "fusion_lon": 0.0, "fusion_lat": 0.0, "lat": 38.887433333333334, "type": "electric_scooter", "lon": -77.01535166666666, "bike_id": "f602afcad45223d40f8b87ad640f6eb6", "rental_uris": {"android": "https://dc.lft.to/lastmile_qr_scan", "ios": "https://dc.lft.to/lastmile_qr_scan"}, "name": "f602afcad45223d40f8b87ad640f6eb6", "is_reserved": 0}, {"is_disabled": 0, "fusion_lon": 0.0, "fusion_lat": 0.0, "lat": 38.919489166666665, "type": "electric_scooter", "lon": -77.01395666666667, "bike_id": "b2f3ad2f7b41a75ab49cf91edd32e345", "rental_uris": {"android": "https://dc.lft.to/lastmile_qr_scan", "ios": "https://dc.lft.to/lastmile_qr_scan"}, "name": "b2f3ad2f7b41a75ab49cf91edd32e345", "is_reserved": 0}, {"is_disabled": 0, "fusion_lon": 0.0, "fusion_lat": 0.0, "lat": 38.922584666666665, "type": "electric_scooter", "lon": -77.032941, "bike_id": "490e6e8de329444fc0234facd930057d", "rental_uris": {"android": "https://dc.lft.to/lastmile_qr_scan", "ios": "https://dc.lft.to/lastmile_qr_scan"}, "name": "490e6e8de329444fc0234facd930057d", "is_reserved": 0}, {"is_disabled": 0, "fusion_lon": 0.0, "fusion_lat": 0.0, "lat": 38.917016833333335, "type": "electric_scooter", "lon": -77.02879783333333, "bike_id": "80ff0a1579e16ded3e15e5e505da839a", "rental_uris": {"android": "https://dc.lft.to/lastmile_qr_scan", "ios": "https://dc.lft.to/lastmile_qr_scan"}, "name": "80ff0a1579e16ded3e15e5e505da839a", "is_reserved": 0}, {"is_disabled": 0, "fusion_lon": 0.0, "fusion_lat": 0.0, "lat": 38.918086333333335, "type": "electric_scooter", "lon": -77.0356345, "bike_id": "7b17cf9690ef4ae92d92824fd75d717b", "rental_uris": {"android": "https://dc.lft.to/lastmile_qr_scan", "ios": "https://dc.lft.to/lastmile_qr_scan"}, "name": "7b17cf9690ef4ae92d92824fd75d717b", "is_reserved": 0}, {"is_disabled": 0, "fusion_lon": 0.0, "fusion_lat": 0.0, "lat": 38.92485283333333, "type": "electric_scooter", "lon": -77.02993866666667, "bike_id": "de5af96910ecd65f250825da9164bc99", "rental_uris": {"android": "https://dc.lft.to/lastmile_qr_scan", "ios": "https://dc.lft.to/lastmile_qr_scan"}, "name": "de5af96910ecd65f250825da9164bc99", "is_reserved": 0}, {"is_disabled": 0, "fusion_lon": 0.0, "fusion_lat": 0.0, "lat": 38.90726, "type": "electric_scooter", "lon": -77.023672, "bike_id": "fddd8d5b858e560b8943eedca122db6c", "rental_uris": {"android": "https://dc.lft.to/lastmile_qr_scan", "ios": "https://dc.lft.to/lastmile_qr_scan"}, "name": "fddd8d5b858e560b8943eedca122db6c", "is_reserved": 0}, {"is_disabled": 0, "fusion_lon": 0.0, "fusion_lat": 0.0, "lat": 38.934848, "type": "electric_scooter", "lon": -77.02399016666666, "bike_id": "dc5bc51ace120889cdae24bc59f0a3a5", "rental_uris": {"android": "https://dc.lft.to/lastmile_qr_scan", "ios": "https://dc.lft.to/lastmile_qr_scan"}, "name": "dc5bc51ace120889cdae24bc59f0a3a5", "is_reserved": 0}, {"is_disabled": 0, "fusion_lon": 0.0, "fusion_lat": 0.0, "lat": 38.91319083333333, "type": "electric_scooter", "lon": -77.0366065, "bike_id": "9cf1db282b27eaf52ce3f5f8bf33a80d", "rental_uris": {"android": "https://dc.lft.to/lastmile_qr_scan", "ios": "https://dc.lft.to/lastmile_qr_scan"}, "name": "9cf1db282b27eaf52ce3f5f8bf33a80d", "is_reserved": 0}, {"is_disabled": 0, "fusion_lon": 0.0, "fusion_lat": 0.0, "lat": 38.9512575, "type": "electric_scooter", "lon": -77.01404166666667, "bike_id": "bec51a0c0b14e565ad6d81aad6bc8832", "rental_uris": {"android": "https://dc.lft.to/lastmile_qr_scan", "ios": "https://dc.lft.to/lastmile_qr_scan"}, "name": "bec51a0c0b14e565ad6d81aad6bc8832", "is_reserved": 0}, {"is_disabled": 0, "fusion_lon": 0.0, "fusion_lat": 0.0, "lat": 38.914055166666664, "type": "electric_scooter", "lon": -77.04211466666666, "bike_id": "968a6d2f8519a9b22db57b2f97fbc27c", "rental_uris": {"android": "https://dc.lft.to/lastmile_qr_scan", "ios": "https://dc.lft.to/lastmile_qr_scan"}, "name": "968a6d2f8519a9b22db57b2f97fbc27c", "is_reserved": 0}, {"is_disabled": 0, "fusion_lon": 0.0, "fusion_lat": 0.0, "lat": 38.91402766666667, "type": "electric_scooter", "lon": -77.03760283333334, "bike_id": "cc8cffac495afa06e133b722af787a1f", "rental_uris": {"android": "https://dc.lft.to/lastmile_qr_scan", "ios": "https://dc.lft.to/lastmile_qr_scan"}, "name": "cc8cffac495afa06e133b722af787a1f", "is_reserved": 0}, {"is_disabled": 0, "fusion_lon": 0.0, "fusion_lat": 0.0, "lat": 38.909069833333334, "type": "electric_scooter", "lon": -77.0271785, "bike_id": "eddb5b999c99c0ef778b166472f899df", "rental_uris": {"android": "https://dc.lft.to/lastmile_qr_scan", "ios": "https://dc.lft.to/lastmile_qr_scan"}, "name": "eddb5b999c99c0ef778b166472f899df", "is_reserved": 0}, {"is_disabled": 0, "fusion_lon": 0.0, "fusion_lat": 0.0, "lat": 38.84508316666667, "type": "electric_bike", "lon": -76.97213916666666, "bike_id": "707df52bd1a4c12e832de58b09f21dd2", "rental_uris": {"android": "https://dc.lft.to/lastmile_qr_scan", "ios": "https://dc.lft.to/lastmile_qr_scan"}, "name": "707df52bd1a4c12e832de58b09f21dd2", "is_reserved": 0}, {"is_disabled": 0, "fusion_lon": 0.0, "fusion_lat": 0.0, "lat": 38.89732816666667, "type": "electric_scooter", "lon": -77.0467165, "bike_id": "6863e700a1078613961e072a64f2499a", "rental_uris": {"android": "https://dc.lft.to/lastmile_qr_scan", "ios": "https://dc.lft.to/lastmile_qr_scan"}, "name": "6863e700a1078613961e072a64f2499a", "is_reserved": 0}, {"is_disabled": 0, "fusion_lon": 0.0, "fusion_lat": 0.0, "lat": 38.90869633333333, "type": "electric_scooter", "lon": -77.02695633333333, "bike_id": "7173a3d5f06bf85ed685b9ae34c26177", "rental_uris": {"android": "https://dc.lft.to/lastmile_qr_scan", "ios": "https://dc.lft.to/lastmile_qr_scan"}, "name": "7173a3d5f06bf85ed685b9ae34c26177", "is_reserved": 0}, {"is_disabled": 0, "fusion_lon": 0.0, "fusion_lat": 0.0, "lat": 38.899101, "type": "electric_scooter", "lon": -77.03905883333333, "bike_id": "e5a65a3e949988fe4071c42b801b55e7", "rental_uris": {"android": "https://dc.lft.to/lastmile_qr_scan", "ios": "https://dc.lft.to/lastmile_qr_scan"}, "name": "e5a65a3e949988fe4071c42b801b55e7", "is_reserved": 0}, {"is_disabled": 0, "fusion_lon": 0.0, "fusion_lat": 0.0, "lat": 38.998771, "type": "electric_bike", "lon": -77.02869233333334, "bike_id": "0c877f3463101f72b73ac3fc5ec1cbca", "rental_uris": {"android": "https://dc.lft.to/lastmile_qr_scan", "ios": "https://dc.lft.to/lastmile_qr_scan"}, "name": "0c877f3463101f72b73ac3fc5ec1cbca", "is_reserved": 0}, {"is_disabled": 0, "fusion_lon": 0.0, "fusion_lat": 0.0, "lat": 38.906574166666665, "type": "electric_scooter", "lon": -77.04543633333333, "bike_id": "233402196eb1f8dd20262898eb951cf4", "rental_uris": {"android": "https://dc.lft.to/lastmile_qr_scan", "ios": "https://dc.lft.to/lastmile_qr_scan"}, "name": "233402196eb1f8dd20262898eb951cf4", "is_reserved": 0}, {"is_disabled": 0, "fusion_lon": 0.0, "fusion_lat": 0.0, "lat": 38.866966, "type": "electric_scooter", "lon": -76.98713233333334, "bike_id": "24a45c9dd9339ad95e70fc31fa4a7f31", "rental_uris": {"android": "https://dc.lft.to/lastmile_qr_scan", "ios": "https://dc.lft.to/lastmile_qr_scan"}, "name": "24a45c9dd9339ad95e70fc31fa4a7f31", "is_reserved": 0}, {"is_disabled": 0, "fusion_lon": 0.0, "fusion_lat": 0.0, "lat": 39.007853833333336, "type": "electric_bike", "lon": -76.9956895, "bike_id": "d89a4b6e4095b1d0366bc07cc56d2ffd", "rental_uris": {"android": "https://dc.lft.to/lastmile_qr_scan", "ios": "https://dc.lft.to/lastmile_qr_scan"}, "name": "d89a4b6e4095b1d0366bc07cc56d2ffd", "is_reserved": 0}, {"is_disabled": 0, "fusion_lon": 0.0, "fusion_lat": 0.0, "lat": 38.93899583333334, "type": "electric_scooter", "lon": -77.03320616666667, "bike_id": "2c47dda90ebac98c4b904f2c8c5e32d5", "rental_uris": {"android": "https://dc.lft.to/lastmile_qr_scan", "ios": "https://dc.lft.to/lastmile_qr_scan"}, "name": "2c47dda90ebac98c4b904f2c8c5e32d5", "is_reserved": 0}, {"is_disabled": 0, "fusion_lon": 0.0, "fusion_lat": 0.0, "lat": 38.903035, "type": "electric_scooter", "lon": -77.023693, "bike_id": "5c980403c26c0c934d8087d38b9fe7f3", "rental_uris": {"android": "https://dc.lft.to/lastmile_qr_scan", "ios": "https://dc.lft.to/lastmile_qr_scan"}, "name": "5c980403c26c0c934d8087d38b9fe7f3", "is_reserved": 0}, {"is_disabled": 0, "fusion_lon": 0.0, "fusion_lat": 0.0, "lat": 38.917297, "type": "electric_scooter", "lon": -77.00515116666666, "bike_id": "6129b935414b2478fa8218e94e7668fc", "rental_uris": {"android": "https://dc.lft.to/lastmile_qr_scan", "ios": "https://dc.lft.to/lastmile_qr_scan"}, "name": "6129b935414b2478fa8218e94e7668fc", "is_reserved": 0}, {"is_disabled": 0, "fusion_lon": 0.0, "fusion_lat": 0.0, "lat": 38.917715666666666, "type": "electric_scooter", "lon": -77.02954483333333, "bike_id": "795616fd86d54599955968c2d4afb22e", "rental_uris": {"android": "https://dc.lft.to/lastmile_qr_scan", "ios": "https://dc.lft.to/lastmile_qr_scan"}, "name": "795616fd86d54599955968c2d4afb22e", "is_reserved": 0}, {"is_disabled": 0, "fusion_lon": 0.0, "fusion_lat": 0.0, "lat": 38.896035, "type": "electric_scooter", "lon": -77.02674966666666, "bike_id": "836a401d6e3941b2f1a16f0653372a83", "rental_uris": {"android": "https://dc.lft.to/lastmile_qr_scan", "ios": "https://dc.lft.to/lastmile_qr_scan"}, "name": "836a401d6e3941b2f1a16f0653372a83", "is_reserved": 0}, {"is_disabled": 0, "fusion_lon": 0.0, "fusion_lat": 0.0, "lat": 38.919379166666666, "type": "electric_scooter", "lon": -77.07059266666667, "bike_id": "21d9ee3d37ba6051b773386737cccc67", "rental_uris": {"android": "https://dc.lft.to/lastmile_qr_scan", "ios": "https://dc.lft.to/lastmile_qr_scan"}, "name": "21d9ee3d37ba6051b773386737cccc67", "is_reserved": 0}, {"is_disabled": 0, "fusion_lon": 0.0, "fusion_lat": 0.0, "lat": 38.91974166666667, "type": "electric_scooter", "lon": -77.03212666666667, "bike_id": "86ad1f66a9cdde48953c63c279e39ba9", "rental_uris": {"android": "https://dc.lft.to/lastmile_qr_scan", "ios": "https://dc.lft.to/lastmile_qr_scan"}, "name": "86ad1f66a9cdde48953c63c279e39ba9", "is_reserved": 0}, {"is_disabled": 0, "fusion_lon": 0.0, "fusion_lat": 0.0, "lat": 38.9258045, "type": "electric_scooter", "lon": -77.0321505, "bike_id": "01845bee480de75f722405f5e79ead51", "rental_uris": {"android": "https://dc.lft.to/lastmile_qr_scan", "ios": "https://dc.lft.to/lastmile_qr_scan"}, "name": "01845bee480de75f722405f5e79ead51", "is_reserved": 0}, {"is_disabled": 0, "fusion_lon": 0.0, "fusion_lat": 0.0, "lat": 38.94282783333333, "type": "electric_bike", "lon": -77.06923816666666, "bike_id": "f61e3dc19142e3f3ad022113bcd952db", "rental_uris": {"android": "https://dc.lft.to/lastmile_qr_scan", "ios": "https://dc.lft.to/lastmile_qr_scan"}, "name": "f61e3dc19142e3f3ad022113bcd952db", "is_reserved": 0}, {"is_disabled": 0, "fusion_lon": 0.0, "fusion_lat": 0.0, "lat": 38.935508166666665, "type": "electric_bike", "lon": -77.081998, "bike_id": "46ec53c67769c45886b454b7fd721675", "rental_uris": {"android": "https://dc.lft.to/lastmile_qr_scan", "ios": "https://dc.lft.to/lastmile_qr_scan"}, "name": "46ec53c67769c45886b454b7fd721675", "is_reserved": 0}, {"is_disabled": 0, "fusion_lon": 0.0, "fusion_lat": 0.0, "lat": 38.873905666666666, "type": "electric_scooter", "lon": -77.00195483333333, "bike_id": "c46d1f191cc9711f18e536cd58579dcb", "rental_uris": {"android": "https://dc.lft.to/lastmile_qr_scan", "ios": "https://dc.lft.to/lastmile_qr_scan"}, "name": "c46d1f191cc9711f18e536cd58579dcb", "is_reserved": 0}, {"is_disabled": 0, "fusion_lon": 0.0, "fusion_lat": 0.0, "lat": 38.9107015, "type": "electric_scooter", "lon": -76.98510783333333, "bike_id": "1c707f4696b87a60253a1ed36070fc74", "rental_uris": {"android": "https://dc.lft.to/lastmile_qr_scan", "ios": "https://dc.lft.to/lastmile_qr_scan"}, "name": "1c707f4696b87a60253a1ed36070fc74", "is_reserved": 0}, {"is_disabled": 0, "fusion_lon": 0.0, "fusion_lat": 0.0, "lat": 38.88390166666667, "type": "electric_bike", "lon": -77.03081, "bike_id": "617fd03fc7c1c769d011dc618ba6e80e", "rental_uris": {"android": "https://dc.lft.to/lastmile_qr_scan", "ios": "https://dc.lft.to/lastmile_qr_scan"}, "name": "617fd03fc7c1c769d011dc618ba6e80e", "is_reserved": 0}, {"is_disabled": 0, "fusion_lon": 0.0, "fusion_lat": 0.0, "lat": 38.84609066666667, "type": "electric_bike", "lon": -76.96877683333334, "bike_id": "72dfe89f1c5cce38d309d92d82430aea", "rental_uris": {"android": "https://dc.lft.to/lastmile_qr_scan", "ios": "https://dc.lft.to/lastmile_qr_scan"}, "name": "72dfe89f1c5cce38d309d92d82430aea", "is_reserved": 0}, {"is_disabled": 0, "fusion_lon": 0.0, "fusion_lat": 0.0, "lat": 38.9325035, "type": "electric_scooter", "lon": -77.03285766666667, "bike_id": "802efb5a4d26e43153c94c733cf58952", "rental_uris": {"android": "https://dc.lft.to/lastmile_qr_scan", "ios": "https://dc.lft.to/lastmile_qr_scan"}, "name": "802efb5a4d26e43153c94c733cf58952", "is_reserved": 0}, {"is_disabled": 0, "fusion_lon": 0.0, "fusion_lat": 0.0, "lat": 38.95633083333333, "type": "electric_scooter", "lon": -77.02980283333333, "bike_id": "aae849d5de8e95e5090da70cac5864fe", "rental_uris": {"android": "https://dc.lft.to/lastmile_qr_scan", "ios": "https://dc.lft.to/lastmile_qr_scan"}, "name": "aae849d5de8e95e5090da70cac5864fe", "is_reserved": 0}, {"is_disabled": 0, "fusion_lon": 0.0, "fusion_lat": 0.0, "lat": 38.913666666666664, "type": "electric_scooter", "lon": -77.03961066666666, "bike_id": "5d39fcdb7a9e3e77ec9a8e1545c9a591", "rental_uris": {"android": "https://dc.lft.to/lastmile_qr_scan", "ios": "https://dc.lft.to/lastmile_qr_scan"}, "name": "5d39fcdb7a9e3e77ec9a8e1545c9a591", "is_reserved": 0}, {"is_disabled": 0, "fusion_lon": 0.0, "fusion_lat": 0.0, "lat": 38.879122333333335, "type": "electric_scooter", "lon": -77.00703733333333, "bike_id": "2e30d3494eae5f23e5dd82edb26a3b61", "rental_uris": {"android": "https://dc.lft.to/lastmile_qr_scan", "ios": "https://dc.lft.to/lastmile_qr_scan"}, "name": "2e30d3494eae5f23e5dd82edb26a3b61", "is_reserved": 0}, {"is_disabled": 0, "fusion_lon": 0.0, "fusion_lat": 0.0, "lat": 38.887319166666664, "type": "electric_scooter", "lon": -77.01531033333333, "bike_id": "e302b198423cea2ee1f740bd1b3d0d64", "rental_uris": {"android": "https://dc.lft.to/lastmile_qr_scan", "ios": "https://dc.lft.to/lastmile_qr_scan"}, "name": "e302b198423cea2ee1f740bd1b3d0d64", "is_reserved": 0}, {"is_disabled": 0, "fusion_lon": 0.0, "fusion_lat": 0.0, "lat": 38.910346833333335, "type": "electric_scooter", "lon": -77.03798066666667, "bike_id": "482f9d4c54af16cc6f396affb409d5d4", "rental_uris": {"android": "https://dc.lft.to/lastmile_qr_scan", "ios": "https://dc.lft.to/lastmile_qr_scan"}, "name": "482f9d4c54af16cc6f396affb409d5d4", "is_reserved": 0}, {"is_disabled": 0, "fusion_lon": 0.0, "fusion_lat": 0.0, "lat": 38.928366833333335, "type": "electric_scooter", "lon": -77.05547383333334, "bike_id": "6b7d9ab15fb69e87b5fadc87502bcfd9", "rental_uris": {"android": "https://dc.lft.to/lastmile_qr_scan", "ios": "https://dc.lft.to/lastmile_qr_scan"}, "name": "6b7d9ab15fb69e87b5fadc87502bcfd9", "is_reserved": 0}, {"is_disabled": 0, "fusion_lon": 0.0, "fusion_lat": 0.0, "lat": 39.054543333333335, "type": "electric_bike", "lon": -77.1432245, "bike_id": "65e4620ccd10c90174770cd6493bcb0c", "rental_uris": {"android": "https://dc.lft.to/lastmile_qr_scan", "ios": "https://dc.lft.to/lastmile_qr_scan"}, "name": "65e4620ccd10c90174770cd6493bcb0c", "is_reserved": 0}, {"is_disabled": 0, "fusion_lon": 0.0, "fusion_lat": 0.0, "lat": 38.868080666666664, "type": "electric_scooter", "lon": -77.01182783333333, "bike_id": "e9d502f81e72be72023066be51b9065c", "rental_uris": {"android": "https://dc.lft.to/lastmile_qr_scan", "ios": "https://dc.lft.to/lastmile_qr_scan"}, "name": "e9d502f81e72be72023066be51b9065c", "is_reserved": 0}, {"is_disabled": 0, "fusion_lon": 0.0, "fusion_lat": 0.0, "lat": 38.89392766666667, "type": "electric_scooter", "lon": -76.9499865, "bike_id": "b5e33af99f5d9729acfcb62c8296a748", "rental_uris": {"android": "https://dc.lft.to/lastmile_qr_scan", "ios": "https://dc.lft.to/lastmile_qr_scan"}, "name": "b5e33af99f5d9729acfcb62c8296a748", "is_reserved": 0}, {"is_disabled": 0, "fusion_lon": 0.0, "fusion_lat": 0.0, "lat": 38.9459175, "type": "electric_bike", "lon": -77.3441755, "bike_id": "11f01eb583f70589ec44e481a6995e01", "rental_uris": {"android": "https://dc.lft.to/lastmile_qr_scan", "ios": "https://dc.lft.to/lastmile_qr_scan"}, "name": "11f01eb583f70589ec44e481a6995e01", "is_reserved": 0}, {"is_disabled": 0, "fusion_lon": 0.0, "fusion_lat": 0.0, "lat": 38.8983815, "type": "electric_scooter", "lon": -77.02187616666667, "bike_id": "460f570f60d37f2e4aec5a89bee25303", "rental_uris": {"android": "https://dc.lft.to/lastmile_qr_scan", "ios": "https://dc.lft.to/lastmile_qr_scan"}, "name": "460f570f60d37f2e4aec5a89bee25303", "is_reserved": 0}, {"is_disabled": 0, "fusion_lon": 0.0, "fusion_lat": 0.0, "lat": 38.776167, "type": "electric_bike", "lon": -77.08355166666666, "bike_id": "f075e808899a882e38d9664ae2e47a12", "rental_uris": {"android": "https://dc.lft.to/lastmile_qr_scan", "ios": "https://dc.lft.to/lastmile_qr_scan"}, "name": "f075e808899a882e38d9664ae2e47a12", "is_reserved": 0}, {"is_disabled": 0, "fusion_lon": 0.0, "fusion_lat": 0.0, "lat": 38.8974815, "type": "electric_scooter", "lon": -77.0472665, "bike_id": "48ae8d9e5006a2e97c1dfb54caa4dded", "rental_uris": {"android": "https://dc.lft.to/lastmile_qr_scan", "ios": "https://dc.lft.to/lastmile_qr_scan"}, "name": "48ae8d9e5006a2e97c1dfb54caa4dded", "is_reserved": 0}, {"is_disabled": 0, "fusion_lon": 0.0, "fusion_lat": 0.0, "lat": 38.926544666666665, "type": "electric_bike", "lon": -76.99753333333334, "bike_id": "48d12ecd088551d4ea8e77e5ef77588d", "rental_uris": {"android": "https://dc.lft.to/lastmile_qr_scan", "ios": "https://dc.lft.to/lastmile_qr_scan"}, "name": "48d12ecd088551d4ea8e77e5ef77588d", "is_reserved": 0}, {"is_disabled": 0, "fusion_lon": 0.0, "fusion_lat": 0.0, "lat": 38.888540166666665, "type": "electric_bike", "lon": -76.97703233333333, "bike_id": "0e08e1ae9d31e2317f49e53a2051d458", "rental_uris": {"android": "https://dc.lft.to/lastmile_qr_scan", "ios": "https://dc.lft.to/lastmile_qr_scan"}, "name": "0e08e1ae9d31e2317f49e53a2051d458", "is_reserved": 0}, {"is_disabled": 0, "fusion_lon": 0.0, "fusion_lat": 0.0, "lat": 38.889621, "type": "electric_scooter", "lon": -76.99145733333333, "bike_id": "4c8ecce448b7a9928e29e31fff58f132", "rental_uris": {"android": "https://dc.lft.to/lastmile_qr_scan", "ios": "https://dc.lft.to/lastmile_qr_scan"}, "name": "4c8ecce448b7a9928e29e31fff58f132", "is_reserved": 0}, {"is_disabled": 0, "fusion_lon": 0.0, "fusion_lat": 0.0, "lat": 38.8983225, "type": "electric_scooter", "lon": -77.02958733333334, "bike_id": "06dc7537911709f72b7645d9ba7fbecb", "rental_uris": {"android": "https://dc.lft.to/lastmile_qr_scan", "ios": "https://dc.lft.to/lastmile_qr_scan"}, "name": "06dc7537911709f72b7645d9ba7fbecb", "is_reserved": 0}, {"is_disabled": 0, "fusion_lon": 0.0, "fusion_lat": 0.0, "lat": 38.88747166666667, "type": "electric_scooter", "lon": -77.01431416666667, "bike_id": "4d71bd71d6422dad7e3312346a09b332", "rental_uris": {"android": "https://dc.lft.to/lastmile_qr_scan", "ios": "https://dc.lft.to/lastmile_qr_scan"}, "name": "4d71bd71d6422dad7e3312346a09b332", "is_reserved": 0}, {"is_disabled": 0, "fusion_lon": 0.0, "fusion_lat": 0.0, "lat": 38.91772916666667, "type": "electric_scooter", "lon": -77.03185, "bike_id": "fd6f59b612a7bb61654e6bad083d9eb6", "rental_uris": {"android": "https://dc.lft.to/lastmile_qr_scan", "ios": "https://dc.lft.to/lastmile_qr_scan"}, "name": "fd6f59b612a7bb61654e6bad083d9eb6", "is_reserved": 0}, {"is_disabled": 0, "fusion_lon": 0.0, "fusion_lat": 0.0, "lat": 38.915292, "type": "electric_scooter", "lon": -77.021816, "bike_id": "b0f0038ffab19ea62cd13b9e04388fba", "rental_uris": {"android": "https://dc.lft.to/lastmile_qr_scan", "ios": "https://dc.lft.to/lastmile_qr_scan"}, "name": "b0f0038ffab19ea62cd13b9e04388fba", "is_reserved": 0}, {"is_disabled": 0, "fusion_lon": 0.0, "fusion_lat": 0.0, "lat": 38.86669633333333, "type": "electric_scooter", "lon": -76.988833, "bike_id": "ca12c157f593b79505fac26c4ac8a71e", "rental_uris": {"android": "https://dc.lft.to/lastmile_qr_scan", "ios": "https://dc.lft.to/lastmile_qr_scan"}, "name": "ca12c157f593b79505fac26c4ac8a71e", "is_reserved": 0}, {"is_disabled": 0, "fusion_lon": 0.0, "fusion_lat": 0.0, "lat": 38.937199166666666, "type": "electric_scooter", "lon": -77.03357183333334, "bike_id": "75a9d6349a3d0d716e235d4628f40fb4", "rental_uris": {"android": "https://dc.lft.to/lastmile_qr_scan", "ios": "https://dc.lft.to/lastmile_qr_scan"}, "name": "75a9d6349a3d0d716e235d4628f40fb4", "is_reserved": 0}, {"is_disabled": 0, "fusion_lon": 0.0, "fusion_lat": 0.0, "lat": 38.914138333333334, "type": "electric_scooter", "lon": -77.022355, "bike_id": "d2e6ee3e0ee26cbbb874aefe3f60fd7c", "rental_uris": {"android": "https://dc.lft.to/lastmile_qr_scan", "ios": "https://dc.lft.to/lastmile_qr_scan"}, "name": "d2e6ee3e0ee26cbbb874aefe3f60fd7c", "is_reserved": 0}, {"is_disabled": 0, "fusion_lon": 0.0, "fusion_lat": 0.0, "lat": 38.911863, "type": "electric_scooter", "lon": -77.0187935, "bike_id": "0927c62ba6d8138b86f086492e57de9e", "rental_uris": {"android": "https://dc.lft.to/lastmile_qr_scan", "ios": "https://dc.lft.to/lastmile_qr_scan"}, "name": "0927c62ba6d8138b86f086492e57de9e", "is_reserved": 0}, {"is_disabled": 0, "fusion_lon": 0.0, "fusion_lat": 0.0, "lat": 38.920529333333334, "type": "electric_scooter", "lon": -77.02372583333333, "bike_id": "ea442dfb871e78b8e947ac6636a0a8c7", "rental_uris": {"android": "https://dc.lft.to/lastmile_qr_scan", "ios": "https://dc.lft.to/lastmile_qr_scan"}, "name": "ea442dfb871e78b8e947ac6636a0a8c7", "is_reserved": 0}, {"is_disabled": 0, "fusion_lon": 0.0, "fusion_lat": 0.0, "lat": 38.94037983333333, "type": "electric_scooter", "lon": -77.025003, "bike_id": "03d410947b3d4c72d7631e2effa891f6", "rental_uris": {"android": "https://dc.lft.to/lastmile_qr_scan", "ios": "https://dc.lft.to/lastmile_qr_scan"}, "name": "03d410947b3d4c72d7631e2effa891f6", "is_reserved": 0}, {"is_disabled": 0, "fusion_lon": 0.0, "fusion_lat": 0.0, "lat": 38.928882333333334, "type": "electric_scooter", "lon": -77.0323305, "bike_id": "08841449cb1178e4d7830773a63ea604", "rental_uris": {"android": "https://dc.lft.to/lastmile_qr_scan", "ios": "https://dc.lft.to/lastmile_qr_scan"}, "name": "08841449cb1178e4d7830773a63ea604", "is_reserved": 0}, {"is_disabled": 0, "fusion_lon": 0.0, "fusion_lat": 0.0, "lat": 38.905319666666664, "type": "electric_scooter", "lon": -77.0508555, "bike_id": "8d18d679778d13200508c6f35399f006", "rental_uris": {"android": "https://dc.lft.to/lastmile_qr_scan", "ios": "https://dc.lft.to/lastmile_qr_scan"}, "name": "8d18d679778d13200508c6f35399f006", "is_reserved": 0}, {"is_disabled": 0, "fusion_lon": 0.0, "fusion_lat": 0.0, "lat": 38.985609, "type": "electric_bike", "lon": -76.98830116666667, "bike_id": "c16a0b9157f6e496dc7b5cf9a4943235", "rental_uris": {"android": "https://dc.lft.to/lastmile_qr_scan", "ios": "https://dc.lft.to/lastmile_qr_scan"}, "name": "c16a0b9157f6e496dc7b5cf9a4943235", "is_reserved": 0}, {"is_disabled": 0, "fusion_lon": 0.0, "fusion_lat": 0.0, "lat": 38.89953216666667, "type": "electric_scooter", "lon": -77.05225316666667, "bike_id": "09e8021e790ebb8c77b5df8eeca2e321", "rental_uris": {"android": "https://dc.lft.to/lastmile_qr_scan", "ios": "https://dc.lft.to/lastmile_qr_scan"}, "name": "09e8021e790ebb8c77b5df8eeca2e321", "is_reserved": 0}, {"is_disabled": 0, "fusion_lon": 0.0, "fusion_lat": 0.0, "lat": 38.91686466666667, "type": "electric_scooter", "lon": -76.98089966666667, "bike_id": "56875404c51c78bef24a75c931d3c879", "rental_uris": {"android": "https://dc.lft.to/lastmile_qr_scan", "ios": "https://dc.lft.to/lastmile_qr_scan"}, "name": "56875404c51c78bef24a75c931d3c879", "is_reserved": 0}, {"is_disabled": 0, "fusion_lon": 0.0, "fusion_lat": 0.0, "lat": 38.842927, "type": "electric_scooter", "lon": -76.99949833333334, "bike_id": "a7559d5134cbb7553c63b1107feb42c9", "rental_uris": {"android": "https://dc.lft.to/lastmile_qr_scan", "ios": "https://dc.lft.to/lastmile_qr_scan"}, "name": "a7559d5134cbb7553c63b1107feb42c9", "is_reserved": 0}, {"is_disabled": 0, "fusion_lon": 0.0, "fusion_lat": 0.0, "lat": 38.918296166666664, "type": "electric_scooter", "lon": -77.0363925, "bike_id": "b466c04d231534ec7d657d0db3d1142b", "rental_uris": {"android": "https://dc.lft.to/lastmile_qr_scan", "ios": "https://dc.lft.to/lastmile_qr_scan"}, "name": "b466c04d231534ec7d657d0db3d1142b", "is_reserved": 0}, {"is_disabled": 0, "fusion_lon": 0.0, "fusion_lat": 0.0, "lat": 38.9083055, "type": "electric_scooter", "lon": -76.99703933333333, "bike_id": "32269d18eb0bd51d2af5afd2a66131b4", "rental_uris": {"android": "https://dc.lft.to/lastmile_qr_scan", "ios": "https://dc.lft.to/lastmile_qr_scan"}, "name": "32269d18eb0bd51d2af5afd2a66131b4", "is_reserved": 0}, {"is_disabled": 0, "fusion_lon": 0.0, "fusion_lat": 0.0, "lat": 38.897313, "type": "electric_scooter", "lon": -77.04675266666666, "bike_id": "35a2514f8d6e2627a4432c59d4b09c19", "rental_uris": {"android": "https://dc.lft.to/lastmile_qr_scan", "ios": "https://dc.lft.to/lastmile_qr_scan"}, "name": "35a2514f8d6e2627a4432c59d4b09c19", "is_reserved": 0}, {"is_disabled": 0, "fusion_lon": 0.0, "fusion_lat": 0.0, "lat": 39.029999833333335, "type": "electric_bike", "lon": -77.10654416666667, "bike_id": "bb97edbac21cca1a3e516f0bd715d093", "rental_uris": {"android": "https://dc.lft.to/lastmile_qr_scan", "ios": "https://dc.lft.to/lastmile_qr_scan"}, "name": "bb97edbac21cca1a3e516f0bd715d093", "is_reserved": 0}, {"is_disabled": 0, "fusion_lon": 0.0, "fusion_lat": 0.0, "lat": 38.924733833333335, "type": "electric_scooter", "lon": -77.02984616666667, "bike_id": "28350c1cc9ce0b93cfb9048c8dc45a24", "rental_uris": {"android": "https://dc.lft.to/lastmile_qr_scan", "ios": "https://dc.lft.to/lastmile_qr_scan"}, "name": "28350c1cc9ce0b93cfb9048c8dc45a24", "is_reserved": 0}, {"is_disabled": 0, "fusion_lon": 0.0, "fusion_lat": 0.0, "lat": 38.92050733333333, "type": "electric_scooter", "lon": -77.026155, "bike_id": "924d296316a636f7a6618001ccd70e95", "rental_uris": {"android": "https://dc.lft.to/lastmile_qr_scan", "ios": "https://dc.lft.to/lastmile_qr_scan"}, "name": "924d296316a636f7a6618001ccd70e95", "is_reserved": 0}, {"is_disabled": 0, "fusion_lon": 0.0, "fusion_lat": 0.0, "lat": 38.90834733333333, "type": "electric_scooter", "lon": -76.9970095, "bike_id": "8b71450e3866d742d755eaf2eae06195", "rental_uris": {"android": "https://dc.lft.to/lastmile_qr_scan", "ios": "https://dc.lft.to/lastmile_qr_scan"}, "name": "8b71450e3866d742d755eaf2eae06195", "is_reserved": 0}, {"is_disabled": 0, "fusion_lon": 0.0, "fusion_lat": 0.0, "lat": 38.90214116666667, "type": "electric_scooter", "lon": -77.02373783333333, "bike_id": "30a8f29e847d1ee9f0880b9c495ea67e", "rental_uris": {"android": "https://dc.lft.to/lastmile_qr_scan", "ios": "https://dc.lft.to/lastmile_qr_scan"}, "name": "30a8f29e847d1ee9f0880b9c495ea67e", "is_reserved": 0}, {"is_disabled": 0, "fusion_lon": 0.0, "fusion_lat": 0.0, "lat": 38.905733833333336, "type": "electric_scooter", "lon": -77.03351233333333, "bike_id": "fd11b7cd09e5ac17981f25038b030f10", "rental_uris": {"android": "https://dc.lft.to/lastmile_qr_scan", "ios": "https://dc.lft.to/lastmile_qr_scan"}, "name": "fd11b7cd09e5ac17981f25038b030f10", "is_reserved": 0}, {"is_disabled": 0, "fusion_lon": 0.0, "fusion_lat": 0.0, "lat": 38.903602666666664, "type": "electric_scooter", "lon": -77.0626825, "bike_id": "6dbc9c0aea44278906934de17f95ce21", "rental_uris": {"android": "https://dc.lft.to/lastmile_qr_scan", "ios": "https://dc.lft.to/lastmile_qr_scan"}, "name": "6dbc9c0aea44278906934de17f95ce21", "is_reserved": 0}, {"is_disabled": 0, "fusion_lon": 0.0, "fusion_lat": 0.0, "lat": 38.918594, "type": "electric_scooter", "lon": -77.0415915, "bike_id": "de61ec396dea926d00c51b3d41875dca", "rental_uris": {"android": "https://dc.lft.to/lastmile_qr_scan", "ios": "https://dc.lft.to/lastmile_qr_scan"}, "name": "de61ec396dea926d00c51b3d41875dca", "is_reserved": 0}, {"is_disabled": 0, "fusion_lon": 0.0, "fusion_lat": 0.0, "lat": 38.90729016666667, "type": "electric_scooter", "lon": -77.0236785, "bike_id": "b2d609159fc1f386763456a446725f1c", "rental_uris": {"android": "https://dc.lft.to/lastmile_qr_scan", "ios": "https://dc.lft.to/lastmile_qr_scan"}, "name": "b2d609159fc1f386763456a446725f1c", "is_reserved": 0}, {"is_disabled": 0, "fusion_lon": 0.0, "fusion_lat": 0.0, "lat": 38.9013315, "type": "electric_scooter", "lon": -77.0178075, "bike_id": "e787a592789def061b1608ab52720927", "rental_uris": {"android": "https://dc.lft.to/lastmile_qr_scan", "ios": "https://dc.lft.to/lastmile_qr_scan"}, "name": "e787a592789def061b1608ab52720927", "is_reserved": 0}, {"is_disabled": 0, "fusion_lon": 0.0, "fusion_lat": 0.0, "lat": 38.91820633333333, "type": "electric_scooter", "lon": -77.01210766666667, "bike_id": "4ffa0f1dcebff09257b044a2ba268efc", "rental_uris": {"android": "https://dc.lft.to/lastmile_qr_scan", "ios": "https://dc.lft.to/lastmile_qr_scan"}, "name": "4ffa0f1dcebff09257b044a2ba268efc", "is_reserved": 0}, {"is_disabled": 0, "fusion_lon": 0.0, "fusion_lat": 0.0, "lat": 38.84513716666667, "type": "electric_bike", "lon": -77.07798933333333, "bike_id": "5017ec9ff739d563ef06c6335752b185", "rental_uris": {"android": "https://dc.lft.to/lastmile_qr_scan", "ios": "https://dc.lft.to/lastmile_qr_scan"}, "name": "5017ec9ff739d563ef06c6335752b185", "is_reserved": 0}, {"is_disabled": 0, "fusion_lon": 0.0, "fusion_lat": 0.0, "lat": 38.89750333333333, "type": "electric_scooter", "lon": -77.0480675, "bike_id": "ae3bc3f5abee8195cae1a362784fe050", "rental_uris": {"android": "https://dc.lft.to/lastmile_qr_scan", "ios": "https://dc.lft.to/lastmile_qr_scan"}, "name": "ae3bc3f5abee8195cae1a362784fe050", "is_reserved": 0}, {"is_disabled": 0, "fusion_lon": 0.0, "fusion_lat": 0.0, "lat": 38.950023333333334, "type": "electric_bike", "lon": -77.35313616666667, "bike_id": "82171f4339422ca565a727b9db7acc90", "rental_uris": {"android": "https://dc.lft.to/lastmile_qr_scan", "ios": "https://dc.lft.to/lastmile_qr_scan"}, "name": "82171f4339422ca565a727b9db7acc90", "is_reserved": 0}, {"is_disabled": 0, "fusion_lon": 0.0, "fusion_lat": 0.0, "lat": 38.909783, "type": "electric_scooter", "lon": -77.03844683333334, "bike_id": "30d357ead94f65b42eacc15319100a80", "rental_uris": {"android": "https://dc.lft.to/lastmile_qr_scan", "ios": "https://dc.lft.to/lastmile_qr_scan"}, "name": "30d357ead94f65b42eacc15319100a80", "is_reserved": 0}, {"is_disabled": 0, "fusion_lon": 0.0, "fusion_lat": 0.0, "lat": 38.91581383333333, "type": "electric_scooter", "lon": -77.0467305, "bike_id": "d0b55c697e5a2c38696de07f3f397aa0", "rental_uris": {"android": "https://dc.lft.to/lastmile_qr_scan", "ios": "https://dc.lft.to/lastmile_qr_scan"}, "name": "d0b55c697e5a2c38696de07f3f397aa0", "is_reserved": 0}, {"is_disabled": 0, "fusion_lon": 0.0, "fusion_lat": 0.0, "lat": 38.911874166666664, "type": "electric_scooter", "lon": -77.0392265, "bike_id": "561a73d5f6866dca9e3ca42f41224359", "rental_uris": {"android": "https://dc.lft.to/lastmile_qr_scan", "ios": "https://dc.lft.to/lastmile_qr_scan"}, "name": "561a73d5f6866dca9e3ca42f41224359", "is_reserved": 0}, {"is_disabled": 0, "fusion_lon": 0.0, "fusion_lat": 0.0, "lat": 38.91058866666667, "type": "electric_scooter", "lon": -77.0416835, "bike_id": "8ab65b72c5f0f266f15422913d0343f1", "rental_uris": {"android": "https://dc.lft.to/lastmile_qr_scan", "ios": "https://dc.lft.to/lastmile_qr_scan"}, "name": "8ab65b72c5f0f266f15422913d0343f1", "is_reserved": 0}, {"is_disabled": 0, "fusion_lon": 0.0, "fusion_lat": 0.0, "lat": 38.881184833333336, "type": "electric_scooter", "lon": -76.9960075, "bike_id": "7724fa77e1126b1d2ecb37565996c6b4", "rental_uris": {"android": "https://dc.lft.to/lastmile_qr_scan", "ios": "https://dc.lft.to/lastmile_qr_scan"}, "name": "7724fa77e1126b1d2ecb37565996c6b4", "is_reserved": 0}, {"is_disabled": 0, "fusion_lon": 0.0, "fusion_lat": 0.0, "lat": 38.911941, "type": "electric_scooter", "lon": -77.04178333333333, "bike_id": "04bfc371f68b85969fd63f4afa561cbe", "rental_uris": {"android": "https://dc.lft.to/lastmile_qr_scan", "ios": "https://dc.lft.to/lastmile_qr_scan"}, "name": "04bfc371f68b85969fd63f4afa561cbe", "is_reserved": 0}, {"is_disabled": 0, "fusion_lon": 0.0, "fusion_lat": 0.0, "lat": 38.8650585, "type": "electric_scooter", "lon": -76.99010683333333, "bike_id": "ec0b79a5f7b265a0942e5277140973c8", "rental_uris": {"android": "https://dc.lft.to/lastmile_qr_scan", "ios": "https://dc.lft.to/lastmile_qr_scan"}, "name": "ec0b79a5f7b265a0942e5277140973c8", "is_reserved": 0}, {"is_disabled": 0, "fusion_lon": 0.0, "fusion_lat": 0.0, "lat": 38.931400333333336, "type": "electric_scooter", "lon": -77.040611, "bike_id": "3b0e84c3d885f84df8ecbf378fe55a4a", "rental_uris": {"android": "https://dc.lft.to/lastmile_qr_scan", "ios": "https://dc.lft.to/lastmile_qr_scan"}, "name": "3b0e84c3d885f84df8ecbf378fe55a4a", "is_reserved": 0}, {"is_disabled": 0, "fusion_lon": 0.0, "fusion_lat": 0.0, "lat": 38.86535283333333, "type": "electric_scooter", "lon": -76.98705483333333, "bike_id": "df13b27f20c334f85e6072e9d87d1a08", "rental_uris": {"android": "https://dc.lft.to/lastmile_qr_scan", "ios": "https://dc.lft.to/lastmile_qr_scan"}, "name": "df13b27f20c334f85e6072e9d87d1a08", "is_reserved": 0}, {"is_disabled": 0, "fusion_lon": 0.0, "fusion_lat": 0.0, "lat": 38.893965666666666, "type": "electric_scooter", "lon": -76.94993166666667, "bike_id": "07f57f6b0483571c0e8e0ab2bc6f4cef", "rental_uris": {"android": "https://dc.lft.to/lastmile_qr_scan", "ios": "https://dc.lft.to/lastmile_qr_scan"}, "name": "07f57f6b0483571c0e8e0ab2bc6f4cef", "is_reserved": 0}, {"is_disabled": 0, "fusion_lon": 0.0, "fusion_lat": 0.0, "lat": 38.920609166666665, "type": "electric_scooter", "lon": -77.04696166666666, "bike_id": "5cb5677ca281d930976d631697d0af2e", "rental_uris": {"android": "https://dc.lft.to/lastmile_qr_scan", "ios": "https://dc.lft.to/lastmile_qr_scan"}, "name": "5cb5677ca281d930976d631697d0af2e", "is_reserved": 0}, {"is_disabled": 0, "fusion_lon": 0.0, "fusion_lat": 0.0, "lat": 38.905134, "type": "electric_scooter", "lon": -77.05398383333333, "bike_id": "bbf55bb275cbec512202947bb1f67451", "rental_uris": {"android": "https://dc.lft.to/lastmile_qr_scan", "ios": "https://dc.lft.to/lastmile_qr_scan"}, "name": "bbf55bb275cbec512202947bb1f67451", "is_reserved": 0}, {"is_disabled": 0, "fusion_lon": 0.0, "fusion_lat": 0.0, "lat": 38.90576316666667, "type": "electric_scooter", "lon": -77.02206533333333, "bike_id": "10ef54a1cc0d9d69adff79fe21ad18fd", "rental_uris": {"android": "https://dc.lft.to/lastmile_qr_scan", "ios": "https://dc.lft.to/lastmile_qr_scan"}, "name": "10ef54a1cc0d9d69adff79fe21ad18fd", "is_reserved": 0}, {"is_disabled": 0, "fusion_lon": 0.0, "fusion_lat": 0.0, "lat": 38.90502083333333, "type": "electric_scooter", "lon": -77.02951183333333, "bike_id": "b4d0821f2f95fc972d975d6b5eea5b29", "rental_uris": {"android": "https://dc.lft.to/lastmile_qr_scan", "ios": "https://dc.lft.to/lastmile_qr_scan"}, "name": "b4d0821f2f95fc972d975d6b5eea5b29", "is_reserved": 0}, {"is_disabled": 0, "fusion_lon": 0.0, "fusion_lat": 0.0, "lat": 38.942822, "type": "electric_scooter", "lon": -77.0363035, "bike_id": "b9e4e360f62467bdca6294ff378b07f0", "rental_uris": {"android": "https://dc.lft.to/lastmile_qr_scan", "ios": "https://dc.lft.to/lastmile_qr_scan"}, "name": "b9e4e360f62467bdca6294ff378b07f0", "is_reserved": 0}, {"is_disabled": 0, "fusion_lon": 0.0, "fusion_lat": 0.0, "lat": 38.9498395, "type": "electric_scooter", "lon": -77.027033, "bike_id": "e98fa3b3d1dfd23d170b5dccbe640bc1", "rental_uris": {"android": "https://dc.lft.to/lastmile_qr_scan", "ios": "https://dc.lft.to/lastmile_qr_scan"}, "name": "e98fa3b3d1dfd23d170b5dccbe640bc1", "is_reserved": 0}, {"is_disabled": 0, "fusion_lon": 0.0, "fusion_lat": 0.0, "lat": 38.90952166666667, "type": "electric_scooter", "lon": -77.023801, "bike_id": "6329ac81eca4944d8af3dfebd502265d", "rental_uris": {"android": "https://dc.lft.to/lastmile_qr_scan", "ios": "https://dc.lft.to/lastmile_qr_scan"}, "name": "6329ac81eca4944d8af3dfebd502265d", "is_reserved": 0}, {"is_disabled": 0, "fusion_lon": 0.0, "fusion_lat": 0.0, "lat": 38.85810683333333, "type": "electric_scooter", "lon": -76.9896395, "bike_id": "9448352fb888411e33f6673ae2fd8a2c", "rental_uris": {"android": "https://dc.lft.to/lastmile_qr_scan", "ios": "https://dc.lft.to/lastmile_qr_scan"}, "name": "9448352fb888411e33f6673ae2fd8a2c", "is_reserved": 0}, {"is_disabled": 0, "fusion_lon": 0.0, "fusion_lat": 0.0, "lat": 38.900301, "type": "electric_scooter", "lon": -76.996342, "bike_id": "0777a98ff0d9aa1d032c5977ef9f06c9", "rental_uris": {"android": "https://dc.lft.to/lastmile_qr_scan", "ios": "https://dc.lft.to/lastmile_qr_scan"}, "name": "0777a98ff0d9aa1d032c5977ef9f06c9", "is_reserved": 0}, {"is_disabled": 0, "fusion_lon": 0.0, "fusion_lat": 0.0, "lat": 38.902372, "type": "electric_scooter", "lon": -77.00213316666667, "bike_id": "2fa28ce11ef4385373affdb71e7ee9b3", "rental_uris": {"android": "https://dc.lft.to/lastmile_qr_scan", "ios": "https://dc.lft.to/lastmile_qr_scan"}, "name": "2fa28ce11ef4385373affdb71e7ee9b3", "is_reserved": 0}, {"is_disabled": 0, "fusion_lon": 0.0, "fusion_lat": 0.0, "lat": 38.8793555, "type": "electric_scooter", "lon": -77.0099985, "bike_id": "0f4157ee4bcf76278c0cac4fa639bf70", "rental_uris": {"android": "https://dc.lft.to/lastmile_qr_scan", "ios": "https://dc.lft.to/lastmile_qr_scan"}, "name": "0f4157ee4bcf76278c0cac4fa639bf70", "is_reserved": 0}, {"is_disabled": 0, "fusion_lon": 0.0, "fusion_lat": 0.0, "lat": 38.921264666666666, "type": "electric_scooter", "lon": -77.02528983333333, "bike_id": "109c14f3ecce27fc03253136c5c27cb8", "rental_uris": {"android": "https://dc.lft.to/lastmile_qr_scan", "ios": "https://dc.lft.to/lastmile_qr_scan"}, "name": "109c14f3ecce27fc03253136c5c27cb8", "is_reserved": 0}, {"is_disabled": 0, "fusion_lon": 0.0, "fusion_lat": 0.0, "lat": 38.95612233333333, "type": "electric_scooter", "lon": -77.02763533333334, "bike_id": "13f5821754d1b54964cf9d39dc08ee98", "rental_uris": {"android": "https://dc.lft.to/lastmile_qr_scan", "ios": "https://dc.lft.to/lastmile_qr_scan"}, "name": "13f5821754d1b54964cf9d39dc08ee98", "is_reserved": 0}, {"is_disabled": 0, "fusion_lon": 0.0, "fusion_lat": 0.0, "lat": 38.866611, "type": "electric_scooter", "lon": -76.98885316666667, "bike_id": "e9969c1677faed96d8e1d57972a8191e", "rental_uris": {"android": "https://dc.lft.to/lastmile_qr_scan", "ios": "https://dc.lft.to/lastmile_qr_scan"}, "name": "e9969c1677faed96d8e1d57972a8191e", "is_reserved": 0}, {"is_disabled": 0, "fusion_lon": 0.0, "fusion_lat": 0.0, "lat": 38.96214333333333, "type": "electric_scooter", "lon": -77.028091, "bike_id": "23b447637f6e805e0c6fb5940a90fe10", "rental_uris": {"android": "https://dc.lft.to/lastmile_qr_scan", "ios": "https://dc.lft.to/lastmile_qr_scan"}, "name": "23b447637f6e805e0c6fb5940a90fe10", "is_reserved": 0}, {"is_disabled": 0, "fusion_lon": 0.0, "fusion_lat": 0.0, "lat": 38.89327483333334, "type": "electric_scooter", "lon": -77.02118916666667, "bike_id": "c066e8ed1dff83c35489c529f20eefd7", "rental_uris": {"android": "https://dc.lft.to/lastmile_qr_scan", "ios": "https://dc.lft.to/lastmile_qr_scan"}, "name": "c066e8ed1dff83c35489c529f20eefd7", "is_reserved": 0}, {"is_disabled": 0, "fusion_lon": 0.0, "fusion_lat": 0.0, "lat": 38.937531666666665, "type": "electric_scooter", "lon": -77.02475016666666, "bike_id": "4a4e93d8369de3e3110d13cfe717720a", "rental_uris": {"android": "https://dc.lft.to/lastmile_qr_scan", "ios": "https://dc.lft.to/lastmile_qr_scan"}, "name": "4a4e93d8369de3e3110d13cfe717720a", "is_reserved": 0}, {"is_disabled": 0, "fusion_lon": 0.0, "fusion_lat": 0.0, "lat": 38.89476533333333, "type": "electric_scooter", "lon": -76.99528016666666, "bike_id": "2c0ae5d11271b8ac058a59fb3942b5ac", "rental_uris": {"android": "https://dc.lft.to/lastmile_qr_scan", "ios": "https://dc.lft.to/lastmile_qr_scan"}, "name": "2c0ae5d11271b8ac058a59fb3942b5ac", "is_reserved": 0}, {"is_disabled": 0, "fusion_lon": 0.0, "fusion_lat": 0.0, "lat": 38.94227983333333, "type": "electric_scooter", "lon": -77.021565, "bike_id": "5ad7529e4b025a72b591cd363faa0766", "rental_uris": {"android": "https://dc.lft.to/lastmile_qr_scan", "ios": "https://dc.lft.to/lastmile_qr_scan"}, "name": "5ad7529e4b025a72b591cd363faa0766", "is_reserved": 0}, {"is_disabled": 0, "fusion_lon": 0.0, "fusion_lat": 0.0, "lat": 38.93187116666667, "type": "electric_scooter", "lon": -77.02835683333333, "bike_id": "db36a768bcc58ed147503aa77528da49", "rental_uris": {"android": "https://dc.lft.to/lastmile_qr_scan", "ios": "https://dc.lft.to/lastmile_qr_scan"}, "name": "db36a768bcc58ed147503aa77528da49", "is_reserved": 0}, {"is_disabled": 0, "fusion_lon": 0.0, "fusion_lat": 0.0, "lat": 38.929643666666664, "type": "electric_scooter", "lon": -77.04202616666667, "bike_id": "58fc2ac87a8bb987dc7d896af980658a", "rental_uris": {"android": "https://dc.lft.to/lastmile_qr_scan", "ios": "https://dc.lft.to/lastmile_qr_scan"}, "name": "58fc2ac87a8bb987dc7d896af980658a", "is_reserved": 0}, {"is_disabled": 0, "fusion_lon": 0.0, "fusion_lat": 0.0, "lat": 38.916212333333334, "type": "electric_scooter", "lon": -77.031419, "bike_id": "5d47754a6878fd8c12b624ef4619a23a", "rental_uris": {"android": "https://dc.lft.to/lastmile_qr_scan", "ios": "https://dc.lft.to/lastmile_qr_scan"}, "name": "5d47754a6878fd8c12b624ef4619a23a", "is_reserved": 0}, {"is_disabled": 0, "fusion_lon": 0.0, "fusion_lat": 0.0, "lat": 38.93333583333333, "type": "electric_bike", "lon": -77.0421005, "bike_id": "bbaee04a121f6fcfe114612d2b3a5a86", "rental_uris": {"android": "https://dc.lft.to/lastmile_qr_scan", "ios": "https://dc.lft.to/lastmile_qr_scan"}, "name": "bbaee04a121f6fcfe114612d2b3a5a86", "is_reserved": 0}, {"is_disabled": 0, "fusion_lon": 0.0, "fusion_lat": 0.0, "lat": 38.866982, "type": "electric_scooter", "lon": -76.98710333333334, "bike_id": "2808fdadedc7df362591435421a8aea8", "rental_uris": {"android": "https://dc.lft.to/lastmile_qr_scan", "ios": "https://dc.lft.to/lastmile_qr_scan"}, "name": "2808fdadedc7df362591435421a8aea8", "is_reserved": 0}, {"is_disabled": 0, "fusion_lon": 0.0, "fusion_lat": 0.0, "lat": 38.946153833333334, "type": "electric_scooter", "lon": -77.03624033333334, "bike_id": "7dab792784a6b6e1d71bcd0abb48be48", "rental_uris": {"android": "https://dc.lft.to/lastmile_qr_scan", "ios": "https://dc.lft.to/lastmile_qr_scan"}, "name": "7dab792784a6b6e1d71bcd0abb48be48", "is_reserved": 0}, {"is_disabled": 0, "fusion_lon": 0.0, "fusion_lat": 0.0, "lat": 38.93096233333333, "type": "electric_scooter", "lon": -77.02665983333333, "bike_id": "424d57c5a5e9b12dd904acc90264895f", "rental_uris": {"android": "https://dc.lft.to/lastmile_qr_scan", "ios": "https://dc.lft.to/lastmile_qr_scan"}, "name": "424d57c5a5e9b12dd904acc90264895f", "is_reserved": 0}, {"is_disabled": 0, "fusion_lon": 0.0, "fusion_lat": 0.0, "lat": 38.903939666666666, "type": "electric_scooter", "lon": -77.03018066666667, "bike_id": "2b98e771ea3caea17fbb8aaced62f5a3", "rental_uris": {"android": "https://dc.lft.to/lastmile_qr_scan", "ios": "https://dc.lft.to/lastmile_qr_scan"}, "name": "2b98e771ea3caea17fbb8aaced62f5a3", "is_reserved": 0}, {"is_disabled": 0, "fusion_lon": 0.0, "fusion_lat": 0.0, "lat": 38.920108, "type": "electric_scooter", "lon": -77.03146233333334, "bike_id": "621cade05fbc5aafae13b42c1caecf52", "rental_uris": {"android": "https://dc.lft.to/lastmile_qr_scan", "ios": "https://dc.lft.to/lastmile_qr_scan"}, "name": "621cade05fbc5aafae13b42c1caecf52", "is_reserved": 0}, {"is_disabled": 0, "fusion_lon": 0.0, "fusion_lat": 0.0, "lat": 38.8691045, "type": "electric_scooter", "lon": -77.01373583333333, "bike_id": "3e0f4b22003e40ec36a9c5f98a483e8e", "rental_uris": {"android": "https://dc.lft.to/lastmile_qr_scan", "ios": "https://dc.lft.to/lastmile_qr_scan"}, "name": "3e0f4b22003e40ec36a9c5f98a483e8e", "is_reserved": 0}, {"is_disabled": 0, "fusion_lon": 0.0, "fusion_lat": 0.0, "lat": 38.920474166666665, "type": "electric_scooter", "lon": -77.02373016666667, "bike_id": "8d295905ed33dba8a5ff314239e93fa8", "rental_uris": {"android": "https://dc.lft.to/lastmile_qr_scan", "ios": "https://dc.lft.to/lastmile_qr_scan"}, "name": "8d295905ed33dba8a5ff314239e93fa8", "is_reserved": 0}, {"is_disabled": 0, "fusion_lon": 0.0, "fusion_lat": 0.0, "lat": 38.9111715, "type": "electric_scooter", "lon": -77.02240066666667, "bike_id": "bac0105251fd3a08b9f22cd209b9f38e", "rental_uris": {"android": "https://dc.lft.to/lastmile_qr_scan", "ios": "https://dc.lft.to/lastmile_qr_scan"}, "name": "bac0105251fd3a08b9f22cd209b9f38e", "is_reserved": 0}, {"is_disabled": 0, "fusion_lon": 0.0, "fusion_lat": 0.0, "lat": 38.90533766666667, "type": "electric_scooter", "lon": -77.0490515, "bike_id": "882e2e5c83a4e179f8d0a697b922eb0b", "rental_uris": {"android": "https://dc.lft.to/lastmile_qr_scan", "ios": "https://dc.lft.to/lastmile_qr_scan"}, "name": "882e2e5c83a4e179f8d0a697b922eb0b", "is_reserved": 0}, {"is_disabled": 0, "fusion_lon": 0.0, "fusion_lat": 0.0, "lat": 38.941995, "type": "electric_scooter", "lon": -77.025783, "bike_id": "cd7d77d47e6d1f16182af6afd424092e", "rental_uris": {"android": "https://dc.lft.to/lastmile_qr_scan", "ios": "https://dc.lft.to/lastmile_qr_scan"}, "name": "cd7d77d47e6d1f16182af6afd424092e", "is_reserved": 0}, {"is_disabled": 0, "fusion_lon": 0.0, "fusion_lat": 0.0, "lat": 38.99998016666667, "type": "electric_bike", "lon": -76.9180275, "bike_id": "7760be13e42c9d204e5e8258129f886c", "rental_uris": {"android": "https://dc.lft.to/lastmile_qr_scan", "ios": "https://dc.lft.to/lastmile_qr_scan"}, "name": "7760be13e42c9d204e5e8258129f886c", "is_reserved": 0}, {"is_disabled": 0, "fusion_lon": 0.0, "fusion_lat": 0.0, "lat": 38.9147365, "type": "electric_scooter", "lon": -77.00343766666667, "bike_id": "d754e118535ac7e1e22eb673fa054e35", "rental_uris": {"android": "https://dc.lft.to/lastmile_qr_scan", "ios": "https://dc.lft.to/lastmile_qr_scan"}, "name": "d754e118535ac7e1e22eb673fa054e35", "is_reserved": 0}, {"is_disabled": 0, "fusion_lon": 0.0, "fusion_lat": 0.0, "lat": 38.921962666666666, "type": "electric_scooter", "lon": -76.99702816666667, "bike_id": "090d0db08dd83303cd06e9381bac48be", "rental_uris": {"android": "https://dc.lft.to/lastmile_qr_scan", "ios": "https://dc.lft.to/lastmile_qr_scan"}, "name": "090d0db08dd83303cd06e9381bac48be", "is_reserved": 0}, {"is_disabled": 0, "fusion_lon": 0.0, "fusion_lat": 0.0, "lat": 38.90414083333334, "type": "electric_scooter", "lon": -76.990601, "bike_id": "c707438dad3f3b5736ea8047df3c51e5", "rental_uris": {"android": "https://dc.lft.to/lastmile_qr_scan", "ios": "https://dc.lft.to/lastmile_qr_scan"}, "name": "c707438dad3f3b5736ea8047df3c51e5", "is_reserved": 0}, {"is_disabled": 0, "fusion_lon": 0.0, "fusion_lat": 0.0, "lat": 38.87576283333333, "type": "electric_scooter", "lon": -77.00606666666667, "bike_id": "694ef976a6af40bcff4caa3602b0bb77", "rental_uris": {"android": "https://dc.lft.to/lastmile_qr_scan", "ios": "https://dc.lft.to/lastmile_qr_scan"}, "name": "694ef976a6af40bcff4caa3602b0bb77", "is_reserved": 0}, {"is_disabled": 0, "fusion_lon": 0.0, "fusion_lat": 0.0, "lat": 38.8950765, "type": "electric_scooter", "lon": -76.9488255, "bike_id": "dee5bc0c2431c0eeb139066210731ae3", "rental_uris": {"android": "https://dc.lft.to/lastmile_qr_scan", "ios": "https://dc.lft.to/lastmile_qr_scan"}, "name": "dee5bc0c2431c0eeb139066210731ae3", "is_reserved": 0}, {"is_disabled": 0, "fusion_lon": 0.0, "fusion_lat": 0.0, "lat": 38.8419255, "type": "electric_bike", "lon": -77.0774815, "bike_id": "ac15677f1325477cd8358e5e4c725553", "rental_uris": {"android": "https://dc.lft.to/lastmile_qr_scan", "ios": "https://dc.lft.to/lastmile_qr_scan"}, "name": "ac15677f1325477cd8358e5e4c725553", "is_reserved": 0}, {"is_disabled": 0, "fusion_lon": 0.0, "fusion_lat": 0.0, "lat": 38.89906966666667, "type": "electric_scooter", "lon": -76.93347416666667, "bike_id": "8eb3189e8962bc823a4512a9813405d9", "rental_uris": {"android": "https://dc.lft.to/lastmile_qr_scan", "ios": "https://dc.lft.to/lastmile_qr_scan"}, "name": "8eb3189e8962bc823a4512a9813405d9", "is_reserved": 0}, {"is_disabled": 0, "fusion_lon": 0.0, "fusion_lat": 0.0, "lat": 38.915490166666665, "type": "electric_scooter", "lon": -77.0123345, "bike_id": "e7c74252cbece18ed2a47430d8bcda4a", "rental_uris": {"android": "https://dc.lft.to/lastmile_qr_scan", "ios": "https://dc.lft.to/lastmile_qr_scan"}, "name": "e7c74252cbece18ed2a47430d8bcda4a", "is_reserved": 0}, {"is_disabled": 0, "fusion_lon": 0.0, "fusion_lat": 0.0, "lat": 38.892183, "type": "electric_scooter", "lon": -77.02264133333334, "bike_id": "261c8abdbc7e93433feaabccbc3f81c0", "rental_uris": {"android": "https://dc.lft.to/lastmile_qr_scan", "ios": "https://dc.lft.to/lastmile_qr_scan"}, "name": "261c8abdbc7e93433feaabccbc3f81c0", "is_reserved": 0}, {"is_disabled": 0, "fusion_lon": 0.0, "fusion_lat": 0.0, "lat": 38.902420666666664, "type": "electric_scooter", "lon": -77.00210466666667, "bike_id": "d379ec3b402d225f84cbef3daa4025fe", "rental_uris": {"android": "https://dc.lft.to/lastmile_qr_scan", "ios": "https://dc.lft.to/lastmile_qr_scan"}, "name": "d379ec3b402d225f84cbef3daa4025fe", "is_reserved": 0}, {"is_disabled": 0, "fusion_lon": 0.0, "fusion_lat": 0.0, "lat": 39.09590816666667, "type": "electric_bike", "lon": -77.147791, "bike_id": "0bdfa7093f371d85e61bcfb14d217a9e", "rental_uris": {"android": "https://dc.lft.to/lastmile_qr_scan", "ios": "https://dc.lft.to/lastmile_qr_scan"}, "name": "0bdfa7093f371d85e61bcfb14d217a9e", "is_reserved": 0}, {"is_disabled": 0, "fusion_lon": 0.0, "fusion_lat": 0.0, "lat": 38.999328, "type": "electric_bike", "lon": -77.00126583333333, "bike_id": "fa09b1c3fc1288855152c23f5808dea8", "rental_uris": {"android": "https://dc.lft.to/lastmile_qr_scan", "ios": "https://dc.lft.to/lastmile_qr_scan"}, "name": "fa09b1c3fc1288855152c23f5808dea8", "is_reserved": 0}, {"is_disabled": 0, "fusion_lon": 0.0, "fusion_lat": 0.0, "lat": 38.860328833333334, "type": "electric_scooter", "lon": -76.996823, "bike_id": "d57b34bf7a0f3b1fa2f3bbf3eb9b62ea", "rental_uris": {"android": "https://dc.lft.to/lastmile_qr_scan", "ios": "https://dc.lft.to/lastmile_qr_scan"}, "name": "d57b34bf7a0f3b1fa2f3bbf3eb9b62ea", "is_reserved": 0}, {"is_disabled": 0, "fusion_lon": 0.0, "fusion_lat": 0.0, "lat": 38.85541, "type": "electric_bike", "lon": -77.10715416666666, "bike_id": "12a585b7ece8e285fe3d160d5704d8f8", "rental_uris": {"android": "https://dc.lft.to/lastmile_qr_scan", "ios": "https://dc.lft.to/lastmile_qr_scan"}, "name": "12a585b7ece8e285fe3d160d5704d8f8", "is_reserved": 0}, {"is_disabled": 0, "fusion_lon": 0.0, "fusion_lat": 0.0, "lat": 38.89994466666667, "type": "electric_scooter", "lon": -77.03218883333334, "bike_id": "b0b34fae18e951088dee4c242f4a0f84", "rental_uris": {"android": "https://dc.lft.to/lastmile_qr_scan", "ios": "https://dc.lft.to/lastmile_qr_scan"}, "name": "b0b34fae18e951088dee4c242f4a0f84", "is_reserved": 0}, {"is_disabled": 0, "fusion_lon": 0.0, "fusion_lat": 0.0, "lat": 38.91350883333333, "type": "electric_scooter", "lon": -77.032161, "bike_id": "a94eb0ee6b1fcb2cc9ff24959e14b52b", "rental_uris": {"android": "https://dc.lft.to/lastmile_qr_scan", "ios": "https://dc.lft.to/lastmile_qr_scan"}, "name": "a94eb0ee6b1fcb2cc9ff24959e14b52b", "is_reserved": 0}, {"is_disabled": 0, "fusion_lon": 0.0, "fusion_lat": 0.0, "lat": 38.92155666666667, "type": "electric_scooter", "lon": -77.033805, "bike_id": "52de536e7e2cdc123d557193a8754e09", "rental_uris": {"android": "https://dc.lft.to/lastmile_qr_scan", "ios": "https://dc.lft.to/lastmile_qr_scan"}, "name": "52de536e7e2cdc123d557193a8754e09", "is_reserved": 0}, {"is_disabled": 0, "fusion_lon": 0.0, "fusion_lat": 0.0, "lat": 38.89781266666667, "type": "electric_scooter", "lon": -77.0248855, "bike_id": "fe7d8fd86dbc748f8629b5b70357aeb8", "rental_uris": {"android": "https://dc.lft.to/lastmile_qr_scan", "ios": "https://dc.lft.to/lastmile_qr_scan"}, "name": "fe7d8fd86dbc748f8629b5b70357aeb8", "is_reserved": 0}, {"is_disabled": 0, "fusion_lon": 0.0, "fusion_lat": 0.0, "lat": 38.91807333333333, "type": "electric_scooter", "lon": -77.04004966666666, "bike_id": "0be26238dc5cf5e71a0acb23dbe4e943", "rental_uris": {"android": "https://dc.lft.to/lastmile_qr_scan", "ios": "https://dc.lft.to/lastmile_qr_scan"}, "name": "0be26238dc5cf5e71a0acb23dbe4e943", "is_reserved": 0},