{"data": {"bikes": [{"fusion_lat": 0.0, "lon": -77.0120825, "is_reserved": 0, "bike_id": "74853ee6ebbed3cfe62676f164ccb5e9", "fusion_lon": 0.0, "rental_uris": {"android": "https://dc.lft.to/lastmile_qr_scan", "ios": "https://dc.lft.to/lastmile_qr_scan"}, "name": "74853ee6ebbed3cfe62676f164ccb5e9", "type": "electric_scooter", "lat": 38.92121266666667, "is_disabled": 0}, {"fusion_lat": 0.0, "lon": -77.025334, "is_reserved": 0, "bike_id": "7506bd3d2c3b5e4ed3929cfb12381528", "fusion_lon": 0.0, "rental_uris": {"android": "https://dc.lft.to/lastmile_qr_scan", "ios": "https://dc.lft.to/lastmile_qr_scan"}, "name": "7506bd3d2c3b5e4ed3929cfb12381528", "type": "electric_scooter", "lat": 38.9274745, "is_disabled": 0}, {"fusion_lat": 0.0, "lon": -77.03641266666666, "is_reserved": 0, "bike_id": "5868922fc9e10e168b7e87396d9a26ef", "fusion_lon": 0.0, "rental_uris": {"android": "https://dc.lft.to/lastmile_qr_scan", "ios": "https://dc.lft.to/lastmile_qr_scan"}, "name": "5868922fc9e10e168b7e87396d9a26ef", "type": "electric_scooter", "lat": 38.9226275, "is_disabled": 0}, {"fusion_lat": 0.0, "lon": -76.98311283333334, "is_reserved": 0, "bike_id": "9d7ac00ca9a778ec195ba9d73a77b04b", "fusion_lon": 0.0, "rental_uris": {"android": "https://dc.lft.to/lastmile_qr_scan", "ios": "https://dc.lft.to/lastmile_qr_scan"}, "name": "9d7ac00ca9a778ec195ba9d73a77b04b", "type": "electric_scooter", "lat": 38.868947166666665, "is_disabled": 0}, {"fusion_lat": 0.0, "lon": -77.0056485, "is_reserved": 0, "bike_id": "1d6fa087f4981055f12291f241198817", "fusion_lon": 0.0, "rental_uris": {"android": "https://dc.lft.to/lastmile_qr_scan", "ios": "https://dc.lft.to/lastmile_qr_scan"}, "name": "1d6fa087f4981055f12291f241198817", "type": "electric_scooter", "lat": 38.900325333333335, "is_disabled": 0}, {"fusion_lat": 0.0, "lon": -76.9950575, "is_reserved": 0, "bike_id": "8d94bb862f3791b6394277f780247024", "fusion_lon": 0.0, "rental_uris": {"android": "https://dc.lft.to/lastmile_qr_scan", "ios": "https://dc.lft.to/lastmile_qr_scan"}, "name": "8d94bb862f3791b6394277f780247024", "type": "electric_scooter", "lat": 38.9097755, "is_disabled": 0}, {"fusion_lat": 0.0, "lon": -76.996451, "is_reserved": 0, "bike_id": "f27e0aa0bc0f54837953af7e47c2f066", "fusion_lon": 0.0, "rental_uris": {"android": "https://dc.lft.to/lastmile_qr_scan", "ios": "https://dc.lft.to/lastmile_qr_scan"}, "name": "f27e0aa0bc0f54837953af7e47c2f066", "type": "electric_scooter", "lat": 38.8871855, "is_disabled": 0}, {"fusion_lat": 0.0, "lon": -77.027141, "is_reserved": 0, "bike_id": "a00a3841c55e05ead643f04b66ec6f19", "fusion_lon": 0.0, "rental_uris": {"android": "https://dc.lft.to/lastmile_qr_scan", "ios": "https://dc.lft.to/lastmile_qr_scan"}, "name": "a00a3841c55e05ead643f04b66ec6f19", "type": "electric_scooter", "lat": 38.924664666666665, "is_disabled": 0}, {"fusion_lat": 0.0, "lon": -76.9978235, "is_reserved": 0, "bike_id": "ad8c929a17c2f23cf8b56698b1a962cc", "fusion_lon": 0.0, "rental_uris": {"android": "https://dc.lft.to/lastmile_qr_scan", "ios": "https://dc.lft.to/lastmile_qr_scan"}, "name": "ad8c929a17c2f23cf8b56698b1a962cc", "type": "electric_scooter", "lat": 38.89088383333333, "is_disabled": 0}, {"fusion_lat": 0.0, "lon": -77.00056716666667, "is_reserved": 0, "bike_id": "7a268fb8f29ba60bbf638078fdb08a29", "fusion_lon": 0.0, "rental_uris": {"android": "https://dc.lft.to/lastmile_qr_scan", "ios": "https://dc.lft.to/lastmile_qr_scan"}, "name": "7a268fb8f29ba60bbf638078fdb08a29", "type": "electric_scooter", "lat": 38.891670833333336, "is_disabled": 0}, {"fusion_lat": 0.0, "lon": -77.04025583333333, "is_reserved": 0, "bike_id": "0e10f969fcc9bbbfa5f60e89af5e97b9", "fusion_lon": 0.0, "rental_uris": {"android": "https://dc.lft.to/lastmile_qr_scan", "ios": "https://dc.lft.to/lastmile_qr_scan"}, "name": "0e10f969fcc9bbbfa5f60e89af5e97b9", "type": "electric_scooter", "lat": 38.91704333333333, "is_disabled": 0}, {"fusion_lat": 0.0, "lon": -77.04749633333333, "is_reserved": 0, "bike_id": "230915493bd94c9fb99fcbeb9f2f5696", "fusion_lon": 0.0, "rental_uris": {"android": "https://dc.lft.to/lastmile_qr_scan", "ios": "https://dc.lft.to/lastmile_qr_scan"}, "name": "230915493bd94c9fb99fcbeb9f2f5696", "type": "electric_scooter", "lat": 38.9231665, "is_disabled": 0}, {"fusion_lat": 0.0, "lon": -77.0354415, "is_reserved": 0, "bike_id": "cf6ae6826df3879631abed141441790b", "fusion_lon": 0.0, "rental_uris": {"android": "https://dc.lft.to/lastmile_qr_scan", "ios": "https://dc.lft.to/lastmile_qr_scan"}, "name": "cf6ae6826df3879631abed141441790b", "type": "electric_scooter", "lat": 38.91866016666667, "is_disabled": 0}, {"fusion_lat": 0.0, "lon": -77.04341716666667, "is_reserved": 0, "bike_id": "79a0bd2d08ae5f36af3401a3ff38d250", "fusion_lon": 0.0, "rental_uris": {"android": "https://dc.lft.to/lastmile_qr_scan", "ios": "https://dc.lft.to/lastmile_qr_scan"}, "name": "79a0bd2d08ae5f36af3401a3ff38d250", "type": "electric_scooter", "lat": 38.90594883333333, "is_disabled": 0}, {"fusion_lat": 0.0, "lon": -77.02097, "is_reserved": 0, "bike_id": "5bc84393d2dd759f2ff589e806c83db3", "fusion_lon": 0.0, "rental_uris": {"android": "https://dc.lft.to/lastmile_qr_scan", "ios": "https://dc.lft.to/lastmile_qr_scan"}, "name": "5bc84393d2dd759f2ff589e806c83db3", "type": "electric_scooter", "lat": 38.92149883333333, "is_disabled": 0}, {"fusion_lat": 0.0, "lon": -76.98551383333333, "is_reserved": 0, "bike_id": "1b3000be0a5298a0c6a614145e7763b0", "fusion_lon": 0.0, "rental_uris": {"android": "https://dc.lft.to/lastmile_qr_scan", "ios": "https://dc.lft.to/lastmile_qr_scan"}, "name": "1b3000be0a5298a0c6a614145e7763b0", "type": "electric_scooter", "lat": 38.910314166666666, "is_disabled": 0}, {"fusion_lat": 0.0, "lon": -76.993516, "is_reserved": 0, "bike_id": "01aaf7ed2995653aa4a2324639992f16", "fusion_lon": 0.0, "rental_uris": {"android": "https://dc.lft.to/lastmile_qr_scan", "ios": "https://dc.lft.to/lastmile_qr_scan"}, "name": "01aaf7ed2995653aa4a2324639992f16", "type": "electric_scooter", "lat": 38.914855333333335, "is_disabled": 0}, {"fusion_lat": 0.0, "lon": -76.98107766666666, "is_reserved": 0, "bike_id": "1f04dd68d376ea083c300924b9eeb1a7", "fusion_lon": 0.0, "rental_uris": {"android": "https://dc.lft.to/lastmile_qr_scan", "ios": "https://dc.lft.to/lastmile_qr_scan"}, "name": "1f04dd68d376ea083c300924b9eeb1a7", "type": "electric_bike", "lat": 38.877309333333336, "is_disabled": 0}, {"fusion_lat": 0.0, "lon": -77.03443083333333, "is_reserved": 0, "bike_id": "4a974c04106b88b2d452a649fc169caa", "fusion_lon": 0.0, "rental_uris": {"android": "https://dc.lft.to/lastmile_qr_scan", "ios": "https://dc.lft.to/lastmile_qr_scan"}, "name": "4a974c04106b88b2d452a649fc169caa", "type": "electric_scooter", "lat": 38.904171833333336, "is_disabled": 0}, {"fusion_lat": 0.0, "lon": -77.036031, "is_reserved": 0, "bike_id": "0a23d76a76e9cec067ccdfcb4fd46af5", "fusion_lon": 0.0, "rental_uris": {"android": "https://dc.lft.to/lastmile_qr_scan", "ios": "https://dc.lft.to/lastmile_qr_scan"}, "name": "0a23d76a76e9cec067ccdfcb4fd46af5", "type": "electric_scooter", "lat": 38.923261333333336, "is_disabled": 0}, {"fusion_lat": 0.0, "lon": -77.01598966666667, "is_reserved": 0, "bike_id": "fd4fe9addbf6fa67912f2144fe80a9ac", "fusion_lon": 0.0, "rental_uris": {"android": "https://dc.lft.to/lastmile_qr_scan", "ios": "https://dc.lft.to/lastmile_qr_scan"}, "name": "fd4fe9addbf6fa67912f2144fe80a9ac", "type": "electric_scooter", "lat": 38.949435333333334, "is_disabled": 0}, {"fusion_lat": 0.0, "lon": -77.05249616666667, "is_reserved": 0, "bike_id": "b8c78d7303d11360270c370bb732d616", "fusion_lon": 0.0, "rental_uris": {"android": "https://dc.lft.to/lastmile_qr_scan", "ios": "https://dc.lft.to/lastmile_qr_scan"}, "name": "b8c78d7303d11360270c370bb732d616", "type": "electric_scooter", "lat": 38.923686000000004, "is_disabled": 0}, {"fusion_lat": 0.0, "lon": -77.0452405, "is_reserved": 0, "bike_id": "e1d682b058498fe6a6832b7fdcc7e999", "fusion_lon": 0.0, "rental_uris": {"android": "https://dc.lft.to/lastmile_qr_scan", "ios": "https://dc.lft.to/lastmile_qr_scan"}, "name": "e1d682b058498fe6a6832b7fdcc7e999", "type": "electric_scooter", "lat": 38.9128845, "is_disabled": 0}, {"fusion_lat": 0.0, "lon": -77.027122, "is_reserved": 0, "bike_id": "0fc24ffabd924a91fb775e2b6d8780bb", "fusion_lon": 0.0, "rental_uris": {"android": "https://dc.lft.to/lastmile_qr_scan", "ios": "https://dc.lft.to/lastmile_qr_scan"}, "name": "0fc24ffabd924a91fb775e2b6d8780bb", "type": "electric_scooter", "lat": 38.9179525, "is_disabled": 0}, {"fusion_lat": 0.0, "lon": -76.97304716666666, "is_reserved": 0, "bike_id": "c260407a5a73f9fc2f83628ffc567093", "fusion_lon": 0.0, "rental_uris": {"android": "https://dc.lft.to/lastmile_qr_scan", "ios": "https://dc.lft.to/lastmile_qr_scan"}, "name": "c260407a5a73f9fc2f83628ffc567093", "type": "electric_scooter", "lat": 38.84642766666666, "is_disabled": 0}, {"fusion_lat": 0.0, "lon": -76.97328516666667, "is_reserved": 0, "bike_id": "50f04e028ef447175458bb7aff26b864", "fusion_lon": 0.0, "rental_uris": {"android": "https://dc.lft.to/lastmile_qr_scan", "ios": "https://dc.lft.to/lastmile_qr_scan"}, "name": "50f04e028ef447175458bb7aff26b864", "type": "electric_scooter", "lat": 38.90406733333333, "is_disabled": 0}, {"fusion_lat": 0.0, "lon": -77.03017316666667, "is_reserved": 0, "bike_id": "82ddff5b29b3cc22ff233b52ffac7394", "fusion_lon": 0.0, "rental_uris": {"android": "https://dc.lft.to/lastmile_qr_scan", "ios": "https://dc.lft.to/lastmile_qr_scan"}, "name": "82ddff5b29b3cc22ff233b52ffac7394", "type": "electric_scooter", "lat": 38.90502433333333, "is_disabled": 0}, {"fusion_lat": 0.0, "lon": -77.00072483333334, "is_reserved": 0, "bike_id": "b5b706ba9270c7e5e226cb60a8857a75", "fusion_lon": 0.0, "rental_uris": {"android": "https://dc.lft.to/lastmile_qr_scan", "ios": "https://dc.lft.to/lastmile_qr_scan"}, "name": "b5b706ba9270c7e5e226cb60a8857a75", "type": "electric_scooter", "lat": 38.9244175, "is_disabled": 0}, {"fusion_lat": 0.0, "lon": -76.94421916666667, "is_reserved": 0, "bike_id": "e28c14171dd97c6b73a0ef8d888e6e41", "fusion_lon": 0.0, "rental_uris": {"android": "https://dc.lft.to/lastmile_qr_scan", "ios": "https://dc.lft.to/lastmile_qr_scan"}, "name": "e28c14171dd97c6b73a0ef8d888e6e41", "type": "electric_bike", "lat": 38.96618, "is_disabled": 0}, {"fusion_lat": 0.0, "lon": -77.025706, "is_reserved": 0, "bike_id": "6ce3f973081b373e25a7bdc2331d7f82", "fusion_lon": 0.0, "rental_uris": {"android": "https://dc.lft.to/lastmile_qr_scan", "ios": "https://dc.lft.to/lastmile_qr_scan"}, "name": "6ce3f973081b373e25a7bdc2331d7f82", "type": "electric_bike", "lat": 38.9968855, "is_disabled": 0}, {"fusion_lat": 0.0, "lon": -77.00717033333333, "is_reserved": 0, "bike_id": "0282fc897fedce74d21088b4ac221f7c", "fusion_lon": 0.0, "rental_uris": {"android": "https://dc.lft.to/lastmile_qr_scan", "ios": "https://dc.lft.to/lastmile_qr_scan"}, "name": "0282fc897fedce74d21088b4ac221f7c", "type": "electric_scooter", "lat": 38.90548966666667, "is_disabled": 0}, {"fusion_lat": 0.0, "lon": -77.02843516666667, "is_reserved": 0, "bike_id": "3717926061806192c34b3e4fcff27fa7", "fusion_lon": 0.0, "rental_uris": {"android": "https://dc.lft.to/lastmile_qr_scan", "ios": "https://dc.lft.to/lastmile_qr_scan"}, "name": "3717926061806192c34b3e4fcff27fa7", "type": "electric_bike", "lat": 38.93299483333333, "is_disabled": 0}, {"fusion_lat": 0.0, "lon": -77.05588283333333, "is_reserved": 0, "bike_id": "4adec3536054292d56dd5ecbc41a227b", "fusion_lon": 0.0, "rental_uris": {"android": "https://dc.lft.to/lastmile_qr_scan", "ios": "https://dc.lft.to/lastmile_qr_scan"}, "name": "4adec3536054292d56dd5ecbc41a227b", "type": "electric_scooter", "lat": 38.93600133333333, "is_disabled": 0}, {"fusion_lat": 0.0, "lon": -76.99933966666667, "is_reserved": 0, "bike_id": "38981bfc6f1f62872f6734227d8c283e", "fusion_lon": 0.0, "rental_uris": {"android": "https://dc.lft.to/lastmile_qr_scan", "ios": "https://dc.lft.to/lastmile_qr_scan"}, "name": "38981bfc6f1f62872f6734227d8c283e", "type": "electric_scooter", "lat": 38.84298016666666, "is_disabled": 0}, {"fusion_lat": 0.0, "lon": -77.05130383333334, "is_reserved": 0, "bike_id": "d44cd47eccb1c116a904c35f6c2e2a41", "fusion_lon": 0.0, "rental_uris": {"android": "https://dc.lft.to/lastmile_qr_scan", "ios": "https://dc.lft.to/lastmile_qr_scan"}, "name": "d44cd47eccb1c116a904c35f6c2e2a41", "type": "electric_scooter", "lat": 38.9071035, "is_disabled": 0}, {"fusion_lat": 0.0, "lon": -76.99827333333333, "is_reserved": 0, "bike_id": "4b35a7271c785e52f2993b70ed64979c", "fusion_lon": 0.0, "rental_uris": {"android": "https://dc.lft.to/lastmile_qr_scan", "ios": "https://dc.lft.to/lastmile_qr_scan"}, "name": "4b35a7271c785e52f2993b70ed64979c", "type": "electric_scooter", "lat": 38.885354166666666, "is_disabled": 0}, {"fusion_lat": 0.0, "lon": -77.00773033333333, "is_reserved": 0, "bike_id": "bf67b9449d1774937b91d6ba81a63ee6", "fusion_lon": 0.0, "rental_uris": {"android": "https://dc.lft.to/lastmile_qr_scan", "ios": "https://dc.lft.to/lastmile_qr_scan"}, "name": "bf67b9449d1774937b91d6ba81a63ee6", "type": "electric_scooter", "lat": 38.9267275, "is_disabled": 0}, {"fusion_lat": 0.0, "lon": -77.01666766666666, "is_reserved": 0, "bike_id": "fe379f77b0f62e62b0479cafe3c7b8a3", "fusion_lon": 0.0, "rental_uris": {"android": "https://dc.lft.to/lastmile_qr_scan", "ios": "https://dc.lft.to/lastmile_qr_scan"}, "name": "fe379f77b0f62e62b0479cafe3c7b8a3", "type": "electric_bike", "lat": 38.88108583333333, "is_disabled": 0}, {"fusion_lat": 0.0, "lon": -77.04234416666667, "is_reserved": 0, "bike_id": "1aa9ea3c0a15cbe86eaf807854f4bc8f", "fusion_lon": 0.0, "rental_uris": {"android": "https://dc.lft.to/lastmile_qr_scan", "ios": "https://dc.lft.to/lastmile_qr_scan"}, "name": "1aa9ea3c0a15cbe86eaf807854f4bc8f", "type": "electric_scooter", "lat": 38.91109866666667, "is_disabled": 0}, {"fusion_lat": 0.0, "lon": -77.038333, "is_reserved": 0, "bike_id": "6911a4e606dbdbbcd53a01cbf352de1d", "fusion_lon": 0.0, "rental_uris": {"android": "https://dc.lft.to/lastmile_qr_scan", "ios": "https://dc.lft.to/lastmile_qr_scan"}, "name": "6911a4e606dbdbbcd53a01cbf352de1d", "type": "electric_scooter", "lat": 38.91190866666667, "is_disabled": 0}, {"fusion_lat": 0.0, "lon": -77.0265305, "is_reserved": 0, "bike_id": "2edab4dcb483728cbe8fc106f3addc3c", "fusion_lon": 0.0, "rental_uris": {"android": "https://dc.lft.to/lastmile_qr_scan", "ios": "https://dc.lft.to/lastmile_qr_scan"}, "name": "2edab4dcb483728cbe8fc106f3addc3c", "type": "electric_scooter", "lat": 38.97563383333333, "is_disabled": 0}, {"fusion_lat": 0.0, "lon": -76.93640433333333, "is_reserved": 0, "bike_id": "98b1ea31c107667d6dd68ee8e08ba666", "fusion_lon": 0.0, "rental_uris": {"android": "https://dc.lft.to/lastmile_qr_scan", "ios": "https://dc.lft.to/lastmile_qr_scan"}, "name": "98b1ea31c107667d6dd68ee8e08ba666", "type": "electric_scooter", "lat": 38.900688333333335, "is_disabled": 0}, {"fusion_lat": 0.0, "lon": -77.04763233333334, "is_reserved": 0, "bike_id": "bc15b933914044a609ba5c4f37789df5", "fusion_lon": 0.0, "rental_uris": {"android": "https://dc.lft.to/lastmile_qr_scan", "ios": "https://dc.lft.to/lastmile_qr_scan"}, "name": "bc15b933914044a609ba5c4f37789df5", "type": "electric_scooter", "lat": 38.900671833333334, "is_disabled": 0}, {"fusion_lat": 0.0, "lon": -77.046756, "is_reserved": 0, "bike_id": "563552c335376be9881302b73be0c5d7", "fusion_lon": 0.0, "rental_uris": {"android": "https://dc.lft.to/lastmile_qr_scan", "ios": "https://dc.lft.to/lastmile_qr_scan"}, "name": "563552c335376be9881302b73be0c5d7", "type": "electric_scooter", "lat": 38.9073815, "is_disabled": 0}, {"fusion_lat": 0.0, "lon": -76.949358, "is_reserved": 0, "bike_id": "cb96d1f78a7ed4448902210cb9c66f15", "fusion_lon": 0.0, "rental_uris": {"android": "https://dc.lft.to/lastmile_qr_scan", "ios": "https://dc.lft.to/lastmile_qr_scan"}, "name": "cb96d1f78a7ed4448902210cb9c66f15", "type": "electric_scooter", "lat": 38.8934735, "is_disabled": 0}, {"fusion_lat": 0.0, "lon": -77.04666483333334, "is_reserved": 0, "bike_id": "8117cdbc986358bc8837b6c85743c399", "fusion_lon": 0.0, "rental_uris": {"android": "https://dc.lft.to/lastmile_qr_scan", "ios": "https://dc.lft.to/lastmile_qr_scan"}, "name": "8117cdbc986358bc8837b6c85743c399", "type": "electric_scooter", "lat": 38.9073135, "is_disabled": 0}, {"fusion_lat": 0.0, "lon": -77.0310125, "is_reserved": 0, "bike_id": "a520c2c26950e0c26288272fdc2b0f91", "fusion_lon": 0.0, "rental_uris": {"android": "https://dc.lft.to/lastmile_qr_scan", "ios": "https://dc.lft.to/lastmile_qr_scan"}, "name": "a520c2c26950e0c26288272fdc2b0f91", "type": "electric_scooter", "lat": 38.95075683333334, "is_disabled": 0}, {"fusion_lat": 0.0, "lon": -77.00200316666667, "is_reserved": 0, "bike_id": "ad136d6116f85550948bd8c7c1bb63f6", "fusion_lon": 0.0, "rental_uris": {"android": "https://dc.lft.to/lastmile_qr_scan", "ios": "https://dc.lft.to/lastmile_qr_scan"}, "name": "ad136d6116f85550948bd8c7c1bb63f6", "type": "electric_scooter", "lat": 38.902382333333335, "is_disabled": 0}, {"fusion_lat": 0.0, "lon": -77.083991, "is_reserved": 0, "bike_id": "3e3af09f94b85858dac2a3b401906278", "fusion_lon": 0.0, "rental_uris": {"android": "https://dc.lft.to/lastmile_qr_scan", "ios": "https://dc.lft.to/lastmile_qr_scan"}, "name": "3e3af09f94b85858dac2a3b401906278", "type": "electric_scooter", "lat": 38.90801033333334, "is_disabled": 0}, {"fusion_lat": 0.0, "lon": -77.03839683333334, "is_reserved": 0, "bike_id": "caaabc420ec3e1bf96ac91fa58487e4f", "fusion_lon": 0.0, "rental_uris": {"android": "https://dc.lft.to/lastmile_qr_scan", "ios": "https://dc.lft.to/lastmile_qr_scan"}, "name": "caaabc420ec3e1bf96ac91fa58487e4f", "type": "electric_scooter", "lat": 38.904112166666664, "is_disabled": 0}, {"fusion_lat": 0.0, "lon": -76.93010766666667, "is_reserved": 0, "bike_id": "6c65ab70827fe6467f59f074e744f80d", "fusion_lon": 0.0, "rental_uris": {"android": "https://dc.lft.to/lastmile_qr_scan", "ios": "https://dc.lft.to/lastmile_qr_scan"}, "name": "6c65ab70827fe6467f59f074e744f80d", "type": "electric_bike", "lat": 38.896535, "is_disabled": 0}, {"fusion_lat": 0.0, "lon": -76.99505566666667, "is_reserved": 0, "bike_id": "5f4249eda15ea61ac9027af709bbeccd", "fusion_lon": 0.0, "rental_uris": {"android": "https://dc.lft.to/lastmile_qr_scan", "ios": "https://dc.lft.to/lastmile_qr_scan"}, "name": "5f4249eda15ea61ac9027af709bbeccd", "type": "electric_scooter", "lat": 38.8801065, "is_disabled": 0}, {"fusion_lat": 0.0, "lon": -77.03213983333333, "is_reserved": 0, "bike_id": "63da90c66ecd7a424c7215e30c55ce16", "fusion_lon": 0.0, "rental_uris": {"android": "https://dc.lft.to/lastmile_qr_scan", "ios": "https://dc.lft.to/lastmile_qr_scan"}, "name": "63da90c66ecd7a424c7215e30c55ce16", "type": "electric_scooter", "lat": 38.905357333333335, "is_disabled": 0}, {"fusion_lat": 0.0, "lon": -77.01447833333333, "is_reserved": 0, "bike_id": "dfa620610a69d238ddb12fc08caca31f", "fusion_lon": 0.0, "rental_uris": {"android": "https://dc.lft.to/lastmile_qr_scan", "ios": "https://dc.lft.to/lastmile_qr_scan"}, "name": "dfa620610a69d238ddb12fc08caca31f", "type": "electric_scooter", "lat": 38.92980133333333, "is_disabled": 0}, {"fusion_lat": 0.0, "lon": -77.021655, "is_reserved": 0, "bike_id": "6bbd09973ce441f69a16d4f2c2d0d4b8", "fusion_lon": 0.0, "rental_uris": {"android": "https://dc.lft.to/lastmile_qr_scan", "ios": "https://dc.lft.to/lastmile_qr_scan"}, "name": "6bbd09973ce441f69a16d4f2c2d0d4b8", "type": "electric_scooter", "lat": 38.92616566666667, "is_disabled": 0}, {"fusion_lat": 0.0, "lon": -77.03693866666667, "is_reserved": 0, "bike_id": "56f8c72386d33dc78ff4d7afb4c2915f", "fusion_lon": 0.0, "rental_uris": {"android": "https://dc.lft.to/lastmile_qr_scan", "ios": "https://dc.lft.to/lastmile_qr_scan"}, "name": "56f8c72386d33dc78ff4d7afb4c2915f", "type": "electric_scooter", "lat": 38.92613883333333, "is_disabled": 0}, {"fusion_lat": 0.0, "lon": -76.93077966666667, "is_reserved": 0, "bike_id": "b368523db9ea21086a74d1fc088bd6b4", "fusion_lon": 0.0, "rental_uris": {"android": "https://dc.lft.to/lastmile_qr_scan", "ios": "https://dc.lft.to/lastmile_qr_scan"}, "name": "b368523db9ea21086a74d1fc088bd6b4", "type": "electric_scooter", "lat": 38.9016335, "is_disabled": 0}, {"fusion_lat": 0.0, "lon": -77.1273245, "is_reserved": 0, "bike_id": "f2b44cf0619cb31ee7a93702753a207c", "fusion_lon": 0.0, "rental_uris": {"android": "https://dc.lft.to/lastmile_qr_scan", "ios": "https://dc.lft.to/lastmile_qr_scan"}, "name": "f2b44cf0619cb31ee7a93702753a207c", "type": "electric_bike", "lat": 38.895638166666664, "is_disabled": 0}, {"fusion_lat": 0.0, "lon": -77.02132266666666, "is_reserved": 0, "bike_id": "d0cc9ce98a020a48cd62dd84d186abcd", "fusion_lon": 0.0, "rental_uris": {"android": "https://dc.lft.to/lastmile_qr_scan", "ios": "https://dc.lft.to/lastmile_qr_scan"}, "name": "d0cc9ce98a020a48cd62dd84d186abcd", "type": "electric_scooter", "lat": 38.8963265, "is_disabled": 0}, {"fusion_lat": 0.0, "lon": -77.04241666666667, "is_reserved": 0, "bike_id": "d63d6f20fe9c5cd85a58e37afd4011a9", "fusion_lon": 0.0, "rental_uris": {"android": "https://dc.lft.to/lastmile_qr_scan", "ios": "https://dc.lft.to/lastmile_qr_scan"}, "name": "d63d6f20fe9c5cd85a58e37afd4011a9", "type": "electric_scooter", "lat": 38.92183816666667, "is_disabled": 0}, {"fusion_lat": 0.0, "lon": -77.032934, "is_reserved": 0, "bike_id": "cbfc9b80c170da21abf8fdb88ed64832", "fusion_lon": 0.0, "rental_uris": {"android": "https://dc.lft.to/lastmile_qr_scan", "ios": "https://dc.lft.to/lastmile_qr_scan"}, "name": "cbfc9b80c170da21abf8fdb88ed64832", "type": "electric_scooter", "lat": 38.937844166666665, "is_disabled": 0}, {"fusion_lat": 0.0, "lon": -76.99479583333333, "is_reserved": 0, "bike_id": "d49c8b5c4dd2a2188b6e1b7da63190b6", "fusion_lon": 0.0, "rental_uris": {"android": "https://dc.lft.to/lastmile_qr_scan", "ios": "https://dc.lft.to/lastmile_qr_scan"}, "name": "d49c8b5c4dd2a2188b6e1b7da63190b6", "type": "electric_scooter", "lat": 38.86215266666667, "is_disabled": 0}, {"fusion_lat": 0.0, "lon": -77.04408516666666, "is_reserved": 0, "bike_id": "7edc4eadb3c5a93c23c38fbf8b6b47d7", "fusion_lon": 0.0, "rental_uris": {"android": "https://dc.lft.to/lastmile_qr_scan", "ios": "https://dc.lft.to/lastmile_qr_scan"}, "name": "7edc4eadb3c5a93c23c38fbf8b6b47d7", "type": "electric_scooter", "lat": 38.90236316666667, "is_disabled": 0}, {"fusion_lat": 0.0, "lon": -77.01663566666667, "is_reserved": 0, "bike_id": "218133b70f2e2f4b1a804917ad3e01e4", "fusion_lon": 0.0, "rental_uris": {"android": "https://dc.lft.to/lastmile_qr_scan", "ios": "https://dc.lft.to/lastmile_qr_scan"}, "name": "218133b70f2e2f4b1a804917ad3e01e4", "type": "electric_scooter", "lat": 38.88128533333333, "is_disabled": 0}, {"fusion_lat": 0.0, "lon": -76.97208583333334, "is_reserved": 0, "bike_id": "3b8815ba3896118e186b74bf53c97adb", "fusion_lon": 0.0, "rental_uris": {"android": "https://dc.lft.to/lastmile_qr_scan", "ios": "https://dc.lft.to/lastmile_qr_scan"}, "name": "3b8815ba3896118e186b74bf53c97adb", "type": "electric_bike", "lat": 38.89290716666667, "is_disabled": 0}, {"fusion_lat": 0.0, "lon": -77.13940983333333, "is_reserved": 0, "bike_id": "53070f1d1bf23867eabb30a43d05a90b", "fusion_lon": 0.0, "rental_uris": {"android": "https://dc.lft.to/lastmile_qr_scan", "ios": "https://dc.lft.to/lastmile_qr_scan"}, "name": "53070f1d1bf23867eabb30a43d05a90b", "type": "electric_bike", "lat": 38.873023, "is_disabled": 0}, {"fusion_lat": 0.0, "lon": -76.99934583333334, "is_reserved": 0, "bike_id": "545d9d7311538e021aa01ead49806e85", "fusion_lon": 0.0, "rental_uris": {"android": "https://dc.lft.to/lastmile_qr_scan", "ios": "https://dc.lft.to/lastmile_qr_scan"}, "name": "545d9d7311538e021aa01ead49806e85", "type": "electric_scooter", "lat": 38.843013166666665, "is_disabled": 0}, {"fusion_lat": 0.0, "lon": -76.9990325, "is_reserved": 0, "bike_id": "e6938d1b65b4324ce10e4036a0e8ce14", "fusion_lon": 0.0, "rental_uris": {"android": "https://dc.lft.to/lastmile_qr_scan", "ios": "https://dc.lft.to/lastmile_qr_scan"}, "name": "e6938d1b65b4324ce10e4036a0e8ce14", "type": "electric_scooter", "lat": 38.94817, "is_disabled": 0}, {"fusion_lat": 0.0, "lon": -77.03826483333333, "is_reserved": 0, "bike_id": "60200f7edbfeeeda8e81b0f70a1b05a3", "fusion_lon": 0.0, "rental_uris": {"android": "https://dc.lft.to/lastmile_qr_scan", "ios": "https://dc.lft.to/lastmile_qr_scan"}, "name": "60200f7edbfeeeda8e81b0f70a1b05a3", "type": "electric_scooter", "lat": 38.911206, "is_disabled": 0}, {"fusion_lat": 0.0, "lon": -77.03451616666666, "is_reserved": 0, "bike_id": "f878c2633024db742527fb1cb926bcb3", "fusion_lon": 0.0, "rental_uris": {"android": "https://dc.lft.to/lastmile_qr_scan", "ios": "https://dc.lft.to/lastmile_qr_scan"}, "name": "f878c2633024db742527fb1cb926bcb3", "type": "electric_scooter", "lat": 38.92544133333333, "is_disabled": 0}, {"fusion_lat": 0.0, "lon": -77.04041533333333, "is_reserved": 0, "bike_id": "1bf16109718bd0136934518fc9b205f4", "fusion_lon": 0.0, "rental_uris": {"android": "https://dc.lft.to/lastmile_qr_scan", "ios": "https://dc.lft.to/lastmile_qr_scan"}, "name": "1bf16109718bd0136934518fc9b205f4", "type": "electric_scooter", "lat": 38.91126116666667, "is_disabled": 0}, {"fusion_lat": 0.0, "lon": -77.00202433333334, "is_reserved": 0, "bike_id": "c4690a9384cff6b47745463cdbf74662", "fusion_lon": 0.0, "rental_uris": {"android": "https://dc.lft.to/lastmile_qr_scan", "ios": "https://dc.lft.to/lastmile_qr_scan"}, "name": "c4690a9384cff6b47745463cdbf74662", "type": "electric_scooter", "lat": 38.90234183333333, "is_disabled": 0}, {"fusion_lat": 0.0, "lon": -77.011993, "is_reserved": 0, "bike_id": "b9727b45312d17b845925ed402dafbcf", "fusion_lon": 0.0, "rental_uris": {"android": "https://dc.lft.to/lastmile_qr_scan", "ios": "https://dc.lft.to/lastmile_qr_scan"}, "name": "b9727b45312d17b845925ed402dafbcf", "type": "electric_scooter", "lat": 38.893171833333334, "is_disabled": 0}, {"fusion_lat": 0.0, "lon": -77.04439983333333, "is_reserved": 0, "bike_id": "499377e094840f2d5b197a50a56198cb", "fusion_lon": 0.0, "rental_uris": {"android": "https://dc.lft.to/lastmile_qr_scan", "ios": "https://dc.lft.to/lastmile_qr_scan"}, "name": "499377e094840f2d5b197a50a56198cb", "type": "electric_scooter", "lat": 38.921355166666665, "is_disabled": 0}, {"fusion_lat": 0.0, "lon": -76.93736616666666, "is_reserved": 0, "bike_id": "dba7ea1cd45f9ada81f9b7437d98551a", "fusion_lon": 0.0, "rental_uris": {"android": "https://dc.lft.to/lastmile_qr_scan", "ios": "https://dc.lft.to/lastmile_qr_scan"}, "name": "dba7ea1cd45f9ada81f9b7437d98551a", "type": "electric_scooter", "lat": 38.890161666666664, "is_disabled": 0}, {"fusion_lat": 0.0, "lon": -77.0779225, "is_reserved": 0, "bike_id": "5db7aa34c5881b8424c342cf8f83328a", "fusion_lon": 0.0, "rental_uris": {"android": "https://dc.lft.to/lastmile_qr_scan", "ios": "https://dc.lft.to/lastmile_qr_scan"}, "name": "5db7aa34c5881b8424c342cf8f83328a", "type": "electric_bike", "lat": 38.996032666666665, "is_disabled": 0}, {"fusion_lat": 0.0, "lon": -76.997857, "is_reserved": 0, "bike_id": "0e3bd266240f3080155fd5c8e01a0fc1", "fusion_lon": 0.0, "rental_uris": {"android": "https://dc.lft.to/lastmile_qr_scan", "ios": "https://dc.lft.to/lastmile_qr_scan"}, "name": "0e3bd266240f3080155fd5c8e01a0fc1", "type": "electric_scooter", "lat": 38.910607666666664, "is_disabled": 0}, {"fusion_lat": 0.0, "lon": -77.058553, "is_reserved": 0, "bike_id": "cd91b7d2649a13733bd29229c688f5f1", "fusion_lon": 0.0, "rental_uris": {"android": "https://dc.lft.to/lastmile_qr_scan", "ios": "https://dc.lft.to/lastmile_qr_scan"}, "name": "cd91b7d2649a13733bd29229c688f5f1", "type": "electric_bike", "lat": 38.93603866666667, "is_disabled": 0}, {"fusion_lat": 0.0, "lon": -76.97012616666666, "is_reserved": 0, "bike_id": "10a70dda81a771a77acc148cf35cc60c", "fusion_lon": 0.0, "rental_uris": {"android": "https://dc.lft.to/lastmile_qr_scan", "ios": "https://dc.lft.to/lastmile_qr_scan"}, "name": "10a70dda81a771a77acc148cf35cc60c", "type": "electric_bike", "lat": 38.86369166666667, "is_disabled": 0}, {"fusion_lat": 0.0, "lon": -76.99536216666667, "is_reserved": 0, "bike_id": "8fa5bf1dd06af9b1f996c5b863eacea6", "fusion_lon": 0.0, "rental_uris": {"android": "https://dc.lft.to/lastmile_qr_scan", "ios": "https://dc.lft.to/lastmile_qr_scan"}, "name": "8fa5bf1dd06af9b1f996c5b863eacea6", "type": "electric_scooter", "lat": 38.862034, "is_disabled": 0}, {"fusion_lat": 0.0, "lon": -76.99161833333334, "is_reserved": 0, "bike_id": "88ab33e09aa4829a41542d2ddff78e98", "fusion_lon": 0.0, "rental_uris": {"android": "https://dc.lft.to/lastmile_qr_scan", "ios": "https://dc.lft.to/lastmile_qr_scan"}, "name": "88ab33e09aa4829a41542d2ddff78e98", "type": "electric_scooter", "lat": 38.883311, "is_disabled": 0}, {"fusion_lat": 0.0, "lon": -77.0112615, "is_reserved": 0, "bike_id": "8f9a4807ad560d8ea6881f8f0853273f", "fusion_lon": 0.0, "rental_uris": {"android": "https://dc.lft.to/lastmile_qr_scan", "ios": "https://dc.lft.to/lastmile_qr_scan"}, "name": "8f9a4807ad560d8ea6881f8f0853273f", "type": "electric_scooter", "lat": 38.915954666666664, "is_disabled": 0}, {"fusion_lat": 0.0, "lon": -77.02928366666667, "is_reserved": 0, "bike_id": "2fd2fa6ec33d9babe008c0b933c256c2", "fusion_lon": 0.0, "rental_uris": {"android": "https://dc.lft.to/lastmile_qr_scan", "ios": "https://dc.lft.to/lastmile_qr_scan"}, "name": "2fd2fa6ec33d9babe008c0b933c256c2", "type": "electric_scooter", "lat": 38.899947166666664, "is_disabled": 0}, {"fusion_lat": 0.0, "lon": -77.03299716666666, "is_reserved": 0, "bike_id": "e47c4f973e6d470b5f376b62831cc5ba", "fusion_lon": 0.0, "rental_uris": {"android": "https://dc.lft.to/lastmile_qr_scan", "ios": "https://dc.lft.to/lastmile_qr_scan"}, "name": "e47c4f973e6d470b5f376b62831cc5ba", "type": "electric_scooter", "lat": 38.9563065, "is_disabled": 0}, {"fusion_lat": 0.0, "lon": -76.94245683333334, "is_reserved": 0, "bike_id": "4d79d8af318dd96ceb9479c58c1a8aa4", "fusion_lon": 0.0, "rental_uris": {"android": "https://dc.lft.to/lastmile_qr_scan", "ios": "https://dc.lft.to/lastmile_qr_scan"}, "name": "4d79d8af318dd96ceb9479c58c1a8aa4", "type": "electric_scooter", "lat": 38.89675883333334, "is_disabled": 0}, {"fusion_lat": 0.0, "lon": -77.01305033333334, "is_reserved": 0, "bike_id": "ba1e8f5a4e6d611ef9eabed1373cae4f", "fusion_lon": 0.0, "rental_uris": {"android": "https://dc.lft.to/lastmile_qr_scan", "ios": "https://dc.lft.to/lastmile_qr_scan"}, "name": "ba1e8f5a4e6d611ef9eabed1373cae4f", "type": "electric_scooter", "lat": 38.910299, "is_disabled": 0}, {"fusion_lat": 0.0, "lon": -76.94618766666666, "is_reserved": 0, "bike_id": "96659745eec5056711dd0e09fb82b75d", "fusion_lon": 0.0, "rental_uris": {"android": "https://dc.lft.to/lastmile_qr_scan", "ios": "https://dc.lft.to/lastmile_qr_scan"}, "name": "96659745eec5056711dd0e09fb82b75d", "type": "electric_bike", "lat": 38.832332, "is_disabled": 0}, {"fusion_lat": 0.0, "lon": -77.02120716666667, "is_reserved": 0, "bike_id": "cf6d933c8659c58526fa99873122ff01", "fusion_lon": 0.0, "rental_uris": {"android": "https://dc.lft.to/lastmile_qr_scan", "ios": "https://dc.lft.to/lastmile_qr_scan"}, "name": "cf6d933c8659c58526fa99873122ff01", "type": "electric_scooter", "lat": 38.894875666666664, "is_disabled": 0}, {"fusion_lat": 0.0, "lon": -77.00121283333333, "is_reserved": 0, "bike_id": "ef04eebedd2505b230102d7d15b37895", "fusion_lon": 0.0, "rental_uris": {"android": "https://dc.lft.to/lastmile_qr_scan", "ios": "https://dc.lft.to/lastmile_qr_scan"}, "name": "ef04eebedd2505b230102d7d15b37895", "type": "electric_scooter", "lat": 38.90505566666667, "is_disabled": 0}, {"fusion_lat": 0.0, "lon": -76.99864716666667, "is_reserved": 0, "bike_id": "1fbfddbabe0c2da1e2f2b8b3ab3707e9", "fusion_lon": 0.0, "rental_uris": {"android": "https://dc.lft.to/lastmile_qr_scan", "ios": "https://dc.lft.to/lastmile_qr_scan"}, "name": "1fbfddbabe0c2da1e2f2b8b3ab3707e9", "type": "electric_scooter", "lat": 38.89413666666667, "is_disabled": 0}, {"fusion_lat": 0.0, "lon": -76.99011433333334, "is_reserved": 0, "bike_id": "5a6fe44385dea5534411cd5c6381b9ef", "fusion_lon": 0.0, "rental_uris": {"android": "https://dc.lft.to/lastmile_qr_scan", "ios": "https://dc.lft.to/lastmile_qr_scan"}, "name": "5a6fe44385dea5534411cd5c6381b9ef", "type": "electric_scooter", "lat": 38.945954666666665, "is_disabled": 0}, {"fusion_lat": 0.0, "lon": -77.02451566666667, "is_reserved": 0, "bike_id": "b86f2b6f46f76d4a1ba01342c39a08c1", "fusion_lon": 0.0, "rental_uris": {"android": "https://dc.lft.to/lastmile_qr_scan", "ios": "https://dc.lft.to/lastmile_qr_scan"}, "name": "b86f2b6f46f76d4a1ba01342c39a08c1", "type": "electric_scooter", "lat": 38.89739316666667, "is_disabled": 0}, {"fusion_lat": 0.0, "lon": -77.04321966666667, "is_reserved": 0, "bike_id": "c20fa3100e2c4d9a16c100e5a1f3bf2e", "fusion_lon": 0.0, "rental_uris": {"android": "https://dc.lft.to/lastmile_qr_scan", "ios": "https://dc.lft.to/lastmile_qr_scan"}, "name": "c20fa3100e2c4d9a16c100e5a1f3bf2e", "type": "electric_scooter", "lat": 38.923094666666664, "is_disabled": 0}, {"fusion_lat": 0.0, "lon": -77.04325183333333, "is_reserved": 0, "bike_id": "99a02bd08df3f1c19b801e0beab9ace9", "fusion_lon": 0.0, "rental_uris": {"android": "https://dc.lft.to/lastmile_qr_scan", "ios": "https://dc.lft.to/lastmile_qr_scan"}, "name": "99a02bd08df3f1c19b801e0beab9ace9", "type": "electric_scooter", "lat": 38.892190166666666, "is_disabled": 0}, {"fusion_lat": 0.0, "lon": -77.03047133333334, "is_reserved": 0, "bike_id": "383377538bbcd1bffba3a2586403c0dd", "fusion_lon": 0.0, "rental_uris": {"android": "https://dc.lft.to/lastmile_qr_scan", "ios": "https://dc.lft.to/lastmile_qr_scan"}, "name": "383377538bbcd1bffba3a2586403c0dd", "type": "electric_scooter", "lat": 38.898198, "is_disabled": 0}, {"fusion_lat": 0.0, "lon": -77.04981383333333, "is_reserved": 0, "bike_id": "1ad9e80daf80aacbd67620525cdf1b08", "fusion_lon": 0.0, "rental_uris": {"android": "https://dc.lft.to/lastmile_qr_scan", "ios": "https://dc.lft.to/lastmile_qr_scan"}, "name": "1ad9e80daf80aacbd67620525cdf1b08", "type": "electric_bike", "lat": 39.06294483333333, "is_disabled": 0}, {"fusion_lat": 0.0, "lon": -76.93762133333334, "is_reserved": 0, "bike_id": "d4a97801cbd924de7ecf78793b8a0dfe", "fusion_lon": 0.0, "rental_uris": {"android": "https://dc.lft.to/lastmile_qr_scan", "ios": "https://dc.lft.to/lastmile_qr_scan"}, "name": "d4a97801cbd924de7ecf78793b8a0dfe", "type": "electric_scooter", "lat": 38.878596, "is_disabled": 0}, {"fusion_lat": 0.0, "lon": -76.98110333333334, "is_reserved": 0, "bike_id": "830d82d4e0e2c3ac98dcbc7d0b067e36", "fusion_lon": 0.0, "rental_uris": {"android": "https://dc.lft.to/lastmile_qr_scan", "ios": "https://dc.lft.to/lastmile_qr_scan"}, "name": "830d82d4e0e2c3ac98dcbc7d0b067e36", "type": "electric_scooter", "lat": 38.904110333333335, "is_disabled": 0}, {"fusion_lat": 0.0, "lon": -77.01229183333334, "is_reserved": 0, "bike_id": "0d3cdc3a35d5968d124fe50a2d58ad87", "fusion_lon": 0.0, "rental_uris": {"android": "https://dc.lft.to/lastmile_qr_scan", "ios": "https://dc.lft.to/lastmile_qr_scan"}, "name": "0d3cdc3a35d5968d124fe50a2d58ad87", "type": "electric_scooter", "lat": 38.9143685, "is_disabled": 0}, {"fusion_lat": 0.0, "lon": -77.0469075, "is_reserved": 0, "bike_id": "b9eafaf1f7c2ef41de1629c60fc70e67", "fusion_lon": 0.0, "rental_uris": {"android": "https://dc.lft.to/lastmile_qr_scan", "ios": "https://dc.lft.to/lastmile_qr_scan"}, "name": "b9eafaf1f7c2ef41de1629c60fc70e67", "type": "electric_scooter", "lat": 38.92130366666667, "is_disabled": 0}, {"fusion_lat": 0.0, "lon": -77.0176485, "is_reserved": 0, "bike_id": "b22ae0b01614134c065b87ade2e69e6a", "fusion_lon": 0.0, "rental_uris": {"android": "https://dc.lft.to/lastmile_qr_scan", "ios": "https://dc.lft.to/lastmile_qr_scan"}, "name": "b22ae0b01614134c065b87ade2e69e6a", "type": "electric_scooter", "lat": 38.876875166666665, "is_disabled": 0}, {"fusion_lat": 0.0, "lon": -77.01730833333333, "is_reserved": 0, "bike_id": "b46e4c5bc44238f146c816e3f2b0bb82", "fusion_lon": 0.0, "rental_uris": {"android": "https://dc.lft.to/lastmile_qr_scan", "ios": "https://dc.lft.to/lastmile_qr_scan"}, "name": "b46e4c5bc44238f146c816e3f2b0bb82", "type": "electric_scooter", "lat": 38.974917, "is_disabled": 0}, {"fusion_lat": 0.0, "lon": -77.03867483333333, "is_reserved": 0, "bike_id": "3e41d69c5de4078b40d27ec2f53430ac", "fusion_lon": 0.0, "rental_uris": {"android": "https://dc.lft.to/lastmile_qr_scan", "ios": "https://dc.lft.to/lastmile_qr_scan"}, "name": "3e41d69c5de4078b40d27ec2f53430ac", "type": "electric_scooter", "lat": 38.93244333333333, "is_disabled": 0}, {"fusion_lat": 0.0, "lon": -77.04374366666667, "is_reserved": 0, "bike_id": "06fed7bb719a21b52d8604a0c8ed4747", "fusion_lon": 0.0, "rental_uris": {"android": "https://dc.lft.to/lastmile_qr_scan", "ios": "https://dc.lft.to/lastmile_qr_scan"}, "name": "06fed7bb719a21b52d8604a0c8ed4747", "type": "electric_scooter", "lat": 38.892219833333336, "is_disabled": 0}, {"fusion_lat": 0.0, "lon": -77.05935116666667, "is_reserved": 0, "bike_id": "3425e41f9191e6e7d48fcebfcb4a480d", "fusion_lon": 0.0, "rental_uris": {"android": "https://dc.lft.to/lastmile_qr_scan", "ios": "https://dc.lft.to/lastmile_qr_scan"}, "name": "3425e41f9191e6e7d48fcebfcb4a480d", "type": "electric_bike", "lat": 38.905333, "is_disabled": 0}, {"fusion_lat": 0.0, "lon": -77.05886666666666, "is_reserved": 0, "bike_id": "b0fccc800d98380ea3943a4330edad22", "fusion_lon": 0.0, "rental_uris": {"android": "https://dc.lft.to/lastmile_qr_scan", "ios": "https://dc.lft.to/lastmile_qr_scan"}, "name": "b0fccc800d98380ea3943a4330edad22", "type": "electric_scooter", "lat": 38.918220166666664, "is_disabled": 0}, {"fusion_lat": 0.0, "lon": -76.9839305, "is_reserved": 0, "bike_id": "dbfe56f4df368f3474f4294e977d7663", "fusion_lon": 0.0, "rental_uris": {"android": "https://dc.lft.to/lastmile_qr_scan", "ios": "https://dc.lft.to/lastmile_qr_scan"}, "name": "dbfe56f4df368f3474f4294e977d7663", "type": "electric_scooter", "lat": 38.867047666666664, "is_disabled": 0}, {"fusion_lat": 0.0, "lon": -77.00971966666667, "is_reserved": 0, "bike_id": "d7c43db1b6cbe527b682c7877b27d5ed", "fusion_lon": 0.0, "rental_uris": {"android": "https://dc.lft.to/lastmile_qr_scan", "ios": "https://dc.lft.to/lastmile_qr_scan"}, "name": "d7c43db1b6cbe527b682c7877b27d5ed", "type": "electric_scooter", "lat": 38.917006666666666, "is_disabled": 0}, {"fusion_lat": 0.0, "lon": -77.02275916666666, "is_reserved": 0, "bike_id": "1f10d520e04a1ab3f8656966ceaa72d7", "fusion_lon": 0.0, "rental_uris": {"android": "https://dc.lft.to/lastmile_qr_scan", "ios": "https://dc.lft.to/lastmile_qr_scan"}, "name": "1f10d520e04a1ab3f8656966ceaa72d7", "type": "electric_scooter", "lat": 38.91224866666667, "is_disabled": 0}, {"fusion_lat": 0.0, "lon": -77.05646666666667, "is_reserved": 0, "bike_id": "777e99d6485abd87d1976bf3d1494364", "fusion_lon": 0.0, "rental_uris": {"android": "https://dc.lft.to/lastmile_qr_scan", "ios": "https://dc.lft.to/lastmile_qr_scan"}, "name": "777e99d6485abd87d1976bf3d1494364", "type": "electric_scooter", "lat": 38.907647, "is_disabled": 0}, {"fusion_lat": 0.0, "lon": -76.97028883333333, "is_reserved": 0, "bike_id": "6f26f82a0f7ba86e57b527ee76b7c376", "fusion_lon": 0.0, "rental_uris": {"android": "https://dc.lft.to/lastmile_qr_scan", "ios": "https://dc.lft.to/lastmile_qr_scan"}, "name": "6f26f82a0f7ba86e57b527ee76b7c376", "type": "electric_scooter", "lat": 38.925430666666664, "is_disabled": 0}, {"fusion_lat": 0.0, "lon": -77.01763533333333, "is_reserved": 0, "bike_id": "cb1f204520fdd13769ef100f317b933d", "fusion_lon": 0.0, "rental_uris": {"android": "https://dc.lft.to/lastmile_qr_scan", "ios": "https://dc.lft.to/lastmile_qr_scan"}, "name": "cb1f204520fdd13769ef100f317b933d", "type": "electric_scooter", "lat": 38.876889166666665, "is_disabled": 0}, {"fusion_lat": 0.0, "lon": -76.9876415, "is_reserved": 0, "bike_id": "b5b6c1ab9800be0d6a6ad3252b0664df", "fusion_lon": 0.0, "rental_uris": {"android": "https://dc.lft.to/lastmile_qr_scan", "ios": "https://dc.lft.to/lastmile_qr_scan"}, "name": "b5b6c1ab9800be0d6a6ad3252b0664df", "type": "electric_scooter", "lat": 38.90030516666667, "is_disabled": 0}, {"fusion_lat": 0.0, "lon": -76.99781883333333, "is_reserved": 0, "bike_id": "c624906bc69b04811eb0c7b5e954265f", "fusion_lon": 0.0, "rental_uris": {"android": "https://dc.lft.to/lastmile_qr_scan", "ios": "https://dc.lft.to/lastmile_qr_scan"}, "name": "c624906bc69b04811eb0c7b5e954265f", "type": "electric_scooter", "lat": 38.84431166666667, "is_disabled": 0}, {"fusion_lat": 0.0, "lon": -77.034636, "is_reserved": 0, "bike_id": "7589aefb04f61d2e761bae1328f24efa", "fusion_lon": 0.0, "rental_uris": {"android": "https://dc.lft.to/lastmile_qr_scan", "ios": "https://dc.lft.to/lastmile_qr_scan"}, "name": "7589aefb04f61d2e761bae1328f24efa", "type": "electric_scooter", "lat": 38.9079625, "is_disabled": 0}, {"fusion_lat": 0.0, "lon": -77.028482, "is_reserved": 0, "bike_id": "1e650025a066e4773e70b25b71e369c8", "fusion_lon": 0.0, "rental_uris": {"android": "https://dc.lft.to/lastmile_qr_scan", "ios": "https://dc.lft.to/lastmile_qr_scan"}, "name": "1e650025a066e4773e70b25b71e369c8", "type": "electric_scooter", "lat": 38.8874675, "is_disabled": 0}, {"fusion_lat": 0.0, "lon": -77.06654583333334, "is_reserved": 0, "bike_id": "6d90ec8909e3e02b3bd9f46a7f7a63ab", "fusion_lon": 0.0, "rental_uris": {"android": "https://dc.lft.to/lastmile_qr_scan", "ios": "https://dc.lft.to/lastmile_qr_scan"}, "name": "6d90ec8909e3e02b3bd9f46a7f7a63ab", "type": "electric_scooter", "lat": 38.94957566666667, "is_disabled": 0}, {"fusion_lat": 0.0, "lon": -77.0414615, "is_reserved": 0, "bike_id": "cb87b85815651d79b6e5325f22a42bd1", "fusion_lon": 0.0, "rental_uris": {"android": "https://dc.lft.to/lastmile_qr_scan", "ios": "https://dc.lft.to/lastmile_qr_scan"}, "name": "cb87b85815651d79b6e5325f22a42bd1", "type": "electric_scooter", "lat": 38.892223666666666, "is_disabled": 0}, {"fusion_lat": 0.0, "lon": -77.009485, "is_reserved": 0, "bike_id": "59a1136d44a1ecda884a7c2e15881aa0", "fusion_lon": 0.0, "rental_uris": {"android": "https://dc.lft.to/lastmile_qr_scan", "ios": "https://dc.lft.to/lastmile_qr_scan"}, "name": "59a1136d44a1ecda884a7c2e15881aa0", "type": "electric_scooter", "lat": 38.89737483333333, "is_disabled": 0}, {"fusion_lat": 0.0, "lon": -76.99883716666666, "is_reserved": 0, "bike_id": "39afad816af2a89be027e0d201258758", "fusion_lon": 0.0, "rental_uris": {"android": "https://dc.lft.to/lastmile_qr_scan", "ios": "https://dc.lft.to/lastmile_qr_scan"}, "name": "39afad816af2a89be027e0d201258758", "type": "electric_scooter", "lat": 38.920526, "is_disabled": 0}, {"fusion_lat": 0.0, "lon": -77.03636216666666, "is_reserved": 0, "bike_id": "f4b1758a9698c2816e95be5880921065", "fusion_lon": 0.0, "rental_uris": {"android": "https://dc.lft.to/lastmile_qr_scan", "ios": "https://dc.lft.to/lastmile_qr_scan"}, "name": "f4b1758a9698c2816e95be5880921065", "type": "electric_scooter", "lat": 38.936742333333335, "is_disabled": 0}, {"fusion_lat": 0.0, "lon": -76.93752483333333, "is_reserved": 0, "bike_id": "d31c292cde6071713c0fa67d8b64f4f5", "fusion_lon": 0.0, "rental_uris": {"android": "https://dc.lft.to/lastmile_qr_scan", "ios": "https://dc.lft.to/lastmile_qr_scan"}, "name": "d31c292cde6071713c0fa67d8b64f4f5", "type": "electric_scooter", "lat": 38.9037365, "is_disabled": 0}, {"fusion_lat": 0.0, "lon": -77.034291, "is_reserved": 0, "bike_id": "7d3429d2c3f1d6f82616857737c3b730", "fusion_lon": 0.0, "rental_uris": {"android": "https://dc.lft.to/lastmile_qr_scan", "ios": "https://dc.lft.to/lastmile_qr_scan"}, "name": "7d3429d2c3f1d6f82616857737c3b730", "type": "electric_scooter", "lat": 38.91946083333333, "is_disabled": 0}, {"fusion_lat": 0.0, "lon": -77.208387, "is_reserved": 0, "bike_id": "e50f2b70f4d25ed6f68a0f240061bff1", "fusion_lon": 0.0, "rental_uris": {"android": "https://dc.lft.to/lastmile_qr_scan", "ios": "https://dc.lft.to/lastmile_qr_scan"}, "name": "e50f2b70f4d25ed6f68a0f240061bff1", "type": "electric_bike", "lat": 38.92463766666667, "is_disabled": 0}, {"fusion_lat": 0.0, "lon": -76.97331166666666, "is_reserved": 0, "bike_id": "d0502da950b481d7517d427261df2169", "fusion_lon": 0.0, "rental_uris": {"android": "https://dc.lft.to/lastmile_qr_scan", "ios": "https://dc.lft.to/lastmile_qr_scan"}, "name": "d0502da950b481d7517d427261df2169", "type": "electric_scooter", "lat": 38.904087833333335, "is_disabled": 0}, {"fusion_lat": 0.0, "lon": -76.99363433333333, "is_reserved": 0, "bike_id": "81d6de96ccf000056f4ee6829dcb1d97", "fusion_lon": 0.0, "rental_uris": {"android": "https://dc.lft.to/lastmile_qr_scan", "ios": "https://dc.lft.to/lastmile_qr_scan"}, "name": "81d6de96ccf000056f4ee6829dcb1d97", "type": "electric_scooter", "lat": 38.928384, "is_disabled": 0}, {"fusion_lat": 0.0, "lon": -77.02314233333334, "is_reserved": 0, "bike_id": "8463cd4f3678c3ba7e192c295a84fb54", "fusion_lon": 0.0, "rental_uris": {"android": "https://dc.lft.to/lastmile_qr_scan", "ios": "https://dc.lft.to/lastmile_qr_scan"}, "name": "8463cd4f3678c3ba7e192c295a84fb54", "type": "electric_scooter", "lat": 38.90148466666667, "is_disabled": 0}, {"fusion_lat": 0.0, "lon": -77.02163716666666, "is_reserved": 0, "bike_id": "96a9d5a8c2787e6856162bb9fe23275d", "fusion_lon": 0.0, "rental_uris": {"android": "https://dc.lft.to/lastmile_qr_scan", "ios": "https://dc.lft.to/lastmile_qr_scan"}, "name": "96a9d5a8c2787e6856162bb9fe23275d", "type": "electric_scooter", "lat": 38.92613516666667, "is_disabled": 0}, {"fusion_lat": 0.0, "lon": -77.00212233333333, "is_reserved": 0, "bike_id": "c70abcf06bd9ab31e6640f54b04c5323", "fusion_lon": 0.0, "rental_uris": {"android": "https://dc.lft.to/lastmile_qr_scan", "ios": "https://dc.lft.to/lastmile_qr_scan"}, "name": "c70abcf06bd9ab31e6640f54b04c5323", "type": "electric_scooter", "lat": 38.89544083333333, "is_disabled": 0}, {"fusion_lat": 0.0, "lon": -77.06298916666667, "is_reserved": 0, "bike_id": "96d97bad54d5140b5ee443e52f0c547a", "fusion_lon": 0.0, "rental_uris": {"android": "https://dc.lft.to/lastmile_qr_scan", "ios": "https://dc.lft.to/lastmile_qr_scan"}, "name": "96d97bad54d5140b5ee443e52f0c547a", "type": "electric_scooter", "lat": 38.943441166666666, "is_disabled": 0}, {"fusion_lat": 0.0, "lon": -77.00376183333333, "is_reserved": 0, "bike_id": "7ddb9753916f089321a0a10a4e19d4c2", "fusion_lon": 0.0, "rental_uris": {"android": "https://dc.lft.to/lastmile_qr_scan", "ios": "https://dc.lft.to/lastmile_qr_scan"}, "name": "7ddb9753916f089321a0a10a4e19d4c2", "type": "electric_scooter", "lat": 38.89733416666667, "is_disabled": 0}, {"fusion_lat": 0.0, "lon": -77.04326733333333, "is_reserved": 0, "bike_id": "720b5cce3ed11f90496f8efc2a241efe", "fusion_lon": 0.0, "rental_uris": {"android": "https://dc.lft.to/lastmile_qr_scan", "ios": "https://dc.lft.to/lastmile_qr_scan"}, "name": "720b5cce3ed11f90496f8efc2a241efe", "type": "electric_scooter", "lat": 38.9088575, "is_disabled": 0}, {"fusion_lat": 0.0, "lon": -77.03349483333334, "is_reserved": 0, "bike_id": "a00ea0a46deddf58c16e0fe78699c262", "fusion_lon": 0.0, "rental_uris": {"android": "https://dc.lft.to/lastmile_qr_scan", "ios": "https://dc.lft.to/lastmile_qr_scan"}, "name": "a00ea0a46deddf58c16e0fe78699c262", "type": "electric_scooter", "lat": 38.917052, "is_disabled": 0}, {"fusion_lat": 0.0, "lon": -76.987, "is_reserved": 0, "bike_id": "0dfff3d85744753bded86cb287e20cde", "fusion_lon": 0.0, "rental_uris": {"android": "https://dc.lft.to/lastmile_qr_scan", "ios": "https://dc.lft.to/lastmile_qr_scan"}, "name": "0dfff3d85744753bded86cb287e20cde", "type": "electric_scooter", "lat": 38.86249633333333, "is_disabled": 0}, {"fusion_lat": 0.0, "lon": -77.0432725, "is_reserved": 0, "bike_id": "9dbccc570a7e7447d3fade10147703eb", "fusion_lon": 0.0, "rental_uris": {"android": "https://dc.lft.to/lastmile_qr_scan", "ios": "https://dc.lft.to/lastmile_qr_scan"}, "name": "9dbccc570a7e7447d3fade10147703eb", "type": "electric_scooter", "lat": 38.892204, "is_disabled": 0}, {"fusion_lat": 0.0, "lon": -77.03203966666666, "is_reserved": 0, "bike_id": "026ac1512b3ee259ef5314d191f6eeeb", "fusion_lon": 0.0, "rental_uris": {"android": "https://dc.lft.to/lastmile_qr_scan", "ios": "https://dc.lft.to/lastmile_qr_scan"}, "name": "026ac1512b3ee259ef5314d191f6eeeb", "type": "electric_scooter", "lat": 38.916405166666664, "is_disabled": 0}, {"fusion_lat": 0.0, "lon": -77.00292783333333, "is_reserved": 0, "bike_id": "3542eaef42b6d56b320cac342faa5c44", "fusion_lon": 0.0, "rental_uris": {"android": "https://dc.lft.to/lastmile_qr_scan", "ios": "https://dc.lft.to/lastmile_qr_scan"}, "name": "3542eaef42b6d56b320cac342faa5c44", "type": "electric_scooter", "lat": 38.894898833333336, "is_disabled": 0}, {"fusion_lat": 0.0, "lon": -77.032724, "is_reserved": 0, "bike_id": "f5aeab14f924b5c84c4fd060276ec4b5", "fusion_lon": 0.0, "rental_uris": {"android": "https://dc.lft.to/lastmile_qr_scan", "ios": "https://dc.lft.to/lastmile_qr_scan"}, "name": "f5aeab14f924b5c84c4fd060276ec4b5", "type": "electric_scooter", "lat": 38.902857, "is_disabled": 0}, {"fusion_lat": 0.0, "lon": -77.00042383333333, "is_reserved": 0, "bike_id": "ac303681c4857ff9880cf3777fb297eb", "fusion_lon": 0.0, "rental_uris": {"android": "https://dc.lft.to/lastmile_qr_scan", "ios": "https://dc.lft.to/lastmile_qr_scan"}, "name": "ac303681c4857ff9880cf3777fb297eb", "type": "electric_scooter", "lat": 38.900107166666665, "is_disabled": 0}, {"fusion_lat": 0.0, "lon": -77.03782383333333, "is_reserved": 0, "bike_id": "93f388bd8b64b459c8ae487f750573a4", "fusion_lon": 0.0, "rental_uris": {"android": "https://dc.lft.to/lastmile_qr_scan", "ios": "https://dc.lft.to/lastmile_qr_scan"}, "name": "93f388bd8b64b459c8ae487f750573a4", "type": "electric_scooter", "lat": 38.925034833333335, "is_disabled": 0}, {"fusion_lat": 0.0, "lon": -77.0019385, "is_reserved": 0, "bike_id": "2cd815c6b31af3bd1e633891d79ecfe4", "fusion_lon": 0.0, "rental_uris": {"android": "https://dc.lft.to/lastmile_qr_scan", "ios": "https://dc.lft.to/lastmile_qr_scan"}, "name": "2cd815c6b31af3bd1e633891d79ecfe4", "type": "electric_scooter", "lat": 38.90378483333333, "is_disabled": 0}, {"fusion_lat": 0.0, "lon": -77.072293, "is_reserved": 0, "bike_id": "3c8036ff75627b27768900bd947ad128", "fusion_lon": 0.0, "rental_uris": {"android": "https://dc.lft.to/lastmile_qr_scan", "ios": "https://dc.lft.to/lastmile_qr_scan"}, "name": "3c8036ff75627b27768900bd947ad128", "type": "electric_scooter", "lat": 38.95962083333333, "is_disabled": 0}, {"fusion_lat": 0.0, "lon": -77.01220166666667, "is_reserved": 0, "bike_id": "e5d3eb0b8eccd1cfe948b717bf81168d", "fusion_lon": 0.0, "rental_uris": {"android": "https://dc.lft.to/lastmile_qr_scan", "ios": "https://dc.lft.to/lastmile_qr_scan"}, "name": "e5d3eb0b8eccd1cfe948b717bf81168d", "type": "electric_scooter", "lat": 38.9151955, "is_disabled": 0}, {"fusion_lat": 0.0, "lon": -77.072755, "is_reserved": 0, "bike_id": "d0f192b74613e2034320c4c5200a616a", "fusion_lon": 0.0, "rental_uris": {"android": "https://dc.lft.to/lastmile_qr_scan", "ios": "https://dc.lft.to/lastmile_qr_scan"}, "name": "d0f192b74613e2034320c4c5200a616a", "type": "electric_scooter", "lat": 38.934853, "is_disabled": 0}, {"fusion_lat": 0.0, "lon": -77.029436, "is_reserved": 0, "bike_id": "c074f0bb1db7fbf2ee1ee0dbd0a19214", "fusion_lon": 0.0, "rental_uris": {"android": "https://dc.lft.to/lastmile_qr_scan", "ios": "https://dc.lft.to/lastmile_qr_scan"}, "name": "c074f0bb1db7fbf2ee1ee0dbd0a19214", "type": "electric_scooter", "lat": 38.932627, "is_disabled": 0}, {"fusion_lat": 0.0, "lon": -77.03861616666667, "is_reserved": 0, "bike_id": "38b30cc5fa76247aceaebf7f13ae0c59", "fusion_lon": 0.0, "rental_uris": {"android": "https://dc.lft.to/lastmile_qr_scan", "ios": "https://dc.lft.to/lastmile_qr_scan"}, "name": "38b30cc5fa76247aceaebf7f13ae0c59", "type": "electric_scooter", "lat": 38.906673166666664, "is_disabled": 0}, {"fusion_lat": 0.0, "lon": -77.0176335, "is_reserved": 0, "bike_id": "893622473f3b17c27525c660f829a1c8", "fusion_lon": 0.0, "rental_uris": {"android": "https://dc.lft.to/lastmile_qr_scan", "ios": "https://dc.lft.to/lastmile_qr_scan"}, "name": "893622473f3b17c27525c660f829a1c8", "type": "electric_scooter", "lat": 38.877079333333334, "is_disabled": 0}, {"fusion_lat": 0.0, "lon": -77.01819116666667, "is_reserved": 0, "bike_id": "d198be53c6f3483d46ebb8250a3bd148", "fusion_lon": 0.0, "rental_uris": {"android": "https://dc.lft.to/lastmile_qr_scan", "ios": "https://dc.lft.to/lastmile_qr_scan"}, "name": "d198be53c6f3483d46ebb8250a3bd148", "type": "electric_scooter", "lat": 38.9236675, "is_disabled": 0}, {"fusion_lat": 0.0, "lon": -77.00619916666666, "is_reserved": 0, "bike_id": "8bf4e42b2e1fcb29bfddb64c96bc1b15", "fusion_lon": 0.0, "rental_uris": {"android": "https://dc.lft.to/lastmile_qr_scan", "ios": "https://dc.lft.to/lastmile_qr_scan"}, "name": "8bf4e42b2e1fcb29bfddb64c96bc1b15", "type": "electric_scooter", "lat": 38.87551083333334, "is_disabled": 0}, {"fusion_lat": 0.0, "lon": -77.023858, "is_reserved": 0, "bike_id": "8980bd8bdfafd462494ec5fac98f4381", "fusion_lon": 0.0, "rental_uris": {"android": "https://dc.lft.to/lastmile_qr_scan", "ios": "https://dc.lft.to/lastmile_qr_scan"}, "name": "8980bd8bdfafd462494ec5fac98f4381", "type": "electric_scooter", "lat": 38.9291175, "is_disabled": 0}, {"fusion_lat": 0.0, "lon": -77.01255033333334, "is_reserved": 0, "bike_id": "d47c8c1a5b7adfb65a3586e0c7aca654", "fusion_lon": 0.0, "rental_uris": {"android": "https://dc.lft.to/lastmile_qr_scan", "ios": "https://dc.lft.to/lastmile_qr_scan"}, "name": "d47c8c1a5b7adfb65a3586e0c7aca654", "type": "electric_scooter", "lat": 38.9084515, "is_disabled": 0}, {"fusion_lat": 0.0, "lon": -76.98458216666667, "is_reserved": 0, "bike_id": "ecad624e24dbb0f98262975fc71475b2", "fusion_lon": 0.0, "rental_uris": {"android": "https://dc.lft.to/lastmile_qr_scan", "ios": "https://dc.lft.to/lastmile_qr_scan"}, "name": "ecad624e24dbb0f98262975fc71475b2", "type": "electric_scooter", "lat": 38.90020333333333, "is_disabled": 0}, {"fusion_lat": 0.0, "lon": -77.04541016666667, "is_reserved": 0, "bike_id": "eb00134fc627270fd3fec092c20b63bf", "fusion_lon": 0.0, "rental_uris": {"android": "https://dc.lft.to/lastmile_qr_scan", "ios": "https://dc.lft.to/lastmile_qr_scan"}, "name": "eb00134fc627270fd3fec092c20b63bf", "type": "electric_scooter", "lat": 38.909685333333336, "is_disabled": 0}, {"fusion_lat": 0.0, "lon": -77.05116166666667, "is_reserved": 0, "bike_id": "5f58e5c84bd01dc134e55c0a4270fab0", "fusion_lon": 0.0, "rental_uris": {"android": "https://dc.lft.to/lastmile_qr_scan", "ios": "https://dc.lft.to/lastmile_qr_scan"}, "name": "5f58e5c84bd01dc134e55c0a4270fab0", "type": "electric_scooter", "lat": 38.89762916666667, "is_disabled": 0}, {"fusion_lat": 0.0, "lon": -77.00066666666666, "is_reserved": 0, "bike_id": "eb1e6b1d7f42569b959b2fb96b3262d1", "fusion_lon": 0.0, "rental_uris": {"android": "https://dc.lft.to/lastmile_qr_scan", "ios": "https://dc.lft.to/lastmile_qr_scan"}, "name": "eb1e6b1d7f42569b959b2fb96b3262d1", "type": "electric_scooter", "lat": 38.90049666666667, "is_disabled": 0}, {"fusion_lat": 0.0, "lon": -77.03171833333333, "is_reserved": 0, "bike_id": "c0a5b138e9af6258bcf5268d32aecdd4", "fusion_lon": 0.0, "rental_uris": {"android": "https://dc.lft.to/lastmile_qr_scan", "ios": "https://dc.lft.to/lastmile_qr_scan"}, "name": "c0a5b138e9af6258bcf5268d32aecdd4", "type": "electric_scooter", "lat": 38.915562666666666, "is_disabled": 0}, {"fusion_lat": 0.0, "lon": -77.03836866666667, "is_reserved": 0, "bike_id": "c43e830acd8ee11a825ba96f420d0ff1", "fusion_lon": 0.0, "rental_uris": {"android": "https://dc.lft.to/lastmile_qr_scan", "ios": "https://dc.lft.to/lastmile_qr_scan"}, "name": "c43e830acd8ee11a825ba96f420d0ff1", "type": "electric_scooter", "lat": 38.91129016666667, "is_disabled": 0}, {"fusion_lat": 0.0, "lon": -77.04416616666667, "is_reserved": 0, "bike_id": "0f18e4d684f35f5bac20e18252554f36", "fusion_lon": 0.0, "rental_uris": {"android": "https://dc.lft.to/lastmile_qr_scan", "ios": "https://dc.lft.to/lastmile_qr_scan"}, "name": "0f18e4d684f35f5bac20e18252554f36", "type": "electric_scooter", "lat": 38.913612, "is_disabled": 0}, {"fusion_lat": 0.0, "lon": -77.08400316666666, "is_reserved": 0, "bike_id": "d91313abc99cf550f4492e17a32c9f61", "fusion_lon": 0.0, "rental_uris": {"android": "https://dc.lft.to/lastmile_qr_scan", "ios": "https://dc.lft.to/lastmile_qr_scan"}, "name": "d91313abc99cf550f4492e17a32c9f61", "type": "electric_scooter", "lat": 38.908037, "is_disabled": 0}, {"fusion_lat": 0.0, "lon": -77.03690516666667, "is_reserved": 0, "bike_id": "4050dbd24768d6c6368ef6907734054e", "fusion_lon": 0.0, "rental_uris": {"android": "https://dc.lft.to/lastmile_qr_scan", "ios": "https://dc.lft.to/lastmile_qr_scan"}, "name": "4050dbd24768d6c6368ef6907734054e", "type": "electric_scooter", "lat": 38.91680866666667, "is_disabled": 0}, {"fusion_lat": 0.0, "lon": -77.026164, "is_reserved": 0, "bike_id": "5e34ac505cd9f8fecf899520ef7fe8d0", "fusion_lon": 0.0, "rental_uris": {"android": "https://dc.lft.to/lastmile_qr_scan", "ios": "https://dc.lft.to/lastmile_qr_scan"}, "name": "5e34ac505cd9f8fecf899520ef7fe8d0", "type": "electric_scooter", "lat": 38.929831166666666, "is_disabled": 0}, {"fusion_lat": 0.0, "lon": -77.0465285, "is_reserved": 0, "bike_id": "2b741eb829324b7290d56a8b6951ba0c", "fusion_lon": 0.0, "rental_uris": {"android": "https://dc.lft.to/lastmile_qr_scan", "ios": "https://dc.lft.to/lastmile_qr_scan"}, "name": "2b741eb829324b7290d56a8b6951ba0c", "type": "electric_scooter", "lat": 38.90550366666667, "is_disabled": 0}, {"fusion_lat": 0.0, "lon": -77.032633, "is_reserved": 0, "bike_id": "e1d1cc0eb1eb2421cc981d6df14e6411", "fusion_lon": 0.0, "rental_uris": {"android": "https://dc.lft.to/lastmile_qr_scan", "ios": "https://dc.lft.to/lastmile_qr_scan"}, "name": "e1d1cc0eb1eb2421cc981d6df14e6411", "type": "electric_scooter", "lat": 38.9415295, "is_disabled": 0}, {"fusion_lat": 0.0, "lon": -77.04507916666667, "is_reserved": 0, "bike_id": "cc2fa1cda79813e05c85a45b2a78d5d4", "fusion_lon": 0.0, "rental_uris": {"android": "https://dc.lft.to/lastmile_qr_scan", "ios": "https://dc.lft.to/lastmile_qr_scan"}, "name": "cc2fa1cda79813e05c85a45b2a78d5d4", "type": "electric_scooter", "lat": 38.907891666666664, "is_disabled": 0}, {"fusion_lat": 0.0, "lon": -77.03589833333334, "is_reserved": 0, "bike_id": "79a3edf50d15617998f3d38d7063bcae", "fusion_lon": 0.0, "rental_uris": {"android": "https://dc.lft.to/lastmile_qr_scan", "ios": "https://dc.lft.to/lastmile_qr_scan"}, "name": "79a3edf50d15617998f3d38d7063bcae", "type": "electric_scooter", "lat": 38.906954666666664, "is_disabled": 0}, {"fusion_lat": 0.0, "lon": -76.99408483333333, "is_reserved": 0, "bike_id": "ad25bacd105663085de8ba9f9ce44b73", "fusion_lon": 0.0, "rental_uris": {"android": "https://dc.lft.to/lastmile_qr_scan", "ios": "https://dc.lft.to/lastmile_qr_scan"}, "name": "ad25bacd105663085de8ba9f9ce44b73", "type": "electric_scooter", "lat": 38.87784466666667, "is_disabled": 0}, {"fusion_lat": 0.0, "lon": -77.04990616666667, "is_reserved": 0, "bike_id": "549b25f07e20f579af5933a252fda2a2", "fusion_lon": 0.0, "rental_uris": {"android": "https://dc.lft.to/lastmile_qr_scan", "ios": "https://dc.lft.to/lastmile_qr_scan"}, "name": "549b25f07e20f579af5933a252fda2a2", "type": "electric_scooter", "lat": 38.897296, "is_disabled": 0}, {"fusion_lat": 0.0, "lon": -77.028703, "is_reserved": 0, "bike_id": "69e47b2b56ac04e2442722f2fe381d77", "fusion_lon": 0.0, "rental_uris": {"android": "https://dc.lft.to/lastmile_qr_scan", "ios": "https://dc.lft.to/lastmile_qr_scan"}, "name": "69e47b2b56ac04e2442722f2fe381d77", "type": "electric_scooter", "lat": 38.925697, "is_disabled": 0}, {"fusion_lat": 0.0, "lon": -77.02487733333334, "is_reserved": 0, "bike_id": "ecf3ad6a86032f3f407aba3765bbd16c", "fusion_lon": 0.0, "rental_uris": {"android": "https://dc.lft.to/lastmile_qr_scan", "ios": "https://dc.lft.to/lastmile_qr_scan"}, "name": "ecf3ad6a86032f3f407aba3765bbd16c", "type": "electric_scooter", "lat": 38.937563833333336, "is_disabled": 0}, {"fusion_lat": 0.0, "lon": -77.05743616666666, "is_reserved": 0, "bike_id": "c07e9ae897f6907494e568c4929ec5b2", "fusion_lon": 0.0, "rental_uris": {"android": "https://dc.lft.to/lastmile_qr_scan", "ios": "https://dc.lft.to/lastmile_qr_scan"}, "name": "c07e9ae897f6907494e568c4929ec5b2", "type": "electric_scooter", "lat": 38.9338875, "is_disabled": 0}, {"fusion_lat": 0.0, "lon": -77.06282016666667, "is_reserved": 0, "bike_id": "b75fea65fac84167208e32b362fd9923", "fusion_lon": 0.0, "rental_uris": {"android": "https://dc.lft.to/lastmile_qr_scan", "ios": "https://dc.lft.to/lastmile_qr_scan"}, "name": "b75fea65fac84167208e32b362fd9923", "type": "electric_scooter", "lat": 38.9058645, "is_disabled": 0}, {"fusion_lat": 0.0, "lon": -76.99851216666667, "is_reserved": 0, "bike_id": "1bbe6f413a6f2fda04e2f1ef18a9c26e", "fusion_lon": 0.0, "rental_uris": {"android": "https://dc.lft.to/lastmile_qr_scan", "ios": "https://dc.lft.to/lastmile_qr_scan"}, "name": "1bbe6f413a6f2fda04e2f1ef18a9c26e", "type": "electric_scooter", "lat": 38.9002505, "is_disabled": 0}, {"fusion_lat": 0.0, "lon": -76.99933533333333, "is_reserved": 0, "bike_id": "e9757dea84779871dcdb98a54aba244a", "fusion_lon": 0.0, "rental_uris": {"android": "https://dc.lft.to/lastmile_qr_scan", "ios": "https://dc.lft.to/lastmile_qr_scan"}, "name": "e9757dea84779871dcdb98a54aba244a", "type": "electric_scooter", "lat": 38.84299933333333, "is_disabled": 0}, {"fusion_lat": 0.0, "lon": -76.94869183333333, "is_reserved": 0, "bike_id": "ed9b6683d65d595e829c932091947820", "fusion_lon": 0.0, "rental_uris": {"android": "https://dc.lft.to/lastmile_qr_scan", "ios": "https://dc.lft.to/lastmile_qr_scan"}, "name": "ed9b6683d65d595e829c932091947820", "type": "electric_scooter", "lat": 38.89543783333333, "is_disabled": 0}, {"fusion_lat": 0.0, "lon": -77.073256, "is_reserved": 0, "bike_id": "007e51272a57d4ac9031179c4f5be117", "fusion_lon": 0.0, "rental_uris": {"android": "https://dc.lft.to/lastmile_qr_scan", "ios": "https://dc.lft.to/lastmile_qr_scan"}, "name": "007e51272a57d4ac9031179c4f5be117", "type": "electric_scooter", "lat": 38.926067333333336, "is_disabled": 0}, {"fusion_lat": 0.0, "lon": -77.01524666666667, "is_reserved": 0, "bike_id": "cb82edca142d602c19158fa3f16baf9d", "fusion_lon": 0.0, "rental_uris": {"android": "https://dc.lft.to/lastmile_qr_scan", "ios": "https://dc.lft.to/lastmile_qr_scan"}, "name": "cb82edca142d602c19158fa3f16baf9d", "type": "electric_bike", "lat": 38.918676166666664, "is_disabled": 0}, {"fusion_lat": 0.0, "lon": -77.01861533333333, "is_reserved": 0, "bike_id": "0be9fdce8bbd6e79f36be5358a1e0e54", "fusion_lon": 0.0, "rental_uris": {"android": "https://dc.lft.to/lastmile_qr_scan", "ios": "https://dc.lft.to/lastmile_qr_scan"}, "name": "0be9fdce8bbd6e79f36be5358a1e0e54", "type": "electric_scooter", "lat": 38.97369616666667, "is_disabled": 0}, {"fusion_lat": 0.0, "lon": -77.010739, "is_reserved": 0, "bike_id": "11c710a56bcf86bc8a85c17a265678e1", "fusion_lon": 0.0, "rental_uris": {"android": "https://dc.lft.to/lastmile_qr_scan", "ios": "https://dc.lft.to/lastmile_qr_scan"}, "name": "11c710a56bcf86bc8a85c17a265678e1", "type": "electric_scooter", "lat": 38.91764083333333, "is_disabled": 0}, {"fusion_lat": 0.0, "lon": -76.9964615, "is_reserved": 0, "bike_id": "27f28f82d9377375f317b80215597b2b", "fusion_lon": 0.0, "rental_uris": {"android": "https://dc.lft.to/lastmile_qr_scan", "ios": "https://dc.lft.to/lastmile_qr_scan"}, "name": "27f28f82d9377375f317b80215597b2b", "type": "electric_scooter", "lat": 38.900329166666666, "is_disabled": 0}, {"fusion_lat": 0.0, "lon": -77.04197333333333, "is_reserved": 0, "bike_id": "57abefc1e26adafbe637d96cab05852b", "fusion_lon": 0.0, "rental_uris": {"android": "https://dc.lft.to/lastmile_qr_scan", "ios": "https://dc.lft.to/lastmile_qr_scan"}, "name": "57abefc1e26adafbe637d96cab05852b", "type": "electric_scooter", "lat": 38.919743, "is_disabled": 0}, {"fusion_lat": 0.0, "lon": -76.99377516666667, "is_reserved": 0, "bike_id": "2a3780ff26cdcb22248117b4f63c8ef0", "fusion_lon": 0.0, "rental_uris": {"android": "https://dc.lft.to/lastmile_qr_scan", "ios": "https://dc.lft.to/lastmile_qr_scan"}, "name": "2a3780ff26cdcb22248117b4f63c8ef0", "type": "electric_bike", "lat": 38.971853833333334, "is_disabled": 0}, {"fusion_lat": 0.0, "lon": -77.03204133333334, "is_reserved": 0, "bike_id": "0d932620a84e33a12dadcec4ace9e58d", "fusion_lon": 0.0, "rental_uris": {"android": "https://dc.lft.to/lastmile_qr_scan", "ios": "https://dc.lft.to/lastmile_qr_scan"}, "name": "0d932620a84e33a12dadcec4ace9e58d", "type": "electric_scooter", "lat": 38.90856816666667, "is_disabled": 0}, {"fusion_lat": 0.0, "lon": -77.0033945, "is_reserved": 0, "bike_id": "8807180f64f69a5a2d2aa0d79a7d52bb", "fusion_lon": 0.0, "rental_uris": {"android": "https://dc.lft.to/lastmile_qr_scan", "ios": "https://dc.lft.to/lastmile_qr_scan"}, "name": "8807180f64f69a5a2d2aa0d79a7d52bb", "type": "electric_scooter", "lat": 38.895259, "is_disabled": 0}, {"fusion_lat": 0.0, "lon": -77.02466633333333, "is_reserved": 0, "bike_id": "76bc75df1e79038ac41da01ba0143dbb", "fusion_lon": 0.0, "rental_uris": {"android": "https://dc.lft.to/lastmile_qr_scan", "ios": "https://dc.lft.to/lastmile_qr_scan"}, "name": "76bc75df1e79038ac41da01ba0143dbb", "type": "electric_scooter", "lat": 38.9330075, "is_disabled": 0}, {"fusion_lat": 0.0, "lon": -77.02722983333334, "is_reserved": 0, "bike_id": "89b3e01c00c33b97d8a530ce22b8da6a", "fusion_lon": 0.0, "rental_uris": {"android": "https://dc.lft.to/lastmile_qr_scan", "ios": "https://dc.lft.to/lastmile_qr_scan"}, "name": "89b3e01c00c33b97d8a530ce22b8da6a", "type": "electric_scooter", "lat": 38.89736216666667, "is_disabled": 0}, {"fusion_lat": 0.0, "lon": -77.03240883333333, "is_reserved": 0, "bike_id": "21ff8e0bf81902fc07854d7a3b8b6170", "fusion_lon": 0.0, "rental_uris": {"android": "https://dc.lft.to/lastmile_qr_scan", "ios": "https://dc.lft.to/lastmile_qr_scan"}, "name": "21ff8e0bf81902fc07854d7a3b8b6170", "type": "electric_scooter", "lat": 38.92628333333333, "is_disabled": 0}, {"fusion_lat": 0.0, "lon": -77.04103933333333, "is_reserved": 0, "bike_id": "a85075da77970d4fff6a2d5a25d3347d", "fusion_lon": 0.0, "rental_uris": {"android": "https://dc.lft.to/lastmile_qr_scan", "ios": "https://dc.lft.to/lastmile_qr_scan"}, "name": "a85075da77970d4fff6a2d5a25d3347d", "type": "electric_scooter", "lat": 38.92801883333333, "is_disabled": 0}, {"fusion_lat": 0.0, "lon": -77.02417666666666, "is_reserved": 0, "bike_id": "c13215d99ac477c77d3105f9aafa0c86", "fusion_lon": 0.0, "rental_uris": {"android": "https://dc.lft.to/lastmile_qr_scan", "ios": "https://dc.lft.to/lastmile_qr_scan"}, "name": "c13215d99ac477c77d3105f9aafa0c86", "type": "electric_scooter", "lat": 38.892542666666664, "is_disabled": 0}, {"fusion_lat": 0.0, "lon": -77.03368716666667, "is_reserved": 0, "bike_id": "2f69505fd77968b6a83a195835254719", "fusion_lon": 0.0, "rental_uris": {"android": "https://dc.lft.to/lastmile_qr_scan", "ios": "https://dc.lft.to/lastmile_qr_scan"}, "name": "2f69505fd77968b6a83a195835254719", "type": "electric_scooter", "lat": 38.90823133333333, "is_disabled": 0}, {"fusion_lat": 0.0, "lon": -77.00907383333333, "is_reserved": 0, "bike_id": "bbe693b21a63990ec16dfba664f28e3b", "fusion_lon": 0.0, "rental_uris": {"android": "https://dc.lft.to/lastmile_qr_scan", "ios": "https://dc.lft.to/lastmile_qr_scan"}, "name": "bbe693b21a63990ec16dfba664f28e3b", "type": "electric_scooter", "lat": 38.89552116666667, "is_disabled": 0}, {"fusion_lat": 0.0, "lon": -77.01992483333333, "is_reserved": 0, "bike_id": "7e015d8db8c9901fd01600d9d675a5bd", "fusion_lon": 0.0, "rental_uris": {"android": "https://dc.lft.to/lastmile_qr_scan", "ios": "https://dc.lft.to/lastmile_qr_scan"}, "name": "7e015d8db8c9901fd01600d9d675a5bd", "type": "electric_scooter", "lat": 38.8830505, "is_disabled": 0}, {"fusion_lat": 0.0, "lon": -77.046204, "is_reserved": 0, "bike_id": "72cf3cacfe7efed0e03f9e784d7303ad", "fusion_lon": 0.0, "rental_uris": {"android": "https://dc.lft.to/lastmile_qr_scan", "ios": "https://dc.lft.to/lastmile_qr_scan"}, "name": "72cf3cacfe7efed0e03f9e784d7303ad", "type": "electric_scooter", "lat": 38.91613066666667, "is_disabled": 0}, {"fusion_lat": 0.0, "lon": -77.02385616666666, "is_reserved": 0, "bike_id": "b30a22a2d7073c84b90a3712d2a2469c", "fusion_lon": 0.0, "rental_uris": {"android": "https://dc.lft.to/lastmile_qr_scan", "ios": "https://dc.lft.to/lastmile_qr_scan"}, "name": "b30a22a2d7073c84b90a3712d2a2469c", "type": "electric_scooter", "lat": 38.90813683333333, "is_disabled": 0}, {"fusion_lat": 0.0, "lon": -77.038255, "is_reserved": 0, "bike_id": "044f165da123151e539c87243cc889b2", "fusion_lon": 0.0, "rental_uris": {"android": "https://dc.lft.to/lastmile_qr_scan", "ios": "https://dc.lft.to/lastmile_qr_scan"}, "name": "044f165da123151e539c87243cc889b2", "type": "electric_scooter", "lat": 38.931347833333334, "is_disabled": 0}, {"fusion_lat": 0.0, "lon": -77.033219, "is_reserved": 0, "bike_id": "9d89fc1a06a8674daa3658294b5d8fa2", "fusion_lon": 0.0, "rental_uris": {"android": "https://dc.lft.to/lastmile_qr_scan", "ios": "https://dc.lft.to/lastmile_qr_scan"}, "name": "9d89fc1a06a8674daa3658294b5d8fa2", "type": "electric_scooter", "lat": 38.903508333333335, "is_disabled": 0}, {"fusion_lat": 0.0, "lon": -77.02222233333333, "is_reserved": 0, "bike_id": "d1a67407cb5448ac2a602e094300f60f", "fusion_lon": 0.0, "rental_uris": {"android": "https://dc.lft.to/lastmile_qr_scan", "ios": "https://dc.lft.to/lastmile_qr_scan"}, "name": "d1a67407cb5448ac2a602e094300f60f", "type": "electric_scooter", "lat": 38.93552233333333, "is_disabled": 0}, {"fusion_lat": 0.0, "lon": -77.02129633333334, "is_reserved": 0, "bike_id": "e84dc3d5614107375cbdc5fb50ec7e6a", "fusion_lon": 0.0, "rental_uris": {"android": "https://dc.lft.to/lastmile_qr_scan", "ios": "https://dc.lft.to/lastmile_qr_scan"}, "name": "e84dc3d5614107375cbdc5fb50ec7e6a", "type": "electric_scooter", "lat": 38.92412383333333, "is_disabled": 0}, {"fusion_lat": 0.0, "lon": -77.34301566666667, "is_reserved": 0, "bike_id": "52c70089e9f17b1dd9cf5030586df0db", "fusion_lon": 0.0, "rental_uris": {"android": "https://dc.lft.to/lastmile_qr_scan", "ios": "https://dc.lft.to/lastmile_qr_scan"}, "name": "52c70089e9f17b1dd9cf5030586df0db", "type": "electric_bike", "lat": 38.9460835, "is_disabled": 0}, {"fusion_lat": 0.0, "lon": -76.99580533333334, "is_reserved": 0, "bike_id": "b1090e01a543294b549f9561b37bbb44", "fusion_lon": 0.0, "rental_uris": {"android": "https://dc.lft.to/lastmile_qr_scan", "ios": "https://dc.lft.to/lastmile_qr_scan"}, "name": "b1090e01a543294b549f9561b37bbb44", "type": "electric_bike", "lat": 38.85293816666667, "is_disabled": 0}, {"fusion_lat": 0.0, "lon": -77.042624, "is_reserved": 0, "bike_id": "a46f1148d47a562f98dd63fb05a20979", "fusion_lon": 0.0, "rental_uris": {"android": "https://dc.lft.to/lastmile_qr_scan", "ios": "https://dc.lft.to/lastmile_qr_scan"}, "name": "a46f1148d47a562f98dd63fb05a20979", "type": "electric_scooter", "lat": 38.913472666666664, "is_disabled": 0}, {"fusion_lat": 0.0, "lon": -77.00617233333334, "is_reserved": 0, "bike_id": "3be93a44206a3d2e5e8072c91814a9c7", "fusion_lon": 0.0, "rental_uris": {"android": "https://dc.lft.to/lastmile_qr_scan", "ios": "https://dc.lft.to/lastmile_qr_scan"}, "name": "3be93a44206a3d2e5e8072c91814a9c7", "type": "electric_scooter", "lat": 38.908533166666665, "is_disabled": 0}, {"fusion_lat": 0.0, "lon": -76.93264533333334, "is_reserved": 0, "bike_id": "f7fe0973d5c86d795e2beb66bab09e70", "fusion_lon": 0.0, "rental_uris": {"android": "https://dc.lft.to/lastmile_qr_scan", "ios": "https://dc.lft.to/lastmile_qr_scan"}, "name": "f7fe0973d5c86d795e2beb66bab09e70", "type": "electric_scooter", "lat": 38.89894316666667, "is_disabled": 0}, {"fusion_lat": 0.0, "lon": -77.03223216666666, "is_reserved": 0, "bike_id": "2f4e894f1b35b33a9d20eb84d0678b69", "fusion_lon": 0.0, "rental_uris": {"android": "https://dc.lft.to/lastmile_qr_scan", "ios": "https://dc.lft.to/lastmile_qr_scan"}, "name": "2f4e894f1b35b33a9d20eb84d0678b69", "type": "electric_scooter", "lat": 38.892240666666666, "is_disabled": 0}, {"fusion_lat": 0.0, "lon": -77.03470383333334, "is_reserved": 0, "bike_id": "d8ce247954e949cf50c9fb082ad6372b", "fusion_lon": 0.0, "rental_uris": {"android": "https://dc.lft.to/lastmile_qr_scan", "ios": "https://dc.lft.to/lastmile_qr_scan"}, "name": "d8ce247954e949cf50c9fb082ad6372b", "type": "electric_scooter", "lat": 38.9207085, "is_disabled": 0}, {"fusion_lat": 0.0, "lon": -77.042499, "is_reserved": 0, "bike_id": "1d1d2e1687d7ad44118e4f27cd3441a5", "fusion_lon": 0.0, "rental_uris": {"android": "https://dc.lft.to/lastmile_qr_scan", "ios": "https://dc.lft.to/lastmile_qr_scan"}, "name": "1d1d2e1687d7ad44118e4f27cd3441a5", "type": "electric_scooter", "lat": 38.92236416666667, "is_disabled": 0}, {"fusion_lat": 0.0, "lon": -77.0449495, "is_reserved": 0, "bike_id": "291a2a4c48c30a23cf22681e547ae00c", "fusion_lon": 0.0, "rental_uris": {"android": "https://dc.lft.to/lastmile_qr_scan", "ios": "https://dc.lft.to/lastmile_qr_scan"}, "name": "291a2a4c48c30a23cf22681e547ae00c", "type": "electric_scooter", "lat": 38.90373983333333, "is_disabled": 0}, {"fusion_lat": 0.0, "lon": -77.03222033333333, "is_reserved": 0, "bike_id": "7d66faa289b64e08933333425e2da683", "fusion_lon": 0.0, "rental_uris": {"android": "https://dc.lft.to/lastmile_qr_scan", "ios": "https://dc.lft.to/lastmile_qr_scan"}, "name": "7d66faa289b64e08933333425e2da683", "type": "electric_scooter", "lat": 38.91406933333333, "is_disabled": 0}, {"fusion_lat": 0.0, "lon": -77.03686966666666, "is_reserved": 0, "bike_id": "962d09be0f7620527b8154ffa2bb0013", "fusion_lon": 0.0, "rental_uris": {"android": "https://dc.lft.to/lastmile_qr_scan", "ios": "https://dc.lft.to/lastmile_qr_scan"}, "name": "962d09be0f7620527b8154ffa2bb0013", "type": "electric_scooter", "lat": 38.91682183333333, "is_disabled": 0}, {"fusion_lat": 0.0, "lon": -77.0072815, "is_reserved": 0, "bike_id": "5e38b35d437a64df836712e214044ae6", "fusion_lon": 0.0, "rental_uris": {"android": "https://dc.lft.to/lastmile_qr_scan", "ios": "https://dc.lft.to/lastmile_qr_scan"}, "name": "5e38b35d437a64df836712e214044ae6", "type": "electric_scooter", "lat": 38.884882, "is_disabled": 0}, {"fusion_lat": 0.0, "lon": -76.94633383333333, "is_reserved": 0, "bike_id": "85547633f0047272c113f39838161f05", "fusion_lon": 0.0, "rental_uris": {"android": "https://dc.lft.to/lastmile_qr_scan", "ios": "https://dc.lft.to/lastmile_qr_scan"}, "name": "85547633f0047272c113f39838161f05", "type": "electric_scooter", "lat": 38.898445333333335, "is_disabled": 0}, {"fusion_lat": 0.0, "lon": -77.04327316666667, "is_reserved": 0, "bike_id": "d99b6cf4c5bbbe0635fb012fd5619fd0", "fusion_lon": 0.0, "rental_uris": {"android": "https://dc.lft.to/lastmile_qr_scan", "ios": "https://dc.lft.to/lastmile_qr_scan"}, "name": "d99b6cf4c5bbbe0635fb012fd5619fd0", "type": "electric_scooter", "lat": 38.9022435, "is_disabled": 0}, {"fusion_lat": 0.0, "lon": -76.948761, "is_reserved": 0, "bike_id": "7b86fce627d6ff5e034aef55a594d0d1", "fusion_lon": 0.0, "rental_uris": {"android": "https://dc.lft.to/lastmile_qr_scan", "ios": "https://dc.lft.to/lastmile_qr_scan"}, "name": "7b86fce627d6ff5e034aef55a594d0d1", "type": "electric_scooter", "lat": 38.89546833333333, "is_disabled": 0}, {"fusion_lat": 0.0, "lon": -77.02402616666667, "is_reserved": 0, "bike_id": "015742e5ef9ec6462fbeba5af10bc481", "fusion_lon": 0.0, "rental_uris": {"android": "https://dc.lft.to/lastmile_qr_scan", "ios": "https://dc.lft.to/lastmile_qr_scan"}, "name": "015742e5ef9ec6462fbeba5af10bc481", "type": "electric_scooter", "lat": 38.95731166666667, "is_disabled": 0}, {"fusion_lat": 0.0, "lon": -77.02508266666666, "is_reserved": 0, "bike_id": "9c5ea611f21bd595f921cb201065c21d", "fusion_lon": 0.0, "rental_uris": {"android": "https://dc.lft.to/lastmile_qr_scan", "ios": "https://dc.lft.to/lastmile_qr_scan"}, "name": "9c5ea611f21bd595f921cb201065c21d", "type": "electric_scooter", "lat": 38.920785333333335, "is_disabled": 0}, {"fusion_lat": 0.0, "lon": -77.03649166666666, "is_reserved": 0, "bike_id": "969b43c44808c6b27c8d69c9de448b02", "fusion_lon": 0.0, "rental_uris": {"android": "https://dc.lft.to/lastmile_qr_scan", "ios": "https://dc.lft.to/lastmile_qr_scan"}, "name": "969b43c44808c6b27c8d69c9de448b02", "type": "electric_scooter", "lat": 38.9027635, "is_disabled": 0}, {"fusion_lat": 0.0, "lon": -76.98111833333333, "is_reserved": 0, "bike_id": "d1a72ef69be9a711812c95298f4d1dc6", "fusion_lon": 0.0, "rental_uris": {"android": "https://dc.lft.to/lastmile_qr_scan", "ios": "https://dc.lft.to/lastmile_qr_scan"}, "name": "d1a72ef69be9a711812c95298f4d1dc6", "type": "electric_scooter", "lat": 38.90393983333333, "is_disabled": 0}, {"fusion_lat": 0.0, "lon": -77.0465875, "is_reserved": 0, "bike_id": "2f2ece53727d4bda087d5a4132f29904", "fusion_lon": 0.0, "rental_uris": {"android": "https://dc.lft.to/lastmile_qr_scan", "ios": "https://dc.lft.to/lastmile_qr_scan"}, "name": "2f2ece53727d4bda087d5a4132f29904", "type": "electric_scooter", "lat": 38.905529333333334, "is_disabled": 0}, {"fusion_lat": 0.0, "lon": -77.055254, "is_reserved": 0, "bike_id": "ca07ab68c1b00c30613792ddc94fa2bc", "fusion_lon": 0.0, "rental_uris": {"android": "https://dc.lft.to/lastmile_qr_scan", "ios": "https://dc.lft.to/lastmile_qr_scan"}, "name": "ca07ab68c1b00c30613792ddc94fa2bc", "type": "electric_scooter", "lat": 38.927968666666665, "is_disabled": 0}, {"fusion_lat": 0.0, "lon": -77.04307616666667, "is_reserved": 0, "bike_id": "9f5769424082d9fb5cfcb410213d5dc8", "fusion_lon": 0.0, "rental_uris": {"android": "https://dc.lft.to/lastmile_qr_scan", "ios": "https://dc.lft.to/lastmile_qr_scan"}, "name": "9f5769424082d9fb5cfcb410213d5dc8", "type": "electric_scooter", "lat": 38.893632, "is_disabled": 0}, {"fusion_lat": 0.0, "lon": -77.05079316666667, "is_reserved": 0, "bike_id": "5a6b9ee8a152cd5eee87c2d9fd6016ac", "fusion_lon": 0.0, "rental_uris": {"android": "https://dc.lft.to/lastmile_qr_scan", "ios": "https://dc.lft.to/lastmile_qr_scan"}, "name": "5a6b9ee8a152cd5eee87c2d9fd6016ac", "type": "electric_scooter", "lat": 38.901909333333336, "is_disabled": 0}, {"fusion_lat": 0.0, "lon": -77.02381216666667, "is_reserved": 0, "bike_id": "c0b17e7fa9b1514d7641f6ff75aa4d48", "fusion_lon": 0.0, "rental_uris": {"android": "https://dc.lft.to/lastmile_qr_scan", "ios": "https://dc.lft.to/lastmile_qr_scan"}, "name": "c0b17e7fa9b1514d7641f6ff75aa4d48", "type": "electric_scooter", "lat": 38.92002516666667, "is_disabled": 0}, {"fusion_lat": 0.0, "lon": -77.045722, "is_reserved": 0, "bike_id": "83f9a6a616c6cce8fc18d5b2566e3a55", "fusion_lon": 0.0, "rental_uris": {"android": "https://dc.lft.to/lastmile_qr_scan", "ios": "https://dc.lft.to/lastmile_qr_scan"}, "name": "83f9a6a616c6cce8fc18d5b2566e3a55", "type": "electric_scooter", "lat": 38.897363666666664, "is_disabled": 0}, {"fusion_lat": 0.0, "lon": -77.0059735, "is_reserved": 0, "bike_id": "e0755c6e463e6721e7ccdc40daec772f", "fusion_lon": 0.0, "rental_uris": {"android": "https://dc.lft.to/lastmile_qr_scan", "ios": "https://dc.lft.to/lastmile_qr_scan"}, "name": "e0755c6e463e6721e7ccdc40daec772f", "type": "electric_scooter", "lat": 38.9056365, "is_disabled": 0}, {"fusion_lat": 0.0, "lon": -77.0411175, "is_reserved": 0, "bike_id": "dc78d05b30d778def7f0c807944d2a25", "fusion_lon": 0.0, "rental_uris": {"android": "https://dc.lft.to/lastmile_qr_scan", "ios": "https://dc.lft.to/lastmile_qr_scan"}, "name": "dc78d05b30d778def7f0c807944d2a25", "type": "electric_scooter", "lat": 38.925106, "is_disabled": 0}, {"fusion_lat": 0.0, "lon": -77.11593883333333, "is_reserved": 0, "bike_id": "678ec2d5a8f76066abe42a694865efbc", "fusion_lon": 0.0, "rental_uris": {"android": "https://dc.lft.to/lastmile_qr_scan", "ios": "https://dc.lft.to/lastmile_qr_scan"}, "name": "678ec2d5a8f76066abe42a694865efbc", "type": "electric_bike", "lat": 39.07493233333334, "is_disabled": 0}, {"fusion_lat": 0.0, "lon": -77.02981016666666, "is_reserved": 0, "bike_id": "8b5f3d317ab6a0303a9136dded97c91f", "fusion_lon": 0.0, "rental_uris": {"android": "https://dc.lft.to/lastmile_qr_scan", "ios": "https://dc.lft.to/lastmile_qr_scan"}, "name": "8b5f3d317ab6a0303a9136dded97c91f", "type": "electric_bike", "lat": 38.92447333333333, "is_disabled": 0}, {"fusion_lat": 0.0, "lon": -77.03525883333333, "is_reserved": 0, "bike_id": "0f7dd5a190e58b47380c2506a596c4d8", "fusion_lon": 0.0, "rental_uris": {"android": "https://dc.lft.to/lastmile_qr_scan", "ios": "https://dc.lft.to/lastmile_qr_scan"}, "name": "0f7dd5a190e58b47380c2506a596c4d8", "type": "electric_scooter", "lat": 38.921963, "is_disabled": 0}, {"fusion_lat": 0.0, "lon": -77.029782, "is_reserved": 0, "bike_id": "f9964fee8007020550c100dd4055a024", "fusion_lon": 0.0, "rental_uris": {"android": "https://dc.lft.to/lastmile_qr_scan", "ios": "https://dc.lft.to/lastmile_qr_scan"}, "name": "f9964fee8007020550c100dd4055a024", "type": "electric_scooter", "lat": 38.929514833333336, "is_disabled": 0}, {"fusion_lat": 0.0, "lon": -77.04346983333333, "is_reserved": 0, "bike_id": "9a8d4c5260b24370248211865c664b1c", "fusion_lon": 0.0, "rental_uris": {"android": "https://dc.lft.to/lastmile_qr_scan", "ios": "https://dc.lft.to/lastmile_qr_scan"}, "name": "9a8d4c5260b24370248211865c664b1c", "type": "electric_bike", "lat": 38.90628133333333, "is_disabled": 0}, {"fusion_lat": 0.0, "lon": -77.03350633333334, "is_reserved": 0, "bike_id": "6b2c85ed8c8e1155ccb7a4db53377d18", "fusion_lon": 0.0, "rental_uris": {"android": "https://dc.lft.to/lastmile_qr_scan", "ios": "https://dc.lft.to/lastmile_qr_scan"}, "name": "6b2c85ed8c8e1155ccb7a4db53377d18", "type": "electric_scooter", "lat": 38.89833633333333, "is_disabled": 0}, {"fusion_lat": 0.0, "lon": -77.03531216666667, "is_reserved": 0, "bike_id": "933f0c0cbf4217bf789c67cf7fd77515", "fusion_lon": 0.0, "rental_uris": {"android": "https://dc.lft.to/lastmile_qr_scan", "ios": "https://dc.lft.to/lastmile_qr_scan"}, "name": "933f0c0cbf4217bf789c67cf7fd77515", "type": "electric_scooter", "lat": 38.92256316666667, "is_disabled": 0}, {"fusion_lat": 0.0, "lon": -77.039582, "is_reserved": 0, "bike_id": "c099fcef6741c11255e27e5b9071151e", "fusion_lon": 0.0, "rental_uris": {"android": "https://dc.lft.to/lastmile_qr_scan", "ios": "https://dc.lft.to/lastmile_qr_scan"}, "name": "c099fcef6741c11255e27e5b9071151e", "type": "electric_scooter", "lat": 38.8924725, "is_disabled": 0}, {"fusion_lat": 0.0, "lon": -77.04688466666667, "is_reserved": 0, "bike_id": "31b24eeee53a2d4a7d1c01e74b24fc46", "fusion_lon": 0.0, "rental_uris": {"android": "https://dc.lft.to/lastmile_qr_scan", "ios": "https://dc.lft.to/lastmile_qr_scan"}, "name": "31b24eeee53a2d4a7d1c01e74b24fc46", "type": "electric_bike", "lat": 39.023927666666665, "is_disabled": 0}, {"fusion_lat": 0.0, "lon": -77.0436425, "is_reserved": 0, "bike_id": "73574242539d5117d46046dbc521678c", "fusion_lon": 0.0, "rental_uris": {"android": "https://dc.lft.to/lastmile_qr_scan", "ios": "https://dc.lft.to/lastmile_qr_scan"}, "name": "73574242539d5117d46046dbc521678c", "type": "electric_scooter", "lat": 38.92067733333333, "is_disabled": 0}, {"fusion_lat": 0.0, "lon": -77.037197, "is_reserved": 0, "bike_id": "1f84d23bf9101a78969c0a9e3d607f5e", "fusion_lon": 0.0, "rental_uris": {"android": "https://dc.lft.to/lastmile_qr_scan", "ios": "https://dc.lft.to/lastmile_qr_scan"}, "name": "1f84d23bf9101a78969c0a9e3d607f5e", "type": "electric_scooter", "lat": 38.916948833333336, "is_disabled": 0}, {"fusion_lat": 0.0, "lon": -76.9734545, "is_reserved": 0, "bike_id": "e42b2a857678314842f6507eab4a3d92", "fusion_lon": 0.0, "rental_uris": {"android": "https://dc.lft.to/lastmile_qr_scan", "ios": "https://dc.lft.to/lastmile_qr_scan"}, "name": "e42b2a857678314842f6507eab4a3d92", "type": "electric_scooter", "lat": 38.86550783333333, "is_disabled": 0}, {"fusion_lat": 0.0, "lon": -77.03488466666667, "is_reserved": 0, "bike_id": "b5e2e7a386e96d16c8b9124b04d61de1", "fusion_lon": 0.0, "rental_uris": {"android": "https://dc.lft.to/lastmile_qr_scan", "ios": "https://dc.lft.to/lastmile_qr_scan"}, "name": "b5e2e7a386e96d16c8b9124b04d61de1", "type": "electric_scooter", "lat": 38.92484666666667, "is_disabled": 0}, {"fusion_lat": 0.0, "lon": -77.06461716666666, "is_reserved": 0, "bike_id": "c2e8a95bd375f149a91eb55720321d7a", "fusion_lon": 0.0, "rental_uris": {"android": "https://dc.lft.to/lastmile_qr_scan", "ios": "https://dc.lft.to/lastmile_qr_scan"}, "name": "c2e8a95bd375f149a91eb55720321d7a", "type": "electric_scooter", "lat": 38.927465833333336, "is_disabled": 0}, {"fusion_lat": 0.0, "lon": -77.01585633333333, "is_reserved": 0, "bike_id": "48712da25e22199cc4244370d7d9b16f", "fusion_lon": 0.0, "rental_uris": {"android": "https://dc.lft.to/lastmile_qr_scan", "ios": "https://dc.lft.to/lastmile_qr_scan"}, "name": "48712da25e22199cc4244370d7d9b16f", "type": "electric_scooter", "lat": 38.88613083333333, "is_disabled": 0}, {"fusion_lat": 0.0, "lon": -76.98227316666667, "is_reserved": 0, "bike_id": "b7308368201580540c89e97ddbe6c130", "fusion_lon": 0.0, "rental_uris": {"android": "https://dc.lft.to/lastmile_qr_scan", "ios": "https://dc.lft.to/lastmile_qr_scan"}, "name": "b7308368201580540c89e97ddbe6c130", "type": "electric_scooter", "lat": 38.88643883333334, "is_disabled": 0}, {"fusion_lat": 0.0, "lon": -77.02680033333333, "is_reserved": 0, "bike_id": "0700cfe87edd2e944ec03855dd32cc8c", "fusion_lon": 0.0, "rental_uris": {"android": "https://dc.lft.to/lastmile_qr_scan", "ios": "https://dc.lft.to/lastmile_qr_scan"}, "name": "0700cfe87edd2e944ec03855dd32cc8c", "type": "electric_scooter", "lat": 38.90115483333334, "is_disabled": 0}, {"fusion_lat": 0.0, "lon": -77.03779116666666, "is_reserved": 0, "bike_id": "089cd3813bbfc26dee51690e6d7a3cbb", "fusion_lon": 0.0, "rental_uris": {"android": "https://dc.lft.to/lastmile_qr_scan", "ios": "https://dc.lft.to/lastmile_qr_scan"}, "name": "089cd3813bbfc26dee51690e6d7a3cbb", "type": "electric_scooter", "lat": 38.917003333333334, "is_disabled": 0}, {"fusion_lat": 0.0, "lon": -77.032315, "is_reserved": 0, "bike_id": "9b54fb42f160ebdefd842522b6f6391e", "fusion_lon": 0.0, "rental_uris": {"android": "https://dc.lft.to/lastmile_qr_scan", "ios": "https://dc.lft.to/lastmile_qr_scan"}, "name": "9b54fb42f160ebdefd842522b6f6391e", "type": "electric_scooter", "lat": 38.92868466666667, "is_disabled": 0}, {"fusion_lat": 0.0, "lon": -76.98370316666667, "is_reserved": 0, "bike_id": "a80bee58d921fb6a96a1d19e53247322", "fusion_lon": 0.0, "rental_uris": {"android": "https://dc.lft.to/lastmile_qr_scan", "ios": "https://dc.lft.to/lastmile_qr_scan"}, "name": "a80bee58d921fb6a96a1d19e53247322", "type": "electric_scooter", "lat": 38.914918, "is_disabled": 0}, {"fusion_lat": 0.0, "lon": -77.03867516666666, "is_reserved": 0, "bike_id": "8bbc9336d8677968a4983b0349cb6b12", "fusion_lon": 0.0, "rental_uris": {"android": "https://dc.lft.to/lastmile_qr_scan", "ios": "https://dc.lft.to/lastmile_qr_scan"}, "name": "8bbc9336d8677968a4983b0349cb6b12", "type": "electric_scooter", "lat": 38.92152266666667, "is_disabled": 0}, {"fusion_lat": 0.0, "lon": -77.0119815, "is_reserved": 0, "bike_id": "e57c1686c54fc18b4400f714e002d684", "fusion_lon": 0.0, "rental_uris": {"android": "https://dc.lft.to/lastmile_qr_scan", "ios": "https://dc.lft.to/lastmile_qr_scan"}, "name": "e57c1686c54fc18b4400f714e002d684", "type": "electric_scooter", "lat": 38.871006, "is_disabled": 0}, {"fusion_lat": 0.0, "lon": -77.062859, "is_reserved": 0, "bike_id": "7fd4fbfceef55641dc71c96756429107", "fusion_lon": 0.0, "rental_uris": {"android": "https://dc.lft.to/lastmile_qr_scan", "ios": "https://dc.lft.to/lastmile_qr_scan"}, "name": "7fd4fbfceef55641dc71c96756429107", "type": "electric_scooter", "lat": 38.90434233333333, "is_disabled": 0}, {"fusion_lat": 0.0, "lon": -77.0186795, "is_reserved": 0, "bike_id": "90365e29b96ab1cb2aba28e2ad6a10ed", "fusion_lon": 0.0, "rental_uris": {"android": "https://dc.lft.to/lastmile_qr_scan", "ios": "https://dc.lft.to/lastmile_qr_scan"}, "name": "90365e29b96ab1cb2aba28e2ad6a10ed", "type": "electric_scooter", "lat": 38.97373183333333, "is_disabled": 0}, {"fusion_lat": 0.0, "lon": -76.99143216666667, "is_reserved": 0, "bike_id": "e5b05f7f5a45690509dbddca63f959eb", "fusion_lon": 0.0, "rental_uris": {"android": "https://dc.lft.to/lastmile_qr_scan", "ios": "https://dc.lft.to/lastmile_qr_scan"}, "name": "e5b05f7f5a45690509dbddca63f959eb", "type": "electric_scooter", "lat": 38.885922, "is_disabled": 0}, {"fusion_lat": 0.0, "lon": -77.111484, "is_reserved": 0, "bike_id": "59df0ae1e6c1fc64ac4437a66888a1b1", "fusion_lon": 0.0, "rental_uris": {"android": "https://dc.lft.to/lastmile_qr_scan", "ios": "https://dc.lft.to/lastmile_qr_scan"}, "name": "59df0ae1e6c1fc64ac4437a66888a1b1", "type": "electric_bike", "lat": 38.8552125, "is_disabled": 0}, {"fusion_lat": 0.0, "lon": -76.99529083333333, "is_reserved": 0, "bike_id": "27fa58bde5c7f33e8d8104ae813dcdd9", "fusion_lon": 0.0, "rental_uris": {"android": "https://dc.lft.to/lastmile_qr_scan", "ios": "https://dc.lft.to/lastmile_qr_scan"}, "name": "27fa58bde5c7f33e8d8104ae813dcdd9", "type": "electric_scooter", "lat": 38.883718333333334, "is_disabled": 0}, {"fusion_lat": 0.0, "lon": -77.03145116666667, "is_reserved": 0, "bike_id": "48164e59aa74d75d8ee83c86cb4c132a", "fusion_lon": 0.0, "rental_uris": {"android": "https://dc.lft.to/lastmile_qr_scan", "ios": "https://dc.lft.to/lastmile_qr_scan"}, "name": "48164e59aa74d75d8ee83c86cb4c132a", "type": "electric_scooter", "lat": 38.91910683333333, "is_disabled": 0}, {"fusion_lat": 0.0, "lon": -77.1874055, "is_reserved": 0, "bike_id": "c6eee3e8382cf2ebefdfe6b38a22c76f", "fusion_lon": 0.0, "rental_uris": {"android": "https://dc.lft.to/lastmile_qr_scan", "ios": "https://dc.lft.to/lastmile_qr_scan"}, "name": "c6eee3e8382cf2ebefdfe6b38a22c76f", "type": "electric_bike", "lat": 38.89356383333333, "is_disabled": 0}, {"fusion_lat": 0.0, "lon": -77.17841166666666, "is_reserved": 0, "bike_id": "8929c04a3e7b640ac0780aa41f9e1593", "fusion_lon": 0.0, "rental_uris": {"android": "https://dc.lft.to/lastmile_qr_scan", "ios": "https://dc.lft.to/lastmile_qr_scan"}, "name": "8929c04a3e7b640ac0780aa41f9e1593", "type": "electric_bike", "lat": 39.088551333333335, "is_disabled": 0}, {"fusion_lat": 0.0, "lon": -76.99007183333333, "is_reserved": 0, "bike_id": "2ebd4614f7c6d1fb71ab73ccf0b77ba4", "fusion_lon": 0.0, "rental_uris": {"android": "https://dc.lft.to/lastmile_qr_scan", "ios": "https://dc.lft.to/lastmile_qr_scan"}, "name": "2ebd4614f7c6d1fb71ab73ccf0b77ba4", "type": "electric_scooter", "lat": 38.9039465, "is_disabled": 0}, {"fusion_lat": 0.0, "lon": -77.0434985, "is_reserved": 0, "bike_id": "7a04551c296f18400289e8c4574c888d", "fusion_lon": 0.0, "rental_uris": {"android": "https://dc.lft.to/lastmile_qr_scan", "ios": "https://dc.lft.to/lastmile_qr_scan"}, "name": "7a04551c296f18400289e8c4574c888d", "type": "electric_scooter", "lat": 38.90827616666667, "is_disabled": 0}, {"fusion_lat": 0.0, "lon": -77.02089433333333, "is_reserved": 0, "bike_id": "93a351d10b9e13bb6b38bc2e97377863", "fusion_lon": 0.0, "rental_uris": {"android": "https://dc.lft.to/lastmile_qr_scan", "ios": "https://dc.lft.to/lastmile_qr_scan"}, "name": "93a351d10b9e13bb6b38bc2e97377863", "type": "electric_scooter", "lat": 38.8818665, "is_disabled": 0}, {"fusion_lat": 0.0, "lon": -77.030863, "is_reserved": 0, "bike_id": "2d087eac1326840ef44e5e47f47495ad", "fusion_lon": 0.0, "rental_uris": {"android": "https://dc.lft.to/lastmile_qr_scan", "ios": "https://dc.lft.to/lastmile_qr_scan"}, "name": "2d087eac1326840ef44e5e47f47495ad", "type": "electric_scooter", "lat": 38.9057545, "is_disabled": 0}, {"fusion_lat": 0.0, "lon": -76.984789, "is_reserved": 0, "bike_id": "62f151aa7a01b2a08569246441c91f73", "fusion_lon": 0.0, "rental_uris": {"android": "https://dc.lft.to/lastmile_qr_scan", "ios": "https://dc.lft.to/lastmile_qr_scan"}, "name": "62f151aa7a01b2a08569246441c91f73", "type": "electric_bike", "lat": 38.929035666666664, "is_disabled": 0}, {"fusion_lat": 0.0, "lon": -77.02655283333333, "is_reserved": 0, "bike_id": "2afd8501a205f9181d1849171d7b8323", "fusion_lon": 0.0, "rental_uris": {"android": "https://dc.lft.to/lastmile_qr_scan", "ios": "https://dc.lft.to/lastmile_qr_scan"}, "name": "2afd8501a205f9181d1849171d7b8323", "type": "electric_scooter", "lat": 38.89216833333333, "is_disabled": 0}, {"fusion_lat": 0.0, "lon": -76.95653216666666, "is_reserved": 0, "bike_id": "4c62c92dc26c796c703d466ed281b945", "fusion_lon": 0.0, "rental_uris": {"android": "https://dc.lft.to/lastmile_qr_scan", "ios": "https://dc.lft.to/lastmile_qr_scan"}, "name": "4c62c92dc26c796c703d466ed281b945", "type": "electric_scooter", "lat": 38.895531166666665, "is_disabled": 0}, {"fusion_lat": 0.0, "lon": -77.01192233333333, "is_reserved": 0, "bike_id": "b5106b5006b6ad497be013c4d46bca7c", "fusion_lon": 0.0, "rental_uris": {"android": "https://dc.lft.to/lastmile_qr_scan", "ios": "https://dc.lft.to/lastmile_qr_scan"}, "name": "b5106b5006b6ad497be013c4d46bca7c", "type": "electric_bike", "lat": 38.871018, "is_disabled": 0}, {"fusion_lat": 0.0, "lon": -77.03184416666667, "is_reserved": 0, "bike_id": "bf3f01d699673b101156590628334098", "fusion_lon": 0.0, "rental_uris": {"android": "https://dc.lft.to/lastmile_qr_scan", "ios": "https://dc.lft.to/lastmile_qr_scan"}, "name": "bf3f01d699673b101156590628334098", "type": "electric_scooter", "lat": 38.91782333333333, "is_disabled": 0}, {"fusion_lat": 0.0, "lon": -77.07234666666666, "is_reserved": 0, "bike_id": "cfb9c4f1acd723e44bf2b298e30050e4", "fusion_lon": 0.0, "rental_uris": {"android": "https://dc.lft.to/lastmile_qr_scan", "ios": "https://dc.lft.to/lastmile_qr_scan"}, "name": "cfb9c4f1acd723e44bf2b298e30050e4", "type": "electric_scooter", "lat": 38.940067666666664, "is_disabled": 0}, {"fusion_lat": 0.0, "lon": -77.00362516666667, "is_reserved": 0, "bike_id": "b05322df26d32323d4da27cd55590cd9", "fusion_lon": 0.0, "rental_uris": {"android": "https://dc.lft.to/lastmile_qr_scan", "ios": "https://dc.lft.to/lastmile_qr_scan"}, "name": "b05322df26d32323d4da27cd55590cd9", "type": "electric_scooter", "lat": 38.89730183333333, "is_disabled": 0}, {"fusion_lat": 0.0, "lon": -76.97873716666666, "is_reserved": 0, "bike_id": "3ce4005407b1887d9d0ffd3d884d475a", "fusion_lon": 0.0, "rental_uris": {"android": "https://dc.lft.to/lastmile_qr_scan", "ios": "https://dc.lft.to/lastmile_qr_scan"}, "name": "3ce4005407b1887d9d0ffd3d884d475a", "type": "electric_scooter", "lat": 38.8830075, "is_disabled": 0}, {"fusion_lat": 0.0, "lon": -77.02719366666666, "is_reserved": 0, "bike_id": "834c86b978aff9fdac6ad88e0ec8b628", "fusion_lon": 0.0, "rental_uris": {"android": "https://dc.lft.to/lastmile_qr_scan", "ios": "https://dc.lft.to/lastmile_qr_scan"}, "name": "834c86b978aff9fdac6ad88e0ec8b628", "type": "electric_scooter", "lat": 38.897355166666664, "is_disabled": 0}, {"fusion_lat": 0.0, "lon": -77.02314266666667, "is_reserved": 0, "bike_id": "f17f630904747dee4a4b4769cfc3255b", "fusion_lon": 0.0, "rental_uris": {"android": "https://dc.lft.to/lastmile_qr_scan", "ios": "https://dc.lft.to/lastmile_qr_scan"}, "name": "f17f630904747dee4a4b4769cfc3255b", "type": "electric_scooter", "lat": 38.91762283333333, "is_disabled": 0}, {"fusion_lat": 0.0, "lon": -77.02655033333333, "is_reserved": 0, "bike_id": "ba2a362c5bad18698ed7a9a7ce516d26", "fusion_lon": 0.0, "rental_uris": {"android": "https://dc.lft.to/lastmile_qr_scan", "ios": "https://dc.lft.to/lastmile_qr_scan"}, "name": "ba2a362c5bad18698ed7a9a7ce516d26", "type": "electric_scooter", "lat": 38.97812533333333, "is_disabled": 0}, {"fusion_lat": 0.0, "lon": -76.96774383333333, "is_reserved": 0, "bike_id": "09163f830a97435bb4184ae419375571", "fusion_lon": 0.0, "rental_uris": {"android": "https://dc.lft.to/lastmile_qr_scan", "ios": "https://dc.lft.to/lastmile_qr_scan"}, "name": "09163f830a97435bb4184ae419375571", "type": "electric_scooter", "lat": 38.85922016666667, "is_disabled": 0}, {"fusion_lat": 0.0, "lon": -76.99517916666667, "is_reserved": 0, "bike_id": "68a7b6796b09016d67942d25dec29a30", "fusion_lon": 0.0, "rental_uris": {"android": "https://dc.lft.to/lastmile_qr_scan", "ios": "https://dc.lft.to/lastmile_qr_scan"}, "name": "68a7b6796b09016d67942d25dec29a30", "type": "electric_scooter", "lat": 38.895439333333336, "is_disabled": 0}, {"fusion_lat": 0.0, "lon": -76.98380516666667, "is_reserved": 0, "bike_id": "87c5647b8b2527b06a8a2db6a3baa15e", "fusion_lon": 0.0, "rental_uris": {"android": "https://dc.lft.to/lastmile_qr_scan", "ios": "https://dc.lft.to/lastmile_qr_scan"}, "name": "87c5647b8b2527b06a8a2db6a3baa15e", "type": "electric_scooter", "lat": 38.8612245, "is_disabled": 0}, {"fusion_lat": 0.0, "lon": -76.91602916666666, "is_reserved": 0, "bike_id": "1d5a4f57f58a975a6a32a009dba4dacb", "fusion_lon": 0.0, "rental_uris": {"android": "https://dc.lft.to/lastmile_qr_scan", "ios": "https://dc.lft.to/lastmile_qr_scan"}, "name": "1d5a4f57f58a975a6a32a009dba4dacb", "type": "electric_bike", "lat": 38.8796265, "is_disabled": 0}, {"fusion_lat": 0.0, "lon": -77.01894733333333, "is_reserved": 0, "bike_id": "b2195b1f886a3609dc45c189a27b044a", "fusion_lon": 0.0, "rental_uris": {"android": "https://dc.lft.to/lastmile_qr_scan", "ios": "https://dc.lft.to/lastmile_qr_scan"}, "name": "b2195b1f886a3609dc45c189a27b044a", "type": "electric_scooter", "lat": 38.904519, "is_disabled": 0}, {"fusion_lat": 0.0, "lon": -77.02214366666666, "is_reserved": 0, "bike_id": "b63214f6d919d09fb1a35276269eaef6", "fusion_lon": 0.0, "rental_uris": {"android": "https://dc.lft.to/lastmile_qr_scan", "ios": "https://dc.lft.to/lastmile_qr_scan"}, "name": "b63214f6d919d09fb1a35276269eaef6", "type": "electric_scooter", "lat": 38.902049, "is_disabled": 0}, {"fusion_lat": 0.0, "lon": -77.0489065, "is_reserved": 0, "bike_id": "6f608aa9dd35d40f33515f60a9ea3480", "fusion_lon": 0.0, "rental_uris": {"android": "https://dc.lft.to/lastmile_qr_scan", "ios": "https://dc.lft.to/lastmile_qr_scan"}, "name": "6f608aa9dd35d40f33515f60a9ea3480", "type": "electric_scooter", "lat": 38.901046, "is_disabled": 0}, {"fusion_lat": 0.0, "lon": -77.087748, "is_reserved": 0, "bike_id": "cafc1f550ef634a6aa68f3d69ad99d9f", "fusion_lon": 0.0, "rental_uris": {"android": "https://dc.lft.to/lastmile_qr_scan", "ios": "https://dc.lft.to/lastmile_qr_scan"}, "name": "cafc1f550ef634a6aa68f3d69ad99d9f", "type": "electric_bike", "lat": 38.83897416666667, "is_disabled": 0}, {"fusion_lat": 0.0, "lon": -76.99618333333333, "is_reserved": 0, "bike_id": "31e96e20eab0e8a4ab08124426be6bba", "fusion_lon": 0.0, "rental_uris": {"android": "https://dc.lft.to/lastmile_qr_scan", "ios": "https://dc.lft.to/lastmile_qr_scan"}, "name": "31e96e20eab0e8a4ab08124426be6bba", "type": "electric_scooter", "lat": 38.8855815, "is_disabled": 0}, {"fusion_lat": 0.0, "lon": -77.01982116666667, "is_reserved": 0, "bike_id": "537edf6888977c7d6e0362aabe6296b9", "fusion_lon": 0.0, "rental_uris": {"android": "https://dc.lft.to/lastmile_qr_scan", "ios": "https://dc.lft.to/lastmile_qr_scan"}, "name": "537edf6888977c7d6e0362aabe6296b9", "type": "electric_scooter", "lat": 38.885879, "is_disabled": 0}, {"fusion_lat": 0.0, "lon": -76.98588983333333, "is_reserved": 0, "bike_id": "7bc6565ddbe7a7926e3c4744ca0c1c5e", "fusion_lon": 0.0, "rental_uris": {"android": "https://dc.lft.to/lastmile_qr_scan", "ios": "https://dc.lft.to/lastmile_qr_scan"}, "name": "7bc6565ddbe7a7926e3c4744ca0c1c5e", "type": "electric_scooter", "lat": 38.906475, "is_disabled": 0}, {"fusion_lat": 0.0, "lon": -76.97710416666666, "is_reserved": 0, "bike_id": "61cb5a418774b51556e807ad1a302619", "fusion_lon": 0.0, "rental_uris": {"android": "https://dc.lft.to/lastmile_qr_scan", "ios": "https://dc.lft.to/lastmile_qr_scan"}, "name": "61cb5a418774b51556e807ad1a302619", "type": "electric_scooter", "lat": 38.88775116666667, "is_disabled": 0}, {"fusion_lat": 0.0, "lon": -77.03281916666667, "is_reserved": 0, "bike_id": "54e0df750fde84cdfa87e55257c195ee", "fusion_lon": 0.0, "rental_uris": {"android": "https://dc.lft.to/lastmile_qr_scan", "ios": "https://dc.lft.to/lastmile_qr_scan"}, "name": "54e0df750fde84cdfa87e55257c195ee", "type": "electric_scooter", "lat": 38.928484166666664, "is_disabled": 0},