{"data": {"bikes": [{"fusion_lat": 0.0, "name": "6b68ae26f633748a9933c77a1740b97b", "is_disabled": 0, "rental_uris": {"android": "https://dc.lft.to/lastmile_qr_scan", "ios": "https://dc.lft.to/lastmile_qr_scan"}, "fusion_lon": 0.0, "lat": 38.920738666666665, "bike_id": "6b68ae26f633748a9933c77a1740b97b", "type": "electric_scooter", "is_reserved": 0, "lon": -77.004431}, {"fusion_lat": 0.0, "name": "a71e8d85118cd529fa9b4bc8670e1e90", "is_disabled": 0, "rental_uris": {"android": "https://dc.lft.to/lastmile_qr_scan", "ios": "https://dc.lft.to/lastmile_qr_scan"}, "fusion_lon": 0.0, "lat": 38.91603383333333, "bike_id": "a71e8d85118cd529fa9b4bc8670e1e90", "type": "electric_scooter", "is_reserved": 0, "lon": -77.03644666666666}, {"fusion_lat": 0.0, "name": "8de041c7eda9b7dee516d6ccaa4350ca", "is_disabled": 0, "rental_uris": {"android": "https://dc.lft.to/lastmile_qr_scan", "ios": "https://dc.lft.to/lastmile_qr_scan"}, "fusion_lon": 0.0, "lat": 38.936508333333336, "bike_id": "8de041c7eda9b7dee516d6ccaa4350ca", "type": "electric_scooter", "is_reserved": 0, "lon": -77.03687483333333}, {"fusion_lat": 0.0, "name": "723de15ca0f0d82a4ce3aabbd7fe9910", "is_disabled": 0, "rental_uris": {"android": "https://dc.lft.to/lastmile_qr_scan", "ios": "https://dc.lft.to/lastmile_qr_scan"}, "fusion_lon": 0.0, "lat": 38.87479316666666, "bike_id": "723de15ca0f0d82a4ce3aabbd7fe9910", "type": "electric_scooter", "is_reserved": 0, "lon": -77.00050216666666}, {"fusion_lat": 0.0, "name": "45f26110ca668253978bee70f16cf3f8", "is_disabled": 0, "rental_uris": {"android": "https://dc.lft.to/lastmile_qr_scan", "ios": "https://dc.lft.to/lastmile_qr_scan"}, "fusion_lon": 0.0, "lat": 38.903721166666664, "bike_id": "45f26110ca668253978bee70f16cf3f8", "type": "electric_scooter", "is_reserved": 0, "lon": -77.04606066666666}, {"fusion_lat": 0.0, "name": "03e454ed3311e431d4fa2f8dad2d23f6", "is_disabled": 0, "rental_uris": {"android": "https://dc.lft.to/lastmile_qr_scan", "ios": "https://dc.lft.to/lastmile_qr_scan"}, "fusion_lon": 0.0, "lat": 38.9048045, "bike_id": "03e454ed3311e431d4fa2f8dad2d23f6", "type": "electric_scooter", "is_reserved": 0, "lon": -77.04069666666666}, {"fusion_lat": 0.0, "name": "390cba3c6aacb32813b31aa78edea779", "is_disabled": 0, "rental_uris": {"android": "https://dc.lft.to/lastmile_qr_scan", "ios": "https://dc.lft.to/lastmile_qr_scan"}, "fusion_lon": 0.0, "lat": 38.9662755, "bike_id": "390cba3c6aacb32813b31aa78edea779", "type": "electric_scooter", "is_reserved": 0, "lon": -77.01994883333333}, {"fusion_lat": 0.0, "name": "65dd72416bd0191faaaaee275406d4ee", "is_disabled": 0, "rental_uris": {"android": "https://dc.lft.to/lastmile_qr_scan", "ios": "https://dc.lft.to/lastmile_qr_scan"}, "fusion_lon": 0.0, "lat": 38.93379, "bike_id": "65dd72416bd0191faaaaee275406d4ee", "type": "electric_scooter", "is_reserved": 0, "lon": -77.03887866666666}, {"fusion_lat": 0.0, "name": "aac1d0da0a13ca3c06d6022137161692", "is_disabled": 0, "rental_uris": {"android": "https://dc.lft.to/lastmile_qr_scan", "ios": "https://dc.lft.to/lastmile_qr_scan"}, "fusion_lon": 0.0, "lat": 38.896939833333334, "bike_id": "aac1d0da0a13ca3c06d6022137161692", "type": "electric_scooter", "is_reserved": 0, "lon": -77.04330483333334}, {"fusion_lat": 0.0, "name": "99f76da0a79e48e7b4fb555bc08291d5", "is_disabled": 0, "rental_uris": {"android": "https://dc.lft.to/lastmile_qr_scan", "ios": "https://dc.lft.to/lastmile_qr_scan"}, "fusion_lon": 0.0, "lat": 38.881151333333335, "bike_id": "99f76da0a79e48e7b4fb555bc08291d5", "type": "electric_scooter", "is_reserved": 0, "lon": -77.0167435}, {"fusion_lat": 0.0, "name": "82a9881704653aaa9a9de742a8695492", "is_disabled": 0, "rental_uris": {"android": "https://dc.lft.to/lastmile_qr_scan", "ios": "https://dc.lft.to/lastmile_qr_scan"}, "fusion_lon": 0.0, "lat": 38.87848133333333, "bike_id": "82a9881704653aaa9a9de742a8695492", "type": "electric_bike", "is_reserved": 0, "lon": -77.03017033333333}, {"fusion_lat": 0.0, "name": "c98015b40a69fe31c21206391b5656ae", "is_disabled": 0, "rental_uris": {"android": "https://dc.lft.to/lastmile_qr_scan", "ios": "https://dc.lft.to/lastmile_qr_scan"}, "fusion_lon": 0.0, "lat": 38.900265166666664, "bike_id": "c98015b40a69fe31c21206391b5656ae", "type": "electric_scooter", "is_reserved": 0, "lon": -76.9885625}, {"fusion_lat": 0.0, "name": "3ad49749d901cc8d007cbcd69889ff1a", "is_disabled": 0, "rental_uris": {"android": "https://dc.lft.to/lastmile_qr_scan", "ios": "https://dc.lft.to/lastmile_qr_scan"}, "fusion_lon": 0.0, "lat": 38.90067416666667, "bike_id": "3ad49749d901cc8d007cbcd69889ff1a", "type": "electric_scooter", "is_reserved": 0, "lon": -76.98693366666667}, {"fusion_lat": 0.0, "name": "56c9ea85ad9784a6cc6c6c83c869a9d5", "is_disabled": 0, "rental_uris": {"android": "https://dc.lft.to/lastmile_qr_scan", "ios": "https://dc.lft.to/lastmile_qr_scan"}, "fusion_lon": 0.0, "lat": 38.90817116666667, "bike_id": "56c9ea85ad9784a6cc6c6c83c869a9d5", "type": "electric_bike", "is_reserved": 0, "lon": -77.0022975}, {"fusion_lat": 0.0, "name": "cb50e606d108ee2498014f0d437640fe", "is_disabled": 0, "rental_uris": {"android": "https://dc.lft.to/lastmile_qr_scan", "ios": "https://dc.lft.to/lastmile_qr_scan"}, "fusion_lon": 0.0, "lat": 38.885002666666665, "bike_id": "cb50e606d108ee2498014f0d437640fe", "type": "electric_scooter", "is_reserved": 0, "lon": -76.99749966666667}, {"fusion_lat": 0.0, "name": "5900c8650e9f252996503e17f1908d7b", "is_disabled": 0, "rental_uris": {"android": "https://dc.lft.to/lastmile_qr_scan", "ios": "https://dc.lft.to/lastmile_qr_scan"}, "fusion_lon": 0.0, "lat": 38.902385333333335, "bike_id": "5900c8650e9f252996503e17f1908d7b", "type": "electric_scooter", "is_reserved": 0, "lon": -77.02387383333334}, {"fusion_lat": 0.0, "name": "6091b580f712fed64f45feb67979c6ea", "is_disabled": 0, "rental_uris": {"android": "https://dc.lft.to/lastmile_qr_scan", "ios": "https://dc.lft.to/lastmile_qr_scan"}, "fusion_lon": 0.0, "lat": 38.90854233333334, "bike_id": "6091b580f712fed64f45feb67979c6ea", "type": "electric_scooter", "is_reserved": 0, "lon": -77.04739133333334}, {"fusion_lat": 0.0, "name": "e625551541939a7c7567fdb66f120900", "is_disabled": 0, "rental_uris": {"android": "https://dc.lft.to/lastmile_qr_scan", "ios": "https://dc.lft.to/lastmile_qr_scan"}, "fusion_lon": 0.0, "lat": 38.917212666666664, "bike_id": "e625551541939a7c7567fdb66f120900", "type": "electric_scooter", "is_reserved": 0, "lon": -77.02810316666667}, {"fusion_lat": 0.0, "name": "1d578704e926598a894265b5d4dbe0e8", "is_disabled": 0, "rental_uris": {"android": "https://dc.lft.to/lastmile_qr_scan", "ios": "https://dc.lft.to/lastmile_qr_scan"}, "fusion_lon": 0.0, "lat": 38.89561233333333, "bike_id": "1d578704e926598a894265b5d4dbe0e8", "type": "electric_scooter", "is_reserved": 0, "lon": -76.994304}, {"fusion_lat": 0.0, "name": "91c3bef44e1d143f8703d33462c6bdab", "is_disabled": 0, "rental_uris": {"android": "https://dc.lft.to/lastmile_qr_scan", "ios": "https://dc.lft.to/lastmile_qr_scan"}, "fusion_lon": 0.0, "lat": 39.014147666666666, "bike_id": "91c3bef44e1d143f8703d33462c6bdab", "type": "electric_bike", "is_reserved": 0, "lon": -77.04497933333333}, {"fusion_lat": 0.0, "name": "90f579f97ac49948d591c9ac950fee90", "is_disabled": 0, "rental_uris": {"android": "https://dc.lft.to/lastmile_qr_scan", "ios": "https://dc.lft.to/lastmile_qr_scan"}, "fusion_lon": 0.0, "lat": 38.92157533333334, "bike_id": "90f579f97ac49948d591c9ac950fee90", "type": "electric_scooter", "is_reserved": 0, "lon": -77.02086683333333}, {"fusion_lat": 0.0, "name": "776ea23d627f0c01d6a64d23eec110a8", "is_disabled": 0, "rental_uris": {"android": "https://dc.lft.to/lastmile_qr_scan", "ios": "https://dc.lft.to/lastmile_qr_scan"}, "fusion_lon": 0.0, "lat": 38.911171, "bike_id": "776ea23d627f0c01d6a64d23eec110a8", "type": "electric_scooter", "is_reserved": 0, "lon": -76.99770583333333}, {"fusion_lat": 0.0, "name": "676c19681c2644795e3f8684645861fe", "is_disabled": 0, "rental_uris": {"android": "https://dc.lft.to/lastmile_qr_scan", "ios": "https://dc.lft.to/lastmile_qr_scan"}, "fusion_lon": 0.0, "lat": 38.92280933333333, "bike_id": "676c19681c2644795e3f8684645861fe", "type": "electric_scooter", "is_reserved": 0, "lon": -77.03659916666666}, {"fusion_lat": 0.0, "name": "614fc65681773b64b4ebfb0934c07f64", "is_disabled": 0, "rental_uris": {"android": "https://dc.lft.to/lastmile_qr_scan", "ios": "https://dc.lft.to/lastmile_qr_scan"}, "fusion_lon": 0.0, "lat": 38.884918666666664, "bike_id": "614fc65681773b64b4ebfb0934c07f64", "type": "electric_scooter", "is_reserved": 0, "lon": -77.01084366666667}, {"fusion_lat": 0.0, "name": "3efc6946fe0f309956ad0d29f84a883e", "is_disabled": 0, "rental_uris": {"android": "https://dc.lft.to/lastmile_qr_scan", "ios": "https://dc.lft.to/lastmile_qr_scan"}, "fusion_lon": 0.0, "lat": 38.9051975, "bike_id": "3efc6946fe0f309956ad0d29f84a883e", "type": "electric_scooter", "is_reserved": 0, "lon": -77.06784833333333}, {"fusion_lat": 0.0, "name": "37d0ab5bcb724c322aeeb08efb5b2a4f", "is_disabled": 0, "rental_uris": {"android": "https://dc.lft.to/lastmile_qr_scan", "ios": "https://dc.lft.to/lastmile_qr_scan"}, "fusion_lon": 0.0, "lat": 38.91604366666667, "bike_id": "37d0ab5bcb724c322aeeb08efb5b2a4f", "type": "electric_scooter", "is_reserved": 0, "lon": -77.01118866666667}, {"fusion_lat": 0.0, "name": "89b7d3ad9e5acc9118d2007e59283c7e", "is_disabled": 0, "rental_uris": {"android": "https://dc.lft.to/lastmile_qr_scan", "ios": "https://dc.lft.to/lastmile_qr_scan"}, "fusion_lon": 0.0, "lat": 38.888471, "bike_id": "89b7d3ad9e5acc9118d2007e59283c7e", "type": "electric_scooter", "is_reserved": 0, "lon": -76.926814}, {"fusion_lat": 0.0, "name": "ac13d22aa0891720587e0f6235a049c6", "is_disabled": 0, "rental_uris": {"android": "https://dc.lft.to/lastmile_qr_scan", "ios": "https://dc.lft.to/lastmile_qr_scan"}, "fusion_lon": 0.0, "lat": 38.921362333333335, "bike_id": "ac13d22aa0891720587e0f6235a049c6", "type": "electric_scooter", "is_reserved": 0, "lon": -77.0457675}, {"fusion_lat": 0.0, "name": "23bb9bf91b93969528695729b0fbf7e7", "is_disabled": 0, "rental_uris": {"android": "https://dc.lft.to/lastmile_qr_scan", "ios": "https://dc.lft.to/lastmile_qr_scan"}, "fusion_lon": 0.0, "lat": 38.91307533333333, "bike_id": "23bb9bf91b93969528695729b0fbf7e7", "type": "electric_scooter", "is_reserved": 0, "lon": -77.02132933333333}, {"fusion_lat": 0.0, "name": "fb285ec2babe05e7f1555693712be7d8", "is_disabled": 0, "rental_uris": {"android": "https://dc.lft.to/lastmile_qr_scan", "ios": "https://dc.lft.to/lastmile_qr_scan"}, "fusion_lon": 0.0, "lat": 38.91125066666667, "bike_id": "fb285ec2babe05e7f1555693712be7d8", "type": "electric_scooter", "is_reserved": 0, "lon": -77.02197683333333}, {"fusion_lat": 0.0, "name": "aba1f497d86be13348321839ac0439a3", "is_disabled": 0, "rental_uris": {"android": "https://dc.lft.to/lastmile_qr_scan", "ios": "https://dc.lft.to/lastmile_qr_scan"}, "fusion_lon": 0.0, "lat": 38.8972755, "bike_id": "aba1f497d86be13348321839ac0439a3", "type": "electric_scooter", "is_reserved": 0, "lon": -77.02252866666667}, {"fusion_lat": 0.0, "name": "be100cfcf826c7a1353e91823db18012", "is_disabled": 0, "rental_uris": {"android": "https://dc.lft.to/lastmile_qr_scan", "ios": "https://dc.lft.to/lastmile_qr_scan"}, "fusion_lon": 0.0, "lat": 38.90552516666666, "bike_id": "be100cfcf826c7a1353e91823db18012", "type": "electric_scooter", "is_reserved": 0, "lon": -77.00500316666667}, {"fusion_lat": 0.0, "name": "add5954208488d7a6f8a632886a06f72", "is_disabled": 0, "rental_uris": {"android": "https://dc.lft.to/lastmile_qr_scan", "ios": "https://dc.lft.to/lastmile_qr_scan"}, "fusion_lon": 0.0, "lat": 38.9389905, "bike_id": "add5954208488d7a6f8a632886a06f72", "type": "electric_scooter", "is_reserved": 0, "lon": -77.03262616666666}, {"fusion_lat": 0.0, "name": "0f7584000eea51ee9e8fe80f6ae4edbe", "is_disabled": 0, "rental_uris": {"android": "https://dc.lft.to/lastmile_qr_scan", "ios": "https://dc.lft.to/lastmile_qr_scan"}, "fusion_lon": 0.0, "lat": 38.92849116666667, "bike_id": "0f7584000eea51ee9e8fe80f6ae4edbe", "type": "electric_scooter", "is_reserved": 0, "lon": -77.03637683333334}, {"fusion_lat": 0.0, "name": "35b09e3a850e957c11ad667a8abdda55", "is_disabled": 0, "rental_uris": {"android": "https://dc.lft.to/lastmile_qr_scan", "ios": "https://dc.lft.to/lastmile_qr_scan"}, "fusion_lon": 0.0, "lat": 38.89218316666667, "bike_id": "35b09e3a850e957c11ad667a8abdda55", "type": "electric_scooter", "is_reserved": 0, "lon": -77.03219016666667}, {"fusion_lat": 0.0, "name": "4e32856116e68111f96b6fecce7d331e", "is_disabled": 0, "rental_uris": {"android": "https://dc.lft.to/lastmile_qr_scan", "ios": "https://dc.lft.to/lastmile_qr_scan"}, "fusion_lon": 0.0, "lat": 38.90083683333334, "bike_id": "4e32856116e68111f96b6fecce7d331e", "type": "electric_scooter", "is_reserved": 0, "lon": -77.04961066666667}, {"fusion_lat": 0.0, "name": "52240b5ae5ea833c4b36e28257f13b4d", "is_disabled": 0, "rental_uris": {"android": "https://dc.lft.to/lastmile_qr_scan", "ios": "https://dc.lft.to/lastmile_qr_scan"}, "fusion_lon": 0.0, "lat": 38.92467216666667, "bike_id": "52240b5ae5ea833c4b36e28257f13b4d", "type": "electric_scooter", "is_reserved": 0, "lon": -77.020728}, {"fusion_lat": 0.0, "name": "61c2d97b6ae4388f8a0779e2be2e1a03", "is_disabled": 0, "rental_uris": {"android": "https://dc.lft.to/lastmile_qr_scan", "ios": "https://dc.lft.to/lastmile_qr_scan"}, "fusion_lon": 0.0, "lat": 38.92071033333333, "bike_id": "61c2d97b6ae4388f8a0779e2be2e1a03", "type": "electric_scooter", "is_reserved": 0, "lon": -77.02413866666667}, {"fusion_lat": 0.0, "name": "9731d1bfcaef23b66f67f0a3b4cf92b3", "is_disabled": 0, "rental_uris": {"android": "https://dc.lft.to/lastmile_qr_scan", "ios": "https://dc.lft.to/lastmile_qr_scan"}, "fusion_lon": 0.0, "lat": 38.907316333333334, "bike_id": "9731d1bfcaef23b66f67f0a3b4cf92b3", "type": "electric_scooter", "is_reserved": 0, "lon": -77.047591}, {"fusion_lat": 0.0, "name": "e36f78f4756e460b14d3fa328a03c0a1", "is_disabled": 0, "rental_uris": {"android": "https://dc.lft.to/lastmile_qr_scan", "ios": "https://dc.lft.to/lastmile_qr_scan"}, "fusion_lon": 0.0, "lat": 38.898742166666665, "bike_id": "e36f78f4756e460b14d3fa328a03c0a1", "type": "electric_scooter", "is_reserved": 0, "lon": -76.93183016666667}, {"fusion_lat": 0.0, "name": "d3806fc3312a5692b12d6aca2717e624", "is_disabled": 0, "rental_uris": {"android": "https://dc.lft.to/lastmile_qr_scan", "ios": "https://dc.lft.to/lastmile_qr_scan"}, "fusion_lon": 0.0, "lat": 38.9068395, "bike_id": "d3806fc3312a5692b12d6aca2717e624", "type": "electric_scooter", "is_reserved": 0, "lon": -77.021767}, {"fusion_lat": 0.0, "name": "451fa10f22ea303cd88595178e3c1ae8", "is_disabled": 0, "rental_uris": {"android": "https://dc.lft.to/lastmile_qr_scan", "ios": "https://dc.lft.to/lastmile_qr_scan"}, "fusion_lon": 0.0, "lat": 38.8919305, "bike_id": "451fa10f22ea303cd88595178e3c1ae8", "type": "electric_scooter", "is_reserved": 0, "lon": -77.02229383333334}, {"fusion_lat": 0.0, "name": "f22e55cf77ec9ad2789c090bd76afe17", "is_disabled": 0, "rental_uris": {"android": "https://dc.lft.to/lastmile_qr_scan", "ios": "https://dc.lft.to/lastmile_qr_scan"}, "fusion_lon": 0.0, "lat": 38.928561333333334, "bike_id": "f22e55cf77ec9ad2789c090bd76afe17", "type": "electric_scooter", "is_reserved": 0, "lon": -77.034944}, {"fusion_lat": 0.0, "name": "a5fe18dba8830d1b5cb0533adc7cec36", "is_disabled": 0, "rental_uris": {"android": "https://dc.lft.to/lastmile_qr_scan", "ios": "https://dc.lft.to/lastmile_qr_scan"}, "fusion_lon": 0.0, "lat": 38.89990233333333, "bike_id": "a5fe18dba8830d1b5cb0533adc7cec36", "type": "electric_scooter", "is_reserved": 0, "lon": -77.05499933333333}, {"fusion_lat": 0.0, "name": "e4e61e0d0d9e4dd52bc792a57a96b582", "is_disabled": 0, "rental_uris": {"android": "https://dc.lft.to/lastmile_qr_scan", "ios": "https://dc.lft.to/lastmile_qr_scan"}, "fusion_lon": 0.0, "lat": 38.914830333333335, "bike_id": "e4e61e0d0d9e4dd52bc792a57a96b582", "type": "electric_scooter", "is_reserved": 0, "lon": -77.04279983333333}, {"fusion_lat": 0.0, "name": "4cf078721dd38a8bcfc4c31b364679f4", "is_disabled": 0, "rental_uris": {"android": "https://dc.lft.to/lastmile_qr_scan", "ios": "https://dc.lft.to/lastmile_qr_scan"}, "fusion_lon": 0.0, "lat": 38.90261666666667, "bike_id": "4cf078721dd38a8bcfc4c31b364679f4", "type": "electric_bike", "is_reserved": 0, "lon": -77.003281}, {"fusion_lat": 0.0, "name": "e12bcc705110a07f7fad773e3a9c7c91", "is_disabled": 0, "rental_uris": {"android": "https://dc.lft.to/lastmile_qr_scan", "ios": "https://dc.lft.to/lastmile_qr_scan"}, "fusion_lon": 0.0, "lat": 39.03592316666667, "bike_id": "e12bcc705110a07f7fad773e3a9c7c91", "type": "electric_bike", "is_reserved": 0, "lon": -77.055492}, {"fusion_lat": 0.0, "name": "987a494d6ac608af40a2836626e1c4db", "is_disabled": 0, "rental_uris": {"android": "https://dc.lft.to/lastmile_qr_scan", "ios": "https://dc.lft.to/lastmile_qr_scan"}, "fusion_lon": 0.0, "lat": 38.91033933333333, "bike_id": "987a494d6ac608af40a2836626e1c4db", "type": "electric_scooter", "is_reserved": 0, "lon": -77.03831516666666}, {"fusion_lat": 0.0, "name": "b9917da656984a8a525c8a6c00c27f9b", "is_disabled": 0, "rental_uris": {"android": "https://dc.lft.to/lastmile_qr_scan", "ios": "https://dc.lft.to/lastmile_qr_scan"}, "fusion_lon": 0.0, "lat": 38.92361233333333, "bike_id": "b9917da656984a8a525c8a6c00c27f9b", "type": "electric_scooter", "is_reserved": 0, "lon": -77.04323633333334}, {"fusion_lat": 0.0, "name": "a019f814194740b6f9b265f63fef61ae", "is_disabled": 0, "rental_uris": {"android": "https://dc.lft.to/lastmile_qr_scan", "ios": "https://dc.lft.to/lastmile_qr_scan"}, "fusion_lon": 0.0, "lat": 38.92651033333333, "bike_id": "a019f814194740b6f9b265f63fef61ae", "type": "electric_scooter", "is_reserved": 0, "lon": -77.03860066666667}, {"fusion_lat": 0.0, "name": "718746588f8edff09d59b8e09d8a7fe6", "is_disabled": 0, "rental_uris": {"android": "https://dc.lft.to/lastmile_qr_scan", "ios": "https://dc.lft.to/lastmile_qr_scan"}, "fusion_lon": 0.0, "lat": 38.91019266666667, "bike_id": "718746588f8edff09d59b8e09d8a7fe6", "type": "electric_scooter", "is_reserved": 0, "lon": -77.03344216666666}, {"fusion_lat": 0.0, "name": "5bb868f50237bb33263d820f39f18d60", "is_disabled": 0, "rental_uris": {"android": "https://dc.lft.to/lastmile_qr_scan", "ios": "https://dc.lft.to/lastmile_qr_scan"}, "fusion_lon": 0.0, "lat": 38.891932, "bike_id": "5bb868f50237bb33263d820f39f18d60", "type": "electric_scooter", "is_reserved": 0, "lon": -77.02227433333333}, {"fusion_lat": 0.0, "name": "896cd3ecf30f94d36405acdd52fc28b3", "is_disabled": 0, "rental_uris": {"android": "https://dc.lft.to/lastmile_qr_scan", "ios": "https://dc.lft.to/lastmile_qr_scan"}, "fusion_lon": 0.0, "lat": 38.91641283333333, "bike_id": "896cd3ecf30f94d36405acdd52fc28b3", "type": "electric_scooter", "is_reserved": 0, "lon": -77.047974}, {"fusion_lat": 0.0, "name": "054bb6e2b2933c5f362995a3e4ca23a2", "is_disabled": 0, "rental_uris": {"android": "https://dc.lft.to/lastmile_qr_scan", "ios": "https://dc.lft.to/lastmile_qr_scan"}, "fusion_lon": 0.0, "lat": 38.92073833333333, "bike_id": "054bb6e2b2933c5f362995a3e4ca23a2", "type": "electric_scooter", "is_reserved": 0, "lon": -77.023047}, {"fusion_lat": 0.0, "name": "4e6b3311f0e08ef821fcff7aa818cdf2", "is_disabled": 0, "rental_uris": {"android": "https://dc.lft.to/lastmile_qr_scan", "ios": "https://dc.lft.to/lastmile_qr_scan"}, "fusion_lon": 0.0, "lat": 38.92573216666667, "bike_id": "4e6b3311f0e08ef821fcff7aa818cdf2", "type": "electric_scooter", "is_reserved": 0, "lon": -76.994914}, {"fusion_lat": 0.0, "name": "c9d23539629f5d37d8244914be745be9", "is_disabled": 0, "rental_uris": {"android": "https://dc.lft.to/lastmile_qr_scan", "ios": "https://dc.lft.to/lastmile_qr_scan"}, "fusion_lon": 0.0, "lat": 38.875762, "bike_id": "c9d23539629f5d37d8244914be745be9", "type": "electric_bike", "is_reserved": 0, "lon": -77.2340795}, {"fusion_lat": 0.0, "name": "4d4d821df6efaee59b327c04ccc0436f", "is_disabled": 0, "rental_uris": {"android": "https://dc.lft.to/lastmile_qr_scan", "ios": "https://dc.lft.to/lastmile_qr_scan"}, "fusion_lon": 0.0, "lat": 38.887346666666666, "bike_id": "4d4d821df6efaee59b327c04ccc0436f", "type": "electric_scooter", "is_reserved": 0, "lon": -76.99492166666667}, {"fusion_lat": 0.0, "name": "67d0b20dcb049aa8a5a44adb2af1e991", "is_disabled": 0, "rental_uris": {"android": "https://dc.lft.to/lastmile_qr_scan", "ios": "https://dc.lft.to/lastmile_qr_scan"}, "fusion_lon": 0.0, "lat": 38.8990465, "bike_id": "67d0b20dcb049aa8a5a44adb2af1e991", "type": "electric_scooter", "is_reserved": 0, "lon": -76.93353016666667}, {"fusion_lat": 0.0, "name": "64fb36240c423aaacc49e5f37b47d67b", "is_disabled": 0, "rental_uris": {"android": "https://dc.lft.to/lastmile_qr_scan", "ios": "https://dc.lft.to/lastmile_qr_scan"}, "fusion_lon": 0.0, "lat": 38.885223, "bike_id": "64fb36240c423aaacc49e5f37b47d67b", "type": "electric_scooter", "is_reserved": 0, "lon": -76.92919833333333}, {"fusion_lat": 0.0, "name": "526834f78c998f133eae6f7a19923391", "is_disabled": 0, "rental_uris": {"android": "https://dc.lft.to/lastmile_qr_scan", "ios": "https://dc.lft.to/lastmile_qr_scan"}, "fusion_lon": 0.0, "lat": 38.89322, "bike_id": "526834f78c998f133eae6f7a19923391", "type": "electric_scooter", "is_reserved": 0, "lon": -77.03958066666667}, {"fusion_lat": 0.0, "name": "111614417055bd3000571da6b9e667c6", "is_disabled": 0, "rental_uris": {"android": "https://dc.lft.to/lastmile_qr_scan", "ios": "https://dc.lft.to/lastmile_qr_scan"}, "fusion_lon": 0.0, "lat": 38.919136, "bike_id": "111614417055bd3000571da6b9e667c6", "type": "electric_scooter", "is_reserved": 0, "lon": -77.00141466666666}, {"fusion_lat": 0.0, "name": "2c9ac52da16f745bc78433a48f7181ba", "is_disabled": 0, "rental_uris": {"android": "https://dc.lft.to/lastmile_qr_scan", "ios": "https://dc.lft.to/lastmile_qr_scan"}, "fusion_lon": 0.0, "lat": 38.8999625, "bike_id": "2c9ac52da16f745bc78433a48f7181ba", "type": "electric_scooter", "is_reserved": 0, "lon": -77.01621816666666}, {"fusion_lat": 0.0, "name": "7b6c1611a101c90f8d7825ee8d3880a7", "is_disabled": 0, "rental_uris": {"android": "https://dc.lft.to/lastmile_qr_scan", "ios": "https://dc.lft.to/lastmile_qr_scan"}, "fusion_lon": 0.0, "lat": 38.93088916666667, "bike_id": "7b6c1611a101c90f8d7825ee8d3880a7", "type": "electric_scooter", "is_reserved": 0, "lon": -77.02551383333333}, {"fusion_lat": 0.0, "name": "d6cbd81c26c6baf487aefe725c0dcc9e", "is_disabled": 0, "rental_uris": {"android": "https://dc.lft.to/lastmile_qr_scan", "ios": "https://dc.lft.to/lastmile_qr_scan"}, "fusion_lon": 0.0, "lat": 38.96311633333333, "bike_id": "d6cbd81c26c6baf487aefe725c0dcc9e", "type": "electric_scooter", "is_reserved": 0, "lon": -77.0749505}, {"fusion_lat": 0.0, "name": "4f3c74fed736538c2c47f12059703803", "is_disabled": 0, "rental_uris": {"android": "https://dc.lft.to/lastmile_qr_scan", "ios": "https://dc.lft.to/lastmile_qr_scan"}, "fusion_lon": 0.0, "lat": 38.93530833333333, "bike_id": "4f3c74fed736538c2c47f12059703803", "type": "electric_scooter", "is_reserved": 0, "lon": -77.023529}, {"fusion_lat": 0.0, "name": "ec9d879e184e587cdb241b11d269ba0c", "is_disabled": 0, "rental_uris": {"android": "https://dc.lft.to/lastmile_qr_scan", "ios": "https://dc.lft.to/lastmile_qr_scan"}, "fusion_lon": 0.0, "lat": 38.91832433333333, "bike_id": "ec9d879e184e587cdb241b11d269ba0c", "type": "electric_scooter", "is_reserved": 0, "lon": -77.02433216666667}, {"fusion_lat": 0.0, "name": "75a3a652b4e28c3d95a60a95f2d7a710", "is_disabled": 0, "rental_uris": {"android": "https://dc.lft.to/lastmile_qr_scan", "ios": "https://dc.lft.to/lastmile_qr_scan"}, "fusion_lon": 0.0, "lat": 38.899090666666666, "bike_id": "75a3a652b4e28c3d95a60a95f2d7a710", "type": "electric_scooter", "is_reserved": 0, "lon": -76.945882}, {"fusion_lat": 0.0, "name": "b0bcb4b3e0c5f4d5976e240c6447652e", "is_disabled": 0, "rental_uris": {"android": "https://dc.lft.to/lastmile_qr_scan", "ios": "https://dc.lft.to/lastmile_qr_scan"}, "fusion_lon": 0.0, "lat": 38.89345683333333, "bike_id": "b0bcb4b3e0c5f4d5976e240c6447652e", "type": "electric_scooter", "is_reserved": 0, "lon": -76.99380966666666}, {"fusion_lat": 0.0, "name": "7b278dca0927693c4db3314f23248da4", "is_disabled": 0, "rental_uris": {"android": "https://dc.lft.to/lastmile_qr_scan", "ios": "https://dc.lft.to/lastmile_qr_scan"}, "fusion_lon": 0.0, "lat": 38.865127333333334, "bike_id": "7b278dca0927693c4db3314f23248da4", "type": "electric_bike", "is_reserved": 0, "lon": -76.97326216666667}, {"fusion_lat": 0.0, "name": "0276ba9a017c6cc830eddd2a84fcc63d", "is_disabled": 0, "rental_uris": {"android": "https://dc.lft.to/lastmile_qr_scan", "ios": "https://dc.lft.to/lastmile_qr_scan"}, "fusion_lon": 0.0, "lat": 38.926508166666665, "bike_id": "0276ba9a017c6cc830eddd2a84fcc63d", "type": "electric_scooter", "is_reserved": 0, "lon": -77.03717483333334}, {"fusion_lat": 0.0, "name": "204e2c6ca5ba576f9de5f08fff9b9737", "is_disabled": 0, "rental_uris": {"android": "https://dc.lft.to/lastmile_qr_scan", "ios": "https://dc.lft.to/lastmile_qr_scan"}, "fusion_lon": 0.0, "lat": 38.876840666666666, "bike_id": "204e2c6ca5ba576f9de5f08fff9b9737", "type": "electric_scooter", "is_reserved": 0, "lon": -77.01755883333334}, {"fusion_lat": 0.0, "name": "f1ba3d59b9f44306652a7314057e984e", "is_disabled": 0, "rental_uris": {"android": "https://dc.lft.to/lastmile_qr_scan", "ios": "https://dc.lft.to/lastmile_qr_scan"}, "fusion_lon": 0.0, "lat": 38.9335735, "bike_id": "f1ba3d59b9f44306652a7314057e984e", "type": "electric_scooter", "is_reserved": 0, "lon": -77.03260633333333}, {"fusion_lat": 0.0, "name": "253064085620700100168aaf12bd29a3", "is_disabled": 0, "rental_uris": {"android": "https://dc.lft.to/lastmile_qr_scan", "ios": "https://dc.lft.to/lastmile_qr_scan"}, "fusion_lon": 0.0, "lat": 38.92351816666667, "bike_id": "253064085620700100168aaf12bd29a3", "type": "electric_scooter", "is_reserved": 0, "lon": -77.025414}, {"fusion_lat": 0.0, "name": "f0b6b1c2799f6de87dd6fe1097b11a2c", "is_disabled": 0, "rental_uris": {"android": "https://dc.lft.to/lastmile_qr_scan", "ios": "https://dc.lft.to/lastmile_qr_scan"}, "fusion_lon": 0.0, "lat": 38.9035685, "bike_id": "f0b6b1c2799f6de87dd6fe1097b11a2c", "type": "electric_scooter", "is_reserved": 0, "lon": -77.06263133333333}, {"fusion_lat": 0.0, "name": "7d3e417cada5b3d430e5715b95eb81c2", "is_disabled": 0, "rental_uris": {"android": "https://dc.lft.to/lastmile_qr_scan", "ios": "https://dc.lft.to/lastmile_qr_scan"}, "fusion_lon": 0.0, "lat": 38.849091, "bike_id": "7d3e417cada5b3d430e5715b95eb81c2", "type": "electric_bike", "is_reserved": 0, "lon": -77.09978083333333}, {"fusion_lat": 0.0, "name": "665748f1e398bf4a646261d95812cc8b", "is_disabled": 0, "rental_uris": {"android": "https://dc.lft.to/lastmile_qr_scan", "ios": "https://dc.lft.to/lastmile_qr_scan"}, "fusion_lon": 0.0, "lat": 38.928647, "bike_id": "665748f1e398bf4a646261d95812cc8b", "type": "electric_scooter", "is_reserved": 0, "lon": -77.0347615}, {"fusion_lat": 0.0, "name": "1d0979e771197819391bf944e6effb5c", "is_disabled": 0, "rental_uris": {"android": "https://dc.lft.to/lastmile_qr_scan", "ios": "https://dc.lft.to/lastmile_qr_scan"}, "fusion_lon": 0.0, "lat": 38.91405833333334, "bike_id": "1d0979e771197819391bf944e6effb5c", "type": "electric_scooter", "is_reserved": 0, "lon": -77.031403}, {"fusion_lat": 0.0, "name": "eebe173af428b1d7101f72535f51ffc1", "is_disabled": 0, "rental_uris": {"android": "https://dc.lft.to/lastmile_qr_scan", "ios": "https://dc.lft.to/lastmile_qr_scan"}, "fusion_lon": 0.0, "lat": 38.93876983333333, "bike_id": "eebe173af428b1d7101f72535f51ffc1", "type": "electric_scooter", "is_reserved": 0, "lon": -77.0246265}, {"fusion_lat": 0.0, "name": "726f868e4a87a29ce90af09fa297c9f5", "is_disabled": 0, "rental_uris": {"android": "https://dc.lft.to/lastmile_qr_scan", "ios": "https://dc.lft.to/lastmile_qr_scan"}, "fusion_lon": 0.0, "lat": 38.992119833333334, "bike_id": "726f868e4a87a29ce90af09fa297c9f5", "type": "electric_bike", "is_reserved": 0, "lon": -76.9444045}, {"fusion_lat": 0.0, "name": "3aee16a368797fb8c6e366b7cbac97b0", "is_disabled": 0, "rental_uris": {"android": "https://dc.lft.to/lastmile_qr_scan", "ios": "https://dc.lft.to/lastmile_qr_scan"}, "fusion_lon": 0.0, "lat": 38.93013333333333, "bike_id": "3aee16a368797fb8c6e366b7cbac97b0", "type": "electric_scooter", "is_reserved": 0, "lon": -77.03789583333334}, {"fusion_lat": 0.0, "name": "70c2b077f8822f2ad1a04b3a2bae1e13", "is_disabled": 0, "rental_uris": {"android": "https://dc.lft.to/lastmile_qr_scan", "ios": "https://dc.lft.to/lastmile_qr_scan"}, "fusion_lon": 0.0, "lat": 38.91708083333333, "bike_id": "70c2b077f8822f2ad1a04b3a2bae1e13", "type": "electric_scooter", "is_reserved": 0, "lon": -77.03219816666666}, {"fusion_lat": 0.0, "name": "1a2f6ffa8c546e1d406e15325dddfd2e", "is_disabled": 0, "rental_uris": {"android": "https://dc.lft.to/lastmile_qr_scan", "ios": "https://dc.lft.to/lastmile_qr_scan"}, "fusion_lon": 0.0, "lat": 38.91529166666667, "bike_id": "1a2f6ffa8c546e1d406e15325dddfd2e", "type": "electric_scooter", "is_reserved": 0, "lon": -77.01330416666667}, {"fusion_lat": 0.0, "name": "5f33afa0511cfe0dd2bda213766d3d98", "is_disabled": 0, "rental_uris": {"android": "https://dc.lft.to/lastmile_qr_scan", "ios": "https://dc.lft.to/lastmile_qr_scan"}, "fusion_lon": 0.0, "lat": 38.885057833333335, "bike_id": "5f33afa0511cfe0dd2bda213766d3d98", "type": "electric_scooter", "is_reserved": 0, "lon": -77.00064566666667}, {"fusion_lat": 0.0, "name": "676b6129fbd1422018fe40354c967470", "is_disabled": 0, "rental_uris": {"android": "https://dc.lft.to/lastmile_qr_scan", "ios": "https://dc.lft.to/lastmile_qr_scan"}, "fusion_lon": 0.0, "lat": 38.92413783333333, "bike_id": "676b6129fbd1422018fe40354c967470", "type": "electric_bike", "is_reserved": 0, "lon": -77.050458}, {"fusion_lat": 0.0, "name": "716ebf8262550ec6b5bfc4ee65d353f5", "is_disabled": 0, "rental_uris": {"android": "https://dc.lft.to/lastmile_qr_scan", "ios": "https://dc.lft.to/lastmile_qr_scan"}, "fusion_lon": 0.0, "lat": 38.935286, "bike_id": "716ebf8262550ec6b5bfc4ee65d353f5", "type": "electric_scooter", "is_reserved": 0, "lon": -77.02346116666666}, {"fusion_lat": 0.0, "name": "7183fb9240550098841e54c44dc72030", "is_disabled": 0, "rental_uris": {"android": "https://dc.lft.to/lastmile_qr_scan", "ios": "https://dc.lft.to/lastmile_qr_scan"}, "fusion_lon": 0.0, "lat": 38.95313766666666, "bike_id": "7183fb9240550098841e54c44dc72030", "type": "electric_scooter", "is_reserved": 0, "lon": -77.0225245}, {"fusion_lat": 0.0, "name": "938f6213f73f4a93cc369014f145ac48", "is_disabled": 0, "rental_uris": {"android": "https://dc.lft.to/lastmile_qr_scan", "ios": "https://dc.lft.to/lastmile_qr_scan"}, "fusion_lon": 0.0, "lat": 38.92734816666667, "bike_id": "938f6213f73f4a93cc369014f145ac48", "type": "electric_bike", "is_reserved": 0, "lon": -77.02495033333334}, {"fusion_lat": 0.0, "name": "17dbe9bb37c7c1572b37d84daa2686e2", "is_disabled": 0, "rental_uris": {"android": "https://dc.lft.to/lastmile_qr_scan", "ios": "https://dc.lft.to/lastmile_qr_scan"}, "fusion_lon": 0.0, "lat": 38.92116083333333, "bike_id": "17dbe9bb37c7c1572b37d84daa2686e2", "type": "electric_scooter", "is_reserved": 0, "lon": -77.02077783333333}, {"fusion_lat": 0.0, "name": "1492c19033912e57ed9122b3ff9a755d", "is_disabled": 0, "rental_uris": {"android": "https://dc.lft.to/lastmile_qr_scan", "ios": "https://dc.lft.to/lastmile_qr_scan"}, "fusion_lon": 0.0, "lat": 38.894849666666666, "bike_id": "1492c19033912e57ed9122b3ff9a755d", "type": "electric_scooter", "is_reserved": 0, "lon": -77.01123616666666}, {"fusion_lat": 0.0, "name": "3432249f5ce73547ab90977326619300", "is_disabled": 0, "rental_uris": {"android": "https://dc.lft.to/lastmile_qr_scan", "ios": "https://dc.lft.to/lastmile_qr_scan"}, "fusion_lon": 0.0, "lat": 38.9167215, "bike_id": "3432249f5ce73547ab90977326619300", "type": "electric_scooter", "is_reserved": 0, "lon": -77.0271885}, {"fusion_lat": 0.0, "name": "54cb58b8f3ed4a87a1434d8a0d58f819", "is_disabled": 0, "rental_uris": {"android": "https://dc.lft.to/lastmile_qr_scan", "ios": "https://dc.lft.to/lastmile_qr_scan"}, "fusion_lon": 0.0, "lat": 38.930409166666664, "bike_id": "54cb58b8f3ed4a87a1434d8a0d58f819", "type": "electric_scooter", "is_reserved": 0, "lon": -77.0335255}, {"fusion_lat": 0.0, "name": "d78a490e62fc4fba985883af7de354e1", "is_disabled": 0, "rental_uris": {"android": "https://dc.lft.to/lastmile_qr_scan", "ios": "https://dc.lft.to/lastmile_qr_scan"}, "fusion_lon": 0.0, "lat": 38.85796233333333, "bike_id": "d78a490e62fc4fba985883af7de354e1", "type": "electric_bike", "is_reserved": 0, "lon": -77.12013566666667}, {"fusion_lat": 0.0, "name": "9664ef05b4304c8b4f715001e8fc1812", "is_disabled": 0, "rental_uris": {"android": "https://dc.lft.to/lastmile_qr_scan", "ios": "https://dc.lft.to/lastmile_qr_scan"}, "fusion_lon": 0.0, "lat": 38.894812333333334, "bike_id": "9664ef05b4304c8b4f715001e8fc1812", "type": "electric_scooter", "is_reserved": 0, "lon": -77.02654266666667}, {"fusion_lat": 0.0, "name": "41b7728bc9ebbcd42b2a3240f973e798", "is_disabled": 0, "rental_uris": {"android": "https://dc.lft.to/lastmile_qr_scan", "ios": "https://dc.lft.to/lastmile_qr_scan"}, "fusion_lon": 0.0, "lat": 38.902397, "bike_id": "41b7728bc9ebbcd42b2a3240f973e798", "type": "electric_scooter", "is_reserved": 0, "lon": -77.0192825}, {"fusion_lat": 0.0, "name": "c5dd90341cc3c980b04969f5c85ecb1d", "is_disabled": 0, "rental_uris": {"android": "https://dc.lft.to/lastmile_qr_scan", "ios": "https://dc.lft.to/lastmile_qr_scan"}, "fusion_lon": 0.0, "lat": 38.935597, "bike_id": "c5dd90341cc3c980b04969f5c85ecb1d", "type": "electric_scooter", "is_reserved": 0, "lon": -77.03481}, {"fusion_lat": 0.0, "name": "d12120c1712071d1f2d2a8578d878f86", "is_disabled": 0, "rental_uris": {"android": "https://dc.lft.to/lastmile_qr_scan", "ios": "https://dc.lft.to/lastmile_qr_scan"}, "fusion_lon": 0.0, "lat": 38.86257833333333, "bike_id": "d12120c1712071d1f2d2a8578d878f86", "type": "electric_bike", "is_reserved": 0, "lon": -76.9835635}, {"fusion_lat": 0.0, "name": "0160fd7f2ad85ca3a961e530383b863a", "is_disabled": 0, "rental_uris": {"android": "https://dc.lft.to/lastmile_qr_scan", "ios": "https://dc.lft.to/lastmile_qr_scan"}, "fusion_lon": 0.0, "lat": 38.930621333333335, "bike_id": "0160fd7f2ad85ca3a961e530383b863a", "type": "electric_scooter", "is_reserved": 0, "lon": -77.0297165}, {"fusion_lat": 0.0, "name": "934a5881c6cc4d82f78e56b5a87329f6", "is_disabled": 0, "rental_uris": {"android": "https://dc.lft.to/lastmile_qr_scan", "ios": "https://dc.lft.to/lastmile_qr_scan"}, "fusion_lon": 0.0, "lat": 38.9002505, "bike_id": "934a5881c6cc4d82f78e56b5a87329f6", "type": "electric_scooter", "is_reserved": 0, "lon": -77.00209066666666}, {"fusion_lat": 0.0, "name": "58c91ad06240554406eb29280e1718fe", "is_disabled": 0, "rental_uris": {"android": "https://dc.lft.to/lastmile_qr_scan", "ios": "https://dc.lft.to/lastmile_qr_scan"}, "fusion_lon": 0.0, "lat": 38.9259595, "bike_id": "58c91ad06240554406eb29280e1718fe", "type": "electric_scooter", "is_reserved": 0, "lon": -77.03398583333333}, {"fusion_lat": 0.0, "name": "23e01c6bed3dd7388d817d76a785a4c8", "is_disabled": 0, "rental_uris": {"android": "https://dc.lft.to/lastmile_qr_scan", "ios": "https://dc.lft.to/lastmile_qr_scan"}, "fusion_lon": 0.0, "lat": 38.89694033333333, "bike_id": "23e01c6bed3dd7388d817d76a785a4c8", "type": "electric_scooter", "is_reserved": 0, "lon": -77.051562}, {"fusion_lat": 0.0, "name": "864a0d9ea01361e426fb285246795702", "is_disabled": 0, "rental_uris": {"android": "https://dc.lft.to/lastmile_qr_scan", "ios": "https://dc.lft.to/lastmile_qr_scan"}, "fusion_lon": 0.0, "lat": 38.80448116666667, "bike_id": "864a0d9ea01361e426fb285246795702", "type": "electric_bike", "is_reserved": 0, "lon": -77.0538885}, {"fusion_lat": 0.0, "name": "e6eb361929713152c526bec1035bab9f", "is_disabled": 0, "rental_uris": {"android": "https://dc.lft.to/lastmile_qr_scan", "ios": "https://dc.lft.to/lastmile_qr_scan"}, "fusion_lon": 0.0, "lat": 38.86645083333333, "bike_id": "e6eb361929713152c526bec1035bab9f", "type": "electric_scooter", "is_reserved": 0, "lon": -77.0107285}, {"fusion_lat": 0.0, "name": "08f8901c01e22b4d61b2058eaf6d1af5", "is_disabled": 0, "rental_uris": {"android": "https://dc.lft.to/lastmile_qr_scan", "ios": "https://dc.lft.to/lastmile_qr_scan"}, "fusion_lon": 0.0, "lat": 38.89364283333333, "bike_id": "08f8901c01e22b4d61b2058eaf6d1af5", "type": "electric_scooter", "is_reserved": 0, "lon": -77.02253533333334}, {"fusion_lat": 0.0, "name": "f3df6ad891c458d177d6b184c1a43f64", "is_disabled": 0, "rental_uris": {"android": "https://dc.lft.to/lastmile_qr_scan", "ios": "https://dc.lft.to/lastmile_qr_scan"}, "fusion_lon": 0.0, "lat": 38.87742733333333, "bike_id": "f3df6ad891c458d177d6b184c1a43f64", "type": "electric_scooter", "is_reserved": 0, "lon": -77.00341216666666}, {"fusion_lat": 0.0, "name": "03325b3c74c10a7df19029303fca3a8a", "is_disabled": 0, "rental_uris": {"android": "https://dc.lft.to/lastmile_qr_scan", "ios": "https://dc.lft.to/lastmile_qr_scan"}, "fusion_lon": 0.0, "lat": 38.903149166666665, "bike_id": "03325b3c74c10a7df19029303fca3a8a", "type": "electric_scooter", "is_reserved": 0, "lon": -77.01203516666666}, {"fusion_lat": 0.0, "name": "492a32cbcec55a61a52eb17242ffa863", "is_disabled": 0, "rental_uris": {"android": "https://dc.lft.to/lastmile_qr_scan", "ios": "https://dc.lft.to/lastmile_qr_scan"}, "fusion_lon": 0.0, "lat": 38.9247485, "bike_id": "492a32cbcec55a61a52eb17242ffa863", "type": "electric_scooter", "is_reserved": 0, "lon": -77.0390645}, {"fusion_lat": 0.0, "name": "0a8e214274be8b0b5bb67eb6afff2b69", "is_disabled": 0, "rental_uris": {"android": "https://dc.lft.to/lastmile_qr_scan", "ios": "https://dc.lft.to/lastmile_qr_scan"}, "fusion_lon": 0.0, "lat": 38.923102, "bike_id": "0a8e214274be8b0b5bb67eb6afff2b69", "type": "electric_scooter", "is_reserved": 0, "lon": -77.03911316666667}, {"fusion_lat": 0.0, "name": "7c54538782bebae761fb738b7e54e01c", "is_disabled": 0, "rental_uris": {"android": "https://dc.lft.to/lastmile_qr_scan", "ios": "https://dc.lft.to/lastmile_qr_scan"}, "fusion_lon": 0.0, "lat": 38.909371166666666, "bike_id": "7c54538782bebae761fb738b7e54e01c", "type": "electric_scooter", "is_reserved": 0, "lon": -77.02187133333334}, {"fusion_lat": 0.0, "name": "215de6e856a09af54f26ec7ab7b2573e", "is_disabled": 0, "rental_uris": {"android": "https://dc.lft.to/lastmile_qr_scan", "ios": "https://dc.lft.to/lastmile_qr_scan"}, "fusion_lon": 0.0, "lat": 38.90712216666667, "bike_id": "215de6e856a09af54f26ec7ab7b2573e", "type": "electric_scooter", "is_reserved": 0, "lon": -77.051349}, {"fusion_lat": 0.0, "name": "c67ecbc62ab4a508163e56d95200427d", "is_disabled": 0, "rental_uris": {"android": "https://dc.lft.to/lastmile_qr_scan", "ios": "https://dc.lft.to/lastmile_qr_scan"}, "fusion_lon": 0.0, "lat": 38.91846916666667, "bike_id": "c67ecbc62ab4a508163e56d95200427d", "type": "electric_scooter", "is_reserved": 0, "lon": -77.03204866666667}, {"fusion_lat": 0.0, "name": "694547eebd6597477461d6668320405d", "is_disabled": 0, "rental_uris": {"android": "https://dc.lft.to/lastmile_qr_scan", "ios": "https://dc.lft.to/lastmile_qr_scan"}, "fusion_lon": 0.0, "lat": 38.892186, "bike_id": "694547eebd6597477461d6668320405d", "type": "electric_scooter", "is_reserved": 0, "lon": -77.03218}, {"fusion_lat": 0.0, "name": "7b1fb1244f1bafd6a52d770ca4678be9", "is_disabled": 0, "rental_uris": {"android": "https://dc.lft.to/lastmile_qr_scan", "ios": "https://dc.lft.to/lastmile_qr_scan"}, "fusion_lon": 0.0, "lat": 38.9160235, "bike_id": "7b1fb1244f1bafd6a52d770ca4678be9", "type": "electric_scooter", "is_reserved": 0, "lon": -77.04603583333333}, {"fusion_lat": 0.0, "name": "9526488978182ca619d6227bd063c1c9", "is_disabled": 0, "rental_uris": {"android": "https://dc.lft.to/lastmile_qr_scan", "ios": "https://dc.lft.to/lastmile_qr_scan"}, "fusion_lon": 0.0, "lat": 38.877461833333335, "bike_id": "9526488978182ca619d6227bd063c1c9", "type": "electric_scooter", "is_reserved": 0, "lon": -77.0142665}, {"fusion_lat": 0.0, "name": "055a6133d4d59dc3ce7fc433813f18eb", "is_disabled": 0, "rental_uris": {"android": "https://dc.lft.to/lastmile_qr_scan", "ios": "https://dc.lft.to/lastmile_qr_scan"}, "fusion_lon": 0.0, "lat": 38.916335833333335, "bike_id": "055a6133d4d59dc3ce7fc433813f18eb", "type": "electric_scooter", "is_reserved": 0, "lon": -77.04568666666667}, {"fusion_lat": 0.0, "name": "80e1e910b5d2b37bee70f7117d90ce8b", "is_disabled": 0, "rental_uris": {"android": "https://dc.lft.to/lastmile_qr_scan", "ios": "https://dc.lft.to/lastmile_qr_scan"}, "fusion_lon": 0.0, "lat": 38.9006365, "bike_id": "80e1e910b5d2b37bee70f7117d90ce8b", "type": "electric_scooter", "is_reserved": 0, "lon": -76.92742516666667}, {"fusion_lat": 0.0, "name": "3f206a3be95daa6a7b8aa6d402ce6b54", "is_disabled": 0, "rental_uris": {"android": "https://dc.lft.to/lastmile_qr_scan", "ios": "https://dc.lft.to/lastmile_qr_scan"}, "fusion_lon": 0.0, "lat": 38.922582, "bike_id": "3f206a3be95daa6a7b8aa6d402ce6b54", "type": "electric_scooter", "is_reserved": 0, "lon": -77.03655683333334}, {"fusion_lat": 0.0, "name": "a54b998139c6be8fefbee4fc2145579e", "is_disabled": 0, "rental_uris": {"android": "https://dc.lft.to/lastmile_qr_scan", "ios": "https://dc.lft.to/lastmile_qr_scan"}, "fusion_lon": 0.0, "lat": 38.89547316666667, "bike_id": "a54b998139c6be8fefbee4fc2145579e", "type": "electric_scooter", "is_reserved": 0, "lon": -76.9494905}, {"fusion_lat": 0.0, "name": "b9700d3b7466f80d6664d6ffcdf1494e", "is_disabled": 0, "rental_uris": {"android": "https://dc.lft.to/lastmile_qr_scan", "ios": "https://dc.lft.to/lastmile_qr_scan"}, "fusion_lon": 0.0, "lat": 38.884386666666664, "bike_id": "b9700d3b7466f80d6664d6ffcdf1494e", "type": "electric_scooter", "is_reserved": 0, "lon": -77.00348883333334}, {"fusion_lat": 0.0, "name": "3853a50496550e52ec23ea655a0bed6b", "is_disabled": 0, "rental_uris": {"android": "https://dc.lft.to/lastmile_qr_scan", "ios": "https://dc.lft.to/lastmile_qr_scan"}, "fusion_lon": 0.0, "lat": 38.902402333333335, "bike_id": "3853a50496550e52ec23ea655a0bed6b", "type": "electric_scooter", "is_reserved": 0, "lon": -77.01851666666667}, {"fusion_lat": 0.0, "name": "f5e74c22275eba46ecae16f555ad371d", "is_disabled": 0, "rental_uris": {"android": "https://dc.lft.to/lastmile_qr_scan", "ios": "https://dc.lft.to/lastmile_qr_scan"}, "fusion_lon": 0.0, "lat": 38.9185695, "bike_id": "f5e74c22275eba46ecae16f555ad371d", "type": "electric_scooter", "is_reserved": 0, "lon": -77.04583516666666}, {"fusion_lat": 0.0, "name": "83447818bf3823ace51b91e360156a13", "is_disabled": 0, "rental_uris": {"android": "https://dc.lft.to/lastmile_qr_scan", "ios": "https://dc.lft.to/lastmile_qr_scan"}, "fusion_lon": 0.0, "lat": 38.898521333333335, "bike_id": "83447818bf3823ace51b91e360156a13", "type": "electric_scooter", "is_reserved": 0, "lon": -77.02719266666666}, {"fusion_lat": 0.0, "name": "9d67172d29eaf283c6be834ae15cf232", "is_disabled": 0, "rental_uris": {"android": "https://dc.lft.to/lastmile_qr_scan", "ios": "https://dc.lft.to/lastmile_qr_scan"}, "fusion_lon": 0.0, "lat": 38.9205065, "bike_id": "9d67172d29eaf283c6be834ae15cf232", "type": "electric_scooter", "is_reserved": 0, "lon": -77.02354883333334}, {"fusion_lat": 0.0, "name": "f827e135c8c7fe3f9aeef90f14bdaf76", "is_disabled": 0, "rental_uris": {"android": "https://dc.lft.to/lastmile_qr_scan", "ios": "https://dc.lft.to/lastmile_qr_scan"}, "fusion_lon": 0.0, "lat": 38.8613545, "bike_id": "f827e135c8c7fe3f9aeef90f14bdaf76", "type": "electric_bike", "is_reserved": 0, "lon": -76.9716685}, {"fusion_lat": 0.0, "name": "3f0aee42c91c915b0bcc2f5ff258e5a6", "is_disabled": 0, "rental_uris": {"android": "https://dc.lft.to/lastmile_qr_scan", "ios": "https://dc.lft.to/lastmile_qr_scan"}, "fusion_lon": 0.0, "lat": 38.90740983333333, "bike_id": "3f0aee42c91c915b0bcc2f5ff258e5a6", "type": "electric_scooter", "is_reserved": 0, "lon": -76.99967916666667}, {"fusion_lat": 0.0, "name": "ad5acde21f704d286dc68a685d82d35a", "is_disabled": 0, "rental_uris": {"android": "https://dc.lft.to/lastmile_qr_scan", "ios": "https://dc.lft.to/lastmile_qr_scan"}, "fusion_lon": 0.0, "lat": 38.91172233333333, "bike_id": "ad5acde21f704d286dc68a685d82d35a", "type": "electric_scooter", "is_reserved": 0, "lon": -77.06864266666666}, {"fusion_lat": 0.0, "name": "e889984a2eee27e5f8ac96b3baa969d4", "is_disabled": 0, "rental_uris": {"android": "https://dc.lft.to/lastmile_qr_scan", "ios": "https://dc.lft.to/lastmile_qr_scan"}, "fusion_lon": 0.0, "lat": 38.89245566666666, "bike_id": "e889984a2eee27e5f8ac96b3baa969d4", "type": "electric_scooter", "is_reserved": 0, "lon": -77.03958416666667}, {"fusion_lat": 0.0, "name": "7ed95c64b947420aeb8d9e5092b6a382", "is_disabled": 0, "rental_uris": {"android": "https://dc.lft.to/lastmile_qr_scan", "ios": "https://dc.lft.to/lastmile_qr_scan"}, "fusion_lon": 0.0, "lat": 38.942228166666666, "bike_id": "7ed95c64b947420aeb8d9e5092b6a382", "type": "electric_scooter", "is_reserved": 0, "lon": -77.0141125}, {"fusion_lat": 0.0, "name": "3a9a474013aec2be8a1618cefacdfca1", "is_disabled": 0, "rental_uris": {"android": "https://dc.lft.to/lastmile_qr_scan", "ios": "https://dc.lft.to/lastmile_qr_scan"}, "fusion_lon": 0.0, "lat": 38.9345815, "bike_id": "3a9a474013aec2be8a1618cefacdfca1", "type": "electric_scooter", "is_reserved": 0, "lon": -77.02249066666667}, {"fusion_lat": 0.0, "name": "aa96a2e095a199a60b185aafea64fc8c", "is_disabled": 0, "rental_uris": {"android": "https://dc.lft.to/lastmile_qr_scan", "ios": "https://dc.lft.to/lastmile_qr_scan"}, "fusion_lon": 0.0, "lat": 38.904542166666666, "bike_id": "aa96a2e095a199a60b185aafea64fc8c", "type": "electric_scooter", "is_reserved": 0, "lon": -76.98261683333334}, {"fusion_lat": 0.0, "name": "2b96df00ad1e3f45bb640769680d273c", "is_disabled": 0, "rental_uris": {"android": "https://dc.lft.to/lastmile_qr_scan", "ios": "https://dc.lft.to/lastmile_qr_scan"}, "fusion_lon": 0.0, "lat": 38.9269545, "bike_id": "2b96df00ad1e3f45bb640769680d273c", "type": "electric_scooter", "is_reserved": 0, "lon": -77.02130683333333}, {"fusion_lat": 0.0, "name": "a11fa1e957bb5cd5291d7deca9fd229f", "is_disabled": 0, "rental_uris": {"android": "https://dc.lft.to/lastmile_qr_scan", "ios": "https://dc.lft.to/lastmile_qr_scan"}, "fusion_lon": 0.0, "lat": 38.893048666666665, "bike_id": "a11fa1e957bb5cd5291d7deca9fd229f", "type": "electric_scooter", "is_reserved": 0, "lon": -77.05587066666666}, {"fusion_lat": 0.0, "name": "5c72702f962ce3ea16d235fda19c963b", "is_disabled": 0, "rental_uris": {"android": "https://dc.lft.to/lastmile_qr_scan", "ios": "https://dc.lft.to/lastmile_qr_scan"}, "fusion_lon": 0.0, "lat": 38.94978733333333, "bike_id": "5c72702f962ce3ea16d235fda19c963b", "type": "electric_scooter", "is_reserved": 0, "lon": -77.02696033333334}, {"fusion_lat": 0.0, "name": "cc451695d4e0019387bcffa210ffbcc2", "is_disabled": 0, "rental_uris": {"android": "https://dc.lft.to/lastmile_qr_scan", "ios": "https://dc.lft.to/lastmile_qr_scan"}, "fusion_lon": 0.0, "lat": 38.90241783333333, "bike_id": "cc451695d4e0019387bcffa210ffbcc2", "type": "electric_scooter", "is_reserved": 0, "lon": -77.0077115}, {"fusion_lat": 0.0, "name": "cff6c192e9234a5b7358ce83ae2115ee", "is_disabled": 0, "rental_uris": {"android": "https://dc.lft.to/lastmile_qr_scan", "ios": "https://dc.lft.to/lastmile_qr_scan"}, "fusion_lon": 0.0, "lat": 38.89702616666667, "bike_id": "cff6c192e9234a5b7358ce83ae2115ee", "type": "electric_scooter", "is_reserved": 0, "lon": -77.02684433333333}, {"fusion_lat": 0.0, "name": "9326be4a8c39b449ff924aa692b6e827", "is_disabled": 0, "rental_uris": {"android": "https://dc.lft.to/lastmile_qr_scan", "ios": "https://dc.lft.to/lastmile_qr_scan"}, "fusion_lon": 0.0, "lat": 38.93350266666667, "bike_id": "9326be4a8c39b449ff924aa692b6e827", "type": "electric_scooter", "is_reserved": 0, "lon": -77.0241315}, {"fusion_lat": 0.0, "name": "6a471c7def90ab0c48cd8968358834ab", "is_disabled": 0, "rental_uris": {"android": "https://dc.lft.to/lastmile_qr_scan", "ios": "https://dc.lft.to/lastmile_qr_scan"}, "fusion_lon": 0.0, "lat": 38.935198166666666, "bike_id": "6a471c7def90ab0c48cd8968358834ab", "type": "electric_scooter", "is_reserved": 0, "lon": -77.07261083333333}, {"fusion_lat": 0.0, "name": "cff9e7b8222ab69fb5ac75dc2f90fbf1", "is_disabled": 0, "rental_uris": {"android": "https://dc.lft.to/lastmile_qr_scan", "ios": "https://dc.lft.to/lastmile_qr_scan"}, "fusion_lon": 0.0, "lat": 39.052506666666666, "bike_id": "cff9e7b8222ab69fb5ac75dc2f90fbf1", "type": "electric_bike", "is_reserved": 0, "lon": -77.08062916666667}, {"fusion_lat": 0.0, "name": "e96eed0d812fbe464c375303b8550fb6", "is_disabled": 0, "rental_uris": {"android": "https://dc.lft.to/lastmile_qr_scan", "ios": "https://dc.lft.to/lastmile_qr_scan"}, "fusion_lon": 0.0, "lat": 38.898505, "bike_id": "e96eed0d812fbe464c375303b8550fb6", "type": "electric_scooter", "is_reserved": 0, "lon": -76.99031866666667}, {"fusion_lat": 0.0, "name": "df1702f51ca7da868494782bdb786914", "is_disabled": 0, "rental_uris": {"android": "https://dc.lft.to/lastmile_qr_scan", "ios": "https://dc.lft.to/lastmile_qr_scan"}, "fusion_lon": 0.0, "lat": 38.883475, "bike_id": "df1702f51ca7da868494782bdb786914", "type": "electric_scooter", "is_reserved": 0, "lon": -77.01765033333334}, {"fusion_lat": 0.0, "name": "bdb12317102c3215c24f30504cbf284c", "is_disabled": 0, "rental_uris": {"android": "https://dc.lft.to/lastmile_qr_scan", "ios": "https://dc.lft.to/lastmile_qr_scan"}, "fusion_lon": 0.0, "lat": 38.84755416666667, "bike_id": "bdb12317102c3215c24f30504cbf284c", "type": "electric_scooter", "is_reserved": 0, "lon": -76.9949975}, {"fusion_lat": 0.0, "name": "57d74aca2e68a10672735f44a5121d43", "is_disabled": 0, "rental_uris": {"android": "https://dc.lft.to/lastmile_qr_scan", "ios": "https://dc.lft.to/lastmile_qr_scan"}, "fusion_lon": 0.0, "lat": 38.918104, "bike_id": "57d74aca2e68a10672735f44a5121d43", "type": "electric_scooter", "is_reserved": 0, "lon": -77.03722783333333}, {"fusion_lat": 0.0, "name": "b8cff56c12560d0eb8e01456e2593638", "is_disabled": 0, "rental_uris": {"android": "https://dc.lft.to/lastmile_qr_scan", "ios": "https://dc.lft.to/lastmile_qr_scan"}, "fusion_lon": 0.0, "lat": 38.898746, "bike_id": "b8cff56c12560d0eb8e01456e2593638", "type": "electric_scooter", "is_reserved": 0, "lon": -76.93185}, {"fusion_lat": 0.0, "name": "51917ffb40771a1b806ce5c0aa788c07", "is_disabled": 0, "rental_uris": {"android": "https://dc.lft.to/lastmile_qr_scan", "ios": "https://dc.lft.to/lastmile_qr_scan"}, "fusion_lon": 0.0, "lat": 38.924015, "bike_id": "51917ffb40771a1b806ce5c0aa788c07", "type": "electric_scooter", "is_reserved": 0, "lon": -77.04278566666666}, {"fusion_lat": 0.0, "name": "84960dab3917a9bf63d4fc14cd54a6a8", "is_disabled": 0, "rental_uris": {"android": "https://dc.lft.to/lastmile_qr_scan", "ios": "https://dc.lft.to/lastmile_qr_scan"}, "fusion_lon": 0.0, "lat": 38.988253, "bike_id": "84960dab3917a9bf63d4fc14cd54a6a8", "type": "electric_bike", "is_reserved": 0, "lon": -77.0265335}, {"fusion_lat": 0.0, "name": "4bd272ed12b3b718405470bb5438e97f", "is_disabled": 0, "rental_uris": {"android": "https://dc.lft.to/lastmile_qr_scan", "ios": "https://dc.lft.to/lastmile_qr_scan"}, "fusion_lon": 0.0, "lat": 38.90767866666667, "bike_id": "4bd272ed12b3b718405470bb5438e97f", "type": "electric_scooter", "is_reserved": 0, "lon": -77.06228016666667}, {"fusion_lat": 0.0, "name": "71ced1932bcf73b4374cbe3253e31bbe", "is_disabled": 0, "rental_uris": {"android": "https://dc.lft.to/lastmile_qr_scan", "ios": "https://dc.lft.to/lastmile_qr_scan"}, "fusion_lon": 0.0, "lat": 38.930585, "bike_id": "71ced1932bcf73b4374cbe3253e31bbe", "type": "electric_scooter", "is_reserved": 0, "lon": -77.03941416666666}, {"fusion_lat": 0.0, "name": "cd969f1b042ac85145a0b41dd932756d", "is_disabled": 0, "rental_uris": {"android": "https://dc.lft.to/lastmile_qr_scan", "ios": "https://dc.lft.to/lastmile_qr_scan"}, "fusion_lon": 0.0, "lat": 38.916156666666666, "bike_id": "cd969f1b042ac85145a0b41dd932756d", "type": "electric_scooter", "is_reserved": 0, "lon": -77.03854566666666}, {"fusion_lat": 0.0, "name": "7ecbedf8f9ff0e3a9cf9d889ef93ea53", "is_disabled": 0, "rental_uris": {"android": "https://dc.lft.to/lastmile_qr_scan", "ios": "https://dc.lft.to/lastmile_qr_scan"}, "fusion_lon": 0.0, "lat": 38.89605516666666, "bike_id": "7ecbedf8f9ff0e3a9cf9d889ef93ea53", "type": "electric_scooter", "is_reserved": 0, "lon": -77.02287583333333}, {"fusion_lat": 0.0, "name": "3b7bb70476be7aebb0490a11f1e05165", "is_disabled": 0, "rental_uris": {"android": "https://dc.lft.to/lastmile_qr_scan", "ios": "https://dc.lft.to/lastmile_qr_scan"}, "fusion_lon": 0.0, "lat": 38.9491715, "bike_id": "3b7bb70476be7aebb0490a11f1e05165", "type": "electric_scooter", "is_reserved": 0, "lon": -77.01848833333334}, {"fusion_lat": 0.0, "name": "a79c6713932675986a055d787f24ed42", "is_disabled": 0, "rental_uris": {"android": "https://dc.lft.to/lastmile_qr_scan", "ios": "https://dc.lft.to/lastmile_qr_scan"}, "fusion_lon": 0.0, "lat": 38.918136833333335, "bike_id": "a79c6713932675986a055d787f24ed42", "type": "electric_scooter", "is_reserved": 0, "lon": -77.024863}, {"fusion_lat": 0.0, "name": "880b339399b982888a25907759a195d4", "is_disabled": 0, "rental_uris": {"android": "https://dc.lft.to/lastmile_qr_scan", "ios": "https://dc.lft.to/lastmile_qr_scan"}, "fusion_lon": 0.0, "lat": 38.87831583333333, "bike_id": "880b339399b982888a25907759a195d4", "type": "electric_scooter", "is_reserved": 0, "lon": -77.00445716666667}, {"fusion_lat": 0.0, "name": "9e6291c0069ab6dd6ee7c110918c8901", "is_disabled": 0, "rental_uris": {"android": "https://dc.lft.to/lastmile_qr_scan", "ios": "https://dc.lft.to/lastmile_qr_scan"}, "fusion_lon": 0.0, "lat": 38.92471116666667, "bike_id": "9e6291c0069ab6dd6ee7c110918c8901", "type": "electric_scooter", "is_reserved": 0, "lon": -77.0266555}, {"fusion_lat": 0.0, "name": "d5b6d7f2cc5810938e7a2d1c7f67d7c5", "is_disabled": 0, "rental_uris": {"android": "https://dc.lft.to/lastmile_qr_scan", "ios": "https://dc.lft.to/lastmile_qr_scan"}, "fusion_lon": 0.0, "lat": 38.92788216666667, "bike_id": "d5b6d7f2cc5810938e7a2d1c7f67d7c5", "type": "electric_scooter", "is_reserved": 0, "lon": -76.95558133333333}, {"fusion_lat": 0.0, "name": "58e454523790be074941be354485ad15", "is_disabled": 0, "rental_uris": {"android": "https://dc.lft.to/lastmile_qr_scan", "ios": "https://dc.lft.to/lastmile_qr_scan"}, "fusion_lon": 0.0, "lat": 38.904811, "bike_id": "58e454523790be074941be354485ad15", "type": "electric_scooter", "is_reserved": 0, "lon": -76.94967633333333}, {"fusion_lat": 0.0, "name": "f19fb213cf3312bd26395afe8a1a331d", "is_disabled": 0, "rental_uris": {"android": "https://dc.lft.to/lastmile_qr_scan", "ios": "https://dc.lft.to/lastmile_qr_scan"}, "fusion_lon": 0.0, "lat": 38.920719166666665, "bike_id": "f19fb213cf3312bd26395afe8a1a331d", "type": "electric_scooter", "is_reserved": 0, "lon": -77.0238485}, {"fusion_lat": 0.0, "name": "96c27e27c52e09a4d8cbf640c84ea10e", "is_disabled": 0, "rental_uris": {"android": "https://dc.lft.to/lastmile_qr_scan", "ios": "https://dc.lft.to/lastmile_qr_scan"}, "fusion_lon": 0.0, "lat": 38.90962533333333, "bike_id": "96c27e27c52e09a4d8cbf640c84ea10e", "type": "electric_scooter", "is_reserved": 0, "lon": -77.00896283333333}, {"fusion_lat": 0.0, "name": "d79db4352bf322db35783b7d63726cbf", "is_disabled": 0, "rental_uris": {"android": "https://dc.lft.to/lastmile_qr_scan", "ios": "https://dc.lft.to/lastmile_qr_scan"}, "fusion_lon": 0.0, "lat": 38.92745383333333, "bike_id": "d79db4352bf322db35783b7d63726cbf", "type": "electric_scooter", "is_reserved": 0, "lon": -77.02538533333333}, {"fusion_lat": 0.0, "name": "aaef52a87ddf587f8f01d76c823cd136", "is_disabled": 0, "rental_uris": {"android": "https://dc.lft.to/lastmile_qr_scan", "ios": "https://dc.lft.to/lastmile_qr_scan"}, "fusion_lon": 0.0, "lat": 38.887677833333335, "bike_id": "aaef52a87ddf587f8f01d76c823cd136", "type": "electric_scooter", "is_reserved": 0, "lon": -76.97747766666667}, {"fusion_lat": 0.0, "name": "dd11a1237d22d769dd4324ceb4b24153", "is_disabled": 0, "rental_uris": {"android": "https://dc.lft.to/lastmile_qr_scan", "ios": "https://dc.lft.to/lastmile_qr_scan"}, "fusion_lon": 0.0, "lat": 38.85459983333333, "bike_id": "dd11a1237d22d769dd4324ceb4b24153", "type": "electric_scooter", "is_reserved": 0, "lon": -76.97223266666667}, {"fusion_lat": 0.0, "name": "a4c5100558605187a0da832538d544a8", "is_disabled": 0, "rental_uris": {"android": "https://dc.lft.to/lastmile_qr_scan", "ios": "https://dc.lft.to/lastmile_qr_scan"}, "fusion_lon": 0.0, "lat": 38.89244383333333, "bike_id": "a4c5100558605187a0da832538d544a8", "type": "electric_scooter", "is_reserved": 0, "lon": -77.03337633333334}, {"fusion_lat": 0.0, "name": "cf1649f2de285daad81a8ed4b978ff2f", "is_disabled": 0, "rental_uris": {"android": "https://dc.lft.to/lastmile_qr_scan", "ios": "https://dc.lft.to/lastmile_qr_scan"}, "fusion_lon": 0.0, "lat": 38.936293666666664, "bike_id": "cf1649f2de285daad81a8ed4b978ff2f", "type": "electric_scooter", "is_reserved": 0, "lon": -77.03659466666667}, {"fusion_lat": 0.0, "name": "8904e59ac398c84c0ffd7e9fb3a46792", "is_disabled": 0, "rental_uris": {"android": "https://dc.lft.to/lastmile_qr_scan", "ios": "https://dc.lft.to/lastmile_qr_scan"}, "fusion_lon": 0.0, "lat": 38.9272175, "bike_id": "8904e59ac398c84c0ffd7e9fb3a46792", "type": "electric_scooter", "is_reserved": 0, "lon": -77.02301666666666}, {"fusion_lat": 0.0, "name": "f5b5b647b1df31821a2397a74c4e417d", "is_disabled": 0, "rental_uris": {"android": "https://dc.lft.to/lastmile_qr_scan", "ios": "https://dc.lft.to/lastmile_qr_scan"}, "fusion_lon": 0.0, "lat": 38.90070766666667, "bike_id": "f5b5b647b1df31821a2397a74c4e417d", "type": "electric_scooter", "is_reserved": 0, "lon": -77.0260115}, {"fusion_lat": 0.0, "name": "696548074dcb19d79705da779a7def24", "is_disabled": 0, "rental_uris": {"android": "https://dc.lft.to/lastmile_qr_scan", "ios": "https://dc.lft.to/lastmile_qr_scan"}, "fusion_lon": 0.0, "lat": 38.879061166666666, "bike_id": "696548074dcb19d79705da779a7def24", "type": "electric_scooter", "is_reserved": 0, "lon": -77.00807166666667}, {"fusion_lat": 0.0, "name": "20dd38a0a272a749f46c601823d28c82", "is_disabled": 0, "rental_uris": {"android": "https://dc.lft.to/lastmile_qr_scan", "ios": "https://dc.lft.to/lastmile_qr_scan"}, "fusion_lon": 0.0, "lat": 38.892283166666665, "bike_id": "20dd38a0a272a749f46c601823d28c82", "type": "electric_scooter", "is_reserved": 0, "lon": -77.01711333333333}, {"fusion_lat": 0.0, "name": "56be1273284619968f6f9e92db64aad2", "is_disabled": 0, "rental_uris": {"android": "https://dc.lft.to/lastmile_qr_scan", "ios": "https://dc.lft.to/lastmile_qr_scan"}, "fusion_lon": 0.0, "lat": 38.90699716666666, "bike_id": "56be1273284619968f6f9e92db64aad2", "type": "electric_scooter", "is_reserved": 0, "lon": -77.000846}, {"fusion_lat": 0.0, "name": "b19b32916dd07407d4e96741a9519ded", "is_disabled": 0, "rental_uris": {"android": "https://dc.lft.to/lastmile_qr_scan", "ios": "https://dc.lft.to/lastmile_qr_scan"}, "fusion_lon": 0.0, "lat": 38.921563, "bike_id": "b19b32916dd07407d4e96741a9519ded", "type": "electric_scooter", "is_reserved": 0, "lon": -77.03378183333334}, {"fusion_lat": 0.0, "name": "85e6ff0c0a6848889275cda537a29e44", "is_disabled": 0, "rental_uris": {"android": "https://dc.lft.to/lastmile_qr_scan", "ios": "https://dc.lft.to/lastmile_qr_scan"}, "fusion_lon": 0.0, "lat": 38.928487833333335, "bike_id": "85e6ff0c0a6848889275cda537a29e44", "type": "electric_scooter", "is_reserved": 0, "lon": -77.02437716666667}, {"fusion_lat": 0.0, "name": "9d545f21ada4025cd0a7378bf2d507d1", "is_disabled": 0, "rental_uris": {"android": "https://dc.lft.to/lastmile_qr_scan", "ios": "https://dc.lft.to/lastmile_qr_scan"}, "fusion_lon": 0.0, "lat": 38.89478283333333, "bike_id": "9d545f21ada4025cd0a7378bf2d507d1", "type": "electric_scooter", "is_reserved": 0, "lon": -77.02181583333333}, {"fusion_lat": 0.0, "name": "b84bbc32ad64ad9486906cc5d31153e8", "is_disabled": 0, "rental_uris": {"android": "https://dc.lft.to/lastmile_qr_scan", "ios": "https://dc.lft.to/lastmile_qr_scan"}, "fusion_lon": 0.0, "lat": 38.9001685, "bike_id": "b84bbc32ad64ad9486906cc5d31153e8", "type": "electric_scooter", "is_reserved": 0, "lon": -77.00201133333333}, {"fusion_lat": 0.0, "name": "aeb4100a336a3748e5181ac34bb68e08", "is_disabled": 0, "rental_uris": {"android": "https://dc.lft.to/lastmile_qr_scan", "ios": "https://dc.lft.to/lastmile_qr_scan"}, "fusion_lon": 0.0, "lat": 38.81938266666667, "bike_id": "aeb4100a336a3748e5181ac34bb68e08", "type": "electric_bike", "is_reserved": 0, "lon": -77.00203116666667}, {"fusion_lat": 0.0, "name": "a50af403ce97776965f5929fda89342f", "is_disabled": 0, "rental_uris": {"android": "https://dc.lft.to/lastmile_qr_scan", "ios": "https://dc.lft.to/lastmile_qr_scan"}, "fusion_lon": 0.0, "lat": 38.9095215, "bike_id": "a50af403ce97776965f5929fda89342f", "type": "electric_scooter", "is_reserved": 0, "lon": -76.98534083333334}, {"fusion_lat": 0.0, "name": "f6fb5328b7dae8f8c203c49130377fe0", "is_disabled": 0, "rental_uris": {"android": "https://dc.lft.to/lastmile_qr_scan", "ios": "https://dc.lft.to/lastmile_qr_scan"}, "fusion_lon": 0.0, "lat": 38.90460616666667, "bike_id": "f6fb5328b7dae8f8c203c49130377fe0", "type": "electric_scooter", "is_reserved": 0, "lon": -77.02943566666667}, {"fusion_lat": 0.0, "name": "c929d07b0e035745c036c8deb92413b2", "is_disabled": 0, "rental_uris": {"android": "https://dc.lft.to/lastmile_qr_scan", "ios": "https://dc.lft.to/lastmile_qr_scan"}, "fusion_lon": 0.0, "lat": 38.88832083333333, "bike_id": "c929d07b0e035745c036c8deb92413b2", "type": "electric_scooter", "is_reserved": 0, "lon": -77.04846883333333}, {"fusion_lat": 0.0, "name": "3d946c0169f26ebebf29660133666b2b", "is_disabled": 0, "rental_uris": {"android": "https://dc.lft.to/lastmile_qr_scan", "ios": "https://dc.lft.to/lastmile_qr_scan"}, "fusion_lon": 0.0, "lat": 38.9374585, "bike_id": "3d946c0169f26ebebf29660133666b2b", "type": "electric_scooter", "is_reserved": 0, "lon": -77.02524583333333}, {"fusion_lat": 0.0, "name": "4bd6a46f7c5b59a1a371d9db5d862e9d", "is_disabled": 0, "rental_uris": {"android": "https://dc.lft.to/lastmile_qr_scan", "ios": "https://dc.lft.to/lastmile_qr_scan"}, "fusion_lon": 0.0, "lat": 38.90719, "bike_id": "4bd6a46f7c5b59a1a371d9db5d862e9d", "type": "electric_scooter", "is_reserved": 0, "lon": -77.02539933333334}, {"fusion_lat": 0.0, "name": "8c18e396c101e96ba79e6fd0115349f8", "is_disabled": 0, "rental_uris": {"android": "https://dc.lft.to/lastmile_qr_scan", "ios": "https://dc.lft.to/lastmile_qr_scan"}, "fusion_lon": 0.0, "lat": 38.84125483333333, "bike_id": "8c18e396c101e96ba79e6fd0115349f8", "type": "electric_bike", "is_reserved": 0, "lon": -77.06306183333334}, {"fusion_lat": 0.0, "name": "bf9aaa74dbc2666c4f26b9a7db0a0474", "is_disabled": 0, "rental_uris": {"android": "https://dc.lft.to/lastmile_qr_scan", "ios": "https://dc.lft.to/lastmile_qr_scan"}, "fusion_lon": 0.0, "lat": 38.931447, "bike_id": "bf9aaa74dbc2666c4f26b9a7db0a0474", "type": "electric_scooter", "is_reserved": 0, "lon": -77.03972133333333}, {"fusion_lat": 0.0, "name": "7c7849a1eb0a267a7ec9f2ab0ec6924b", "is_disabled": 0, "rental_uris": {"android": "https://dc.lft.to/lastmile_qr_scan", "ios": "https://dc.lft.to/lastmile_qr_scan"}, "fusion_lon": 0.0, "lat": 38.8634865, "bike_id": "7c7849a1eb0a267a7ec9f2ab0ec6924b", "type": "electric_bike", "is_reserved": 0, "lon": -77.077212}, {"fusion_lat": 0.0, "name": "8e6ab6a651f50b8f5ae93c4f70412da5", "is_disabled": 0, "rental_uris": {"android": "https://dc.lft.to/lastmile_qr_scan", "ios": "https://dc.lft.to/lastmile_qr_scan"}, "fusion_lon": 0.0, "lat": 38.892262833333334, "bike_id": "8e6ab6a651f50b8f5ae93c4f70412da5", "type": "electric_scooter", "is_reserved": 0, "lon": -77.00298383333333}, {"fusion_lat": 0.0, "name": "dcffa0446d57ec6e6f9dd55ff51b0f99", "is_disabled": 0, "rental_uris": {"android": "https://dc.lft.to/lastmile_qr_scan", "ios": "https://dc.lft.to/lastmile_qr_scan"}, "fusion_lon": 0.0, "lat": 38.905621333333336, "bike_id": "dcffa0446d57ec6e6f9dd55ff51b0f99", "type": "electric_scooter", "is_reserved": 0, "lon": -77.00592516666667}, {"fusion_lat": 0.0, "name": "eed13c4c360efe89b7f02bacbc688123", "is_disabled": 0, "rental_uris": {"android": "https://dc.lft.to/lastmile_qr_scan", "ios": "https://dc.lft.to/lastmile_qr_scan"}, "fusion_lon": 0.0, "lat": 38.90776833333334, "bike_id": "eed13c4c360efe89b7f02bacbc688123", "type": "electric_scooter", "is_reserved": 0, "lon": -77.01861116666667}, {"fusion_lat": 0.0, "name": "2d548e9be1aff58215e726227b923ba4", "is_disabled": 0, "rental_uris": {"android": "https://dc.lft.to/lastmile_qr_scan", "ios": "https://dc.lft.to/lastmile_qr_scan"}, "fusion_lon": 0.0, "lat": 38.92383066666667, "bike_id": "2d548e9be1aff58215e726227b923ba4", "type": "electric_scooter", "is_reserved": 0, "lon": -77.03649866666666}, {"fusion_lat": 0.0, "name": "ad712fc5d239d3c0f6d67c870d8d9ed9", "is_disabled": 0, "rental_uris": {"android": "https://dc.lft.to/lastmile_qr_scan", "ios": "https://dc.lft.to/lastmile_qr_scan"}, "fusion_lon": 0.0, "lat": 38.958799, "bike_id": "ad712fc5d239d3c0f6d67c870d8d9ed9", "type": "electric_scooter", "is_reserved": 0, "lon": -77.0116635}, {"fusion_lat": 0.0, "name": "4510a694ee2c1ded91608f742146284a", "is_disabled": 0, "rental_uris": {"android": "https://dc.lft.to/lastmile_qr_scan", "ios": "https://dc.lft.to/lastmile_qr_scan"}, "fusion_lon": 0.0, "lat": 38.9165945, "bike_id": "4510a694ee2c1ded91608f742146284a", "type": "electric_scooter", "is_reserved": 0, "lon": -77.02966883333333}, {"fusion_lat": 0.0, "name": "118c9cf80434c5ed8153db890122b651", "is_disabled": 0, "rental_uris": {"android": "https://dc.lft.to/lastmile_qr_scan", "ios": "https://dc.lft.to/lastmile_qr_scan"}, "fusion_lon": 0.0, "lat": 38.87656033333333, "bike_id": "118c9cf80434c5ed8153db890122b651", "type": "electric_scooter", "is_reserved": 0, "lon": -77.00908266666667}, {"fusion_lat": 0.0, "name": "0d8acc5b57ed2fa2818e880855fbf5c9", "is_disabled": 0, "rental_uris": {"android": "https://dc.lft.to/lastmile_qr_scan", "ios": "https://dc.lft.to/lastmile_qr_scan"}, "fusion_lon": 0.0, "lat": 38.911756833333335, "bike_id": "0d8acc5b57ed2fa2818e880855fbf5c9", "type": "electric_scooter", "is_reserved": 0, "lon": -77.03820533333334}, {"fusion_lat": 0.0, "name": "629a91e245cb7ed8b8d83750732a6636", "is_disabled": 0, "rental_uris": {"android": "https://dc.lft.to/lastmile_qr_scan", "ios": "https://dc.lft.to/lastmile_qr_scan"}, "fusion_lon": 0.0, "lat": 38.927859833333336, "bike_id": "629a91e245cb7ed8b8d83750732a6636", "type": "electric_scooter", "is_reserved": 0, "lon": -77.02731583333333}, {"fusion_lat": 0.0, "name": "2dbc0d1a9e3149d7af3af0a585cd6aca", "is_disabled": 0, "rental_uris": {"android": "https://dc.lft.to/lastmile_qr_scan", "ios": "https://dc.lft.to/lastmile_qr_scan"}, "fusion_lon": 0.0, "lat": 38.922596166666665, "bike_id": "2dbc0d1a9e3149d7af3af0a585cd6aca", "type": "electric_scooter", "is_reserved": 0, "lon": -77.03660566666667}, {"fusion_lat": 0.0, "name": "713f62e26d78bc70b36b02a5c85fde96", "is_disabled": 0, "rental_uris": {"android": "https://dc.lft.to/lastmile_qr_scan", "ios": "https://dc.lft.to/lastmile_qr_scan"}, "fusion_lon": 0.0, "lat": 38.91338416666667, "bike_id": "713f62e26d78bc70b36b02a5c85fde96", "type": "electric_scooter", "is_reserved": 0, "lon": -77.0428845}, {"fusion_lat": 0.0, "name": "2cf97d79ad491c3869eb8d68942bc830", "is_disabled": 0, "rental_uris": {"android": "https://dc.lft.to/lastmile_qr_scan", "ios": "https://dc.lft.to/lastmile_qr_scan"}, "fusion_lon": 0.0, "lat": 38.92398083333333, "bike_id": "2cf97d79ad491c3869eb8d68942bc830", "type": "electric_scooter", "is_reserved": 0, "lon": -77.05246233333334}, {"fusion_lat": 0.0, "name": "5def956244d6ee069ea49fbc698f3239", "is_disabled": 0, "rental_uris": {"android": "https://dc.lft.to/lastmile_qr_scan", "ios": "https://dc.lft.to/lastmile_qr_scan"}, "fusion_lon": 0.0, "lat": 38.879638666666665, "bike_id": "5def956244d6ee069ea49fbc698f3239", "type": "electric_bike", "is_reserved": 0, "lon": -76.91612116666667}, {"fusion_lat": 0.0, "name": "cfd6d7d139c1894dc90a04729082afde", "is_disabled": 0, "rental_uris": {"android": "https://dc.lft.to/lastmile_qr_scan", "ios": "https://dc.lft.to/lastmile_qr_scan"}, "fusion_lon": 0.0, "lat": 38.911252, "bike_id": "cfd6d7d139c1894dc90a04729082afde", "type": "electric_scooter", "is_reserved": 0, "lon": -77.02199983333334}, {"fusion_lat": 0.0, "name": "4bd8514c8b2116a6f2491998152a71e0", "is_disabled": 0, "rental_uris": {"android": "https://dc.lft.to/lastmile_qr_scan", "ios": "https://dc.lft.to/lastmile_qr_scan"}, "fusion_lon": 0.0, "lat": 38.89717566666667, "bike_id": "4bd8514c8b2116a6f2491998152a71e0", "type": "electric_scooter", "is_reserved": 0, "lon": -77.01963633333334}, {"fusion_lat": 0.0, "name": "0d1c427582150ee41e1f393b5fa3fa5d", "is_disabled": 0, "rental_uris": {"android": "https://dc.lft.to/lastmile_qr_scan", "ios": "https://dc.lft.to/lastmile_qr_scan"}, "fusion_lon": 0.0, "lat": 38.93409166666667, "bike_id": "0d1c427582150ee41e1f393b5fa3fa5d", "type": "electric_scooter", "is_reserved": 0, "lon": -77.04269616666667}, {"fusion_lat": 0.0, "name": "c4a5117e95ae239606af00c2b27e081e", "is_disabled": 0, "rental_uris": {"android": "https://dc.lft.to/lastmile_qr_scan", "ios": "https://dc.lft.to/lastmile_qr_scan"}, "fusion_lon": 0.0, "lat": 38.897136833333334, "bike_id": "c4a5117e95ae239606af00c2b27e081e", "type": "electric_scooter", "is_reserved": 0, "lon": -77.02150483333334}, {"fusion_lat": 0.0, "name": "e90cf77dac6ab121ce30b58c4a4aefcd", "is_disabled": 0, "rental_uris": {"android": "https://dc.lft.to/lastmile_qr_scan", "ios": "https://dc.lft.to/lastmile_qr_scan"}, "fusion_lon": 0.0, "lat": 38.92417583333334, "bike_id": "e90cf77dac6ab121ce30b58c4a4aefcd", "type": "electric_scooter", "is_reserved": 0, "lon": -77.01962133333333}, {"fusion_lat": 0.0, "name": "7b8410bc438b3df14088e85245fe4028", "is_disabled": 0, "rental_uris": {"android": "https://dc.lft.to/lastmile_qr_scan", "ios": "https://dc.lft.to/lastmile_qr_scan"}, "fusion_lon": 0.0, "lat": 38.91313483333333, "bike_id": "7b8410bc438b3df14088e85245fe4028", "type": "electric_scooter", "is_reserved": 0, "lon": -77.0213685}, {"fusion_lat": 0.0, "name": "3a7fe1820d038d7e4fa0a3ebd2379841", "is_disabled": 0, "rental_uris": {"android": "https://dc.lft.to/lastmile_qr_scan", "ios": "https://dc.lft.to/lastmile_qr_scan"}, "fusion_lon": 0.0, "lat": 38.962086666666664, "bike_id": "3a7fe1820d038d7e4fa0a3ebd2379841", "type": "electric_bike", "is_reserved": 0, "lon": -77.0278105}, {"fusion_lat": 0.0, "name": "08cf91791fe308a9def1a4915534f9a5", "is_disabled": 0, "rental_uris": {"android": "https://dc.lft.to/lastmile_qr_scan", "ios": "https://dc.lft.to/lastmile_qr_scan"}, "fusion_lon": 0.0, "lat": 38.938784, "bike_id": "08cf91791fe308a9def1a4915534f9a5", "type": "electric_scooter", "is_reserved": 0, "lon": -77.02463116666667}, {"fusion_lat": 0.0, "name": "031ab72730837b604a216e736f04fb9a", "is_disabled": 0, "rental_uris": {"android": "https://dc.lft.to/lastmile_qr_scan", "ios": "https://dc.lft.to/lastmile_qr_scan"}, "fusion_lon": 0.0, "lat": 38.903196, "bike_id": "031ab72730837b604a216e736f04fb9a", "type": "electric_scooter", "is_reserved": 0, "lon": -76.981499}, {"fusion_lat": 0.0, "name": "56286002330757ca5feff5ac549165c1", "is_disabled": 0, "rental_uris": {"android": "https://dc.lft.to/lastmile_qr_scan", "ios": "https://dc.lft.to/lastmile_qr_scan"}, "fusion_lon": 0.0, "lat": 38.915631833333336, "bike_id": "56286002330757ca5feff5ac549165c1", "type": "electric_scooter", "is_reserved": 0, "lon": -77.0316465}, {"fusion_lat": 0.0, "name": "97a3693bed683a0426c8910f0344b2de", "is_disabled": 0, "rental_uris": {"android": "https://dc.lft.to/lastmile_qr_scan", "ios": "https://dc.lft.to/lastmile_qr_scan"}, "fusion_lon": 0.0, "lat": 38.93356283333333, "bike_id": "97a3693bed683a0426c8910f0344b2de", "type": "electric_scooter", "is_reserved": 0, "lon": -77.02438683333334}, {"fusion_lat": 0.0, "name": "438c018ee3dcf67fd58441ff5e434d92", "is_disabled": 0, "rental_uris": {"android": "https://dc.lft.to/lastmile_qr_scan", "ios": "https://dc.lft.to/lastmile_qr_scan"}, "fusion_lon": 0.0, "lat": 38.95473483333333, "bike_id": "438c018ee3dcf67fd58441ff5e434d92", "type": "electric_scooter", "is_reserved": 0, "lon": -77.0777355}, {"fusion_lat": 0.0, "name": "7b41eeec11824713e4a1db9cb2d9f106", "is_disabled": 0, "rental_uris": {"android": "https://dc.lft.to/lastmile_qr_scan", "ios": "https://dc.lft.to/lastmile_qr_scan"}, "fusion_lon": 0.0, "lat": 38.92236483333333, "bike_id": "7b41eeec11824713e4a1db9cb2d9f106", "type": "electric_scooter", "is_reserved": 0, "lon": -77.03890616666666}, {"fusion_lat": 0.0, "name": "4c98234791d30c5a567bfd30a42d5274", "is_disabled": 0, "rental_uris": {"android": "https://dc.lft.to/lastmile_qr_scan", "ios": "https://dc.lft.to/lastmile_qr_scan"}, "fusion_lon": 0.0, "lat": 38.90851266666667, "bike_id": "4c98234791d30c5a567bfd30a42d5274", "type": "electric_scooter", "is_reserved": 0, "lon": -77.02718816666666}, {"fusion_lat": 0.0, "name": "7e592530d1c625f5f3147c0c0af38c7b", "is_disabled": 0, "rental_uris": {"android": "https://dc.lft.to/lastmile_qr_scan", "ios": "https://dc.lft.to/lastmile_qr_scan"}, "fusion_lon": 0.0, "lat": 38.874561666666665, "bike_id": "7e592530d1c625f5f3147c0c0af38c7b", "type": "electric_bike", "is_reserved": 0, "lon": -76.999438}, {"fusion_lat": 0.0, "name": "46da3dd4147712fde56103154405b8d0", "is_disabled": 0, "rental_uris": {"android": "https://dc.lft.to/lastmile_qr_scan", "ios": "https://dc.lft.to/lastmile_qr_scan"}, "fusion_lon": 0.0, "lat": 38.898126166666664, "bike_id": "46da3dd4147712fde56103154405b8d0", "type": "electric_scooter", "is_reserved": 0, "lon": -77.026858}, {"fusion_lat": 0.0, "name": "426b00955d61de9eab3760bbb2b3ef6a", "is_disabled": 0, "rental_uris": {"android": "https://dc.lft.to/lastmile_qr_scan", "ios": "https://dc.lft.to/lastmile_qr_scan"}, "fusion_lon": 0.0, "lat": 38.932357833333334, "bike_id": "426b00955d61de9eab3760bbb2b3ef6a", "type": "electric_bike", "is_reserved": 0, "lon": -76.97420333333334}, {"fusion_lat": 0.0, "name": "661f3d825560834557a59103b0ac88ab", "is_disabled": 0, "rental_uris": {"android": "https://dc.lft.to/lastmile_qr_scan", "ios": "https://dc.lft.to/lastmile_qr_scan"}, "fusion_lon": 0.0, "lat": 38.86621683333333, "bike_id": "661f3d825560834557a59103b0ac88ab", "type": "electric_scooter", "is_reserved": 0, "lon": -76.98714966666667}, {"fusion_lat": 0.0, "name": "23552fb0a361bd9d108ee942f545cbd5", "is_disabled": 0, "rental_uris": {"android": "https://dc.lft.to/lastmile_qr_scan", "ios": "https://dc.lft.to/lastmile_qr_scan"}, "fusion_lon": 0.0, "lat": 38.879718833333335, "bike_id": "23552fb0a361bd9d108ee942f545cbd5", "type": "electric_bike", "is_reserved": 0, "lon": -77.1783885}, {"fusion_lat": 0.0, "name": "d2aabc371aea465f372bde36318038f8", "is_disabled": 0, "rental_uris": {"android": "https://dc.lft.to/lastmile_qr_scan", "ios": "https://dc.lft.to/lastmile_qr_scan"}, "fusion_lon": 0.0, "lat": 38.911724166666666, "bike_id": "d2aabc371aea465f372bde36318038f8", "type": "electric_scooter", "is_reserved": 0, "lon": -77.0366045}, {"fusion_lat": 0.0, "name": "ae84b9d3ed414accf4c84a3c21160087", "is_disabled": 0, "rental_uris": {"android": "https://dc.lft.to/lastmile_qr_scan", "ios": "https://dc.lft.to/lastmile_qr_scan"}, "fusion_lon": 0.0, "lat": 38.951084, "bike_id": "ae84b9d3ed414accf4c84a3c21160087", "type": "electric_scooter", "is_reserved": 0, "lon": -77.0586775}, {"fusion_lat": 0.0, "name": "2b1a73d1b7d2b0611a7aaf4e2cf8dc8e", "is_disabled": 0, "rental_uris": {"android": "https://dc.lft.to/lastmile_qr_scan", "ios": "https://dc.lft.to/lastmile_qr_scan"}, "fusion_lon": 0.0, "lat": 38.917101333333335, "bike_id": "2b1a73d1b7d2b0611a7aaf4e2cf8dc8e", "type": "electric_scooter", "is_reserved": 0, "lon": -77.03718466666666}, {"fusion_lat": 0.0, "name": "816b2eaf7eeedd89f266c728b45b2019", "is_disabled": 0, "rental_uris": {"android": "https://dc.lft.to/lastmile_qr_scan", "ios": "https://dc.lft.to/lastmile_qr_scan"}, "fusion_lon": 0.0, "lat": 38.91036283333333, "bike_id": "816b2eaf7eeedd89f266c728b45b2019", "type": "electric_scooter", "is_reserved": 0, "lon": -77.0128845}, {"fusion_lat": 0.0, "name": "a5a1962e90247417aa56030379b1d216", "is_disabled": 0, "rental_uris": {"android": "https://dc.lft.to/lastmile_qr_scan", "ios": "https://dc.lft.to/lastmile_qr_scan"}, "fusion_lon": 0.0, "lat": 38.90449616666667, "bike_id": "a5a1962e90247417aa56030379b1d216", "type": "electric_bike", "is_reserved": 0, "lon": -76.97428083333334}, {"fusion_lat": 0.0, "name": "8736bfe3e5806ea351d1a7945f1fcaa2", "is_disabled": 0, "rental_uris": {"android": "https://dc.lft.to/lastmile_qr_scan", "ios": "https://dc.lft.to/lastmile_qr_scan"}, "fusion_lon": 0.0, "lat": 38.855606333333334, "bike_id": "8736bfe3e5806ea351d1a7945f1fcaa2", "type": "electric_bike", "is_reserved": 0, "lon": -77.11312033333333}, {"fusion_lat": 0.0, "name": "b5c7648ba7c7ef714cb5a621100c1878", "is_disabled": 0, "rental_uris": {"android": "https://dc.lft.to/lastmile_qr_scan", "ios": "https://dc.lft.to/lastmile_qr_scan"}, "fusion_lon": 0.0, "lat": 38.89219416666667, "bike_id": "b5c7648ba7c7ef714cb5a621100c1878", "type": "electric_scooter", "is_reserved": 0, "lon": -77.0321495}, {"fusion_lat": 0.0, "name": "733633530ad8ec761aa2a9c71356ea12", "is_disabled": 0, "rental_uris": {"android": "https://dc.lft.to/lastmile_qr_scan", "ios": "https://dc.lft.to/lastmile_qr_scan"}, "fusion_lon": 0.0, "lat": 38.9606785, "bike_id": "733633530ad8ec761aa2a9c71356ea12", "type": "electric_scooter", "is_reserved": 0, "lon": -77.0009905}, {"fusion_lat": 0.0, "name": "46a7e1b881e7f9b73c6314dd9bea9875", "is_disabled": 0, "rental_uris": {"android": "https://dc.lft.to/lastmile_qr_scan", "ios": "https://dc.lft.to/lastmile_qr_scan"}, "fusion_lon": 0.0, "lat": 38.897287166666665, "bike_id": "46a7e1b881e7f9b73c6314dd9bea9875", "type": "electric_scooter", "is_reserved": 0, "lon": -76.947024}, {"fusion_lat": 0.0, "name": "888f3c27f3290934ff824b5fce6094f4", "is_disabled": 0, "rental_uris": {"android": "https://dc.lft.to/lastmile_qr_scan", "ios": "https://dc.lft.to/lastmile_qr_scan"}, "fusion_lon": 0.0, "lat": 38.90499033333333, "bike_id": "888f3c27f3290934ff824b5fce6094f4", "type": "electric_scooter", "is_reserved": 0, "lon": -77.0294525}, {"fusion_lat": 0.0, "name": "73403265081ad7d166d16de561471632", "is_disabled": 0, "rental_uris": {"android": "https://dc.lft.to/lastmile_qr_scan", "ios": "https://dc.lft.to/lastmile_qr_scan"}, "fusion_lon": 0.0, "lat": 38.897862833333335, "bike_id": "73403265081ad7d166d16de561471632", "type": "electric_scooter", "is_reserved": 0, "lon": -77.01198833333333}, {"fusion_lat": 0.0, "name": "f288451cdb0d08aa875cf24a6ee482d9", "is_disabled": 0, "rental_uris": {"android": "https://dc.lft.to/lastmile_qr_scan", "ios": "https://dc.lft.to/lastmile_qr_scan"}, "fusion_lon": 0.0, "lat": 38.900714, "bike_id": "f288451cdb0d08aa875cf24a6ee482d9", "type": "electric_scooter", "is_reserved": 0, "lon": -76.983334}, {"fusion_lat": 0.0, "name": "19de48fd3149005e9f1f65385ed2015f", "is_disabled": 0, "rental_uris": {"android": "https://dc.lft.to/lastmile_qr_scan", "ios": "https://dc.lft.to/lastmile_qr_scan"}, "fusion_lon": 0.0, "lat": 38.9104325, "bike_id": "19de48fd3149005e9f1f65385ed2015f", "type": "electric_scooter", "is_reserved": 0, "lon": -77.00832166666666}, {"fusion_lat": 0.0, "name": "ffa99c669de0b0ad67528558f3e4eb73", "is_disabled": 0, "rental_uris": {"android": "https://dc.lft.to/lastmile_qr_scan", "ios": "https://dc.lft.to/lastmile_qr_scan"}, "fusion_lon": 0.0, "lat": 38.92893616666667, "bike_id": "ffa99c669de0b0ad67528558f3e4eb73", "type": "electric_bike", "is_reserved": 0, "lon": -77.2317845}, {"fusion_lat": 0.0, "name": "cb5865f364cf57790316ca5ad3f66e34", "is_disabled": 0, "rental_uris": {"android": "https://dc.lft.to/lastmile_qr_scan", "ios": "https://dc.lft.to/lastmile_qr_scan"}, "fusion_lon": 0.0, "lat": 38.95279416666666, "bike_id": "cb5865f364cf57790316ca5ad3f66e34", "type": "electric_scooter", "is_reserved": 0, "lon": -77.06881883333334}, {"fusion_lat": 0.0, "name": "67e3a82ca30e51a832aa25e89d78d63f", "is_disabled": 0, "rental_uris": {"android": "https://dc.lft.to/lastmile_qr_scan", "ios": "https://dc.lft.to/lastmile_qr_scan"}, "fusion_lon": 0.0, "lat": 38.92539683333333, "bike_id": "67e3a82ca30e51a832aa25e89d78d63f", "type": "electric_scooter", "is_reserved": 0, "lon": -77.03826216666667}, {"fusion_lat": 0.0, "name": "8b724c754bb3b0aec15cf6fd59152bb7", "is_disabled": 0, "rental_uris": {"android": "https://dc.lft.to/lastmile_qr_scan", "ios": "https://dc.lft.to/lastmile_qr_scan"}, "fusion_lon": 0.0, "lat": 38.898711, "bike_id": "8b724c754bb3b0aec15cf6fd59152bb7", "type": "electric_scooter", "is_reserved": 0, "lon": -77.01492716666667}, {"fusion_lat": 0.0, "name": "23c3884e1f58f785045cae57f9a9e255", "is_disabled": 0, "rental_uris": {"android": "https://dc.lft.to/lastmile_qr_scan", "ios": "https://dc.lft.to/lastmile_qr_scan"}, "fusion_lon": 0.0, "lat": 38.938685666666665, "bike_id": "23c3884e1f58f785045cae57f9a9e255", "type": "electric_scooter", "is_reserved": 0, "lon": -77.02468}, {"fusion_lat": 0.0, "name": "831bbd9b4ad5862ffea2cfe22667567b", "is_disabled": 0, "rental_uris": {"android": "https://dc.lft.to/lastmile_qr_scan", "ios": "https://dc.lft.to/lastmile_qr_scan"}, "fusion_lon": 0.0, "lat": 38.91112116666667, "bike_id": "831bbd9b4ad5862ffea2cfe22667567b", "type": "electric_scooter", "is_reserved": 0, "lon": -77.0206675}, {"fusion_lat": 0.0, "name": "6230608348d7e263a2360bd497461360", "is_disabled": 0, "rental_uris": {"android": "https://dc.lft.to/lastmile_qr_scan", "ios": "https://dc.lft.to/lastmile_qr_scan"}, "fusion_lon": 0.0, "lat": 38.92556366666667, "bike_id": "6230608348d7e263a2360bd497461360", "type": "electric_scooter", "is_reserved": 0, "lon": -77.0776385}, {"fusion_lat": 0.0, "name": "f57991e92242147b25bb0c3ba964b564", "is_disabled": 0, "rental_uris": {"android": "https://dc.lft.to/lastmile_qr_scan", "ios": "https://dc.lft.to/lastmile_qr_scan"}, "fusion_lon": 0.0, "lat": 38.91937683333333, "bike_id": "f57991e92242147b25bb0c3ba964b564", "type": "electric_scooter", "is_reserved": 0, "lon": -77.07098916666666}, {"fusion_lat": 0.0, "name": "8630d5978efb313002519fd424a3831e", "is_disabled": 0, "rental_uris": {"android": "https://dc.lft.to/lastmile_qr_scan", "ios": "https://dc.lft.to/lastmile_qr_scan"}, "fusion_lon": 0.0, "lat": 38.931390666666665, "bike_id": "8630d5978efb313002519fd424a3831e", "type": "electric_scooter", "is_reserved": 0, "lon": -77.03262733333334}, {"fusion_lat": 0.0, "name": "ababdfdd074fbf25f96b5bb1da9f898f", "is_disabled": 0, "rental_uris": {"android": "https://dc.lft.to/lastmile_qr_scan", "ios": "https://dc.lft.to/lastmile_qr_scan"}, "fusion_lon": 0.0, "lat": 38.896080833333336, "bike_id": "ababdfdd074fbf25f96b5bb1da9f898f", "type": "electric_scooter", "is_reserved": 0, "lon": -77.0229295}, {"fusion_lat": 0.0, "name": "2936a29a1001bb18bd4978fa39d6b9da", "is_disabled": 0, "rental_uris": {"android": "https://dc.lft.to/lastmile_qr_scan", "ios": "https://dc.lft.to/lastmile_qr_scan"}, "fusion_lon": 0.0, "lat": 38.91298233333333, "bike_id": "2936a29a1001bb18bd4978fa39d6b9da", "type": "electric_scooter", "is_reserved": 0, "lon": -77.04867483333334}, {"fusion_lat": 0.0, "name": "679e2957f162eb966933cac10837597e", "is_disabled": 0, "rental_uris": {"android": "https://dc.lft.to/lastmile_qr_scan", "ios": "https://dc.lft.to/lastmile_qr_scan"}, "fusion_lon": 0.0, "lat": 38.819137, "bike_id": "679e2957f162eb966933cac10837597e", "type": "electric_bike", "is_reserved": 0, "lon": -77.126612}, {"fusion_lat": 0.0, "name": "ab66e08e2524aeeb10b3bb842d0fc7d1", "is_disabled": 0, "rental_uris": {"android": "https://dc.lft.to/lastmile_qr_scan", "ios": "https://dc.lft.to/lastmile_qr_scan"}, "fusion_lon": 0.0, "lat": 38.8928275, "bike_id": "ab66e08e2524aeeb10b3bb842d0fc7d1", "type": "electric_scooter", "is_reserved": 0, "lon": -76.9830535}, {"fusion_lat": 0.0, "name": "19f9f4c528690354f828783663338cdf", "is_disabled": 0, "rental_uris": {"android": "https://dc.lft.to/lastmile_qr_scan", "ios": "https://dc.lft.to/lastmile_qr_scan"}, "fusion_lon": 0.0, "lat": 38.918037, "bike_id": "19f9f4c528690354f828783663338cdf", "type": "electric_scooter", "is_reserved": 0, "lon": -77.01130983333333}, {"fusion_lat": 0.0, "name": "de7940f253c04dc4433f2e4bb0ac57f6", "is_disabled": 0, "rental_uris": {"android": "https://dc.lft.to/lastmile_qr_scan", "ios": "https://dc.lft.to/lastmile_qr_scan"}, "fusion_lon": 0.0, "lat": 38.94895416666667, "bike_id": "de7940f253c04dc4433f2e4bb0ac57f6", "type": "electric_bike", "is_reserved": 0, "lon": -76.96377283333334}, {"fusion_lat": 0.0, "name": "3ba6ee13d2bc3dff0911bc7c25aa8627", "is_disabled": 0, "rental_uris": {"android": "https://dc.lft.to/lastmile_qr_scan", "ios": "https://dc.lft.to/lastmile_qr_scan"}, "fusion_lon": 0.0, "lat": 38.94873316666666, "bike_id": "3ba6ee13d2bc3dff0911bc7c25aa8627", "type": "electric_scooter", "is_reserved": 0, "lon": -77.02690666666666}, {"fusion_lat": 0.0, "name": "58434becbf08c0f94976036c8a6d3c8a", "is_disabled": 0, "rental_uris": {"android": "https://dc.lft.to/lastmile_qr_scan", "ios": "https://dc.lft.to/lastmile_qr_scan"}, "fusion_lon": 0.0, "lat": 38.927875666666665, "bike_id": "58434becbf08c0f94976036c8a6d3c8a", "type": "electric_scooter", "is_reserved": 0, "lon": -77.03212066666667}, {"fusion_lat": 0.0, "name": "31dcf02e5abed6219817ad4bcb80dc74", "is_disabled": 0, "rental_uris": {"android": "https://dc.lft.to/lastmile_qr_scan", "ios": "https://dc.lft.to/lastmile_qr_scan"}, "fusion_lon": 0.0, "lat": 38.911144, "bike_id": "31dcf02e5abed6219817ad4bcb80dc74", "type": "electric_scooter", "is_reserved": 0, "lon": -76.99767716666666}, {"fusion_lat": 0.0, "name": "d042ed8b6fbca84059d6530bda321d5f", "is_disabled": 0, "rental_uris": {"android": "https://dc.lft.to/lastmile_qr_scan", "ios": "https://dc.lft.to/lastmile_qr_scan"}, "fusion_lon": 0.0, "lat": 38.936332, "bike_id": "d042ed8b6fbca84059d6530bda321d5f", "type": "electric_scooter", "is_reserved": 0, "lon": -77.03662}, {"fusion_lat": 0.0, "name": "0675bec381e642ba1673d2c9a9b2147c", "is_disabled": 0, "rental_uris": {"android": "https://dc.lft.to/lastmile_qr_scan", "ios": "https://dc.lft.to/lastmile_qr_scan"}, "fusion_lon": 0.0, "lat": 38.907355833333334, "bike_id": "0675bec381e642ba1673d2c9a9b2147c", "type": "electric_scooter", "is_reserved": 0, "lon": -77.03204766666667}, {"fusion_lat": 0.0, "name": "9f0a86dd7e0bc93d4b7a3e58efa155ad", "is_disabled": 0, "rental_uris": {"android": "https://dc.lft.to/lastmile_qr_scan", "ios": "https://dc.lft.to/lastmile_qr_scan"}, "fusion_lon": 0.0, "lat": 38.90776916666667, "bike_id": "9f0a86dd7e0bc93d4b7a3e58efa155ad", "type": "electric_scooter", "is_reserved": 0, "lon": -77.0743375}, {"fusion_lat": 0.0, "name": "a578547566b821af8e062249652e8b53", "is_disabled": 0, "rental_uris": {"android": "https://dc.lft.to/lastmile_qr_scan", "ios": "https://dc.lft.to/lastmile_qr_scan"}, "fusion_lon": 0.0, "lat": 38.89743633333333, "bike_id": "a578547566b821af8e062249652e8b53", "type": "electric_scooter", "is_reserved": 0, "lon": -77.0272645}, {"fusion_lat": 0.0, "name": "05814bac53c7c1e0bcf5a4ff85969e9e", "is_disabled": 0, "rental_uris": {"android": "https://dc.lft.to/lastmile_qr_scan", "ios": "https://dc.lft.to/lastmile_qr_scan"}, "fusion_lon": 0.0, "lat": 38.938598666666664, "bike_id": "05814bac53c7c1e0bcf5a4ff85969e9e", "type": "electric_scooter", "is_reserved": 0, "lon": -77.02453033333333}, {"fusion_lat": 0.0, "name": "e969b11807026f62b10c2330e4fea1f0", "is_disabled": 0, "rental_uris": {"android": "https://dc.lft.to/lastmile_qr_scan", "ios": "https://dc.lft.to/lastmile_qr_scan"}, "fusion_lon": 0.0, "lat": 38.90207, "bike_id": "e969b11807026f62b10c2330e4fea1f0", "type": "electric_scooter", "is_reserved": 0, "lon": -76.99502666666666}, {"fusion_lat": 0.0, "name": "701c577aa2e20aa664848a139ad15b41", "is_disabled": 0, "rental_uris": {"android": "https://dc.lft.to/lastmile_qr_scan", "ios": "https://dc.lft.to/lastmile_qr_scan"}, "fusion_lon": 0.0, "lat": 38.90500983333333, "bike_id": "701c577aa2e20aa664848a139ad15b41", "type": "electric_scooter", "is_reserved": 0, "lon": -76.9968205}, {"fusion_lat": 0.0, "name": "a859272d765f28d426bd95ad6c391143", "is_disabled": 0, "rental_uris": {"android": "https://dc.lft.to/lastmile_qr_scan", "ios": "https://dc.lft.to/lastmile_qr_scan"}, "fusion_lon": 0.0, "lat": 38.902311833333336, "bike_id": "a859272d765f28d426bd95ad6c391143", "type": "electric_scooter", "is_reserved": 0, "lon": -77.0229745}, {"fusion_lat": 0.0, "name": "eeb606f1c82b58874203a122b909b048", "is_disabled": 0, "rental_uris": {"android": "https://dc.lft.to/lastmile_qr_scan", "ios": "https://dc.lft.to/lastmile_qr_scan"}, "fusion_lon": 0.0, "lat": 38.874706, "bike_id": "eeb606f1c82b58874203a122b909b048", "type": "electric_scooter", "is_reserved": 0, "lon": -77.01701866666667}, {"fusion_lat": 0.0, "name": "f0398d37858e01e9254f3ad8ae58db95", "is_disabled": 0, "rental_uris": {"android": "https://dc.lft.to/lastmile_qr_scan", "ios": "https://dc.lft.to/lastmile_qr_scan"}, "fusion_lon": 0.0, "lat": 38.9407725, "bike_id": "f0398d37858e01e9254f3ad8ae58db95", "type": "electric_bike", "is_reserved": 0, "lon": -76.99462683333333}, {"fusion_lat": 0.0, "name": "beac3bf342b11e333bb026c1fc6f9bff", "is_disabled": 0, "rental_uris": {"android": "https://dc.lft.to/lastmile_qr_scan", "ios": "https://dc.lft.to/lastmile_qr_scan"}, "fusion_lon": 0.0, "lat": 38.927283, "bike_id": "beac3bf342b11e333bb026c1fc6f9bff", "type": "electric_scooter", "is_reserved": 0, "lon": -77.02710016666667}, {"fusion_lat": 0.0, "name": "d39fb6285956e513ea833997dc2fc4f8", "is_disabled": 0, "rental_uris": {"android": "https://dc.lft.to/lastmile_qr_scan", "ios": "https://dc.lft.to/lastmile_qr_scan"}, "fusion_lon": 0.0, "lat": 38.8988785, "bike_id": "d39fb6285956e513ea833997dc2fc4f8", "type": "electric_scooter", "is_reserved": 0, "lon": -77.02609166666667}, {"fusion_lat": 0.0, "name": "80239b3c7f8fbb4b3b741a0a88f2e8c9", "is_disabled": 0, "rental_uris": {"android": "https://dc.lft.to/lastmile_qr_scan", "ios": "https://dc.lft.to/lastmile_qr_scan"}, "fusion_lon": 0.0, "lat": 38.93238933333333, "bike_id": "80239b3c7f8fbb4b3b741a0a88f2e8c9", "type": "electric_scooter", "is_reserved": 0, "lon": -77.03885966666667}, {"fusion_lat": 0.0, "name": "d23de2eff7a8005f9b1fcf0de3623de2", "is_disabled": 0, "rental_uris": {"android": "https://dc.lft.to/lastmile_qr_scan", "ios": "https://dc.lft.to/lastmile_qr_scan"}, "fusion_lon": 0.0, "lat": 38.8651085, "bike_id": "d23de2eff7a8005f9b1fcf0de3623de2", "type": "electric_bike", "is_reserved": 0, "lon": -77.12939933333334}, {"fusion_lat": 0.0, "name": "9c61015eb8ae7301bc75e122fa074c50", "is_disabled": 0, "rental_uris": {"android": "https://dc.lft.to/lastmile_qr_scan", "ios": "https://dc.lft.to/lastmile_qr_scan"}, "fusion_lon": 0.0, "lat": 38.938444, "bike_id": "9c61015eb8ae7301bc75e122fa074c50", "type": "electric_scooter", "is_reserved": 0, "lon": -77.06021833333334}, {"fusion_lat": 0.0, "name": "5d3766d3c683cccb8eb2769ca16502bf", "is_disabled": 0, "rental_uris": {"android": "https://dc.lft.to/lastmile_qr_scan", "ios": "https://dc.lft.to/lastmile_qr_scan"}, "fusion_lon": 0.0, "lat": 38.922435, "bike_id": "5d3766d3c683cccb8eb2769ca16502bf", "type": "electric_scooter", "is_reserved": 0, "lon": -77.0423965}, {"fusion_lat": 0.0, "name": "ca928566719239a74acaefda3e60446c", "is_disabled": 0, "rental_uris": {"android": "https://dc.lft.to/lastmile_qr_scan", "ios": "https://dc.lft.to/lastmile_qr_scan"}, "fusion_lon": 0.0, "lat": 38.92312366666667, "bike_id": "ca928566719239a74acaefda3e60446c", "type": "electric_scooter", "is_reserved": 0, "lon": -77.0562555}, {"fusion_lat": 0.0, "name": "4031bf6fedbe1dd5c5cedb6fbd1ea742", "is_disabled": 0, "rental_uris": {"android": "https://dc.lft.to/lastmile_qr_scan", "ios": "https://dc.lft.to/lastmile_qr_scan"}, "fusion_lon": 0.0, "lat": 38.93095316666667, "bike_id": "4031bf6fedbe1dd5c5cedb6fbd1ea742", "type": "electric_scooter", "is_reserved": 0, "lon": -77.02548616666667}, {"fusion_lat": 0.0, "name": "5e3aadf7f25702c36828a4c847dd87ee", "is_disabled": 0, "rental_uris": {"android": "https://dc.lft.to/lastmile_qr_scan", "ios": "https://dc.lft.to/lastmile_qr_scan"}, "fusion_lon": 0.0, "lat": 38.91254983333333, "bike_id": "5e3aadf7f25702c36828a4c847dd87ee", "type": "electric_scooter", "is_reserved": 0, "lon": -77.04463733333333}, {"fusion_lat": 0.0, "name": "6b2ad7ead214e4d9207eb9be78aac3db", "is_disabled": 0, "rental_uris": {"android": "https://dc.lft.to/lastmile_qr_scan", "ios": "https://dc.lft.to/lastmile_qr_scan"}, "fusion_lon": 0.0, "lat": 38.9179105, "bike_id": "6b2ad7ead214e4d9207eb9be78aac3db", "type": "electric_scooter", "is_reserved": 0, "lon": -77.00926566666666}, {"fusion_lat": 0.0, "name": "7816344862e15aaae87a42c099151c8b", "is_disabled": 0, "rental_uris": {"android": "https://dc.lft.to/lastmile_qr_scan", "ios": "https://dc.lft.to/lastmile_qr_scan"}, "fusion_lon": 0.0, "lat": 38.89057733333333, "bike_id": "7816344862e15aaae87a42c099151c8b", "type": "electric_scooter", "is_reserved": 0, "lon": -76.944526}, {"fusion_lat": 0.0, "name": "409cb247230f3bed45ed0695336ad7a5", "is_disabled": 0, "rental_uris": {"android": "https://dc.lft.to/lastmile_qr_scan", "ios": "https://dc.lft.to/lastmile_qr_scan"}, "fusion_lon": 0.0, "lat": 38.936203, "bike_id": "409cb247230f3bed45ed0695336ad7a5", "type": "electric_scooter", "is_reserved": 0, "lon": -77.03680133333333}, {"fusion_lat": 0.0, "name": "428b985dd034407150d7a23c3eb222a9", "is_disabled": 0, "rental_uris": {"android": "https://dc.lft.to/lastmile_qr_scan", "ios": "https://dc.lft.to/lastmile_qr_scan"}, "fusion_lon": 0.0, "lat": 38.89719516666667, "bike_id": "428b985dd034407150d7a23c3eb222a9", "type": "electric_scooter", "is_reserved": 0, "lon": -77.04536016666667}, {"fusion_lat": 0.0, "name": "0f8794b29bc7ea6e40cf9a9a09e4a880", "is_disabled": 0, "rental_uris": {"android": "https://dc.lft.to/lastmile_qr_scan", "ios": "https://dc.lft.to/lastmile_qr_scan"}, "fusion_lon": 0.0, "lat": 38.903889166666666, "bike_id": "0f8794b29bc7ea6e40cf9a9a09e4a880", "type": "electric_scooter", "is_reserved": 0, "lon": -77.00579466666667}, {"fusion_lat": 0.0, "name": "a9d5cbec25b2923005e0d6c547419dca", "is_disabled": 0, "rental_uris": {"android": "https://dc.lft.to/lastmile_qr_scan", "ios": "https://dc.lft.to/lastmile_qr_scan"}, "fusion_lon": 0.0, "lat": 38.913179, "bike_id": "a9d5cbec25b2923005e0d6c547419dca", "type": "electric_scooter", "is_reserved": 0, "lon": -77.03649583333333}, {"fusion_lat": 0.0, "name": "c91176810a56297ef7be93790bf4eb70", "is_disabled": 0, "rental_uris": {"android": "https://dc.lft.to/lastmile_qr_scan", "ios": "https://dc.lft.to/lastmile_qr_scan"}, "fusion_lon": 0.0, "lat": 38.88061616666667, "bike_id": "c91176810a56297ef7be93790bf4eb70", "type": "electric_scooter", "is_reserved": 0, "lon": -76.9850165}, {"fusion_lat": 0.0, "name": "0dc861895706a25194c2bc81be5458da", "is_disabled": 0, "rental_uris": {"android": "https://dc.lft.to/lastmile_qr_scan", "ios": "https://dc.lft.to/lastmile_qr_scan"}, "fusion_lon": 0.0, "lat": 38.92263783333333, "bike_id": "0dc861895706a25194c2bc81be5458da", "type": "electric_scooter", "is_reserved": 0, "lon": -77.03657333333334}, {"fusion_lat": 0.0, "name": "34adfa8fa04413e777bbc31e9f7fa950", "is_disabled": 0, "rental_uris": {"android": "https://dc.lft.to/lastmile_qr_scan", "ios": "https://dc.lft.to/lastmile_qr_scan"}, "fusion_lon": 0.0, "lat": 38.9600685, "bike_id": "34adfa8fa04413e777bbc31e9f7fa950", "type": "electric_scooter", "is_reserved": 0, "lon": -77.01981116666667}, {"fusion_lat": 0.0, "name": "62b321d836576dfb15d5e109c5d152c9", "is_disabled": 0, "rental_uris": {"android": "https://dc.lft.to/lastmile_qr_scan", "ios": "https://dc.lft.to/lastmile_qr_scan"}, "fusion_lon": 0.0, "lat": 38.9241185, "bike_id": "62b321d836576dfb15d5e109c5d152c9", "type": "electric_scooter", "is_reserved": 0, "lon": -77.020052}, {"fusion_lat": 0.0, "name": "e62b7add30b2d9e1c12583ea91430316", "is_disabled": 0, "rental_uris": {"android": "https://dc.lft.to/lastmile_qr_scan", "ios": "https://dc.lft.to/lastmile_qr_scan"}, "fusion_lon": 0.0, "lat": 38.891834833333334, "bike_id": "e62b7add30b2d9e1c12583ea91430316", "type": "electric_scooter", "is_reserved": 0, "lon": -76.99939683333334}, {"fusion_lat": 0.0, "name": "a3711d51de6f7f36db816578a0558ab0", "is_disabled": 0, "rental_uris": {"android": "https://dc.lft.to/lastmile_qr_scan", "ios": "https://dc.lft.to/lastmile_qr_scan"}, "fusion_lon": 0.0, "lat": 38.920333166666666, "bike_id": "a3711d51de6f7f36db816578a0558ab0", "type": "electric_scooter", "is_reserved": 0, "lon": -77.0176185}, {"fusion_lat": 0.0, "name": "c77fc7498dd78fefc6460c6dfdb86d43", "is_disabled": 0, "rental_uris": {"android": "https://dc.lft.to/lastmile_qr_scan", "ios": "https://dc.lft.to/lastmile_qr_scan"}, "fusion_lon": 0.0, "lat": 38.91673216666667, "bike_id": "c77fc7498dd78fefc6460c6dfdb86d43", "type": "electric_scooter", "is_reserved": 0, "lon": -77.0281045}, {"fusion_lat": 0.0, "name": "2b913f8165e880c999e2355d0e46c7d4", "is_disabled": 0, "rental_uris": {"android": "https://dc.lft.to/lastmile_qr_scan", "ios": "https://dc.lft.to/lastmile_qr_scan"}, "fusion_lon": 0.0, "lat": 38.902742833333335, "bike_id": "2b913f8165e880c999e2355d0e46c7d4", "type": "electric_scooter", "is_reserved": 0, "lon": -77.04372733333334}, {"fusion_lat": 0.0, "name": "2d35905284d4540e59d20ea2fef6d99a", "is_disabled": 0, "rental_uris": {"android": "https://dc.lft.to/lastmile_qr_scan", "ios": "https://dc.lft.to/lastmile_qr_scan"}, "fusion_lon": 0.0, "lat": 38.931452166666666, "bike_id": "2d35905284d4540e59d20ea2fef6d99a", "type": "electric_scooter", "is_reserved": 0, "lon": -77.07846483333333}, {"fusion_lat": 0.0, "name": "593b41083d38a3ca13e09b7466128635", "is_disabled": 0, "rental_uris": {"android": "https://dc.lft.to/lastmile_qr_scan", "ios": "https://dc.lft.to/lastmile_qr_scan"}, "fusion_lon": 0.0, "lat": 38.9071615, "bike_id": "593b41083d38a3ca13e09b7466128635", "type": "electric_scooter", "is_reserved": 0, "lon": -77.04813366666667}, {"fusion_lat": 0.0, "name": "4136f4e9fe4788a37e98afd880b5bf65", "is_disabled": 0, "rental_uris": {"android": "https://dc.lft.to/lastmile_qr_scan", "ios": "https://dc.lft.to/lastmile_qr_scan"}, "fusion_lon": 0.0, "lat": 38.95949566666667, "bike_id": "4136f4e9fe4788a37e98afd880b5bf65", "type": "electric_bike", "is_reserved": 0, "lon": -77.030611}, {"fusion_lat": 0.0, "name": "cff96e29d0397eee9b1cd8ca98d7a17f", "is_disabled": 0, "rental_uris": {"android": "https://dc.lft.to/lastmile_qr_scan", "ios": "https://dc.lft.to/lastmile_qr_scan"}, "fusion_lon": 0.0, "lat": 38.868512333333335, "bike_id": "cff96e29d0397eee9b1cd8ca98d7a17f", "type": "electric_scooter", "is_reserved": 0, "lon": -76.98829366666666}, {"fusion_lat": 0.0, "name": "49b0a12684fc4d80f9fe68fd032d4011", "is_disabled": 0, "rental_uris": {"android": "https://dc.lft.to/lastmile_qr_scan", "ios": "https://dc.lft.to/lastmile_qr_scan"}, "fusion_lon": 0.0, "lat": 38.916707333333335, "bike_id": "49b0a12684fc4d80f9fe68fd032d4011", "type": "electric_bike", "is_reserved": 0, "lon": -76.98229983333333}, {"fusion_lat": 0.0, "name": "6a710e1d0c18fbc892264f9edc514080", "is_disabled": 0, "rental_uris": {"android": "https://dc.lft.to/lastmile_qr_scan", "ios": "https://dc.lft.to/lastmile_qr_scan"}, "fusion_lon": 0.0, "lat": 38.949790666666665, "bike_id": "6a710e1d0c18fbc892264f9edc514080", "type": "electric_scooter", "is_reserved": 0, "lon": -77.02700366666667}, {"fusion_lat": 0.0, "name": "c91a3eb87dba44f14933c458686de478", "is_disabled": 0, "rental_uris": {"android": "https://dc.lft.to/lastmile_qr_scan", "ios": "https://dc.lft.to/lastmile_qr_scan"}, "fusion_lon": 0.0, "lat": 38.89218983333333, "bike_id": "c91a3eb87dba44f14933c458686de478", "type": "electric_scooter", "is_reserved": 0, "lon": -77.01492516666667},