{"data": {"bikes": [{"bike_id": "a9f4cd6d13b65f05b00b06cba37a5e4b", "fusion_lon": 0.0, "lon": -77.01903983333334, "name": "a9f4cd6d13b65f05b00b06cba37a5e4b", "is_disabled": 0, "rental_uris": {"android": "https://dc.lft.to/lastmile_qr_scan", "ios": "https://dc.lft.to/lastmile_qr_scan"}, "type": "electric_scooter", "lat": 38.91514633333333, "is_reserved": 0, "fusion_lat": 0.0}, {"bike_id": "12bc8b99630bcb1426d7938cd2fd83a0", "fusion_lon": 0.0, "lon": -77.03856383333333, "name": "12bc8b99630bcb1426d7938cd2fd83a0", "is_disabled": 0, "rental_uris": {"android": "https://dc.lft.to/lastmile_qr_scan", "ios": "https://dc.lft.to/lastmile_qr_scan"}, "type": "electric_scooter", "lat": 38.867461666666664, "is_reserved": 0, "fusion_lat": 0.0}, {"bike_id": "a28423cd2a95cb5bb77849c7a45daf23", "fusion_lon": 0.0, "lon": -77.02965733333333, "name": "a28423cd2a95cb5bb77849c7a45daf23", "is_disabled": 0, "rental_uris": {"android": "https://dc.lft.to/lastmile_qr_scan", "ios": "https://dc.lft.to/lastmile_qr_scan"}, "type": "electric_scooter", "lat": 38.9322605, "is_reserved": 0, "fusion_lat": 0.0}, {"bike_id": "d0790555b7dd3f621c0ca1e726c4be2f", "fusion_lon": 0.0, "lon": -76.993341, "name": "d0790555b7dd3f621c0ca1e726c4be2f", "is_disabled": 0, "rental_uris": {"android": "https://dc.lft.to/lastmile_qr_scan", "ios": "https://dc.lft.to/lastmile_qr_scan"}, "type": "electric_scooter", "lat": 38.871433833333334, "is_reserved": 0, "fusion_lat": 0.0}, {"bike_id": "0803fe5f3123d074aa708f4505543d83", "fusion_lon": 0.0, "lon": -77.05355733333333, "name": "0803fe5f3123d074aa708f4505543d83", "is_disabled": 0, "rental_uris": {"android": "https://dc.lft.to/lastmile_qr_scan", "ios": "https://dc.lft.to/lastmile_qr_scan"}, "type": "electric_scooter", "lat": 38.92662816666667, "is_reserved": 0, "fusion_lat": 0.0}, {"bike_id": "c6275065a515505e6b0ed5baef2574a6", "fusion_lon": 0.0, "lon": -76.94797766666667, "name": "c6275065a515505e6b0ed5baef2574a6", "is_disabled": 0, "rental_uris": {"android": "https://dc.lft.to/lastmile_qr_scan", "ios": "https://dc.lft.to/lastmile_qr_scan"}, "type": "electric_bike", "lat": 38.8939665, "is_reserved": 0, "fusion_lat": 0.0}, {"bike_id": "0da9e1dd5d77b87eb4167a6b5d67a254", "fusion_lon": 0.0, "lon": -76.9886855, "name": "0da9e1dd5d77b87eb4167a6b5d67a254", "is_disabled": 0, "rental_uris": {"android": "https://dc.lft.to/lastmile_qr_scan", "ios": "https://dc.lft.to/lastmile_qr_scan"}, "type": "electric_bike", "lat": 38.954831166666665, "is_reserved": 0, "fusion_lat": 0.0}, {"bike_id": "94acc6bfb8a62193c331aa0fab0b7ea7", "fusion_lon": 0.0, "lon": -76.9373645, "name": "94acc6bfb8a62193c331aa0fab0b7ea7", "is_disabled": 0, "rental_uris": {"android": "https://dc.lft.to/lastmile_qr_scan", "ios": "https://dc.lft.to/lastmile_qr_scan"}, "type": "electric_scooter", "lat": 38.890119166666665, "is_reserved": 0, "fusion_lat": 0.0}, {"bike_id": "a1db0f8df75463c79b41b9e1b26fbd6f", "fusion_lon": 0.0, "lon": -77.06908633333333, "name": "a1db0f8df75463c79b41b9e1b26fbd6f", "is_disabled": 0, "rental_uris": {"android": "https://dc.lft.to/lastmile_qr_scan", "ios": "https://dc.lft.to/lastmile_qr_scan"}, "type": "electric_scooter", "lat": 38.9100975, "is_reserved": 0, "fusion_lat": 0.0}, {"bike_id": "29844e38660f8f0bc8d9cb59c8b1371d", "fusion_lon": 0.0, "lon": -77.043813, "name": "29844e38660f8f0bc8d9cb59c8b1371d", "is_disabled": 0, "rental_uris": {"android": "https://dc.lft.to/lastmile_qr_scan", "ios": "https://dc.lft.to/lastmile_qr_scan"}, "type": "electric_scooter", "lat": 38.910739666666665, "is_reserved": 0, "fusion_lat": 0.0}, {"bike_id": "14731a1e6f020e972ad6b057ac5ed052", "fusion_lon": 0.0, "lon": -77.01764233333333, "name": "14731a1e6f020e972ad6b057ac5ed052", "is_disabled": 0, "rental_uris": {"android": "https://dc.lft.to/lastmile_qr_scan", "ios": "https://dc.lft.to/lastmile_qr_scan"}, "type": "electric_scooter", "lat": 38.902483833333335, "is_reserved": 0, "fusion_lat": 0.0}, {"bike_id": "1c9da7754c9482cfaea0361b8628a236", "fusion_lon": 0.0, "lon": -76.97833566666667, "name": "1c9da7754c9482cfaea0361b8628a236", "is_disabled": 0, "rental_uris": {"android": "https://dc.lft.to/lastmile_qr_scan", "ios": "https://dc.lft.to/lastmile_qr_scan"}, "type": "electric_bike", "lat": 38.870689166666665, "is_reserved": 0, "fusion_lat": 0.0}, {"bike_id": "d82a2ffe9d494b3035aedae71a36ce92", "fusion_lon": 0.0, "lon": -77.0073725, "name": "d82a2ffe9d494b3035aedae71a36ce92", "is_disabled": 0, "rental_uris": {"android": "https://dc.lft.to/lastmile_qr_scan", "ios": "https://dc.lft.to/lastmile_qr_scan"}, "type": "electric_scooter", "lat": 38.90365633333333, "is_reserved": 0, "fusion_lat": 0.0}, {"bike_id": "c2ae52d643af69099ff09d6cff74eea0", "fusion_lon": 0.0, "lon": -77.027409, "name": "c2ae52d643af69099ff09d6cff74eea0", "is_disabled": 0, "rental_uris": {"android": "https://dc.lft.to/lastmile_qr_scan", "ios": "https://dc.lft.to/lastmile_qr_scan"}, "type": "electric_scooter", "lat": 38.96705166666667, "is_reserved": 0, "fusion_lat": 0.0}, {"bike_id": "cfb31eabc2dec7bd41d67a34b08e0c89", "fusion_lon": 0.0, "lon": -77.02970033333334, "name": "cfb31eabc2dec7bd41d67a34b08e0c89", "is_disabled": 0, "rental_uris": {"android": "https://dc.lft.to/lastmile_qr_scan", "ios": "https://dc.lft.to/lastmile_qr_scan"}, "type": "electric_scooter", "lat": 38.91595083333333, "is_reserved": 0, "fusion_lat": 0.0}, {"bike_id": "45c9d99456875f8dfce84431b8d21a32", "fusion_lon": 0.0, "lon": -77.099602, "name": "45c9d99456875f8dfce84431b8d21a32", "is_disabled": 0, "rental_uris": {"android": "https://dc.lft.to/lastmile_qr_scan", "ios": "https://dc.lft.to/lastmile_qr_scan"}, "type": "electric_bike", "lat": 38.857894, "is_reserved": 0, "fusion_lat": 0.0}, {"bike_id": "a197085b0cc96c1f2e1f05e19c1ec23b", "fusion_lon": 0.0, "lon": -77.00215983333334, "name": "a197085b0cc96c1f2e1f05e19c1ec23b", "is_disabled": 0, "rental_uris": {"android": "https://dc.lft.to/lastmile_qr_scan", "ios": "https://dc.lft.to/lastmile_qr_scan"}, "type": "electric_scooter", "lat": 38.90027033333333, "is_reserved": 0, "fusion_lat": 0.0}, {"bike_id": "c2d470f6b5ac52c8530bd08038e3d2d5", "fusion_lon": 0.0, "lon": -76.92435133333333, "name": "c2d470f6b5ac52c8530bd08038e3d2d5", "is_disabled": 0, "rental_uris": {"android": "https://dc.lft.to/lastmile_qr_scan", "ios": "https://dc.lft.to/lastmile_qr_scan"}, "type": "electric_scooter", "lat": 38.90176783333333, "is_reserved": 0, "fusion_lat": 0.0}, {"bike_id": "7406acdc072562ccd60606089390c22f", "fusion_lon": 0.0, "lon": -76.99855566666666, "name": "7406acdc072562ccd60606089390c22f", "is_disabled": 0, "rental_uris": {"android": "https://dc.lft.to/lastmile_qr_scan", "ios": "https://dc.lft.to/lastmile_qr_scan"}, "type": "electric_scooter", "lat": 38.88754, "is_reserved": 0, "fusion_lat": 0.0}, {"bike_id": "cf2f9f59f9467aad8d157e190120761a", "fusion_lon": 0.0, "lon": -77.0529235, "name": "cf2f9f59f9467aad8d157e190120761a", "is_disabled": 0, "rental_uris": {"android": "https://dc.lft.to/lastmile_qr_scan", "ios": "https://dc.lft.to/lastmile_qr_scan"}, "type": "electric_scooter", "lat": 38.9279185, "is_reserved": 0, "fusion_lat": 0.0}, {"bike_id": "b21a6fb5e8214bdf2282ec8203c7886c", "fusion_lon": 0.0, "lon": -77.0346655, "name": "b21a6fb5e8214bdf2282ec8203c7886c", "is_disabled": 0, "rental_uris": {"android": "https://dc.lft.to/lastmile_qr_scan", "ios": "https://dc.lft.to/lastmile_qr_scan"}, "type": "electric_scooter", "lat": 38.92252966666667, "is_reserved": 0, "fusion_lat": 0.0}, {"bike_id": "763c6becf8b26c91cc93158ea97e7279", "fusion_lon": 0.0, "lon": -77.05521916666666, "name": "763c6becf8b26c91cc93158ea97e7279", "is_disabled": 0, "rental_uris": {"android": "https://dc.lft.to/lastmile_qr_scan", "ios": "https://dc.lft.to/lastmile_qr_scan"}, "type": "electric_scooter", "lat": 38.9093235, "is_reserved": 0, "fusion_lat": 0.0}, {"bike_id": "9119c2dd6e7f068db281134cf2ee41a3", "fusion_lon": 0.0, "lon": -77.04471483333333, "name": "9119c2dd6e7f068db281134cf2ee41a3", "is_disabled": 0, "rental_uris": {"android": "https://dc.lft.to/lastmile_qr_scan", "ios": "https://dc.lft.to/lastmile_qr_scan"}, "type": "electric_scooter", "lat": 38.91264683333333, "is_reserved": 0, "fusion_lat": 0.0}, {"bike_id": "1318ae59b82c0ad1e12662fbe8a92f3e", "fusion_lon": 0.0, "lon": -77.02885266666667, "name": "1318ae59b82c0ad1e12662fbe8a92f3e", "is_disabled": 0, "rental_uris": {"android": "https://dc.lft.to/lastmile_qr_scan", "ios": "https://dc.lft.to/lastmile_qr_scan"}, "type": "electric_scooter", "lat": 38.904316666666666, "is_reserved": 0, "fusion_lat": 0.0}, {"bike_id": "7617e7b76ab8797b04341e784d0846e7", "fusion_lon": 0.0, "lon": -77.03419433333333, "name": "7617e7b76ab8797b04341e784d0846e7", "is_disabled": 0, "rental_uris": {"android": "https://dc.lft.to/lastmile_qr_scan", "ios": "https://dc.lft.to/lastmile_qr_scan"}, "type": "electric_scooter", "lat": 38.91921283333333, "is_reserved": 0, "fusion_lat": 0.0}, {"bike_id": "822267789be79a96fbb9100290b97f7e", "fusion_lon": 0.0, "lon": -77.04009083333334, "name": "822267789be79a96fbb9100290b97f7e", "is_disabled": 0, "rental_uris": {"android": "https://dc.lft.to/lastmile_qr_scan", "ios": "https://dc.lft.to/lastmile_qr_scan"}, "type": "electric_scooter", "lat": 38.909963, "is_reserved": 0, "fusion_lat": 0.0}, {"bike_id": "a78d632b8fce12261e12f762aedf4eef", "fusion_lon": 0.0, "lon": -77.0218375, "name": "a78d632b8fce12261e12f762aedf4eef", "is_disabled": 0, "rental_uris": {"android": "https://dc.lft.to/lastmile_qr_scan", "ios": "https://dc.lft.to/lastmile_qr_scan"}, "type": "electric_scooter", "lat": 38.91417116666667, "is_reserved": 0, "fusion_lat": 0.0}, {"bike_id": "8927166bdf99c58896010287150d25fb", "fusion_lon": 0.0, "lon": -76.99029633333333, "name": "8927166bdf99c58896010287150d25fb", "is_disabled": 0, "rental_uris": {"android": "https://dc.lft.to/lastmile_qr_scan", "ios": "https://dc.lft.to/lastmile_qr_scan"}, "type": "electric_scooter", "lat": 38.865257666666665, "is_reserved": 0, "fusion_lat": 0.0}, {"bike_id": "8ef4c39eb81b8c4ebcac05f422e03e2e", "fusion_lon": 0.0, "lon": -77.129653, "name": "8ef4c39eb81b8c4ebcac05f422e03e2e", "is_disabled": 0, "rental_uris": {"android": "https://dc.lft.to/lastmile_qr_scan", "ios": "https://dc.lft.to/lastmile_qr_scan"}, "type": "electric_bike", "lat": 38.85219766666667, "is_reserved": 0, "fusion_lat": 0.0}, {"bike_id": "1db3c312f0cd183b7a243fae65086cb2", "fusion_lon": 0.0, "lon": -77.02340916666667, "name": "1db3c312f0cd183b7a243fae65086cb2", "is_disabled": 0, "rental_uris": {"android": "https://dc.lft.to/lastmile_qr_scan", "ios": "https://dc.lft.to/lastmile_qr_scan"}, "type": "electric_scooter", "lat": 38.90725233333333, "is_reserved": 0, "fusion_lat": 0.0}, {"bike_id": "6961aa098dd4f7f2d43531a707b8eb56", "fusion_lon": 0.0, "lon": -77.05529283333334, "name": "6961aa098dd4f7f2d43531a707b8eb56", "is_disabled": 0, "rental_uris": {"android": "https://dc.lft.to/lastmile_qr_scan", "ios": "https://dc.lft.to/lastmile_qr_scan"}, "type": "electric_scooter", "lat": 38.89723733333334, "is_reserved": 0, "fusion_lat": 0.0}, {"bike_id": "89113baadfd2fff775977f8b3e3480b1", "fusion_lon": 0.0, "lon": -77.03105166666667, "name": "89113baadfd2fff775977f8b3e3480b1", "is_disabled": 0, "rental_uris": {"android": "https://dc.lft.to/lastmile_qr_scan", "ios": "https://dc.lft.to/lastmile_qr_scan"}, "type": "electric_scooter", "lat": 38.919228, "is_reserved": 0, "fusion_lat": 0.0}, {"bike_id": "541030ed1177f485ce72b29c999687a8", "fusion_lon": 0.0, "lon": -77.0148295, "name": "541030ed1177f485ce72b29c999687a8", "is_disabled": 0, "rental_uris": {"android": "https://dc.lft.to/lastmile_qr_scan", "ios": "https://dc.lft.to/lastmile_qr_scan"}, "type": "electric_scooter", "lat": 38.8763595, "is_reserved": 0, "fusion_lat": 0.0}, {"bike_id": "f274d89b7dd18831c6916539584e12c8", "fusion_lon": 0.0, "lon": -76.932253, "name": "f274d89b7dd18831c6916539584e12c8", "is_disabled": 0, "rental_uris": {"android": "https://dc.lft.to/lastmile_qr_scan", "ios": "https://dc.lft.to/lastmile_qr_scan"}, "type": "electric_bike", "lat": 38.865922833333336, "is_reserved": 0, "fusion_lat": 0.0}, {"bike_id": "5c86a641f8d9b9df3aa5bce388bb78e4", "fusion_lon": 0.0, "lon": -77.03485983333333, "name": "5c86a641f8d9b9df3aa5bce388bb78e4", "is_disabled": 0, "rental_uris": {"android": "https://dc.lft.to/lastmile_qr_scan", "ios": "https://dc.lft.to/lastmile_qr_scan"}, "type": "electric_bike", "lat": 38.935338, "is_reserved": 0, "fusion_lat": 0.0}, {"bike_id": "42093fc46b03428a3b3f9c4a78bd906a", "fusion_lon": 0.0, "lon": -77.03874733333333, "name": "42093fc46b03428a3b3f9c4a78bd906a", "is_disabled": 0, "rental_uris": {"android": "https://dc.lft.to/lastmile_qr_scan", "ios": "https://dc.lft.to/lastmile_qr_scan"}, "type": "electric_scooter", "lat": 38.917064333333336, "is_reserved": 0, "fusion_lat": 0.0}, {"bike_id": "f9074f6269a00bb5c2b29ef5af7bccef", "fusion_lon": 0.0, "lon": -77.03399783333333, "name": "f9074f6269a00bb5c2b29ef5af7bccef", "is_disabled": 0, "rental_uris": {"android": "https://dc.lft.to/lastmile_qr_scan", "ios": "https://dc.lft.to/lastmile_qr_scan"}, "type": "electric_scooter", "lat": 38.919690833333334, "is_reserved": 0, "fusion_lat": 0.0}, {"bike_id": "9fb5d97b2d68b05cb328dac4593db5ff", "fusion_lon": 0.0, "lon": -77.036743, "name": "9fb5d97b2d68b05cb328dac4593db5ff", "is_disabled": 0, "rental_uris": {"android": "https://dc.lft.to/lastmile_qr_scan", "ios": "https://dc.lft.to/lastmile_qr_scan"}, "type": "electric_scooter", "lat": 38.917079666666666, "is_reserved": 0, "fusion_lat": 0.0}, {"bike_id": "afc5b4581c365b2fd807c79d2df1dff5", "fusion_lon": 0.0, "lon": -77.0299715, "name": "afc5b4581c365b2fd807c79d2df1dff5", "is_disabled": 0, "rental_uris": {"android": "https://dc.lft.to/lastmile_qr_scan", "ios": "https://dc.lft.to/lastmile_qr_scan"}, "type": "electric_scooter", "lat": 38.917092, "is_reserved": 0, "fusion_lat": 0.0}, {"bike_id": "c178bedc44d0f86852e34eef221b27ef", "fusion_lon": 0.0, "lon": -77.03263316666667, "name": "c178bedc44d0f86852e34eef221b27ef", "is_disabled": 0, "rental_uris": {"android": "https://dc.lft.to/lastmile_qr_scan", "ios": "https://dc.lft.to/lastmile_qr_scan"}, "type": "electric_scooter", "lat": 38.93264166666667, "is_reserved": 0, "fusion_lat": 0.0}, {"bike_id": "17f6d1d443f890498f6bdbbb5f84c47a", "fusion_lon": 0.0, "lon": -77.01745783333334, "name": "17f6d1d443f890498f6bdbbb5f84c47a", "is_disabled": 0, "rental_uris": {"android": "https://dc.lft.to/lastmile_qr_scan", "ios": "https://dc.lft.to/lastmile_qr_scan"}, "type": "electric_scooter", "lat": 38.883322, "is_reserved": 0, "fusion_lat": 0.0}, {"bike_id": "060e57cc33b1a681c3d51a6d532c11eb", "fusion_lon": 0.0, "lon": -77.03155966666667, "name": "060e57cc33b1a681c3d51a6d532c11eb", "is_disabled": 0, "rental_uris": {"android": "https://dc.lft.to/lastmile_qr_scan", "ios": "https://dc.lft.to/lastmile_qr_scan"}, "type": "electric_bike", "lat": 38.9994775, "is_reserved": 0, "fusion_lat": 0.0}, {"bike_id": "a21513f4da555b772937112f549fed73", "fusion_lon": 0.0, "lon": -77.00195866666667, "name": "a21513f4da555b772937112f549fed73", "is_disabled": 0, "rental_uris": {"android": "https://dc.lft.to/lastmile_qr_scan", "ios": "https://dc.lft.to/lastmile_qr_scan"}, "type": "electric_scooter", "lat": 38.90239866666667, "is_reserved": 0, "fusion_lat": 0.0}, {"bike_id": "d96a4629137883618fbf5fbc5721b431", "fusion_lon": 0.0, "lon": -77.03929583333333, "name": "d96a4629137883618fbf5fbc5721b431", "is_disabled": 0, "rental_uris": {"android": "https://dc.lft.to/lastmile_qr_scan", "ios": "https://dc.lft.to/lastmile_qr_scan"}, "type": "electric_scooter", "lat": 38.924901166666665, "is_reserved": 0, "fusion_lat": 0.0}, {"bike_id": "194eacb3a1b054d662740f627d9c6828", "fusion_lon": 0.0, "lon": -76.9837395, "name": "194eacb3a1b054d662740f627d9c6828", "is_disabled": 0, "rental_uris": {"android": "https://dc.lft.to/lastmile_qr_scan", "ios": "https://dc.lft.to/lastmile_qr_scan"}, "type": "electric_scooter", "lat": 38.88588883333333, "is_reserved": 0, "fusion_lat": 0.0}, {"bike_id": "fc3deeed457a47775e772a3c1625d0fe", "fusion_lon": 0.0, "lon": -77.03552366666666, "name": "fc3deeed457a47775e772a3c1625d0fe", "is_disabled": 0, "rental_uris": {"android": "https://dc.lft.to/lastmile_qr_scan", "ios": "https://dc.lft.to/lastmile_qr_scan"}, "type": "electric_scooter", "lat": 38.92859383333333, "is_reserved": 0, "fusion_lat": 0.0}, {"bike_id": "84f296cc097e1e460e783fb7f998eddc", "fusion_lon": 0.0, "lon": -77.04459016666667, "name": "84f296cc097e1e460e783fb7f998eddc", "is_disabled": 0, "rental_uris": {"android": "https://dc.lft.to/lastmile_qr_scan", "ios": "https://dc.lft.to/lastmile_qr_scan"}, "type": "electric_scooter", "lat": 38.9185345, "is_reserved": 0, "fusion_lat": 0.0}, {"bike_id": "4b8e23e7cb61177018e74fb4e6511ff3", "fusion_lon": 0.0, "lon": -77.03289733333334, "name": "4b8e23e7cb61177018e74fb4e6511ff3", "is_disabled": 0, "rental_uris": {"android": "https://dc.lft.to/lastmile_qr_scan", "ios": "https://dc.lft.to/lastmile_qr_scan"}, "type": "electric_scooter", "lat": 38.92049, "is_reserved": 0, "fusion_lat": 0.0}, {"bike_id": "65f66386caaa725751dbd9a39fc4c389", "fusion_lon": 0.0, "lon": -77.03790716666667, "name": "65f66386caaa725751dbd9a39fc4c389", "is_disabled": 0, "rental_uris": {"android": "https://dc.lft.to/lastmile_qr_scan", "ios": "https://dc.lft.to/lastmile_qr_scan"}, "type": "electric_scooter", "lat": 38.925458166666665, "is_reserved": 0, "fusion_lat": 0.0}, {"bike_id": "262403aec50e807d87d1f2ac81252f26", "fusion_lon": 0.0, "lon": -77.02984516666666, "name": "262403aec50e807d87d1f2ac81252f26", "is_disabled": 0, "rental_uris": {"android": "https://dc.lft.to/lastmile_qr_scan", "ios": "https://dc.lft.to/lastmile_qr_scan"}, "type": "electric_scooter", "lat": 38.89560316666667, "is_reserved": 0, "fusion_lat": 0.0}, {"bike_id": "47d12ecb237f33819d7b3b51f7625715", "fusion_lon": 0.0, "lon": -77.02391066666667, "name": "47d12ecb237f33819d7b3b51f7625715", "is_disabled": 0, "rental_uris": {"android": "https://dc.lft.to/lastmile_qr_scan", "ios": "https://dc.lft.to/lastmile_qr_scan"}, "type": "electric_scooter", "lat": 38.91961166666667, "is_reserved": 0, "fusion_lat": 0.0}, {"bike_id": "a889b3cd8dcfc2437985c564183259b0", "fusion_lon": 0.0, "lon": -77.01998883333333, "name": "a889b3cd8dcfc2437985c564183259b0", "is_disabled": 0, "rental_uris": {"android": "https://dc.lft.to/lastmile_qr_scan", "ios": "https://dc.lft.to/lastmile_qr_scan"}, "type": "electric_scooter", "lat": 38.8975445, "is_reserved": 0, "fusion_lat": 0.0}, {"bike_id": "eb97597577035315b6c7a56cf906ffc6", "fusion_lon": 0.0, "lon": -77.08617766666667, "name": "eb97597577035315b6c7a56cf906ffc6", "is_disabled": 0, "rental_uris": {"android": "https://dc.lft.to/lastmile_qr_scan", "ios": "https://dc.lft.to/lastmile_qr_scan"}, "type": "electric_bike", "lat": 38.8910845, "is_reserved": 0, "fusion_lat": 0.0}, {"bike_id": "22978e94361fdd964ac36a47495a4218", "fusion_lon": 0.0, "lon": -77.04342516666667, "name": "22978e94361fdd964ac36a47495a4218", "is_disabled": 0, "rental_uris": {"android": "https://dc.lft.to/lastmile_qr_scan", "ios": "https://dc.lft.to/lastmile_qr_scan"}, "type": "electric_scooter", "lat": 38.90731516666666, "is_reserved": 0, "fusion_lat": 0.0}, {"bike_id": "2f8b27cd61e0375dfcdb79933dca354c", "fusion_lon": 0.0, "lon": -77.03972983333334, "name": "2f8b27cd61e0375dfcdb79933dca354c", "is_disabled": 0, "rental_uris": {"android": "https://dc.lft.to/lastmile_qr_scan", "ios": "https://dc.lft.to/lastmile_qr_scan"}, "type": "electric_scooter", "lat": 38.911914333333335, "is_reserved": 0, "fusion_lat": 0.0}, {"bike_id": "962bcbb1ac431de3580ed3a21915df0e", "fusion_lon": 0.0, "lon": -77.02401516666667, "name": "962bcbb1ac431de3580ed3a21915df0e", "is_disabled": 0, "rental_uris": {"android": "https://dc.lft.to/lastmile_qr_scan", "ios": "https://dc.lft.to/lastmile_qr_scan"}, "type": "electric_scooter", "lat": 38.91597333333333, "is_reserved": 0, "fusion_lat": 0.0}, {"bike_id": "cf61362637e6987ecdf1797e6d7f762c", "fusion_lon": 0.0, "lon": -77.02636883333334, "name": "cf61362637e6987ecdf1797e6d7f762c", "is_disabled": 0, "rental_uris": {"android": "https://dc.lft.to/lastmile_qr_scan", "ios": "https://dc.lft.to/lastmile_qr_scan"}, "type": "electric_bike", "lat": 38.96229133333333, "is_reserved": 0, "fusion_lat": 0.0}, {"bike_id": "0deb9e1ad4ce815573e9d2fd7141d376", "fusion_lon": 0.0, "lon": -77.03495083333334, "name": "0deb9e1ad4ce815573e9d2fd7141d376", "is_disabled": 0, "rental_uris": {"android": "https://dc.lft.to/lastmile_qr_scan", "ios": "https://dc.lft.to/lastmile_qr_scan"}, "type": "electric_scooter", "lat": 38.918595833333335, "is_reserved": 0, "fusion_lat": 0.0}, {"bike_id": "4424af062f2681bffd09e47478484704", "fusion_lon": 0.0, "lon": -77.02823583333333, "name": "4424af062f2681bffd09e47478484704", "is_disabled": 0, "rental_uris": {"android": "https://dc.lft.to/lastmile_qr_scan", "ios": "https://dc.lft.to/lastmile_qr_scan"}, "type": "electric_bike", "lat": 38.96509233333333, "is_reserved": 0, "fusion_lat": 0.0}, {"bike_id": "e08a81381fac894eab39526c0b5993c3", "fusion_lon": 0.0, "lon": -77.03661966666667, "name": "e08a81381fac894eab39526c0b5993c3", "is_disabled": 0, "rental_uris": {"android": "https://dc.lft.to/lastmile_qr_scan", "ios": "https://dc.lft.to/lastmile_qr_scan"}, "type": "electric_scooter", "lat": 38.922849666666664, "is_reserved": 0, "fusion_lat": 0.0}, {"bike_id": "616931683e01a455ab0470e3c026d406", "fusion_lon": 0.0, "lon": -76.97705283333333, "name": "616931683e01a455ab0470e3c026d406", "is_disabled": 0, "rental_uris": {"android": "https://dc.lft.to/lastmile_qr_scan", "ios": "https://dc.lft.to/lastmile_qr_scan"}, "type": "electric_bike", "lat": 38.9491205, "is_reserved": 0, "fusion_lat": 0.0}, {"bike_id": "a1b1a8412c74e52d22d63eddde25a061", "fusion_lon": 0.0, "lon": -76.88375183333333, "name": "a1b1a8412c74e52d22d63eddde25a061", "is_disabled": 0, "rental_uris": {"android": "https://dc.lft.to/lastmile_qr_scan", "ios": "https://dc.lft.to/lastmile_qr_scan"}, "type": "electric_bike", "lat": 38.9981755, "is_reserved": 0, "fusion_lat": 0.0}, {"bike_id": "7eef81f15b7c6407bfd3086d85ede924", "fusion_lon": 0.0, "lon": -77.0328195, "name": "7eef81f15b7c6407bfd3086d85ede924", "is_disabled": 0, "rental_uris": {"android": "https://dc.lft.to/lastmile_qr_scan", "ios": "https://dc.lft.to/lastmile_qr_scan"}, "type": "electric_scooter", "lat": 38.900102, "is_reserved": 0, "fusion_lat": 0.0}, {"bike_id": "98464388118067b0e5d723be7dc8d03e", "fusion_lon": 0.0, "lon": -76.95140616666667, "name": "98464388118067b0e5d723be7dc8d03e", "is_disabled": 0, "rental_uris": {"android": "https://dc.lft.to/lastmile_qr_scan", "ios": "https://dc.lft.to/lastmile_qr_scan"}, "type": "electric_scooter", "lat": 38.89034216666667, "is_reserved": 0, "fusion_lat": 0.0}, {"bike_id": "c83b2e1c91df15c814492d949bec40cd", "fusion_lon": 0.0, "lon": -77.36100933333333, "name": "c83b2e1c91df15c814492d949bec40cd", "is_disabled": 0, "rental_uris": {"android": "https://dc.lft.to/lastmile_qr_scan", "ios": "https://dc.lft.to/lastmile_qr_scan"}, "type": "electric_bike", "lat": 38.93962883333333, "is_reserved": 0, "fusion_lat": 0.0}, {"bike_id": "f4f4b0f8f86ce1fa22cc0e3aff9c268e", "fusion_lon": 0.0, "lon": -77.05261766666666, "name": "f4f4b0f8f86ce1fa22cc0e3aff9c268e", "is_disabled": 0, "rental_uris": {"android": "https://dc.lft.to/lastmile_qr_scan", "ios": "https://dc.lft.to/lastmile_qr_scan"}, "type": "electric_scooter", "lat": 38.925717166666665, "is_reserved": 0, "fusion_lat": 0.0}, {"bike_id": "41338cf99a5aef362e63708eed67ed20", "fusion_lon": 0.0, "lon": -77.00154766666667, "name": "41338cf99a5aef362e63708eed67ed20", "is_disabled": 0, "rental_uris": {"android": "https://dc.lft.to/lastmile_qr_scan", "ios": "https://dc.lft.to/lastmile_qr_scan"}, "type": "electric_scooter", "lat": 38.92335716666667, "is_reserved": 0, "fusion_lat": 0.0}, {"bike_id": "b525bfcd9d9355c2330ceefa03f9eccf", "fusion_lon": 0.0, "lon": -77.02103066666666, "name": "b525bfcd9d9355c2330ceefa03f9eccf", "is_disabled": 0, "rental_uris": {"android": "https://dc.lft.to/lastmile_qr_scan", "ios": "https://dc.lft.to/lastmile_qr_scan"}, "type": "electric_scooter", "lat": 38.924125, "is_reserved": 0, "fusion_lat": 0.0}, {"bike_id": "ce52b1f498c56c873cb727049b219506", "fusion_lon": 0.0, "lon": -76.94637916666667, "name": "ce52b1f498c56c873cb727049b219506", "is_disabled": 0, "rental_uris": {"android": "https://dc.lft.to/lastmile_qr_scan", "ios": "https://dc.lft.to/lastmile_qr_scan"}, "type": "electric_scooter", "lat": 38.898435166666665, "is_reserved": 0, "fusion_lat": 0.0}, {"bike_id": "dcd10ae55027b13f9b8b98aeb76c68f5", "fusion_lon": 0.0, "lon": -76.99728683333333, "name": "dcd10ae55027b13f9b8b98aeb76c68f5", "is_disabled": 0, "rental_uris": {"android": "https://dc.lft.to/lastmile_qr_scan", "ios": "https://dc.lft.to/lastmile_qr_scan"}, "type": "electric_scooter", "lat": 38.907912833333334, "is_reserved": 0, "fusion_lat": 0.0}, {"bike_id": "da7da9d6fa657994163ce7bec4371fd1", "fusion_lon": 0.0, "lon": -76.9883775, "name": "da7da9d6fa657994163ce7bec4371fd1", "is_disabled": 0, "rental_uris": {"android": "https://dc.lft.to/lastmile_qr_scan", "ios": "https://dc.lft.to/lastmile_qr_scan"}, "type": "electric_scooter", "lat": 38.90034133333333, "is_reserved": 0, "fusion_lat": 0.0}, {"bike_id": "196efa440111ea7952e57fdf7b5d0c5d", "fusion_lon": 0.0, "lon": -77.033088, "name": "196efa440111ea7952e57fdf7b5d0c5d", "is_disabled": 0, "rental_uris": {"android": "https://dc.lft.to/lastmile_qr_scan", "ios": "https://dc.lft.to/lastmile_qr_scan"}, "type": "electric_scooter", "lat": 38.93442, "is_reserved": 0, "fusion_lat": 0.0}, {"bike_id": "d268eef1a8c7fe38f826e74d75723190", "fusion_lon": 0.0, "lon": -77.0208875, "name": "d268eef1a8c7fe38f826e74d75723190", "is_disabled": 0, "rental_uris": {"android": "https://dc.lft.to/lastmile_qr_scan", "ios": "https://dc.lft.to/lastmile_qr_scan"}, "type": "electric_scooter", "lat": 38.92711216666667, "is_reserved": 0, "fusion_lat": 0.0}, {"bike_id": "ebffdc1d5750fcabadcc3678e26dc69c", "fusion_lon": 0.0, "lon": -76.98493316666666, "name": "ebffdc1d5750fcabadcc3678e26dc69c", "is_disabled": 0, "rental_uris": {"android": "https://dc.lft.to/lastmile_qr_scan", "ios": "https://dc.lft.to/lastmile_qr_scan"}, "type": "electric_scooter", "lat": 38.86684366666667, "is_reserved": 0, "fusion_lat": 0.0}, {"bike_id": "4e2ec440ae3dda1c41893672827dc807", "fusion_lon": 0.0, "lon": -77.03477733333334, "name": "4e2ec440ae3dda1c41893672827dc807", "is_disabled": 0, "rental_uris": {"android": "https://dc.lft.to/lastmile_qr_scan", "ios": "https://dc.lft.to/lastmile_qr_scan"}, "type": "electric_scooter", "lat": 38.9028255, "is_reserved": 0, "fusion_lat": 0.0}, {"bike_id": "70c7230cd352f0f2da440a63e182312d", "fusion_lon": 0.0, "lon": -77.01779483333334, "name": "70c7230cd352f0f2da440a63e182312d", "is_disabled": 0, "rental_uris": {"android": "https://dc.lft.to/lastmile_qr_scan", "ios": "https://dc.lft.to/lastmile_qr_scan"}, "type": "electric_scooter", "lat": 38.944198166666666, "is_reserved": 0, "fusion_lat": 0.0}, {"bike_id": "138f50f901743a362b8d8bd6415174eb", "fusion_lon": 0.0, "lon": -77.0237485, "name": "138f50f901743a362b8d8bd6415174eb", "is_disabled": 0, "rental_uris": {"android": "https://dc.lft.to/lastmile_qr_scan", "ios": "https://dc.lft.to/lastmile_qr_scan"}, "type": "electric_scooter", "lat": 38.90200683333333, "is_reserved": 0, "fusion_lat": 0.0}, {"bike_id": "8c5fbb32dfb7a06677045d1ff3b5194e", "fusion_lon": 0.0, "lon": -76.99499833333333, "name": "8c5fbb32dfb7a06677045d1ff3b5194e", "is_disabled": 0, "rental_uris": {"android": "https://dc.lft.to/lastmile_qr_scan", "ios": "https://dc.lft.to/lastmile_qr_scan"}, "type": "electric_scooter", "lat": 38.8990845, "is_reserved": 0, "fusion_lat": 0.0}, {"bike_id": "068692840e579ab17a17b2ddb453b1be", "fusion_lon": 0.0, "lon": -77.03867833333334, "name": "068692840e579ab17a17b2ddb453b1be", "is_disabled": 0, "rental_uris": {"android": "https://dc.lft.to/lastmile_qr_scan", "ios": "https://dc.lft.to/lastmile_qr_scan"}, "type": "electric_scooter", "lat": 38.921507, "is_reserved": 0, "fusion_lat": 0.0}, {"bike_id": "a0ad915d79ff0f9f92e2e897c0f87811", "fusion_lon": 0.0, "lon": -77.12526583333333, "name": "a0ad915d79ff0f9f92e2e897c0f87811", "is_disabled": 0, "rental_uris": {"android": "https://dc.lft.to/lastmile_qr_scan", "ios": "https://dc.lft.to/lastmile_qr_scan"}, "type": "electric_bike", "lat": 39.05632033333333, "is_reserved": 0, "fusion_lat": 0.0}, {"bike_id": "738da9dc430d9890ca12792a364ecf56", "fusion_lon": 0.0, "lon": -77.020852, "name": "738da9dc430d9890ca12792a364ecf56", "is_disabled": 0, "rental_uris": {"android": "https://dc.lft.to/lastmile_qr_scan", "ios": "https://dc.lft.to/lastmile_qr_scan"}, "type": "electric_scooter", "lat": 38.87573483333333, "is_reserved": 0, "fusion_lat": 0.0}, {"bike_id": "7f51245eccda45f9fa654dd2a3377b6a", "fusion_lon": 0.0, "lon": -77.06340483333334, "name": "7f51245eccda45f9fa654dd2a3377b6a", "is_disabled": 0, "rental_uris": {"android": "https://dc.lft.to/lastmile_qr_scan", "ios": "https://dc.lft.to/lastmile_qr_scan"}, "type": "electric_scooter", "lat": 38.90682733333333, "is_reserved": 0, "fusion_lat": 0.0}, {"bike_id": "2f20cbca058e13d496b5f2d5fa556ae5", "fusion_lon": 0.0, "lon": -77.02942983333334, "name": "2f20cbca058e13d496b5f2d5fa556ae5", "is_disabled": 0, "rental_uris": {"android": "https://dc.lft.to/lastmile_qr_scan", "ios": "https://dc.lft.to/lastmile_qr_scan"}, "type": "electric_scooter", "lat": 38.90509566666667, "is_reserved": 0, "fusion_lat": 0.0}, {"bike_id": "edb948cf37db3170accaeabafbf70cde", "fusion_lon": 0.0, "lon": -76.9894405, "name": "edb948cf37db3170accaeabafbf70cde", "is_disabled": 0, "rental_uris": {"android": "https://dc.lft.to/lastmile_qr_scan", "ios": "https://dc.lft.to/lastmile_qr_scan"}, "type": "electric_scooter", "lat": 38.90395183333333, "is_reserved": 0, "fusion_lat": 0.0}, {"bike_id": "aa52124b6c142c13c1685ed9e7fdea25", "fusion_lon": 0.0, "lon": -76.97330716666667, "name": "aa52124b6c142c13c1685ed9e7fdea25", "is_disabled": 0, "rental_uris": {"android": "https://dc.lft.to/lastmile_qr_scan", "ios": "https://dc.lft.to/lastmile_qr_scan"}, "type": "electric_scooter", "lat": 38.90409416666667, "is_reserved": 0, "fusion_lat": 0.0}, {"bike_id": "cb47f7b32c6d99e9ee3c2e8a538469de", "fusion_lon": 0.0, "lon": -77.03376216666666, "name": "cb47f7b32c6d99e9ee3c2e8a538469de", "is_disabled": 0, "rental_uris": {"android": "https://dc.lft.to/lastmile_qr_scan", "ios": "https://dc.lft.to/lastmile_qr_scan"}, "type": "electric_scooter", "lat": 38.91355816666667, "is_reserved": 0, "fusion_lat": 0.0}, {"bike_id": "9fb629a53f536de75d0877f698fffec8", "fusion_lon": 0.0, "lon": -77.0487965, "name": "9fb629a53f536de75d0877f698fffec8", "is_disabled": 0, "rental_uris": {"android": "https://dc.lft.to/lastmile_qr_scan", "ios": "https://dc.lft.to/lastmile_qr_scan"}, "type": "electric_scooter", "lat": 38.91558166666667, "is_reserved": 0, "fusion_lat": 0.0}, {"bike_id": "6c8f39317d25ad3a2bd970eea0dfba0b", "fusion_lon": 0.0, "lon": -77.03774583333333, "name": "6c8f39317d25ad3a2bd970eea0dfba0b", "is_disabled": 0, "rental_uris": {"android": "https://dc.lft.to/lastmile_qr_scan", "ios": "https://dc.lft.to/lastmile_qr_scan"}, "type": "electric_scooter", "lat": 38.90660283333333, "is_reserved": 0, "fusion_lat": 0.0}, {"bike_id": "e9e9cd644d7a9c7122c2ddf178f75810", "fusion_lon": 0.0, "lon": -76.9926325, "name": "e9e9cd644d7a9c7122c2ddf178f75810", "is_disabled": 0, "rental_uris": {"android": "https://dc.lft.to/lastmile_qr_scan", "ios": "https://dc.lft.to/lastmile_qr_scan"}, "type": "electric_scooter", "lat": 38.91974366666667, "is_reserved": 0, "fusion_lat": 0.0}, {"bike_id": "00d5b549140cb9b38938838f67b5f0d3", "fusion_lon": 0.0, "lon": -77.007156, "name": "00d5b549140cb9b38938838f67b5f0d3", "is_disabled": 0, "rental_uris": {"android": "https://dc.lft.to/lastmile_qr_scan", "ios": "https://dc.lft.to/lastmile_qr_scan"}, "type": "electric_scooter", "lat": 38.877049, "is_reserved": 0, "fusion_lat": 0.0}, {"bike_id": "1ba2912c8a35b07b1d36d5eb3a173106", "fusion_lon": 0.0, "lon": -77.02305183333333, "name": "1ba2912c8a35b07b1d36d5eb3a173106", "is_disabled": 0, "rental_uris": {"android": "https://dc.lft.to/lastmile_qr_scan", "ios": "https://dc.lft.to/lastmile_qr_scan"}, "type": "electric_scooter", "lat": 38.895629166666666, "is_reserved": 0, "fusion_lat": 0.0}, {"bike_id": "d1d2080be6829e584464d33a5743ef78", "fusion_lon": 0.0, "lon": -77.03208033333334, "name": "d1d2080be6829e584464d33a5743ef78", "is_disabled": 0, "rental_uris": {"android": "https://dc.lft.to/lastmile_qr_scan", "ios": "https://dc.lft.to/lastmile_qr_scan"}, "type": "electric_scooter", "lat": 38.91476516666667, "is_reserved": 0, "fusion_lat": 0.0}, {"bike_id": "cb89162ec5a2d82294f1e11c91ad82c6", "fusion_lon": 0.0, "lon": -77.09483516666667, "name": "cb89162ec5a2d82294f1e11c91ad82c6", "is_disabled": 0, "rental_uris": {"android": "https://dc.lft.to/lastmile_qr_scan", "ios": "https://dc.lft.to/lastmile_qr_scan"}, "type": "electric_bike", "lat": 39.030469833333335, "is_reserved": 0, "fusion_lat": 0.0}, {"bike_id": "1045a3ce91305b03d4e97436de6586f6", "fusion_lon": 0.0, "lon": -77.048861, "name": "1045a3ce91305b03d4e97436de6586f6", "is_disabled": 0, "rental_uris": {"android": "https://dc.lft.to/lastmile_qr_scan", "ios": "https://dc.lft.to/lastmile_qr_scan"}, "type": "electric_scooter", "lat": 38.9134205, "is_reserved": 0, "fusion_lat": 0.0}, {"bike_id": "c9532f35f59296639e5d89858eca100a", "fusion_lon": 0.0, "lon": -77.030469, "name": "c9532f35f59296639e5d89858eca100a", "is_disabled": 0, "rental_uris": {"android": "https://dc.lft.to/lastmile_qr_scan", "ios": "https://dc.lft.to/lastmile_qr_scan"}, "type": "electric_scooter", "lat": 38.88431633333333, "is_reserved": 0, "fusion_lat": 0.0}, {"bike_id": "e920d3bbd686e69ef5f64a28f4c774c2", "fusion_lon": 0.0, "lon": -77.02333966666667, "name": "e920d3bbd686e69ef5f64a28f4c774c2", "is_disabled": 0, "rental_uris": {"android": "https://dc.lft.to/lastmile_qr_scan", "ios": "https://dc.lft.to/lastmile_qr_scan"}, "type": "electric_scooter", "lat": 38.924762333333334, "is_reserved": 0, "fusion_lat": 0.0}, {"bike_id": "a84f5eecfa6e8b1dc29c3057f038ce3e", "fusion_lon": 0.0, "lon": -77.023858, "name": "a84f5eecfa6e8b1dc29c3057f038ce3e", "is_disabled": 0, "rental_uris": {"android": "https://dc.lft.to/lastmile_qr_scan", "ios": "https://dc.lft.to/lastmile_qr_scan"}, "type": "electric_scooter", "lat": 38.901919, "is_reserved": 0, "fusion_lat": 0.0}, {"bike_id": "da11cc3f12d6051f56fcc6fc5059389a", "fusion_lon": 0.0, "lon": -77.00246, "name": "da11cc3f12d6051f56fcc6fc5059389a", "is_disabled": 0, "rental_uris": {"android": "https://dc.lft.to/lastmile_qr_scan", "ios": "https://dc.lft.to/lastmile_qr_scan"}, "type": "electric_scooter", "lat": 38.88513283333333, "is_reserved": 0, "fusion_lat": 0.0}, {"bike_id": "abceef0b03928d43d99a08623d80410e", "fusion_lon": 0.0, "lon": -76.987729, "name": "abceef0b03928d43d99a08623d80410e", "is_disabled": 0, "rental_uris": {"android": "https://dc.lft.to/lastmile_qr_scan", "ios": "https://dc.lft.to/lastmile_qr_scan"}, "type": "electric_bike", "lat": 38.8577085, "is_reserved": 0, "fusion_lat": 0.0}, {"bike_id": "4406f5bcee90d40f95da560d412a8f34", "fusion_lon": 0.0, "lon": -77.01983833333334, "name": "4406f5bcee90d40f95da560d412a8f34", "is_disabled": 0, "rental_uris": {"android": "https://dc.lft.to/lastmile_qr_scan", "ios": "https://dc.lft.to/lastmile_qr_scan"}, "type": "electric_scooter", "lat": 38.95720583333333, "is_reserved": 0, "fusion_lat": 0.0}, {"bike_id": "1f17b183c057260bcff94b7eba69d94a", "fusion_lon": 0.0, "lon": -77.02559716666667, "name": "1f17b183c057260bcff94b7eba69d94a", "is_disabled": 0, "rental_uris": {"android": "https://dc.lft.to/lastmile_qr_scan", "ios": "https://dc.lft.to/lastmile_qr_scan"}, "type": "electric_scooter", "lat": 38.91633083333333, "is_reserved": 0, "fusion_lat": 0.0}, {"bike_id": "00ecc82d780950f61eae5234a8fe1e3d", "fusion_lon": 0.0, "lon": -77.0498275, "name": "00ecc82d780950f61eae5234a8fe1e3d", "is_disabled": 0, "rental_uris": {"android": "https://dc.lft.to/lastmile_qr_scan", "ios": "https://dc.lft.to/lastmile_qr_scan"}, "type": "electric_bike", "lat": 39.0629365, "is_reserved": 0, "fusion_lat": 0.0}, {"bike_id": "63d9c187a90b746baf75b9187435fe2c", "fusion_lon": 0.0, "lon": -77.05754533333334, "name": "63d9c187a90b746baf75b9187435fe2c", "is_disabled": 0, "rental_uris": {"android": "https://dc.lft.to/lastmile_qr_scan", "ios": "https://dc.lft.to/lastmile_qr_scan"}, "type": "electric_scooter", "lat": 38.924922333333335, "is_reserved": 0, "fusion_lat": 0.0}, {"bike_id": "c50734657b1e10842dc00c708bfa36f8", "fusion_lon": 0.0, "lon": -77.03467816666667, "name": "c50734657b1e10842dc00c708bfa36f8", "is_disabled": 0, "rental_uris": {"android": "https://dc.lft.to/lastmile_qr_scan", "ios": "https://dc.lft.to/lastmile_qr_scan"}, "type": "electric_scooter", "lat": 38.90561566666667, "is_reserved": 0, "fusion_lat": 0.0}, {"bike_id": "0ef39d416899396088da30a4ae419e54", "fusion_lon": 0.0, "lon": -77.00885716666667, "name": "0ef39d416899396088da30a4ae419e54", "is_disabled": 0, "rental_uris": {"android": "https://dc.lft.to/lastmile_qr_scan", "ios": "https://dc.lft.to/lastmile_qr_scan"}, "type": "electric_scooter", "lat": 38.9248575, "is_reserved": 0, "fusion_lat": 0.0}, {"bike_id": "778b8c23fbad45a0c3cc334d97d47baf", "fusion_lon": 0.0, "lon": -77.04897333333334, "name": "778b8c23fbad45a0c3cc334d97d47baf", "is_disabled": 0, "rental_uris": {"android": "https://dc.lft.to/lastmile_qr_scan", "ios": "https://dc.lft.to/lastmile_qr_scan"}, "type": "electric_scooter", "lat": 38.88999033333333, "is_reserved": 0, "fusion_lat": 0.0}, {"bike_id": "768ddb0e740a84e8581e6ec838b1e7b3", "fusion_lon": 0.0, "lon": -77.0432505, "name": "768ddb0e740a84e8581e6ec838b1e7b3", "is_disabled": 0, "rental_uris": {"android": "https://dc.lft.to/lastmile_qr_scan", "ios": "https://dc.lft.to/lastmile_qr_scan"}, "type": "electric_scooter", "lat": 38.926568, "is_reserved": 0, "fusion_lat": 0.0}, {"bike_id": "43ac71297f99bb6d4b6e011333a3a28a", "fusion_lon": 0.0, "lon": -76.98727066666666, "name": "43ac71297f99bb6d4b6e011333a3a28a", "is_disabled": 0, "rental_uris": {"android": "https://dc.lft.to/lastmile_qr_scan", "ios": "https://dc.lft.to/lastmile_qr_scan"}, "type": "electric_scooter", "lat": 38.906953666666666, "is_reserved": 0, "fusion_lat": 0.0}, {"bike_id": "ec2ef128fde602e8c3281f384c20711e", "fusion_lon": 0.0, "lon": -77.02718683333333, "name": "ec2ef128fde602e8c3281f384c20711e", "is_disabled": 0, "rental_uris": {"android": "https://dc.lft.to/lastmile_qr_scan", "ios": "https://dc.lft.to/lastmile_qr_scan"}, "type": "electric_scooter", "lat": 38.909536833333334, "is_reserved": 0, "fusion_lat": 0.0}, {"bike_id": "f8a5b025dd4ff7e9932f968acff7f7f0", "fusion_lon": 0.0, "lon": -77.0366255, "name": "f8a5b025dd4ff7e9932f968acff7f7f0", "is_disabled": 0, "rental_uris": {"android": "https://dc.lft.to/lastmile_qr_scan", "ios": "https://dc.lft.to/lastmile_qr_scan"}, "type": "electric_scooter", "lat": 38.921011166666666, "is_reserved": 0, "fusion_lat": 0.0}, {"bike_id": "c4db0c00f8fb203fe09551798cd2b38b", "fusion_lon": 0.0, "lon": -77.03221216666667, "name": "c4db0c00f8fb203fe09551798cd2b38b", "is_disabled": 0, "rental_uris": {"android": "https://dc.lft.to/lastmile_qr_scan", "ios": "https://dc.lft.to/lastmile_qr_scan"}, "type": "electric_scooter", "lat": 38.918437, "is_reserved": 0, "fusion_lat": 0.0}, {"bike_id": "dae86486cb65d2772890a4d65ee50d67", "fusion_lon": 0.0, "lon": -77.01729783333333, "name": "dae86486cb65d2772890a4d65ee50d67", "is_disabled": 0, "rental_uris": {"android": "https://dc.lft.to/lastmile_qr_scan", "ios": "https://dc.lft.to/lastmile_qr_scan"}, "type": "electric_bike", "lat": 38.9160555, "is_reserved": 0, "fusion_lat": 0.0}, {"bike_id": "b2578ef49b0fc5451c62b11046faf4c9", "fusion_lon": 0.0, "lon": -76.992707, "name": "b2578ef49b0fc5451c62b11046faf4c9", "is_disabled": 0, "rental_uris": {"android": "https://dc.lft.to/lastmile_qr_scan", "ios": "https://dc.lft.to/lastmile_qr_scan"}, "type": "electric_scooter", "lat": 38.886384666666665, "is_reserved": 0, "fusion_lat": 0.0}, {"bike_id": "846b2d53f9250196b6b975f2ade0130d", "fusion_lon": 0.0, "lon": -76.94875316666666, "name": "846b2d53f9250196b6b975f2ade0130d", "is_disabled": 0, "rental_uris": {"android": "https://dc.lft.to/lastmile_qr_scan", "ios": "https://dc.lft.to/lastmile_qr_scan"}, "type": "electric_scooter", "lat": 38.894998, "is_reserved": 0, "fusion_lat": 0.0}, {"bike_id": "6e3424ead6eb1e2c9b52feb63878900e", "fusion_lon": 0.0, "lon": -77.029492, "name": "6e3424ead6eb1e2c9b52feb63878900e", "is_disabled": 0, "rental_uris": {"android": "https://dc.lft.to/lastmile_qr_scan", "ios": "https://dc.lft.to/lastmile_qr_scan"}, "type": "electric_scooter", "lat": 38.89921966666667, "is_reserved": 0, "fusion_lat": 0.0}, {"bike_id": "6675987ffe4abef30f4c8ea460a7f142", "fusion_lon": 0.0, "lon": -76.988893, "name": "6675987ffe4abef30f4c8ea460a7f142", "is_disabled": 0, "rental_uris": {"android": "https://dc.lft.to/lastmile_qr_scan", "ios": "https://dc.lft.to/lastmile_qr_scan"}, "type": "electric_scooter", "lat": 38.866526666666665, "is_reserved": 0, "fusion_lat": 0.0}, {"bike_id": "e3bfdd33fd7f7a32a9993d427cd4262c", "fusion_lon": 0.0, "lon": -77.005718, "name": "e3bfdd33fd7f7a32a9993d427cd4262c", "is_disabled": 0, "rental_uris": {"android": "https://dc.lft.to/lastmile_qr_scan", "ios": "https://dc.lft.to/lastmile_qr_scan"}, "type": "electric_scooter", "lat": 38.8805195, "is_reserved": 0, "fusion_lat": 0.0}, {"bike_id": "cff4855f35d7930a0a02e8126a56eee4", "fusion_lon": 0.0, "lon": -77.02603016666667, "name": "cff4855f35d7930a0a02e8126a56eee4", "is_disabled": 0, "rental_uris": {"android": "https://dc.lft.to/lastmile_qr_scan", "ios": "https://dc.lft.to/lastmile_qr_scan"}, "type": "electric_scooter", "lat": 38.9024845, "is_reserved": 0, "fusion_lat": 0.0}, {"bike_id": "409829d8e38177d71a6d1c05cdb19229", "fusion_lon": 0.0, "lon": -77.02810183333334, "name": "409829d8e38177d71a6d1c05cdb19229", "is_disabled": 0, "rental_uris": {"android": "https://dc.lft.to/lastmile_qr_scan", "ios": "https://dc.lft.to/lastmile_qr_scan"}, "type": "electric_scooter", "lat": 38.930814833333336, "is_reserved": 0, "fusion_lat": 0.0}, {"bike_id": "5615775847dbb82be9efe0f2ede81dea", "fusion_lon": 0.0, "lon": -77.04129016666667, "name": "5615775847dbb82be9efe0f2ede81dea", "is_disabled": 0, "rental_uris": {"android": "https://dc.lft.to/lastmile_qr_scan", "ios": "https://dc.lft.to/lastmile_qr_scan"}, "type": "electric_scooter", "lat": 38.92176116666667, "is_reserved": 0, "fusion_lat": 0.0}, {"bike_id": "551f5f4def28193db62d5c22dd00cd19", "fusion_lon": 0.0, "lon": -77.04484083333334, "name": "551f5f4def28193db62d5c22dd00cd19", "is_disabled": 0, "rental_uris": {"android": "https://dc.lft.to/lastmile_qr_scan", "ios": "https://dc.lft.to/lastmile_qr_scan"}, "type": "electric_scooter", "lat": 38.91362933333333, "is_reserved": 0, "fusion_lat": 0.0}, {"bike_id": "9f339169a5cc0bafb9bfedd5dc14460c", "fusion_lon": 0.0, "lon": -77.024406, "name": "9f339169a5cc0bafb9bfedd5dc14460c", "is_disabled": 0, "rental_uris": {"android": "https://dc.lft.to/lastmile_qr_scan", "ios": "https://dc.lft.to/lastmile_qr_scan"}, "type": "electric_scooter", "lat": 38.9021775, "is_reserved": 0, "fusion_lat": 0.0}, {"bike_id": "ac6f5b1b19951104d3d1b36ee4a8c7e2", "fusion_lon": 0.0, "lon": -76.990965, "name": "ac6f5b1b19951104d3d1b36ee4a8c7e2", "is_disabled": 0, "rental_uris": {"android": "https://dc.lft.to/lastmile_qr_scan", "ios": "https://dc.lft.to/lastmile_qr_scan"}, "type": "electric_scooter", "lat": 38.88231016666667, "is_reserved": 0, "fusion_lat": 0.0}, {"bike_id": "dc843cff481ce2f05fecb156144e8856", "fusion_lon": 0.0, "lon": -76.93734416666666, "name": "dc843cff481ce2f05fecb156144e8856", "is_disabled": 0, "rental_uris": {"android": "https://dc.lft.to/lastmile_qr_scan", "ios": "https://dc.lft.to/lastmile_qr_scan"}, "type": "electric_scooter", "lat": 38.890174, "is_reserved": 0, "fusion_lat": 0.0}, {"bike_id": "f02b7f695df88d5ed799ae5f922428c0", "fusion_lon": 0.0, "lon": -77.01405083333333, "name": "f02b7f695df88d5ed799ae5f922428c0", "is_disabled": 0, "rental_uris": {"android": "https://dc.lft.to/lastmile_qr_scan", "ios": "https://dc.lft.to/lastmile_qr_scan"}, "type": "electric_scooter", "lat": 38.8874365, "is_reserved": 0, "fusion_lat": 0.0}, {"bike_id": "644da06f1675f1fe0d32e7c4c601baf3", "fusion_lon": 0.0, "lon": -77.02229766666666, "name": "644da06f1675f1fe0d32e7c4c601baf3", "is_disabled": 0, "rental_uris": {"android": "https://dc.lft.to/lastmile_qr_scan", "ios": "https://dc.lft.to/lastmile_qr_scan"}, "type": "electric_scooter", "lat": 38.89223766666667, "is_reserved": 0, "fusion_lat": 0.0}, {"bike_id": "74805c083c19564d2bc2ac9876c10119", "fusion_lon": 0.0, "lon": -77.0097235, "name": "74805c083c19564d2bc2ac9876c10119", "is_disabled": 0, "rental_uris": {"android": "https://dc.lft.to/lastmile_qr_scan", "ios": "https://dc.lft.to/lastmile_qr_scan"}, "type": "electric_bike", "lat": 38.96133866666667, "is_reserved": 0, "fusion_lat": 0.0}, {"bike_id": "588d29e1605fd5266c59e5fc4bbc83b5", "fusion_lon": 0.0, "lon": -77.0269535, "name": "588d29e1605fd5266c59e5fc4bbc83b5", "is_disabled": 0, "rental_uris": {"android": "https://dc.lft.to/lastmile_qr_scan", "ios": "https://dc.lft.to/lastmile_qr_scan"}, "type": "electric_scooter", "lat": 38.899928333333335, "is_reserved": 0, "fusion_lat": 0.0}, {"bike_id": "8ee85b92be154db9ac79a00f2851a23c", "fusion_lon": 0.0, "lon": -77.04863816666666, "name": "8ee85b92be154db9ac79a00f2851a23c", "is_disabled": 0, "rental_uris": {"android": "https://dc.lft.to/lastmile_qr_scan", "ios": "https://dc.lft.to/lastmile_qr_scan"}, "type": "electric_scooter", "lat": 38.90642416666667, "is_reserved": 0, "fusion_lat": 0.0}, {"bike_id": "7dd5b472b66d6e515302fcda18b41809", "fusion_lon": 0.0, "lon": -77.07391933333334, "name": "7dd5b472b66d6e515302fcda18b41809", "is_disabled": 0, "rental_uris": {"android": "https://dc.lft.to/lastmile_qr_scan", "ios": "https://dc.lft.to/lastmile_qr_scan"}, "type": "electric_bike", "lat": 38.961723166666665, "is_reserved": 0, "fusion_lat": 0.0}, {"bike_id": "5f12c25619e4bc214facb94d6567d9b5", "fusion_lon": 0.0, "lon": -77.00146516666666, "name": "5f12c25619e4bc214facb94d6567d9b5", "is_disabled": 0, "rental_uris": {"android": "https://dc.lft.to/lastmile_qr_scan", "ios": "https://dc.lft.to/lastmile_qr_scan"}, "type": "electric_scooter", "lat": 38.911028, "is_reserved": 0, "fusion_lat": 0.0}, {"bike_id": "7c87441b81776fd1807f91e6522ca01e", "fusion_lon": 0.0, "lon": -77.04312633333333, "name": "7c87441b81776fd1807f91e6522ca01e", "is_disabled": 0, "rental_uris": {"android": "https://dc.lft.to/lastmile_qr_scan", "ios": "https://dc.lft.to/lastmile_qr_scan"}, "type": "electric_scooter", "lat": 38.91881016666667, "is_reserved": 0, "fusion_lat": 0.0}, {"bike_id": "75c085864951c357471166e2144178b1", "fusion_lon": 0.0, "lon": -77.005962, "name": "75c085864951c357471166e2144178b1", "is_disabled": 0, "rental_uris": {"android": "https://dc.lft.to/lastmile_qr_scan", "ios": "https://dc.lft.to/lastmile_qr_scan"}, "type": "electric_scooter", "lat": 38.90561433333333, "is_reserved": 0, "fusion_lat": 0.0}, {"bike_id": "4604d8560960d78dc5bc706c1fce9871", "fusion_lon": 0.0, "lon": -76.988386, "name": "4604d8560960d78dc5bc706c1fce9871", "is_disabled": 0, "rental_uris": {"android": "https://dc.lft.to/lastmile_qr_scan", "ios": "https://dc.lft.to/lastmile_qr_scan"}, "type": "electric_scooter", "lat": 38.90032383333333, "is_reserved": 0, "fusion_lat": 0.0}, {"bike_id": "57348766599f358115f66b42d8323219", "fusion_lon": 0.0, "lon": -76.9808905, "name": "57348766599f358115f66b42d8323219", "is_disabled": 0, "rental_uris": {"android": "https://dc.lft.to/lastmile_qr_scan", "ios": "https://dc.lft.to/lastmile_qr_scan"}, "type": "electric_bike", "lat": 38.95355583333333, "is_reserved": 0, "fusion_lat": 0.0}, {"bike_id": "6bcb949dbb7fa7c6337f62b4816deea6", "fusion_lon": 0.0, "lon": -77.02889933333333, "name": "6bcb949dbb7fa7c6337f62b4816deea6", "is_disabled": 0, "rental_uris": {"android": "https://dc.lft.to/lastmile_qr_scan", "ios": "https://dc.lft.to/lastmile_qr_scan"}, "type": "electric_bike", "lat": 38.994035833333335, "is_reserved": 0, "fusion_lat": 0.0}, {"bike_id": "6dae1efb89b817426def1ed360db39b4", "fusion_lon": 0.0, "lon": -77.02176333333334, "name": "6dae1efb89b817426def1ed360db39b4", "is_disabled": 0, "rental_uris": {"android": "https://dc.lft.to/lastmile_qr_scan", "ios": "https://dc.lft.to/lastmile_qr_scan"}, "type": "electric_scooter", "lat": 38.942897, "is_reserved": 0, "fusion_lat": 0.0}, {"bike_id": "4b5d52d5c246585a689e5a160df2ee90", "fusion_lon": 0.0, "lon": -77.026305, "name": "4b5d52d5c246585a689e5a160df2ee90", "is_disabled": 0, "rental_uris": {"android": "https://dc.lft.to/lastmile_qr_scan", "ios": "https://dc.lft.to/lastmile_qr_scan"}, "type": "electric_bike", "lat": 38.962223, "is_reserved": 0, "fusion_lat": 0.0}, {"bike_id": "2001150f779215665b1b89922e04bae0", "fusion_lon": 0.0, "lon": -77.04321383333334, "name": "2001150f779215665b1b89922e04bae0", "is_disabled": 0, "rental_uris": {"android": "https://dc.lft.to/lastmile_qr_scan", "ios": "https://dc.lft.to/lastmile_qr_scan"}, "type": "electric_scooter", "lat": 38.92313166666667, "is_reserved": 0, "fusion_lat": 0.0}, {"bike_id": "f5c1f8b45ea1720e85fc58cfae87d773", "fusion_lon": 0.0, "lon": -76.9653075, "name": "f5c1f8b45ea1720e85fc58cfae87d773", "is_disabled": 0, "rental_uris": {"android": "https://dc.lft.to/lastmile_qr_scan", "ios": "https://dc.lft.to/lastmile_qr_scan"}, "type": "electric_scooter", "lat": 38.8762475, "is_reserved": 0, "fusion_lat": 0.0}, {"bike_id": "cbb8358faeb307b5c4c6fd8555c7e806", "fusion_lon": 0.0, "lon": -77.01538333333333, "name": "cbb8358faeb307b5c4c6fd8555c7e806", "is_disabled": 0, "rental_uris": {"android": "https://dc.lft.to/lastmile_qr_scan", "ios": "https://dc.lft.to/lastmile_qr_scan"}, "type": "electric_scooter", "lat": 38.887428166666666, "is_reserved": 0, "fusion_lat": 0.0}, {"bike_id": "c8127b60cce96c576340cdc9a79252ab", "fusion_lon": 0.0, "lon": -77.04790316666667, "name": "c8127b60cce96c576340cdc9a79252ab", "is_disabled": 0, "rental_uris": {"android": "https://dc.lft.to/lastmile_qr_scan", "ios": "https://dc.lft.to/lastmile_qr_scan"}, "type": "electric_scooter", "lat": 38.89367516666667, "is_reserved": 0, "fusion_lat": 0.0}, {"bike_id": "5fd560c24603875360c8aec88f9f8244", "fusion_lon": 0.0, "lon": -77.02819566666666, "name": "5fd560c24603875360c8aec88f9f8244", "is_disabled": 0, "rental_uris": {"android": "https://dc.lft.to/lastmile_qr_scan", "ios": "https://dc.lft.to/lastmile_qr_scan"}, "type": "electric_scooter", "lat": 38.9317465, "is_reserved": 0, "fusion_lat": 0.0}, {"bike_id": "b9efcdb612c05defd524461d7834cbd6", "fusion_lon": 0.0, "lon": -77.02006166666666, "name": "b9efcdb612c05defd524461d7834cbd6", "is_disabled": 0, "rental_uris": {"android": "https://dc.lft.to/lastmile_qr_scan", "ios": "https://dc.lft.to/lastmile_qr_scan"}, "type": "electric_scooter", "lat": 38.924177, "is_reserved": 0, "fusion_lat": 0.0}, {"bike_id": "b7be1bd8118214ba918ce035495c15b1", "fusion_lon": 0.0, "lon": -76.98579633333334, "name": "b7be1bd8118214ba918ce035495c15b1", "is_disabled": 0, "rental_uris": {"android": "https://dc.lft.to/lastmile_qr_scan", "ios": "https://dc.lft.to/lastmile_qr_scan"}, "type": "electric_scooter", "lat": 38.8544745, "is_reserved": 0, "fusion_lat": 0.0}, {"bike_id": "436c17e9ee5d65dfbac12e2d6f5348ae", "fusion_lon": 0.0, "lon": -77.044011, "name": "436c17e9ee5d65dfbac12e2d6f5348ae", "is_disabled": 0, "rental_uris": {"android": "https://dc.lft.to/lastmile_qr_scan", "ios": "https://dc.lft.to/lastmile_qr_scan"}, "type": "electric_scooter", "lat": 38.914056, "is_reserved": 0, "fusion_lat": 0.0}, {"bike_id": "43b396a3f5ba2737fa496062dde074f4", "fusion_lon": 0.0, "lon": -76.9313765, "name": "43b396a3f5ba2737fa496062dde074f4", "is_disabled": 0, "rental_uris": {"android": "https://dc.lft.to/lastmile_qr_scan", "ios": "https://dc.lft.to/lastmile_qr_scan"}, "type": "electric_scooter", "lat": 38.89337866666666, "is_reserved": 0, "fusion_lat": 0.0}, {"bike_id": "96ea1c75f5a055aaecf3a6f9de214b29", "fusion_lon": 0.0, "lon": -77.02769433333333, "name": "96ea1c75f5a055aaecf3a6f9de214b29", "is_disabled": 0, "rental_uris": {"android": "https://dc.lft.to/lastmile_qr_scan", "ios": "https://dc.lft.to/lastmile_qr_scan"}, "type": "electric_scooter", "lat": 38.954246499999996, "is_reserved": 0, "fusion_lat": 0.0}, {"bike_id": "6dc3b554006ca15638a8efc9734896f5", "fusion_lon": 0.0, "lon": -77.02712833333334, "name": "6dc3b554006ca15638a8efc9734896f5", "is_disabled": 0, "rental_uris": {"android": "https://dc.lft.to/lastmile_qr_scan", "ios": "https://dc.lft.to/lastmile_qr_scan"}, "type": "electric_scooter", "lat": 38.92061566666667, "is_reserved": 0, "fusion_lat": 0.0}, {"bike_id": "aef21a122da6e301e99cc35eb600ae21", "fusion_lon": 0.0, "lon": -77.02960183333333, "name": "aef21a122da6e301e99cc35eb600ae21", "is_disabled": 0, "rental_uris": {"android": "https://dc.lft.to/lastmile_qr_scan", "ios": "https://dc.lft.to/lastmile_qr_scan"}, "type": "electric_bike", "lat": 38.95049266666667, "is_reserved": 0, "fusion_lat": 0.0}, {"bike_id": "bb2c3ff87713f024df998aeb9c36f54b", "fusion_lon": 0.0, "lon": -77.033577, "name": "bb2c3ff87713f024df998aeb9c36f54b", "is_disabled": 0, "rental_uris": {"android": "https://dc.lft.to/lastmile_qr_scan", "ios": "https://dc.lft.to/lastmile_qr_scan"}, "type": "electric_scooter", "lat": 38.93144933333333, "is_reserved": 0, "fusion_lat": 0.0}, {"bike_id": "698d5747714ddb98d27e614cf368766b", "fusion_lon": 0.0, "lon": -77.01349183333333, "name": "698d5747714ddb98d27e614cf368766b", "is_disabled": 0, "rental_uris": {"android": "https://dc.lft.to/lastmile_qr_scan", "ios": "https://dc.lft.to/lastmile_qr_scan"}, "type": "electric_scooter", "lat": 38.919643666666666, "is_reserved": 0, "fusion_lat": 0.0}, {"bike_id": "53f1c35e19042a78fe2d05919e549237", "fusion_lon": 0.0, "lon": -77.04581166666667, "name": "53f1c35e19042a78fe2d05919e549237", "is_disabled": 0, "rental_uris": {"android": "https://dc.lft.to/lastmile_qr_scan", "ios": "https://dc.lft.to/lastmile_qr_scan"}, "type": "electric_scooter", "lat": 38.908591333333334, "is_reserved": 0, "fusion_lat": 0.0}, {"bike_id": "a1e511a66518a95f1561aa9cec88a849", "fusion_lon": 0.0, "lon": -77.03589716666667, "name": "a1e511a66518a95f1561aa9cec88a849", "is_disabled": 0, "rental_uris": {"android": "https://dc.lft.to/lastmile_qr_scan", "ios": "https://dc.lft.to/lastmile_qr_scan"}, "type": "electric_scooter", "lat": 38.936714333333335, "is_reserved": 0, "fusion_lat": 0.0}, {"bike_id": "5bfa7fc30dc65365e1ec5b4c35308e03", "fusion_lon": 0.0, "lon": -77.01310816666667, "name": "5bfa7fc30dc65365e1ec5b4c35308e03", "is_disabled": 0, "rental_uris": {"android": "https://dc.lft.to/lastmile_qr_scan", "ios": "https://dc.lft.to/lastmile_qr_scan"}, "type": "electric_scooter", "lat": 38.914098833333334, "is_reserved": 0, "fusion_lat": 0.0}, {"bike_id": "f785977e5685b962480cc8c7b1aeabf6", "fusion_lon": 0.0, "lon": -77.02968433333334, "name": "f785977e5685b962480cc8c7b1aeabf6", "is_disabled": 0, "rental_uris": {"android": "https://dc.lft.to/lastmile_qr_scan", "ios": "https://dc.lft.to/lastmile_qr_scan"}, "type": "electric_scooter", "lat": 38.93192716666667, "is_reserved": 0, "fusion_lat": 0.0}, {"bike_id": "82d201422f7a62678ed22ca43423d683", "fusion_lon": 0.0, "lon": -77.05067383333333, "name": "82d201422f7a62678ed22ca43423d683", "is_disabled": 0, "rental_uris": {"android": "https://dc.lft.to/lastmile_qr_scan", "ios": "https://dc.lft.to/lastmile_qr_scan"}, "type": "electric_scooter", "lat": 38.9233685, "is_reserved": 0, "fusion_lat": 0.0}, {"bike_id": "e4bbd9beda89c7c6edfb3c65e5770557", "fusion_lon": 0.0, "lon": -77.04347266666667, "name": "e4bbd9beda89c7c6edfb3c65e5770557", "is_disabled": 0, "rental_uris": {"android": "https://dc.lft.to/lastmile_qr_scan", "ios": "https://dc.lft.to/lastmile_qr_scan"}, "type": "electric_scooter", "lat": 38.91300566666666, "is_reserved": 0, "fusion_lat": 0.0}, {"bike_id": "e630edb42d6079fcf9e6ae7919b1b100", "fusion_lon": 0.0, "lon": -76.97188783333333, "name": "e630edb42d6079fcf9e6ae7919b1b100", "is_disabled": 0, "rental_uris": {"android": "https://dc.lft.to/lastmile_qr_scan", "ios": "https://dc.lft.to/lastmile_qr_scan"}, "type": "electric_bike", "lat": 38.93317566666666, "is_reserved": 0, "fusion_lat": 0.0}, {"bike_id": "aebd6957d377757590b92221d9b17b8b", "fusion_lon": 0.0, "lon": -76.975943, "name": "aebd6957d377757590b92221d9b17b8b", "is_disabled": 0, "rental_uris": {"android": "https://dc.lft.to/lastmile_qr_scan", "ios": "https://dc.lft.to/lastmile_qr_scan"}, "type": "electric_scooter", "lat": 38.9032995, "is_reserved": 0, "fusion_lat": 0.0}, {"bike_id": "b973a0036554808a9b6cb5c968dc9956", "fusion_lon": 0.0, "lon": -77.0034515, "name": "b973a0036554808a9b6cb5c968dc9956", "is_disabled": 0, "rental_uris": {"android": "https://dc.lft.to/lastmile_qr_scan", "ios": "https://dc.lft.to/lastmile_qr_scan"}, "type": "electric_scooter", "lat": 38.8899545, "is_reserved": 0, "fusion_lat": 0.0}, {"bike_id": "bcf017ba2c415aa6c33a2d078f234d7c", "fusion_lon": 0.0, "lon": -77.078224, "name": "bcf017ba2c415aa6c33a2d078f234d7c", "is_disabled": 0, "rental_uris": {"android": "https://dc.lft.to/lastmile_qr_scan", "ios": "https://dc.lft.to/lastmile_qr_scan"}, "type": "electric_scooter", "lat": 38.912738, "is_reserved": 0, "fusion_lat": 0.0}, {"bike_id": "7ded48af823ff94bcb81105e082fbe0f", "fusion_lon": 0.0, "lon": -77.0326165, "name": "7ded48af823ff94bcb81105e082fbe0f", "is_disabled": 0, "rental_uris": {"android": "https://dc.lft.to/lastmile_qr_scan", "ios": "https://dc.lft.to/lastmile_qr_scan"}, "type": "electric_scooter", "lat": 38.914052, "is_reserved": 0, "fusion_lat": 0.0}, {"bike_id": "75c703647033998394297fb7e9d77e57", "fusion_lon": 0.0, "lon": -77.03911433333333, "name": "75c703647033998394297fb7e9d77e57", "is_disabled": 0, "rental_uris": {"android": "https://dc.lft.to/lastmile_qr_scan", "ios": "https://dc.lft.to/lastmile_qr_scan"}, "type": "electric_scooter", "lat": 38.92471, "is_reserved": 0, "fusion_lat": 0.0}, {"bike_id": "47ef4e0b0a4fd58e31468d938acee8c6", "fusion_lon": 0.0, "lon": -77.0145745, "name": "47ef4e0b0a4fd58e31468d938acee8c6", "is_disabled": 0, "rental_uris": {"android": "https://dc.lft.to/lastmile_qr_scan", "ios": "https://dc.lft.to/lastmile_qr_scan"}, "type": "electric_scooter", "lat": 38.918219666666666, "is_reserved": 0, "fusion_lat": 0.0}, {"bike_id": "d78abcc1e90cc3e96d1fe2b04102c36d", "fusion_lon": 0.0, "lon": -77.02979533333334, "name": "d78abcc1e90cc3e96d1fe2b04102c36d", "is_disabled": 0, "rental_uris": {"android": "https://dc.lft.to/lastmile_qr_scan", "ios": "https://dc.lft.to/lastmile_qr_scan"}, "type": "electric_scooter", "lat": 38.934420833333334, "is_reserved": 0, "fusion_lat": 0.0}, {"bike_id": "fb03c5c389d4133dda36da3ec5ccaec4", "fusion_lon": 0.0, "lon": -77.0270665, "name": "fb03c5c389d4133dda36da3ec5ccaec4", "is_disabled": 0, "rental_uris": {"android": "https://dc.lft.to/lastmile_qr_scan", "ios": "https://dc.lft.to/lastmile_qr_scan"}, "type": "electric_scooter", "lat": 38.906673, "is_reserved": 0, "fusion_lat": 0.0}, {"bike_id": "a8b091090a05b6fce5a819a4373211eb", "fusion_lon": 0.0, "lon": -77.077238, "name": "a8b091090a05b6fce5a819a4373211eb", "is_disabled": 0, "rental_uris": {"android": "https://dc.lft.to/lastmile_qr_scan", "ios": "https://dc.lft.to/lastmile_qr_scan"}, "type": "electric_scooter", "lat": 38.957678333333334, "is_reserved": 0, "fusion_lat": 0.0}, {"bike_id": "4e7971fb1219c992781613016415f33c", "fusion_lon": 0.0, "lon": -77.02350116666666, "name": "4e7971fb1219c992781613016415f33c", "is_disabled": 0, "rental_uris": {"android": "https://dc.lft.to/lastmile_qr_scan", "ios": "https://dc.lft.to/lastmile_qr_scan"}, "type": "electric_scooter", "lat": 38.94612766666667, "is_reserved": 0, "fusion_lat": 0.0}, {"bike_id": "11ada66201f8edfd1d993f55edf6aadf", "fusion_lon": 0.0, "lon": -76.98834533333333, "name": "11ada66201f8edfd1d993f55edf6aadf", "is_disabled": 0, "rental_uris": {"android": "https://dc.lft.to/lastmile_qr_scan", "ios": "https://dc.lft.to/lastmile_qr_scan"}, "type": "electric_scooter", "lat": 38.89259083333334, "is_reserved": 0, "fusion_lat": 0.0}, {"bike_id": "3ea03b0c43e5fcddb4d3e3a16519a8a6", "fusion_lon": 0.0, "lon": -77.0326255, "name": "3ea03b0c43e5fcddb4d3e3a16519a8a6", "is_disabled": 0, "rental_uris": {"android": "https://dc.lft.to/lastmile_qr_scan", "ios": "https://dc.lft.to/lastmile_qr_scan"}, "type": "electric_scooter", "lat": 38.914029666666664, "is_reserved": 0, "fusion_lat": 0.0}, {"bike_id": "945c249457f7ee865231efe0f76a3608", "fusion_lon": 0.0, "lon": -77.02502066666666, "name": "945c249457f7ee865231efe0f76a3608", "is_disabled": 0, "rental_uris": {"android": "https://dc.lft.to/lastmile_qr_scan", "ios": "https://dc.lft.to/lastmile_qr_scan"}, "type": "electric_scooter", "lat": 38.903970666666666, "is_reserved": 0, "fusion_lat": 0.0}, {"bike_id": "8daec3f2701a0131c45177dd0521a66d", "fusion_lon": 0.0, "lon": -76.98709483333333, "name": "8daec3f2701a0131c45177dd0521a66d", "is_disabled": 0, "rental_uris": {"android": "https://dc.lft.to/lastmile_qr_scan", "ios": "https://dc.lft.to/lastmile_qr_scan"}, "type": "electric_scooter", "lat": 38.8669725, "is_reserved": 0, "fusion_lat": 0.0}, {"bike_id": "88f5e4bf328fbca12dd9fe77eed9de64", "fusion_lon": 0.0, "lon": -77.02098466666666, "name": "88f5e4bf328fbca12dd9fe77eed9de64", "is_disabled": 0, "rental_uris": {"android": "https://dc.lft.to/lastmile_qr_scan", "ios": "https://dc.lft.to/lastmile_qr_scan"}, "type": "electric_scooter", "lat": 38.931150833333334, "is_reserved": 0, "fusion_lat": 0.0}, {"bike_id": "7e4ae798f5867748e56e5d4a55582c1e", "fusion_lon": 0.0, "lon": -77.017076, "name": "7e4ae798f5867748e56e5d4a55582c1e", "is_disabled": 0, "rental_uris": {"android": "https://dc.lft.to/lastmile_qr_scan", "ios": "https://dc.lft.to/lastmile_qr_scan"}, "type": "electric_scooter", "lat": 38.9174795, "is_reserved": 0, "fusion_lat": 0.0}, {"bike_id": "f9fe7f127e7414e3dff4f55f00d2e880", "fusion_lon": 0.0, "lon": -77.00700266666666, "name": "f9fe7f127e7414e3dff4f55f00d2e880", "is_disabled": 0, "rental_uris": {"android": "https://dc.lft.to/lastmile_qr_scan", "ios": "https://dc.lft.to/lastmile_qr_scan"}, "type": "electric_scooter", "lat": 38.905912666666666, "is_reserved": 0, "fusion_lat": 0.0}, {"bike_id": "a75c56d947d2a5bf22be48316d832ac8", "fusion_lon": 0.0, "lon": -77.0313595, "name": "a75c56d947d2a5bf22be48316d832ac8", "is_disabled": 0, "rental_uris": {"android": "https://dc.lft.to/lastmile_qr_scan", "ios": "https://dc.lft.to/lastmile_qr_scan"}, "type": "electric_scooter", "lat": 38.92383816666667, "is_reserved": 0, "fusion_lat": 0.0}, {"bike_id": "3de5d336e70d19e28a44e23048492ce4", "fusion_lon": 0.0, "lon": -77.02490816666666, "name": "3de5d336e70d19e28a44e23048492ce4", "is_disabled": 0, "rental_uris": {"android": "https://dc.lft.to/lastmile_qr_scan", "ios": "https://dc.lft.to/lastmile_qr_scan"}, "type": "electric_scooter", "lat": 38.941849166666664, "is_reserved": 0, "fusion_lat": 0.0}, {"bike_id": "46a49229d46e025c6d09c73d495e1f5c", "fusion_lon": 0.0, "lon": -77.04608466666667, "name": "46a49229d46e025c6d09c73d495e1f5c", "is_disabled": 0, "rental_uris": {"android": "https://dc.lft.to/lastmile_qr_scan", "ios": "https://dc.lft.to/lastmile_qr_scan"}, "type": "electric_scooter", "lat": 38.919222833333336, "is_reserved": 0, "fusion_lat": 0.0}, {"bike_id": "f570e8ff6535835f970966d1b0b628ab", "fusion_lon": 0.0, "lon": -77.03658033333333, "name": "f570e8ff6535835f970966d1b0b628ab", "is_disabled": 0, "rental_uris": {"android": "https://dc.lft.to/lastmile_qr_scan", "ios": "https://dc.lft.to/lastmile_qr_scan"}, "type": "electric_scooter", "lat": 38.922867, "is_reserved": 0, "fusion_lat": 0.0}, {"bike_id": "287be5fc6b53d3dcd939917472a90619", "fusion_lon": 0.0, "lon": -77.0828015, "name": "287be5fc6b53d3dcd939917472a90619", "is_disabled": 0, "rental_uris": {"android": "https://dc.lft.to/lastmile_qr_scan", "ios": "https://dc.lft.to/lastmile_qr_scan"}, "type": "electric_scooter", "lat": 38.9302265, "is_reserved": 0, "fusion_lat": 0.0}, {"bike_id": "f84e9290db767522efaaca6309f8e07e", "fusion_lon": 0.0, "lon": -76.983302, "name": "f84e9290db767522efaaca6309f8e07e", "is_disabled": 0, "rental_uris": {"android": "https://dc.lft.to/lastmile_qr_scan", "ios": "https://dc.lft.to/lastmile_qr_scan"}, "type": "electric_scooter", "lat": 38.90867166666666, "is_reserved": 0, "fusion_lat": 0.0}, {"bike_id": "ac2b57ad86a0079dd784ca01ece55b4a", "fusion_lon": 0.0, "lon": -77.0345315, "name": "ac2b57ad86a0079dd784ca01ece55b4a", "is_disabled": 0, "rental_uris": {"android": "https://dc.lft.to/lastmile_qr_scan", "ios": "https://dc.lft.to/lastmile_qr_scan"}, "type": "electric_scooter", "lat": 38.90448883333333, "is_reserved": 0, "fusion_lat": 0.0}, {"bike_id": "46c90a6b84bd6e49053af80db9fc8908", "fusion_lon": 0.0, "lon": -77.04416766666667, "name": "46c90a6b84bd6e49053af80db9fc8908", "is_disabled": 0, "rental_uris": {"android": "https://dc.lft.to/lastmile_qr_scan", "ios": "https://dc.lft.to/lastmile_qr_scan"}, "type": "electric_scooter", "lat": 38.9178495, "is_reserved": 0, "fusion_lat": 0.0}, {"bike_id": "d68816f494f5fb077c49b24c913569a3", "fusion_lon": 0.0, "lon": -76.996993, "name": "d68816f494f5fb077c49b24c913569a3", "is_disabled": 0, "rental_uris": {"android": "https://dc.lft.to/lastmile_qr_scan", "ios": "https://dc.lft.to/lastmile_qr_scan"}, "type": "electric_scooter", "lat": 38.90831, "is_reserved": 0, "fusion_lat": 0.0}, {"bike_id": "acb9962149c021256cf2d45a5c634129", "fusion_lon": 0.0, "lon": -77.00933566666667, "name": "acb9962149c021256cf2d45a5c634129", "is_disabled": 0, "rental_uris": {"android": "https://dc.lft.to/lastmile_qr_scan", "ios": "https://dc.lft.to/lastmile_qr_scan"}, "type": "electric_scooter", "lat": 38.897266, "is_reserved": 0, "fusion_lat": 0.0}, {"bike_id": "414e85707cd1c73dec0565c9ece0d5fb", "fusion_lon": 0.0, "lon": -77.01850816666666, "name": "414e85707cd1c73dec0565c9ece0d5fb", "is_disabled": 0, "rental_uris": {"android": "https://dc.lft.to/lastmile_qr_scan", "ios": "https://dc.lft.to/lastmile_qr_scan"}, "type": "electric_scooter", "lat": 38.973646333333335, "is_reserved": 0, "fusion_lat": 0.0}, {"bike_id": "c0eb13c3d0593d40cc2b750f1951ddad", "fusion_lon": 0.0, "lon": -77.0318835, "name": "c0eb13c3d0593d40cc2b750f1951ddad", "is_disabled": 0, "rental_uris": {"android": "https://dc.lft.to/lastmile_qr_scan", "ios": "https://dc.lft.to/lastmile_qr_scan"}, "type": "electric_scooter", "lat": 38.9248765, "is_reserved": 0, "fusion_lat": 0.0}, {"bike_id": "fa2114cc330c451266a53c01dec4e7d9", "fusion_lon": 0.0, "lon": -77.02479733333334, "name": "fa2114cc330c451266a53c01dec4e7d9", "is_disabled": 0, "rental_uris": {"android": "https://dc.lft.to/lastmile_qr_scan", "ios": "https://dc.lft.to/lastmile_qr_scan"}, "type": "electric_scooter", "lat": 38.91889, "is_reserved": 0, "fusion_lat": 0.0}, {"bike_id": "1020b6cff7e35ae096b35bf40806e369", "fusion_lon": 0.0, "lon": -76.99702033333334, "name": "1020b6cff7e35ae096b35bf40806e369", "is_disabled": 0, "rental_uris": {"android": "https://dc.lft.to/lastmile_qr_scan", "ios": "https://dc.lft.to/lastmile_qr_scan"}, "type": "electric_bike", "lat": 38.91090366666667, "is_reserved": 0, "fusion_lat": 0.0}, {"bike_id": "783325342cb15cfea63ff2b7f4cc2bca", "fusion_lon": 0.0, "lon": -77.029013, "name": "783325342cb15cfea63ff2b7f4cc2bca", "is_disabled": 0, "rental_uris": {"android": "https://dc.lft.to/lastmile_qr_scan", "ios": "https://dc.lft.to/lastmile_qr_scan"}, "type": "electric_scooter", "lat": 38.928174166666665, "is_reserved": 0, "fusion_lat": 0.0}, {"bike_id": "1ef420b6de8dc007874ea9dac53523d8", "fusion_lon": 0.0, "lon": -77.03749283333333, "name": "1ef420b6de8dc007874ea9dac53523d8", "is_disabled": 0, "rental_uris": {"android": "https://dc.lft.to/lastmile_qr_scan", "ios": "https://dc.lft.to/lastmile_qr_scan"}, "type": "electric_scooter", "lat": 38.926042833333334, "is_reserved": 0, "fusion_lat": 0.0}, {"bike_id": "2522f8cefa0fa296fbc266cdf30650ac", "fusion_lon": 0.0, "lon": -76.99500916666666, "name": "2522f8cefa0fa296fbc266cdf30650ac", "is_disabled": 0, "rental_uris": {"android": "https://dc.lft.to/lastmile_qr_scan", "ios": "https://dc.lft.to/lastmile_qr_scan"}, "type": "electric_scooter", "lat": 38.891583833333335, "is_reserved": 0, "fusion_lat": 0.0}, {"bike_id": "0c744cb165f2af3603112f3f1b773626", "fusion_lon": 0.0, "lon": -77.00921216666667, "name": "0c744cb165f2af3603112f3f1b773626", "is_disabled": 0, "rental_uris": {"android": "https://dc.lft.to/lastmile_qr_scan", "ios": "https://dc.lft.to/lastmile_qr_scan"}, "type": "electric_scooter", "lat": 38.827843, "is_reserved": 0, "fusion_lat": 0.0}, {"bike_id": "2d770cc6c8948bf6e3f8f086cdc021d3", "fusion_lon": 0.0, "lon": -77.056466, "name": "2d770cc6c8948bf6e3f8f086cdc021d3", "is_disabled": 0, "rental_uris": {"android": "https://dc.lft.to/lastmile_qr_scan", "ios": "https://dc.lft.to/lastmile_qr_scan"}, "type": "electric_scooter", "lat": 38.905362333333336, "is_reserved": 0, "fusion_lat": 0.0}, {"bike_id": "738f1a0fc073f5bf0998765cf87f3d4f", "fusion_lon": 0.0, "lon": -77.02777116666667, "name": "738f1a0fc073f5bf0998765cf87f3d4f", "is_disabled": 0, "rental_uris": {"android": "https://dc.lft.to/lastmile_qr_scan", "ios": "https://dc.lft.to/lastmile_qr_scan"}, "type": "electric_scooter", "lat": 38.91694366666667, "is_reserved": 0, "fusion_lat": 0.0}, {"bike_id": "f8a5c6acec10fad91811a42f36b49c08", "fusion_lon": 0.0, "lon": -77.02353683333334, "name": "f8a5c6acec10fad91811a42f36b49c08", "is_disabled": 0, "rental_uris": {"android": "https://dc.lft.to/lastmile_qr_scan", "ios": "https://dc.lft.to/lastmile_qr_scan"}, "type": "electric_scooter", "lat": 38.8874375, "is_reserved": 0, "fusion_lat": 0.0}, {"bike_id": "974444f83691613ae2f48f62102cf3b4", "fusion_lon": 0.0, "lon": -77.03223683333333, "name": "974444f83691613ae2f48f62102cf3b4", "is_disabled": 0, "rental_uris": {"android": "https://dc.lft.to/lastmile_qr_scan", "ios": "https://dc.lft.to/lastmile_qr_scan"}, "type": "electric_scooter", "lat": 38.91406, "is_reserved": 0, "fusion_lat": 0.0}, {"bike_id": "e1e82ae2515cee1d7009b3766f3b200b", "fusion_lon": 0.0, "lon": -77.02897016666667, "name": "e1e82ae2515cee1d7009b3766f3b200b", "is_disabled": 0, "rental_uris": {"android": "https://dc.lft.to/lastmile_qr_scan", "ios": "https://dc.lft.to/lastmile_qr_scan"}, "type": "electric_scooter", "lat": 38.914005, "is_reserved": 0, "fusion_lat": 0.0}, {"bike_id": "5858ab88b3954f49b1cf5593bb2d26a5", "fusion_lon": 0.0, "lon": -77.0349955, "name": "5858ab88b3954f49b1cf5593bb2d26a5", "is_disabled": 0, "rental_uris": {"android": "https://dc.lft.to/lastmile_qr_scan", "ios": "https://dc.lft.to/lastmile_qr_scan"}, "type": "electric_scooter", "lat": 38.9247555, "is_reserved": 0, "fusion_lat": 0.0}, {"bike_id": "64f182dcd61e0cff0e9a54ed3d0a52f7", "fusion_lon": 0.0, "lon": -77.06695066666667, "name": "64f182dcd61e0cff0e9a54ed3d0a52f7", "is_disabled": 0, "rental_uris": {"android": "https://dc.lft.to/lastmile_qr_scan", "ios": "https://dc.lft.to/lastmile_qr_scan"}, "type": "electric_bike", "lat": 38.8317775, "is_reserved": 0, "fusion_lat": 0.0}, {"bike_id": "81e88a4c51f825a8b1d6a15f7f840fc4", "fusion_lon": 0.0, "lon": -77.03464566666666, "name": "81e88a4c51f825a8b1d6a15f7f840fc4", "is_disabled": 0, "rental_uris": {"android": "https://dc.lft.to/lastmile_qr_scan", "ios": "https://dc.lft.to/lastmile_qr_scan"}, "type": "electric_scooter", "lat": 38.905644, "is_reserved": 0, "fusion_lat": 0.0}, {"bike_id": "fcac8aa701e76afd70a7d6a6690f292a", "fusion_lon": 0.0, "lon": -76.98008416666667, "name": "fcac8aa701e76afd70a7d6a6690f292a", "is_disabled": 0, "rental_uris": {"android": "https://dc.lft.to/lastmile_qr_scan", "ios": "https://dc.lft.to/lastmile_qr_scan"}, "type": "electric_scooter", "lat": 38.853238, "is_reserved": 0, "fusion_lat": 0.0}, {"bike_id": "020171ae933ed1bc764d1678aa44d5f0", "fusion_lon": 0.0, "lon": -77.0570105, "name": "020171ae933ed1bc764d1678aa44d5f0", "is_disabled": 0, "rental_uris": {"android": "https://dc.lft.to/lastmile_qr_scan", "ios": "https://dc.lft.to/lastmile_qr_scan"}, "type": "electric_scooter", "lat": 38.9056685, "is_reserved": 0, "fusion_lat": 0.0}, {"bike_id": "198a8c3aae51153c02bdeddf4658c997", "fusion_lon": 0.0, "lon": -77.03258283333334, "name": "198a8c3aae51153c02bdeddf4658c997", "is_disabled": 0, "rental_uris": {"android": "https://dc.lft.to/lastmile_qr_scan", "ios": "https://dc.lft.to/lastmile_qr_scan"}, "type": "electric_scooter", "lat": 38.935599333333336, "is_reserved": 0, "fusion_lat": 0.0}, {"bike_id": "7e16dffb6704f3630a3ff543b7e7f543", "fusion_lon": 0.0, "lon": -77.04024666666666, "name": "7e16dffb6704f3630a3ff543b7e7f543", "is_disabled": 0, "rental_uris": {"android": "https://dc.lft.to/lastmile_qr_scan", "ios": "https://dc.lft.to/lastmile_qr_scan"}, "type": "electric_scooter", "lat": 38.92274316666666, "is_reserved": 0, "fusion_lat": 0.0}, {"bike_id": "8a16123e7d05926ef7f3c7d692a07a6a", "fusion_lon": 0.0, "lon": -77.02715633333334, "name": "8a16123e7d05926ef7f3c7d692a07a6a", "is_disabled": 0, "rental_uris": {"android": "https://dc.lft.to/lastmile_qr_scan", "ios": "https://dc.lft.to/lastmile_qr_scan"}, "type": "electric_scooter", "lat": 38.904218666666665, "is_reserved": 0, "fusion_lat": 0.0}, {"bike_id": "293a648ea8de2d282d1f8a0eec091da2", "fusion_lon": 0.0, "lon": -77.002617, "name": "293a648ea8de2d282d1f8a0eec091da2", "is_disabled": 0, "rental_uris": {"android": "https://dc.lft.to/lastmile_qr_scan", "ios": "https://dc.lft.to/lastmile_qr_scan"}, "type": "electric_scooter", "lat": 38.90888266666666, "is_reserved": 0, "fusion_lat": 0.0}, {"bike_id": "5bbda5c567397b313d325dbcb83541bd", "fusion_lon": 0.0, "lon": -76.94837433333333, "name": "5bbda5c567397b313d325dbcb83541bd", "is_disabled": 0, "rental_uris": {"android": "https://dc.lft.to/lastmile_qr_scan", "ios": "https://dc.lft.to/lastmile_qr_scan"}, "type": "electric_scooter", "lat": 38.89583783333333, "is_reserved": 0, "fusion_lat": 0.0}, {"bike_id": "7c8a8f2c2ad2f9781495b236c3bc14a8", "fusion_lon": 0.0, "lon": -77.03173083333333, "name": "7c8a8f2c2ad2f9781495b236c3bc14a8", "is_disabled": 0, "rental_uris": {"android": "https://dc.lft.to/lastmile_qr_scan", "ios": "https://dc.lft.to/lastmile_qr_scan"}, "type": "electric_scooter", "lat": 38.90958066666666, "is_reserved": 0, "fusion_lat": 0.0}, {"bike_id": "c204aebfb910a0c15462527097d2284c", "fusion_lon": 0.0, "lon": -77.02211566666666, "name": "c204aebfb910a0c15462527097d2284c", "is_disabled": 0, "rental_uris": {"android": "https://dc.lft.to/lastmile_qr_scan", "ios": "https://dc.lft.to/lastmile_qr_scan"}, "type": "electric_scooter", "lat": 38.91551666666667, "is_reserved": 0, "fusion_lat": 0.0}, {"bike_id": "73e908edf8193dca45470e3403906c0d", "fusion_lon": 0.0, "lon": -77.0268685, "name": "73e908edf8193dca45470e3403906c0d", "is_disabled": 0, "rental_uris": {"android": "https://dc.lft.to/lastmile_qr_scan", "ios": "https://dc.lft.to/lastmile_qr_scan"}, "type": "electric_scooter", "lat": 38.908525, "is_reserved": 0, "fusion_lat": 0.0}, {"bike_id": "95c27b82c8bb485f1dd12c638f0245de", "fusion_lon": 0.0, "lon": -77.04532083333334, "name": "95c27b82c8bb485f1dd12c638f0245de", "is_disabled": 0, "rental_uris": {"android": "https://dc.lft.to/lastmile_qr_scan", "ios": "https://dc.lft.to/lastmile_qr_scan"}, "type": "electric_scooter", "lat": 38.93294, "is_reserved": 0, "fusion_lat": 0.0}, {"bike_id": "a3f9525536028d3002df83eb4af5b06c", "fusion_lon": 0.0, "lon": -77.02178016666667, "name": "a3f9525536028d3002df83eb4af5b06c", "is_disabled": 0, "rental_uris": {"android": "https://dc.lft.to/lastmile_qr_scan", "ios": "https://dc.lft.to/lastmile_qr_scan"}, "type": "electric_scooter", "lat": 38.9058965, "is_reserved": 0, "fusion_lat": 0.0}, {"bike_id": "2068cb98771af864ddfc6a017f8d1acd", "fusion_lon": 0.0, "lon": -77.05125733333334, "name": "2068cb98771af864ddfc6a017f8d1acd", "is_disabled": 0, "rental_uris": {"android": "https://dc.lft.to/lastmile_qr_scan", "ios": "https://dc.lft.to/lastmile_qr_scan"}, "type": "electric_scooter", "lat": 38.923463166666664, "is_reserved": 0, "fusion_lat": 0.0}, {"bike_id": "3b907671cda6c63b2e089240e63b32e1", "fusion_lon": 0.0, "lon": -77.02797083333333, "name": "3b907671cda6c63b2e089240e63b32e1", "is_disabled": 0, "rental_uris": {"android": "https://dc.lft.to/lastmile_qr_scan", "ios": "https://dc.lft.to/lastmile_qr_scan"}, "type": "electric_scooter", "lat": 38.95403566666667, "is_reserved": 0, "fusion_lat": 0.0}, {"bike_id": "4f30d82702f55747e3f7692011334039", "fusion_lon": 0.0, "lon": -77.034379, "name": "4f30d82702f55747e3f7692011334039", "is_disabled": 0, "rental_uris": {"android": "https://dc.lft.to/lastmile_qr_scan", "ios": "https://dc.lft.to/lastmile_qr_scan"}, "type": "electric_scooter", "lat": 38.934377, "is_reserved": 0, "fusion_lat": 0.0}, {"bike_id": "bc9784d9db4c76d860560cd2332fe640", "fusion_lon": 0.0, "lon": -77.04175133333334, "name": "bc9784d9db4c76d860560cd2332fe640", "is_disabled": 0, "rental_uris": {"android": "https://dc.lft.to/lastmile_qr_scan", "ios": "https://dc.lft.to/lastmile_qr_scan"}, "type": "electric_scooter", "lat": 38.911818333333336, "is_reserved": 0, "fusion_lat": 0.0}, {"bike_id": "c266b94528bce842481aad2815f9521b", "fusion_lon": 0.0, "lon": -77.02292766666666, "name": "c266b94528bce842481aad2815f9521b", "is_disabled": 0, "rental_uris": {"android": "https://dc.lft.to/lastmile_qr_scan", "ios": "https://dc.lft.to/lastmile_qr_scan"}, "type": "electric_scooter", "lat": 38.92754016666667, "is_reserved": 0, "fusion_lat": 0.0}, {"bike_id": "efc7934d7240a9d163a46fab92a7426b", "fusion_lon": 0.0, "lon": -77.0500855, "name": "efc7934d7240a9d163a46fab92a7426b", "is_disabled": 0, "rental_uris": {"android": "https://dc.lft.to/lastmile_qr_scan", "ios": "https://dc.lft.to/lastmile_qr_scan"}, "type": "electric_scooter", "lat": 38.906223833333335, "is_reserved": 0, "fusion_lat": 0.0}, {"bike_id": "ded75f745c83da13006331a59ee741eb", "fusion_lon": 0.0, "lon": -77.05152266666667, "name": "ded75f745c83da13006331a59ee741eb", "is_disabled": 0, "rental_uris": {"android": "https://dc.lft.to/lastmile_qr_scan", "ios": "https://dc.lft.to/lastmile_qr_scan"}, "type": "electric_scooter", "lat": 38.905365, "is_reserved": 0, "fusion_lat": 0.0}, {"bike_id": "b1634ad8b316bd68b53fd0cb89153923", "fusion_lon": 0.0, "lon": -77.023156, "name": "b1634ad8b316bd68b53fd0cb89153923", "is_disabled": 0, "rental_uris": {"android": "https://dc.lft.to/lastmile_qr_scan", "ios": "https://dc.lft.to/lastmile_qr_scan"}, "type": "electric_scooter", "lat": 38.9294125, "is_reserved": 0, "fusion_lat": 0.0}, {"bike_id": "8dd7360b52f2540e56f6bada0c7f8992", "fusion_lon": 0.0, "lon": -77.03106833333334, "name": "8dd7360b52f2540e56f6bada0c7f8992", "is_disabled": 0, "rental_uris": {"android": "https://dc.lft.to/lastmile_qr_scan", "ios": "https://dc.lft.to/lastmile_qr_scan"}, "type": "electric_scooter", "lat": 38.94646383333333, "is_reserved": 0, "fusion_lat": 0.0}, {"bike_id": "1167d75375997893d1d514da33ad6939", "fusion_lon": 0.0, "lon": -76.9951875, "name": "1167d75375997893d1d514da33ad6939", "is_disabled": 0, "rental_uris": {"android": "https://dc.lft.to/lastmile_qr_scan", "ios": "https://dc.lft.to/lastmile_qr_scan"}, "type": "electric_scooter", "lat": 38.90979183333334, "is_reserved": 0, "fusion_lat": 0.0}, {"bike_id": "8a4ef91a11c62261322a68caf37589b0", "fusion_lon": 0.0, "lon": -77.02631433333333, "name": "8a4ef91a11c62261322a68caf37589b0", "is_disabled": 0, "rental_uris": {"android": "https://dc.lft.to/lastmile_qr_scan", "ios": "https://dc.lft.to/lastmile_qr_scan"}, "type": "electric_scooter", "lat": 38.92808616666667, "is_reserved": 0, "fusion_lat": 0.0}, {"bike_id": "a72f87c8fad4c493e4f5c4bdac59ee62", "fusion_lon": 0.0, "lon": -77.0308925, "name": "a72f87c8fad4c493e4f5c4bdac59ee62", "is_disabled": 0, "rental_uris": {"android": "https://dc.lft.to/lastmile_qr_scan", "ios": "https://dc.lft.to/lastmile_qr_scan"}, "type": "electric_bike", "lat": 38.93316516666667, "is_reserved": 0, "fusion_lat": 0.0}, {"bike_id": "2de656f01a469d25c0b277abee8924c4", "fusion_lon": 0.0, "lon": -77.03166033333333, "name": "2de656f01a469d25c0b277abee8924c4", "is_disabled": 0, "rental_uris": {"android": "https://dc.lft.to/lastmile_qr_scan", "ios": "https://dc.lft.to/lastmile_qr_scan"}, "type": "electric_scooter", "lat": 38.89223616666666, "is_reserved": 0, "fusion_lat": 0.0}, {"bike_id": "b08fd50b750a4e6d7c43ed58e28f56fb", "fusion_lon": 0.0, "lon": -77.03863966666667, "name": "b08fd50b750a4e6d7c43ed58e28f56fb", "is_disabled": 0, "rental_uris": {"android": "https://dc.lft.to/lastmile_qr_scan", "ios": "https://dc.lft.to/lastmile_qr_scan"}, "type": "electric_scooter", "lat": 38.907793833333336, "is_reserved": 0, "fusion_lat": 0.0}, {"bike_id": "484d4db1d3ca8fa6bf7ec97642d33577", "fusion_lon": 0.0, "lon": -77.031747, "name": "484d4db1d3ca8fa6bf7ec97642d33577", "is_disabled": 0, "rental_uris": {"android": "https://dc.lft.to/lastmile_qr_scan", "ios": "https://dc.lft.to/lastmile_qr_scan"}, "type": "electric_scooter", "lat": 38.90945716666667, "is_reserved": 0, "fusion_lat": 0.0}, {"bike_id": "654157ad6958d877325d9cd9bbec905e", "fusion_lon": 0.0, "lon": -77.00658783333333, "name": "654157ad6958d877325d9cd9bbec905e", "is_disabled": 0, "rental_uris": {"android": "https://dc.lft.to/lastmile_qr_scan", "ios": "https://dc.lft.to/lastmile_qr_scan"}, "type": "electric_scooter", "lat": 38.944632, "is_reserved": 0, "fusion_lat": 0.0}, {"bike_id": "787b59a8fb48ae9f4c9679b3dcbc4e2b", "fusion_lon": 0.0, "lon": -77.00373183333333, "name": "787b59a8fb48ae9f4c9679b3dcbc4e2b", "is_disabled": 0, "rental_uris": {"android": "https://dc.lft.to/lastmile_qr_scan", "ios": "https://dc.lft.to/lastmile_qr_scan"}, "type": "electric_scooter", "lat": 38.882639833333336, "is_reserved": 0, "fusion_lat": 0.0}, {"bike_id": "b0b2c209b91c09bce3fbd4b8b3a0f192", "fusion_lon": 0.0, "lon": -77.117094, "name": "b0b2c209b91c09bce3fbd4b8b3a0f192", "is_disabled": 0, "rental_uris": {"android": "https://dc.lft.to/lastmile_qr_scan", "ios": "https://dc.lft.to/lastmile_qr_scan"}, "type": "electric_bike", "lat": 38.86744566666667, "is_reserved": 0, "fusion_lat": 0.0}, {"bike_id": "ecb816fe2975c644a89ad6679fb94406", "fusion_lon": 0.0, "lon": -77.03675566666666, "name": "ecb816fe2975c644a89ad6679fb94406", "is_disabled": 0, "rental_uris": {"android": "https://dc.lft.to/lastmile_qr_scan", "ios": "https://dc.lft.to/lastmile_qr_scan"}, "type": "electric_scooter", "lat": 38.917103166666664, "is_reserved": 0, "fusion_lat": 0.0}, {"bike_id": "99c2a37fe9dc4ba546171bc1f3902b11", "fusion_lon": 0.0, "lon": -76.98843433333333, "name": "99c2a37fe9dc4ba546171bc1f3902b11", "is_disabled": 0, "rental_uris": {"android": "https://dc.lft.to/lastmile_qr_scan", "ios": "https://dc.lft.to/lastmile_qr_scan"}, "type": "electric_bike", "lat": 38.842784333333334, "is_reserved": 0, "fusion_lat": 0.0}, {"bike_id": "0efd11e0eff8cc7c3b6977813547429f", "fusion_lon": 0.0, "lon": -77.027258, "name": "0efd11e0eff8cc7c3b6977813547429f", "is_disabled": 0, "rental_uris": {"android": "https://dc.lft.to/lastmile_qr_scan", "ios": "https://dc.lft.to/lastmile_qr_scan"}, "type": "electric_scooter", "lat": 38.94955983333333, "is_reserved": 0, "fusion_lat": 0.0}, {"bike_id": "29f1c922453e2d39c011c427395a6cde", "fusion_lon": 0.0, "lon": -77.0131085, "name": "29f1c922453e2d39c011c427395a6cde", "is_disabled": 0, "rental_uris": {"android": "https://dc.lft.to/lastmile_qr_scan", "ios": "https://dc.lft.to/lastmile_qr_scan"}, "type": "electric_scooter", "lat": 38.90058066666667, "is_reserved": 0, "fusion_lat": 0.0}, {"bike_id": "8303de9dcf182a3ac3da1bfc6aafdc94", "fusion_lon": 0.0, "lon": -77.0487135, "name": "8303de9dcf182a3ac3da1bfc6aafdc94", "is_disabled": 0, "rental_uris": {"android": "https://dc.lft.to/lastmile_qr_scan", "ios": "https://dc.lft.to/lastmile_qr_scan"}, "type": "electric_scooter", "lat": 38.90977733333333, "is_reserved": 0, "fusion_lat": 0.0}, {"bike_id": "6ab3e643159fd1262eec5957678726f8", "fusion_lon": 0.0, "lon": -77.0253325, "name": "6ab3e643159fd1262eec5957678726f8", "is_disabled": 0, "rental_uris": {"android": "https://dc.lft.to/lastmile_qr_scan", "ios": "https://dc.lft.to/lastmile_qr_scan"}, "type": "electric_scooter", "lat": 38.924886, "is_reserved": 0, "fusion_lat": 0.0}, {"bike_id": "dbb89b5090b18ffc0a1bb57441230ea5", "fusion_lon": 0.0, "lon": -77.035189, "name": "dbb89b5090b18ffc0a1bb57441230ea5", "is_disabled": 0, "rental_uris": {"android": "https://dc.lft.to/lastmile_qr_scan", "ios": "https://dc.lft.to/lastmile_qr_scan"}, "type": "electric_scooter", "lat": 38.936049833333335, "is_reserved": 0, "fusion_lat": 0.0}, {"bike_id": "3a8ce20cf1407dd4e86b00d1f62c0513", "fusion_lon": 0.0, "lon": -77.02580916666666, "name": "3a8ce20cf1407dd4e86b00d1f62c0513", "is_disabled": 0, "rental_uris": {"android": "https://dc.lft.to/lastmile_qr_scan", "ios": "https://dc.lft.to/lastmile_qr_scan"}, "type": "electric_scooter", "lat": 38.926967, "is_reserved": 0, "fusion_lat": 0.0}, {"bike_id": "b9d0b5fd691b88aecbe17f861157ccba", "fusion_lon": 0.0, "lon": -77.00197116666666, "name": "b9d0b5fd691b88aecbe17f861157ccba", "is_disabled": 0, "rental_uris": {"android": "https://dc.lft.to/lastmile_qr_scan", "ios": "https://dc.lft.to/lastmile_qr_scan"}, "type": "electric_scooter", "lat": 38.900395833333334, "is_reserved": 0, "fusion_lat": 0.0}, {"bike_id": "07aa74b71f7be947d019f224f053312c", "fusion_lon": 0.0, "lon": -77.0445915, "name": "07aa74b71f7be947d019f224f053312c", "is_disabled": 0, "rental_uris": {"android": "https://dc.lft.to/lastmile_qr_scan", "ios": "https://dc.lft.to/lastmile_qr_scan"}, "type": "electric_scooter", "lat": 38.918525833333334, "is_reserved": 0, "fusion_lat": 0.0}, {"bike_id": "25f27b2c9ba30087174cbb53ff604cea", "fusion_lon": 0.0, "lon": -77.04329383333334, "name": "25f27b2c9ba30087174cbb53ff604cea", "is_disabled": 0, "rental_uris": {"android": "https://dc.lft.to/lastmile_qr_scan", "ios": "https://dc.lft.to/lastmile_qr_scan"}, "type": "electric_scooter", "lat": 38.892254666666666, "is_reserved": 0, "fusion_lat": 0.0}, {"bike_id": "d6b11a8898944f587507b845578367e8", "fusion_lon": 0.0, "lon": -77.01752866666666, "name": "d6b11a8898944f587507b845578367e8", "is_disabled": 0, "rental_uris": {"android": "https://dc.lft.to/lastmile_qr_scan", "ios": "https://dc.lft.to/lastmile_qr_scan"}, "type": "electric_scooter", "lat": 38.911053, "is_reserved": 0, "fusion_lat": 0.0}, {"bike_id": "fc27dc97b1f7b514fac4448eecd46864", "fusion_lon": 0.0, "lon": -77.0929475, "name": "fc27dc97b1f7b514fac4448eecd46864", "is_disabled": 0, "rental_uris": {"android": "https://dc.lft.to/lastmile_qr_scan", "ios": "https://dc.lft.to/lastmile_qr_scan"}, "type": "electric_bike", "lat": 38.976994833333336, "is_reserved": 0, "fusion_lat": 0.0}, {"bike_id": "95f98da92f07c5370c3c66437779443c", "fusion_lon": 0.0, "lon": -76.9892775, "name": "95f98da92f07c5370c3c66437779443c", "is_disabled": 0, "rental_uris": {"android": "https://dc.lft.to/lastmile_qr_scan", "ios": "https://dc.lft.to/lastmile_qr_scan"}, "type": "electric_scooter", "lat": 38.84070066666666, "is_reserved": 0, "fusion_lat": 0.0}, {"bike_id": "9108b12452528f74f8444dce2092d241", "fusion_lon": 0.0, "lon": -77.02324816666666, "name": "9108b12452528f74f8444dce2092d241", "is_disabled": 0, "rental_uris": {"android": "https://dc.lft.to/lastmile_qr_scan", "ios": "https://dc.lft.to/lastmile_qr_scan"}, "type": "electric_scooter", "lat": 38.9073285, "is_reserved": 0, "fusion_lat": 0.0}, {"bike_id": "83403c50cf2264ebc1eff9ab1bbc9661", "fusion_lon": 0.0, "lon": -77.02151266666667, "name": "83403c50cf2264ebc1eff9ab1bbc9661", "is_disabled": 0, "rental_uris": {"android": "https://dc.lft.to/lastmile_qr_scan", "ios": "https://dc.lft.to/lastmile_qr_scan"}, "type": "electric_scooter", "lat": 38.89954816666667, "is_reserved": 0, "fusion_lat": 0.0}, {"bike_id": "ca3b568d824d619b415a2d5ba7dbc9eb", "fusion_lon": 0.0, "lon": -76.985401, "name": "ca3b568d824d619b415a2d5ba7dbc9eb", "is_disabled": 0, "rental_uris": {"android": "https://dc.lft.to/lastmile_qr_scan", "ios": "https://dc.lft.to/lastmile_qr_scan"}, "type": "electric_scooter", "lat": 38.866447666666666, "is_reserved": 0, "fusion_lat": 0.0}, {"bike_id": "ed10c64d5f8f96e92d6038a8258a0c1e", "fusion_lon": 0.0, "lon": -77.024802, "name": "ed10c64d5f8f96e92d6038a8258a0c1e", "is_disabled": 0, "rental_uris": {"android": "https://dc.lft.to/lastmile_qr_scan", "ios": "https://dc.lft.to/lastmile_qr_scan"}, "type": "electric_scooter", "lat": 38.919118, "is_reserved": 0, "fusion_lat": 0.0}, {"bike_id": "6f16fcb30b3fcd5dcccef0d74b26dfc2", "fusion_lon": 0.0, "lon": -77.02576716666667, "name": "6f16fcb30b3fcd5dcccef0d74b26dfc2", "is_disabled": 0, "rental_uris": {"android": "https://dc.lft.to/lastmile_qr_scan", "ios": "https://dc.lft.to/lastmile_qr_scan"}, "type": "electric_scooter", "lat": 38.892215666666665, "is_reserved": 0, "fusion_lat": 0.0}, {"bike_id": "f888c7c4e5d4ffbf827d519e1d74da6c", "fusion_lon": 0.0, "lon": -77.00199166666667, "name": "f888c7c4e5d4ffbf827d519e1d74da6c", "is_disabled": 0, "rental_uris": {"android": "https://dc.lft.to/lastmile_qr_scan", "ios": "https://dc.lft.to/lastmile_qr_scan"}, "type": "electric_scooter", "lat": 38.9024135, "is_reserved": 0, "fusion_lat": 0.0}, {"bike_id": "889382881265ea1090f0de3a3e401f87", "fusion_lon": 0.0, "lon": -77.02672883333334, "name": "889382881265ea1090f0de3a3e401f87", "is_disabled": 0, "rental_uris": {"android": "https://dc.lft.to/lastmile_qr_scan", "ios": "https://dc.lft.to/lastmile_qr_scan"}, "type": "electric_scooter", "lat": 38.898321, "is_reserved": 0, "fusion_lat": 0.0}, {"bike_id": "87b6683bac14efd039e97acbe2f8555f", "fusion_lon": 0.0, "lon": -77.0295315, "name": "87b6683bac14efd039e97acbe2f8555f", "is_disabled": 0, "rental_uris": {"android": "https://dc.lft.to/lastmile_qr_scan", "ios": "https://dc.lft.to/lastmile_qr_scan"}, "type": "electric_scooter", "lat": 38.932493, "is_reserved": 0, "fusion_lat": 0.0}, {"bike_id": "5f6bcc895d3f7770b180b47ab4316a44", "fusion_lon": 0.0, "lon": -77.0272515, "name": "5f6bcc895d3f7770b180b47ab4316a44", "is_disabled": 0, "rental_uris": {"android": "https://dc.lft.to/lastmile_qr_scan", "ios": "https://dc.lft.to/lastmile_qr_scan"}, "type": "electric_scooter", "lat": 38.9495845, "is_reserved": 0, "fusion_lat": 0.0}, {"bike_id": "2fb8ceaa701c02a94ed34ad948c98c5e", "fusion_lon": 0.0, "lon": -77.03359033333334, "name": "2fb8ceaa701c02a94ed34ad948c98c5e", "is_disabled": 0, "rental_uris": {"android": "https://dc.lft.to/lastmile_qr_scan", "ios": "https://dc.lft.to/lastmile_qr_scan"}, "type": "electric_scooter", "lat": 38.9287345, "is_reserved": 0, "fusion_lat": 0.0}, {"bike_id": "01e960bf9a9f18480fc17f17676308e4", "fusion_lon": 0.0, "lon": -77.059421, "name": "01e960bf9a9f18480fc17f17676308e4", "is_disabled": 0, "rental_uris": {"android": "https://dc.lft.to/lastmile_qr_scan", "ios": "https://dc.lft.to/lastmile_qr_scan"}, "type": "electric_scooter", "lat": 38.90940166666667, "is_reserved": 0, "fusion_lat": 0.0}, {"bike_id": "725264d71b23d22ea8eddef0d9d6d604", "fusion_lon": 0.0, "lon": -77.02388333333333, "name": "725264d71b23d22ea8eddef0d9d6d604", "is_disabled": 0, "rental_uris": {"android": "https://dc.lft.to/lastmile_qr_scan", "ios": "https://dc.lft.to/lastmile_qr_scan"}, "type": "electric_scooter", "lat": 38.90749983333333, "is_reserved": 0, "fusion_lat": 0.0}, {"bike_id": "759dd3ac7c2b9468e7a208105cb85eee", "fusion_lon": 0.0, "lon": -77.06927883333333, "name": "759dd3ac7c2b9468e7a208105cb85eee", "is_disabled": 0, "rental_uris": {"android": "https://dc.lft.to/lastmile_qr_scan", "ios": "https://dc.lft.to/lastmile_qr_scan"}, "type": "electric_scooter", "lat": 38.90777833333333, "is_reserved": 0, "fusion_lat": 0.0}, {"bike_id": "694a8ded731c0c9fbd821e1f1ed514e4", "fusion_lon": 0.0, "lon": -77.03704683333333, "name": "694a8ded731c0c9fbd821e1f1ed514e4", "is_disabled": 0, "rental_uris": {"android": "https://dc.lft.to/lastmile_qr_scan", "ios": "https://dc.lft.to/lastmile_qr_scan"}, "type": "electric_scooter", "lat": 38.92643833333333, "is_reserved": 0, "fusion_lat": 0.0}, {"bike_id": "88444aab50e9fa37cbb8f65dc045f72f", "fusion_lon": 0.0, "lon": -77.0332025, "name": "88444aab50e9fa37cbb8f65dc045f72f", "is_disabled": 0, "rental_uris": {"android": "https://dc.lft.to/lastmile_qr_scan", "ios": "https://dc.lft.to/lastmile_qr_scan"}, "type": "electric_scooter", "lat": 38.903082166666664, "is_reserved": 0, "fusion_lat": 0.0}, {"bike_id": "f33ecfcabe5ff120c84abb0ea6f8b4a8", "fusion_lon": 0.0, "lon": -77.048918, "name": "f33ecfcabe5ff120c84abb0ea6f8b4a8", "is_disabled": 0, "rental_uris": {"android": "https://dc.lft.to/lastmile_qr_scan", "ios": "https://dc.lft.to/lastmile_qr_scan"}, "type": "electric_scooter", "lat": 38.900711666666666, "is_reserved": 0, "fusion_lat": 0.0}, {"bike_id": "61820d0fbf04f6f6617dfae55117e3e0", "fusion_lon": 0.0, "lon": -77.01511733333334, "name": "61820d0fbf04f6f6617dfae55117e3e0", "is_disabled": 0, "rental_uris": {"android": "https://dc.lft.to/lastmile_qr_scan", "ios": "https://dc.lft.to/lastmile_qr_scan"}, "type": "electric_scooter", "lat": 38.899349666666666, "is_reserved": 0, "fusion_lat": 0.0}, {"bike_id": "dd3bf296465fd3671d659e90527387d6", "fusion_lon": 0.0, "lon": -76.98585383333334, "name": "dd3bf296465fd3671d659e90527387d6", "is_disabled": 0, "rental_uris": {"android": "https://dc.lft.to/lastmile_qr_scan", "ios": "https://dc.lft.to/lastmile_qr_scan"}, "type": "electric_bike", "lat": 38.91283083333333, "is_reserved": 0, "fusion_lat": 0.0}, {"bike_id": "ff165abcfab9eb799348f7068edbd0c3", "fusion_lon": 0.0, "lon": -77.03452266666666, "name": "ff165abcfab9eb799348f7068edbd0c3", "is_disabled": 0, "rental_uris": {"android": "https://dc.lft.to/lastmile_qr_scan", "ios": "https://dc.lft.to/lastmile_qr_scan"}, "type": "electric_scooter", "lat": 38.937489666666664, "is_reserved": 0, "fusion_lat": 0.0}, {"bike_id": "921eec1e933411be7ba82a0ff068d2e3", "fusion_lon": 0.0, "lon": -77.00726733333333, "name": "921eec1e933411be7ba82a0ff068d2e3", "is_disabled": 0, "rental_uris": {"android": "https://dc.lft.to/lastmile_qr_scan", "ios": "https://dc.lft.to/lastmile_qr_scan"}, "type": "electric_scooter", "lat": 38.88490433333333, "is_reserved": 0, "fusion_lat": 0.0}, {"bike_id": "45d44f12f5b47408bf914dcd1c29a63e", "fusion_lon": 0.0, "lon": -77.02593533333334, "name": "45d44f12f5b47408bf914dcd1c29a63e", "is_disabled": 0, "rental_uris": {"android": "https://dc.lft.to/lastmile_qr_scan", "ios": "https://dc.lft.to/lastmile_qr_scan"}, "type": "electric_scooter", "lat": 38.90346566666667, "is_reserved": 0, "fusion_lat": 0.0}, {"bike_id": "bbb3b5f507b0a61a6e021675f23d5bb5", "fusion_lon": 0.0, "lon": -77.04465633333334, "name": "bbb3b5f507b0a61a6e021675f23d5bb5", "is_disabled": 0, "rental_uris": {"android": "https://dc.lft.to/lastmile_qr_scan", "ios": "https://dc.lft.to/lastmile_qr_scan"}, "type": "electric_scooter", "lat": 38.911169666666666, "is_reserved": 0, "fusion_lat": 0.0}, {"bike_id": "57e12a6ec1bc87e47014d9562ef6c03e", "fusion_lon": 0.0, "lon": -77.0306185, "name": "57e12a6ec1bc87e47014d9562ef6c03e", "is_disabled": 0, "rental_uris": {"android": "https://dc.lft.to/lastmile_qr_scan", "ios": "https://dc.lft.to/lastmile_qr_scan"}, "type": "electric_scooter", "lat": 38.88615433333333, "is_reserved": 0, "fusion_lat": 0.0}, {"bike_id": "9bac070fc30a5422356ac87d756492db", "fusion_lon": 0.0, "lon": -77.02207633333333, "name": "9bac070fc30a5422356ac87d756492db", "is_disabled": 0, "rental_uris": {"android": "https://dc.lft.to/lastmile_qr_scan", "ios": "https://dc.lft.to/lastmile_qr_scan"}, "type": "electric_scooter", "lat": 38.90198266666667, "is_reserved": 0, "fusion_lat": 0.0}, {"bike_id": "15162e2470b22564493ea1d2fab4f025", "fusion_lon": 0.0, "lon": -76.89535816666667, "name": "15162e2470b22564493ea1d2fab4f025", "is_disabled": 0, "rental_uris": {"android": "https://dc.lft.to/lastmile_qr_scan", "ios": "https://dc.lft.to/lastmile_qr_scan"}, "type": "electric_bike", "lat": 38.945487166666666, "is_reserved": 0, "fusion_lat": 0.0}, {"bike_id": "48be2a6d0211dd96965aba0c5607610e", "fusion_lon": 0.0, "lon": -77.04147483333334, "name": "48be2a6d0211dd96965aba0c5607610e", "is_disabled": 0, "rental_uris": {"android": "https://dc.lft.to/lastmile_qr_scan", "ios": "https://dc.lft.to/lastmile_qr_scan"}, "type": "electric_scooter", "lat": 38.91551666666667, "is_reserved": 0, "fusion_lat": 0.0}, {"bike_id": "1c28aa13033b66f9df354b1e567facd2", "fusion_lon": 0.0, "lon": -77.03785516666667, "name": "1c28aa13033b66f9df354b1e567facd2", "is_disabled": 0, "rental_uris": {"android": "https://dc.lft.to/lastmile_qr_scan", "ios": "https://dc.lft.to/lastmile_qr_scan"}, "type": "electric_scooter", "lat": 38.906871333333335, "is_reserved": 0, "fusion_lat": 0.0}, {"bike_id": "900faa42c2f47b8af3a6aeff8b2af20d", "fusion_lon": 0.0, "lon": -76.99053666666667, "name": "900faa42c2f47b8af3a6aeff8b2af20d", "is_disabled": 0, "rental_uris": {"android": "https://dc.lft.to/lastmile_qr_scan", "ios": "https://dc.lft.to/lastmile_qr_scan"}, "type": "electric_scooter", "lat": 38.86361016666667, "is_reserved": 0, "fusion_lat": 0.0}, {"bike_id": "cb163c412add17510eb99417d931eeb3", "fusion_lon": 0.0, "lon": -77.03259, "name": "cb163c412add17510eb99417d931eeb3", "is_disabled": 0, "rental_uris": {"android": "https://dc.lft.to/lastmile_qr_scan", "ios": "https://dc.lft.to/lastmile_qr_scan"}, "type": "electric_scooter", "lat": 38.93967033333333, "is_reserved": 0, "fusion_lat": 0.0}, {"bike_id": "53f6bd31d64e4190ca31f0d3f3c8ecfc", "fusion_lon": 0.0, "lon": -77.0184005, "name": "53f6bd31d64e4190ca31f0d3f3c8ecfc", "is_disabled": 0, "rental_uris": {"android": "https://dc.lft.to/lastmile_qr_scan", "ios": "https://dc.lft.to/lastmile_qr_scan"}, "type": "electric_scooter", "lat": 38.902596833333334, "is_reserved": 0, "fusion_lat": 0.0}, {"bike_id": "108a3850291066b665f8f9c4f1fb4d49", "fusion_lon": 0.0, "lon": -77.03316533333333, "name": "108a3850291066b665f8f9c4f1fb4d49", "is_disabled": 0, "rental_uris": {"android": "https://dc.lft.to/lastmile_qr_scan", "ios": "https://dc.lft.to/lastmile_qr_scan"}, "type": "electric_scooter", "lat": 38.9180225, "is_reserved": 0, "fusion_lat": 0.0}, {"bike_id": "47f567e8eda2de297ebedee6d46aead6", "fusion_lon": 0.0, "lon": -77.05087166666667, "name": "47f567e8eda2de297ebedee6d46aead6", "is_disabled": 0, "rental_uris": {"android": "https://dc.lft.to/lastmile_qr_scan", "ios": "https://dc.lft.to/lastmile_qr_scan"}, "type": "electric_scooter", "lat": 38.89983866666667, "is_reserved": 0, "fusion_lat": 0.0}, {"bike_id": "55f9ef5dd6f71cc751b4d6205fdb6871", "fusion_lon": 0.0, "lon": -77.02289233333333, "name": "55f9ef5dd6f71cc751b4d6205fdb6871", "is_disabled": 0, "rental_uris": {"android": "https://dc.lft.to/lastmile_qr_scan", "ios": "https://dc.lft.to/lastmile_qr_scan"}, "type": "electric_scooter", "lat": 38.890593333333335, "is_reserved": 0, "fusion_lat": 0.0}, {"bike_id": "aa49fcac533aeb99ed234f7f4b54f288", "fusion_lon": 0.0, "lon": -77.0166055, "name": "aa49fcac533aeb99ed234f7f4b54f288", "is_disabled": 0, "rental_uris": {"android": "https://dc.lft.to/lastmile_qr_scan", "ios": "https://dc.lft.to/lastmile_qr_scan"}, "type": "electric_scooter", "lat": 38.88135066666667, "is_reserved": 0, "fusion_lat": 0.0}, {"bike_id": "6333be80115dedde48bfd5f78c9404c0", "fusion_lon": 0.0, "lon": -77.04140983333333, "name": "6333be80115dedde48bfd5f78c9404c0", "is_disabled": 0, "rental_uris": {"android": "https://dc.lft.to/lastmile_qr_scan", "ios": "https://dc.lft.to/lastmile_qr_scan"}, "type": "electric_scooter", "lat": 38.89347083333333, "is_reserved": 0, "fusion_lat": 0.0}, {"bike_id": "607409c3499ff63f0b03713605da7d2b", "fusion_lon": 0.0, "lon": -77.03357633333333, "name": "607409c3499ff63f0b03713605da7d2b", "is_disabled": 0, "rental_uris": {"android": "https://dc.lft.to/lastmile_qr_scan", "ios": "https://dc.lft.to/lastmile_qr_scan"}, "type": "electric_scooter", "lat": 38.90009083333333, "is_reserved": 0, "fusion_lat": 0.0},