{"data": {"bikes": [{"rental_uris": {"android": "https://dc.lft.to/lastmile_qr_scan", "ios": "https://dc.lft.to/lastmile_qr_scan"}, "is_reserved": 0, "is_disabled": 0, "bike_id": "2be83e06a71f90cb1d8c12aec0772a74", "lat": 38.8922495, "name": "2be83e06a71f90cb1d8c12aec0772a74", "fusion_lon": 0.0, "fusion_lat": 0.0, "type": "electric_scooter", "lon": -77.032178}, {"rental_uris": {"android": "https://dc.lft.to/lastmile_qr_scan", "ios": "https://dc.lft.to/lastmile_qr_scan"}, "is_reserved": 0, "is_disabled": 0, "bike_id": "efc65cf358b6a04ebae56322e2b650e1", "lat": 38.900235333333335, "name": "efc65cf358b6a04ebae56322e2b650e1", "fusion_lon": 0.0, "fusion_lat": 0.0, "type": "electric_scooter", "lon": -77.03977933333333}, {"rental_uris": {"android": "https://dc.lft.to/lastmile_qr_scan", "ios": "https://dc.lft.to/lastmile_qr_scan"}, "is_reserved": 0, "is_disabled": 0, "bike_id": "f8cae9d46577d8f5148bb5b3bbdeb48e", "lat": 38.9202995, "name": "f8cae9d46577d8f5148bb5b3bbdeb48e", "fusion_lon": 0.0, "fusion_lat": 0.0, "type": "electric_scooter", "lon": -77.02711583333334}, {"rental_uris": {"android": "https://dc.lft.to/lastmile_qr_scan", "ios": "https://dc.lft.to/lastmile_qr_scan"}, "is_reserved": 0, "is_disabled": 0, "bike_id": "5389018061fb2f93be93aa0cc4e17ea7", "lat": 38.8641735, "name": "5389018061fb2f93be93aa0cc4e17ea7", "fusion_lon": 0.0, "fusion_lat": 0.0, "type": "electric_scooter", "lon": -76.99132516666667}, {"rental_uris": {"android": "https://dc.lft.to/lastmile_qr_scan", "ios": "https://dc.lft.to/lastmile_qr_scan"}, "is_reserved": 0, "is_disabled": 0, "bike_id": "2e663276028e2b68cff8c03ce9288b11", "lat": 38.84614333333333, "name": "2e663276028e2b68cff8c03ce9288b11", "fusion_lon": 0.0, "fusion_lat": 0.0, "type": "electric_bike", "lon": -76.96908883333333}, {"rental_uris": {"android": "https://dc.lft.to/lastmile_qr_scan", "ios": "https://dc.lft.to/lastmile_qr_scan"}, "is_reserved": 0, "is_disabled": 0, "bike_id": "e59d64a285ea717798dcc3ac1bc973ab", "lat": 38.89223416666667, "name": "e59d64a285ea717798dcc3ac1bc973ab", "fusion_lon": 0.0, "fusion_lat": 0.0, "type": "electric_scooter", "lon": -77.0316205}, {"rental_uris": {"android": "https://dc.lft.to/lastmile_qr_scan", "ios": "https://dc.lft.to/lastmile_qr_scan"}, "is_reserved": 0, "is_disabled": 0, "bike_id": "200bf9642b0eb1db1be1ae0629b58d76", "lat": 38.89740116666667, "name": "200bf9642b0eb1db1be1ae0629b58d76", "fusion_lon": 0.0, "fusion_lat": 0.0, "type": "electric_bike", "lon": -76.99215183333334}, {"rental_uris": {"android": "https://dc.lft.to/lastmile_qr_scan", "ios": "https://dc.lft.to/lastmile_qr_scan"}, "is_reserved": 0, "is_disabled": 0, "bike_id": "c3969a9f7c251ed52551dcb4adae77c0", "lat": 38.92336016666667, "name": "c3969a9f7c251ed52551dcb4adae77c0", "fusion_lon": 0.0, "fusion_lat": 0.0, "type": "electric_scooter", "lon": -77.03614916666666}, {"rental_uris": {"android": "https://dc.lft.to/lastmile_qr_scan", "ios": "https://dc.lft.to/lastmile_qr_scan"}, "is_reserved": 0, "is_disabled": 0, "bike_id": "a2eb0880d00b975fa695b40ffb320d33", "lat": 38.922396, "name": "a2eb0880d00b975fa695b40ffb320d33", "fusion_lon": 0.0, "fusion_lat": 0.0, "type": "electric_scooter", "lon": -77.0220015}, {"rental_uris": {"android": "https://dc.lft.to/lastmile_qr_scan", "ios": "https://dc.lft.to/lastmile_qr_scan"}, "is_reserved": 0, "is_disabled": 0, "bike_id": "bd1b35731f8dbd97d7e1eed89fd93ab2", "lat": 38.9156935, "name": "bd1b35731f8dbd97d7e1eed89fd93ab2", "fusion_lon": 0.0, "fusion_lat": 0.0, "type": "electric_scooter", "lon": -77.0119855}, {"rental_uris": {"android": "https://dc.lft.to/lastmile_qr_scan", "ios": "https://dc.lft.to/lastmile_qr_scan"}, "is_reserved": 0, "is_disabled": 0, "bike_id": "87888bd817a0cabbb936eb914bebfffd", "lat": 38.920601833333336, "name": "87888bd817a0cabbb936eb914bebfffd", "fusion_lon": 0.0, "fusion_lat": 0.0, "type": "electric_scooter", "lon": -77.07609583333333}, {"rental_uris": {"android": "https://dc.lft.to/lastmile_qr_scan", "ios": "https://dc.lft.to/lastmile_qr_scan"}, "is_reserved": 0, "is_disabled": 0, "bike_id": "04f82eec80162757d8eb058c3b35162f", "lat": 38.92154133333333, "name": "04f82eec80162757d8eb058c3b35162f", "fusion_lon": 0.0, "fusion_lat": 0.0, "type": "electric_scooter", "lon": -77.03866133333334}, {"rental_uris": {"android": "https://dc.lft.to/lastmile_qr_scan", "ios": "https://dc.lft.to/lastmile_qr_scan"}, "is_reserved": 0, "is_disabled": 0, "bike_id": "d60f5194b752723684804f75a9168e65", "lat": 38.938803, "name": "d60f5194b752723684804f75a9168e65", "fusion_lon": 0.0, "fusion_lat": 0.0, "type": "electric_scooter", "lon": -77.02483083333334}, {"rental_uris": {"android": "https://dc.lft.to/lastmile_qr_scan", "ios": "https://dc.lft.to/lastmile_qr_scan"}, "is_reserved": 0, "is_disabled": 0, "bike_id": "6ecc9f34a5314161da902a432116a176", "lat": 38.90411783333333, "name": "6ecc9f34a5314161da902a432116a176", "fusion_lon": 0.0, "fusion_lat": 0.0, "type": "electric_scooter", "lon": -76.98086566666667}, {"rental_uris": {"android": "https://dc.lft.to/lastmile_qr_scan", "ios": "https://dc.lft.to/lastmile_qr_scan"}, "is_reserved": 0, "is_disabled": 0, "bike_id": "162f93f289f441e55735fc9e9238528e", "lat": 38.882890833333335, "name": "162f93f289f441e55735fc9e9238528e", "fusion_lon": 0.0, "fusion_lat": 0.0, "type": "electric_scooter", "lon": -76.98616}, {"rental_uris": {"android": "https://dc.lft.to/lastmile_qr_scan", "ios": "https://dc.lft.to/lastmile_qr_scan"}, "is_reserved": 0, "is_disabled": 0, "bike_id": "cdf83eb6a478344fe429ed5a3559be5f", "lat": 38.85495316666667, "name": "cdf83eb6a478344fe429ed5a3559be5f", "fusion_lon": 0.0, "fusion_lat": 0.0, "type": "electric_bike", "lon": -77.1161695}, {"rental_uris": {"android": "https://dc.lft.to/lastmile_qr_scan", "ios": "https://dc.lft.to/lastmile_qr_scan"}, "is_reserved": 0, "is_disabled": 0, "bike_id": "413792009feae40794a1a63216851ac7", "lat": 38.91324216666667, "name": "413792009feae40794a1a63216851ac7", "fusion_lon": 0.0, "fusion_lat": 0.0, "type": "electric_scooter", "lon": -77.045399}, {"rental_uris": {"android": "https://dc.lft.to/lastmile_qr_scan", "ios": "https://dc.lft.to/lastmile_qr_scan"}, "is_reserved": 0, "is_disabled": 0, "bike_id": "d3845e8bdafe48eab177aacbe6fcd40c", "lat": 38.91816083333333, "name": "d3845e8bdafe48eab177aacbe6fcd40c", "fusion_lon": 0.0, "fusion_lat": 0.0, "type": "electric_scooter", "lon": -77.02529083333333}, {"rental_uris": {"android": "https://dc.lft.to/lastmile_qr_scan", "ios": "https://dc.lft.to/lastmile_qr_scan"}, "is_reserved": 0, "is_disabled": 0, "bike_id": "501e79a74d3b294adddf6bfb9fc440ea", "lat": 38.8865685, "name": "501e79a74d3b294adddf6bfb9fc440ea", "fusion_lon": 0.0, "fusion_lat": 0.0, "type": "electric_scooter", "lon": -77.03390416666667}, {"rental_uris": {"android": "https://dc.lft.to/lastmile_qr_scan", "ios": "https://dc.lft.to/lastmile_qr_scan"}, "is_reserved": 0, "is_disabled": 0, "bike_id": "b535ab51f0272db87539e2dd0e01085b", "lat": 38.8874505, "name": "b535ab51f0272db87539e2dd0e01085b", "fusion_lon": 0.0, "fusion_lat": 0.0, "type": "electric_scooter", "lon": -77.0284275}, {"rental_uris": {"android": "https://dc.lft.to/lastmile_qr_scan", "ios": "https://dc.lft.to/lastmile_qr_scan"}, "is_reserved": 0, "is_disabled": 0, "bike_id": "6b52bf3210536ace9892ff87d87cd3f5", "lat": 38.91824616666667, "name": "6b52bf3210536ace9892ff87d87cd3f5", "fusion_lon": 0.0, "fusion_lat": 0.0, "type": "electric_scooter", "lon": -77.02709633333333}, {"rental_uris": {"android": "https://dc.lft.to/lastmile_qr_scan", "ios": "https://dc.lft.to/lastmile_qr_scan"}, "is_reserved": 0, "is_disabled": 0, "bike_id": "dbeaf12a6cd641b187bb99bcea5dde9c", "lat": 38.934763333333336, "name": "dbeaf12a6cd641b187bb99bcea5dde9c", "fusion_lon": 0.0, "fusion_lat": 0.0, "type": "electric_scooter", "lon": -77.07269866666667}, {"rental_uris": {"android": "https://dc.lft.to/lastmile_qr_scan", "ios": "https://dc.lft.to/lastmile_qr_scan"}, "is_reserved": 0, "is_disabled": 0, "bike_id": "b3ddf9344689621e9ffd77eb8409be77", "lat": 38.88412116666667, "name": "b3ddf9344689621e9ffd77eb8409be77", "fusion_lon": 0.0, "fusion_lat": 0.0, "type": "electric_scooter", "lon": -77.029144}, {"rental_uris": {"android": "https://dc.lft.to/lastmile_qr_scan", "ios": "https://dc.lft.to/lastmile_qr_scan"}, "is_reserved": 0, "is_disabled": 0, "bike_id": "4c32585fd9d5729feb9e477d24d5741e", "lat": 38.93970933333333, "name": "4c32585fd9d5729feb9e477d24d5741e", "fusion_lon": 0.0, "fusion_lat": 0.0, "type": "electric_scooter", "lon": -77.0325595}, {"rental_uris": {"android": "https://dc.lft.to/lastmile_qr_scan", "ios": "https://dc.lft.to/lastmile_qr_scan"}, "is_reserved": 0, "is_disabled": 0, "bike_id": "9756cfa621f01b1f2533511674f2663e", "lat": 38.89778166666667, "name": "9756cfa621f01b1f2533511674f2663e", "fusion_lon": 0.0, "fusion_lat": 0.0, "type": "electric_scooter", "lon": -77.00949633333333}, {"rental_uris": {"android": "https://dc.lft.to/lastmile_qr_scan", "ios": "https://dc.lft.to/lastmile_qr_scan"}, "is_reserved": 0, "is_disabled": 0, "bike_id": "e711fe13f2f6e9bc8c6ca30013cc937f", "lat": 38.921207833333334, "name": "e711fe13f2f6e9bc8c6ca30013cc937f", "fusion_lon": 0.0, "fusion_lat": 0.0, "type": "electric_scooter", "lon": -77.0458135}, {"rental_uris": {"android": "https://dc.lft.to/lastmile_qr_scan", "ios": "https://dc.lft.to/lastmile_qr_scan"}, "is_reserved": 0, "is_disabled": 0, "bike_id": "ef0f91feb1639b900e893f39852dc5d1", "lat": 38.91820933333333, "name": "ef0f91feb1639b900e893f39852dc5d1", "fusion_lon": 0.0, "fusion_lat": 0.0, "type": "electric_scooter", "lon": -77.02709283333333}, {"rental_uris": {"android": "https://dc.lft.to/lastmile_qr_scan", "ios": "https://dc.lft.to/lastmile_qr_scan"}, "is_reserved": 0, "is_disabled": 0, "bike_id": "aac1cc4422e2e49da30f1f9295390ff0", "lat": 38.909608666666664, "name": "aac1cc4422e2e49da30f1f9295390ff0", "fusion_lon": 0.0, "fusion_lat": 0.0, "type": "electric_scooter", "lon": -77.0342115}, {"rental_uris": {"android": "https://dc.lft.to/lastmile_qr_scan", "ios": "https://dc.lft.to/lastmile_qr_scan"}, "is_reserved": 0, "is_disabled": 0, "bike_id": "050e5f848027454f01ac3a06b25b4c9e", "lat": 38.87197833333333, "name": "050e5f848027454f01ac3a06b25b4c9e", "fusion_lon": 0.0, "fusion_lat": 0.0, "type": "electric_scooter", "lon": -76.97864766666666}, {"rental_uris": {"android": "https://dc.lft.to/lastmile_qr_scan", "ios": "https://dc.lft.to/lastmile_qr_scan"}, "is_reserved": 0, "is_disabled": 0, "bike_id": "1be83cc852a6c8733a80765746c40973", "lat": 38.90689283333333, "name": "1be83cc852a6c8733a80765746c40973", "fusion_lon": 0.0, "fusion_lat": 0.0, "type": "electric_scooter", "lon": -77.0101395}, {"rental_uris": {"android": "https://dc.lft.to/lastmile_qr_scan", "ios": "https://dc.lft.to/lastmile_qr_scan"}, "is_reserved": 0, "is_disabled": 0, "bike_id": "add20b675f1c9b246ea4a34414c365c1", "lat": 38.905147666666664, "name": "add20b675f1c9b246ea4a34414c365c1", "fusion_lon": 0.0, "fusion_lat": 0.0, "type": "electric_scooter", "lon": -77.06887966666666}, {"rental_uris": {"android": "https://dc.lft.to/lastmile_qr_scan", "ios": "https://dc.lft.to/lastmile_qr_scan"}, "is_reserved": 0, "is_disabled": 0, "bike_id": "45fd7d99c644d9f8bba5a31e842545c8", "lat": 38.8670305, "name": "45fd7d99c644d9f8bba5a31e842545c8", "fusion_lon": 0.0, "fusion_lat": 0.0, "type": "electric_bike", "lon": -76.9893735}, {"rental_uris": {"android": "https://dc.lft.to/lastmile_qr_scan", "ios": "https://dc.lft.to/lastmile_qr_scan"}, "is_reserved": 0, "is_disabled": 0, "bike_id": "f3c477cc181455cca55ed85979e5aaa7", "lat": 38.908587, "name": "f3c477cc181455cca55ed85979e5aaa7", "fusion_lon": 0.0, "fusion_lat": 0.0, "type": "electric_scooter", "lon": -76.99830166666666}, {"rental_uris": {"android": "https://dc.lft.to/lastmile_qr_scan", "ios": "https://dc.lft.to/lastmile_qr_scan"}, "is_reserved": 0, "is_disabled": 0, "bike_id": "e9634a60dff147508b73be04dc273b3a", "lat": 38.91916616666666, "name": "e9634a60dff147508b73be04dc273b3a", "fusion_lon": 0.0, "fusion_lat": 0.0, "type": "electric_scooter", "lon": -77.03337616666667}, {"rental_uris": {"android": "https://dc.lft.to/lastmile_qr_scan", "ios": "https://dc.lft.to/lastmile_qr_scan"}, "is_reserved": 0, "is_disabled": 0, "bike_id": "bd22325dd024216d255120b9816ce170", "lat": 38.9164265, "name": "bd22325dd024216d255120b9816ce170", "fusion_lon": 0.0, "fusion_lat": 0.0, "type": "electric_scooter", "lon": -77.0320195}, {"rental_uris": {"android": "https://dc.lft.to/lastmile_qr_scan", "ios": "https://dc.lft.to/lastmile_qr_scan"}, "is_reserved": 0, "is_disabled": 0, "bike_id": "414c1865b206904238d1928604426a33", "lat": 38.84534516666667, "name": "414c1865b206904238d1928604426a33", "fusion_lon": 0.0, "fusion_lat": 0.0, "type": "electric_scooter", "lon": -76.99697683333333}, {"rental_uris": {"android": "https://dc.lft.to/lastmile_qr_scan", "ios": "https://dc.lft.to/lastmile_qr_scan"}, "is_reserved": 0, "is_disabled": 0, "bike_id": "faefd61071a3b6dfa26501a235785d1e", "lat": 38.9182675, "name": "faefd61071a3b6dfa26501a235785d1e", "fusion_lon": 0.0, "fusion_lat": 0.0, "type": "electric_scooter", "lon": -77.0241765}, {"rental_uris": {"android": "https://dc.lft.to/lastmile_qr_scan", "ios": "https://dc.lft.to/lastmile_qr_scan"}, "is_reserved": 0, "is_disabled": 0, "bike_id": "753da40c5b2dac436c75a7e81694eeef", "lat": 38.89971233333333, "name": "753da40c5b2dac436c75a7e81694eeef", "fusion_lon": 0.0, "fusion_lat": 0.0, "type": "electric_scooter", "lon": -76.9397715}, {"rental_uris": {"android": "https://dc.lft.to/lastmile_qr_scan", "ios": "https://dc.lft.to/lastmile_qr_scan"}, "is_reserved": 0, "is_disabled": 0, "bike_id": "d29457ef0066e9dc8ba9a62824364471", "lat": 38.89228266666667, "name": "d29457ef0066e9dc8ba9a62824364471", "fusion_lon": 0.0, "fusion_lat": 0.0, "type": "electric_scooter", "lon": -77.048964}, {"rental_uris": {"android": "https://dc.lft.to/lastmile_qr_scan", "ios": "https://dc.lft.to/lastmile_qr_scan"}, "is_reserved": 0, "is_disabled": 0, "bike_id": "4fb775b36e0efaec266323709a6da813", "lat": 38.86687233333333, "name": "4fb775b36e0efaec266323709a6da813", "fusion_lon": 0.0, "fusion_lat": 0.0, "type": "electric_scooter", "lon": -76.985963}, {"rental_uris": {"android": "https://dc.lft.to/lastmile_qr_scan", "ios": "https://dc.lft.to/lastmile_qr_scan"}, "is_reserved": 0, "is_disabled": 0, "bike_id": "5629d4dc7c94233ce6b9d9608d1958a2", "lat": 38.90772033333333, "name": "5629d4dc7c94233ce6b9d9608d1958a2", "fusion_lon": 0.0, "fusion_lat": 0.0, "type": "electric_scooter", "lon": -77.03196666666666}, {"rental_uris": {"android": "https://dc.lft.to/lastmile_qr_scan", "ios": "https://dc.lft.to/lastmile_qr_scan"}, "is_reserved": 0, "is_disabled": 0, "bike_id": "cb52126bb15d7c77e3979791ce91aad3", "lat": 38.93884716666667, "name": "cb52126bb15d7c77e3979791ce91aad3", "fusion_lon": 0.0, "fusion_lat": 0.0, "type": "electric_scooter", "lon": -77.02458833333333}, {"rental_uris": {"android": "https://dc.lft.to/lastmile_qr_scan", "ios": "https://dc.lft.to/lastmile_qr_scan"}, "is_reserved": 0, "is_disabled": 0, "bike_id": "cfc5f4d06bc9023dcabdae23283f3bc3", "lat": 38.96331983333334, "name": "cfc5f4d06bc9023dcabdae23283f3bc3", "fusion_lon": 0.0, "fusion_lat": 0.0, "type": "electric_bike", "lon": -76.97305433333334}, {"rental_uris": {"android": "https://dc.lft.to/lastmile_qr_scan", "ios": "https://dc.lft.to/lastmile_qr_scan"}, "is_reserved": 0, "is_disabled": 0, "bike_id": "429f60ec45002c2225a510934b41bdf5", "lat": 38.927507, "name": "429f60ec45002c2225a510934b41bdf5", "fusion_lon": 0.0, "fusion_lat": 0.0, "type": "electric_scooter", "lon": -77.02426133333333}, {"rental_uris": {"android": "https://dc.lft.to/lastmile_qr_scan", "ios": "https://dc.lft.to/lastmile_qr_scan"}, "is_reserved": 0, "is_disabled": 0, "bike_id": "c143500467796a481b8929826bb841e0", "lat": 38.924276166666665, "name": "c143500467796a481b8929826bb841e0", "fusion_lon": 0.0, "fusion_lat": 0.0, "type": "electric_scooter", "lon": -77.0224295}, {"rental_uris": {"android": "https://dc.lft.to/lastmile_qr_scan", "ios": "https://dc.lft.to/lastmile_qr_scan"}, "is_reserved": 0, "is_disabled": 0, "bike_id": "3702d7a954ff1311cf44ef070f608c76", "lat": 38.9159605, "name": "3702d7a954ff1311cf44ef070f608c76", "fusion_lon": 0.0, "fusion_lat": 0.0, "type": "electric_scooter", "lon": -77.05572683333334}, {"rental_uris": {"android": "https://dc.lft.to/lastmile_qr_scan", "ios": "https://dc.lft.to/lastmile_qr_scan"}, "is_reserved": 0, "is_disabled": 0, "bike_id": "c183ee408d247b60cab7d49dcd971692", "lat": 38.896266833333335, "name": "c183ee408d247b60cab7d49dcd971692", "fusion_lon": 0.0, "fusion_lat": 0.0, "type": "electric_scooter", "lon": -77.01985583333334}, {"rental_uris": {"android": "https://dc.lft.to/lastmile_qr_scan", "ios": "https://dc.lft.to/lastmile_qr_scan"}, "is_reserved": 0, "is_disabled": 0, "bike_id": "9676a4131144ee9c7c2527b29f7608aa", "lat": 38.928644, "name": "9676a4131144ee9c7c2527b29f7608aa", "fusion_lon": 0.0, "fusion_lat": 0.0, "type": "electric_scooter", "lon": -77.0276465}, {"rental_uris": {"android": "https://dc.lft.to/lastmile_qr_scan", "ios": "https://dc.lft.to/lastmile_qr_scan"}, "is_reserved": 0, "is_disabled": 0, "bike_id": "bfb23d05b6d77a619a5c1afa07014cb2", "lat": 38.898451333333334, "name": "bfb23d05b6d77a619a5c1afa07014cb2", "fusion_lon": 0.0, "fusion_lat": 0.0, "type": "electric_scooter", "lon": -77.04107866666666}, {"rental_uris": {"android": "https://dc.lft.to/lastmile_qr_scan", "ios": "https://dc.lft.to/lastmile_qr_scan"}, "is_reserved": 0, "is_disabled": 0, "bike_id": "a4138ac9626645d554d860fde5c2909c", "lat": 38.92059, "name": "a4138ac9626645d554d860fde5c2909c", "fusion_lon": 0.0, "fusion_lat": 0.0, "type": "electric_scooter", "lon": -77.032919}, {"rental_uris": {"android": "https://dc.lft.to/lastmile_qr_scan", "ios": "https://dc.lft.to/lastmile_qr_scan"}, "is_reserved": 0, "is_disabled": 0, "bike_id": "79e12f427c63d0b523172d4e718d2911", "lat": 38.8662245, "name": "79e12f427c63d0b523172d4e718d2911", "fusion_lon": 0.0, "fusion_lat": 0.0, "type": "electric_bike", "lon": -76.945725}, {"rental_uris": {"android": "https://dc.lft.to/lastmile_qr_scan", "ios": "https://dc.lft.to/lastmile_qr_scan"}, "is_reserved": 0, "is_disabled": 0, "bike_id": "6c96df3ed1871107afa7492d9055a7c5", "lat": 38.89957866666666, "name": "6c96df3ed1871107afa7492d9055a7c5", "fusion_lon": 0.0, "fusion_lat": 0.0, "type": "electric_scooter", "lon": -77.0161205}, {"rental_uris": {"android": "https://dc.lft.to/lastmile_qr_scan", "ios": "https://dc.lft.to/lastmile_qr_scan"}, "is_reserved": 0, "is_disabled": 0, "bike_id": "27dabd519fef7e1cd673d42f9b3af5ba", "lat": 38.9234055, "name": "27dabd519fef7e1cd673d42f9b3af5ba", "fusion_lon": 0.0, "fusion_lat": 0.0, "type": "electric_scooter", "lon": -77.03621683333333}, {"rental_uris": {"android": "https://dc.lft.to/lastmile_qr_scan", "ios": "https://dc.lft.to/lastmile_qr_scan"}, "is_reserved": 0, "is_disabled": 0, "bike_id": "aba64279f10874098910fe24e38a90dc", "lat": 39.035521333333335, "name": "aba64279f10874098910fe24e38a90dc", "fusion_lon": 0.0, "fusion_lat": 0.0, "type": "electric_bike", "lon": -77.0498135}, {"rental_uris": {"android": "https://dc.lft.to/lastmile_qr_scan", "ios": "https://dc.lft.to/lastmile_qr_scan"}, "is_reserved": 0, "is_disabled": 0, "bike_id": "6093a6f98b4c27cc2d47065a4c2ce09f", "lat": 38.921085, "name": "6093a6f98b4c27cc2d47065a4c2ce09f", "fusion_lon": 0.0, "fusion_lat": 0.0, "type": "electric_scooter", "lon": -76.99297816666666}, {"rental_uris": {"android": "https://dc.lft.to/lastmile_qr_scan", "ios": "https://dc.lft.to/lastmile_qr_scan"}, "is_reserved": 0, "is_disabled": 0, "bike_id": "c121dca913722d17d73aa486b262b0f9", "lat": 38.876428, "name": "c121dca913722d17d73aa486b262b0f9", "fusion_lon": 0.0, "fusion_lat": 0.0, "type": "electric_scooter", "lon": -77.01571233333334}, {"rental_uris": {"android": "https://dc.lft.to/lastmile_qr_scan", "ios": "https://dc.lft.to/lastmile_qr_scan"}, "is_reserved": 0, "is_disabled": 0, "bike_id": "5525e5633833d3f1b288232990fd2aab", "lat": 38.899335666666666, "name": "5525e5633833d3f1b288232990fd2aab", "fusion_lon": 0.0, "fusion_lat": 0.0, "type": "electric_scooter", "lon": -77.04141866666667}, {"rental_uris": {"android": "https://dc.lft.to/lastmile_qr_scan", "ios": "https://dc.lft.to/lastmile_qr_scan"}, "is_reserved": 0, "is_disabled": 0, "bike_id": "92b1e14c3b03b74582154af820b99a92", "lat": 38.92243233333333, "name": "92b1e14c3b03b74582154af820b99a92", "fusion_lon": 0.0, "fusion_lat": 0.0, "type": "electric_scooter", "lon": -77.03080483333333}, {"rental_uris": {"android": "https://dc.lft.to/lastmile_qr_scan", "ios": "https://dc.lft.to/lastmile_qr_scan"}, "is_reserved": 0, "is_disabled": 0, "bike_id": "88869d5cadc8b864435825f7563aa4be", "lat": 38.9413365, "name": "88869d5cadc8b864435825f7563aa4be", "fusion_lon": 0.0, "fusion_lat": 0.0, "type": "electric_scooter", "lon": -77.0154475}, {"rental_uris": {"android": "https://dc.lft.to/lastmile_qr_scan", "ios": "https://dc.lft.to/lastmile_qr_scan"}, "is_reserved": 0, "is_disabled": 0, "bike_id": "b9d3be3a436b27e0abf767141eaa4c8b", "lat": 38.93362883333333, "name": "b9d3be3a436b27e0abf767141eaa4c8b", "fusion_lon": 0.0, "fusion_lat": 0.0, "type": "electric_scooter", "lon": -77.05735283333334}, {"rental_uris": {"android": "https://dc.lft.to/lastmile_qr_scan", "ios": "https://dc.lft.to/lastmile_qr_scan"}, "is_reserved": 0, "is_disabled": 0, "bike_id": "c107a8cebaad3bc3dc17ca60d75e3af3", "lat": 38.97366383333333, "name": "c107a8cebaad3bc3dc17ca60d75e3af3", "fusion_lon": 0.0, "fusion_lat": 0.0, "type": "electric_scooter", "lon": -77.01851833333333}, {"rental_uris": {"android": "https://dc.lft.to/lastmile_qr_scan", "ios": "https://dc.lft.to/lastmile_qr_scan"}, "is_reserved": 0, "is_disabled": 0, "bike_id": "157847874a936871fc0dd12472a4085d", "lat": 38.88037833333333, "name": "157847874a936871fc0dd12472a4085d", "fusion_lon": 0.0, "fusion_lat": 0.0, "type": "electric_scooter", "lon": -77.030797}, {"rental_uris": {"android": "https://dc.lft.to/lastmile_qr_scan", "ios": "https://dc.lft.to/lastmile_qr_scan"}, "is_reserved": 0, "is_disabled": 0, "bike_id": "1041a930fe33065b5e207a1edfad9166", "lat": 38.88551866666667, "name": "1041a930fe33065b5e207a1edfad9166", "fusion_lon": 0.0, "fusion_lat": 0.0, "type": "electric_scooter", "lon": -77.01209033333333}, {"rental_uris": {"android": "https://dc.lft.to/lastmile_qr_scan", "ios": "https://dc.lft.to/lastmile_qr_scan"}, "is_reserved": 0, "is_disabled": 0, "bike_id": "cd72c27be99d0398adc5b9f72dd1b7f0", "lat": 38.89739383333333, "name": "cd72c27be99d0398adc5b9f72dd1b7f0", "fusion_lon": 0.0, "fusion_lat": 0.0, "type": "electric_scooter", "lon": -77.02797816666667}, {"rental_uris": {"android": "https://dc.lft.to/lastmile_qr_scan", "ios": "https://dc.lft.to/lastmile_qr_scan"}, "is_reserved": 0, "is_disabled": 0, "bike_id": "a1e083eb756f8637014f3d2e255e2617", "lat": 38.929505, "name": "a1e083eb756f8637014f3d2e255e2617", "fusion_lon": 0.0, "fusion_lat": 0.0, "type": "electric_scooter", "lon": -77.01322783333333}, {"rental_uris": {"android": "https://dc.lft.to/lastmile_qr_scan", "ios": "https://dc.lft.to/lastmile_qr_scan"}, "is_reserved": 0, "is_disabled": 0, "bike_id": "2e0fc709d6d0e90e9a3e98b868e10916", "lat": 38.86557633333334, "name": "2e0fc709d6d0e90e9a3e98b868e10916", "fusion_lon": 0.0, "fusion_lat": 0.0, "type": "electric_scooter", "lon": -76.98940666666667}, {"rental_uris": {"android": "https://dc.lft.to/lastmile_qr_scan", "ios": "https://dc.lft.to/lastmile_qr_scan"}, "is_reserved": 0, "is_disabled": 0, "bike_id": "bc39c3ca67883c0406f3038ada76b186", "lat": 38.926762833333335, "name": "bc39c3ca67883c0406f3038ada76b186", "fusion_lon": 0.0, "fusion_lat": 0.0, "type": "electric_scooter", "lon": -77.022666}, {"rental_uris": {"android": "https://dc.lft.to/lastmile_qr_scan", "ios": "https://dc.lft.to/lastmile_qr_scan"}, "is_reserved": 0, "is_disabled": 0, "bike_id": "af75de76a06004f54b3209b623323422", "lat": 38.96482316666667, "name": "af75de76a06004f54b3209b623323422", "fusion_lon": 0.0, "fusion_lat": 0.0, "type": "electric_bike", "lon": -77.10709316666667}, {"rental_uris": {"android": "https://dc.lft.to/lastmile_qr_scan", "ios": "https://dc.lft.to/lastmile_qr_scan"}, "is_reserved": 0, "is_disabled": 0, "bike_id": "fc9aced0627b6378bd316f9ec298c55d", "lat": 38.89746183333333, "name": "fc9aced0627b6378bd316f9ec298c55d", "fusion_lon": 0.0, "fusion_lat": 0.0, "type": "electric_scooter", "lon": -77.010401}, {"rental_uris": {"android": "https://dc.lft.to/lastmile_qr_scan", "ios": "https://dc.lft.to/lastmile_qr_scan"}, "is_reserved": 0, "is_disabled": 0, "bike_id": "38908b8efb855d767a0b89543037268d", "lat": 38.8837245, "name": "38908b8efb855d767a0b89543037268d", "fusion_lon": 0.0, "fusion_lat": 0.0, "type": "electric_scooter", "lon": -76.99546283333333}, {"rental_uris": {"android": "https://dc.lft.to/lastmile_qr_scan", "ios": "https://dc.lft.to/lastmile_qr_scan"}, "is_reserved": 0, "is_disabled": 0, "bike_id": "ee3e27af04d30398b910006f6b7f02ab", "lat": 38.86894566666667, "name": "ee3e27af04d30398b910006f6b7f02ab", "fusion_lon": 0.0, "fusion_lat": 0.0, "type": "electric_scooter", "lon": -76.98231733333333}, {"rental_uris": {"android": "https://dc.lft.to/lastmile_qr_scan", "ios": "https://dc.lft.to/lastmile_qr_scan"}, "is_reserved": 0, "is_disabled": 0, "bike_id": "802b1a842595ea6f41eee23c0b9653ca", "lat": 38.892272166666665, "name": "802b1a842595ea6f41eee23c0b9653ca", "fusion_lon": 0.0, "fusion_lat": 0.0, "type": "electric_scooter", "lon": -77.04334983333334}, {"rental_uris": {"android": "https://dc.lft.to/lastmile_qr_scan", "ios": "https://dc.lft.to/lastmile_qr_scan"}, "is_reserved": 0, "is_disabled": 0, "bike_id": "81fbd7061c1f31f9033e4eb9f562affb", "lat": 38.92658516666667, "name": "81fbd7061c1f31f9033e4eb9f562affb", "fusion_lon": 0.0, "fusion_lat": 0.0, "type": "electric_scooter", "lon": -77.03622783333333}, {"rental_uris": {"android": "https://dc.lft.to/lastmile_qr_scan", "ios": "https://dc.lft.to/lastmile_qr_scan"}, "is_reserved": 0, "is_disabled": 0, "bike_id": "1db3ffc895455b3ced5636dadc9e0aa8", "lat": 38.9025455, "name": "1db3ffc895455b3ced5636dadc9e0aa8", "fusion_lon": 0.0, "fusion_lat": 0.0, "type": "electric_scooter", "lon": -77.04111616666667}, {"rental_uris": {"android": "https://dc.lft.to/lastmile_qr_scan", "ios": "https://dc.lft.to/lastmile_qr_scan"}, "is_reserved": 0, "is_disabled": 0, "bike_id": "e80ccc86e7a431a2dca5d69fe3df3394", "lat": 38.916223333333335, "name": "e80ccc86e7a431a2dca5d69fe3df3394", "fusion_lon": 0.0, "fusion_lat": 0.0, "type": "electric_scooter", "lon": -77.0483945}, {"rental_uris": {"android": "https://dc.lft.to/lastmile_qr_scan", "ios": "https://dc.lft.to/lastmile_qr_scan"}, "is_reserved": 0, "is_disabled": 0, "bike_id": "99262000b80630ee5ea1faac91126922", "lat": 38.920508166666664, "name": "99262000b80630ee5ea1faac91126922", "fusion_lon": 0.0, "fusion_lat": 0.0, "type": "electric_scooter", "lon": -77.0238075}, {"rental_uris": {"android": "https://dc.lft.to/lastmile_qr_scan", "ios": "https://dc.lft.to/lastmile_qr_scan"}, "is_reserved": 0, "is_disabled": 0, "bike_id": "54ab321678147a1eb534db377aa11906", "lat": 38.91990166666667, "name": "54ab321678147a1eb534db377aa11906", "fusion_lon": 0.0, "fusion_lat": 0.0, "type": "electric_scooter", "lon": -77.03265316666666}, {"rental_uris": {"android": "https://dc.lft.to/lastmile_qr_scan", "ios": "https://dc.lft.to/lastmile_qr_scan"}, "is_reserved": 0, "is_disabled": 0, "bike_id": "37a120d57fe726a3e07b64a8e553a012", "lat": 38.926631, "name": "37a120d57fe726a3e07b64a8e553a012", "fusion_lon": 0.0, "fusion_lat": 0.0, "type": "electric_scooter", "lon": -77.023295}, {"rental_uris": {"android": "https://dc.lft.to/lastmile_qr_scan", "ios": "https://dc.lft.to/lastmile_qr_scan"}, "is_reserved": 0, "is_disabled": 0, "bike_id": "d894a2037bd0069fc031312dedd8011d", "lat": 38.86703166666667, "name": "d894a2037bd0069fc031312dedd8011d", "fusion_lon": 0.0, "fusion_lat": 0.0, "type": "electric_scooter", "lon": -76.98709683333334}, {"rental_uris": {"android": "https://dc.lft.to/lastmile_qr_scan", "ios": "https://dc.lft.to/lastmile_qr_scan"}, "is_reserved": 0, "is_disabled": 0, "bike_id": "2611336953d54001d09eddca02716929", "lat": 38.937510333333336, "name": "2611336953d54001d09eddca02716929", "fusion_lon": 0.0, "fusion_lat": 0.0, "type": "electric_scooter", "lon": -77.02435433333333}, {"rental_uris": {"android": "https://dc.lft.to/lastmile_qr_scan", "ios": "https://dc.lft.to/lastmile_qr_scan"}, "is_reserved": 0, "is_disabled": 0, "bike_id": "c4555979ce65f1a888150c4bacac63b3", "lat": 38.89853216666667, "name": "c4555979ce65f1a888150c4bacac63b3", "fusion_lon": 0.0, "fusion_lat": 0.0, "type": "electric_scooter", "lon": -76.9305885}, {"rental_uris": {"android": "https://dc.lft.to/lastmile_qr_scan", "ios": "https://dc.lft.to/lastmile_qr_scan"}, "is_reserved": 0, "is_disabled": 0, "bike_id": "df8aa8fa774558fe6e17c0384f9a3313", "lat": 38.84311566666667, "name": "df8aa8fa774558fe6e17c0384f9a3313", "fusion_lon": 0.0, "fusion_lat": 0.0, "type": "electric_scooter", "lon": -76.9994145}, {"rental_uris": {"android": "https://dc.lft.to/lastmile_qr_scan", "ios": "https://dc.lft.to/lastmile_qr_scan"}, "is_reserved": 0, "is_disabled": 0, "bike_id": "5c9e5fd067d73fa067d10d8a88c1f97f", "lat": 38.96506816666667, "name": "5c9e5fd067d73fa067d10d8a88c1f97f", "fusion_lon": 0.0, "fusion_lat": 0.0, "type": "electric_bike", "lon": -77.02820816666667}, {"rental_uris": {"android": "https://dc.lft.to/lastmile_qr_scan", "ios": "https://dc.lft.to/lastmile_qr_scan"}, "is_reserved": 0, "is_disabled": 0, "bike_id": "3839b8b0041f8cfbd38642883895ea4d", "lat": 38.90797233333333, "name": "3839b8b0041f8cfbd38642883895ea4d", "fusion_lon": 0.0, "fusion_lat": 0.0, "type": "electric_scooter", "lon": -77.03999016666667}, {"rental_uris": {"android": "https://dc.lft.to/lastmile_qr_scan", "ios": "https://dc.lft.to/lastmile_qr_scan"}, "is_reserved": 0, "is_disabled": 0, "bike_id": "1ebd2aac695629358cc9939e14202705", "lat": 38.90781066666667, "name": "1ebd2aac695629358cc9939e14202705", "fusion_lon": 0.0, "fusion_lat": 0.0, "type": "electric_scooter", "lon": -77.0375965}, {"rental_uris": {"android": "https://dc.lft.to/lastmile_qr_scan", "ios": "https://dc.lft.to/lastmile_qr_scan"}, "is_reserved": 0, "is_disabled": 0, "bike_id": "f358cab957d69deca532171bfcaa81d8", "lat": 38.903559333333334, "name": "f358cab957d69deca532171bfcaa81d8", "fusion_lon": 0.0, "fusion_lat": 0.0, "type": "electric_scooter", "lon": -76.97477383333333}, {"rental_uris": {"android": "https://dc.lft.to/lastmile_qr_scan", "ios": "https://dc.lft.to/lastmile_qr_scan"}, "is_reserved": 0, "is_disabled": 0, "bike_id": "e208b2310770b8f730a7b688bf21a16b", "lat": 38.894287, "name": "e208b2310770b8f730a7b688bf21a16b", "fusion_lon": 0.0, "fusion_lat": 0.0, "type": "electric_scooter", "lon": -76.9487855}, {"rental_uris": {"android": "https://dc.lft.to/lastmile_qr_scan", "ios": "https://dc.lft.to/lastmile_qr_scan"}, "is_reserved": 0, "is_disabled": 0, "bike_id": "9c047925a0eef6a356f452bf477c3f50", "lat": 38.91567666666667, "name": "9c047925a0eef6a356f452bf477c3f50", "fusion_lon": 0.0, "fusion_lat": 0.0, "type": "electric_scooter", "lon": -77.04012583333333}, {"rental_uris": {"android": "https://dc.lft.to/lastmile_qr_scan", "ios": "https://dc.lft.to/lastmile_qr_scan"}, "is_reserved": 0, "is_disabled": 0, "bike_id": "2f7de9401ca39ae3cc049ba808eb0f70", "lat": 38.93280566666667, "name": "2f7de9401ca39ae3cc049ba808eb0f70", "fusion_lon": 0.0, "fusion_lat": 0.0, "type": "electric_scooter", "lon": -77.02885733333333}, {"rental_uris": {"android": "https://dc.lft.to/lastmile_qr_scan", "ios": "https://dc.lft.to/lastmile_qr_scan"}, "is_reserved": 0, "is_disabled": 0, "bike_id": "6ceb0614e9608ad9ff71aee68b486636", "lat": 38.915547333333336, "name": "6ceb0614e9608ad9ff71aee68b486636", "fusion_lon": 0.0, "fusion_lat": 0.0, "type": "electric_scooter", "lon": -77.0531465}, {"rental_uris": {"android": "https://dc.lft.to/lastmile_qr_scan", "ios": "https://dc.lft.to/lastmile_qr_scan"}, "is_reserved": 0, "is_disabled": 0, "bike_id": "0a722e3da6971e24ac5665e267685efd", "lat": 38.91172066666667, "name": "0a722e3da6971e24ac5665e267685efd", "fusion_lon": 0.0, "fusion_lat": 0.0, "type": "electric_scooter", "lon": -77.03188683333333}, {"rental_uris": {"android": "https://dc.lft.to/lastmile_qr_scan", "ios": "https://dc.lft.to/lastmile_qr_scan"}, "is_reserved": 0, "is_disabled": 0, "bike_id": "34b038299681055e5b8ededbc1be3bf9", "lat": 38.918239666666665, "name": "34b038299681055e5b8ededbc1be3bf9", "fusion_lon": 0.0, "fusion_lat": 0.0, "type": "electric_scooter", "lon": -77.01209583333333}, {"rental_uris": {"android": "https://dc.lft.to/lastmile_qr_scan", "ios": "https://dc.lft.to/lastmile_qr_scan"}, "is_reserved": 0, "is_disabled": 0, "bike_id": "4d7a8332ca41c3d19759f6d7a452858c", "lat": 38.95266133333333, "name": "4d7a8332ca41c3d19759f6d7a452858c", "fusion_lon": 0.0, "fusion_lat": 0.0, "type": "electric_scooter", "lon": -77.025684}, {"rental_uris": {"android": "https://dc.lft.to/lastmile_qr_scan", "ios": "https://dc.lft.to/lastmile_qr_scan"}, "is_reserved": 0, "is_disabled": 0, "bike_id": "f255a35f1f1d12f50d25cffcaa858760", "lat": 38.85181983333333, "name": "f255a35f1f1d12f50d25cffcaa858760", "fusion_lon": 0.0, "fusion_lat": 0.0, "type": "electric_bike", "lon": -76.99568033333334}, {"rental_uris": {"android": "https://dc.lft.to/lastmile_qr_scan", "ios": "https://dc.lft.to/lastmile_qr_scan"}, "is_reserved": 0, "is_disabled": 0, "bike_id": "7c4096d8bbe9d313d245eabca3762755", "lat": 38.90532416666667, "name": "7c4096d8bbe9d313d245eabca3762755", "fusion_lon": 0.0, "fusion_lat": 0.0, "type": "electric_scooter", "lon": -77.05037266666666}, {"rental_uris": {"android": "https://dc.lft.to/lastmile_qr_scan", "ios": "https://dc.lft.to/lastmile_qr_scan"}, "is_reserved": 0, "is_disabled": 0, "bike_id": "05efc22fc80efc0231a493f3120399e7", "lat": 38.922853333333336, "name": "05efc22fc80efc0231a493f3120399e7", "fusion_lon": 0.0, "fusion_lat": 0.0, "type": "electric_scooter", "lon": -77.0365915}, {"rental_uris": {"android": "https://dc.lft.to/lastmile_qr_scan", "ios": "https://dc.lft.to/lastmile_qr_scan"}, "is_reserved": 0, "is_disabled": 0, "bike_id": "f9b416e91fc097a09d4dda620ff3417a", "lat": 38.864867833333335, "name": "f9b416e91fc097a09d4dda620ff3417a", "fusion_lon": 0.0, "fusion_lat": 0.0, "type": "electric_bike", "lon": -77.05687966666666}, {"rental_uris": {"android": "https://dc.lft.to/lastmile_qr_scan", "ios": "https://dc.lft.to/lastmile_qr_scan"}, "is_reserved": 0, "is_disabled": 0, "bike_id": "0644ccba87f291ce98d88ab13a0d9870", "lat": 38.89235033333333, "name": "0644ccba87f291ce98d88ab13a0d9870", "fusion_lon": 0.0, "fusion_lat": 0.0, "type": "electric_scooter", "lon": -77.023839}, {"rental_uris": {"android": "https://dc.lft.to/lastmile_qr_scan", "ios": "https://dc.lft.to/lastmile_qr_scan"}, "is_reserved": 0, "is_disabled": 0, "bike_id": "7b99ab887ebec01ad09e33b49eab26dc", "lat": 38.910798666666665, "name": "7b99ab887ebec01ad09e33b49eab26dc", "fusion_lon": 0.0, "fusion_lat": 0.0, "type": "electric_scooter", "lon": -77.03718533333333}, {"rental_uris": {"android": "https://dc.lft.to/lastmile_qr_scan", "ios": "https://dc.lft.to/lastmile_qr_scan"}, "is_reserved": 0, "is_disabled": 0, "bike_id": "07e7238b3b8cf8192d5b0e8e2238a07a", "lat": 38.96810116666666, "name": "07e7238b3b8cf8192d5b0e8e2238a07a", "fusion_lon": 0.0, "fusion_lat": 0.0, "type": "electric_bike", "lon": -77.0003155}, {"rental_uris": {"android": "https://dc.lft.to/lastmile_qr_scan", "ios": "https://dc.lft.to/lastmile_qr_scan"}, "is_reserved": 0, "is_disabled": 0, "bike_id": "2583be4de1efc9c29a342015b3870a5b", "lat": 38.94184666666666, "name": "2583be4de1efc9c29a342015b3870a5b", "fusion_lon": 0.0, "fusion_lat": 0.0, "type": "electric_scooter", "lon": -77.02490483333334}, {"rental_uris": {"android": "https://dc.lft.to/lastmile_qr_scan", "ios": "https://dc.lft.to/lastmile_qr_scan"}, "is_reserved": 0, "is_disabled": 0, "bike_id": "ea69fbc4cfadd8f49e04f86181385041", "lat": 38.92964083333333, "name": "ea69fbc4cfadd8f49e04f86181385041", "fusion_lon": 0.0, "fusion_lat": 0.0, "type": "electric_scooter", "lon": -77.03880466666666}, {"rental_uris": {"android": "https://dc.lft.to/lastmile_qr_scan", "ios": "https://dc.lft.to/lastmile_qr_scan"}, "is_reserved": 0, "is_disabled": 0, "bike_id": "37c7a8f225b975d44d4710b48760820e", "lat": 38.891980833333335, "name": "37c7a8f225b975d44d4710b48760820e", "fusion_lon": 0.0, "fusion_lat": 0.0, "type": "electric_scooter", "lon": -77.02235883333333}, {"rental_uris": {"android": "https://dc.lft.to/lastmile_qr_scan", "ios": "https://dc.lft.to/lastmile_qr_scan"}, "is_reserved": 0, "is_disabled": 0, "bike_id": "c40636fee91a113120437879370a8c90", "lat": 38.90562533333333, "name": "c40636fee91a113120437879370a8c90", "fusion_lon": 0.0, "fusion_lat": 0.0, "type": "electric_scooter", "lon": -77.00590066666666}, {"rental_uris": {"android": "https://dc.lft.to/lastmile_qr_scan", "ios": "https://dc.lft.to/lastmile_qr_scan"}, "is_reserved": 0, "is_disabled": 0, "bike_id": "f451599e68b5f547a15c0b8a76e1c9a6", "lat": 38.90336416666667, "name": "f451599e68b5f547a15c0b8a76e1c9a6", "fusion_lon": 0.0, "fusion_lat": 0.0, "type": "electric_scooter", "lon": -76.97589283333333}, {"rental_uris": {"android": "https://dc.lft.to/lastmile_qr_scan", "ios": "https://dc.lft.to/lastmile_qr_scan"}, "is_reserved": 0, "is_disabled": 0, "bike_id": "81e7becc48dedce7b5663b036bbb1ccb", "lat": 38.91139366666667, "name": "81e7becc48dedce7b5663b036bbb1ccb", "fusion_lon": 0.0, "fusion_lat": 0.0, "type": "electric_scooter", "lon": -77.02813916666666}, {"rental_uris": {"android": "https://dc.lft.to/lastmile_qr_scan", "ios": "https://dc.lft.to/lastmile_qr_scan"}, "is_reserved": 0, "is_disabled": 0, "bike_id": "17c3cd2b3a2095d7e8bf09221af7464c", "lat": 38.917447833333334, "name": "17c3cd2b3a2095d7e8bf09221af7464c", "fusion_lon": 0.0, "fusion_lat": 0.0, "type": "electric_scooter", "lon": -77.031853}, {"rental_uris": {"android": "https://dc.lft.to/lastmile_qr_scan", "ios": "https://dc.lft.to/lastmile_qr_scan"}, "is_reserved": 0, "is_disabled": 0, "bike_id": "0b2f0f82ef9f15868238fd13dbf26ec4", "lat": 38.90791566666667, "name": "0b2f0f82ef9f15868238fd13dbf26ec4", "fusion_lon": 0.0, "fusion_lat": 0.0, "type": "electric_scooter", "lon": -77.01110433333334}, {"rental_uris": {"android": "https://dc.lft.to/lastmile_qr_scan", "ios": "https://dc.lft.to/lastmile_qr_scan"}, "is_reserved": 0, "is_disabled": 0, "bike_id": "9962fb998f5ae37c61c14feeb2162b32", "lat": 38.91403533333333, "name": "9962fb998f5ae37c61c14feeb2162b32", "fusion_lon": 0.0, "fusion_lat": 0.0, "type": "electric_scooter", "lon": -77.0322335}, {"rental_uris": {"android": "https://dc.lft.to/lastmile_qr_scan", "ios": "https://dc.lft.to/lastmile_qr_scan"}, "is_reserved": 0, "is_disabled": 0, "bike_id": "e2625796f6bdae04225403a191107ff6", "lat": 38.904386333333335, "name": "e2625796f6bdae04225403a191107ff6", "fusion_lon": 0.0, "fusion_lat": 0.0, "type": "electric_scooter", "lon": -77.04356716666666}, {"rental_uris": {"android": "https://dc.lft.to/lastmile_qr_scan", "ios": "https://dc.lft.to/lastmile_qr_scan"}, "is_reserved": 0, "is_disabled": 0, "bike_id": "4c71ba3ddff8d18c5220179656ee7e3b", "lat": 38.961187833333334, "name": "4c71ba3ddff8d18c5220179656ee7e3b", "fusion_lon": 0.0, "fusion_lat": 0.0, "type": "electric_scooter", "lon": -77.00882966666667}, {"rental_uris": {"android": "https://dc.lft.to/lastmile_qr_scan", "ios": "https://dc.lft.to/lastmile_qr_scan"}, "is_reserved": 0, "is_disabled": 0, "bike_id": "83c94fc7e9a336c99d3ca2e97c5c8df2", "lat": 38.8718305, "name": "83c94fc7e9a336c99d3ca2e97c5c8df2", "fusion_lon": 0.0, "fusion_lat": 0.0, "type": "electric_scooter", "lon": -77.0060215}, {"rental_uris": {"android": "https://dc.lft.to/lastmile_qr_scan", "ios": "https://dc.lft.to/lastmile_qr_scan"}, "is_reserved": 0, "is_disabled": 0, "bike_id": "6ac1074746f5f86db94a7c389ce44c06", "lat": 38.898504833333334, "name": "6ac1074746f5f86db94a7c389ce44c06", "fusion_lon": 0.0, "fusion_lat": 0.0, "type": "electric_scooter", "lon": -77.03287883333333}, {"rental_uris": {"android": "https://dc.lft.to/lastmile_qr_scan", "ios": "https://dc.lft.to/lastmile_qr_scan"}, "is_reserved": 0, "is_disabled": 0, "bike_id": "04decff7f7d6c03e4b6912cf0817f339", "lat": 38.933282166666665, "name": "04decff7f7d6c03e4b6912cf0817f339", "fusion_lon": 0.0, "fusion_lat": 0.0, "type": "electric_scooter", "lon": -77.02927183333334}, {"rental_uris": {"android": "https://dc.lft.to/lastmile_qr_scan", "ios": "https://dc.lft.to/lastmile_qr_scan"}, "is_reserved": 0, "is_disabled": 0, "bike_id": "6a587d7f336ea849a28c8af010d8d4ae", "lat": 38.92791866666666, "name": "6a587d7f336ea849a28c8af010d8d4ae", "fusion_lon": 0.0, "fusion_lat": 0.0, "type": "electric_scooter", "lon": -77.03153366666666}, {"rental_uris": {"android": "https://dc.lft.to/lastmile_qr_scan", "ios": "https://dc.lft.to/lastmile_qr_scan"}, "is_reserved": 0, "is_disabled": 0, "bike_id": "ed929a9370bce34be8bf785941b51837", "lat": 38.896379333333336, "name": "ed929a9370bce34be8bf785941b51837", "fusion_lon": 0.0, "fusion_lat": 0.0, "type": "electric_scooter", "lon": -77.03215266666666}, {"rental_uris": {"android": "https://dc.lft.to/lastmile_qr_scan", "ios": "https://dc.lft.to/lastmile_qr_scan"}, "is_reserved": 0, "is_disabled": 0, "bike_id": "50794146f61993dadf7448a29bf48567", "lat": 38.942074166666664, "name": "50794146f61993dadf7448a29bf48567", "fusion_lon": 0.0, "fusion_lat": 0.0, "type": "electric_scooter", "lon": -77.025943}, {"rental_uris": {"android": "https://dc.lft.to/lastmile_qr_scan", "ios": "https://dc.lft.to/lastmile_qr_scan"}, "is_reserved": 0, "is_disabled": 0, "bike_id": "20094c1bb20c92583f1531c237e7b65a", "lat": 38.876877666666665, "name": "20094c1bb20c92583f1531c237e7b65a", "fusion_lon": 0.0, "fusion_lat": 0.0, "type": "electric_scooter", "lon": -77.01604416666666}, {"rental_uris": {"android": "https://dc.lft.to/lastmile_qr_scan", "ios": "https://dc.lft.to/lastmile_qr_scan"}, "is_reserved": 0, "is_disabled": 0, "bike_id": "f04d59956c4c43a047631bf3baf3b05f", "lat": 38.89477433333333, "name": "f04d59956c4c43a047631bf3baf3b05f", "fusion_lon": 0.0, "fusion_lat": 0.0, "type": "electric_scooter", "lon": -77.02189283333334}, {"rental_uris": {"android": "https://dc.lft.to/lastmile_qr_scan", "ios": "https://dc.lft.to/lastmile_qr_scan"}, "is_reserved": 0, "is_disabled": 0, "bike_id": "1a20ce85faf2345a5e4308d690b7f8c9", "lat": 38.90961083333333, "name": "1a20ce85faf2345a5e4308d690b7f8c9", "fusion_lon": 0.0, "fusion_lat": 0.0, "type": "electric_scooter", "lon": -77.03421016666667}, {"rental_uris": {"android": "https://dc.lft.to/lastmile_qr_scan", "ios": "https://dc.lft.to/lastmile_qr_scan"}, "is_reserved": 0, "is_disabled": 0, "bike_id": "80c2c43620b5cfacd2f7e77e014aab37", "lat": 38.90317116666667, "name": "80c2c43620b5cfacd2f7e77e014aab37", "fusion_lon": 0.0, "fusion_lat": 0.0, "type": "electric_scooter", "lon": -77.04709766666667}, {"rental_uris": {"android": "https://dc.lft.to/lastmile_qr_scan", "ios": "https://dc.lft.to/lastmile_qr_scan"}, "is_reserved": 0, "is_disabled": 0, "bike_id": "757ab09f19543cc4c940a19d207042ce", "lat": 38.9142685, "name": "757ab09f19543cc4c940a19d207042ce", "fusion_lon": 0.0, "fusion_lat": 0.0, "type": "electric_scooter", "lon": -77.04649366666666}, {"rental_uris": {"android": "https://dc.lft.to/lastmile_qr_scan", "ios": "https://dc.lft.to/lastmile_qr_scan"}, "is_reserved": 0, "is_disabled": 0, "bike_id": "1c8ce99bec82ca2cdd6b666c141f6861", "lat": 38.90053233333333, "name": "1c8ce99bec82ca2cdd6b666c141f6861", "fusion_lon": 0.0, "fusion_lat": 0.0, "type": "electric_scooter", "lon": -76.933241}, {"rental_uris": {"android": "https://dc.lft.to/lastmile_qr_scan", "ios": "https://dc.lft.to/lastmile_qr_scan"}, "is_reserved": 0, "is_disabled": 0, "bike_id": "59fc41a51381223fa142badc79a8f7dd", "lat": 38.91408166666667, "name": "59fc41a51381223fa142badc79a8f7dd", "fusion_lon": 0.0, "fusion_lat": 0.0, "type": "electric_scooter", "lon": -77.02459716666667}, {"rental_uris": {"android": "https://dc.lft.to/lastmile_qr_scan", "ios": "https://dc.lft.to/lastmile_qr_scan"}, "is_reserved": 0, "is_disabled": 0, "bike_id": "de1366737d0d8a83d4da83f73892f799", "lat": 38.8873245, "name": "de1366737d0d8a83d4da83f73892f799", "fusion_lon": 0.0, "fusion_lat": 0.0, "type": "electric_scooter", "lon": -77.02832266666667}, {"rental_uris": {"android": "https://dc.lft.to/lastmile_qr_scan", "ios": "https://dc.lft.to/lastmile_qr_scan"}, "is_reserved": 0, "is_disabled": 0, "bike_id": "908521dfd6443ea82490506c98f59153", "lat": 38.92131833333333, "name": "908521dfd6443ea82490506c98f59153", "fusion_lon": 0.0, "fusion_lat": 0.0, "type": "electric_scooter", "lon": -77.04385316666666}, {"rental_uris": {"android": "https://dc.lft.to/lastmile_qr_scan", "ios": "https://dc.lft.to/lastmile_qr_scan"}, "is_reserved": 0, "is_disabled": 0, "bike_id": "a43f88013871c9b713bfc6cbb5e91f4d", "lat": 38.916978, "name": "a43f88013871c9b713bfc6cbb5e91f4d", "fusion_lon": 0.0, "fusion_lat": 0.0, "type": "electric_scooter", "lon": -77.0266205}, {"rental_uris": {"android": "https://dc.lft.to/lastmile_qr_scan", "ios": "https://dc.lft.to/lastmile_qr_scan"}, "is_reserved": 0, "is_disabled": 0, "bike_id": "55c9466b74c47a88d20ecf105cdf24cc", "lat": 38.92607316666667, "name": "55c9466b74c47a88d20ecf105cdf24cc", "fusion_lon": 0.0, "fusion_lat": 0.0, "type": "electric_scooter", "lon": -77.02223616666667}, {"rental_uris": {"android": "https://dc.lft.to/lastmile_qr_scan", "ios": "https://dc.lft.to/lastmile_qr_scan"}, "is_reserved": 0, "is_disabled": 0, "bike_id": "3be7eda0b4d5f7decad6083d646b8d32", "lat": 38.909503, "name": "3be7eda0b4d5f7decad6083d646b8d32", "fusion_lon": 0.0, "fusion_lat": 0.0, "type": "electric_scooter", "lon": -77.04319866666667}, {"rental_uris": {"android": "https://dc.lft.to/lastmile_qr_scan", "ios": "https://dc.lft.to/lastmile_qr_scan"}, "is_reserved": 0, "is_disabled": 0, "bike_id": "9a99b347e8cdfc967a59bd556e0135cb", "lat": 38.9027795, "name": "9a99b347e8cdfc967a59bd556e0135cb", "fusion_lon": 0.0, "fusion_lat": 0.0, "type": "electric_scooter", "lon": -77.06192416666667}, {"rental_uris": {"android": "https://dc.lft.to/lastmile_qr_scan", "ios": "https://dc.lft.to/lastmile_qr_scan"}, "is_reserved": 0, "is_disabled": 0, "bike_id": "5d1880d6385ff4960a6189500f04a803", "lat": 38.89966916666667, "name": "5d1880d6385ff4960a6189500f04a803", "fusion_lon": 0.0, "fusion_lat": 0.0, "type": "electric_scooter", "lon": -77.0162855}, {"rental_uris": {"android": "https://dc.lft.to/lastmile_qr_scan", "ios": "https://dc.lft.to/lastmile_qr_scan"}, "is_reserved": 0, "is_disabled": 0, "bike_id": "9e91781bfdd19e11dac157a652cdcd95", "lat": 38.904539, "name": "9e91781bfdd19e11dac157a652cdcd95", "fusion_lon": 0.0, "fusion_lat": 0.0, "type": "electric_scooter", "lon": -77.03273016666667}, {"rental_uris": {"android": "https://dc.lft.to/lastmile_qr_scan", "ios": "https://dc.lft.to/lastmile_qr_scan"}, "is_reserved": 0, "is_disabled": 0, "bike_id": "081f88d183a32378776e88bf87007301", "lat": 38.90282366666667, "name": "081f88d183a32378776e88bf87007301", "fusion_lon": 0.0, "fusion_lat": 0.0, "type": "electric_scooter", "lon": -77.039232}, {"rental_uris": {"android": "https://dc.lft.to/lastmile_qr_scan", "ios": "https://dc.lft.to/lastmile_qr_scan"}, "is_reserved": 0, "is_disabled": 0, "bike_id": "1c2308bab7563c98ef09f2ae323bc5a4", "lat": 38.921606833333335, "name": "1c2308bab7563c98ef09f2ae323bc5a4", "fusion_lon": 0.0, "fusion_lat": 0.0, "type": "electric_scooter", "lon": -77.03440583333334}, {"rental_uris": {"android": "https://dc.lft.to/lastmile_qr_scan", "ios": "https://dc.lft.to/lastmile_qr_scan"}, "is_reserved": 0, "is_disabled": 0, "bike_id": "bc682ae08429c466f7de2f6d73c0ae4b", "lat": 38.92574966666667, "name": "bc682ae08429c466f7de2f6d73c0ae4b", "fusion_lon": 0.0, "fusion_lat": 0.0, "type": "electric_scooter", "lon": -77.028432}, {"rental_uris": {"android": "https://dc.lft.to/lastmile_qr_scan", "ios": "https://dc.lft.to/lastmile_qr_scan"}, "is_reserved": 0, "is_disabled": 0, "bike_id": "a1e986cf08f32ab7f0c1a060bf958dd9", "lat": 38.88767933333333, "name": "a1e986cf08f32ab7f0c1a060bf958dd9", "fusion_lon": 0.0, "fusion_lat": 0.0, "type": "electric_scooter", "lon": -76.955757}, {"rental_uris": {"android": "https://dc.lft.to/lastmile_qr_scan", "ios": "https://dc.lft.to/lastmile_qr_scan"}, "is_reserved": 0, "is_disabled": 0, "bike_id": "3cfbc5ec7ff704789f1ff8d94a9a9ecb", "lat": 38.925737833333336, "name": "3cfbc5ec7ff704789f1ff8d94a9a9ecb", "fusion_lon": 0.0, "fusion_lat": 0.0, "type": "electric_scooter", "lon": -77.0228135}, {"rental_uris": {"android": "https://dc.lft.to/lastmile_qr_scan", "ios": "https://dc.lft.to/lastmile_qr_scan"}, "is_reserved": 0, "is_disabled": 0, "bike_id": "443db300a79550cce45d3aa4be854cba", "lat": 38.92796333333333, "name": "443db300a79550cce45d3aa4be854cba", "fusion_lon": 0.0, "fusion_lat": 0.0, "type": "electric_scooter", "lon": -77.0539225}, {"rental_uris": {"android": "https://dc.lft.to/lastmile_qr_scan", "ios": "https://dc.lft.to/lastmile_qr_scan"}, "is_reserved": 0, "is_disabled": 0, "bike_id": "d35319990d988b3673300789050110b7", "lat": 38.920203, "name": "d35319990d988b3673300789050110b7", "fusion_lon": 0.0, "fusion_lat": 0.0, "type": "electric_scooter", "lon": -76.98550133333333}, {"rental_uris": {"android": "https://dc.lft.to/lastmile_qr_scan", "ios": "https://dc.lft.to/lastmile_qr_scan"}, "is_reserved": 0, "is_disabled": 0, "bike_id": "f7ea4fe7f5bc2e515a632b337d54d091", "lat": 39.047192, "name": "f7ea4fe7f5bc2e515a632b337d54d091", "fusion_lon": 0.0, "fusion_lat": 0.0, "type": "electric_bike", "lon": -77.04391433333333}, {"rental_uris": {"android": "https://dc.lft.to/lastmile_qr_scan", "ios": "https://dc.lft.to/lastmile_qr_scan"}, "is_reserved": 0, "is_disabled": 0, "bike_id": "031c0a0f6a4b28e78c2a3424dfdfbe21", "lat": 38.91442283333333, "name": "031c0a0f6a4b28e78c2a3424dfdfbe21", "fusion_lon": 0.0, "fusion_lat": 0.0, "type": "electric_scooter", "lon": -77.0122405}, {"rental_uris": {"android": "https://dc.lft.to/lastmile_qr_scan", "ios": "https://dc.lft.to/lastmile_qr_scan"}, "is_reserved": 0, "is_disabled": 0, "bike_id": "6ae6d2840654205c8f91b16f99962473", "lat": 38.893593, "name": "6ae6d2840654205c8f91b16f99962473", "fusion_lon": 0.0, "fusion_lat": 0.0, "type": "electric_scooter", "lon": -76.94806983333334}, {"rental_uris": {"android": "https://dc.lft.to/lastmile_qr_scan", "ios": "https://dc.lft.to/lastmile_qr_scan"}, "is_reserved": 0, "is_disabled": 0, "bike_id": "926bc663d5dd21c6e4d2f7178f97b7b6", "lat": 38.905111833333336, "name": "926bc663d5dd21c6e4d2f7178f97b7b6", "fusion_lon": 0.0, "fusion_lat": 0.0, "type": "electric_scooter", "lon": -77.06891383333334}, {"rental_uris": {"android": "https://dc.lft.to/lastmile_qr_scan", "ios": "https://dc.lft.to/lastmile_qr_scan"}, "is_reserved": 0, "is_disabled": 0, "bike_id": "59897a424c62520faf7cdb95fb0db7bd", "lat": 38.897383833333336, "name": "59897a424c62520faf7cdb95fb0db7bd", "fusion_lon": 0.0, "fusion_lat": 0.0, "type": "electric_scooter", "lon": -77.021587}, {"rental_uris": {"android": "https://dc.lft.to/lastmile_qr_scan", "ios": "https://dc.lft.to/lastmile_qr_scan"}, "is_reserved": 0, "is_disabled": 0, "bike_id": "9c203159b726d08d661b4de028e472d3", "lat": 38.92095316666666, "name": "9c203159b726d08d661b4de028e472d3", "fusion_lon": 0.0, "fusion_lat": 0.0, "type": "electric_scooter", "lon": -77.0317295}, {"rental_uris": {"android": "https://dc.lft.to/lastmile_qr_scan", "ios": "https://dc.lft.to/lastmile_qr_scan"}, "is_reserved": 0, "is_disabled": 0, "bike_id": "a0588c2924cd33a9dd2c8f70d365a3c1", "lat": 38.92801, "name": "a0588c2924cd33a9dd2c8f70d365a3c1", "fusion_lon": 0.0, "fusion_lat": 0.0, "type": "electric_scooter", "lon": -77.03978266666667}, {"rental_uris": {"android": "https://dc.lft.to/lastmile_qr_scan", "ios": "https://dc.lft.to/lastmile_qr_scan"}, "is_reserved": 0, "is_disabled": 0, "bike_id": "7c6a7ce1c4bc467c21ffe5860c156ae3", "lat": 38.89230283333333, "name": "7c6a7ce1c4bc467c21ffe5860c156ae3", "fusion_lon": 0.0, "fusion_lat": 0.0, "type": "electric_scooter", "lon": -77.0500545}, {"rental_uris": {"android": "https://dc.lft.to/lastmile_qr_scan", "ios": "https://dc.lft.to/lastmile_qr_scan"}, "is_reserved": 0, "is_disabled": 0, "bike_id": "488bcb19dbed32aeb1014c252f95cf3c", "lat": 38.8753475, "name": "488bcb19dbed32aeb1014c252f95cf3c", "fusion_lon": 0.0, "fusion_lat": 0.0, "type": "electric_scooter", "lon": -77.0050595}, {"rental_uris": {"android": "https://dc.lft.to/lastmile_qr_scan", "ios": "https://dc.lft.to/lastmile_qr_scan"}, "is_reserved": 0, "is_disabled": 0, "bike_id": "e4f9cf8bd9500bf97402413cb531f5d9", "lat": 38.91394366666667, "name": "e4f9cf8bd9500bf97402413cb531f5d9", "fusion_lon": 0.0, "fusion_lat": 0.0, "type": "electric_scooter", "lon": -77.043346}, {"rental_uris": {"android": "https://dc.lft.to/lastmile_qr_scan", "ios": "https://dc.lft.to/lastmile_qr_scan"}, "is_reserved": 0, "is_disabled": 0, "bike_id": "26c95c9343bf60ebc7cbd33c3a98970a", "lat": 38.872748, "name": "26c95c9343bf60ebc7cbd33c3a98970a", "fusion_lon": 0.0, "fusion_lat": 0.0, "type": "electric_bike", "lon": -77.23334533333333}, {"rental_uris": {"android": "https://dc.lft.to/lastmile_qr_scan", "ios": "https://dc.lft.to/lastmile_qr_scan"}, "is_reserved": 0, "is_disabled": 0, "bike_id": "b34a1b17fc06d6c6a229ed15b44afc0d", "lat": 38.86657916666667, "name": "b34a1b17fc06d6c6a229ed15b44afc0d", "fusion_lon": 0.0, "fusion_lat": 0.0, "type": "electric_scooter", "lon": -76.988803}, {"rental_uris": {"android": "https://dc.lft.to/lastmile_qr_scan", "ios": "https://dc.lft.to/lastmile_qr_scan"}, "is_reserved": 0, "is_disabled": 0, "bike_id": "86e040a4733136b36ebb533ce1d9d0e2", "lat": 38.9568965, "name": "86e040a4733136b36ebb533ce1d9d0e2", "fusion_lon": 0.0, "fusion_lat": 0.0, "type": "electric_scooter", "lon": -77.0240405}, {"rental_uris": {"android": "https://dc.lft.to/lastmile_qr_scan", "ios": "https://dc.lft.to/lastmile_qr_scan"}, "is_reserved": 0, "is_disabled": 0, "bike_id": "f7ad0e0b605e5763ada62cd7324ccc6d", "lat": 38.89221033333333, "name": "f7ad0e0b605e5763ada62cd7324ccc6d", "fusion_lon": 0.0, "fusion_lat": 0.0, "type": "electric_scooter", "lon": -77.04467883333334}, {"rental_uris": {"android": "https://dc.lft.to/lastmile_qr_scan", "ios": "https://dc.lft.to/lastmile_qr_scan"}, "is_reserved": 0, "is_disabled": 0, "bike_id": "08345c154de672652737a68d7884803d", "lat": 38.899642666666665, "name": "08345c154de672652737a68d7884803d", "fusion_lon": 0.0, "fusion_lat": 0.0, "type": "electric_scooter", "lon": -77.04528066666667}, {"rental_uris": {"android": "https://dc.lft.to/lastmile_qr_scan", "ios": "https://dc.lft.to/lastmile_qr_scan"}, "is_reserved": 0, "is_disabled": 0, "bike_id": "2f80bbce6b871daef299e0aae0b5e395", "lat": 38.900141, "name": "2f80bbce6b871daef299e0aae0b5e395", "fusion_lon": 0.0, "fusion_lat": 0.0, "type": "electric_scooter", "lon": -77.03349633333333}, {"rental_uris": {"android": "https://dc.lft.to/lastmile_qr_scan", "ios": "https://dc.lft.to/lastmile_qr_scan"}, "is_reserved": 0, "is_disabled": 0, "bike_id": "83085dd1c1a558c206abf83b02f2a68d", "lat": 38.95357816666667, "name": "83085dd1c1a558c206abf83b02f2a68d", "fusion_lon": 0.0, "fusion_lat": 0.0, "type": "electric_bike", "lon": -76.98094633333334}, {"rental_uris": {"android": "https://dc.lft.to/lastmile_qr_scan", "ios": "https://dc.lft.to/lastmile_qr_scan"}, "is_reserved": 0, "is_disabled": 0, "bike_id": "55610ac8cfbcb6647c97a7cdfb95cb72", "lat": 38.90539183333333, "name": "55610ac8cfbcb6647c97a7cdfb95cb72", "fusion_lon": 0.0, "fusion_lat": 0.0, "type": "electric_scooter", "lon": -77.0447075}, {"rental_uris": {"android": "https://dc.lft.to/lastmile_qr_scan", "ios": "https://dc.lft.to/lastmile_qr_scan"}, "is_reserved": 0, "is_disabled": 0, "bike_id": "835338f9c1e9f51dfe9d2c47ed1f0b52", "lat": 38.905578, "name": "835338f9c1e9f51dfe9d2c47ed1f0b52", "fusion_lon": 0.0, "fusion_lat": 0.0, "type": "electric_scooter", "lon": -77.0278625}, {"rental_uris": {"android": "https://dc.lft.to/lastmile_qr_scan", "ios": "https://dc.lft.to/lastmile_qr_scan"}, "is_reserved": 0, "is_disabled": 0, "bike_id": "cd6deb187a93c608201cd99e5a668980", "lat": 38.92363316666667, "name": "cd6deb187a93c608201cd99e5a668980", "fusion_lon": 0.0, "fusion_lat": 0.0, "type": "electric_scooter", "lon": -77.05050833333334}, {"rental_uris": {"android": "https://dc.lft.to/lastmile_qr_scan", "ios": "https://dc.lft.to/lastmile_qr_scan"}, "is_reserved": 0, "is_disabled": 0, "bike_id": "fc7a1934778a3826bf638f4e8bbefd8e", "lat": 38.91867833333333, "name": "fc7a1934778a3826bf638f4e8bbefd8e", "fusion_lon": 0.0, "fusion_lat": 0.0, "type": "electric_scooter", "lon": -77.03657566666666}, {"rental_uris": {"android": "https://dc.lft.to/lastmile_qr_scan", "ios": "https://dc.lft.to/lastmile_qr_scan"}, "is_reserved": 0, "is_disabled": 0, "bike_id": "9875a1388e6c8447cf67f3e87104270a", "lat": 38.93247, "name": "9875a1388e6c8447cf67f3e87104270a", "fusion_lon": 0.0, "fusion_lat": 0.0, "type": "electric_scooter", "lon": -77.03277466666667}, {"rental_uris": {"android": "https://dc.lft.to/lastmile_qr_scan", "ios": "https://dc.lft.to/lastmile_qr_scan"}, "is_reserved": 0, "is_disabled": 0, "bike_id": "e0b480bc579f3cbf222975f4966724b5", "lat": 38.89890483333333, "name": "e0b480bc579f3cbf222975f4966724b5", "fusion_lon": 0.0, "fusion_lat": 0.0, "type": "electric_scooter", "lon": -77.03947416666666}, {"rental_uris": {"android": "https://dc.lft.to/lastmile_qr_scan", "ios": "https://dc.lft.to/lastmile_qr_scan"}, "is_reserved": 0, "is_disabled": 0, "bike_id": "76d3c9fc3b5bd245c4f3482f751f8736", "lat": 38.91809333333333, "name": "76d3c9fc3b5bd245c4f3482f751f8736", "fusion_lon": 0.0, "fusion_lat": 0.0, "type": "electric_scooter", "lon": -77.0355055}, {"rental_uris": {"android": "https://dc.lft.to/lastmile_qr_scan", "ios": "https://dc.lft.to/lastmile_qr_scan"}, "is_reserved": 0, "is_disabled": 0, "bike_id": "1c68967014f79a4210071fca4d54ab43", "lat": 38.9290305, "name": "1c68967014f79a4210071fca4d54ab43", "fusion_lon": 0.0, "fusion_lat": 0.0, "type": "electric_scooter", "lon": -77.05458516666667}, {"rental_uris": {"android": "https://dc.lft.to/lastmile_qr_scan", "ios": "https://dc.lft.to/lastmile_qr_scan"}, "is_reserved": 0, "is_disabled": 0, "bike_id": "df8367553e6b775c299e2719f2760684", "lat": 38.917844333333335, "name": "df8367553e6b775c299e2719f2760684", "fusion_lon": 0.0, "fusion_lat": 0.0, "type": "electric_scooter", "lon": -77.02369233333333}, {"rental_uris": {"android": "https://dc.lft.to/lastmile_qr_scan", "ios": "https://dc.lft.to/lastmile_qr_scan"}, "is_reserved": 0, "is_disabled": 0, "bike_id": "66e6e7b985e51ae61229fad14506f1fb", "lat": 38.929164666666665, "name": "66e6e7b985e51ae61229fad14506f1fb", "fusion_lon": 0.0, "fusion_lat": 0.0, "type": "electric_scooter", "lon": -77.020927}, {"rental_uris": {"android": "https://dc.lft.to/lastmile_qr_scan", "ios": "https://dc.lft.to/lastmile_qr_scan"}, "is_reserved": 0, "is_disabled": 0, "bike_id": "a07c6ef0a795f0b56f6d9f6ca95529ec", "lat": 38.9072475, "name": "a07c6ef0a795f0b56f6d9f6ca95529ec", "fusion_lon": 0.0, "fusion_lat": 0.0, "type": "electric_scooter", "lon": -76.97856916666667}, {"rental_uris": {"android": "https://dc.lft.to/lastmile_qr_scan", "ios": "https://dc.lft.to/lastmile_qr_scan"}, "is_reserved": 0, "is_disabled": 0, "bike_id": "45ccc9613165e4221c9e649afd16fe8b", "lat": 38.933825666666664, "name": "45ccc9613165e4221c9e649afd16fe8b", "fusion_lon": 0.0, "fusion_lat": 0.0, "type": "electric_scooter", "lon": -77.035539}, {"rental_uris": {"android": "https://dc.lft.to/lastmile_qr_scan", "ios": "https://dc.lft.to/lastmile_qr_scan"}, "is_reserved": 0, "is_disabled": 0, "bike_id": "74e43d4b670b38793ba21c1275955568", "lat": 38.89231, "name": "74e43d4b670b38793ba21c1275955568", "fusion_lon": 0.0, "fusion_lat": 0.0, "type": "electric_scooter", "lon": -77.0500005}, {"rental_uris": {"android": "https://dc.lft.to/lastmile_qr_scan", "ios": "https://dc.lft.to/lastmile_qr_scan"}, "is_reserved": 0, "is_disabled": 0, "bike_id": "9960efd3c3164e7e60ff698edb623382", "lat": 38.92365, "name": "9960efd3c3164e7e60ff698edb623382", "fusion_lon": 0.0, "fusion_lat": 0.0, "type": "electric_scooter", "lon": -77.04326633333334}, {"rental_uris": {"android": "https://dc.lft.to/lastmile_qr_scan", "ios": "https://dc.lft.to/lastmile_qr_scan"}, "is_reserved": 0, "is_disabled": 0, "bike_id": "4e4276e9028bc9baf56831730442165d", "lat": 38.948063166666664, "name": "4e4276e9028bc9baf56831730442165d", "fusion_lon": 0.0, "fusion_lat": 0.0, "type": "electric_bike", "lon": -76.95969783333334}, {"rental_uris": {"android": "https://dc.lft.to/lastmile_qr_scan", "ios": "https://dc.lft.to/lastmile_qr_scan"}, "is_reserved": 0, "is_disabled": 0, "bike_id": "55f277d61bc431ddb56956f7fa802cb9", "lat": 38.8653895, "name": "55f277d61bc431ddb56956f7fa802cb9", "fusion_lon": 0.0, "fusion_lat": 0.0, "type": "electric_scooter", "lon": -76.98704316666667}, {"rental_uris": {"android": "https://dc.lft.to/lastmile_qr_scan", "ios": "https://dc.lft.to/lastmile_qr_scan"}, "is_reserved": 0, "is_disabled": 0, "bike_id": "843c092e5639387eec9593bd7658afc3", "lat": 38.87279083333333, "name": "843c092e5639387eec9593bd7658afc3", "fusion_lon": 0.0, "fusion_lat": 0.0, "type": "electric_bike", "lon": -77.23319783333334}, {"rental_uris": {"android": "https://dc.lft.to/lastmile_qr_scan", "ios": "https://dc.lft.to/lastmile_qr_scan"}, "is_reserved": 0, "is_disabled": 0, "bike_id": "6738d283894a6e62ee431437614b3865", "lat": 38.927468166666664, "name": "6738d283894a6e62ee431437614b3865", "fusion_lon": 0.0, "fusion_lat": 0.0, "type": "electric_scooter", "lon": -77.03562666666667}, {"rental_uris": {"android": "https://dc.lft.to/lastmile_qr_scan", "ios": "https://dc.lft.to/lastmile_qr_scan"}, "is_reserved": 0, "is_disabled": 0, "bike_id": "cbb3d771f3694cb66bfc62083c4bf8c6", "lat": 38.91984983333333, "name": "cbb3d771f3694cb66bfc62083c4bf8c6", "fusion_lon": 0.0, "fusion_lat": 0.0, "type": "electric_scooter", "lon": -77.02492683333334}, {"rental_uris": {"android": "https://dc.lft.to/lastmile_qr_scan", "ios": "https://dc.lft.to/lastmile_qr_scan"}, "is_reserved": 0, "is_disabled": 0, "bike_id": "b95e4de99f3519401f61bfe1ceeb50cb", "lat": 38.91017566666667, "name": "b95e4de99f3519401f61bfe1ceeb50cb", "fusion_lon": 0.0, "fusion_lat": 0.0, "type": "electric_bike", "lon": -77.22798366666666}, {"rental_uris": {"android": "https://dc.lft.to/lastmile_qr_scan", "ios": "https://dc.lft.to/lastmile_qr_scan"}, "is_reserved": 0, "is_disabled": 0, "bike_id": "fe5cde40f29a9aecf672eae72d1121ed", "lat": 38.914069833333336, "name": "fe5cde40f29a9aecf672eae72d1121ed", "fusion_lon": 0.0, "fusion_lat": 0.0, "type": "electric_scooter", "lon": -77.02020066666667}, {"rental_uris": {"android": "https://dc.lft.to/lastmile_qr_scan", "ios": "https://dc.lft.to/lastmile_qr_scan"}, "is_reserved": 0, "is_disabled": 0, "bike_id": "d1dc695908c97804d3f9587cbd6f45e6", "lat": 38.88732016666667, "name": "d1dc695908c97804d3f9587cbd6f45e6", "fusion_lon": 0.0, "fusion_lat": 0.0, "type": "electric_scooter", "lon": -77.02828366666667}, {"rental_uris": {"android": "https://dc.lft.to/lastmile_qr_scan", "ios": "https://dc.lft.to/lastmile_qr_scan"}, "is_reserved": 0, "is_disabled": 0, "bike_id": "298e2cbbc5735c430486c276dc61cee8", "lat": 38.915587, "name": "298e2cbbc5735c430486c276dc61cee8", "fusion_lon": 0.0, "fusion_lat": 0.0, "type": "electric_scooter", "lon": -77.03864116666666}, {"rental_uris": {"android": "https://dc.lft.to/lastmile_qr_scan", "ios": "https://dc.lft.to/lastmile_qr_scan"}, "is_reserved": 0, "is_disabled": 0, "bike_id": "e126f76932c52c5fe0cd5a29008907a3", "lat": 38.8921995, "name": "e126f76932c52c5fe0cd5a29008907a3", "fusion_lon": 0.0, "fusion_lat": 0.0, "type": "electric_scooter", "lon": -77.02236366666666}, {"rental_uris": {"android": "https://dc.lft.to/lastmile_qr_scan", "ios": "https://dc.lft.to/lastmile_qr_scan"}, "is_reserved": 0, "is_disabled": 0, "bike_id": "e8fc47c48c1afbaa27bdab7f7abe08f2", "lat": 38.892215, "name": "e8fc47c48c1afbaa27bdab7f7abe08f2", "fusion_lon": 0.0, "fusion_lat": 0.0, "type": "electric_scooter", "lon": -77.03220066666667}, {"rental_uris": {"android": "https://dc.lft.to/lastmile_qr_scan", "ios": "https://dc.lft.to/lastmile_qr_scan"}, "is_reserved": 0, "is_disabled": 0, "bike_id": "3f0e84afd3a02045ae6b32b4fda57d5f", "lat": 38.897457833333334, "name": "3f0e84afd3a02045ae6b32b4fda57d5f", "fusion_lon": 0.0, "fusion_lat": 0.0, "type": "electric_scooter", "lon": -77.02715383333333}, {"rental_uris": {"android": "https://dc.lft.to/lastmile_qr_scan", "ios": "https://dc.lft.to/lastmile_qr_scan"}, "is_reserved": 0, "is_disabled": 0, "bike_id": "503caeff001793f0c7aff286a423dda1", "lat": 38.91783216666666, "name": "503caeff001793f0c7aff286a423dda1", "fusion_lon": 0.0, "fusion_lat": 0.0, "type": "electric_scooter", "lon": -77.045553}, {"rental_uris": {"android": "https://dc.lft.to/lastmile_qr_scan", "ios": "https://dc.lft.to/lastmile_qr_scan"}, "is_reserved": 0, "is_disabled": 0, "bike_id": "3d85f4537200edbe748e7957dfe8d8e3", "lat": 38.90292983333333, "name": "3d85f4537200edbe748e7957dfe8d8e3", "fusion_lon": 0.0, "fusion_lat": 0.0, "type": "electric_scooter", "lon": -76.9904}, {"rental_uris": {"android": "https://dc.lft.to/lastmile_qr_scan", "ios": "https://dc.lft.to/lastmile_qr_scan"}, "is_reserved": 0, "is_disabled": 0, "bike_id": "f5e0a60b01d60f4550f6aff65d2c58e1", "lat": 38.92315266666667, "name": "f5e0a60b01d60f4550f6aff65d2c58e1", "fusion_lon": 0.0, "fusion_lat": 0.0, "type": "electric_scooter", "lon": -77.02970433333333}, {"rental_uris": {"android": "https://dc.lft.to/lastmile_qr_scan", "ios": "https://dc.lft.to/lastmile_qr_scan"}, "is_reserved": 0, "is_disabled": 0, "bike_id": "d19b26e94d9a908e5458d1cd5d01fa15", "lat": 38.9206655, "name": "d19b26e94d9a908e5458d1cd5d01fa15", "fusion_lon": 0.0, "fusion_lat": 0.0, "type": "electric_scooter", "lon": -77.04194766666667}, {"rental_uris": {"android": "https://dc.lft.to/lastmile_qr_scan", "ios": "https://dc.lft.to/lastmile_qr_scan"}, "is_reserved": 0, "is_disabled": 0, "bike_id": "f1d3f0acd0d06cd955644ae34f0349ce", "lat": 38.8715125, "name": "f1d3f0acd0d06cd955644ae34f0349ce", "fusion_lon": 0.0, "fusion_lat": 0.0, "type": "electric_scooter", "lon": -76.977446}, {"rental_uris": {"android": "https://dc.lft.to/lastmile_qr_scan", "ios": "https://dc.lft.to/lastmile_qr_scan"}, "is_reserved": 0, "is_disabled": 0, "bike_id": "61c740f7e7a270f7fdd0e0087b8f5255", "lat": 38.893711333333336, "name": "61c740f7e7a270f7fdd0e0087b8f5255", "fusion_lon": 0.0, "fusion_lat": 0.0, "type": "electric_scooter", "lon": -77.0227915}, {"rental_uris": {"android": "https://dc.lft.to/lastmile_qr_scan", "ios": "https://dc.lft.to/lastmile_qr_scan"}, "is_reserved": 0, "is_disabled": 0, "bike_id": "abfaac625277b2a3609738edeec1bfa7", "lat": 38.93262816666667, "name": "abfaac625277b2a3609738edeec1bfa7", "fusion_lon": 0.0, "fusion_lat": 0.0, "type": "electric_scooter", "lon": -77.03263533333333}, {"rental_uris": {"android": "https://dc.lft.to/lastmile_qr_scan", "ios": "https://dc.lft.to/lastmile_qr_scan"}, "is_reserved": 0, "is_disabled": 0, "bike_id": "65c89fecfdfaf66f67c5ec3abeeae215", "lat": 38.924309666666666, "name": "65c89fecfdfaf66f67c5ec3abeeae215", "fusion_lon": 0.0, "fusion_lat": 0.0, "type": "electric_scooter", "lon": -77.05180266666666}, {"rental_uris": {"android": "https://dc.lft.to/lastmile_qr_scan", "ios": "https://dc.lft.to/lastmile_qr_scan"}, "is_reserved": 0, "is_disabled": 0, "bike_id": "28c1e77cd9d695383a09702cfb50120a", "lat": 38.901071, "name": "28c1e77cd9d695383a09702cfb50120a", "fusion_lon": 0.0, "fusion_lat": 0.0, "type": "electric_scooter", "lon": -77.03171733333333}, {"rental_uris": {"android": "https://dc.lft.to/lastmile_qr_scan", "ios": "https://dc.lft.to/lastmile_qr_scan"}, "is_reserved": 0, "is_disabled": 0, "bike_id": "c4e5840cc63f9fedf8bed2edf66f4149", "lat": 38.909651833333335, "name": "c4e5840cc63f9fedf8bed2edf66f4149", "fusion_lon": 0.0, "fusion_lat": 0.0, "type": "electric_scooter", "lon": -77.04820166666667}, {"rental_uris": {"android": "https://dc.lft.to/lastmile_qr_scan", "ios": "https://dc.lft.to/lastmile_qr_scan"}, "is_reserved": 0, "is_disabled": 0, "bike_id": "271d79cf74931e7e3908714684040f67", "lat": 38.90076166666667, "name": "271d79cf74931e7e3908714684040f67", "fusion_lon": 0.0, "fusion_lat": 0.0, "type": "electric_scooter", "lon": -77.05052283333333}, {"rental_uris": {"android": "https://dc.lft.to/lastmile_qr_scan", "ios": "https://dc.lft.to/lastmile_qr_scan"}, "is_reserved": 0, "is_disabled": 0, "bike_id": "1da9a437a88a9e6e8d1e078d5284b3df", "lat": 38.9394955, "name": "1da9a437a88a9e6e8d1e078d5284b3df", "fusion_lon": 0.0, "fusion_lat": 0.0, "type": "electric_scooter", "lon": -77.061134}, {"rental_uris": {"android": "https://dc.lft.to/lastmile_qr_scan", "ios": "https://dc.lft.to/lastmile_qr_scan"}, "is_reserved": 0, "is_disabled": 0, "bike_id": "f9b885a2cd6392a4cd921c53302e5cfd", "lat": 38.92657233333333, "name": "f9b885a2cd6392a4cd921c53302e5cfd", "fusion_lon": 0.0, "fusion_lat": 0.0, "type": "electric_scooter", "lon": -77.024214}, {"rental_uris": {"android": "https://dc.lft.to/lastmile_qr_scan", "ios": "https://dc.lft.to/lastmile_qr_scan"}, "is_reserved": 0, "is_disabled": 0, "bike_id": "9f09fc4c402faf5b6db368225abb5118", "lat": 38.921584833333334, "name": "9f09fc4c402faf5b6db368225abb5118", "fusion_lon": 0.0, "fusion_lat": 0.0, "type": "electric_scooter", "lon": -77.03381033333334}, {"rental_uris": {"android": "https://dc.lft.to/lastmile_qr_scan", "ios": "https://dc.lft.to/lastmile_qr_scan"}, "is_reserved": 0, "is_disabled": 0, "bike_id": "995f652c6b0fe9574897990fd5a2be20", "lat": 38.911235833333336, "name": "995f652c6b0fe9574897990fd5a2be20", "fusion_lon": 0.0, "fusion_lat": 0.0, "type": "electric_scooter", "lon": -77.02404133333333}, {"rental_uris": {"android": "https://dc.lft.to/lastmile_qr_scan", "ios": "https://dc.lft.to/lastmile_qr_scan"}, "is_reserved": 0, "is_disabled": 0, "bike_id": "f54c7d28331fa413df485ce3198e4fc9", "lat": 38.889654166666666, "name": "f54c7d28331fa413df485ce3198e4fc9", "fusion_lon": 0.0, "fusion_lat": 0.0, "type": "electric_scooter", "lon": -76.983733}, {"rental_uris": {"android": "https://dc.lft.to/lastmile_qr_scan", "ios": "https://dc.lft.to/lastmile_qr_scan"}, "is_reserved": 0, "is_disabled": 0, "bike_id": "8a366821811b0d146ff03c662817af9d", "lat": 38.931659, "name": "8a366821811b0d146ff03c662817af9d", "fusion_lon": 0.0, "fusion_lat": 0.0, "type": "electric_scooter", "lon": -77.05609183333333}, {"rental_uris": {"android": "https://dc.lft.to/lastmile_qr_scan", "ios": "https://dc.lft.to/lastmile_qr_scan"}, "is_reserved": 0, "is_disabled": 0, "bike_id": "7cd926b2f0314540820fd8c39a76c1d3", "lat": 38.91858366666666, "name": "7cd926b2f0314540820fd8c39a76c1d3", "fusion_lon": 0.0, "fusion_lat": 0.0, "type": "electric_scooter", "lon": -76.96087183333333}, {"rental_uris": {"android": "https://dc.lft.to/lastmile_qr_scan", "ios": "https://dc.lft.to/lastmile_qr_scan"}, "is_reserved": 0, "is_disabled": 0, "bike_id": "f3a75fea1878e77cf083ea3e4ad420de", "lat": 38.9059105, "name": "f3a75fea1878e77cf083ea3e4ad420de", "fusion_lon": 0.0, "fusion_lat": 0.0, "type": "electric_scooter", "lon": -77.01612516666667}, {"rental_uris": {"android": "https://dc.lft.to/lastmile_qr_scan", "ios": "https://dc.lft.to/lastmile_qr_scan"}, "is_reserved": 0, "is_disabled": 0, "bike_id": "c3e0da9a9a3e05e4fdb309500fe1c8ee", "lat": 38.92467466666667, "name": "c3e0da9a9a3e05e4fdb309500fe1c8ee", "fusion_lon": 0.0, "fusion_lat": 0.0, "type": "electric_scooter", "lon": -77.022519}, {"rental_uris": {"android": "https://dc.lft.to/lastmile_qr_scan", "ios": "https://dc.lft.to/lastmile_qr_scan"}, "is_reserved": 0, "is_disabled": 0, "bike_id": "cceabbe39b8fbb474ff255b3948bc2c2", "lat": 38.91711983333333, "name": "cceabbe39b8fbb474ff255b3948bc2c2", "fusion_lon": 0.0, "fusion_lat": 0.0, "type": "electric_scooter", "lon": -77.03340533333333}, {"rental_uris": {"android": "https://dc.lft.to/lastmile_qr_scan", "ios": "https://dc.lft.to/lastmile_qr_scan"}, "is_reserved": 0, "is_disabled": 0, "bike_id": "afc2f913a0af0f9cd0b5aaeb8c332f6c", "lat": 38.8746125, "name": "afc2f913a0af0f9cd0b5aaeb8c332f6c", "fusion_lon": 0.0, "fusion_lat": 0.0, "type": "electric_scooter", "lon": -77.0054585}, {"rental_uris": {"android": "https://dc.lft.to/lastmile_qr_scan", "ios": "https://dc.lft.to/lastmile_qr_scan"}, "is_reserved": 0, "is_disabled": 0, "bike_id": "781348790b6988728c62a12863d39522", "lat": 38.89996266666667, "name": "781348790b6988728c62a12863d39522", "fusion_lon": 0.0, "fusion_lat": 0.0, "type": "electric_bike", "lon": -76.99832083333334}, {"rental_uris": {"android": "https://dc.lft.to/lastmile_qr_scan", "ios": "https://dc.lft.to/lastmile_qr_scan"}, "is_reserved": 0, "is_disabled": 0, "bike_id": "49d55b196a9d44916b711439f81af64c", "lat": 38.924781833333334, "name": "49d55b196a9d44916b711439f81af64c", "fusion_lon": 0.0, "fusion_lat": 0.0, "type": "electric_scooter", "lon": -77.0355035}, {"rental_uris": {"android": "https://dc.lft.to/lastmile_qr_scan", "ios": "https://dc.lft.to/lastmile_qr_scan"}, "is_reserved": 0, "is_disabled": 0, "bike_id": "13df4bd546e4726af4b6d2b61d8379b3", "lat": 38.91406833333333, "name": "13df4bd546e4726af4b6d2b61d8379b3", "fusion_lon": 0.0, "fusion_lat": 0.0, "type": "electric_scooter", "lon": -77.0445655}, {"rental_uris": {"android": "https://dc.lft.to/lastmile_qr_scan", "ios": "https://dc.lft.to/lastmile_qr_scan"}, "is_reserved": 0, "is_disabled": 0, "bike_id": "db75209d3c76b13ee0b6b0fdb8e071c0", "lat": 38.866856166666665, "name": "db75209d3c76b13ee0b6b0fdb8e071c0", "fusion_lon": 0.0, "fusion_lat": 0.0, "type": "electric_scooter", "lon": -76.9852855}, {"rental_uris": {"android": "https://dc.lft.to/lastmile_qr_scan", "ios": "https://dc.lft.to/lastmile_qr_scan"}, "is_reserved": 0, "is_disabled": 0, "bike_id": "d9f6d628cffa7b07d5b3c0807959d577", "lat": 38.901883833333336, "name": "d9f6d628cffa7b07d5b3c0807959d577", "fusion_lon": 0.0, "fusion_lat": 0.0, "type": "electric_scooter", "lon": -77.02403783333334}, {"rental_uris": {"android": "https://dc.lft.to/lastmile_qr_scan", "ios": "https://dc.lft.to/lastmile_qr_scan"}, "is_reserved": 0, "is_disabled": 0, "bike_id": "a6518b65d092d0a3c49bda7dc3d86433", "lat": 38.863742333333334, "name": "a6518b65d092d0a3c49bda7dc3d86433", "fusion_lon": 0.0, "fusion_lat": 0.0, "type": "electric_scooter", "lon": -76.990594}, {"rental_uris": {"android": "https://dc.lft.to/lastmile_qr_scan", "ios": "https://dc.lft.to/lastmile_qr_scan"}, "is_reserved": 0, "is_disabled": 0, "bike_id": "ecbc6723163ba6026cc9dd0d8448cdca", "lat": 38.902728, "name": "ecbc6723163ba6026cc9dd0d8448cdca", "fusion_lon": 0.0, "fusion_lat": 0.0, "type": "electric_scooter", "lon": -77.03958133333333}, {"rental_uris": {"android": "https://dc.lft.to/lastmile_qr_scan", "ios": "https://dc.lft.to/lastmile_qr_scan"}, "is_reserved": 0, "is_disabled": 0, "bike_id": "1f407778fcc2805307cb0d7b253d88b5", "lat": 38.879205166666665, "name": "1f407778fcc2805307cb0d7b253d88b5", "fusion_lon": 0.0, "fusion_lat": 0.0, "type": "electric_scooter", "lon": -76.99507983333334}, {"rental_uris": {"android": "https://dc.lft.to/lastmile_qr_scan", "ios": "https://dc.lft.to/lastmile_qr_scan"}, "is_reserved": 0, "is_disabled": 0, "bike_id": "bd5d34d082303c8e9a97ad46dc541aa7", "lat": 38.918409833333335, "name": "bd5d34d082303c8e9a97ad46dc541aa7", "fusion_lon": 0.0, "fusion_lat": 0.0, "type": "electric_scooter", "lon": -77.03924616666667}, {"rental_uris": {"android": "https://dc.lft.to/lastmile_qr_scan", "ios": "https://dc.lft.to/lastmile_qr_scan"}, "is_reserved": 0, "is_disabled": 0, "bike_id": "0134a415d1e7a2cf1be4fe90e038d499", "lat": 38.91555683333333, "name": "0134a415d1e7a2cf1be4fe90e038d499", "fusion_lon": 0.0, "fusion_lat": 0.0, "type": "electric_scooter", "lon": -77.02135433333333}, {"rental_uris": {"android": "https://dc.lft.to/lastmile_qr_scan", "ios": "https://dc.lft.to/lastmile_qr_scan"}, "is_reserved": 0, "is_disabled": 0, "bike_id": "27d4ffa2c7daa16acf6eaac015f307c0", "lat": 38.90954766666667, "name": "27d4ffa2c7daa16acf6eaac015f307c0", "fusion_lon": 0.0, "fusion_lat": 0.0, "type": "electric_scooter", "lon": -77.034599}, {"rental_uris": {"android": "https://dc.lft.to/lastmile_qr_scan", "ios": "https://dc.lft.to/lastmile_qr_scan"}, "is_reserved": 0, "is_disabled": 0, "bike_id": "df53bbd6513c6ff81ae6510f35785424", "lat": 38.81333683333333, "name": "df53bbd6513c6ff81ae6510f35785424", "fusion_lon": 0.0, "fusion_lat": 0.0, "type": "electric_bike", "lon": -77.050951}, {"rental_uris": {"android": "https://dc.lft.to/lastmile_qr_scan", "ios": "https://dc.lft.to/lastmile_qr_scan"}, "is_reserved": 0, "is_disabled": 0, "bike_id": "3fc6bc965b15b70e052aa38f0407d203", "lat": 38.911550166666665, "name": "3fc6bc965b15b70e052aa38f0407d203", "fusion_lon": 0.0, "fusion_lat": 0.0, "type": "electric_scooter", "lon": -77.0321195}, {"rental_uris": {"android": "https://dc.lft.to/lastmile_qr_scan", "ios": "https://dc.lft.to/lastmile_qr_scan"}, "is_reserved": 0, "is_disabled": 0, "bike_id": "e70fef1cc270633e254c2d683a6c1059", "lat": 38.91712666666667, "name": "e70fef1cc270633e254c2d683a6c1059", "fusion_lon": 0.0, "fusion_lat": 0.0, "type": "electric_scooter", "lon": -77.033349}, {"rental_uris": {"android": "https://dc.lft.to/lastmile_qr_scan", "ios": "https://dc.lft.to/lastmile_qr_scan"}, "is_reserved": 0, "is_disabled": 0, "bike_id": "1c368478c932ac2ded4040d8ba480169", "lat": 38.909700666666666, "name": "1c368478c932ac2ded4040d8ba480169", "fusion_lon": 0.0, "fusion_lat": 0.0, "type": "electric_scooter", "lon": -77.03861416666666}, {"rental_uris": {"android": "https://dc.lft.to/lastmile_qr_scan", "ios": "https://dc.lft.to/lastmile_qr_scan"}, "is_reserved": 0, "is_disabled": 0, "bike_id": "23faae22897a87a44d8b2f390504a3d2", "lat": 38.90940833333333, "name": "23faae22897a87a44d8b2f390504a3d2", "fusion_lon": 0.0, "fusion_lat": 0.0, "type": "electric_bike", "lon": -77.05556066666666}, {"rental_uris": {"android": "https://dc.lft.to/lastmile_qr_scan", "ios": "https://dc.lft.to/lastmile_qr_scan"}, "is_reserved": 0, "is_disabled": 0, "bike_id": "ea3cc03f54e53c13df5d5c73977e2070", "lat": 38.967811833333336, "name": "ea3cc03f54e53c13df5d5c73977e2070", "fusion_lon": 0.0, "fusion_lat": 0.0, "type": "electric_scooter", "lon": -77.01515766666667}, {"rental_uris": {"android": "https://dc.lft.to/lastmile_qr_scan", "ios": "https://dc.lft.to/lastmile_qr_scan"}, "is_reserved": 0, "is_disabled": 0, "bike_id": "3fdc4df01a3fa0f083847f526a317e8a", "lat": 38.912535, "name": "3fdc4df01a3fa0f083847f526a317e8a", "fusion_lon": 0.0, "fusion_lat": 0.0, "type": "electric_scooter", "lon": -77.02716466666666}, {"rental_uris": {"android": "https://dc.lft.to/lastmile_qr_scan", "ios": "https://dc.lft.to/lastmile_qr_scan"}, "is_reserved": 0, "is_disabled": 0, "bike_id": "a635f0b83578c07e8f433d5fd6df8dd7", "lat": 38.91181683333333, "name": "a635f0b83578c07e8f433d5fd6df8dd7", "fusion_lon": 0.0, "fusion_lat": 0.0, "type": "electric_scooter", "lon": -77.04173616666667}, {"rental_uris": {"android": "https://dc.lft.to/lastmile_qr_scan", "ios": "https://dc.lft.to/lastmile_qr_scan"}, "is_reserved": 0, "is_disabled": 0, "bike_id": "10bec733bc7546973e184eb037a5103a", "lat": 38.89224516666667, "name": "10bec733bc7546973e184eb037a5103a", "fusion_lon": 0.0, "fusion_lat": 0.0, "type": "electric_scooter", "lon": -77.023546}, {"rental_uris": {"android": "https://dc.lft.to/lastmile_qr_scan", "ios": "https://dc.lft.to/lastmile_qr_scan"}, "is_reserved": 0, "is_disabled": 0, "bike_id": "a09de06bbded6956d5294da86fc6fa37", "lat": 38.901407, "name": "a09de06bbded6956d5294da86fc6fa37", "fusion_lon": 0.0, "fusion_lat": 0.0, "type": "electric_scooter", "lon": -77.03965566666666}, {"rental_uris": {"android": "https://dc.lft.to/lastmile_qr_scan", "ios": "https://dc.lft.to/lastmile_qr_scan"}, "is_reserved": 0, "is_disabled": 0, "bike_id": "acdf9c51da892ec2a58a93471e5b5bfb", "lat": 38.898440666666666, "name": "acdf9c51da892ec2a58a93471e5b5bfb", "fusion_lon": 0.0, "fusion_lat": 0.0, "type": "electric_scooter", "lon": -77.03318483333334}, {"rental_uris": {"android": "https://dc.lft.to/lastmile_qr_scan", "ios": "https://dc.lft.to/lastmile_qr_scan"}, "is_reserved": 0, "is_disabled": 0, "bike_id": "621d7deec515ed4501a72c18870adc1f", "lat": 38.812017, "name": "621d7deec515ed4501a72c18870adc1f", "fusion_lon": 0.0, "fusion_lat": 0.0, "type": "electric_bike", "lon": -77.10838466666667}, {"rental_uris": {"android": "https://dc.lft.to/lastmile_qr_scan", "ios": "https://dc.lft.to/lastmile_qr_scan"}, "is_reserved": 0, "is_disabled": 0, "bike_id": "efb77472fc50752be459dd462abbcbcd", "lat": 38.9070525, "name": "efb77472fc50752be459dd462abbcbcd", "fusion_lon": 0.0, "fusion_lat": 0.0, "type": "electric_scooter", "lon": -76.980892}, {"rental_uris": {"android": "https://dc.lft.to/lastmile_qr_scan", "ios": "https://dc.lft.to/lastmile_qr_scan"}, "is_reserved": 0, "is_disabled": 0, "bike_id": "228c38bacd91366e37e1c93683119de3", "lat": 38.930891333333335, "name": "228c38bacd91366e37e1c93683119de3", "fusion_lon": 0.0, "fusion_lat": 0.0, "type": "electric_scooter", "lon": -77.02552283333333}, {"rental_uris": {"android": "https://dc.lft.to/lastmile_qr_scan", "ios": "https://dc.lft.to/lastmile_qr_scan"}, "is_reserved": 0, "is_disabled": 0, "bike_id": "4f22336bd9d48249c383282c1a82d3e6", "lat": 38.892942166666664, "name": "4f22336bd9d48249c383282c1a82d3e6", "fusion_lon": 0.0, "fusion_lat": 0.0, "type": "electric_scooter", "lon": -76.929166}, {"rental_uris": {"android": "https://dc.lft.to/lastmile_qr_scan", "ios": "https://dc.lft.to/lastmile_qr_scan"}, "is_reserved": 0, "is_disabled": 0, "bike_id": "cfa69d28f9a0838e629b902c690c9f6b", "lat": 38.895304, "name": "cfa69d28f9a0838e629b902c690c9f6b", "fusion_lon": 0.0, "fusion_lat": 0.0, "type": "electric_scooter", "lon": -77.02670566666667}, {"rental_uris": {"android": "https://dc.lft.to/lastmile_qr_scan", "ios": "https://dc.lft.to/lastmile_qr_scan"}, "is_reserved": 0, "is_disabled": 0, "bike_id": "cdca7055edf6db77df685ec9ba1d0a6e", "lat": 38.901377833333335, "name": "cdca7055edf6db77df685ec9ba1d0a6e", "fusion_lon": 0.0, "fusion_lat": 0.0, "type": "electric_scooter", "lon": -77.03009733333333}, {"rental_uris": {"android": "https://dc.lft.to/lastmile_qr_scan", "ios": "https://dc.lft.to/lastmile_qr_scan"}, "is_reserved": 0, "is_disabled": 0, "bike_id": "4c59f7f9a46d1456c0048a4643889b19", "lat": 38.906657, "name": "4c59f7f9a46d1456c0048a4643889b19", "fusion_lon": 0.0, "fusion_lat": 0.0, "type": "electric_scooter", "lon": -77.04655116666666}, {"rental_uris": {"android": "https://dc.lft.to/lastmile_qr_scan", "ios": "https://dc.lft.to/lastmile_qr_scan"}, "is_reserved": 0, "is_disabled": 0, "bike_id": "0aa4d8bcc2b6ac489273a7617fad94fa", "lat": 38.93884766666667, "name": "0aa4d8bcc2b6ac489273a7617fad94fa", "fusion_lon": 0.0, "fusion_lat": 0.0, "type": "electric_scooter", "lon": -77.0246185}, {"rental_uris": {"android": "https://dc.lft.to/lastmile_qr_scan", "ios": "https://dc.lft.to/lastmile_qr_scan"}, "is_reserved": 0, "is_disabled": 0, "bike_id": "ddf97a37112eb747c3a971777748858e", "lat": 38.90994333333333, "name": "ddf97a37112eb747c3a971777748858e", "fusion_lon": 0.0, "fusion_lat": 0.0, "type": "electric_scooter", "lon": -76.98449966666666}, {"rental_uris": {"android": "https://dc.lft.to/lastmile_qr_scan", "ios": "https://dc.lft.to/lastmile_qr_scan"}, "is_reserved": 0, "is_disabled": 0, "bike_id": "04ac58a786f5ce287da939a5737e3e59", "lat": 38.903884833333336, "name": "04ac58a786f5ce287da939a5737e3e59", "fusion_lon": 0.0, "fusion_lat": 0.0, "type": "electric_scooter", "lon": -77.01767033333333}, {"rental_uris": {"android": "https://dc.lft.to/lastmile_qr_scan", "ios": "https://dc.lft.to/lastmile_qr_scan"}, "is_reserved": 0, "is_disabled": 0, "bike_id": "daa5e34dd4758f00b54ea9cccb6be7e5", "lat": 38.914789666666664, "name": "daa5e34dd4758f00b54ea9cccb6be7e5", "fusion_lon": 0.0, "fusion_lat": 0.0, "type": "electric_scooter", "lon": -77.03829416666666}, {"rental_uris": {"android": "https://dc.lft.to/lastmile_qr_scan", "ios": "https://dc.lft.to/lastmile_qr_scan"}, "is_reserved": 0, "is_disabled": 0, "bike_id": "921be5e5e144b9a5d99d25d969e567a7", "lat": 38.89967266666667, "name": "921be5e5e144b9a5d99d25d969e567a7", "fusion_lon": 0.0, "fusion_lat": 0.0, "type": "electric_scooter", "lon": -77.04787}, {"rental_uris": {"android": "https://dc.lft.to/lastmile_qr_scan", "ios": "https://dc.lft.to/lastmile_qr_scan"}, "is_reserved": 0, "is_disabled": 0, "bike_id": "02dc35bf24ebc5a6126a4b1b84b80dfa", "lat": 38.865061, "name": "02dc35bf24ebc5a6126a4b1b84b80dfa", "fusion_lon": 0.0, "fusion_lat": 0.0, "type": "electric_scooter", "lon": -76.990039}, {"rental_uris": {"android": "https://dc.lft.to/lastmile_qr_scan", "ios": "https://dc.lft.to/lastmile_qr_scan"}, "is_reserved": 0, "is_disabled": 0, "bike_id": "0f101731b747712827979b527b3a874c", "lat": 38.866666, "name": "0f101731b747712827979b527b3a874c", "fusion_lon": 0.0, "fusion_lat": 0.0, "type": "electric_scooter", "lon": -76.98904533333334}, {"rental_uris": {"android": "https://dc.lft.to/lastmile_qr_scan", "ios": "https://dc.lft.to/lastmile_qr_scan"}, "is_reserved": 0, "is_disabled": 0, "bike_id": "393c076915bee3605de41871c5b6e793", "lat": 38.91295683333333, "name": "393c076915bee3605de41871c5b6e793", "fusion_lon": 0.0, "fusion_lat": 0.0, "type": "electric_scooter", "lon": -77.04163383333334}, {"rental_uris": {"android": "https://dc.lft.to/lastmile_qr_scan", "ios": "https://dc.lft.to/lastmile_qr_scan"}, "is_reserved": 0, "is_disabled": 0, "bike_id": "daa6ab66e8b87584776dff388b4161f1", "lat": 38.93192483333333, "name": "daa6ab66e8b87584776dff388b4161f1", "fusion_lon": 0.0, "fusion_lat": 0.0, "type": "electric_scooter", "lon": -77.02577083333334}, {"rental_uris": {"android": "https://dc.lft.to/lastmile_qr_scan", "ios": "https://dc.lft.to/lastmile_qr_scan"}, "is_reserved": 0, "is_disabled": 0, "bike_id": "fba4dd91cd183705ece1563727530d2b", "lat": 38.9062725, "name": "fba4dd91cd183705ece1563727530d2b", "fusion_lon": 0.0, "fusion_lat": 0.0, "type": "electric_bike", "lon": -76.98604316666666}, {"rental_uris": {"android": "https://dc.lft.to/lastmile_qr_scan", "ios": "https://dc.lft.to/lastmile_qr_scan"}, "is_reserved": 0, "is_disabled": 0, "bike_id": "07626032519df8a1492ad64d103b5695", "lat": 38.920715, "name": "07626032519df8a1492ad64d103b5695", "fusion_lon": 0.0, "fusion_lat": 0.0, "type": "electric_scooter", "lon": -77.02225233333333}, {"rental_uris": {"android": "https://dc.lft.to/lastmile_qr_scan", "ios": "https://dc.lft.to/lastmile_qr_scan"}, "is_reserved": 0, "is_disabled": 0, "bike_id": "0d2974b1545bd7cfca5fc98c0b369902", "lat": 38.90280666666666, "name": "0d2974b1545bd7cfca5fc98c0b369902", "fusion_lon": 0.0, "fusion_lat": 0.0, "type": "electric_scooter", "lon": -77.03644033333333}, {"rental_uris": {"android": "https://dc.lft.to/lastmile_qr_scan", "ios": "https://dc.lft.to/lastmile_qr_scan"}, "is_reserved": 0, "is_disabled": 0, "bike_id": "1a1d72d85cf3fd20208c29ad3c67ef4e", "lat": 38.909612333333335, "name": "1a1d72d85cf3fd20208c29ad3c67ef4e", "fusion_lon": 0.0, "fusion_lat": 0.0, "type": "electric_scooter", "lon": -77.022788}, {"rental_uris": {"android": "https://dc.lft.to/lastmile_qr_scan", "ios": "https://dc.lft.to/lastmile_qr_scan"}, "is_reserved": 0, "is_disabled": 0, "bike_id": "68a8fdb2c94ec68a5a9b1305eaee3528", "lat": 38.933414, "name": "68a8fdb2c94ec68a5a9b1305eaee3528", "fusion_lon": 0.0, "fusion_lat": 0.0, "type": "electric_scooter", "lon": -77.0571305}, {"rental_uris": {"android": "https://dc.lft.to/lastmile_qr_scan", "ios": "https://dc.lft.to/lastmile_qr_scan"}, "is_reserved": 0, "is_disabled": 0, "bike_id": "233814d9f188a26ebd59c97ebfa38d07", "lat": 38.8719495, "name": "233814d9f188a26ebd59c97ebfa38d07", "fusion_lon": 0.0, "fusion_lat": 0.0, "type": "electric_scooter", "lon": -77.00578733333333}, {"rental_uris": {"android": "https://dc.lft.to/lastmile_qr_scan", "ios": "https://dc.lft.to/lastmile_qr_scan"}, "is_reserved": 0, "is_disabled": 0, "bike_id": "c2f960c3ebfc65c43f902f8031a4b728", "lat": 38.917115333333335, "name": "c2f960c3ebfc65c43f902f8031a4b728", "fusion_lon": 0.0, "fusion_lat": 0.0, "type": "electric_scooter", "lon": -77.03421116666667}, {"rental_uris": {"android": "https://dc.lft.to/lastmile_qr_scan", "ios": "https://dc.lft.to/lastmile_qr_scan"}, "is_reserved": 0, "is_disabled": 0, "bike_id": "254ac41cd485a78171746fce8dbc2e6e", "lat": 38.93305516666667, "name": "254ac41cd485a78171746fce8dbc2e6e", "fusion_lon": 0.0, "fusion_lat": 0.0, "type": "electric_scooter", "lon": -77.03072916666666}, {"rental_uris": {"android": "https://dc.lft.to/lastmile_qr_scan", "ios": "https://dc.lft.to/lastmile_qr_scan"}, "is_reserved": 0, "is_disabled": 0, "bike_id": "d201fa0808074a54f8de2e693605c668", "lat": 38.91482033333333, "name": "d201fa0808074a54f8de2e693605c668", "fusion_lon": 0.0, "fusion_lat": 0.0, "type": "electric_scooter", "lon": -77.0258015}, {"rental_uris": {"android": "https://dc.lft.to/lastmile_qr_scan", "ios": "https://dc.lft.to/lastmile_qr_scan"}, "is_reserved": 0, "is_disabled": 0, "bike_id": "f19074076d72df1ed450a1d4b46d1524", "lat": 38.90566233333333, "name": "f19074076d72df1ed450a1d4b46d1524", "fusion_lon": 0.0, "fusion_lat": 0.0, "type": "electric_scooter", "lon": -77.00579383333333}, {"rental_uris": {"android": "https://dc.lft.to/lastmile_qr_scan", "ios": "https://dc.lft.to/lastmile_qr_scan"}, "is_reserved": 0, "is_disabled": 0, "bike_id": "baf2f2b6d6450d4ef641defc4215bba6", "lat": 38.92495, "name": "baf2f2b6d6450d4ef641defc4215bba6", "fusion_lon": 0.0, "fusion_lat": 0.0, "type": "electric_scooter", "lon": -77.05221733333333}, {"rental_uris": {"android": "https://dc.lft.to/lastmile_qr_scan", "ios": "https://dc.lft.to/lastmile_qr_scan"}, "is_reserved": 0, "is_disabled": 0, "bike_id": "ce09d4ca5c295dd3fcd365caed03ec5d", "lat": 38.91547216666667, "name": "ce09d4ca5c295dd3fcd365caed03ec5d", "fusion_lon": 0.0, "fusion_lat": 0.0, "type": "electric_scooter", "lon": -77.03862833333334}, {"rental_uris": {"android": "https://dc.lft.to/lastmile_qr_scan", "ios": "https://dc.lft.to/lastmile_qr_scan"}, "is_reserved": 0, "is_disabled": 0, "bike_id": "c556e5907c1c701ae40643a9bd824b36", "lat": 38.93201833333333, "name": "c556e5907c1c701ae40643a9bd824b36", "fusion_lon": 0.0, "fusion_lat": 0.0, "type": "electric_scooter", "lon": -77.027313}, {"rental_uris": {"android": "https://dc.lft.to/lastmile_qr_scan", "ios": "https://dc.lft.to/lastmile_qr_scan"}, "is_reserved": 0, "is_disabled": 0, "bike_id": "805bc5c477915c0072fc34e90d29408c", "lat": 38.90244833333333, "name": "805bc5c477915c0072fc34e90d29408c", "fusion_lon": 0.0, "fusion_lat": 0.0, "type": "electric_scooter", "lon": -77.01930133333333}, {"rental_uris": {"android": "https://dc.lft.to/lastmile_qr_scan", "ios": "https://dc.lft.to/lastmile_qr_scan"}, "is_reserved": 0, "is_disabled": 0, "bike_id": "0721fad8a8643e51ad3e2631b9b86b58", "lat": 38.892211833333334, "name": "0721fad8a8643e51ad3e2631b9b86b58", "fusion_lon": 0.0, "fusion_lat": 0.0, "type": "electric_scooter", "lon": -77.03222083333333}, {"rental_uris": {"android": "https://dc.lft.to/lastmile_qr_scan", "ios": "https://dc.lft.to/lastmile_qr_scan"}, "is_reserved": 0, "is_disabled": 0, "bike_id": "1ed4c7c2ed335550fd47359cfee49d0e", "lat": 38.92383616666667, "name": "1ed4c7c2ed335550fd47359cfee49d0e", "fusion_lon": 0.0, "fusion_lat": 0.0, "type": "electric_scooter", "lon": -77.02740083333333}, {"rental_uris": {"android": "https://dc.lft.to/lastmile_qr_scan", "ios": "https://dc.lft.to/lastmile_qr_scan"}, "is_reserved": 0, "is_disabled": 0, "bike_id": "30f5cd9038902e372c8b7a264a08679a", "lat": 38.927889666666665, "name": "30f5cd9038902e372c8b7a264a08679a", "fusion_lon": 0.0, "fusion_lat": 0.0, "type": "electric_scooter", "lon": -77.0231925}, {"rental_uris": {"android": "https://dc.lft.to/lastmile_qr_scan", "ios": "https://dc.lft.to/lastmile_qr_scan"}, "is_reserved": 0, "is_disabled": 0, "bike_id": "11c27d3b89e3fb66c35f8aa78e0a6725", "lat": 38.94326066666667, "name": "11c27d3b89e3fb66c35f8aa78e0a6725", "fusion_lon": 0.0, "fusion_lat": 0.0, "type": "electric_scooter", "lon": -77.026801}, {"rental_uris": {"android": "https://dc.lft.to/lastmile_qr_scan", "ios": "https://dc.lft.to/lastmile_qr_scan"}, "is_reserved": 0, "is_disabled": 0, "bike_id": "93f17b918ed8f216ea2c838a23517dde", "lat": 38.91053016666667, "name": "93f17b918ed8f216ea2c838a23517dde", "fusion_lon": 0.0, "fusion_lat": 0.0, "type": "electric_scooter", "lon": -77.03862583333333}, {"rental_uris": {"android": "https://dc.lft.to/lastmile_qr_scan", "ios": "https://dc.lft.to/lastmile_qr_scan"}, "is_reserved": 0, "is_disabled": 0, "bike_id": "2ef6735dd13848423e046c2a976e8ade", "lat": 38.88049483333333, "name": "2ef6735dd13848423e046c2a976e8ade", "fusion_lon": 0.0, "fusion_lat": 0.0, "type": "electric_scooter", "lon": -77.00515416666667}, {"rental_uris": {"android": "https://dc.lft.to/lastmile_qr_scan", "ios": "https://dc.lft.to/lastmile_qr_scan"}, "is_reserved": 0, "is_disabled": 0, "bike_id": "5e160659dacb9cee613128c879f0b1ff", "lat": 38.9032465, "name": "5e160659dacb9cee613128c879f0b1ff", "fusion_lon": 0.0, "fusion_lat": 0.0, "type": "electric_scooter", "lon": -76.99106466666667}, {"rental_uris": {"android": "https://dc.lft.to/lastmile_qr_scan", "ios": "https://dc.lft.to/lastmile_qr_scan"}, "is_reserved": 0, "is_disabled": 0, "bike_id": "a805c185bf4003eb27e055e297f77f08", "lat": 38.95292766666667, "name": "a805c185bf4003eb27e055e297f77f08", "fusion_lon": 0.0, "fusion_lat": 0.0, "type": "electric_scooter", "lon": -77.06980183333333}, {"rental_uris": {"android": "https://dc.lft.to/lastmile_qr_scan", "ios": "https://dc.lft.to/lastmile_qr_scan"}, "is_reserved": 0, "is_disabled": 0, "bike_id": "2c67b0f9b6d0675dd596768f9ed5c7d6", "lat": 38.904528666666664, "name": "2c67b0f9b6d0675dd596768f9ed5c7d6", "fusion_lon": 0.0, "fusion_lat": 0.0, "type": "electric_scooter", "lon": -77.02702066666667}, {"rental_uris": {"android": "https://dc.lft.to/lastmile_qr_scan", "ios": "https://dc.lft.to/lastmile_qr_scan"}, "is_reserved": 0, "is_disabled": 0, "bike_id": "178b883e05a2c0010d14717c9f2f357a", "lat": 38.86008566666667, "name": "178b883e05a2c0010d14717c9f2f357a", "fusion_lon": 0.0, "fusion_lat": 0.0, "type": "electric_scooter", "lon": -76.9852045}, {"rental_uris": {"android": "https://dc.lft.to/lastmile_qr_scan", "ios": "https://dc.lft.to/lastmile_qr_scan"}, "is_reserved": 0, "is_disabled": 0, "bike_id": "1553986c705aff38a63ff89038b6743f", "lat": 38.874584666666664, "name": "1553986c705aff38a63ff89038b6743f", "fusion_lon": 0.0, "fusion_lat": 0.0, "type": "electric_scooter", "lon": -77.0185255}, {"rental_uris": {"android": "https://dc.lft.to/lastmile_qr_scan", "ios": "https://dc.lft.to/lastmile_qr_scan"}, "is_reserved": 0, "is_disabled": 0, "bike_id": "f2fd07bad1c8d5702185aa5b1d36900c", "lat": 38.91270983333333, "name": "f2fd07bad1c8d5702185aa5b1d36900c", "fusion_lon": 0.0, "fusion_lat": 0.0, "type": "electric_scooter", "lon": -77.02214216666667}, {"rental_uris": {"android": "https://dc.lft.to/lastmile_qr_scan", "ios": "https://dc.lft.to/lastmile_qr_scan"}, "is_reserved": 0, "is_disabled": 0, "bike_id": "2a0646688938d91a1b2a59a53a56369e", "lat": 38.90973866666667, "name": "2a0646688938d91a1b2a59a53a56369e", "fusion_lon": 0.0, "fusion_lat": 0.0, "type": "electric_scooter", "lon": -77.03223016666666}, {"rental_uris": {"android": "https://dc.lft.to/lastmile_qr_scan", "ios": "https://dc.lft.to/lastmile_qr_scan"}, "is_reserved": 0, "is_disabled": 0, "bike_id": "7ab9e29054165d6f7756a62a470741da", "lat": 38.922435666666665, "name": "7ab9e29054165d6f7756a62a470741da", "fusion_lon": 0.0, "fusion_lat": 0.0, "type": "electric_scooter", "lon": -77.03088983333333}, {"rental_uris": {"android": "https://dc.lft.to/lastmile_qr_scan", "ios": "https://dc.lft.to/lastmile_qr_scan"}, "is_reserved": 0, "is_disabled": 0, "bike_id": "e5318c2ed3c7958444848b57284b26d1", "lat": 38.917171333333336, "name": "e5318c2ed3c7958444848b57284b26d1", "fusion_lon": 0.0, "fusion_lat": 0.0, "type": "electric_scooter", "lon": -77.033452}, {"rental_uris": {"android": "https://dc.lft.to/lastmile_qr_scan", "ios": "https://dc.lft.to/lastmile_qr_scan"}, "is_reserved": 0, "is_disabled": 0, "bike_id": "4507fb651979c4e4b73a6fe86cc6cb9f", "lat": 38.917695333333334, "name": "4507fb651979c4e4b73a6fe86cc6cb9f", "fusion_lon": 0.0, "fusion_lat": 0.0, "type": "electric_scooter", "lon": -77.02343533333334}, {"rental_uris": {"android": "https://dc.lft.to/lastmile_qr_scan", "ios": "https://dc.lft.to/lastmile_qr_scan"}, "is_reserved": 0, "is_disabled": 0, "bike_id": "ebab241045cd555875d836ba2129c5a4", "lat": 38.9297775, "name": "ebab241045cd555875d836ba2129c5a4", "fusion_lon": 0.0, "fusion_lat": 0.0, "type": "electric_scooter", "lon": -77.01447866666666}, {"rental_uris": {"android": "https://dc.lft.to/lastmile_qr_scan", "ios": "https://dc.lft.to/lastmile_qr_scan"}, "is_reserved": 0, "is_disabled": 0, "bike_id": "422c29e6f287f351fbb4cda8e9cecf66", "lat": 38.919159, "name": "422c29e6f287f351fbb4cda8e9cecf66", "fusion_lon": 0.0, "fusion_lat": 0.0, "type": "electric_scooter", "lon": -77.0261665}, {"rental_uris": {"android": "https://dc.lft.to/lastmile_qr_scan", "ios": "https://dc.lft.to/lastmile_qr_scan"}, "is_reserved": 0, "is_disabled": 0, "bike_id": "f541ce5be2f14bce011a6a0d80fcb3e6", "lat": 38.914851666666664, "name": "f541ce5be2f14bce011a6a0d80fcb3e6", "fusion_lon": 0.0, "fusion_lat": 0.0, "type": "electric_scooter", "lon": -77.021856}, {"rental_uris": {"android": "https://dc.lft.to/lastmile_qr_scan", "ios": "https://dc.lft.to/lastmile_qr_scan"}, "is_reserved": 0, "is_disabled": 0, "bike_id": "797186e4886c40a57b610d755f94dd13", "lat": 38.8356015, "name": "797186e4886c40a57b610d755f94dd13", "fusion_lon": 0.0, "fusion_lat": 0.0, "type": "electric_scooter", "lon": -76.99496283333333}, {"rental_uris": {"android": "https://dc.lft.to/lastmile_qr_scan", "ios": "https://dc.lft.to/lastmile_qr_scan"}, "is_reserved": 0, "is_disabled": 0, "bike_id": "5ffeccafbb03c907de37f2c6753c01cc", "lat": 38.887982, "name": "5ffeccafbb03c907de37f2c6753c01cc", "fusion_lon": 0.0, "fusion_lat": 0.0, "type": "electric_scooter", "lon": -76.93356433333334}, {"rental_uris": {"android": "https://dc.lft.to/lastmile_qr_scan", "ios": "https://dc.lft.to/lastmile_qr_scan"}, "is_reserved": 0, "is_disabled": 0, "bike_id": "3aee9cee8bf83a0a5a22e84e17665998", "lat": 38.9081315, "name": "3aee9cee8bf83a0a5a22e84e17665998", "fusion_lon": 0.0, "fusion_lat": 0.0, "type": "electric_scooter", "lon": -77.04528566666667}, {"rental_uris": {"android": "https://dc.lft.to/lastmile_qr_scan", "ios": "https://dc.lft.to/lastmile_qr_scan"}, "is_reserved": 0, "is_disabled": 0, "bike_id": "6be255c4e3bd9046c2d07c624a7dc917", "lat": 38.80759916666667, "name": "6be255c4e3bd9046c2d07c624a7dc917", "fusion_lon": 0.0, "fusion_lat": 0.0, "type": "electric_bike", "lon": -77.09469383333334}, {"rental_uris": {"android": "https://dc.lft.to/lastmile_qr_scan", "ios": "https://dc.lft.to/lastmile_qr_scan"}, "is_reserved": 0, "is_disabled": 0, "bike_id": "4f2d2f567ca2ebeef7303fab3b520ab8", "lat": 38.93106383333333, "name": "4f2d2f567ca2ebeef7303fab3b520ab8", "fusion_lon": 0.0, "fusion_lat": 0.0, "type": "electric_scooter", "lon": -77.03802116666667}, {"rental_uris": {"android": "https://dc.lft.to/lastmile_qr_scan", "ios": "https://dc.lft.to/lastmile_qr_scan"}, "is_reserved": 0, "is_disabled": 0, "bike_id": "19db166d04f67f1746a39386a8f9fb03", "lat": 38.89788316666667, "name": "19db166d04f67f1746a39386a8f9fb03", "fusion_lon": 0.0, "fusion_lat": 0.0, "type": "electric_scooter", "lon": -77.05467383333334}, {"rental_uris": {"android": "https://dc.lft.to/lastmile_qr_scan", "ios": "https://dc.lft.to/lastmile_qr_scan"}, "is_reserved": 0, "is_disabled": 0, "bike_id": "0186bdee65937a8d3ea5168cb4b15db9", "lat": 38.91565333333333, "name": "0186bdee65937a8d3ea5168cb4b15db9", "fusion_lon": 0.0, "fusion_lat": 0.0, "type": "electric_scooter", "lon": -77.01992333333334},